{"data": {"bikes": [{"rental_uris": {"android": "https://dc.lft.to/lastmile_qr_scan", "ios": "https://dc.lft.to/lastmile_qr_scan"}, "is_reserved": 0, "is_disabled": 0, "name": "b9ba3c0c53c87361ae0a897982ba3ae5", "bike_id": "b9ba3c0c53c87361ae0a897982ba3ae5", "fusion_lat": 0.0, "lon": -77.0321575, "type": "electric_scooter", "fusion_lon": 0.0, "lat": 38.89223033333333}, {"rental_uris": {"android": "https://dc.lft.to/lastmile_qr_scan", "ios": "https://dc.lft.to/lastmile_qr_scan"}, "is_reserved": 0, "is_disabled": 0, "name": "474965f885a6dd2b14c14a65c70bd4dd", "bike_id": "474965f885a6dd2b14c14a65c70bd4dd", "fusion_lat": 0.0, "lon": -77.02785933333334, "type": "electric_scooter", "fusion_lon": 0.0, "lat": 38.961321833333336}, {"rental_uris": {"android": "https://dc.lft.to/lastmile_qr_scan", "ios": "https://dc.lft.to/lastmile_qr_scan"}, "is_reserved": 0, "is_disabled": 0, "name": "c920e4163835f6605102d131667127fa", "bike_id": "c920e4163835f6605102d131667127fa", "fusion_lat": 0.0, "lon": -76.94663416666667, "type": "electric_scooter", "fusion_lon": 0.0, "lat": 38.8987375}, {"rental_uris": {"android": "https://dc.lft.to/lastmile_qr_scan", "ios": "https://dc.lft.to/lastmile_qr_scan"}, "is_reserved": 0, "is_disabled": 0, "name": "14fddd027d3592387834b2fe47f44a51", "bike_id": "14fddd027d3592387834b2fe47f44a51", "fusion_lat": 0.0, "lon": -77.04693333333333, "type": "electric_scooter", "fusion_lon": 0.0, "lat": 38.896106333333336}, {"rental_uris": {"android": "https://dc.lft.to/lastmile_qr_scan", "ios": "https://dc.lft.to/lastmile_qr_scan"}, "is_reserved": 0, "is_disabled": 0, "name": "00de43bc710b96dff2d3b590ef8e84f6", "bike_id": "00de43bc710b96dff2d3b590ef8e84f6", "fusion_lat": 0.0, "lon": -77.027977, "type": "electric_scooter", "fusion_lon": 0.0, "lat": 38.89236833333333}, {"rental_uris": {"android": "https://dc.lft.to/lastmile_qr_scan", "ios": "https://dc.lft.to/lastmile_qr_scan"}, "is_reserved": 0, "is_disabled": 0, "name": "927ba6113b3bb50478361bdc316e7b28", "bike_id": "927ba6113b3bb50478361bdc316e7b28", "fusion_lat": 0.0, "lon": -77.090896, "type": "electric_scooter", "fusion_lon": 0.0, "lat": 38.931127000000004}, {"rental_uris": {"android": "https://dc.lft.to/lastmile_qr_scan", "ios": "https://dc.lft.to/lastmile_qr_scan"}, "is_reserved": 0, "is_disabled": 0, "name": "93274da909a0cc4c1c28e8b56dcf3c54", "bike_id": "93274da909a0cc4c1c28e8b56dcf3c54", "fusion_lat": 0.0, "lon": -77.03362866666667, "type": "electric_scooter", "fusion_lon": 0.0, "lat": 38.901668}, {"rental_uris": {"android": "https://dc.lft.to/lastmile_qr_scan", "ios": "https://dc.lft.to/lastmile_qr_scan"}, "is_reserved": 0, "is_disabled": 0, "name": "0a3cea241be45228590948e6a1c4ff8b", "bike_id": "0a3cea241be45228590948e6a1c4ff8b", "fusion_lat": 0.0, "lon": -77.0215065, "type": "electric_scooter", "fusion_lon": 0.0, "lat": 38.941399833333335}, {"rental_uris": {"android": "https://dc.lft.to/lastmile_qr_scan", "ios": "https://dc.lft.to/lastmile_qr_scan"}, "is_reserved": 0, "is_disabled": 0, "name": "4bbf6760bc9e544750d2b6bbcf2ea0e5", "bike_id": "4bbf6760bc9e544750d2b6bbcf2ea0e5", "fusion_lat": 0.0, "lon": -77.05336916666667, "type": "electric_scooter", "fusion_lon": 0.0, "lat": 38.906443833333334}, {"rental_uris": {"android": "https://dc.lft.to/lastmile_qr_scan", "ios": "https://dc.lft.to/lastmile_qr_scan"}, "is_reserved": 0, "is_disabled": 0, "name": "f5796d9cde1e9976204acf48a82a204c", "bike_id": "f5796d9cde1e9976204acf48a82a204c", "fusion_lat": 0.0, "lon": -77.02468533333334, "type": "electric_scooter", "fusion_lon": 0.0, "lat": 38.93099566666667}, {"rental_uris": {"android": "https://dc.lft.to/lastmile_qr_scan", "ios": "https://dc.lft.to/lastmile_qr_scan"}, "is_reserved": 0, "is_disabled": 0, "name": "657716470ac33a09d3b3ba67ee9a8d2d", "bike_id": "657716470ac33a09d3b3ba67ee9a8d2d", "fusion_lat": 0.0, "lon": -77.02997283333333, "type": "electric_scooter", "fusion_lon": 0.0, "lat": 38.901371833333336}, {"rental_uris": {"android": "https://dc.lft.to/lastmile_qr_scan", "ios": "https://dc.lft.to/lastmile_qr_scan"}, "is_reserved": 0, "is_disabled": 0, "name": "325a70a2a5ace32530383f3e5ff18057", "bike_id": "325a70a2a5ace32530383f3e5ff18057", "fusion_lat": 0.0, "lon": -77.027598, "type": "electric_scooter", "fusion_lon": 0.0, "lat": 38.95423983333333}, {"rental_uris": {"android": "https://dc.lft.to/lastmile_qr_scan", "ios": "https://dc.lft.to/lastmile_qr_scan"}, "is_reserved": 0, "is_disabled": 0, "name": "ed8b0e77f02bd94c0fbf081ce115fdb9", "bike_id": "ed8b0e77f02bd94c0fbf081ce115fdb9", "fusion_lat": 0.0, "lon": -77.03043383333333, "type": "electric_scooter", "fusion_lon": 0.0, "lat": 38.88429516666667}, {"rental_uris": {"android": "https://dc.lft.to/lastmile_qr_scan", "ios": "https://dc.lft.to/lastmile_qr_scan"}, "is_reserved": 0, "is_disabled": 0, "name": "9418cd3a88a25688f37743cb62b1d4de", "bike_id": "9418cd3a88a25688f37743cb62b1d4de", "fusion_lat": 0.0, "lon": -77.05675766666667, "type": "electric_scooter", "fusion_lon": 0.0, "lat": 38.92338216666667}, {"rental_uris": {"android": "https://dc.lft.to/lastmile_qr_scan", "ios": "https://dc.lft.to/lastmile_qr_scan"}, "is_reserved": 0, "is_disabled": 0, "name": "2f8b43684d3f727ea27865293dc88cae", "bike_id": "2f8b43684d3f727ea27865293dc88cae", "fusion_lat": 0.0, "lon": -77.040726, "type": "electric_scooter", "fusion_lon": 0.0, "lat": 38.907243666666666}, {"rental_uris": {"android": "https://dc.lft.to/lastmile_qr_scan", "ios": "https://dc.lft.to/lastmile_qr_scan"}, "is_reserved": 0, "is_disabled": 0, "name": "97b6f9ba43e5e8c0b9c9ca844b7824b6", "bike_id": "97b6f9ba43e5e8c0b9c9ca844b7824b6", "fusion_lat": 0.0, "lon": -77.07247416666667, "type": "electric_scooter", "fusion_lon": 0.0, "lat": 38.90781533333333}, {"rental_uris": {"android": "https://dc.lft.to/lastmile_qr_scan", "ios": "https://dc.lft.to/lastmile_qr_scan"}, "is_reserved": 0, "is_disabled": 0, "name": "c17f9220cf82dbed130793adad5ca9df", "bike_id": "c17f9220cf82dbed130793adad5ca9df", "fusion_lat": 0.0, "lon": -77.0533105, "type": "electric_scooter", "fusion_lon": 0.0, "lat": 38.9065525}, {"rental_uris": {"android": "https://dc.lft.to/lastmile_qr_scan", "ios": "https://dc.lft.to/lastmile_qr_scan"}, "is_reserved": 0, "is_disabled": 0, "name": "bd5357679810eedf3685c96e8e90017a", "bike_id": "bd5357679810eedf3685c96e8e90017a", "fusion_lat": 0.0, "lon": -77.01022783333333, "type": "electric_scooter", "fusion_lon": 0.0, "lat": 38.9142075}, {"rental_uris": {"android": "https://dc.lft.to/lastmile_qr_scan", "ios": "https://dc.lft.to/lastmile_qr_scan"}, "is_reserved": 0, "is_disabled": 0, "name": "25695eeef6bf96d552634e6258c7c6d6", "bike_id": "25695eeef6bf96d552634e6258c7c6d6", "fusion_lat": 0.0, "lon": -77.0230835, "type": "electric_scooter", "fusion_lon": 0.0, "lat": 38.917402333333335}, {"rental_uris": {"android": "https://dc.lft.to/lastmile_qr_scan", "ios": "https://dc.lft.to/lastmile_qr_scan"}, "is_reserved": 0, "is_disabled": 0, "name": "2fa51053867ea55e893d48252dbf95fd", "bike_id": "2fa51053867ea55e893d48252dbf95fd", "fusion_lat": 0.0, "lon": -77.02061483333334, "type": "electric_scooter", "fusion_lon": 0.0, "lat": 38.923694833333336}, {"rental_uris": {"android": "https://dc.lft.to/lastmile_qr_scan", "ios": "https://dc.lft.to/lastmile_qr_scan"}, "is_reserved": 0, "is_disabled": 0, "name": "c9406bf5c5e8123181dad0da46e55f3d", "bike_id": "c9406bf5c5e8123181dad0da46e55f3d", "fusion_lat": 0.0, "lon": -77.03445666666667, "type": "electric_scooter", "fusion_lon": 0.0, "lat": 38.9169185}, {"rental_uris": {"android": "https://dc.lft.to/lastmile_qr_scan", "ios": "https://dc.lft.to/lastmile_qr_scan"}, "is_reserved": 0, "is_disabled": 0, "name": "b6628587910cb0a95411c87f652408f8", "bike_id": "b6628587910cb0a95411c87f652408f8", "fusion_lat": 0.0, "lon": -76.96843633333333, "type": "electric_bike", "fusion_lon": 0.0, "lat": 38.955421333333334}, {"rental_uris": {"android": "https://dc.lft.to/lastmile_qr_scan", "ios": "https://dc.lft.to/lastmile_qr_scan"}, "is_reserved": 0, "is_disabled": 0, "name": "875903656a90a805dd0dcb1b9a64491c", "bike_id": "875903656a90a805dd0dcb1b9a64491c", "fusion_lat": 0.0, "lon": -76.985582, "type": "electric_scooter", "fusion_lon": 0.0, "lat": 38.896183}, {"rental_uris": {"android": "https://dc.lft.to/lastmile_qr_scan", "ios": "https://dc.lft.to/lastmile_qr_scan"}, "is_reserved": 0, "is_disabled": 0, "name": "b66c117a280769bc6d7f07ed963e1096", "bike_id": "b66c117a280769bc6d7f07ed963e1096", "fusion_lat": 0.0, "lon": -77.02615883333333, "type": "electric_scooter", "fusion_lon": 0.0, "lat": 38.95188816666667}, {"rental_uris": {"android": "https://dc.lft.to/lastmile_qr_scan", "ios": "https://dc.lft.to/lastmile_qr_scan"}, "is_reserved": 0, "is_disabled": 0, "name": "d7e04213457d8b0ca9e5ccbaa985de73", "bike_id": "d7e04213457d8b0ca9e5ccbaa985de73", "fusion_lat": 0.0, "lon": -77.0194195, "type": "electric_scooter", "fusion_lon": 0.0, "lat": 38.924209166666664}, {"rental_uris": {"android": "https://dc.lft.to/lastmile_qr_scan", "ios": "https://dc.lft.to/lastmile_qr_scan"}, "is_reserved": 0, "is_disabled": 0, "name": "c617a050c3efe261352f3bfeb87f26c3", "bike_id": "c617a050c3efe261352f3bfeb87f26c3", "fusion_lat": 0.0, "lon": -76.99909983333333, "type": "electric_bike", "fusion_lon": 0.0, "lat": 38.86452283333333}, {"rental_uris": {"android": "https://dc.lft.to/lastmile_qr_scan", "ios": "https://dc.lft.to/lastmile_qr_scan"}, "is_reserved": 0, "is_disabled": 0, "name": "225dedad320bcb3cd0d8821e08553065", "bike_id": "225dedad320bcb3cd0d8821e08553065", "fusion_lat": 0.0, "lon": -77.06236416666667, "type": "electric_scooter", "fusion_lon": 0.0, "lat": 38.911588}, {"rental_uris": {"android": "https://dc.lft.to/lastmile_qr_scan", "ios": "https://dc.lft.to/lastmile_qr_scan"}, "is_reserved": 0, "is_disabled": 0, "name": "457b0acce27bab2da6bfc387a1c4207c", "bike_id": "457b0acce27bab2da6bfc387a1c4207c", "fusion_lat": 0.0, "lon": -77.01765083333333, "type": "electric_scooter", "fusion_lon": 0.0, "lat": 38.90301633333333}, {"rental_uris": {"android": "https://dc.lft.to/lastmile_qr_scan", "ios": "https://dc.lft.to/lastmile_qr_scan"}, "is_reserved": 0, "is_disabled": 0, "name": "92c90ce056b6d53580acf104ea92534d", "bike_id": "92c90ce056b6d53580acf104ea92534d", "fusion_lat": 0.0, "lon": -76.930184, "type": "electric_scooter", "fusion_lon": 0.0, "lat": 38.901321833333334}, {"rental_uris": {"android": "https://dc.lft.to/lastmile_qr_scan", "ios": "https://dc.lft.to/lastmile_qr_scan"}, "is_reserved": 0, "is_disabled": 0, "name": "fb348717223185c9b87b51b0d18d7645", "bike_id": "fb348717223185c9b87b51b0d18d7645", "fusion_lat": 0.0, "lon": -77.03278383333334, "type": "electric_scooter", "fusion_lon": 0.0, "lat": 38.9325065}, {"rental_uris": {"android": "https://dc.lft.to/lastmile_qr_scan", "ios": "https://dc.lft.to/lastmile_qr_scan"}, "is_reserved": 0, "is_disabled": 0, "name": "a8eb2415d16e90520f838cea3a972888", "bike_id": "a8eb2415d16e90520f838cea3a972888", "fusion_lat": 0.0, "lon": -77.01584583333333, "type": "electric_scooter", "fusion_lon": 0.0, "lat": 38.92054916666667}, {"rental_uris": {"android": "https://dc.lft.to/lastmile_qr_scan", "ios": "https://dc.lft.to/lastmile_qr_scan"}, "is_reserved": 0, "is_disabled": 0, "name": "ca35e5755fc98ba8d9974a7510aea05e", "bike_id": "ca35e5755fc98ba8d9974a7510aea05e", "fusion_lat": 0.0, "lon": -77.03306933333333, "type": "electric_scooter", "fusion_lon": 0.0, "lat": 38.927582666666666}, {"rental_uris": {"android": "https://dc.lft.to/lastmile_qr_scan", "ios": "https://dc.lft.to/lastmile_qr_scan"}, "is_reserved": 0, "is_disabled": 0, "name": "d105a718c8a9966f4cf0a9518eb6b7f8", "bike_id": "d105a718c8a9966f4cf0a9518eb6b7f8", "fusion_lat": 0.0, "lon": -76.99564666666667, "type": "electric_scooter", "fusion_lon": 0.0, "lat": 38.90028683333333}, {"rental_uris": {"android": "https://dc.lft.to/lastmile_qr_scan", "ios": "https://dc.lft.to/lastmile_qr_scan"}, "is_reserved": 0, "is_disabled": 0, "name": "d082f451995d84fb2142edfa3d706dbf", "bike_id": "d082f451995d84fb2142edfa3d706dbf", "fusion_lat": 0.0, "lon": -77.02474933333333, "type": "electric_scooter", "fusion_lon": 0.0, "lat": 38.90167683333333}, {"rental_uris": {"android": "https://dc.lft.to/lastmile_qr_scan", "ios": "https://dc.lft.to/lastmile_qr_scan"}, "is_reserved": 0, "is_disabled": 0, "name": "235e0f105a8a03f1b2df0e02720e2952", "bike_id": "235e0f105a8a03f1b2df0e02720e2952", "fusion_lat": 0.0, "lon": -77.00414733333334, "type": "electric_bike", "fusion_lon": 0.0, "lat": 38.9853025}, {"rental_uris": {"android": "https://dc.lft.to/lastmile_qr_scan", "ios": "https://dc.lft.to/lastmile_qr_scan"}, "is_reserved": 0, "is_disabled": 0, "name": "612b7f36ee4221c907ba881a3da1240f", "bike_id": "612b7f36ee4221c907ba881a3da1240f", "fusion_lat": 0.0, "lon": -77.04674683333333, "type": "electric_scooter", "fusion_lon": 0.0, "lat": 38.89956683333333}, {"rental_uris": {"android": "https://dc.lft.to/lastmile_qr_scan", "ios": "https://dc.lft.to/lastmile_qr_scan"}, "is_reserved": 0, "is_disabled": 0, "name": "2821dc76ded06e9f2f080a68ef564c56", "bike_id": "2821dc76ded06e9f2f080a68ef564c56", "fusion_lat": 0.0, "lon": -77.02155166666667, "type": "electric_scooter", "fusion_lon": 0.0, "lat": 38.92606416666667}, {"rental_uris": {"android": "https://dc.lft.to/lastmile_qr_scan", "ios": "https://dc.lft.to/lastmile_qr_scan"}, "is_reserved": 0, "is_disabled": 0, "name": "129b0b3a8aee128091e15798f00dc0c2", "bike_id": "129b0b3a8aee128091e15798f00dc0c2", "fusion_lat": 0.0, "lon": -77.0590665, "type": "electric_scooter", "fusion_lon": 0.0, "lat": 38.92898683333333}, {"rental_uris": {"android": "https://dc.lft.to/lastmile_qr_scan", "ios": "https://dc.lft.to/lastmile_qr_scan"}, "is_reserved": 0, "is_disabled": 0, "name": "954d3708fe2397415fa86358b1fa9063", "bike_id": "954d3708fe2397415fa86358b1fa9063", "fusion_lat": 0.0, "lon": -77.0195725, "type": "electric_scooter", "fusion_lon": 0.0, "lat": 38.93428566666667}, {"rental_uris": {"android": "https://dc.lft.to/lastmile_qr_scan", "ios": "https://dc.lft.to/lastmile_qr_scan"}, "is_reserved": 0, "is_disabled": 0, "name": "2c746dbb4a39ccb816aef50c36e699bf", "bike_id": "2c746dbb4a39ccb816aef50c36e699bf", "fusion_lat": 0.0, "lon": -77.04503266666667, "type": "electric_scooter", "fusion_lon": 0.0, "lat": 38.90030933333333}, {"rental_uris": {"android": "https://dc.lft.to/lastmile_qr_scan", "ios": "https://dc.lft.to/lastmile_qr_scan"}, "is_reserved": 0, "is_disabled": 0, "name": "23683b40f2337c3bc9e3aa4fd84ecdd6", "bike_id": "23683b40f2337c3bc9e3aa4fd84ecdd6", "fusion_lat": 0.0, "lon": -77.02028283333334, "type": "electric_scooter", "fusion_lon": 0.0, "lat": 38.922155000000004}, {"rental_uris": {"android": "https://dc.lft.to/lastmile_qr_scan", "ios": "https://dc.lft.to/lastmile_qr_scan"}, "is_reserved": 0, "is_disabled": 0, "name": "6f421083f647a94e408bb999b5c10c2f", "bike_id": "6f421083f647a94e408bb999b5c10c2f", "fusion_lat": 0.0, "lon": -77.0059055, "type": "electric_scooter", "fusion_lon": 0.0, "lat": 38.905842666666665}, {"rental_uris": {"android": "https://dc.lft.to/lastmile_qr_scan", "ios": "https://dc.lft.to/lastmile_qr_scan"}, "is_reserved": 0, "is_disabled": 0, "name": "7587ddb26aa02880dcc24506b34435d2", "bike_id": "7587ddb26aa02880dcc24506b34435d2", "fusion_lat": 0.0, "lon": -77.04234833333334, "type": "electric_scooter", "fusion_lon": 0.0, "lat": 38.9221315}, {"rental_uris": {"android": "https://dc.lft.to/lastmile_qr_scan", "ios": "https://dc.lft.to/lastmile_qr_scan"}, "is_reserved": 0, "is_disabled": 0, "name": "a9d41a274999ad78bfccda92a5249c39", "bike_id": "a9d41a274999ad78bfccda92a5249c39", "fusion_lat": 0.0, "lon": -77.0461435, "type": "electric_scooter", "fusion_lon": 0.0, "lat": 38.909695666666664}, {"rental_uris": {"android": "https://dc.lft.to/lastmile_qr_scan", "ios": "https://dc.lft.to/lastmile_qr_scan"}, "is_reserved": 0, "is_disabled": 0, "name": "0cabe15fa26824b51c61f8a074036036", "bike_id": "0cabe15fa26824b51c61f8a074036036", "fusion_lat": 0.0, "lon": -77.02128483333334, "type": "electric_scooter", "fusion_lon": 0.0, "lat": 38.9241535}, {"rental_uris": {"android": "https://dc.lft.to/lastmile_qr_scan", "ios": "https://dc.lft.to/lastmile_qr_scan"}, "is_reserved": 0, "is_disabled": 0, "name": "121af40b4f14b37076392319fd7128b9", "bike_id": "121af40b4f14b37076392319fd7128b9", "fusion_lat": 0.0, "lon": -77.027757, "type": "electric_scooter", "fusion_lon": 0.0, "lat": 38.95308433333334}, {"rental_uris": {"android": "https://dc.lft.to/lastmile_qr_scan", "ios": "https://dc.lft.to/lastmile_qr_scan"}, "is_reserved": 0, "is_disabled": 0, "name": "35fcfee03ca68b1485c388d0b3619df0", "bike_id": "35fcfee03ca68b1485c388d0b3619df0", "fusion_lat": 0.0, "lon": -77.04994733333334, "type": "electric_scooter", "fusion_lon": 0.0, "lat": 38.897391666666664}, {"rental_uris": {"android": "https://dc.lft.to/lastmile_qr_scan", "ios": "https://dc.lft.to/lastmile_qr_scan"}, "is_reserved": 0, "is_disabled": 0, "name": "ba658907cd20eea7843e0c5363a57357", "bike_id": "ba658907cd20eea7843e0c5363a57357", "fusion_lat": 0.0, "lon": -77.02473716666667, "type": "electric_scooter", "fusion_lon": 0.0, "lat": 38.91817866666667}, {"rental_uris": {"android": "https://dc.lft.to/lastmile_qr_scan", "ios": "https://dc.lft.to/lastmile_qr_scan"}, "is_reserved": 0, "is_disabled": 0, "name": "80c3a04f39740fc1accb650cbbe08ce1", "bike_id": "80c3a04f39740fc1accb650cbbe08ce1", "fusion_lat": 0.0, "lon": -77.01886833333333, "type": "electric_scooter", "fusion_lon": 0.0, "lat": 38.897513000000004}, {"rental_uris": {"android": "https://dc.lft.to/lastmile_qr_scan", "ios": "https://dc.lft.to/lastmile_qr_scan"}, "is_reserved": 0, "is_disabled": 0, "name": "2a18cf564f4be5f55edf97fec405d055", "bike_id": "2a18cf564f4be5f55edf97fec405d055", "fusion_lat": 0.0, "lon": -77.03972916666666, "type": "electric_scooter", "fusion_lon": 0.0, "lat": 38.901428}, {"rental_uris": {"android": "https://dc.lft.to/lastmile_qr_scan", "ios": "https://dc.lft.to/lastmile_qr_scan"}, "is_reserved": 0, "is_disabled": 0, "name": "82a5719294bf694f0c88cf71d418bc3e", "bike_id": "82a5719294bf694f0c88cf71d418bc3e", "fusion_lat": 0.0, "lon": -77.04338016666667, "type": "electric_scooter", "fusion_lon": 0.0, "lat": 38.91091333333333}, {"rental_uris": {"android": "https://dc.lft.to/lastmile_qr_scan", "ios": "https://dc.lft.to/lastmile_qr_scan"}, "is_reserved": 0, "is_disabled": 0, "name": "4865943dcfc8553d9a4f537e8bda8e6c", "bike_id": "4865943dcfc8553d9a4f537e8bda8e6c", "fusion_lat": 0.0, "lon": -77.02375333333333, "type": "electric_scooter", "fusion_lon": 0.0, "lat": 38.89223583333333}, {"rental_uris": {"android": "https://dc.lft.to/lastmile_qr_scan", "ios": "https://dc.lft.to/lastmile_qr_scan"}, "is_reserved": 0, "is_disabled": 0, "name": "1dcb4a52ff1fcd9c6d2700ba4fb774df", "bike_id": "1dcb4a52ff1fcd9c6d2700ba4fb774df", "fusion_lat": 0.0, "lon": -77.03273033333333, "type": "electric_scooter", "fusion_lon": 0.0, "lat": 38.89848166666667}, {"rental_uris": {"android": "https://dc.lft.to/lastmile_qr_scan", "ios": "https://dc.lft.to/lastmile_qr_scan"}, "is_reserved": 0, "is_disabled": 0, "name": "55f8564541fa001273e835cc556d6881", "bike_id": "55f8564541fa001273e835cc556d6881", "fusion_lat": 0.0, "lon": -77.04758016666666, "type": "electric_scooter", "fusion_lon": 0.0, "lat": 38.900931666666665}, {"rental_uris": {"android": "https://dc.lft.to/lastmile_qr_scan", "ios": "https://dc.lft.to/lastmile_qr_scan"}, "is_reserved": 0, "is_disabled": 0, "name": "b7534a86eb1f946c60c204784c5eb041", "bike_id": "b7534a86eb1f946c60c204784c5eb041", "fusion_lat": 0.0, "lon": -77.01919633333333, "type": "electric_scooter", "fusion_lon": 0.0, "lat": 38.91724683333333}, {"rental_uris": {"android": "https://dc.lft.to/lastmile_qr_scan", "ios": "https://dc.lft.to/lastmile_qr_scan"}, "is_reserved": 0, "is_disabled": 0, "name": "bfc597a7c65459ea814bea335b1a6825", "bike_id": "bfc597a7c65459ea814bea335b1a6825", "fusion_lat": 0.0, "lon": -77.02923166666666, "type": "electric_scooter", "fusion_lon": 0.0, "lat": 38.94286816666666}, {"rental_uris": {"android": "https://dc.lft.to/lastmile_qr_scan", "ios": "https://dc.lft.to/lastmile_qr_scan"}, "is_reserved": 0, "is_disabled": 0, "name": "bf1ec9080fdfaae8bcfa09da9fe65d5c", "bike_id": "bf1ec9080fdfaae8bcfa09da9fe65d5c", "fusion_lat": 0.0, "lon": -77.022579, "type": "electric_scooter", "fusion_lon": 0.0, "lat": 38.896299666666664}, {"rental_uris": {"android": "https://dc.lft.to/lastmile_qr_scan", "ios": "https://dc.lft.to/lastmile_qr_scan"}, "is_reserved": 0, "is_disabled": 0, "name": "46e6ee73f4875c3dbf773de0895387fe", "bike_id": "46e6ee73f4875c3dbf773de0895387fe", "fusion_lat": 0.0, "lon": -77.03356566666666, "type": "electric_scooter", "fusion_lon": 0.0, "lat": 38.90140533333334}, {"rental_uris": {"android": "https://dc.lft.to/lastmile_qr_scan", "ios": "https://dc.lft.to/lastmile_qr_scan"}, "is_reserved": 0, "is_disabled": 0, "name": "b3a5f83dc9c5b874628001442c21b48c", "bike_id": "b3a5f83dc9c5b874628001442c21b48c", "fusion_lat": 0.0, "lon": -77.00600783333333, "type": "electric_scooter", "fusion_lon": 0.0, "lat": 38.871844333333335}, {"rental_uris": {"android": "https://dc.lft.to/lastmile_qr_scan", "ios": "https://dc.lft.to/lastmile_qr_scan"}, "is_reserved": 0, "is_disabled": 0, "name": "cba8a9184b1349b920d9de4b17fd230f", "bike_id": "cba8a9184b1349b920d9de4b17fd230f", "fusion_lat": 0.0, "lon": -77.0422245, "type": "electric_scooter", "fusion_lon": 0.0, "lat": 38.92161016666667}, {"rental_uris": {"android": "https://dc.lft.to/lastmile_qr_scan", "ios": "https://dc.lft.to/lastmile_qr_scan"}, "is_reserved": 0, "is_disabled": 0, "name": "874ae619244d601b424f8da6787ce397", "bike_id": "874ae619244d601b424f8da6787ce397", "fusion_lat": 0.0, "lon": -77.01561466666666, "type": "electric_scooter", "fusion_lon": 0.0, "lat": 38.88338316666667}, {"rental_uris": {"android": "https://dc.lft.to/lastmile_qr_scan", "ios": "https://dc.lft.to/lastmile_qr_scan"}, "is_reserved": 0, "is_disabled": 0, "name": "0ed7e5b634b4af3cc775fdb45ac0a569", "bike_id": "0ed7e5b634b4af3cc775fdb45ac0a569", "fusion_lat": 0.0, "lon": -77.04487283333333, "type": "electric_scooter", "fusion_lon": 0.0, "lat": 38.913669666666664}, {"rental_uris": {"android": "https://dc.lft.to/lastmile_qr_scan", "ios": "https://dc.lft.to/lastmile_qr_scan"}, "is_reserved": 0, "is_disabled": 0, "name": "52c8b3a829297868134662af92187453", "bike_id": "52c8b3a829297868134662af92187453", "fusion_lat": 0.0, "lon": -77.0131035, "type": "electric_scooter", "fusion_lon": 0.0, "lat": 38.897463}, {"rental_uris": {"android": "https://dc.lft.to/lastmile_qr_scan", "ios": "https://dc.lft.to/lastmile_qr_scan"}, "is_reserved": 0, "is_disabled": 0, "name": "59a399639fccf583a89cf82ce213b454", "bike_id": "59a399639fccf583a89cf82ce213b454", "fusion_lat": 0.0, "lon": -76.95059833333333, "type": "electric_bike", "fusion_lon": 0.0, "lat": 39.08512066666667}, {"rental_uris": {"android": "https://dc.lft.to/lastmile_qr_scan", "ios": "https://dc.lft.to/lastmile_qr_scan"}, "is_reserved": 0, "is_disabled": 0, "name": "388a20a724a5fe4245ba76d3d31b6511", "bike_id": "388a20a724a5fe4245ba76d3d31b6511", "fusion_lat": 0.0, "lon": -77.04466916666667, "type": "electric_scooter", "fusion_lon": 0.0, "lat": 38.90135716666666}, {"rental_uris": {"android": "https://dc.lft.to/lastmile_qr_scan", "ios": "https://dc.lft.to/lastmile_qr_scan"}, "is_reserved": 0, "is_disabled": 0, "name": "5a1bad0e68a3fb261367985e9e10f644", "bike_id": "5a1bad0e68a3fb261367985e9e10f644", "fusion_lat": 0.0, "lon": -77.00570666666667, "type": "electric_scooter", "fusion_lon": 0.0, "lat": 38.88520483333333}, {"rental_uris": {"android": "https://dc.lft.to/lastmile_qr_scan", "ios": "https://dc.lft.to/lastmile_qr_scan"}, "is_reserved": 0, "is_disabled": 0, "name": "4f8672dcdb4848ad02fc60d751571b7a", "bike_id": "4f8672dcdb4848ad02fc60d751571b7a", "fusion_lat": 0.0, "lon": -77.039656, "type": "electric_scooter", "fusion_lon": 0.0, "lat": 38.902447333333335}, {"rental_uris": {"android": "https://dc.lft.to/lastmile_qr_scan", "ios": "https://dc.lft.to/lastmile_qr_scan"}, "is_reserved": 0, "is_disabled": 0, "name": "716cc686fcb0a00e74cf9e336a3748f4", "bike_id": "716cc686fcb0a00e74cf9e336a3748f4", "fusion_lat": 0.0, "lon": -77.0518985, "type": "electric_scooter", "fusion_lon": 0.0, "lat": 38.9033185}, {"rental_uris": {"android": "https://dc.lft.to/lastmile_qr_scan", "ios": "https://dc.lft.to/lastmile_qr_scan"}, "is_reserved": 0, "is_disabled": 0, "name": "427dff9a416419de120c566ed06e67cb", "bike_id": "427dff9a416419de120c566ed06e67cb", "fusion_lat": 0.0, "lon": -77.02993466666666, "type": "electric_bike", "fusion_lon": 0.0, "lat": 38.9003095}, {"rental_uris": {"android": "https://dc.lft.to/lastmile_qr_scan", "ios": "https://dc.lft.to/lastmile_qr_scan"}, "is_reserved": 0, "is_disabled": 0, "name": "ed58539850e96e55062facf134d9d527", "bike_id": "ed58539850e96e55062facf134d9d527", "fusion_lat": 0.0, "lon": -77.04500233333333, "type": "electric_scooter", "fusion_lon": 0.0, "lat": 38.89228966666667}, {"rental_uris": {"android": "https://dc.lft.to/lastmile_qr_scan", "ios": "https://dc.lft.to/lastmile_qr_scan"}, "is_reserved": 0, "is_disabled": 0, "name": "4366d350b4b58c48e69ed9e7f28f1680", "bike_id": "4366d350b4b58c48e69ed9e7f28f1680", "fusion_lat": 0.0, "lon": -77.04610883333334, "type": "electric_scooter", "fusion_lon": 0.0, "lat": 38.90258333333333}, {"rental_uris": {"android": "https://dc.lft.to/lastmile_qr_scan", "ios": "https://dc.lft.to/lastmile_qr_scan"}, "is_reserved": 0, "is_disabled": 0, "name": "6bdbce5b18796faaf571f1ebf5f1208f", "bike_id": "6bdbce5b18796faaf571f1ebf5f1208f", "fusion_lat": 0.0, "lon": -77.033577, "type": "electric_scooter", "fusion_lon": 0.0, "lat": 38.90015416666667}, {"rental_uris": {"android": "https://dc.lft.to/lastmile_qr_scan", "ios": "https://dc.lft.to/lastmile_qr_scan"}, "is_reserved": 0, "is_disabled": 0, "name": "41f668edb794cf71f270f814a64ac5bc", "bike_id": "41f668edb794cf71f270f814a64ac5bc", "fusion_lat": 0.0, "lon": -77.0248345, "type": "electric_scooter", "fusion_lon": 0.0, "lat": 38.94193466666667}, {"rental_uris": {"android": "https://dc.lft.to/lastmile_qr_scan", "ios": "https://dc.lft.to/lastmile_qr_scan"}, "is_reserved": 0, "is_disabled": 0, "name": "46ad6babe967ac87b24c547bcac646da", "bike_id": "46ad6babe967ac87b24c547bcac646da", "fusion_lat": 0.0, "lon": -77.053328, "type": "electric_scooter", "fusion_lon": 0.0, "lat": 38.90005683333333}, {"rental_uris": {"android": "https://dc.lft.to/lastmile_qr_scan", "ios": "https://dc.lft.to/lastmile_qr_scan"}, "is_reserved": 0, "is_disabled": 0, "name": "de26ed899cff7ca2a0236bdc8ec046d2", "bike_id": "de26ed899cff7ca2a0236bdc8ec046d2", "fusion_lat": 0.0, "lon": -77.0321135, "type": "electric_scooter", "fusion_lon": 0.0, "lat": 38.920763}, {"rental_uris": {"android": "https://dc.lft.to/lastmile_qr_scan", "ios": "https://dc.lft.to/lastmile_qr_scan"}, "is_reserved": 0, "is_disabled": 0, "name": "5ba9090cd63f06473d7bf2d55c459b22", "bike_id": "5ba9090cd63f06473d7bf2d55c459b22", "fusion_lat": 0.0, "lon": -76.980127, "type": "electric_bike", "fusion_lon": 0.0, "lat": 38.853209}, {"rental_uris": {"android": "https://dc.lft.to/lastmile_qr_scan", "ios": "https://dc.lft.to/lastmile_qr_scan"}, "is_reserved": 0, "is_disabled": 0, "name": "20c061200c83132e9f0f236df7611639", "bike_id": "20c061200c83132e9f0f236df7611639", "fusion_lat": 0.0, "lon": -77.01984983333334, "type": "electric_scooter", "fusion_lon": 0.0, "lat": 38.930215833333335}, {"rental_uris": {"android": "https://dc.lft.to/lastmile_qr_scan", "ios": "https://dc.lft.to/lastmile_qr_scan"}, "is_reserved": 0, "is_disabled": 0, "name": "12b649b6c389e9e9bc2f93fa1a31480f", "bike_id": "12b649b6c389e9e9bc2f93fa1a31480f", "fusion_lat": 0.0, "lon": -77.006114, "type": "electric_scooter", "fusion_lon": 0.0, "lat": 38.90582116666667}, {"rental_uris": {"android": "https://dc.lft.to/lastmile_qr_scan", "ios": "https://dc.lft.to/lastmile_qr_scan"}, "is_reserved": 0, "is_disabled": 0, "name": "1b83142ce5bf873435d60734512ffefe", "bike_id": "1b83142ce5bf873435d60734512ffefe", "fusion_lat": 0.0, "lon": -76.98242483333334, "type": "electric_bike", "fusion_lon": 0.0, "lat": 38.952404666666666}, {"rental_uris": {"android": "https://dc.lft.to/lastmile_qr_scan", "ios": "https://dc.lft.to/lastmile_qr_scan"}, "is_reserved": 0, "is_disabled": 0, "name": "5d0ad6d5debdf24c38d348fbcb80d2ff", "bike_id": "5d0ad6d5debdf24c38d348fbcb80d2ff", "fusion_lat": 0.0, "lon": -77.02334333333333, "type": "electric_scooter", "fusion_lon": 0.0, "lat": 38.942979333333334}, {"rental_uris": {"android": "https://dc.lft.to/lastmile_qr_scan", "ios": "https://dc.lft.to/lastmile_qr_scan"}, "is_reserved": 0, "is_disabled": 0, "name": "441739a806c85500be18ca04a42a0287", "bike_id": "441739a806c85500be18ca04a42a0287", "fusion_lat": 0.0, "lon": -77.03184433333334, "type": "electric_scooter", "fusion_lon": 0.0, "lat": 38.920421}, {"rental_uris": {"android": "https://dc.lft.to/lastmile_qr_scan", "ios": "https://dc.lft.to/lastmile_qr_scan"}, "is_reserved": 0, "is_disabled": 0, "name": "5fa8e1c55915c166af667fd1f6d65ed3", "bike_id": "5fa8e1c55915c166af667fd1f6d65ed3", "fusion_lat": 0.0, "lon": -77.02266216666666, "type": "electric_scooter", "fusion_lon": 0.0, "lat": 38.8997715}, {"rental_uris": {"android": "https://dc.lft.to/lastmile_qr_scan", "ios": "https://dc.lft.to/lastmile_qr_scan"}, "is_reserved": 0, "is_disabled": 0, "name": "8a17c9da9011cf4629d81178561437af", "bike_id": "8a17c9da9011cf4629d81178561437af", "fusion_lat": 0.0, "lon": -77.031714, "type": "electric_scooter", "fusion_lon": 0.0, "lat": 38.91422583333333}, {"rental_uris": {"android": "https://dc.lft.to/lastmile_qr_scan", "ios": "https://dc.lft.to/lastmile_qr_scan"}, "is_reserved": 0, "is_disabled": 0, "name": "c59c2bfeb81c6df8aa38524c082de999", "bike_id": "c59c2bfeb81c6df8aa38524c082de999", "fusion_lat": 0.0, "lon": -77.03342466666666, "type": "electric_scooter", "fusion_lon": 0.0, "lat": 38.8991065}, {"rental_uris": {"android": "https://dc.lft.to/lastmile_qr_scan", "ios": "https://dc.lft.to/lastmile_qr_scan"}, "is_reserved": 0, "is_disabled": 0, "name": "b10aa1dbfcb49d9d7a223a021852094c", "bike_id": "b10aa1dbfcb49d9d7a223a021852094c", "fusion_lat": 0.0, "lon": -77.07147216666667, "type": "electric_scooter", "fusion_lon": 0.0, "lat": 38.907758666666666}, {"rental_uris": {"android": "https://dc.lft.to/lastmile_qr_scan", "ios": "https://dc.lft.to/lastmile_qr_scan"}, "is_reserved": 0, "is_disabled": 0, "name": "2def00375da319b7a386829926ed0787", "bike_id": "2def00375da319b7a386829926ed0787", "fusion_lat": 0.0, "lon": -77.03242766666666, "type": "electric_scooter", "fusion_lon": 0.0, "lat": 38.896862}, {"rental_uris": {"android": "https://dc.lft.to/lastmile_qr_scan", "ios": "https://dc.lft.to/lastmile_qr_scan"}, "is_reserved": 0, "is_disabled": 0, "name": "c6e4b4ab33ad7aabe03b96cd7f74d0b0", "bike_id": "c6e4b4ab33ad7aabe03b96cd7f74d0b0", "fusion_lat": 0.0, "lon": -77.04301133333334, "type": "electric_scooter", "fusion_lon": 0.0, "lat": 38.9233265}, {"rental_uris": {"android": "https://dc.lft.to/lastmile_qr_scan", "ios": "https://dc.lft.to/lastmile_qr_scan"}, "is_reserved": 0, "is_disabled": 0, "name": "c8407fa8b8b49c941557fc9ccf6a003c", "bike_id": "c8407fa8b8b49c941557fc9ccf6a003c", "fusion_lat": 0.0, "lon": -77.02173833333333, "type": "electric_scooter", "fusion_lon": 0.0, "lat": 38.900023833333336}, {"rental_uris": {"android": "https://dc.lft.to/lastmile_qr_scan", "ios": "https://dc.lft.to/lastmile_qr_scan"}, "is_reserved": 0, "is_disabled": 0, "name": "1a8aeb869135a54375d214830a367f61", "bike_id": "1a8aeb869135a54375d214830a367f61", "fusion_lat": 0.0, "lon": -76.97742233333334, "type": "electric_bike", "fusion_lon": 0.0, "lat": 38.8648455}, {"rental_uris": {"android": "https://dc.lft.to/lastmile_qr_scan", "ios": "https://dc.lft.to/lastmile_qr_scan"}, "is_reserved": 0, "is_disabled": 0, "name": "33bc19f9a76b80cae006ff36a5d7c619", "bike_id": "33bc19f9a76b80cae006ff36a5d7c619", "fusion_lat": 0.0, "lon": -77.02306233333333, "type": "electric_scooter", "fusion_lon": 0.0, "lat": 38.901876}, {"rental_uris": {"android": "https://dc.lft.to/lastmile_qr_scan", "ios": "https://dc.lft.to/lastmile_qr_scan"}, "is_reserved": 0, "is_disabled": 0, "name": "6ac05bf6ddbc6dc13fbb5c9462123b4a", "bike_id": "6ac05bf6ddbc6dc13fbb5c9462123b4a", "fusion_lat": 0.0, "lon": -77.02826366666666, "type": "electric_scooter", "fusion_lon": 0.0, "lat": 38.90275483333333}, {"rental_uris": {"android": "https://dc.lft.to/lastmile_qr_scan", "ios": "https://dc.lft.to/lastmile_qr_scan"}, "is_reserved": 0, "is_disabled": 0, "name": "ea0c5e7f09543253c56d5f081a4bf5a1", "bike_id": "ea0c5e7f09543253c56d5f081a4bf5a1", "fusion_lat": 0.0, "lon": -77.0194545, "type": "electric_scooter", "fusion_lon": 0.0, "lat": 38.9233595}, {"rental_uris": {"android": "https://dc.lft.to/lastmile_qr_scan", "ios": "https://dc.lft.to/lastmile_qr_scan"}, "is_reserved": 0, "is_disabled": 0, "name": "7b33cbbff5c94923a84869258492221e", "bike_id": "7b33cbbff5c94923a84869258492221e", "fusion_lat": 0.0, "lon": -77.03227316666667, "type": "electric_scooter", "fusion_lon": 0.0, "lat": 38.896762833333334}, {"rental_uris": {"android": "https://dc.lft.to/lastmile_qr_scan", "ios": "https://dc.lft.to/lastmile_qr_scan"}, "is_reserved": 0, "is_disabled": 0, "name": "3a5d7e40f08b914d50c256c4a1e65e0e", "bike_id": "3a5d7e40f08b914d50c256c4a1e65e0e", "fusion_lat": 0.0, "lon": -77.07565416666667, "type": "electric_scooter", "fusion_lon": 0.0, "lat": 38.90742766666666}, {"rental_uris": {"android": "https://dc.lft.to/lastmile_qr_scan", "ios": "https://dc.lft.to/lastmile_qr_scan"}, "is_reserved": 0, "is_disabled": 0, "name": "e09c8d0cd00c0f6ed5e362b69fcc26bf", "bike_id": "e09c8d0cd00c0f6ed5e362b69fcc26bf", "fusion_lat": 0.0, "lon": -77.00797116666666, "type": "electric_scooter", "fusion_lon": 0.0, "lat": 38.926844}, {"rental_uris": {"android": "https://dc.lft.to/lastmile_qr_scan", "ios": "https://dc.lft.to/lastmile_qr_scan"}, "is_reserved": 0, "is_disabled": 0, "name": "9a910932f31b0ae1e3436fe494ba06c1", "bike_id": "9a910932f31b0ae1e3436fe494ba06c1", "fusion_lat": 0.0, "lon": -77.02410516666667, "type": "electric_scooter", "fusion_lon": 0.0, "lat": 38.911011333333335}, {"rental_uris": {"android": "https://dc.lft.to/lastmile_qr_scan", "ios": "https://dc.lft.to/lastmile_qr_scan"}, "is_reserved": 0, "is_disabled": 0, "name": "95b8170219750bfe7d3205bfd37327e1", "bike_id": "95b8170219750bfe7d3205bfd37327e1", "fusion_lat": 0.0, "lon": -77.02694966666667, "type": "electric_scooter", "fusion_lon": 0.0, "lat": 38.90073733333333}, {"rental_uris": {"android": "https://dc.lft.to/lastmile_qr_scan", "ios": "https://dc.lft.to/lastmile_qr_scan"}, "is_reserved": 0, "is_disabled": 0, "name": "ced284fad8c14df64bfcbf0de753319b", "bike_id": "ced284fad8c14df64bfcbf0de753319b", "fusion_lat": 0.0, "lon": -77.06252733333334, "type": "electric_bike", "fusion_lon": 0.0, "lat": 38.8063655}, {"rental_uris": {"android": "https://dc.lft.to/lastmile_qr_scan", "ios": "https://dc.lft.to/lastmile_qr_scan"}, "is_reserved": 0, "is_disabled": 0, "name": "fb74e5d30c269cd87575e01ee36f1ec4", "bike_id": "fb74e5d30c269cd87575e01ee36f1ec4", "fusion_lat": 0.0, "lon": -76.99520766666667, "type": "electric_scooter", "fusion_lon": 0.0, "lat": 38.88385}, {"rental_uris": {"android": "https://dc.lft.to/lastmile_qr_scan", "ios": "https://dc.lft.to/lastmile_qr_scan"}, "is_reserved": 0, "is_disabled": 0, "name": "6976a58995d69d2d27f6dc22d8734f62", "bike_id": "6976a58995d69d2d27f6dc22d8734f62", "fusion_lat": 0.0, "lon": -77.05214083333334, "type": "electric_scooter", "fusion_lon": 0.0, "lat": 38.902659666666665}, {"rental_uris": {"android": "https://dc.lft.to/lastmile_qr_scan", "ios": "https://dc.lft.to/lastmile_qr_scan"}, "is_reserved": 0, "is_disabled": 0, "name": "c5a99e262ced5dfc1ece8d37cb1afefb", "bike_id": "c5a99e262ced5dfc1ece8d37cb1afefb", "fusion_lat": 0.0, "lon": -77.041594, "type": "electric_scooter", "fusion_lon": 0.0, "lat": 38.91422983333333}, {"rental_uris": {"android": "https://dc.lft.to/lastmile_qr_scan", "ios": "https://dc.lft.to/lastmile_qr_scan"}, "is_reserved": 0, "is_disabled": 0, "name": "a03ac249d7182a83b091c8cf5839ac74", "bike_id": "a03ac249d7182a83b091c8cf5839ac74", "fusion_lat": 0.0, "lon": -77.06559616666667, "type": "electric_bike", "fusion_lon": 0.0, "lat": 38.932634166666666}, {"rental_uris": {"android": "https://dc.lft.to/lastmile_qr_scan", "ios": "https://dc.lft.to/lastmile_qr_scan"}, "is_reserved": 0, "is_disabled": 0, "name": "e51cd5ce01f518ca85e607dfe9f696cb", "bike_id": "e51cd5ce01f518ca85e607dfe9f696cb", "fusion_lat": 0.0, "lon": -77.0532945, "type": "electric_scooter", "fusion_lon": 0.0, "lat": 38.90533683333334}, {"rental_uris": {"android": "https://dc.lft.to/lastmile_qr_scan", "ios": "https://dc.lft.to/lastmile_qr_scan"}, "is_reserved": 0, "is_disabled": 0, "name": "90498f49d5f95f8b292417ab616e6093", "bike_id": "90498f49d5f95f8b292417ab616e6093", "fusion_lat": 0.0, "lon": -77.04502233333334, "type": "electric_scooter", "fusion_lon": 0.0, "lat": 38.90380283333333}, {"rental_uris": {"android": "https://dc.lft.to/lastmile_qr_scan", "ios": "https://dc.lft.to/lastmile_qr_scan"}, "is_reserved": 0, "is_disabled": 0, "name": "7254509d87eaae6e480c2cbd2a7da77e", "bike_id": "7254509d87eaae6e480c2cbd2a7da77e", "fusion_lat": 0.0, "lon": -77.05918116666666, "type": "electric_scooter", "fusion_lon": 0.0, "lat": 38.903526}, {"rental_uris": {"android": "https://dc.lft.to/lastmile_qr_scan", "ios": "https://dc.lft.to/lastmile_qr_scan"}, "is_reserved": 0, "is_disabled": 0, "name": "8b3c46c18a26e4e6581857f935f47bce", "bike_id": "8b3c46c18a26e4e6581857f935f47bce", "fusion_lat": 0.0, "lon": -77.045625, "type": "electric_scooter", "fusion_lon": 0.0, "lat": 38.91397283333333}, {"rental_uris": {"android": "https://dc.lft.to/lastmile_qr_scan", "ios": "https://dc.lft.to/lastmile_qr_scan"}, "is_reserved": 0, "is_disabled": 0, "name": "e3d4b3c1dcb2e3c0591482cfe99fbd6d", "bike_id": "e3d4b3c1dcb2e3c0591482cfe99fbd6d", "fusion_lat": 0.0, "lon": -77.03241966666667, "type": "electric_scooter", "fusion_lon": 0.0, "lat": 38.930095666666666}, {"rental_uris": {"android": "https://dc.lft.to/lastmile_qr_scan", "ios": "https://dc.lft.to/lastmile_qr_scan"}, "is_reserved": 0, "is_disabled": 0, "name": "96f60d0746aa1a720882da6b9e1ce470", "bike_id": "96f60d0746aa1a720882da6b9e1ce470", "fusion_lat": 0.0, "lon": -77.02632883333334, "type": "electric_scooter", "fusion_lon": 0.0, "lat": 38.93034216666667}, {"rental_uris": {"android": "https://dc.lft.to/lastmile_qr_scan", "ios": "https://dc.lft.to/lastmile_qr_scan"}, "is_reserved": 0, "is_disabled": 0, "name": "e3671bd3500eddf254c197fd99ec6c63", "bike_id": "e3671bd3500eddf254c197fd99ec6c63", "fusion_lat": 0.0, "lon": -77.03208483333333, "type": "electric_scooter", "fusion_lon": 0.0, "lat": 38.89803666666667}, {"rental_uris": {"android": "https://dc.lft.to/lastmile_qr_scan", "ios": "https://dc.lft.to/lastmile_qr_scan"}, "is_reserved": 0, "is_disabled": 0, "name": "75332a4b728be3e48b9f7d8a38576c92", "bike_id": "75332a4b728be3e48b9f7d8a38576c92", "fusion_lat": 0.0, "lon": -77.03654166666666, "type": "electric_scooter", "fusion_lon": 0.0, "lat": 38.92763866666667}, {"rental_uris": {"android": "https://dc.lft.to/lastmile_qr_scan", "ios": "https://dc.lft.to/lastmile_qr_scan"}, "is_reserved": 0, "is_disabled": 0, "name": "98fd70c1e30702648472462db13591cb", "bike_id": "98fd70c1e30702648472462db13591cb", "fusion_lat": 0.0, "lon": -77.031446, "type": "electric_scooter", "fusion_lon": 0.0, "lat": 38.90395}, {"rental_uris": {"android": "https://dc.lft.to/lastmile_qr_scan", "ios": "https://dc.lft.to/lastmile_qr_scan"}, "is_reserved": 0, "is_disabled": 0, "name": "4d1f0cadec663db5dc931b074b4cbca4", "bike_id": "4d1f0cadec663db5dc931b074b4cbca4", "fusion_lat": 0.0, "lon": -77.045398, "type": "electric_scooter", "fusion_lon": 0.0, "lat": 38.8982925}, {"rental_uris": {"android": "https://dc.lft.to/lastmile_qr_scan", "ios": "https://dc.lft.to/lastmile_qr_scan"}, "is_reserved": 0, "is_disabled": 0, "name": "ee5d9e05bbbc1cbf93f571513e6167af", "bike_id": "ee5d9e05bbbc1cbf93f571513e6167af", "fusion_lat": 0.0, "lon": -76.99848783333333, "type": "electric_scooter", "fusion_lon": 0.0, "lat": 38.89624416666667}, {"rental_uris": {"android": "https://dc.lft.to/lastmile_qr_scan", "ios": "https://dc.lft.to/lastmile_qr_scan"}, "is_reserved": 0, "is_disabled": 0, "name": "58e4e904323a7ca7b445fac5de5eca34", "bike_id": "58e4e904323a7ca7b445fac5de5eca34", "fusion_lat": 0.0, "lon": -77.03409, "type": "electric_scooter", "fusion_lon": 0.0, "lat": 38.90430966666667}, {"rental_uris": {"android": "https://dc.lft.to/lastmile_qr_scan", "ios": "https://dc.lft.to/lastmile_qr_scan"}, "is_reserved": 0, "is_disabled": 0, "name": "94fe3ec43715de400ccb7decd5b64926", "bike_id": "94fe3ec43715de400ccb7decd5b64926", "fusion_lat": 0.0, "lon": -77.03260083333333, "type": "electric_bike", "fusion_lon": 0.0, "lat": 38.911530166666665}, {"rental_uris": {"android": "https://dc.lft.to/lastmile_qr_scan", "ios": "https://dc.lft.to/lastmile_qr_scan"}, "is_reserved": 0, "is_disabled": 0, "name": "4bf64494734c1d50bcfbc17f07bd56b4", "bike_id": "4bf64494734c1d50bcfbc17f07bd56b4", "fusion_lat": 0.0, "lon": -76.9779925, "type": "electric_scooter", "fusion_lon": 0.0, "lat": 38.9203845}, {"rental_uris": {"android": "https://dc.lft.to/lastmile_qr_scan", "ios": "https://dc.lft.to/lastmile_qr_scan"}, "is_reserved": 0, "is_disabled": 0, "name": "ce35bfa0c073b7ebc9239dbc2b82bb4e", "bike_id": "ce35bfa0c073b7ebc9239dbc2b82bb4e", "fusion_lat": 0.0, "lon": -77.059302, "type": "electric_scooter", "fusion_lon": 0.0, "lat": 38.94322016666667}, {"rental_uris": {"android": "https://dc.lft.to/lastmile_qr_scan", "ios": "https://dc.lft.to/lastmile_qr_scan"}, "is_reserved": 0, "is_disabled": 0, "name": "050281a30c94f34b0c000175d0aa20cd", "bike_id": "050281a30c94f34b0c000175d0aa20cd", "fusion_lat": 0.0, "lon": -77.020139, "type": "electric_scooter", "fusion_lon": 0.0, "lat": 38.91565533333333}, {"rental_uris": {"android": "https://dc.lft.to/lastmile_qr_scan", "ios": "https://dc.lft.to/lastmile_qr_scan"}, "is_reserved": 0, "is_disabled": 0, "name": "3418acfd1cbd8c7a0e0effa8d58850b6", "bike_id": "3418acfd1cbd8c7a0e0effa8d58850b6", "fusion_lat": 0.0, "lon": -77.01110783333333, "type": "electric_scooter", "fusion_lon": 0.0, "lat": 38.8850695}, {"rental_uris": {"android": "https://dc.lft.to/lastmile_qr_scan", "ios": "https://dc.lft.to/lastmile_qr_scan"}, "is_reserved": 0, "is_disabled": 0, "name": "85cb4c9f31908f0b668752036dbc1417", "bike_id": "85cb4c9f31908f0b668752036dbc1417", "fusion_lat": 0.0, "lon": -77.04676633333334, "type": "electric_scooter", "fusion_lon": 0.0, "lat": 38.89561033333333}, {"rental_uris": {"android": "https://dc.lft.to/lastmile_qr_scan", "ios": "https://dc.lft.to/lastmile_qr_scan"}, "is_reserved": 0, "is_disabled": 0, "name": "6743c573f4af4506454ee2b233b576ea", "bike_id": "6743c573f4af4506454ee2b233b576ea", "fusion_lat": 0.0, "lon": -77.0282015, "type": "electric_scooter", "fusion_lon": 0.0, "lat": 38.92981916666667}, {"rental_uris": {"android": "https://dc.lft.to/lastmile_qr_scan", "ios": "https://dc.lft.to/lastmile_qr_scan"}, "is_reserved": 0, "is_disabled": 0, "name": "7ba07c687f56051b1eac1acad9fc8121", "bike_id": "7ba07c687f56051b1eac1acad9fc8121", "fusion_lat": 0.0, "lon": -77.0203255, "type": "electric_scooter", "fusion_lon": 0.0, "lat": 38.924424}, {"rental_uris": {"android": "https://dc.lft.to/lastmile_qr_scan", "ios": "https://dc.lft.to/lastmile_qr_scan"}, "is_reserved": 0, "is_disabled": 0, "name": "ee31ee60091783ded9ebba6677a5faa3", "bike_id": "ee31ee60091783ded9ebba6677a5faa3", "fusion_lat": 0.0, "lon": -76.98755066666666, "type": "electric_bike", "fusion_lon": 0.0, "lat": 38.85767116666667}, {"rental_uris": {"android": "https://dc.lft.to/lastmile_qr_scan", "ios": "https://dc.lft.to/lastmile_qr_scan"}, "is_reserved": 0, "is_disabled": 0, "name": "fd7d2721fc15519e4a2ae654e3a05ea7", "bike_id": "fd7d2721fc15519e4a2ae654e3a05ea7", "fusion_lat": 0.0, "lon": -77.0037245, "type": "electric_scooter", "fusion_lon": 0.0, "lat": 38.908767833333336}, {"rental_uris": {"android": "https://dc.lft.to/lastmile_qr_scan", "ios": "https://dc.lft.to/lastmile_qr_scan"}, "is_reserved": 0, "is_disabled": 0, "name": "61c2a33d96e99d0352666eff49566e65", "bike_id": "61c2a33d96e99d0352666eff49566e65", "fusion_lat": 0.0, "lon": -77.02796233333333, "type": "electric_scooter", "fusion_lon": 0.0, "lat": 38.884317333333335}, {"rental_uris": {"android": "https://dc.lft.to/lastmile_qr_scan", "ios": "https://dc.lft.to/lastmile_qr_scan"}, "is_reserved": 0, "is_disabled": 0, "name": "2ce14c59a7d2a97034c6f99866b6d12d", "bike_id": "2ce14c59a7d2a97034c6f99866b6d12d", "fusion_lat": 0.0, "lon": -77.0208805, "type": "electric_scooter", "fusion_lon": 0.0, "lat": 38.9214935}, {"rental_uris": {"android": "https://dc.lft.to/lastmile_qr_scan", "ios": "https://dc.lft.to/lastmile_qr_scan"}, "is_reserved": 0, "is_disabled": 0, "name": "19b0e60e65b7de3ff070c15fdb587fc1", "bike_id": "19b0e60e65b7de3ff070c15fdb587fc1", "fusion_lat": 0.0, "lon": -77.01952383333334, "type": "electric_scooter", "fusion_lon": 0.0, "lat": 38.923334833333335}, {"rental_uris": {"android": "https://dc.lft.to/lastmile_qr_scan", "ios": "https://dc.lft.to/lastmile_qr_scan"}, "is_reserved": 0, "is_disabled": 0, "name": "454dbc47eb9ecaf6dada07b84532a45a", "bike_id": "454dbc47eb9ecaf6dada07b84532a45a", "fusion_lat": 0.0, "lon": -77.01683466666667, "type": "electric_scooter", "fusion_lon": 0.0, "lat": 38.92060883333333}, {"rental_uris": {"android": "https://dc.lft.to/lastmile_qr_scan", "ios": "https://dc.lft.to/lastmile_qr_scan"}, "is_reserved": 0, "is_disabled": 0, "name": "504c09274878ea81348b6b36f3090042", "bike_id": "504c09274878ea81348b6b36f3090042", "fusion_lat": 0.0, "lon": -77.12974583333333, "type": "electric_bike", "fusion_lon": 0.0, "lat": 38.799866333333334}, {"rental_uris": {"android": "https://dc.lft.to/lastmile_qr_scan", "ios": "https://dc.lft.to/lastmile_qr_scan"}, "is_reserved": 0, "is_disabled": 0, "name": "a396339fdaecc3c248ef956eab9f2e88", "bike_id": "a396339fdaecc3c248ef956eab9f2e88", "fusion_lat": 0.0, "lon": -76.97329266666667, "type": "electric_scooter", "fusion_lon": 0.0, "lat": 38.904093833333334}, {"rental_uris": {"android": "https://dc.lft.to/lastmile_qr_scan", "ios": "https://dc.lft.to/lastmile_qr_scan"}, "is_reserved": 0, "is_disabled": 0, "name": "95d90784646ffe607d27bb9892ef428c", "bike_id": "95d90784646ffe607d27bb9892ef428c", "fusion_lat": 0.0, "lon": -77.07273183333334, "type": "electric_scooter", "fusion_lon": 0.0, "lat": 38.93476}, {"rental_uris": {"android": "https://dc.lft.to/lastmile_qr_scan", "ios": "https://dc.lft.to/lastmile_qr_scan"}, "is_reserved": 0, "is_disabled": 0, "name": "a2ee19d03227baa269519cfd5631eeeb", "bike_id": "a2ee19d03227baa269519cfd5631eeeb", "fusion_lat": 0.0, "lon": -77.01325316666667, "type": "electric_scooter", "fusion_lon": 0.0, "lat": 38.89850716666667}, {"rental_uris": {"android": "https://dc.lft.to/lastmile_qr_scan", "ios": "https://dc.lft.to/lastmile_qr_scan"}, "is_reserved": 0, "is_disabled": 0, "name": "8d2faf4739cfbc31aec014d53a493131", "bike_id": "8d2faf4739cfbc31aec014d53a493131", "fusion_lat": 0.0, "lon": -77.0141335, "type": "electric_scooter", "fusion_lon": 0.0, "lat": 38.92821266666667}, {"rental_uris": {"android": "https://dc.lft.to/lastmile_qr_scan", "ios": "https://dc.lft.to/lastmile_qr_scan"}, "is_reserved": 0, "is_disabled": 0, "name": "c6b05213bc3abe8de125a5e59fc49576", "bike_id": "c6b05213bc3abe8de125a5e59fc49576", "fusion_lat": 0.0, "lon": -77.02022583333333, "type": "electric_bike", "fusion_lon": 0.0, "lat": 38.96557}, {"rental_uris": {"android": "https://dc.lft.to/lastmile_qr_scan", "ios": "https://dc.lft.to/lastmile_qr_scan"}, "is_reserved": 0, "is_disabled": 0, "name": "1cc49d3122210ce386b7d9f326804737", "bike_id": "1cc49d3122210ce386b7d9f326804737", "fusion_lat": 0.0, "lon": -77.02801516666666, "type": "electric_scooter", "fusion_lon": 0.0, "lat": 38.93926883333334}, {"rental_uris": {"android": "https://dc.lft.to/lastmile_qr_scan", "ios": "https://dc.lft.to/lastmile_qr_scan"}, "is_reserved": 0, "is_disabled": 0, "name": "6d65c39726fc097a8e38e85ec36f56aa", "bike_id": "6d65c39726fc097a8e38e85ec36f56aa", "fusion_lat": 0.0, "lon": -76.9487255, "type": "electric_scooter", "fusion_lon": 0.0, "lat": 38.895015666666666}, {"rental_uris": {"android": "https://dc.lft.to/lastmile_qr_scan", "ios": "https://dc.lft.to/lastmile_qr_scan"}, "is_reserved": 0, "is_disabled": 0, "name": "6272c040b882956735d32bd42f3c4086", "bike_id": "6272c040b882956735d32bd42f3c4086", "fusion_lat": 0.0, "lon": -77.048828, "type": "electric_scooter", "fusion_lon": 0.0, "lat": 38.90038766666667}, {"rental_uris": {"android": "https://dc.lft.to/lastmile_qr_scan", "ios": "https://dc.lft.to/lastmile_qr_scan"}, "is_reserved": 0, "is_disabled": 0, "name": "9d8da7ef8404c266835442d7f442d713", "bike_id": "9d8da7ef8404c266835442d7f442d713", "fusion_lat": 0.0, "lon": -77.016752, "type": "electric_scooter", "fusion_lon": 0.0, "lat": 38.92049166666666}, {"rental_uris": {"android": "https://dc.lft.to/lastmile_qr_scan", "ios": "https://dc.lft.to/lastmile_qr_scan"}, "is_reserved": 0, "is_disabled": 0, "name": "35d910088e07d4c42d74936ee1db318f", "bike_id": "35d910088e07d4c42d74936ee1db318f", "fusion_lat": 0.0, "lon": -77.006293, "type": "electric_scooter", "fusion_lon": 0.0, "lat": 38.87175716666667}, {"rental_uris": {"android": "https://dc.lft.to/lastmile_qr_scan", "ios": "https://dc.lft.to/lastmile_qr_scan"}, "is_reserved": 0, "is_disabled": 0, "name": "bf15944a5b0ecfdb19fe1640d819728e", "bike_id": "bf15944a5b0ecfdb19fe1640d819728e", "fusion_lat": 0.0, "lon": -76.99679833333333, "type": "electric_bike", "fusion_lon": 0.0, "lat": 38.8382545}, {"rental_uris": {"android": "https://dc.lft.to/lastmile_qr_scan", "ios": "https://dc.lft.to/lastmile_qr_scan"}, "is_reserved": 0, "is_disabled": 0, "name": "42ef123ec6e2eb9801e9ce4b9fa0c0ea", "bike_id": "42ef123ec6e2eb9801e9ce4b9fa0c0ea", "fusion_lat": 0.0, "lon": -77.036664, "type": "electric_scooter", "fusion_lon": 0.0, "lat": 38.90302616666666}, {"rental_uris": {"android": "https://dc.lft.to/lastmile_qr_scan", "ios": "https://dc.lft.to/lastmile_qr_scan"}, "is_reserved": 0, "is_disabled": 0, "name": "4518533c6d9520be6734369420b92a2b", "bike_id": "4518533c6d9520be6734369420b92a2b", "fusion_lat": 0.0, "lon": -77.01333333333334, "type": "electric_scooter", "fusion_lon": 0.0, "lat": 38.9141095}, {"rental_uris": {"android": "https://dc.lft.to/lastmile_qr_scan", "ios": "https://dc.lft.to/lastmile_qr_scan"}, "is_reserved": 0, "is_disabled": 0, "name": "c0a5aa12f942cd3ff924c8bf253d95e5", "bike_id": "c0a5aa12f942cd3ff924c8bf253d95e5", "fusion_lat": 0.0, "lon": -77.02553566666667, "type": "electric_scooter", "fusion_lon": 0.0, "lat": 38.95395466666667}, {"rental_uris": {"android": "https://dc.lft.to/lastmile_qr_scan", "ios": "https://dc.lft.to/lastmile_qr_scan"}, "is_reserved": 0, "is_disabled": 0, "name": "a79ff655aaaa4800fb251fd46edf9570", "bike_id": "a79ff655aaaa4800fb251fd46edf9570", "fusion_lat": 0.0, "lon": -77.02171116666666, "type": "electric_scooter", "fusion_lon": 0.0, "lat": 38.89237116666666}, {"rental_uris": {"android": "https://dc.lft.to/lastmile_qr_scan", "ios": "https://dc.lft.to/lastmile_qr_scan"}, "is_reserved": 0, "is_disabled": 0, "name": "fee8970e671e69813f6e0eeb992c91ec", "bike_id": "fee8970e671e69813f6e0eeb992c91ec", "fusion_lat": 0.0, "lon": -77.034514, "type": "electric_scooter", "fusion_lon": 0.0, "lat": 38.9064775}, {"rental_uris": {"android": "https://dc.lft.to/lastmile_qr_scan", "ios": "https://dc.lft.to/lastmile_qr_scan"}, "is_reserved": 0, "is_disabled": 0, "name": "15035d3ef477ed7b97c043081ea40dc6", "bike_id": "15035d3ef477ed7b97c043081ea40dc6", "fusion_lat": 0.0, "lon": -77.02709583333333, "type": "electric_scooter", "fusion_lon": 0.0, "lat": 38.919684833333335}, {"rental_uris": {"android": "https://dc.lft.to/lastmile_qr_scan", "ios": "https://dc.lft.to/lastmile_qr_scan"}, "is_reserved": 0, "is_disabled": 0, "name": "c2417459068e5b8cf162d470ca425b36", "bike_id": "c2417459068e5b8cf162d470ca425b36", "fusion_lat": 0.0, "lon": -77.04759916666667, "type": "electric_scooter", "fusion_lon": 0.0, "lat": 38.91754}, {"rental_uris": {"android": "https://dc.lft.to/lastmile_qr_scan", "ios": "https://dc.lft.to/lastmile_qr_scan"}, "is_reserved": 0, "is_disabled": 0, "name": "097a852e5f0df4f31bfbc14275676dbf", "bike_id": "097a852e5f0df4f31bfbc14275676dbf", "fusion_lat": 0.0, "lon": -77.0434005, "type": "electric_scooter", "fusion_lon": 0.0, "lat": 38.901841166666664}, {"rental_uris": {"android": "https://dc.lft.to/lastmile_qr_scan", "ios": "https://dc.lft.to/lastmile_qr_scan"}, "is_reserved": 0, "is_disabled": 0, "name": "c089c9519718267def9f8fab0d7409c5", "bike_id": "c089c9519718267def9f8fab0d7409c5", "fusion_lat": 0.0, "lon": -77.02187333333333, "type": "electric_scooter", "fusion_lon": 0.0, "lat": 38.920306}, {"rental_uris": {"android": "https://dc.lft.to/lastmile_qr_scan", "ios": "https://dc.lft.to/lastmile_qr_scan"}, "is_reserved": 0, "is_disabled": 0, "name": "ac158a5e64f79c4b4acc4526eb34b630", "bike_id": "ac158a5e64f79c4b4acc4526eb34b630", "fusion_lat": 0.0, "lon": -76.92939266666667, "type": "electric_scooter", "fusion_lon": 0.0, "lat": 38.903553333333335}, {"rental_uris": {"android": "https://dc.lft.to/lastmile_qr_scan", "ios": "https://dc.lft.to/lastmile_qr_scan"}, "is_reserved": 0, "is_disabled": 0, "name": "133fd8fd54031a727a0221880bbe1a1f", "bike_id": "133fd8fd54031a727a0221880bbe1a1f", "fusion_lat": 0.0, "lon": -77.03445533333333, "type": "electric_scooter", "fusion_lon": 0.0, "lat": 38.902683833333334}, {"rental_uris": {"android": "https://dc.lft.to/lastmile_qr_scan", "ios": "https://dc.lft.to/lastmile_qr_scan"}, "is_reserved": 0, "is_disabled": 0, "name": "8b3d3dc8da67277e01ca55906539c418", "bike_id": "8b3d3dc8da67277e01ca55906539c418", "fusion_lat": 0.0, "lon": -76.96087516666667, "type": "electric_bike", "fusion_lon": 0.0, "lat": 38.9187}, {"rental_uris": {"android": "https://dc.lft.to/lastmile_qr_scan", "ios": "https://dc.lft.to/lastmile_qr_scan"}, "is_reserved": 0, "is_disabled": 0, "name": "b224d907a1eb6ffec1a75e8583d8a204", "bike_id": "b224d907a1eb6ffec1a75e8583d8a204", "fusion_lat": 0.0, "lon": -77.00784616666667, "type": "electric_scooter", "fusion_lon": 0.0, "lat": 38.8794545}, {"rental_uris": {"android": "https://dc.lft.to/lastmile_qr_scan", "ios": "https://dc.lft.to/lastmile_qr_scan"}, "is_reserved": 0, "is_disabled": 0, "name": "3763524dc9d2e0788b0f44734db6460f", "bike_id": "3763524dc9d2e0788b0f44734db6460f", "fusion_lat": 0.0, "lon": -77.0248965, "type": "electric_scooter", "fusion_lon": 0.0, "lat": 38.9418675}, {"rental_uris": {"android": "https://dc.lft.to/lastmile_qr_scan", "ios": "https://dc.lft.to/lastmile_qr_scan"}, "is_reserved": 0, "is_disabled": 0, "name": "8048dea6be3afb3537be8c1625cfce3c", "bike_id": "8048dea6be3afb3537be8c1625cfce3c", "fusion_lat": 0.0, "lon": -76.92510133333333, "type": "electric_scooter", "fusion_lon": 0.0, "lat": 38.88604483333334}, {"rental_uris": {"android": "https://dc.lft.to/lastmile_qr_scan", "ios": "https://dc.lft.to/lastmile_qr_scan"}, "is_reserved": 0, "is_disabled": 0, "name": "6cf1aa949272e2126b9ebd685f01c83e", "bike_id": "6cf1aa949272e2126b9ebd685f01c83e", "fusion_lat": 0.0, "lon": -76.9983945, "type": "electric_scooter", "fusion_lon": 0.0, "lat": 38.88508083333333}, {"rental_uris": {"android": "https://dc.lft.to/lastmile_qr_scan", "ios": "https://dc.lft.to/lastmile_qr_scan"}, "is_reserved": 0, "is_disabled": 0, "name": "7c245862d52a0618a841df326efe6384", "bike_id": "7c245862d52a0618a841df326efe6384", "fusion_lat": 0.0, "lon": -76.98562433333333, "type": "electric_scooter", "fusion_lon": 0.0, "lat": 38.90933}, {"rental_uris": {"android": "https://dc.lft.to/lastmile_qr_scan", "ios": "https://dc.lft.to/lastmile_qr_scan"}, "is_reserved": 0, "is_disabled": 0, "name": "df0e52680e43fa92c4abc1e99a542591", "bike_id": "df0e52680e43fa92c4abc1e99a542591", "fusion_lat": 0.0, "lon": -77.0363675, "type": "electric_scooter", "fusion_lon": 0.0, "lat": 38.90383683333334}, {"rental_uris": {"android": "https://dc.lft.to/lastmile_qr_scan", "ios": "https://dc.lft.to/lastmile_qr_scan"}, "is_reserved": 0, "is_disabled": 0, "name": "a460aabb885a39559097eac9ebdcae20", "bike_id": "a460aabb885a39559097eac9ebdcae20", "fusion_lat": 0.0, "lon": -77.0330585, "type": "electric_scooter", "fusion_lon": 0.0, "lat": 38.927577166666666}, {"rental_uris": {"android": "https://dc.lft.to/lastmile_qr_scan", "ios": "https://dc.lft.to/lastmile_qr_scan"}, "is_reserved": 0, "is_disabled": 0, "name": "0b431ecfd97e82c33be4430258806f35", "bike_id": "0b431ecfd97e82c33be4430258806f35", "fusion_lat": 0.0, "lon": -77.01711116666667, "type": "electric_scooter", "fusion_lon": 0.0, "lat": 38.8729605}, {"rental_uris": {"android": "https://dc.lft.to/lastmile_qr_scan", "ios": "https://dc.lft.to/lastmile_qr_scan"}, "is_reserved": 0, "is_disabled": 0, "name": "9fde12dc755e08dae6df4621b8b80de3", "bike_id": "9fde12dc755e08dae6df4621b8b80de3", "fusion_lat": 0.0, "lon": -77.01149766666667, "type": "electric_scooter", "fusion_lon": 0.0, "lat": 38.90001516666667}, {"rental_uris": {"android": "https://dc.lft.to/lastmile_qr_scan", "ios": "https://dc.lft.to/lastmile_qr_scan"}, "is_reserved": 0, "is_disabled": 0, "name": "7c35d90e19e84ed4a7dbfbd6043cb82d", "bike_id": "7c35d90e19e84ed4a7dbfbd6043cb82d", "fusion_lat": 0.0, "lon": -77.0415935, "type": "electric_scooter", "fusion_lon": 0.0, "lat": 38.91612216666667}, {"rental_uris": {"android": "https://dc.lft.to/lastmile_qr_scan", "ios": "https://dc.lft.to/lastmile_qr_scan"}, "is_reserved": 0, "is_disabled": 0, "name": "802cdd1f678cf18e9bd8bd3c33660dac", "bike_id": "802cdd1f678cf18e9bd8bd3c33660dac", "fusion_lat": 0.0, "lon": -76.99956366666666, "type": "electric_scooter", "fusion_lon": 0.0, "lat": 38.90868666666667}, {"rental_uris": {"android": "https://dc.lft.to/lastmile_qr_scan", "ios": "https://dc.lft.to/lastmile_qr_scan"}, "is_reserved": 0, "is_disabled": 0, "name": "9e7ed53246ce6688351a6ba219c4b952", "bike_id": "9e7ed53246ce6688351a6ba219c4b952", "fusion_lat": 0.0, "lon": -77.04209566666667, "type": "electric_scooter", "fusion_lon": 0.0, "lat": 38.92317716666667}, {"rental_uris": {"android": "https://dc.lft.to/lastmile_qr_scan", "ios": "https://dc.lft.to/lastmile_qr_scan"}, "is_reserved": 0, "is_disabled": 0, "name": "8646cdd7fa341babbd5f3731226d5508", "bike_id": "8646cdd7fa341babbd5f3731226d5508", "fusion_lat": 0.0, "lon": -77.02810433333333, "type": "electric_scooter", "fusion_lon": 0.0, "lat": 38.881981833333334}, {"rental_uris": {"android": "https://dc.lft.to/lastmile_qr_scan", "ios": "https://dc.lft.to/lastmile_qr_scan"}, "is_reserved": 0, "is_disabled": 0, "name": "f3ab2b5b4986912b3573ed16807a5a36", "bike_id": "f3ab2b5b4986912b3573ed16807a5a36", "fusion_lat": 0.0, "lon": -77.04334066666667, "type": "electric_scooter", "fusion_lon": 0.0, "lat": 38.90130333333333}, {"rental_uris": {"android": "https://dc.lft.to/lastmile_qr_scan", "ios": "https://dc.lft.to/lastmile_qr_scan"}, "is_reserved": 0, "is_disabled": 0, "name": "9d27df063cc6788063b960f8cf821134", "bike_id": "9d27df063cc6788063b960f8cf821134", "fusion_lat": 0.0, "lon": -77.034435, "type": "electric_scooter", "fusion_lon": 0.0, "lat": 38.922239}, {"rental_uris": {"android": "https://dc.lft.to/lastmile_qr_scan", "ios": "https://dc.lft.to/lastmile_qr_scan"}, "is_reserved": 0, "is_disabled": 0, "name": "e2ad76e9c7ca296ccdb6106d3f3e003e", "bike_id": "e2ad76e9c7ca296ccdb6106d3f3e003e", "fusion_lat": 0.0, "lon": -77.0172625, "type": "electric_scooter", "fusion_lon": 0.0, "lat": 38.90082266666667}, {"rental_uris": {"android": "https://dc.lft.to/lastmile_qr_scan", "ios": "https://dc.lft.to/lastmile_qr_scan"}, "is_reserved": 0, "is_disabled": 0, "name": "cd719a8cccabbbcc07edb6e70cb0b362", "bike_id": "cd719a8cccabbbcc07edb6e70cb0b362", "fusion_lat": 0.0, "lon": -77.04453066666666, "type": "electric_scooter", "fusion_lon": 0.0, "lat": 38.89893}, {"rental_uris": {"android": "https://dc.lft.to/lastmile_qr_scan", "ios": "https://dc.lft.to/lastmile_qr_scan"}, "is_reserved": 0, "is_disabled": 0, "name": "bf74d86d2af9aa8cc002a3a563571603", "bike_id": "bf74d86d2af9aa8cc002a3a563571603", "fusion_lat": 0.0, "lon": -77.00147133333333, "type": "electric_scooter", "fusion_lon": 0.0, "lat": 38.9077915}, {"rental_uris": {"android": "https://dc.lft.to/lastmile_qr_scan", "ios": "https://dc.lft.to/lastmile_qr_scan"}, "is_reserved": 0, "is_disabled": 0, "name": "d395a10d723a809e435eab67384e9b1f", "bike_id": "d395a10d723a809e435eab67384e9b1f", "fusion_lat": 0.0, "lon": -77.024331, "type": "electric_scooter", "fusion_lon": 0.0, "lat": 38.89530583333333}, {"rental_uris": {"android": "https://dc.lft.to/lastmile_qr_scan", "ios": "https://dc.lft.to/lastmile_qr_scan"}, "is_reserved": 0, "is_disabled": 0, "name": "6a9171435eaf85ebc91ac6c102890616", "bike_id": "6a9171435eaf85ebc91ac6c102890616", "fusion_lat": 0.0, "lon": -77.046799, "type": "electric_scooter", "fusion_lon": 0.0, "lat": 38.90630183333333}, {"rental_uris": {"android": "https://dc.lft.to/lastmile_qr_scan", "ios": "https://dc.lft.to/lastmile_qr_scan"}, "is_reserved": 0, "is_disabled": 0, "name": "af8363accd9f39cc7a47f2bcb89b940a", "bike_id": "af8363accd9f39cc7a47f2bcb89b940a", "fusion_lat": 0.0, "lon": -77.085312, "type": "electric_bike", "fusion_lon": 0.0, "lat": 38.85674183333333}, {"rental_uris": {"android": "https://dc.lft.to/lastmile_qr_scan", "ios": "https://dc.lft.to/lastmile_qr_scan"}, "is_reserved": 0, "is_disabled": 0, "name": "6aeafaa57784c497114ed224b00d1fc8", "bike_id": "6aeafaa57784c497114ed224b00d1fc8", "fusion_lat": 0.0, "lon": -76.9731715, "type": "electric_bike", "fusion_lon": 0.0, "lat": 38.86515433333334}, {"rental_uris": {"android": "https://dc.lft.to/lastmile_qr_scan", "ios": "https://dc.lft.to/lastmile_qr_scan"}, "is_reserved": 0, "is_disabled": 0, "name": "ddce46efc59ec9bc463eba84fc5fb42c", "bike_id": "ddce46efc59ec9bc463eba84fc5fb42c", "fusion_lat": 0.0, "lon": -77.0216275, "type": "electric_scooter", "fusion_lon": 0.0, "lat": 38.9250645}, {"rental_uris": {"android": "https://dc.lft.to/lastmile_qr_scan", "ios": "https://dc.lft.to/lastmile_qr_scan"}, "is_reserved": 0, "is_disabled": 0, "name": "02ed702678a640b7a9d1e3415dc30373", "bike_id": "02ed702678a640b7a9d1e3415dc30373", "fusion_lat": 0.0, "lon": -77.04324416666667, "type": "electric_scooter", "fusion_lon": 0.0, "lat": 38.892226666666666}, {"rental_uris": {"android": "https://dc.lft.to/lastmile_qr_scan", "ios": "https://dc.lft.to/lastmile_qr_scan"}, "is_reserved": 0, "is_disabled": 0, "name": "5388ea247246a08cc8f961cf67d1e9ee", "bike_id": "5388ea247246a08cc8f961cf67d1e9ee", "fusion_lat": 0.0, "lon": -77.01310016666666, "type": "electric_scooter", "fusion_lon": 0.0, "lat": 38.8971435}, {"rental_uris": {"android": "https://dc.lft.to/lastmile_qr_scan", "ios": "https://dc.lft.to/lastmile_qr_scan"}, "is_reserved": 0, "is_disabled": 0, "name": "bef1b08c8cc59e84cd30733797e9fb41", "bike_id": "bef1b08c8cc59e84cd30733797e9fb41", "fusion_lat": 0.0, "lon": -77.0486235, "type": "electric_scooter", "fusion_lon": 0.0, "lat": 38.898933}, {"rental_uris": {"android": "https://dc.lft.to/lastmile_qr_scan", "ios": "https://dc.lft.to/lastmile_qr_scan"}, "is_reserved": 0, "is_disabled": 0, "name": "8c4ccc691ab0d6cf31b9028d340a5c84", "bike_id": "8c4ccc691ab0d6cf31b9028d340a5c84", "fusion_lat": 0.0, "lon": -77.04045683333334, "type": "electric_scooter", "fusion_lon": 0.0, "lat": 38.901565166666664}, {"rental_uris": {"android": "https://dc.lft.to/lastmile_qr_scan", "ios": "https://dc.lft.to/lastmile_qr_scan"}, "is_reserved": 0, "is_disabled": 0, "name": "1f8eac1ed9e6148fd6e852c232c194fc", "bike_id": "1f8eac1ed9e6148fd6e852c232c194fc", "fusion_lat": 0.0, "lon": -77.07838916666667, "type": "electric_scooter", "fusion_lon": 0.0, "lat": 38.94601016666667}, {"rental_uris": {"android": "https://dc.lft.to/lastmile_qr_scan", "ios": "https://dc.lft.to/lastmile_qr_scan"}, "is_reserved": 0, "is_disabled": 0, "name": "8bb5634c35ac64fa1e7d096101a0e9ca", "bike_id": "8bb5634c35ac64fa1e7d096101a0e9ca", "fusion_lat": 0.0, "lon": -77.05021083333334, "type": "electric_scooter", "fusion_lon": 0.0, "lat": 38.89657583333333}, {"rental_uris": {"android": "https://dc.lft.to/lastmile_qr_scan", "ios": "https://dc.lft.to/lastmile_qr_scan"}, "is_reserved": 0, "is_disabled": 0, "name": "4a8fcbd7f6fb6ce0ebf6bd97e1a2a2f2", "bike_id": "4a8fcbd7f6fb6ce0ebf6bd97e1a2a2f2", "fusion_lat": 0.0, "lon": -76.98110133333333, "type": "electric_bike", "fusion_lon": 0.0, "lat": 38.9457695}, {"rental_uris": {"android": "https://dc.lft.to/lastmile_qr_scan", "ios": "https://dc.lft.to/lastmile_qr_scan"}, "is_reserved": 0, "is_disabled": 0, "name": "3d17854cd58907a3c38f896a9ae917f6", "bike_id": "3d17854cd58907a3c38f896a9ae917f6", "fusion_lat": 0.0, "lon": -77.02820666666666, "type": "electric_scooter", "fusion_lon": 0.0, "lat": 38.904677166666666}, {"rental_uris": {"android": "https://dc.lft.to/lastmile_qr_scan", "ios": "https://dc.lft.to/lastmile_qr_scan"}, "is_reserved": 0, "is_disabled": 0, "name": "aa7ca3347f7858fbef58378150bb1c45", "bike_id": "aa7ca3347f7858fbef58378150bb1c45", "fusion_lat": 0.0, "lon": -77.02789683333333, "type": "electric_scooter", "fusion_lon": 0.0, "lat": 38.9613125}, {"rental_uris": {"android": "https://dc.lft.to/lastmile_qr_scan", "ios": "https://dc.lft.to/lastmile_qr_scan"}, "is_reserved": 0, "is_disabled": 0, "name": "c8bed86fb48384aa98e752b02e5ce9db", "bike_id": "c8bed86fb48384aa98e752b02e5ce9db", "fusion_lat": 0.0, "lon": -77.0103555, "type": "electric_scooter", "fusion_lon": 0.0, "lat": 38.92146066666667}, {"rental_uris": {"android": "https://dc.lft.to/lastmile_qr_scan", "ios": "https://dc.lft.to/lastmile_qr_scan"}, "is_reserved": 0, "is_disabled": 0, "name": "a642a432e14d580b4aab9573446cf220", "bike_id": "a642a432e14d580b4aab9573446cf220", "fusion_lat": 0.0, "lon": -77.0180985, "type": "electric_scooter", "fusion_lon": 0.0, "lat": 38.92158416666667}, {"rental_uris": {"android": "https://dc.lft.to/lastmile_qr_scan", "ios": "https://dc.lft.to/lastmile_qr_scan"}, "is_reserved": 0, "is_disabled": 0, "name": "ba6fdb10b385363378b744b76507a8b1", "bike_id": "ba6fdb10b385363378b744b76507a8b1", "fusion_lat": 0.0, "lon": -77.06828516666667, "type": "electric_scooter", "fusion_lon": 0.0, "lat": 38.917200666666666}, {"rental_uris": {"android": "https://dc.lft.to/lastmile_qr_scan", "ios": "https://dc.lft.to/lastmile_qr_scan"}, "is_reserved": 0, "is_disabled": 0, "name": "a25664c1fda459251a939070641167ae", "bike_id": "a25664c1fda459251a939070641167ae", "fusion_lat": 0.0, "lon": -77.03469833333334, "type": "electric_scooter", "fusion_lon": 0.0, "lat": 38.90142216666667}, {"rental_uris": {"android": "https://dc.lft.to/lastmile_qr_scan", "ios": "https://dc.lft.to/lastmile_qr_scan"}, "is_reserved": 0, "is_disabled": 0, "name": "3163a9051c82ff4a31e8edbce4bb1f5a", "bike_id": "3163a9051c82ff4a31e8edbce4bb1f5a", "fusion_lat": 0.0, "lon": -77.02001166666666, "type": "electric_scooter", "fusion_lon": 0.0, "lat": 38.901155833333334}, {"rental_uris": {"android": "https://dc.lft.to/lastmile_qr_scan", "ios": "https://dc.lft.to/lastmile_qr_scan"}, "is_reserved": 0, "is_disabled": 0, "name": "76c1f4b4fe9d89759a257ade3b5d0713", "bike_id": "76c1f4b4fe9d89759a257ade3b5d0713", "fusion_lat": 0.0, "lon": -77.038901, "type": "electric_scooter", "fusion_lon": 0.0, "lat": 38.92045266666667}, {"rental_uris": {"android": "https://dc.lft.to/lastmile_qr_scan", "ios": "https://dc.lft.to/lastmile_qr_scan"}, "is_reserved": 0, "is_disabled": 0, "name": "e710ebb39771307c67def1cec5fb00df", "bike_id": "e710ebb39771307c67def1cec5fb00df", "fusion_lat": 0.0, "lon": -77.063799, "type": "electric_scooter", "fusion_lon": 0.0, "lat": 38.90610216666666}, {"rental_uris": {"android": "https://dc.lft.to/lastmile_qr_scan", "ios": "https://dc.lft.to/lastmile_qr_scan"}, "is_reserved": 0, "is_disabled": 0, "name": "06e02a0f0e976fb759669f6903febd3c", "bike_id": "06e02a0f0e976fb759669f6903febd3c", "fusion_lat": 0.0, "lon": -77.04036966666666, "type": "electric_scooter", "fusion_lon": 0.0, "lat": 38.89833983333333}, {"rental_uris": {"android": "https://dc.lft.to/lastmile_qr_scan", "ios": "https://dc.lft.to/lastmile_qr_scan"}, "is_reserved": 0, "is_disabled": 0, "name": "c3c0322637fbe8bf1253f7da16e97921", "bike_id": "c3c0322637fbe8bf1253f7da16e97921", "fusion_lat": 0.0, "lon": -77.02751966666666, "type": "electric_bike", "fusion_lon": 0.0, "lat": 38.926851666666664}, {"rental_uris": {"android": "https://dc.lft.to/lastmile_qr_scan", "ios": "https://dc.lft.to/lastmile_qr_scan"}, "is_reserved": 0, "is_disabled": 0, "name": "39e64bd5653d4ce76753a6d667a8a264", "bike_id": "39e64bd5653d4ce76753a6d667a8a264", "fusion_lat": 0.0, "lon": -76.98382616666666, "type": "electric_scooter", "fusion_lon": 0.0, "lat": 38.8794755}, {"rental_uris": {"android": "https://dc.lft.to/lastmile_qr_scan", "ios": "https://dc.lft.to/lastmile_qr_scan"}, "is_reserved": 0, "is_disabled": 0, "name": "481f59a4b777b8b6ae779360df5a8dd1", "bike_id": "481f59a4b777b8b6ae779360df5a8dd1", "fusion_lat": 0.0, "lon": -77.04623283333333, "type": "electric_scooter", "fusion_lon": 0.0, "lat": 38.91448916666667}, {"rental_uris": {"android": "https://dc.lft.to/lastmile_qr_scan", "ios": "https://dc.lft.to/lastmile_qr_scan"}, "is_reserved": 0, "is_disabled": 0, "name": "96699bffeb875c2ac76c426f5307a2e9", "bike_id": "96699bffeb875c2ac76c426f5307a2e9", "fusion_lat": 0.0, "lon": -77.024151, "type": "electric_scooter", "fusion_lon": 0.0, "lat": 38.90311233333333}, {"rental_uris": {"android": "https://dc.lft.to/lastmile_qr_scan", "ios": "https://dc.lft.to/lastmile_qr_scan"}, "is_reserved": 0, "is_disabled": 0, "name": "84925d02c58038238e0c2cececb78ab1", "bike_id": "84925d02c58038238e0c2cececb78ab1", "fusion_lat": 0.0, "lon": -77.04521516666667, "type": "electric_scooter", "fusion_lon": 0.0, "lat": 38.921559333333335}, {"rental_uris": {"android": "https://dc.lft.to/lastmile_qr_scan", "ios": "https://dc.lft.to/lastmile_qr_scan"}, "is_reserved": 0, "is_disabled": 0, "name": "df217b5317d732884659307092f7a6ff", "bike_id": "df217b5317d732884659307092f7a6ff", "fusion_lat": 0.0, "lon": -77.03752016666667, "type": "electric_scooter", "fusion_lon": 0.0, "lat": 38.9291635}, {"rental_uris": {"android": "https://dc.lft.to/lastmile_qr_scan", "ios": "https://dc.lft.to/lastmile_qr_scan"}, "is_reserved": 0, "is_disabled": 0, "name": "e96f407ae261fc395ff4d19b49e2d1fc", "bike_id": "e96f407ae261fc395ff4d19b49e2d1fc", "fusion_lat": 0.0, "lon": -77.01351316666667, "type": "electric_scooter", "fusion_lon": 0.0, "lat": 38.887428666666665}, {"rental_uris": {"android": "https://dc.lft.to/lastmile_qr_scan", "ios": "https://dc.lft.to/lastmile_qr_scan"}, "is_reserved": 0, "is_disabled": 0, "name": "d36327ca8933a10e703731ebdaa1a58c", "bike_id": "d36327ca8933a10e703731ebdaa1a58c", "fusion_lat": 0.0, "lon": -76.988425, "type": "electric_scooter", "fusion_lon": 0.0, "lat": 38.9002575}, {"rental_uris": {"android": "https://dc.lft.to/lastmile_qr_scan", "ios": "https://dc.lft.to/lastmile_qr_scan"}, "is_reserved": 0, "is_disabled": 0, "name": "082ece3e22d25ba202910fe66d52a866", "bike_id": "082ece3e22d25ba202910fe66d52a866", "fusion_lat": 0.0, "lon": -76.94718983333334, "type": "electric_bike", "fusion_lon": 0.0, "lat": 38.983914}, {"rental_uris": {"android": "https://dc.lft.to/lastmile_qr_scan", "ios": "https://dc.lft.to/lastmile_qr_scan"}, "is_reserved": 0, "is_disabled": 0, "name": "6d3e39c64d43436d68e7934efd831fec", "bike_id": "6d3e39c64d43436d68e7934efd831fec", "fusion_lat": 0.0, "lon": -77.05182, "type": "electric_scooter", "fusion_lon": 0.0, "lat": 38.9242865}, {"rental_uris": {"android": "https://dc.lft.to/lastmile_qr_scan", "ios": "https://dc.lft.to/lastmile_qr_scan"}, "is_reserved": 0, "is_disabled": 0, "name": "2561ac344e26efeeccf9e9b27b1fcf58", "bike_id": "2561ac344e26efeeccf9e9b27b1fcf58", "fusion_lat": 0.0, "lon": -76.9965555, "type": "electric_bike", "fusion_lon": 0.0, "lat": 38.89467116666667}, {"rental_uris": {"android": "https://dc.lft.to/lastmile_qr_scan", "ios": "https://dc.lft.to/lastmile_qr_scan"}, "is_reserved": 0, "is_disabled": 0, "name": "2757aaa9b68ddc0d9215a7265dfb5b44", "bike_id": "2757aaa9b68ddc0d9215a7265dfb5b44", "fusion_lat": 0.0, "lon": -77.0243955, "type": "electric_scooter", "fusion_lon": 0.0, "lat": 38.89461883333333}, {"rental_uris": {"android": "https://dc.lft.to/lastmile_qr_scan", "ios": "https://dc.lft.to/lastmile_qr_scan"}, "is_reserved": 0, "is_disabled": 0, "name": "77db0926c8b1e94bd56be93295302b87", "bike_id": "77db0926c8b1e94bd56be93295302b87", "fusion_lat": 0.0, "lon": -77.04586566666667, "type": "electric_scooter", "fusion_lon": 0.0, "lat": 38.91359583333333}, {"rental_uris": {"android": "https://dc.lft.to/lastmile_qr_scan", "ios": "https://dc.lft.to/lastmile_qr_scan"}, "is_reserved": 0, "is_disabled": 0, "name": "d67ba016c7f2a2d840fbdf5e688c45ca", "bike_id": "d67ba016c7f2a2d840fbdf5e688c45ca", "fusion_lat": 0.0, "lon": -77.0961445, "type": "electric_bike", "fusion_lon": 0.0, "lat": 38.878877833333334}, {"rental_uris": {"android": "https://dc.lft.to/lastmile_qr_scan", "ios": "https://dc.lft.to/lastmile_qr_scan"}, "is_reserved": 0, "is_disabled": 0, "name": "c3b10c00036797ea0d06ba20923f2b53", "bike_id": "c3b10c00036797ea0d06ba20923f2b53", "fusion_lat": 0.0, "lon": -76.940433, "type": "electric_bike", "fusion_lon": 0.0, "lat": 38.9082615}, {"rental_uris": {"android": "https://dc.lft.to/lastmile_qr_scan", "ios": "https://dc.lft.to/lastmile_qr_scan"}, "is_reserved": 0, "is_disabled": 0, "name": "0d3082bd29113af0cf3fe3a12df2e3fc", "bike_id": "0d3082bd29113af0cf3fe3a12df2e3fc", "fusion_lat": 0.0, "lon": -76.99024616666667, "type": "electric_bike", "fusion_lon": 0.0, "lat": 38.83581133333333}, {"rental_uris": {"android": "https://dc.lft.to/lastmile_qr_scan", "ios": "https://dc.lft.to/lastmile_qr_scan"}, "is_reserved": 0, "is_disabled": 0, "name": "79e3d510e77523c7a83483bde657948b", "bike_id": "79e3d510e77523c7a83483bde657948b", "fusion_lat": 0.0, "lon": -77.01957866666666, "type": "electric_scooter", "fusion_lon": 0.0, "lat": 38.923258833333335}, {"rental_uris": {"android": "https://dc.lft.to/lastmile_qr_scan", "ios": "https://dc.lft.to/lastmile_qr_scan"}, "is_reserved": 0, "is_disabled": 0, "name": "8e0c0c16dd6441d693d69c07ed25eaa0", "bike_id": "8e0c0c16dd6441d693d69c07ed25eaa0", "fusion_lat": 0.0, "lon": -76.97222466666666, "type": "electric_bike", "fusion_lon": 0.0, "lat": 38.900404333333334}, {"rental_uris": {"android": "https://dc.lft.to/lastmile_qr_scan", "ios": "https://dc.lft.to/lastmile_qr_scan"}, "is_reserved": 0, "is_disabled": 0, "name": "f7ea16af604d884360aae1625925c95c", "bike_id": "f7ea16af604d884360aae1625925c95c", "fusion_lat": 0.0, "lon": -77.02219066666666, "type": "electric_scooter", "fusion_lon": 0.0, "lat": 38.920929}, {"rental_uris": {"android": "https://dc.lft.to/lastmile_qr_scan", "ios": "https://dc.lft.to/lastmile_qr_scan"}, "is_reserved": 0, "is_disabled": 0, "name": "4df611f87bab6053da85f577eec5e0fa", "bike_id": "4df611f87bab6053da85f577eec5e0fa", "fusion_lat": 0.0, "lon": -77.02274133333333, "type": "electric_scooter", "fusion_lon": 0.0, "lat": 38.90291083333334}, {"rental_uris": {"android": "https://dc.lft.to/lastmile_qr_scan", "ios": "https://dc.lft.to/lastmile_qr_scan"}, "is_reserved": 0, "is_disabled": 0, "name": "3959da9ac24a07137193074b7f0af329", "bike_id": "3959da9ac24a07137193074b7f0af329", "fusion_lat": 0.0, "lon": -77.02553933333333, "type": "electric_scooter", "fusion_lon": 0.0, "lat": 38.8922985}, {"rental_uris": {"android": "https://dc.lft.to/lastmile_qr_scan", "ios": "https://dc.lft.to/lastmile_qr_scan"}, "is_reserved": 0, "is_disabled": 0, "name": "8ae7612bdf10bca9c085db77a29b3e8d", "bike_id": "8ae7612bdf10bca9c085db77a29b3e8d", "fusion_lat": 0.0, "lon": -77.016594, "type": "electric_bike", "fusion_lon": 0.0, "lat": 38.881360666666666}, {"rental_uris": {"android": "https://dc.lft.to/lastmile_qr_scan", "ios": "https://dc.lft.to/lastmile_qr_scan"}, "is_reserved": 0, "is_disabled": 0, "name": "bf1c39b184cdd7a07618f0a55d167f2b", "bike_id": "bf1c39b184cdd7a07618f0a55d167f2b", "fusion_lat": 0.0, "lon": -77.025753, "type": "electric_scooter", "fusion_lon": 0.0, "lat": 38.92679033333334}, {"rental_uris": {"android": "https://dc.lft.to/lastmile_qr_scan", "ios": "https://dc.lft.to/lastmile_qr_scan"}, "is_reserved": 0, "is_disabled": 0, "name": "c667265761849390205d1f7d52bef7f7", "bike_id": "c667265761849390205d1f7d52bef7f7", "fusion_lat": 0.0, "lon": -77.0060195, "type": "electric_scooter", "fusion_lon": 0.0, "lat": 38.905769666666664}, {"rental_uris": {"android": "https://dc.lft.to/lastmile_qr_scan", "ios": "https://dc.lft.to/lastmile_qr_scan"}, "is_reserved": 0, "is_disabled": 0, "name": "177051911ffc578dc0854ffb943e9d2e", "bike_id": "177051911ffc578dc0854ffb943e9d2e", "fusion_lat": 0.0, "lon": -77.02348766666667, "type": "electric_scooter", "fusion_lon": 0.0, "lat": 38.91683483333333}, {"rental_uris": {"android": "https://dc.lft.to/lastmile_qr_scan", "ios": "https://dc.lft.to/lastmile_qr_scan"}, "is_reserved": 0, "is_disabled": 0, "name": "b3df1ff6e68d15386a45513e32c5fbad", "bike_id": "b3df1ff6e68d15386a45513e32c5fbad", "fusion_lat": 0.0, "lon": -77.03338083333334, "type": "electric_scooter", "fusion_lon": 0.0, "lat": 38.892500166666665}, {"rental_uris": {"android": "https://dc.lft.to/lastmile_qr_scan", "ios": "https://dc.lft.to/lastmile_qr_scan"}, "is_reserved": 0, "is_disabled": 0, "name": "f202dea3635c3fea719e71c67a78c266", "bike_id": "f202dea3635c3fea719e71c67a78c266", "fusion_lat": 0.0, "lon": -77.00061383333333, "type": "electric_bike", "fusion_lon": 0.0, "lat": 38.898156666666665}, {"rental_uris": {"android": "https://dc.lft.to/lastmile_qr_scan", "ios": "https://dc.lft.to/lastmile_qr_scan"}, "is_reserved": 0, "is_disabled": 0, "name": "dfcf5e07dd18dffa55c1dc8c672efba4", "bike_id": "dfcf5e07dd18dffa55c1dc8c672efba4", "fusion_lat": 0.0, "lon": -77.02510416666667, "type": "electric_scooter", "fusion_lon": 0.0, "lat": 38.917596}, {"rental_uris": {"android": "https://dc.lft.to/lastmile_qr_scan", "ios": "https://dc.lft.to/lastmile_qr_scan"}, "is_reserved": 0, "is_disabled": 0, "name": "0e53f69b6a83a2067528174c6556b945", "bike_id": "0e53f69b6a83a2067528174c6556b945", "fusion_lat": 0.0, "lon": -77.03207766666667, "type": "electric_scooter", "fusion_lon": 0.0, "lat": 38.914752}, {"rental_uris": {"android": "https://dc.lft.to/lastmile_qr_scan", "ios": "https://dc.lft.to/lastmile_qr_scan"}, "is_reserved": 0, "is_disabled": 0, "name": "f2b4f029bf0cdf04564343e7ffdb9d3b", "bike_id": "f2b4f029bf0cdf04564343e7ffdb9d3b", "fusion_lat": 0.0, "lon": -77.04183783333333, "type": "electric_scooter", "fusion_lon": 0.0, "lat": 38.920599333333335}, {"rental_uris": {"android": "https://dc.lft.to/lastmile_qr_scan", "ios": "https://dc.lft.to/lastmile_qr_scan"}, "is_reserved": 0, "is_disabled": 0, "name": "381dcc7c3b57e13a9152f069d3783d49", "bike_id": "381dcc7c3b57e13a9152f069d3783d49", "fusion_lat": 0.0, "lon": -77.0304555, "type": "electric_scooter", "fusion_lon": 0.0, "lat": 38.90325933333333}, {"rental_uris": {"android": "https://dc.lft.to/lastmile_qr_scan", "ios": "https://dc.lft.to/lastmile_qr_scan"}, "is_reserved": 0, "is_disabled": 0, "name": "b306f487cc954060d3004aad6544fa99", "bike_id": "b306f487cc954060d3004aad6544fa99", "fusion_lat": 0.0, "lon": -77.01798433333333, "type": "electric_scooter", "fusion_lon": 0.0, "lat": 38.91942566666667}, {"rental_uris": {"android": "https://dc.lft.to/lastmile_qr_scan", "ios": "https://dc.lft.to/lastmile_qr_scan"}, "is_reserved": 0, "is_disabled": 0, "name": "9ca4715e7019bb7faa5eb9d45bbbc25d", "bike_id": "9ca4715e7019bb7faa5eb9d45bbbc25d", "fusion_lat": 0.0, "lon": -77.03178816666667, "type": "electric_scooter", "fusion_lon": 0.0, "lat": 38.910531166666665}, {"rental_uris": {"android": "https://dc.lft.to/lastmile_qr_scan", "ios": "https://dc.lft.to/lastmile_qr_scan"}, "is_reserved": 0, "is_disabled": 0, "name": "2ca0851c00883e2d9af5b3853edc75fa", "bike_id": "2ca0851c00883e2d9af5b3853edc75fa", "fusion_lat": 0.0, "lon": -77.053157, "type": "electric_scooter", "fusion_lon": 0.0, "lat": 38.9155595}, {"rental_uris": {"android": "https://dc.lft.to/lastmile_qr_scan", "ios": "https://dc.lft.to/lastmile_qr_scan"}, "is_reserved": 0, "is_disabled": 0, "name": "f0da7d26d637aec4d425d8b33c19979d", "bike_id": "f0da7d26d637aec4d425d8b33c19979d", "fusion_lat": 0.0, "lon": -77.00567983333333, "type": "electric_scooter", "fusion_lon": 0.0, "lat": 38.885161833333335}, {"rental_uris": {"android": "https://dc.lft.to/lastmile_qr_scan", "ios": "https://dc.lft.to/lastmile_qr_scan"}, "is_reserved": 0, "is_disabled": 0, "name": "c9f14dbad691ade4ac4e5e4c4120a37a", "bike_id": "c9f14dbad691ade4ac4e5e4c4120a37a", "fusion_lat": 0.0, "lon": -77.0220675, "type": "electric_scooter", "fusion_lon": 0.0, "lat": 38.917845166666666}, {"rental_uris": {"android": "https://dc.lft.to/lastmile_qr_scan", "ios": "https://dc.lft.to/lastmile_qr_scan"}, "is_reserved": 0, "is_disabled": 0, "name": "8e2da52e1cd78a578fceabcb44c1d4cf", "bike_id": "8e2da52e1cd78a578fceabcb44c1d4cf", "fusion_lat": 0.0, "lon": -77.030962, "type": "electric_scooter", "fusion_lon": 0.0, "lat": 38.9331715}, {"rental_uris": {"android": "https://dc.lft.to/lastmile_qr_scan", "ios": "https://dc.lft.to/lastmile_qr_scan"}, "is_reserved": 0, "is_disabled": 0, "name": "5f561748e76deefdcc0b2822c0ce5424", "bike_id": "5f561748e76deefdcc0b2822c0ce5424", "fusion_lat": 0.0, "lon": -77.03166416666667, "type": "electric_scooter", "fusion_lon": 0.0, "lat": 38.89217683333333}, {"rental_uris": {"android": "https://dc.lft.to/lastmile_qr_scan", "ios": "https://dc.lft.to/lastmile_qr_scan"}, "is_reserved": 0, "is_disabled": 0, "name": "3ea820e0b11192f0f6c75a3e5e846f66", "bike_id": "3ea820e0b11192f0f6c75a3e5e846f66", "fusion_lat": 0.0, "lon": -77.044368, "type": "electric_scooter", "fusion_lon": 0.0, "lat": 38.903980833333335}, {"rental_uris": {"android": "https://dc.lft.to/lastmile_qr_scan", "ios": "https://dc.lft.to/lastmile_qr_scan"}, "is_reserved": 0, "is_disabled": 0, "name": "9bfe53d5403b4f5ffa62f955f1bdbc39", "bike_id": "9bfe53d5403b4f5ffa62f955f1bdbc39", "fusion_lat": 0.0, "lon": -77.04290433333334, "type": "electric_scooter", "fusion_lon": 0.0, "lat": 38.922911166666665}, {"rental_uris": {"android": "https://dc.lft.to/lastmile_qr_scan", "ios": "https://dc.lft.to/lastmile_qr_scan"}, "is_reserved": 0, "is_disabled": 0, "name": "293812b3ab33f85a8a2c3b64ab950513", "bike_id": "293812b3ab33f85a8a2c3b64ab950513", "fusion_lat": 0.0, "lon": -77.0411755, "type": "electric_scooter", "fusion_lon": 0.0, "lat": 38.902745833333334}, {"rental_uris": {"android": "https://dc.lft.to/lastmile_qr_scan", "ios": "https://dc.lft.to/lastmile_qr_scan"}, "is_reserved": 0, "is_disabled": 0, "name": "3a1144859f06e6d6141a10d179d4efd2", "bike_id": "3a1144859f06e6d6141a10d179d4efd2", "fusion_lat": 0.0, "lon": -77.01909016666667, "type": "electric_scooter", "fusion_lon": 0.0, "lat": 38.937257833333334}, {"rental_uris": {"android": "https://dc.lft.to/lastmile_qr_scan", "ios": "https://dc.lft.to/lastmile_qr_scan"}, "is_reserved": 0, "is_disabled": 0, "name": "19e2700ce0daff58701bcfe1046677eb", "bike_id": "19e2700ce0daff58701bcfe1046677eb", "fusion_lat": 0.0, "lon": -77.02732266666666, "type": "electric_scooter", "fusion_lon": 0.0, "lat": 38.9346555}, {"rental_uris": {"android": "https://dc.lft.to/lastmile_qr_scan", "ios": "https://dc.lft.to/lastmile_qr_scan"}, "is_reserved": 0, "is_disabled": 0, "name": "f8d860b01bb6b92c6b077972f4c3579b", "bike_id": "f8d860b01bb6b92c6b077972f4c3579b", "fusion_lat": 0.0, "lon": -76.97354583333333, "type": "electric_bike", "fusion_lon": 0.0, "lat": 38.86566716666667}, {"rental_uris": {"android": "https://dc.lft.to/lastmile_qr_scan", "ios": "https://dc.lft.to/lastmile_qr_scan"}, "is_reserved": 0, "is_disabled": 0, "name": "99a44f75b6dcf36b1a06ecdd7bb0f83f", "bike_id": "99a44f75b6dcf36b1a06ecdd7bb0f83f", "fusion_lat": 0.0, "lon": -77.03819233333333, "type": "electric_scooter", "fusion_lon": 0.0, "lat": 38.90411433333333}, {"rental_uris": {"android": "https://dc.lft.to/lastmile_qr_scan", "ios": "https://dc.lft.to/lastmile_qr_scan"}, "is_reserved": 0, "is_disabled": 0, "name": "545eb4953a0ba055e3d190f4293ec526", "bike_id": "545eb4953a0ba055e3d190f4293ec526", "fusion_lat": 0.0, "lon": -77.03485416666666, "type": "electric_scooter", "fusion_lon": 0.0, "lat": 38.90142133333333}, {"rental_uris": {"android": "https://dc.lft.to/lastmile_qr_scan", "ios": "https://dc.lft.to/lastmile_qr_scan"}, "is_reserved": 0, "is_disabled": 0, "name": "bdb614843abfc3af3ca89d5f1f0c972b", "bike_id": "bdb614843abfc3af3ca89d5f1f0c972b", "fusion_lat": 0.0, "lon": -77.0200705, "type": "electric_scooter", "fusion_lon": 0.0, "lat": 38.9241385}, {"rental_uris": {"android": "https://dc.lft.to/lastmile_qr_scan", "ios": "https://dc.lft.to/lastmile_qr_scan"}, "is_reserved": 0, "is_disabled": 0, "name": "cb6128aa6daeec22379c0904133b92ac", "bike_id": "cb6128aa6daeec22379c0904133b92ac", "fusion_lat": 0.0, "lon": -77.03477, "type": "electric_scooter", "fusion_lon": 0.0, "lat": 38.904338333333335}, {"rental_uris": {"android": "https://dc.lft.to/lastmile_qr_scan", "ios": "https://dc.lft.to/lastmile_qr_scan"}, "is_reserved": 0, "is_disabled": 0, "name": "8e85e3cf0216894c0fa04295d2639261", "bike_id": "8e85e3cf0216894c0fa04295d2639261", "fusion_lat": 0.0, "lon": -77.0954985, "type": "electric_bike", "fusion_lon": 0.0, "lat": 38.85906716666667}, {"rental_uris": {"android": "https://dc.lft.to/lastmile_qr_scan", "ios": "https://dc.lft.to/lastmile_qr_scan"}, "is_reserved": 0, "is_disabled": 0, "name": "16a5829286bc069f5e2a891e816b87ad", "bike_id": "16a5829286bc069f5e2a891e816b87ad", "fusion_lat": 0.0, "lon": -77.0229335, "type": "electric_scooter", "fusion_lon": 0.0, "lat": 38.928231}, {"rental_uris": {"android": "https://dc.lft.to/lastmile_qr_scan", "ios": "https://dc.lft.to/lastmile_qr_scan"}, "is_reserved": 0, "is_disabled": 0, "name": "37165ec5ab4e623abec134fe514fe8db", "bike_id": "37165ec5ab4e623abec134fe514fe8db", "fusion_lat": 0.0, "lon": -77.04325916666667, "type": "electric_scooter", "fusion_lon": 0.0, "lat": 38.90430883333333}, {"rental_uris": {"android": "https://dc.lft.to/lastmile_qr_scan", "ios": "https://dc.lft.to/lastmile_qr_scan"}, "is_reserved": 0, "is_disabled": 0, "name": "797c01dfde4d77f1b9cf4972c3ed7fa5", "bike_id": "797c01dfde4d77f1b9cf4972c3ed7fa5", "fusion_lat": 0.0, "lon": -77.046793, "type": "electric_scooter", "fusion_lon": 0.0, "lat": 38.895635}, {"rental_uris": {"android": "https://dc.lft.to/lastmile_qr_scan", "ios": "https://dc.lft.to/lastmile_qr_scan"}, "is_reserved": 0, "is_disabled": 0, "name": "257b2c6dd862ef9db05d0f46a2b12b1f", "bike_id": "257b2c6dd862ef9db05d0f46a2b12b1f", "fusion_lat": 0.0, "lon": -77.00765733333333, "type": "electric_scooter", "fusion_lon": 0.0, "lat": 38.876695833333336}, {"rental_uris": {"android": "https://dc.lft.to/lastmile_qr_scan", "ios": "https://dc.lft.to/lastmile_qr_scan"}, "is_reserved": 0, "is_disabled": 0, "name": "9d79298867b07434f87a58b0f5eedce2", "bike_id": "9d79298867b07434f87a58b0f5eedce2", "fusion_lat": 0.0, "lon": -77.18337883333334, "type": "electric_bike", "fusion_lon": 0.0, "lat": 38.89098466666667}, {"rental_uris": {"android": "https://dc.lft.to/lastmile_qr_scan", "ios": "https://dc.lft.to/lastmile_qr_scan"}, "is_reserved": 0, "is_disabled": 0, "name": "943672e23b8eb165f0e3567213442bfd", "bike_id": "943672e23b8eb165f0e3567213442bfd", "fusion_lat": 0.0, "lon": -77.02799483333334, "type": "electric_scooter", "fusion_lon": 0.0, "lat": 38.89234416666667}, {"rental_uris": {"android": "https://dc.lft.to/lastmile_qr_scan", "ios": "https://dc.lft.to/lastmile_qr_scan"}, "is_reserved": 0, "is_disabled": 0, "name": "f78d293cbfc704228e1597c6bdf38dcb", "bike_id": "f78d293cbfc704228e1597c6bdf38dcb", "fusion_lat": 0.0, "lon": -77.02865316666667, "type": "electric_bike", "fusion_lon": 0.0, "lat": 38.92129833333333}, {"rental_uris": {"android": "https://dc.lft.to/lastmile_qr_scan", "ios": "https://dc.lft.to/lastmile_qr_scan"}, "is_reserved": 0, "is_disabled": 0, "name": "b628565a19fb1c2df1471dc175249f59", "bike_id": "b628565a19fb1c2df1471dc175249f59", "fusion_lat": 0.0, "lon": -77.0459875, "type": "electric_scooter", "fusion_lon": 0.0, "lat": 38.91485183333333}, {"rental_uris": {"android": "https://dc.lft.to/lastmile_qr_scan", "ios": "https://dc.lft.to/lastmile_qr_scan"}, "is_reserved": 0, "is_disabled": 0, "name": "2d253c16980fdc01235c3ba2a5ac06a2", "bike_id": "2d253c16980fdc01235c3ba2a5ac06a2", "fusion_lat": 0.0, "lon": -76.973339, "type": "electric_scooter", "fusion_lon": 0.0, "lat": 38.865336166666665}, {"rental_uris": {"android": "https://dc.lft.to/lastmile_qr_scan", "ios": "https://dc.lft.to/lastmile_qr_scan"}, "is_reserved": 0, "is_disabled": 0, "name": "feaa9c409f7791888d1b1ec8da1ab9ee", "bike_id": "feaa9c409f7791888d1b1ec8da1ab9ee", "fusion_lat": 0.0, "lon": -77.051551, "type": "electric_scooter", "fusion_lon": 0.0, "lat": 38.9051525}, {"rental_uris": {"android": "https://dc.lft.to/lastmile_qr_scan", "ios": "https://dc.lft.to/lastmile_qr_scan"}, "is_reserved": 0, "is_disabled": 0, "name": "a252acd303d94a2148cfb4b9b050fbde", "bike_id": "a252acd303d94a2148cfb4b9b050fbde", "fusion_lat": 0.0, "lon": -77.02489083333333, "type": "electric_scooter", "fusion_lon": 0.0, "lat": 38.941863}, {"rental_uris": {"android": "https://dc.lft.to/lastmile_qr_scan", "ios": "https://dc.lft.to/lastmile_qr_scan"}, "is_reserved": 0, "is_disabled": 0, "name": "9f08c238ea729bd78e68167ed39eefa5", "bike_id": "9f08c238ea729bd78e68167ed39eefa5", "fusion_lat": 0.0, "lon": -77.04326516666667, "type": "electric_scooter", "fusion_lon": 0.0, "lat": 38.90606833333333}, {"rental_uris": {"android": "https://dc.lft.to/lastmile_qr_scan", "ios": "https://dc.lft.to/lastmile_qr_scan"}, "is_reserved": 0, "is_disabled": 0, "name": "89c4992d0b9fe2913b4205e3ea39d974", "bike_id": "89c4992d0b9fe2913b4205e3ea39d974", "fusion_lat": 0.0, "lon": -76.93183533333334, "type": "electric_scooter", "fusion_lon": 0.0, "lat": 38.898787}, {"rental_uris": {"android": "https://dc.lft.to/lastmile_qr_scan", "ios": "https://dc.lft.to/lastmile_qr_scan"}, "is_reserved": 0, "is_disabled": 0, "name": "6e797dbb3aba081c4c1af37873b1f98f", "bike_id": "6e797dbb3aba081c4c1af37873b1f98f", "fusion_lat": 0.0, "lon": -76.99076133333334, "type": "electric_bike", "fusion_lon": 0.0, "lat": 38.89805166666667}, {"rental_uris": {"android": "https://dc.lft.to/lastmile_qr_scan", "ios": "https://dc.lft.to/lastmile_qr_scan"}, "is_reserved": 0, "is_disabled": 0, "name": "8d6954c499c3e429109433b276fbfc44", "bike_id": "8d6954c499c3e429109433b276fbfc44", "fusion_lat": 0.0, "lon": -77.04968633333333, "type": "electric_scooter", "fusion_lon": 0.0, "lat": 38.90553033333333}, {"rental_uris": {"android": "https://dc.lft.to/lastmile_qr_scan", "ios": "https://dc.lft.to/lastmile_qr_scan"}, "is_reserved": 0, "is_disabled": 0, "name": "0fb5ec63bb833e2cff6bffb2963e4fde", "bike_id": "0fb5ec63bb833e2cff6bffb2963e4fde", "fusion_lat": 0.0, "lon": -77.01066083333333, "type": "electric_scooter", "fusion_lon": 0.0, "lat": 38.91924616666667}, {"rental_uris": {"android": "https://dc.lft.to/lastmile_qr_scan", "ios": "https://dc.lft.to/lastmile_qr_scan"}, "is_reserved": 0, "is_disabled": 0, "name": "5b9e0bce969b33b26becde6f35c44148", "bike_id": "5b9e0bce969b33b26becde6f35c44148", "fusion_lat": 0.0, "lon": -76.99646183333333, "type": "electric_bike", "fusion_lon": 0.0, "lat": 38.967710333333336}, {"rental_uris": {"android": "https://dc.lft.to/lastmile_qr_scan", "ios": "https://dc.lft.to/lastmile_qr_scan"}, "is_reserved": 0, "is_disabled": 0, "name": "ded3f9d3551ea66b044a69e7f771038c", "bike_id": "ded3f9d3551ea66b044a69e7f771038c", "fusion_lat": 0.0, "lon": -76.92369816666667, "type": "electric_scooter", "fusion_lon": 0.0, "lat": 38.89246383333333}, {"rental_uris": {"android": "https://dc.lft.to/lastmile_qr_scan", "ios": "https://dc.lft.to/lastmile_qr_scan"}, "is_reserved": 0, "is_disabled": 0, "name": "7c00fcddc046b16577a1f492cd107536", "bike_id": "7c00fcddc046b16577a1f492cd107536", "fusion_lat": 0.0, "lon": -77.05115583333334, "type": "electric_scooter", "fusion_lon": 0.0, "lat": 38.92343016666667}, {"rental_uris": {"android": "https://dc.lft.to/lastmile_qr_scan", "ios": "https://dc.lft.to/lastmile_qr_scan"}, "is_reserved": 0, "is_disabled": 0, "name": "fc52d5c63fa82ce271337c348835f8af", "bike_id": "fc52d5c63fa82ce271337c348835f8af", "fusion_lat": 0.0, "lon": -77.02477733333333, "type": "electric_scooter", "fusion_lon": 0.0, "lat": 38.918183166666665}, {"rental_uris": {"android": "https://dc.lft.to/lastmile_qr_scan", "ios": "https://dc.lft.to/lastmile_qr_scan"}, "is_reserved": 0, "is_disabled": 0, "name": "29512f8d7f3009e2c154fea4efe47738", "bike_id": "29512f8d7f3009e2c154fea4efe47738", "fusion_lat": 0.0, "lon": -77.04580516666667, "type": "electric_scooter", "fusion_lon": 0.0, "lat": 38.9143485}, {"rental_uris": {"android": "https://dc.lft.to/lastmile_qr_scan", "ios": "https://dc.lft.to/lastmile_qr_scan"}, "is_reserved": 0, "is_disabled": 0, "name": "57c67c2d6f631f3423a89b6347ee971f", "bike_id": "57c67c2d6f631f3423a89b6347ee971f", "fusion_lat": 0.0, "lon": -76.99855966666667, "type": "electric_scooter", "fusion_lon": 0.0, "lat": 38.90032716666666}, {"rental_uris": {"android": "https://dc.lft.to/lastmile_qr_scan", "ios": "https://dc.lft.to/lastmile_qr_scan"}, "is_reserved": 0, "is_disabled": 0, "name": "a600854d7b4a767c4253eafbe39d6254", "bike_id": "a600854d7b4a767c4253eafbe39d6254", "fusion_lat": 0.0, "lon": -76.987917, "type": "electric_scooter", "fusion_lon": 0.0, "lat": 38.9003035}, {"rental_uris": {"android": "https://dc.lft.to/lastmile_qr_scan", "ios": "https://dc.lft.to/lastmile_qr_scan"}, "is_reserved": 0, "is_disabled": 0, "name": "e30cc3aa4a28d7c71672e9a0e0565ec7", "bike_id": "e30cc3aa4a28d7c71672e9a0e0565ec7", "fusion_lat": 0.0, "lon": -77.02158483333334, "type": "electric_scooter", "fusion_lon": 0.0, "lat": 38.92618066666667}, {"rental_uris": {"android": "https://dc.lft.to/lastmile_qr_scan", "ios": "https://dc.lft.to/lastmile_qr_scan"}, "is_reserved": 0, "is_disabled": 0, "name": "3c242add8369096bbc84e69e96cfc32f", "bike_id": "3c242add8369096bbc84e69e96cfc32f", "fusion_lat": 0.0, "lon": -77.02584983333334, "type": "electric_scooter", "fusion_lon": 0.0, "lat": 38.9171805}, {"rental_uris": {"android": "https://dc.lft.to/lastmile_qr_scan", "ios": "https://dc.lft.to/lastmile_qr_scan"}, "is_reserved": 0, "is_disabled": 0, "name": "3dd23d1c5d7a98c67025cf9c41d64b02", "bike_id": "3dd23d1c5d7a98c67025cf9c41d64b02", "fusion_lat": 0.0, "lon": -76.9583475, "type": "electric_bike", "fusion_lon": 0.0, "lat": 38.850677833333336}, {"rental_uris": {"android": "https://dc.lft.to/lastmile_qr_scan", "ios": "https://dc.lft.to/lastmile_qr_scan"}, "is_reserved": 0, "is_disabled": 0, "name": "dab2f64ef7d80078a868617005c1bd29", "bike_id": "dab2f64ef7d80078a868617005c1bd29", "fusion_lat": 0.0, "lon": -77.03191316666667, "type": "electric_scooter", "fusion_lon": 0.0, "lat": 38.91930216666667}, {"rental_uris": {"android": "https://dc.lft.to/lastmile_qr_scan", "ios": "https://dc.lft.to/lastmile_qr_scan"}, "is_reserved": 0, "is_disabled": 0, "name": "cb53c5ed793a667ac2dc7685e730dc4b", "bike_id": "cb53c5ed793a667ac2dc7685e730dc4b", "fusion_lat": 0.0, "lon": -77.02979983333333, "type": "electric_scooter", "fusion_lon": 0.0, "lat": 38.89633966666667}, {"rental_uris": {"android": "https://dc.lft.to/lastmile_qr_scan", "ios": "https://dc.lft.to/lastmile_qr_scan"}, "is_reserved": 0, "is_disabled": 0, "name": "5456d4396d415b5d5356f1951cd426a6", "bike_id": "5456d4396d415b5d5356f1951cd426a6", "fusion_lat": 0.0, "lon": -77.05005816666667, "type": "electric_scooter", "fusion_lon": 0.0, "lat": 38.89912283333334}, {"rental_uris": {"android": "https://dc.lft.to/lastmile_qr_scan", "ios": "https://dc.lft.to/lastmile_qr_scan"}, "is_reserved": 0, "is_disabled": 0, "name": "c88dc4a7be72965cf35223352e282cf1", "bike_id": "c88dc4a7be72965cf35223352e282cf1", "fusion_lat": 0.0, "lon": -77.043472, "type": "electric_scooter", "fusion_lon": 0.0, "lat": 38.910402}, {"rental_uris": {"android": "https://dc.lft.to/lastmile_qr_scan", "ios": "https://dc.lft.to/lastmile_qr_scan"}, "is_reserved": 0, "is_disabled": 0, "name": "0bfcf286ce6bc43f9cb86a2dda4768ff", "bike_id": "0bfcf286ce6bc43f9cb86a2dda4768ff", "fusion_lat": 0.0, "lon": -77.00135216666666, "type": "electric_scooter", "fusion_lon": 0.0, "lat": 38.8947645}, {"rental_uris": {"android": "https://dc.lft.to/lastmile_qr_scan", "ios": "https://dc.lft.to/lastmile_qr_scan"}, "is_reserved": 0, "is_disabled": 0, "name": "f759fc169e0cb37b06058cdeda237c35", "bike_id": "f759fc169e0cb37b06058cdeda237c35", "fusion_lat": 0.0, "lon": -77.0406565, "type": "electric_scooter", "fusion_lon": 0.0, "lat": 38.92685066666667}, {"rental_uris": {"android": "https://dc.lft.to/lastmile_qr_scan", "ios": "https://dc.lft.to/lastmile_qr_scan"}, "is_reserved": 0, "is_disabled": 0, "name": "d29dcfc4ad51d73c862a3c38a6888cda", "bike_id": "d29dcfc4ad51d73c862a3c38a6888cda", "fusion_lat": 0.0, "lon": -77.0220145, "type": "electric_scooter", "fusion_lon": 0.0, "lat": 38.894186833333336}, {"rental_uris": {"android": "https://dc.lft.to/lastmile_qr_scan", "ios": "https://dc.lft.to/lastmile_qr_scan"}, "is_reserved": 0, "is_disabled": 0, "name": "4044aa3589087839f539cabc9fb3403e", "bike_id": "4044aa3589087839f539cabc9fb3403e", "fusion_lat": 0.0, "lon": -77.03374383333333, "type": "electric_scooter", "fusion_lon": 0.0, "lat": 38.9246565}, {"rental_uris": {"android": "https://dc.lft.to/lastmile_qr_scan", "ios": "https://dc.lft.to/lastmile_qr_scan"}, "is_reserved": 0, "is_disabled": 0, "name": "d11599eb951b30cb382ac46c1d80ff7f", "bike_id": "d11599eb951b30cb382ac46c1d80ff7f", "fusion_lat": 0.0, "lon": -76.98371166666666, "type": "electric_scooter", "fusion_lon": 0.0, "lat": 38.892677}, {"rental_uris": {"android": "https://dc.lft.to/lastmile_qr_scan", "ios": "https://dc.lft.to/lastmile_qr_scan"}, "is_reserved": 0, "is_disabled": 0, "name": "22b348da8607a8e8387073aef12d87c4", "bike_id": "22b348da8607a8e8387073aef12d87c4", "fusion_lat": 0.0, "lon": -77.07753133333334, "type": "electric_bike", "fusion_lon": 0.0, "lat": 38.84195183333333}, {"rental_uris": {"android": "https://dc.lft.to/lastmile_qr_scan", "ios": "https://dc.lft.to/lastmile_qr_scan"}, "is_reserved": 0, "is_disabled": 0, "name": "500a28eb67e094e853b8bb7e7d595be0", "bike_id": "500a28eb67e094e853b8bb7e7d595be0", "fusion_lat": 0.0, "lon": -76.957394, "type": "electric_scooter", "fusion_lon": 0.0, "lat": 38.88398516666667}, {"rental_uris": {"android": "https://dc.lft.to/lastmile_qr_scan", "ios": "https://dc.lft.to/lastmile_qr_scan"}, "is_reserved": 0, "is_disabled": 0, "name": "e6fdcf21a13d0064f902d48798026d4b", "bike_id": "e6fdcf21a13d0064f902d48798026d4b", "fusion_lat": 0.0, "lon": -77.04325133333333, "type": "electric_scooter", "fusion_lon": 0.0, "lat": 38.89228766666667}, {"rental_uris": {"android": "https://dc.lft.to/lastmile_qr_scan", "ios": "https://dc.lft.to/lastmile_qr_scan"}, "is_reserved": 0, "is_disabled": 0, "name": "f244d66266b826192eb6a355c2d39ce9", "bike_id": "f244d66266b826192eb6a355c2d39ce9", "fusion_lat": 0.0, "lon": -77.0716625, "type": "electric_scooter", "fusion_lon": 0.0, "lat": 38.908749666666665}, {"rental_uris": {"android": "https://dc.lft.to/lastmile_qr_scan", "ios": "https://dc.lft.to/lastmile_qr_scan"}, "is_reserved": 0, "is_disabled": 0, "name": "21e7d389b38107460cfcaf74e1149327", "bike_id": "21e7d389b38107460cfcaf74e1149327", "fusion_lat": 0.0, "lon": -77.04486516666667, "type": "electric_scooter", "fusion_lon": 0.0, "lat": 38.89947633333333}, {"rental_uris": {"android": "https://dc.lft.to/lastmile_qr_scan", "ios": "https://dc.lft.to/lastmile_qr_scan"}, "is_reserved": 0, "is_disabled": 0, "name": "17805d9299f14a591ed89a410e6bfad5", "bike_id": "17805d9299f14a591ed89a410e6bfad5", "fusion_lat": 0.0, "lon": -77.04135466666666, "type": "electric_scooter", "fusion_lon": 0.0, "lat": 38.90914133333333}, {"rental_uris": {"android": "https://dc.lft.to/lastmile_qr_scan", "ios": "https://dc.lft.to/lastmile_qr_scan"},