{"data": {"bikes": [{"lat": 38.90075216666666, "is_disabled": 0, "type": "electric_scooter", "lon": -77.00214466666667, "bike_id": "8dd0b4e56c1ed44bbc758d865ee43309", "fusion_lat": 0.0, "name": "8dd0b4e56c1ed44bbc758d865ee43309", "is_reserved": 0, "rental_uris": {"android": "https://dc.lft.to/lastmile_qr_scan", "ios": "https://dc.lft.to/lastmile_qr_scan"}, "fusion_lon": 0.0}, {"lat": 38.92860183333333, "is_disabled": 0, "type": "electric_scooter", "lon": -77.013926, "bike_id": "bc0c70aeef884adfbfe81a3fdca2b008", "fusion_lat": 0.0, "name": "bc0c70aeef884adfbfe81a3fdca2b008", "is_reserved": 0, "rental_uris": {"android": "https://dc.lft.to/lastmile_qr_scan", "ios": "https://dc.lft.to/lastmile_qr_scan"}, "fusion_lon": 0.0}, {"lat": 38.923472, "is_disabled": 0, "type": "electric_scooter", "lon": -77.03398583333333, "bike_id": "631feee39df26bdaeaa41471334c046d", "fusion_lat": 0.0, "name": "631feee39df26bdaeaa41471334c046d", "is_reserved": 0, "rental_uris": {"android": "https://dc.lft.to/lastmile_qr_scan", "ios": "https://dc.lft.to/lastmile_qr_scan"}, "fusion_lon": 0.0}, {"lat": 38.91685583333334, "is_disabled": 0, "type": "electric_scooter", "lon": -77.0296135, "bike_id": "251c49448d37faa47474ca997852a8c3", "fusion_lat": 0.0, "name": "251c49448d37faa47474ca997852a8c3", "is_reserved": 0, "rental_uris": {"android": "https://dc.lft.to/lastmile_qr_scan", "ios": "https://dc.lft.to/lastmile_qr_scan"}, "fusion_lon": 0.0}, {"lat": 38.99008116666667, "is_disabled": 0, "type": "electric_bike", "lon": -77.004464, "bike_id": "aad40e8fe6cf544f03cf98d1562db56c", "fusion_lat": 0.0, "name": "aad40e8fe6cf544f03cf98d1562db56c", "is_reserved": 0, "rental_uris": {"android": "https://dc.lft.to/lastmile_qr_scan", "ios": "https://dc.lft.to/lastmile_qr_scan"}, "fusion_lon": 0.0}, {"lat": 38.85511483333333, "is_disabled": 0, "type": "electric_bike", "lon": -77.12020316666667, "bike_id": "6a03f1ef863749996b57e612611c28a2", "fusion_lat": 0.0, "name": "6a03f1ef863749996b57e612611c28a2", "is_reserved": 0, "rental_uris": {"android": "https://dc.lft.to/lastmile_qr_scan", "ios": "https://dc.lft.to/lastmile_qr_scan"}, "fusion_lon": 0.0}, {"lat": 38.944341666666666, "is_disabled": 0, "type": "electric_scooter", "lon": -77.01507816666667, "bike_id": "ab057a910f71373f978380584c449137", "fusion_lat": 0.0, "name": "ab057a910f71373f978380584c449137", "is_reserved": 0, "rental_uris": {"android": "https://dc.lft.to/lastmile_qr_scan", "ios": "https://dc.lft.to/lastmile_qr_scan"}, "fusion_lon": 0.0}, {"lat": 38.943917666666664, "is_disabled": 0, "type": "electric_scooter", "lon": -77.01986066666667, "bike_id": "b7df2ea3bcc852f443cf5bf2d338a4f8", "fusion_lat": 0.0, "name": "b7df2ea3bcc852f443cf5bf2d338a4f8", "is_reserved": 0, "rental_uris": {"android": "https://dc.lft.to/lastmile_qr_scan", "ios": "https://dc.lft.to/lastmile_qr_scan"}, "fusion_lon": 0.0}, {"lat": 38.9111115, "is_disabled": 0, "type": "electric_scooter", "lon": -77.03836283333334, "bike_id": "e98d2d1393e79832f05a93068f6fb01a", "fusion_lat": 0.0, "name": "e98d2d1393e79832f05a93068f6fb01a", "is_reserved": 0, "rental_uris": {"android": "https://dc.lft.to/lastmile_qr_scan", "ios": "https://dc.lft.to/lastmile_qr_scan"}, "fusion_lon": 0.0}, {"lat": 38.901115833333336, "is_disabled": 0, "type": "electric_scooter", "lon": -77.02546566666666, "bike_id": "b4cda7a0d1fdede1bc7b6f357bf9917f", "fusion_lat": 0.0, "name": "b4cda7a0d1fdede1bc7b6f357bf9917f", "is_reserved": 0, "rental_uris": {"android": "https://dc.lft.to/lastmile_qr_scan", "ios": "https://dc.lft.to/lastmile_qr_scan"}, "fusion_lon": 0.0}, {"lat": 38.851843333333335, "is_disabled": 0, "type": "electric_bike", "lon": -76.96109083333333, "bike_id": "52a5e33ac514190127f1076eea30e9b0", "fusion_lat": 0.0, "name": "52a5e33ac514190127f1076eea30e9b0", "is_reserved": 0, "rental_uris": {"android": "https://dc.lft.to/lastmile_qr_scan", "ios": "https://dc.lft.to/lastmile_qr_scan"}, "fusion_lon": 0.0}, {"lat": 38.905724, "is_disabled": 0, "type": "electric_scooter", "lon": -77.02983583333334, "bike_id": "f8bc3df1a1afc0c65b3a5e10c0d7444f", "fusion_lat": 0.0, "name": "f8bc3df1a1afc0c65b3a5e10c0d7444f", "is_reserved": 0, "rental_uris": {"android": "https://dc.lft.to/lastmile_qr_scan", "ios": "https://dc.lft.to/lastmile_qr_scan"}, "fusion_lon": 0.0}, {"lat": 38.93530116666667, "is_disabled": 0, "type": "electric_bike", "lon": -77.05701983333333, "bike_id": "136b481a641bb81807a0eccd6819d406", "fusion_lat": 0.0, "name": "136b481a641bb81807a0eccd6819d406", "is_reserved": 0, "rental_uris": {"android": "https://dc.lft.to/lastmile_qr_scan", "ios": "https://dc.lft.to/lastmile_qr_scan"}, "fusion_lon": 0.0}, {"lat": 38.934330833333334, "is_disabled": 0, "type": "electric_scooter", "lon": -77.034477, "bike_id": "f884f2f6030828a362f8dc01ec0f7be5", "fusion_lat": 0.0, "name": "f884f2f6030828a362f8dc01ec0f7be5", "is_reserved": 0, "rental_uris": {"android": "https://dc.lft.to/lastmile_qr_scan", "ios": "https://dc.lft.to/lastmile_qr_scan"}, "fusion_lon": 0.0}, {"lat": 38.95326016666667, "is_disabled": 0, "type": "electric_scooter", "lon": -77.02758, "bike_id": "99b27183a5f5fbca51c908b6a6fde999", "fusion_lat": 0.0, "name": "99b27183a5f5fbca51c908b6a6fde999", "is_reserved": 0, "rental_uris": {"android": "https://dc.lft.to/lastmile_qr_scan", "ios": "https://dc.lft.to/lastmile_qr_scan"}, "fusion_lon": 0.0}, {"lat": 38.884683, "is_disabled": 0, "type": "electric_scooter", "lon": -76.9926365, "bike_id": "9ebf1d73c71a3ff5d944dac79b7f670d", "fusion_lat": 0.0, "name": "9ebf1d73c71a3ff5d944dac79b7f670d", "is_reserved": 0, "rental_uris": {"android": "https://dc.lft.to/lastmile_qr_scan", "ios": "https://dc.lft.to/lastmile_qr_scan"}, "fusion_lon": 0.0}, {"lat": 38.9031095, "is_disabled": 0, "type": "electric_scooter", "lon": -76.99364366666667, "bike_id": "d5df73d81db18126585f15860878fb1f", "fusion_lat": 0.0, "name": "d5df73d81db18126585f15860878fb1f", "is_reserved": 0, "rental_uris": {"android": "https://dc.lft.to/lastmile_qr_scan", "ios": "https://dc.lft.to/lastmile_qr_scan"}, "fusion_lon": 0.0}, {"lat": 38.96019616666667, "is_disabled": 0, "type": "electric_bike", "lon": -77.01728783333333, "bike_id": "855dce258e9c30fb687eff72efd93226", "fusion_lat": 0.0, "name": "855dce258e9c30fb687eff72efd93226", "is_reserved": 0, "rental_uris": {"android": "https://dc.lft.to/lastmile_qr_scan", "ios": "https://dc.lft.to/lastmile_qr_scan"}, "fusion_lon": 0.0}, {"lat": 38.9214915, "is_disabled": 0, "type": "electric_scooter", "lon": -77.0350985, "bike_id": "ddebdab9780ceb6ef28e056064f8bbf8", "fusion_lat": 0.0, "name": "ddebdab9780ceb6ef28e056064f8bbf8", "is_reserved": 0, "rental_uris": {"android": "https://dc.lft.to/lastmile_qr_scan", "ios": "https://dc.lft.to/lastmile_qr_scan"}, "fusion_lon": 0.0}, {"lat": 38.8075475, "is_disabled": 0, "type": "electric_bike", "lon": -77.09454416666667, "bike_id": "abe1456fb7b45196f0fe3d112c975531", "fusion_lat": 0.0, "name": "abe1456fb7b45196f0fe3d112c975531", "is_reserved": 0, "rental_uris": {"android": "https://dc.lft.to/lastmile_qr_scan", "ios": "https://dc.lft.to/lastmile_qr_scan"}, "fusion_lon": 0.0}, {"lat": 38.88489783333333, "is_disabled": 0, "type": "electric_scooter", "lon": -77.00714316666667, "bike_id": "d735ac7d47dc9a302f00f58dfda6d36b", "fusion_lat": 0.0, "name": "d735ac7d47dc9a302f00f58dfda6d36b", "is_reserved": 0, "rental_uris": {"android": "https://dc.lft.to/lastmile_qr_scan", "ios": "https://dc.lft.to/lastmile_qr_scan"}, "fusion_lon": 0.0}, {"lat": 38.87289033333333, "is_disabled": 0, "type": "electric_scooter", "lon": -77.00931833333334, "bike_id": "d8d08589d7584b12952b74aa36319cd5", "fusion_lat": 0.0, "name": "d8d08589d7584b12952b74aa36319cd5", "is_reserved": 0, "rental_uris": {"android": "https://dc.lft.to/lastmile_qr_scan", "ios": "https://dc.lft.to/lastmile_qr_scan"}, "fusion_lon": 0.0}, {"lat": 39.02928566666667, "is_disabled": 0, "type": "electric_bike", "lon": -77.049324, "bike_id": "9e563a047fe7d4b847f279ada4f05208", "fusion_lat": 0.0, "name": "9e563a047fe7d4b847f279ada4f05208", "is_reserved": 0, "rental_uris": {"android": "https://dc.lft.to/lastmile_qr_scan", "ios": "https://dc.lft.to/lastmile_qr_scan"}, "fusion_lon": 0.0}, {"lat": 38.89351516666667, "is_disabled": 0, "type": "electric_scooter", "lon": -76.98475066666667, "bike_id": "302d09dbb7596f55f2d235be2821f136", "fusion_lat": 0.0, "name": "302d09dbb7596f55f2d235be2821f136", "is_reserved": 0, "rental_uris": {"android": "https://dc.lft.to/lastmile_qr_scan", "ios": "https://dc.lft.to/lastmile_qr_scan"}, "fusion_lon": 0.0}, {"lat": 38.910546833333335, "is_disabled": 0, "type": "electric_scooter", "lon": -77.045715, "bike_id": "914f8ae25e39fdc5f3167032c4a99acc", "fusion_lat": 0.0, "name": "914f8ae25e39fdc5f3167032c4a99acc", "is_reserved": 0, "rental_uris": {"android": "https://dc.lft.to/lastmile_qr_scan", "ios": "https://dc.lft.to/lastmile_qr_scan"}, "fusion_lon": 0.0}, {"lat": 38.90663883333333, "is_disabled": 0, "type": "electric_scooter", "lon": -77.03868116666666, "bike_id": "e50895a17ed9e9cf2488eff2081856f9", "fusion_lat": 0.0, "name": "e50895a17ed9e9cf2488eff2081856f9", "is_reserved": 0, "rental_uris": {"android": "https://dc.lft.to/lastmile_qr_scan", "ios": "https://dc.lft.to/lastmile_qr_scan"}, "fusion_lon": 0.0}, {"lat": 38.895057666666666, "is_disabled": 0, "type": "electric_scooter", "lon": -77.0161145, "bike_id": "83a22dad040c594992aa86ce31d25734", "fusion_lat": 0.0, "name": "83a22dad040c594992aa86ce31d25734", "is_reserved": 0, "rental_uris": {"android": "https://dc.lft.to/lastmile_qr_scan", "ios": "https://dc.lft.to/lastmile_qr_scan"}, "fusion_lon": 0.0}, {"lat": 38.91355683333333, "is_disabled": 0, "type": "electric_scooter", "lon": -77.04666666666667, "bike_id": "030c9deb46cdbca537cd308d6689c391", "fusion_lat": 0.0, "name": "030c9deb46cdbca537cd308d6689c391", "is_reserved": 0, "rental_uris": {"android": "https://dc.lft.to/lastmile_qr_scan", "ios": "https://dc.lft.to/lastmile_qr_scan"}, "fusion_lon": 0.0}, {"lat": 38.921109333333334, "is_disabled": 0, "type": "electric_scooter", "lon": -77.0419645, "bike_id": "36c6b0f0c353dbc468c9809afd8f2f62", "fusion_lat": 0.0, "name": "36c6b0f0c353dbc468c9809afd8f2f62", "is_reserved": 0, "rental_uris": {"android": "https://dc.lft.to/lastmile_qr_scan", "ios": "https://dc.lft.to/lastmile_qr_scan"}, "fusion_lon": 0.0}, {"lat": 38.9216545, "is_disabled": 0, "type": "electric_scooter", "lon": -77.04020916666667, "bike_id": "b1873ffaba4707570f89845e6c626e33", "fusion_lat": 0.0, "name": "b1873ffaba4707570f89845e6c626e33", "is_reserved": 0, "rental_uris": {"android": "https://dc.lft.to/lastmile_qr_scan", "ios": "https://dc.lft.to/lastmile_qr_scan"}, "fusion_lon": 0.0}, {"lat": 38.9248345, "is_disabled": 0, "type": "electric_scooter", "lon": -77.03484883333333, "bike_id": "b0d72894e0c5611f9f11ae8d15787a03", "fusion_lat": 0.0, "name": "b0d72894e0c5611f9f11ae8d15787a03", "is_reserved": 0, "rental_uris": {"android": "https://dc.lft.to/lastmile_qr_scan", "ios": "https://dc.lft.to/lastmile_qr_scan"}, "fusion_lon": 0.0}, {"lat": 38.96562733333333, "is_disabled": 0, "type": "electric_scooter", "lon": -77.0162525, "bike_id": "0479e3f8db7b2553e9519b74142abea2", "fusion_lat": 0.0, "name": "0479e3f8db7b2553e9519b74142abea2", "is_reserved": 0, "rental_uris": {"android": "https://dc.lft.to/lastmile_qr_scan", "ios": "https://dc.lft.to/lastmile_qr_scan"}, "fusion_lon": 0.0}, {"lat": 38.90271083333333, "is_disabled": 0, "type": "electric_scooter", "lon": -77.03374266666667, "bike_id": "36b41d1891f1519c92c715bb949d029e", "fusion_lat": 0.0, "name": "36b41d1891f1519c92c715bb949d029e", "is_reserved": 0, "rental_uris": {"android": "https://dc.lft.to/lastmile_qr_scan", "ios": "https://dc.lft.to/lastmile_qr_scan"}, "fusion_lon": 0.0}, {"lat": 38.8864355, "is_disabled": 0, "type": "electric_scooter", "lon": -76.95494483333333, "bike_id": "db83cebe130e42c4ce0ae708d0f2e491", "fusion_lat": 0.0, "name": "db83cebe130e42c4ce0ae708d0f2e491", "is_reserved": 0, "rental_uris": {"android": "https://dc.lft.to/lastmile_qr_scan", "ios": "https://dc.lft.to/lastmile_qr_scan"}, "fusion_lon": 0.0}, {"lat": 38.9430995, "is_disabled": 0, "type": "electric_scooter", "lon": -77.06139216666666, "bike_id": "b6681bfe40dcc9ca996010fd6309b66c", "fusion_lat": 0.0, "name": "b6681bfe40dcc9ca996010fd6309b66c", "is_reserved": 0, "rental_uris": {"android": "https://dc.lft.to/lastmile_qr_scan", "ios": "https://dc.lft.to/lastmile_qr_scan"}, "fusion_lon": 0.0}, {"lat": 38.926916, "is_disabled": 0, "type": "electric_scooter", "lon": -77.0150165, "bike_id": "695f66342d0cfec0078662f6602cc36d", "fusion_lat": 0.0, "name": "695f66342d0cfec0078662f6602cc36d", "is_reserved": 0, "rental_uris": {"android": "https://dc.lft.to/lastmile_qr_scan", "ios": "https://dc.lft.to/lastmile_qr_scan"}, "fusion_lon": 0.0}, {"lat": 38.91571416666667, "is_disabled": 0, "type": "electric_scooter", "lon": -77.05026616666666, "bike_id": "8f2b8e3780562c4a5d4dbc7a15493d9f", "fusion_lat": 0.0, "name": "8f2b8e3780562c4a5d4dbc7a15493d9f", "is_reserved": 0, "rental_uris": {"android": "https://dc.lft.to/lastmile_qr_scan", "ios": "https://dc.lft.to/lastmile_qr_scan"}, "fusion_lon": 0.0}, {"lat": 38.89655066666667, "is_disabled": 0, "type": "electric_scooter", "lon": -77.04666216666666, "bike_id": "eacc8f224c51a1a71790d3bbae88f949", "fusion_lat": 0.0, "name": "eacc8f224c51a1a71790d3bbae88f949", "is_reserved": 0, "rental_uris": {"android": "https://dc.lft.to/lastmile_qr_scan", "ios": "https://dc.lft.to/lastmile_qr_scan"}, "fusion_lon": 0.0}, {"lat": 38.894982666666664, "is_disabled": 0, "type": "electric_scooter", "lon": -77.00253316666667, "bike_id": "7634ee1de7d5d5b76bb0eb340589f17d", "fusion_lat": 0.0, "name": "7634ee1de7d5d5b76bb0eb340589f17d", "is_reserved": 0, "rental_uris": {"android": "https://dc.lft.to/lastmile_qr_scan", "ios": "https://dc.lft.to/lastmile_qr_scan"}, "fusion_lon": 0.0}, {"lat": 38.89760166666667, "is_disabled": 0, "type": "electric_scooter", "lon": -76.941893, "bike_id": "eafce16212e5c9d28efe9a8cbb73e396", "fusion_lat": 0.0, "name": "eafce16212e5c9d28efe9a8cbb73e396", "is_reserved": 0, "rental_uris": {"android": "https://dc.lft.to/lastmile_qr_scan", "ios": "https://dc.lft.to/lastmile_qr_scan"}, "fusion_lon": 0.0}, {"lat": 38.90535216666667, "is_disabled": 0, "type": "electric_scooter", "lon": -77.056808, "bike_id": "85e7b6c8cbefdcfd43de80e041cac9d7", "fusion_lat": 0.0, "name": "85e7b6c8cbefdcfd43de80e041cac9d7", "is_reserved": 0, "rental_uris": {"android": "https://dc.lft.to/lastmile_qr_scan", "ios": "https://dc.lft.to/lastmile_qr_scan"}, "fusion_lon": 0.0}, {"lat": 38.9027495, "is_disabled": 0, "type": "electric_scooter", "lon": -77.03663616666667, "bike_id": "b5c5a3c3c29e0e84c5b2d4d6f570233e", "fusion_lat": 0.0, "name": "b5c5a3c3c29e0e84c5b2d4d6f570233e", "is_reserved": 0, "rental_uris": {"android": "https://dc.lft.to/lastmile_qr_scan", "ios": "https://dc.lft.to/lastmile_qr_scan"}, "fusion_lon": 0.0}, {"lat": 38.922312833333336, "is_disabled": 0, "type": "electric_scooter", "lon": -77.04346266666667, "bike_id": "5dbb24a9068ff29d0a06e5908dcf934b", "fusion_lat": 0.0, "name": "5dbb24a9068ff29d0a06e5908dcf934b", "is_reserved": 0, "rental_uris": {"android": "https://dc.lft.to/lastmile_qr_scan", "ios": "https://dc.lft.to/lastmile_qr_scan"}, "fusion_lon": 0.0}, {"lat": 38.91796683333333, "is_disabled": 0, "type": "electric_scooter", "lon": -77.02316066666667, "bike_id": "cba85529b9735f20911e5297a7dfc2fd", "fusion_lat": 0.0, "name": "cba85529b9735f20911e5297a7dfc2fd", "is_reserved": 0, "rental_uris": {"android": "https://dc.lft.to/lastmile_qr_scan", "ios": "https://dc.lft.to/lastmile_qr_scan"}, "fusion_lon": 0.0}, {"lat": 38.91477966666667, "is_disabled": 0, "type": "electric_scooter", "lon": -77.01376816666667, "bike_id": "8e283c3e9e91ac52e420097a5a3e61b4", "fusion_lat": 0.0, "name": "8e283c3e9e91ac52e420097a5a3e61b4", "is_reserved": 0, "rental_uris": {"android": "https://dc.lft.to/lastmile_qr_scan", "ios": "https://dc.lft.to/lastmile_qr_scan"}, "fusion_lon": 0.0}, {"lat": 38.923812166666664, "is_disabled": 0, "type": "electric_scooter", "lon": -77.0306175, "bike_id": "13298b35bbb28387aae04999e41bb9aa", "fusion_lat": 0.0, "name": "13298b35bbb28387aae04999e41bb9aa", "is_reserved": 0, "rental_uris": {"android": "https://dc.lft.to/lastmile_qr_scan", "ios": "https://dc.lft.to/lastmile_qr_scan"}, "fusion_lon": 0.0}, {"lat": 38.85521116666666, "is_disabled": 0, "type": "electric_bike", "lon": -76.98428916666667, "bike_id": "a133bcfeedcec27660f3acac22cf127f", "fusion_lat": 0.0, "name": "a133bcfeedcec27660f3acac22cf127f", "is_reserved": 0, "rental_uris": {"android": "https://dc.lft.to/lastmile_qr_scan", "ios": "https://dc.lft.to/lastmile_qr_scan"}, "fusion_lon": 0.0}, {"lat": 38.9110245, "is_disabled": 0, "type": "electric_scooter", "lon": -77.04818233333333, "bike_id": "6db6985f7c440f507e6a3e6ef0b1f42a", "fusion_lat": 0.0, "name": "6db6985f7c440f507e6a3e6ef0b1f42a", "is_reserved": 0, "rental_uris": {"android": "https://dc.lft.to/lastmile_qr_scan", "ios": "https://dc.lft.to/lastmile_qr_scan"}, "fusion_lon": 0.0}, {"lat": 38.813458, "is_disabled": 0, "type": "electric_bike", "lon": -77.04925816666666, "bike_id": "6a62d4a7b7026ae347356356a5bd99c7", "fusion_lat": 0.0, "name": "6a62d4a7b7026ae347356356a5bd99c7", "is_reserved": 0, "rental_uris": {"android": "https://dc.lft.to/lastmile_qr_scan", "ios": "https://dc.lft.to/lastmile_qr_scan"}, "fusion_lon": 0.0}, {"lat": 38.890102666666664, "is_disabled": 0, "type": "electric_scooter", "lon": -77.00049733333333, "bike_id": "d183da62a0e3863ab4cf796e6b898d80", "fusion_lat": 0.0, "name": "d183da62a0e3863ab4cf796e6b898d80", "is_reserved": 0, "rental_uris": {"android": "https://dc.lft.to/lastmile_qr_scan", "ios": "https://dc.lft.to/lastmile_qr_scan"}, "fusion_lon": 0.0}, {"lat": 38.9074595, "is_disabled": 0, "type": "electric_scooter", "lon": -77.0419435, "bike_id": "3b52883539bfbe9cda4833f76d358a6c", "fusion_lat": 0.0, "name": "3b52883539bfbe9cda4833f76d358a6c", "is_reserved": 0, "rental_uris": {"android": "https://dc.lft.to/lastmile_qr_scan", "ios": "https://dc.lft.to/lastmile_qr_scan"}, "fusion_lon": 0.0}, {"lat": 38.925893333333335, "is_disabled": 0, "type": "electric_scooter", "lon": -77.02268283333333, "bike_id": "d255f920dedab3f043ca1a85a6fc6451", "fusion_lat": 0.0, "name": "d255f920dedab3f043ca1a85a6fc6451", "is_reserved": 0, "rental_uris": {"android": "https://dc.lft.to/lastmile_qr_scan", "ios": "https://dc.lft.to/lastmile_qr_scan"}, "fusion_lon": 0.0}, {"lat": 38.919188166666665, "is_disabled": 0, "type": "electric_scooter", "lon": -77.03369916666666, "bike_id": "47b443e8f62a019e07ae60383255e591", "fusion_lat": 0.0, "name": "47b443e8f62a019e07ae60383255e591", "is_reserved": 0, "rental_uris": {"android": "https://dc.lft.to/lastmile_qr_scan", "ios": "https://dc.lft.to/lastmile_qr_scan"}, "fusion_lon": 0.0}, {"lat": 38.90088433333333, "is_disabled": 0, "type": "electric_scooter", "lon": -77.049256, "bike_id": "33ce8019d4a176ed8faad5e9c6a5cbe6", "fusion_lat": 0.0, "name": "33ce8019d4a176ed8faad5e9c6a5cbe6", "is_reserved": 0, "rental_uris": {"android": "https://dc.lft.to/lastmile_qr_scan", "ios": "https://dc.lft.to/lastmile_qr_scan"}, "fusion_lon": 0.0}, {"lat": 38.93973916666667, "is_disabled": 0, "type": "electric_scooter", "lon": -77.03593083333334, "bike_id": "f35274609cae14bb0c22c67c3719b906", "fusion_lat": 0.0, "name": "f35274609cae14bb0c22c67c3719b906", "is_reserved": 0, "rental_uris": {"android": "https://dc.lft.to/lastmile_qr_scan", "ios": "https://dc.lft.to/lastmile_qr_scan"}, "fusion_lon": 0.0}, {"lat": 38.932827, "is_disabled": 0, "type": "electric_scooter", "lon": -77.03549666666666, "bike_id": "d4eb26c8de1ac31b0e337be606f6a8fc", "fusion_lat": 0.0, "name": "d4eb26c8de1ac31b0e337be606f6a8fc", "is_reserved": 0, "rental_uris": {"android": "https://dc.lft.to/lastmile_qr_scan", "ios": "https://dc.lft.to/lastmile_qr_scan"}, "fusion_lon": 0.0}, {"lat": 38.95780883333333, "is_disabled": 0, "type": "electric_scooter", "lon": -77.02759266666666, "bike_id": "78132d94347e7d2ab74e3642087f4ff7", "fusion_lat": 0.0, "name": "78132d94347e7d2ab74e3642087f4ff7", "is_reserved": 0, "rental_uris": {"android": "https://dc.lft.to/lastmile_qr_scan", "ios": "https://dc.lft.to/lastmile_qr_scan"}, "fusion_lon": 0.0}, {"lat": 38.9564975, "is_disabled": 0, "type": "electric_scooter", "lon": -77.02400033333333, "bike_id": "667e539385c410a95430698bbcf7867a", "fusion_lat": 0.0, "name": "667e539385c410a95430698bbcf7867a", "is_reserved": 0, "rental_uris": {"android": "https://dc.lft.to/lastmile_qr_scan", "ios": "https://dc.lft.to/lastmile_qr_scan"}, "fusion_lon": 0.0}, {"lat": 38.908779333333335, "is_disabled": 0, "type": "electric_scooter", "lon": -77.03673866666666, "bike_id": "5baf91a8ae0a359b1e0e70a8cc953515", "fusion_lat": 0.0, "name": "5baf91a8ae0a359b1e0e70a8cc953515", "is_reserved": 0, "rental_uris": {"android": "https://dc.lft.to/lastmile_qr_scan", "ios": "https://dc.lft.to/lastmile_qr_scan"}, "fusion_lon": 0.0}, {"lat": 38.919196666666664, "is_disabled": 0, "type": "electric_scooter", "lon": -77.033749, "bike_id": "6f2359bcd1c514bcdec08fa92cbe7c02", "fusion_lat": 0.0, "name": "6f2359bcd1c514bcdec08fa92cbe7c02", "is_reserved": 0, "rental_uris": {"android": "https://dc.lft.to/lastmile_qr_scan", "ios": "https://dc.lft.to/lastmile_qr_scan"}, "fusion_lon": 0.0}, {"lat": 38.9095085, "is_disabled": 0, "type": "electric_scooter", "lon": -77.03728333333333, "bike_id": "e9d28f5d84966280824a621c54a6f6e9", "fusion_lat": 0.0, "name": "e9d28f5d84966280824a621c54a6f6e9", "is_reserved": 0, "rental_uris": {"android": "https://dc.lft.to/lastmile_qr_scan", "ios": "https://dc.lft.to/lastmile_qr_scan"}, "fusion_lon": 0.0}, {"lat": 38.9187045, "is_disabled": 0, "type": "electric_scooter", "lon": -77.012098, "bike_id": "1a5e51791b9e472bda2e153581970fb4", "fusion_lat": 0.0, "name": "1a5e51791b9e472bda2e153581970fb4", "is_reserved": 0, "rental_uris": {"android": "https://dc.lft.to/lastmile_qr_scan", "ios": "https://dc.lft.to/lastmile_qr_scan"}, "fusion_lon": 0.0}, {"lat": 38.928515833333336, "is_disabled": 0, "type": "electric_scooter", "lon": -77.0138545, "bike_id": "6b88c2c8188982d0500445c884000d31", "fusion_lat": 0.0, "name": "6b88c2c8188982d0500445c884000d31", "is_reserved": 0, "rental_uris": {"android": "https://dc.lft.to/lastmile_qr_scan", "ios": "https://dc.lft.to/lastmile_qr_scan"}, "fusion_lon": 0.0}, {"lat": 38.9033705, "is_disabled": 0, "type": "electric_scooter", "lon": -77.04497383333333, "bike_id": "e3a93386c9389d5606c38a7c837dfa84", "fusion_lat": 0.0, "name": "e3a93386c9389d5606c38a7c837dfa84", "is_reserved": 0, "rental_uris": {"android": "https://dc.lft.to/lastmile_qr_scan", "ios": "https://dc.lft.to/lastmile_qr_scan"}, "fusion_lon": 0.0}, {"lat": 38.90084916666667, "is_disabled": 0, "type": "electric_scooter", "lon": -77.00223983333333, "bike_id": "508459669ad0a9858365222f0d7c7f85", "fusion_lat": 0.0, "name": "508459669ad0a9858365222f0d7c7f85", "is_reserved": 0, "rental_uris": {"android": "https://dc.lft.to/lastmile_qr_scan", "ios": "https://dc.lft.to/lastmile_qr_scan"}, "fusion_lon": 0.0}, {"lat": 38.9335125, "is_disabled": 0, "type": "electric_bike", "lon": -77.09964566666666, "bike_id": "13c6641b3dcff1a44c946cb27caebfa8", "fusion_lat": 0.0, "name": "13c6641b3dcff1a44c946cb27caebfa8", "is_reserved": 0, "rental_uris": {"android": "https://dc.lft.to/lastmile_qr_scan", "ios": "https://dc.lft.to/lastmile_qr_scan"}, "fusion_lon": 0.0}, {"lat": 38.95818833333333, "is_disabled": 0, "type": "electric_bike", "lon": -76.94091566666667, "bike_id": "8ed64dfae37039f39a29d3b3a2a05336", "fusion_lat": 0.0, "name": "8ed64dfae37039f39a29d3b3a2a05336", "is_reserved": 0, "rental_uris": {"android": "https://dc.lft.to/lastmile_qr_scan", "ios": "https://dc.lft.to/lastmile_qr_scan"}, "fusion_lon": 0.0}, {"lat": 38.902718, "is_disabled": 0, "type": "electric_scooter", "lon": -77.0396305, "bike_id": "df4424354bc90eb9e8788fdd5e6e017a", "fusion_lat": 0.0, "name": "df4424354bc90eb9e8788fdd5e6e017a", "is_reserved": 0, "rental_uris": {"android": "https://dc.lft.to/lastmile_qr_scan", "ios": "https://dc.lft.to/lastmile_qr_scan"}, "fusion_lon": 0.0}, {"lat": 38.95162633333333, "is_disabled": 0, "type": "electric_bike", "lon": -76.96893683333333, "bike_id": "a1687984da152af391e988556ded6424", "fusion_lat": 0.0, "name": "a1687984da152af391e988556ded6424", "is_reserved": 0, "rental_uris": {"android": "https://dc.lft.to/lastmile_qr_scan", "ios": "https://dc.lft.to/lastmile_qr_scan"}, "fusion_lon": 0.0}, {"lat": 38.903317333333334, "is_disabled": 0, "type": "electric_scooter", "lon": -76.97595366666667, "bike_id": "5d5f845a83a0fc9728b2774bc05f1cfc", "fusion_lat": 0.0, "name": "5d5f845a83a0fc9728b2774bc05f1cfc", "is_reserved": 0, "rental_uris": {"android": "https://dc.lft.to/lastmile_qr_scan", "ios": "https://dc.lft.to/lastmile_qr_scan"}, "fusion_lon": 0.0}, {"lat": 38.903491333333335, "is_disabled": 0, "type": "electric_scooter", "lon": -77.02513483333334, "bike_id": "9412152e86de70b9546fe83ab71a91fc", "fusion_lat": 0.0, "name": "9412152e86de70b9546fe83ab71a91fc", "is_reserved": 0, "rental_uris": {"android": "https://dc.lft.to/lastmile_qr_scan", "ios": "https://dc.lft.to/lastmile_qr_scan"}, "fusion_lon": 0.0}, {"lat": 38.89260083333333, "is_disabled": 0, "type": "electric_scooter", "lon": -76.94160666666667, "bike_id": "6943516a6c6a649c547fa3443bc939ff", "fusion_lat": 0.0, "name": "6943516a6c6a649c547fa3443bc939ff", "is_reserved": 0, "rental_uris": {"android": "https://dc.lft.to/lastmile_qr_scan", "ios": "https://dc.lft.to/lastmile_qr_scan"}, "fusion_lon": 0.0}, {"lat": 38.939887, "is_disabled": 0, "type": "electric_scooter", "lon": -77.07178016666667, "bike_id": "91e55bfec828fef55b2c0de1a1c653b2", "fusion_lat": 0.0, "name": "91e55bfec828fef55b2c0de1a1c653b2", "is_reserved": 0, "rental_uris": {"android": "https://dc.lft.to/lastmile_qr_scan", "ios": "https://dc.lft.to/lastmile_qr_scan"}, "fusion_lon": 0.0}, {"lat": 38.93200683333333, "is_disabled": 0, "type": "electric_scooter", "lon": -77.03748366666666, "bike_id": "5960fddb6e40c2094e68b8aab03eff08", "fusion_lat": 0.0, "name": "5960fddb6e40c2094e68b8aab03eff08", "is_reserved": 0, "rental_uris": {"android": "https://dc.lft.to/lastmile_qr_scan", "ios": "https://dc.lft.to/lastmile_qr_scan"}, "fusion_lon": 0.0}, {"lat": 38.874137833333336, "is_disabled": 0, "type": "electric_scooter", "lon": -76.97315466666667, "bike_id": "2a31816156556cc5f1e12d5d0a65a100", "fusion_lat": 0.0, "name": "2a31816156556cc5f1e12d5d0a65a100", "is_reserved": 0, "rental_uris": {"android": "https://dc.lft.to/lastmile_qr_scan", "ios": "https://dc.lft.to/lastmile_qr_scan"}, "fusion_lon": 0.0}, {"lat": 38.8990665, "is_disabled": 0, "type": "electric_scooter", "lon": -76.93354483333333, "bike_id": "845a54e120fdf75d0a3656e5b5975d51", "fusion_lat": 0.0, "name": "845a54e120fdf75d0a3656e5b5975d51", "is_reserved": 0, "rental_uris": {"android": "https://dc.lft.to/lastmile_qr_scan", "ios": "https://dc.lft.to/lastmile_qr_scan"}, "fusion_lon": 0.0}, {"lat": 38.897334, "is_disabled": 0, "type": "electric_scooter", "lon": -77.045378, "bike_id": "eb25d67016bae4ca753cfcab5b34cdac", "fusion_lat": 0.0, "name": "eb25d67016bae4ca753cfcab5b34cdac", "is_reserved": 0, "rental_uris": {"android": "https://dc.lft.to/lastmile_qr_scan", "ios": "https://dc.lft.to/lastmile_qr_scan"}, "fusion_lon": 0.0}, {"lat": 38.806814333333335, "is_disabled": 0, "type": "electric_bike", "lon": -77.0812005, "bike_id": "bbfb04b3dc84536fbc64ec5173a19de0", "fusion_lat": 0.0, "name": "bbfb04b3dc84536fbc64ec5173a19de0", "is_reserved": 0, "rental_uris": {"android": "https://dc.lft.to/lastmile_qr_scan", "ios": "https://dc.lft.to/lastmile_qr_scan"}, "fusion_lon": 0.0}, {"lat": 38.912656, "is_disabled": 0, "type": "electric_bike", "lon": -77.01220566666667, "bike_id": "99f2ad221a5ff17adff3c6b4d291dc69", "fusion_lat": 0.0, "name": "99f2ad221a5ff17adff3c6b4d291dc69", "is_reserved": 0, "rental_uris": {"android": "https://dc.lft.to/lastmile_qr_scan", "ios": "https://dc.lft.to/lastmile_qr_scan"}, "fusion_lon": 0.0}, {"lat": 38.91777583333333, "is_disabled": 0, "type": "electric_scooter", "lon": -77.04340666666667, "bike_id": "bf909e78bf743589e2e4516d0ba90a49", "fusion_lat": 0.0, "name": "bf909e78bf743589e2e4516d0ba90a49", "is_reserved": 0, "rental_uris": {"android": "https://dc.lft.to/lastmile_qr_scan", "ios": "https://dc.lft.to/lastmile_qr_scan"}, "fusion_lon": 0.0}, {"lat": 38.86662116666667, "is_disabled": 0, "type": "electric_scooter", "lon": -76.98884, "bike_id": "032cb0e9f25efa6e00f147559ea8bd8d", "fusion_lat": 0.0, "name": "032cb0e9f25efa6e00f147559ea8bd8d", "is_reserved": 0, "rental_uris": {"android": "https://dc.lft.to/lastmile_qr_scan", "ios": "https://dc.lft.to/lastmile_qr_scan"}, "fusion_lon": 0.0}, {"lat": 38.925707333333335, "is_disabled": 0, "type": "electric_scooter", "lon": -77.05767233333333, "bike_id": "c6cc968a1ee5081805847feedb9024a7", "fusion_lat": 0.0, "name": "c6cc968a1ee5081805847feedb9024a7", "is_reserved": 0, "rental_uris": {"android": "https://dc.lft.to/lastmile_qr_scan", "ios": "https://dc.lft.to/lastmile_qr_scan"}, "fusion_lon": 0.0}, {"lat": 38.9113015, "is_disabled": 0, "type": "electric_scooter", "lon": -77.04418883333334, "bike_id": "0a0f84eb0275422f70f3f0d5f9710f7c", "fusion_lat": 0.0, "name": "0a0f84eb0275422f70f3f0d5f9710f7c", "is_reserved": 0, "rental_uris": {"android": "https://dc.lft.to/lastmile_qr_scan", "ios": "https://dc.lft.to/lastmile_qr_scan"}, "fusion_lon": 0.0}, {"lat": 38.921412333333336, "is_disabled": 0, "type": "electric_scooter", "lon": -77.043711, "bike_id": "591ecbd5df6c7b71622214a8d98cf6ec", "fusion_lat": 0.0, "name": "591ecbd5df6c7b71622214a8d98cf6ec", "is_reserved": 0, "rental_uris": {"android": "https://dc.lft.to/lastmile_qr_scan", "ios": "https://dc.lft.to/lastmile_qr_scan"}, "fusion_lon": 0.0}, {"lat": 38.9077705, "is_disabled": 0, "type": "electric_scooter", "lon": -77.03857433333333, "bike_id": "d1afbf0870b1455ce86e2a3364ebcb0a", "fusion_lat": 0.0, "name": "d1afbf0870b1455ce86e2a3364ebcb0a", "is_reserved": 0, "rental_uris": {"android": "https://dc.lft.to/lastmile_qr_scan", "ios": "https://dc.lft.to/lastmile_qr_scan"}, "fusion_lon": 0.0}, {"lat": 38.868853, "is_disabled": 0, "type": "electric_scooter", "lon": -76.98315683333334, "bike_id": "1191ee29d81f95c6b68d5fe9e74e4dc1", "fusion_lat": 0.0, "name": "1191ee29d81f95c6b68d5fe9e74e4dc1", "is_reserved": 0, "rental_uris": {"android": "https://dc.lft.to/lastmile_qr_scan", "ios": "https://dc.lft.to/lastmile_qr_scan"}, "fusion_lon": 0.0}, {"lat": 38.882569, "is_disabled": 0, "type": "electric_scooter", "lon": -77.004361, "bike_id": "ee4c23784dd0789f8cb2aa54dd79be33", "fusion_lat": 0.0, "name": "ee4c23784dd0789f8cb2aa54dd79be33", "is_reserved": 0, "rental_uris": {"android": "https://dc.lft.to/lastmile_qr_scan", "ios": "https://dc.lft.to/lastmile_qr_scan"}, "fusion_lon": 0.0}, {"lat": 38.8999935, "is_disabled": 0, "type": "electric_scooter", "lon": -77.040348, "bike_id": "0eb6a5831289ec0d4e22f1613d442b8d", "fusion_lat": 0.0, "name": "0eb6a5831289ec0d4e22f1613d442b8d", "is_reserved": 0, "rental_uris": {"android": "https://dc.lft.to/lastmile_qr_scan", "ios": "https://dc.lft.to/lastmile_qr_scan"}, "fusion_lon": 0.0}, {"lat": 38.89900016666667, "is_disabled": 0, "type": "electric_scooter", "lon": -76.9972735, "bike_id": "f64909b65f68d241ec9d5b0949642709", "fusion_lat": 0.0, "name": "f64909b65f68d241ec9d5b0949642709", "is_reserved": 0, "rental_uris": {"android": "https://dc.lft.to/lastmile_qr_scan", "ios": "https://dc.lft.to/lastmile_qr_scan"}, "fusion_lon": 0.0}, {"lat": 38.903765166666666, "is_disabled": 0, "type": "electric_scooter", "lon": -77.01642033333333, "bike_id": "51ea65dfe66c6f21dd74a93b8df868ac", "fusion_lat": 0.0, "name": "51ea65dfe66c6f21dd74a93b8df868ac", "is_reserved": 0, "rental_uris": {"android": "https://dc.lft.to/lastmile_qr_scan", "ios": "https://dc.lft.to/lastmile_qr_scan"}, "fusion_lon": 0.0}, {"lat": 38.905760666666666, "is_disabled": 0, "type": "electric_scooter", "lon": -77.00848683333334, "bike_id": "2abd0fa8e5fcb0dd2ea9a1f91fbf4d67", "fusion_lat": 0.0, "name": "2abd0fa8e5fcb0dd2ea9a1f91fbf4d67", "is_reserved": 0, "rental_uris": {"android": "https://dc.lft.to/lastmile_qr_scan", "ios": "https://dc.lft.to/lastmile_qr_scan"}, "fusion_lon": 0.0}, {"lat": 38.961960833333336, "is_disabled": 0, "type": "electric_bike", "lon": -77.01889583333333, "bike_id": "7a7202349b35d19b2bb4b7f3cf24a8a6", "fusion_lat": 0.0, "name": "7a7202349b35d19b2bb4b7f3cf24a8a6", "is_reserved": 0, "rental_uris": {"android": "https://dc.lft.to/lastmile_qr_scan", "ios": "https://dc.lft.to/lastmile_qr_scan"}, "fusion_lon": 0.0}, {"lat": 38.90044483333333, "is_disabled": 0, "type": "electric_scooter", "lon": -77.01296916666666, "bike_id": "ea3a7aa1fb24d3fd6f592b0a1b2a441e", "fusion_lat": 0.0, "name": "ea3a7aa1fb24d3fd6f592b0a1b2a441e", "is_reserved": 0, "rental_uris": {"android": "https://dc.lft.to/lastmile_qr_scan", "ios": "https://dc.lft.to/lastmile_qr_scan"}, "fusion_lon": 0.0}, {"lat": 38.911819666666666, "is_disabled": 0, "type": "electric_scooter", "lon": -77.00254516666666, "bike_id": "eb2abfa80959ec99ef795405083f707d", "fusion_lat": 0.0, "name": "eb2abfa80959ec99ef795405083f707d", "is_reserved": 0, "rental_uris": {"android": "https://dc.lft.to/lastmile_qr_scan", "ios": "https://dc.lft.to/lastmile_qr_scan"}, "fusion_lon": 0.0}, {"lat": 38.90973533333333, "is_disabled": 0, "type": "electric_scooter", "lon": -77.0320625, "bike_id": "d76ed8ededafeb1eb76c19299d0e3e59", "fusion_lat": 0.0, "name": "d76ed8ededafeb1eb76c19299d0e3e59", "is_reserved": 0, "rental_uris": {"android": "https://dc.lft.to/lastmile_qr_scan", "ios": "https://dc.lft.to/lastmile_qr_scan"}, "fusion_lon": 0.0}, {"lat": 38.90293233333333, "is_disabled": 0, "type": "electric_scooter", "lon": -77.00208766666667, "bike_id": "1c9e8d2848a32cf74ad4f25246156e2c", "fusion_lat": 0.0, "name": "1c9e8d2848a32cf74ad4f25246156e2c", "is_reserved": 0, "rental_uris": {"android": "https://dc.lft.to/lastmile_qr_scan", "ios": "https://dc.lft.to/lastmile_qr_scan"}, "fusion_lon": 0.0}, {"lat": 38.927610333333334, "is_disabled": 0, "type": "electric_scooter", "lon": -77.03254, "bike_id": "4e80da79bfd32a8b7f141f7aaab6444e", "fusion_lat": 0.0, "name": "4e80da79bfd32a8b7f141f7aaab6444e", "is_reserved": 0, "rental_uris": {"android": "https://dc.lft.to/lastmile_qr_scan", "ios": "https://dc.lft.to/lastmile_qr_scan"}, "fusion_lon": 0.0}, {"lat": 38.90988016666667, "is_disabled": 0, "type": "electric_scooter", "lon": -76.9973865, "bike_id": "20cd6667d9a9289f2994947e0f83063d", "fusion_lat": 0.0, "name": "20cd6667d9a9289f2994947e0f83063d", "is_reserved": 0, "rental_uris": {"android": "https://dc.lft.to/lastmile_qr_scan", "ios": "https://dc.lft.to/lastmile_qr_scan"}, "fusion_lon": 0.0}, {"lat": 38.928700666666664, "is_disabled": 0, "type": "electric_scooter", "lon": -77.01943316666667, "bike_id": "19485c5814370c808ec6bf221bb9f85f", "fusion_lat": 0.0, "name": "19485c5814370c808ec6bf221bb9f85f", "is_reserved": 0, "rental_uris": {"android": "https://dc.lft.to/lastmile_qr_scan", "ios": "https://dc.lft.to/lastmile_qr_scan"}, "fusion_lon": 0.0}, {"lat": 38.882894, "is_disabled": 0, "type": "electric_scooter", "lon": -77.01747783333333, "bike_id": "a18ebf92a791310fcbf1804f80f9cd1e", "fusion_lat": 0.0, "name": "a18ebf92a791310fcbf1804f80f9cd1e", "is_reserved": 0, "rental_uris": {"android": "https://dc.lft.to/lastmile_qr_scan", "ios": "https://dc.lft.to/lastmile_qr_scan"}, "fusion_lon": 0.0}, {"lat": 38.92314616666667, "is_disabled": 0, "type": "electric_scooter", "lon": -77.02797883333334, "bike_id": "c23fb4949e3ac0942736314c7343eb7f", "fusion_lat": 0.0, "name": "c23fb4949e3ac0942736314c7343eb7f", "is_reserved": 0, "rental_uris": {"android": "https://dc.lft.to/lastmile_qr_scan", "ios": "https://dc.lft.to/lastmile_qr_scan"}, "fusion_lon": 0.0}, {"lat": 38.91822766666667, "is_disabled": 0, "type": "electric_scooter", "lon": -77.02382466666667, "bike_id": "5b866a64fe6445da652bd3c563271f39", "fusion_lat": 0.0, "name": "5b866a64fe6445da652bd3c563271f39", "is_reserved": 0, "rental_uris": {"android": "https://dc.lft.to/lastmile_qr_scan", "ios": "https://dc.lft.to/lastmile_qr_scan"}, "fusion_lon": 0.0}, {"lat": 38.893961166666664, "is_disabled": 0, "type": "electric_scooter", "lon": -77.05003283333333, "bike_id": "7cf2cb7ec267515abc3d9754f3c7116f", "fusion_lat": 0.0, "name": "7cf2cb7ec267515abc3d9754f3c7116f", "is_reserved": 0, "rental_uris": {"android": "https://dc.lft.to/lastmile_qr_scan", "ios": "https://dc.lft.to/lastmile_qr_scan"}, "fusion_lon": 0.0}, {"lat": 38.91705966666667, "is_disabled": 0, "type": "electric_scooter", "lon": -77.0402985, "bike_id": "173d1f955d5dc6eeeee72483427dce57", "fusion_lat": 0.0, "name": "173d1f955d5dc6eeeee72483427dce57", "is_reserved": 0, "rental_uris": {"android": "https://dc.lft.to/lastmile_qr_scan", "ios": "https://dc.lft.to/lastmile_qr_scan"}, "fusion_lon": 0.0}, {"lat": 38.828706333333336, "is_disabled": 0, "type": "electric_bike", "lon": -77.11220133333333, "bike_id": "0a64a93ea1cd2e236148e974c7c79d16", "fusion_lat": 0.0, "name": "0a64a93ea1cd2e236148e974c7c79d16", "is_reserved": 0, "rental_uris": {"android": "https://dc.lft.to/lastmile_qr_scan", "ios": "https://dc.lft.to/lastmile_qr_scan"}, "fusion_lon": 0.0}, {"lat": 38.90083533333333, "is_disabled": 0, "type": "electric_scooter", "lon": -77.0022415, "bike_id": "fe1d48bfc0f722e70887f863df35d052", "fusion_lat": 0.0, "name": "fe1d48bfc0f722e70887f863df35d052", "is_reserved": 0, "rental_uris": {"android": "https://dc.lft.to/lastmile_qr_scan", "ios": "https://dc.lft.to/lastmile_qr_scan"}, "fusion_lon": 0.0}, {"lat": 38.905621, "is_disabled": 0, "type": "electric_scooter", "lon": -77.00726016666667, "bike_id": "0add947c24c022e0445e344ac47c8774", "fusion_lat": 0.0, "name": "0add947c24c022e0445e344ac47c8774", "is_reserved": 0, "rental_uris": {"android": "https://dc.lft.to/lastmile_qr_scan", "ios": "https://dc.lft.to/lastmile_qr_scan"}, "fusion_lon": 0.0}, {"lat": 38.927912166666665, "is_disabled": 0, "type": "electric_scooter", "lon": -77.03816116666667, "bike_id": "7b2fa4277a2391cf506352bbba4c71a1", "fusion_lat": 0.0, "name": "7b2fa4277a2391cf506352bbba4c71a1", "is_reserved": 0, "rental_uris": {"android": "https://dc.lft.to/lastmile_qr_scan", "ios": "https://dc.lft.to/lastmile_qr_scan"}, "fusion_lon": 0.0}, {"lat": 38.900444, "is_disabled": 0, "type": "electric_scooter", "lon": -77.0297815, "bike_id": "669663a8a704bb225f289eb8bd5350ee", "fusion_lat": 0.0, "name": "669663a8a704bb225f289eb8bd5350ee", "is_reserved": 0, "rental_uris": {"android": "https://dc.lft.to/lastmile_qr_scan", "ios": "https://dc.lft.to/lastmile_qr_scan"}, "fusion_lon": 0.0}, {"lat": 39.0047105, "is_disabled": 0, "type": "electric_bike", "lon": -76.90135183333334, "bike_id": "936e1e2bfcb60d32672b509345f5aa3f", "fusion_lat": 0.0, "name": "936e1e2bfcb60d32672b509345f5aa3f", "is_reserved": 0, "rental_uris": {"android": "https://dc.lft.to/lastmile_qr_scan", "ios": "https://dc.lft.to/lastmile_qr_scan"}, "fusion_lon": 0.0}, {"lat": 38.9011455, "is_disabled": 0, "type": "electric_scooter", "lon": -77.04986766666667, "bike_id": "bd48bcb14981333ab35ef38f926989df", "fusion_lat": 0.0, "name": "bd48bcb14981333ab35ef38f926989df", "is_reserved": 0, "rental_uris": {"android": "https://dc.lft.to/lastmile_qr_scan", "ios": "https://dc.lft.to/lastmile_qr_scan"}, "fusion_lon": 0.0}, {"lat": 38.9086045, "is_disabled": 0, "type": "electric_scooter", "lon": -76.9916675, "bike_id": "68daeb512e2af27f8fb98ff71e5a97a1", "fusion_lat": 0.0, "name": "68daeb512e2af27f8fb98ff71e5a97a1", "is_reserved": 0, "rental_uris": {"android": "https://dc.lft.to/lastmile_qr_scan", "ios": "https://dc.lft.to/lastmile_qr_scan"}, "fusion_lon": 0.0}, {"lat": 38.90041316666667, "is_disabled": 0, "type": "electric_scooter", "lon": -76.99384066666667, "bike_id": "caa6eecb0d587586b44e27761a90d38a", "fusion_lat": 0.0, "name": "caa6eecb0d587586b44e27761a90d38a", "is_reserved": 0, "rental_uris": {"android": "https://dc.lft.to/lastmile_qr_scan", "ios": "https://dc.lft.to/lastmile_qr_scan"}, "fusion_lon": 0.0}, {"lat": 38.961779, "is_disabled": 0, "type": "electric_bike", "lon": -77.073721, "bike_id": "32325c8cbaf5b5e158c185e93cd394d5", "fusion_lat": 0.0, "name": "32325c8cbaf5b5e158c185e93cd394d5", "is_reserved": 0, "rental_uris": {"android": "https://dc.lft.to/lastmile_qr_scan", "ios": "https://dc.lft.to/lastmile_qr_scan"}, "fusion_lon": 0.0}, {"lat": 38.927539, "is_disabled": 0, "type": "electric_scooter", "lon": -77.025359, "bike_id": "ad0e9aeb8579526b838b71c5a56418e3", "fusion_lat": 0.0, "name": "ad0e9aeb8579526b838b71c5a56418e3", "is_reserved": 0, "rental_uris": {"android": "https://dc.lft.to/lastmile_qr_scan", "ios": "https://dc.lft.to/lastmile_qr_scan"}, "fusion_lon": 0.0}, {"lat": 38.90619483333333, "is_disabled": 0, "type": "electric_scooter", "lon": -76.98987283333334, "bike_id": "bcea33dcd8dae73d6bf96c1d6ac3ddb1", "fusion_lat": 0.0, "name": "bcea33dcd8dae73d6bf96c1d6ac3ddb1", "is_reserved": 0, "rental_uris": {"android": "https://dc.lft.to/lastmile_qr_scan", "ios": "https://dc.lft.to/lastmile_qr_scan"}, "fusion_lon": 0.0}, {"lat": 38.8911415, "is_disabled": 0, "type": "electric_scooter", "lon": -76.94391, "bike_id": "c3a136305bc3e3e9574832547cbfa4fd", "fusion_lat": 0.0, "name": "c3a136305bc3e3e9574832547cbfa4fd", "is_reserved": 0, "rental_uris": {"android": "https://dc.lft.to/lastmile_qr_scan", "ios": "https://dc.lft.to/lastmile_qr_scan"}, "fusion_lon": 0.0}, {"lat": 38.859081833333335, "is_disabled": 0, "type": "electric_scooter", "lon": -76.991508, "bike_id": "2e829f7a028fed4880743a95ec8bbfd1", "fusion_lat": 0.0, "name": "2e829f7a028fed4880743a95ec8bbfd1", "is_reserved": 0, "rental_uris": {"android": "https://dc.lft.to/lastmile_qr_scan", "ios": "https://dc.lft.to/lastmile_qr_scan"}, "fusion_lon": 0.0}, {"lat": 38.89529616666667, "is_disabled": 0, "type": "electric_scooter", "lon": -77.02824166666667, "bike_id": "8cb90ce830005fc1a1db7a80732a36ec", "fusion_lat": 0.0, "name": "8cb90ce830005fc1a1db7a80732a36ec", "is_reserved": 0, "rental_uris": {"android": "https://dc.lft.to/lastmile_qr_scan", "ios": "https://dc.lft.to/lastmile_qr_scan"}, "fusion_lon": 0.0}, {"lat": 38.91104216666667, "is_disabled": 0, "type": "electric_scooter", "lon": -77.04227933333334, "bike_id": "1b0ab08c633e7ffd9aa6ab163de72e78", "fusion_lat": 0.0, "name": "1b0ab08c633e7ffd9aa6ab163de72e78", "is_reserved": 0, "rental_uris": {"android": "https://dc.lft.to/lastmile_qr_scan", "ios": "https://dc.lft.to/lastmile_qr_scan"}, "fusion_lon": 0.0}, {"lat": 38.9473585, "is_disabled": 0, "type": "electric_scooter", "lon": -77.06528683333333, "bike_id": "c289fe833924ebac4e3c678f6bc872c4", "fusion_lat": 0.0, "name": "c289fe833924ebac4e3c678f6bc872c4", "is_reserved": 0, "rental_uris": {"android": "https://dc.lft.to/lastmile_qr_scan", "ios": "https://dc.lft.to/lastmile_qr_scan"}, "fusion_lon": 0.0}, {"lat": 38.866535, "is_disabled": 0, "type": "electric_scooter", "lon": -76.98886666666667, "bike_id": "e8255a39d06fc07ccbcc6edd47525379", "fusion_lat": 0.0, "name": "e8255a39d06fc07ccbcc6edd47525379", "is_reserved": 0, "rental_uris": {"android": "https://dc.lft.to/lastmile_qr_scan", "ios": "https://dc.lft.to/lastmile_qr_scan"}, "fusion_lon": 0.0}, {"lat": 38.90039566666667, "is_disabled": 0, "type": "electric_scooter", "lon": -76.997436, "bike_id": "18663515900d5f470966f31950c5f6aa", "fusion_lat": 0.0, "name": "18663515900d5f470966f31950c5f6aa", "is_reserved": 0, "rental_uris": {"android": "https://dc.lft.to/lastmile_qr_scan", "ios": "https://dc.lft.to/lastmile_qr_scan"}, "fusion_lon": 0.0}, {"lat": 38.89904583333333, "is_disabled": 0, "type": "electric_scooter", "lon": -76.933568, "bike_id": "813fbd333e3646181509617323186d14", "fusion_lat": 0.0, "name": "813fbd333e3646181509617323186d14", "is_reserved": 0, "rental_uris": {"android": "https://dc.lft.to/lastmile_qr_scan", "ios": "https://dc.lft.to/lastmile_qr_scan"}, "fusion_lon": 0.0}, {"lat": 38.9306045, "is_disabled": 0, "type": "electric_scooter", "lon": -77.04181183333333, "bike_id": "6b33d9e7f8a7561802af2eead9182442", "fusion_lat": 0.0, "name": "6b33d9e7f8a7561802af2eead9182442", "is_reserved": 0, "rental_uris": {"android": "https://dc.lft.to/lastmile_qr_scan", "ios": "https://dc.lft.to/lastmile_qr_scan"}, "fusion_lon": 0.0}, {"lat": 38.916038, "is_disabled": 0, "type": "electric_scooter", "lon": -77.0385, "bike_id": "9e8fc6d8c85a692956dba6fa8a61cdea", "fusion_lat": 0.0, "name": "9e8fc6d8c85a692956dba6fa8a61cdea", "is_reserved": 0, "rental_uris": {"android": "https://dc.lft.to/lastmile_qr_scan", "ios": "https://dc.lft.to/lastmile_qr_scan"}, "fusion_lon": 0.0}, {"lat": 38.89558483333333, "is_disabled": 0, "type": "electric_bike", "lon": -77.12734116666667, "bike_id": "b51f2fdba9366621c54030cc372d519c", "fusion_lat": 0.0, "name": "b51f2fdba9366621c54030cc372d519c", "is_reserved": 0, "rental_uris": {"android": "https://dc.lft.to/lastmile_qr_scan", "ios": "https://dc.lft.to/lastmile_qr_scan"}, "fusion_lon": 0.0}, {"lat": 38.9037635, "is_disabled": 0, "type": "electric_scooter", "lon": -77.038343, "bike_id": "31251bc3145b732513d87d0aba09da30", "fusion_lat": 0.0, "name": "31251bc3145b732513d87d0aba09da30", "is_reserved": 0, "rental_uris": {"android": "https://dc.lft.to/lastmile_qr_scan", "ios": "https://dc.lft.to/lastmile_qr_scan"}, "fusion_lon": 0.0}, {"lat": 38.90454183333333, "is_disabled": 0, "type": "electric_scooter", "lon": -76.9945735, "bike_id": "4e65f315df3ac14d2956bb681814c044", "fusion_lat": 0.0, "name": "4e65f315df3ac14d2956bb681814c044", "is_reserved": 0, "rental_uris": {"android": "https://dc.lft.to/lastmile_qr_scan", "ios": "https://dc.lft.to/lastmile_qr_scan"}, "fusion_lon": 0.0}, {"lat": 38.918842, "is_disabled": 0, "type": "electric_scooter", "lon": -77.03907683333334, "bike_id": "348486e9536fb032d1e82f9168cdd854", "fusion_lat": 0.0, "name": "348486e9536fb032d1e82f9168cdd854", "is_reserved": 0, "rental_uris": {"android": "https://dc.lft.to/lastmile_qr_scan", "ios": "https://dc.lft.to/lastmile_qr_scan"}, "fusion_lon": 0.0}, {"lat": 38.91288516666667, "is_disabled": 0, "type": "electric_scooter", "lon": -77.02387633333333, "bike_id": "6115f6db31796c31d4004e7be1fd9e87", "fusion_lat": 0.0, "name": "6115f6db31796c31d4004e7be1fd9e87", "is_reserved": 0, "rental_uris": {"android": "https://dc.lft.to/lastmile_qr_scan", "ios": "https://dc.lft.to/lastmile_qr_scan"}, "fusion_lon": 0.0}, {"lat": 38.904160166666664, "is_disabled": 0, "type": "electric_scooter", "lon": -77.06890116666666, "bike_id": "16894a479d26870abd5b317b7f51e960", "fusion_lat": 0.0, "name": "16894a479d26870abd5b317b7f51e960", "is_reserved": 0, "rental_uris": {"android": "https://dc.lft.to/lastmile_qr_scan", "ios": "https://dc.lft.to/lastmile_qr_scan"}, "fusion_lon": 0.0}, {"lat": 38.93000383333333, "is_disabled": 0, "type": "electric_scooter", "lon": -77.02114633333333, "bike_id": "b0161be6aa67e28d0e769cf7772800dc", "fusion_lat": 0.0, "name": "b0161be6aa67e28d0e769cf7772800dc", "is_reserved": 0, "rental_uris": {"android": "https://dc.lft.to/lastmile_qr_scan", "ios": "https://dc.lft.to/lastmile_qr_scan"}, "fusion_lon": 0.0}, {"lat": 38.902660833333336, "is_disabled": 0, "type": "electric_scooter", "lon": -77.00213233333334, "bike_id": "753eea65985a21e0c42eeec7d3c6810a", "fusion_lat": 0.0, "name": "753eea65985a21e0c42eeec7d3c6810a", "is_reserved": 0, "rental_uris": {"android": "https://dc.lft.to/lastmile_qr_scan", "ios": "https://dc.lft.to/lastmile_qr_scan"}, "fusion_lon": 0.0}, {"lat": 38.9204925, "is_disabled": 0, "type": "electric_scooter", "lon": -77.034727, "bike_id": "861fbf5477e6582627633fecb6a6c8aa", "fusion_lat": 0.0, "name": "861fbf5477e6582627633fecb6a6c8aa", "is_reserved": 0, "rental_uris": {"android": "https://dc.lft.to/lastmile_qr_scan", "ios": "https://dc.lft.to/lastmile_qr_scan"}, "fusion_lon": 0.0}, {"lat": 38.896632333333336, "is_disabled": 0, "type": "electric_scooter", "lon": -77.0397955, "bike_id": "ea7a1b3d5dd5834fbbfd9b461b7e5ca9", "fusion_lat": 0.0, "name": "ea7a1b3d5dd5834fbbfd9b461b7e5ca9", "is_reserved": 0, "rental_uris": {"android": "https://dc.lft.to/lastmile_qr_scan", "ios": "https://dc.lft.to/lastmile_qr_scan"}, "fusion_lon": 0.0}, {"lat": 38.908202333333335, "is_disabled": 0, "type": "electric_scooter", "lon": -77.04348983333334, "bike_id": "11c01ffc40fce75d5957221b468482b5", "fusion_lat": 0.0, "name": "11c01ffc40fce75d5957221b468482b5", "is_reserved": 0, "rental_uris": {"android": "https://dc.lft.to/lastmile_qr_scan", "ios": "https://dc.lft.to/lastmile_qr_scan"}, "fusion_lon": 0.0}, {"lat": 38.90051166666667, "is_disabled": 0, "type": "electric_scooter", "lon": -77.00195466666666, "bike_id": "4943d094ba53322375d7c9698e93524c", "fusion_lat": 0.0, "name": "4943d094ba53322375d7c9698e93524c", "is_reserved": 0, "rental_uris": {"android": "https://dc.lft.to/lastmile_qr_scan", "ios": "https://dc.lft.to/lastmile_qr_scan"}, "fusion_lon": 0.0}, {"lat": 38.90572133333333, "is_disabled": 0, "type": "electric_scooter", "lon": -77.00891583333333, "bike_id": "7e79cb7f3dce11d8163516fc43e33175", "fusion_lat": 0.0, "name": "7e79cb7f3dce11d8163516fc43e33175", "is_reserved": 0, "rental_uris": {"android": "https://dc.lft.to/lastmile_qr_scan", "ios": "https://dc.lft.to/lastmile_qr_scan"}, "fusion_lon": 0.0}, {"lat": 38.903927, "is_disabled": 0, "type": "electric_scooter", "lon": -77.01768083333333, "bike_id": "12aaf517ec495aadeb1d76eff3394f42", "fusion_lat": 0.0, "name": "12aaf517ec495aadeb1d76eff3394f42", "is_reserved": 0, "rental_uris": {"android": "https://dc.lft.to/lastmile_qr_scan", "ios": "https://dc.lft.to/lastmile_qr_scan"}, "fusion_lon": 0.0}, {"lat": 38.9061815, "is_disabled": 0, "type": "electric_scooter", "lon": -76.98700383333333, "bike_id": "1bc8f09e1973fcae4cb92c65256afa14", "fusion_lat": 0.0, "name": "1bc8f09e1973fcae4cb92c65256afa14", "is_reserved": 0, "rental_uris": {"android": "https://dc.lft.to/lastmile_qr_scan", "ios": "https://dc.lft.to/lastmile_qr_scan"}, "fusion_lon": 0.0}, {"lat": 38.936501666666665, "is_disabled": 0, "type": "electric_scooter", "lon": -77.03661716666667, "bike_id": "94f39504da36eaecac519558b46acc90", "fusion_lat": 0.0, "name": "94f39504da36eaecac519558b46acc90", "is_reserved": 0, "rental_uris": {"android": "https://dc.lft.to/lastmile_qr_scan", "ios": "https://dc.lft.to/lastmile_qr_scan"}, "fusion_lon": 0.0}, {"lat": 38.91316283333333, "is_disabled": 0, "type": "electric_scooter", "lon": -76.98642233333334, "bike_id": "22cd0718d16cba3765c08818bbd16484", "fusion_lat": 0.0, "name": "22cd0718d16cba3765c08818bbd16484", "is_reserved": 0, "rental_uris": {"android": "https://dc.lft.to/lastmile_qr_scan", "ios": "https://dc.lft.to/lastmile_qr_scan"}, "fusion_lon": 0.0}, {"lat": 38.951585666666666, "is_disabled": 0, "type": "electric_scooter", "lon": -77.067765, "bike_id": "3f25304dfce627db0227ca467724a596", "fusion_lat": 0.0, "name": "3f25304dfce627db0227ca467724a596", "is_reserved": 0, "rental_uris": {"android": "https://dc.lft.to/lastmile_qr_scan", "ios": "https://dc.lft.to/lastmile_qr_scan"}, "fusion_lon": 0.0}, {"lat": 38.998187, "is_disabled": 0, "type": "electric_bike", "lon": -76.88377716666666, "bike_id": "cecbe169af7097f389ac865cab0b5de7", "fusion_lat": 0.0, "name": "cecbe169af7097f389ac865cab0b5de7", "is_reserved": 0, "rental_uris": {"android": "https://dc.lft.to/lastmile_qr_scan", "ios": "https://dc.lft.to/lastmile_qr_scan"}, "fusion_lon": 0.0}, {"lat": 38.90201833333333, "is_disabled": 0, "type": "electric_scooter", "lon": -77.023769, "bike_id": "1339aa4861a937faecc9a4a341aff82f", "fusion_lat": 0.0, "name": "1339aa4861a937faecc9a4a341aff82f", "is_reserved": 0, "rental_uris": {"android": "https://dc.lft.to/lastmile_qr_scan", "ios": "https://dc.lft.to/lastmile_qr_scan"}, "fusion_lon": 0.0}, {"lat": 38.9012185, "is_disabled": 0, "type": "electric_scooter", "lon": -77.02887633333333, "bike_id": "0465909b0c2acdc6934773e80b9b0d82", "fusion_lat": 0.0, "name": "0465909b0c2acdc6934773e80b9b0d82", "is_reserved": 0, "rental_uris": {"android": "https://dc.lft.to/lastmile_qr_scan", "ios": "https://dc.lft.to/lastmile_qr_scan"}, "fusion_lon": 0.0}, {"lat": 39.030420666666664, "is_disabled": 0, "type": "electric_bike", "lon": -77.0948435, "bike_id": "f9bd745a12b17cfe5175892dd2bc5fdd", "fusion_lat": 0.0, "name": "f9bd745a12b17cfe5175892dd2bc5fdd", "is_reserved": 0, "rental_uris": {"android": "https://dc.lft.to/lastmile_qr_scan", "ios": "https://dc.lft.to/lastmile_qr_scan"}, "fusion_lon": 0.0}, {"lat": 38.949744, "is_disabled": 0, "type": "electric_scooter", "lon": -77.06758766666667, "bike_id": "e75ecb1b325b9f4a782765cb09ee4db1", "fusion_lat": 0.0, "name": "e75ecb1b325b9f4a782765cb09ee4db1", "is_reserved": 0, "rental_uris": {"android": "https://dc.lft.to/lastmile_qr_scan", "ios": "https://dc.lft.to/lastmile_qr_scan"}, "fusion_lon": 0.0}, {"lat": 39.02430016666667, "is_disabled": 0, "type": "electric_bike", "lon": -77.13096883333333, "bike_id": "ed9ceaee11e4e2aa55b9c90ed48ba229", "fusion_lat": 0.0, "name": "ed9ceaee11e4e2aa55b9c90ed48ba229", "is_reserved": 0, "rental_uris": {"android": "https://dc.lft.to/lastmile_qr_scan", "ios": "https://dc.lft.to/lastmile_qr_scan"}, "fusion_lon": 0.0}, {"lat": 38.9142075, "is_disabled": 0, "type": "electric_scooter", "lon": -77.04652733333333, "bike_id": "565714e386753d893b3004077fa1c2a0", "fusion_lat": 0.0, "name": "565714e386753d893b3004077fa1c2a0", "is_reserved": 0, "rental_uris": {"android": "https://dc.lft.to/lastmile_qr_scan", "ios": "https://dc.lft.to/lastmile_qr_scan"}, "fusion_lon": 0.0}, {"lat": 38.925814333333335, "is_disabled": 0, "type": "electric_scooter", "lon": -77.05279166666666, "bike_id": "37bc4e7552aebc9851394ac21c5ec136", "fusion_lat": 0.0, "name": "37bc4e7552aebc9851394ac21c5ec136", "is_reserved": 0, "rental_uris": {"android": "https://dc.lft.to/lastmile_qr_scan", "ios": "https://dc.lft.to/lastmile_qr_scan"}, "fusion_lon": 0.0}, {"lat": 38.91459733333333, "is_disabled": 0, "type": "electric_scooter", "lon": -77.00207983333334, "bike_id": "04bfcef667fc957c50dc7664a8d523be", "fusion_lat": 0.0, "name": "04bfcef667fc957c50dc7664a8d523be", "is_reserved": 0, "rental_uris": {"android": "https://dc.lft.to/lastmile_qr_scan", "ios": "https://dc.lft.to/lastmile_qr_scan"}, "fusion_lon": 0.0}, {"lat": 38.92113466666667, "is_disabled": 0, "type": "electric_bike", "lon": -77.04831433333334, "bike_id": "997b7b09d8d82c458b63c2ca93ededc1", "fusion_lat": 0.0, "name": "997b7b09d8d82c458b63c2ca93ededc1", "is_reserved": 0, "rental_uris": {"android": "https://dc.lft.to/lastmile_qr_scan", "ios": "https://dc.lft.to/lastmile_qr_scan"}, "fusion_lon": 0.0}, {"lat": 39.075021166666666, "is_disabled": 0, "type": "electric_bike", "lon": -77.1190345, "bike_id": "85a786b9522597fbbbcdcabbe9b44d77", "fusion_lat": 0.0, "name": "85a786b9522597fbbbcdcabbe9b44d77", "is_reserved": 0, "rental_uris": {"android": "https://dc.lft.to/lastmile_qr_scan", "ios": "https://dc.lft.to/lastmile_qr_scan"}, "fusion_lon": 0.0}, {"lat": 38.87676483333333, "is_disabled": 0, "type": "electric_scooter", "lon": -77.00036816666666, "bike_id": "1b387fdd9f0d1fcf1f383d8086e6ebc5", "fusion_lat": 0.0, "name": "1b387fdd9f0d1fcf1f383d8086e6ebc5", "is_reserved": 0, "rental_uris": {"android": "https://dc.lft.to/lastmile_qr_scan", "ios": "https://dc.lft.to/lastmile_qr_scan"}, "fusion_lon": 0.0}, {"lat": 38.90507216666666, "is_disabled": 0, "type": "electric_bike", "lon": -77.056944, "bike_id": "0938c362ee321d3c6986eec96dd7ebd8", "fusion_lat": 0.0, "name": "0938c362ee321d3c6986eec96dd7ebd8", "is_reserved": 0, "rental_uris": {"android": "https://dc.lft.to/lastmile_qr_scan", "ios": "https://dc.lft.to/lastmile_qr_scan"}, "fusion_lon": 0.0}, {"lat": 38.921093, "is_disabled": 0, "type": "electric_scooter", "lon": -77.04567216666666, "bike_id": "393ddafc1ddb2088cbd0523ce294be8e", "fusion_lat": 0.0, "name": "393ddafc1ddb2088cbd0523ce294be8e", "is_reserved": 0, "rental_uris": {"android": "https://dc.lft.to/lastmile_qr_scan", "ios": "https://dc.lft.to/lastmile_qr_scan"}, "fusion_lon": 0.0}, {"lat": 38.898473333333335, "is_disabled": 0, "type": "electric_scooter", "lon": -76.9446115, "bike_id": "500c6b86c5cb29d240b18630b38fc02a", "fusion_lat": 0.0, "name": "500c6b86c5cb29d240b18630b38fc02a", "is_reserved": 0, "rental_uris": {"android": "https://dc.lft.to/lastmile_qr_scan", "ios": "https://dc.lft.to/lastmile_qr_scan"}, "fusion_lon": 0.0}, {"lat": 38.90578, "is_disabled": 0, "type": "electric_scooter", "lon": -77.0220555, "bike_id": "b3d2d578fd31e2b0f5053bfd36b6e3b5", "fusion_lat": 0.0, "name": "b3d2d578fd31e2b0f5053bfd36b6e3b5", "is_reserved": 0, "rental_uris": {"android": "https://dc.lft.to/lastmile_qr_scan", "ios": "https://dc.lft.to/lastmile_qr_scan"}, "fusion_lon": 0.0}, {"lat": 38.92060766666667, "is_disabled": 0, "type": "electric_scooter", "lon": -77.0437365, "bike_id": "9079fe56df831a9f711068fde77d1659", "fusion_lat": 0.0, "name": "9079fe56df831a9f711068fde77d1659", "is_reserved": 0, "rental_uris": {"android": "https://dc.lft.to/lastmile_qr_scan", "ios": "https://dc.lft.to/lastmile_qr_scan"}, "fusion_lon": 0.0}, {"lat": 38.92116016666667, "is_disabled": 0, "type": "electric_scooter", "lon": -77.03179933333334, "bike_id": "bd6806c43cf0b2466d6ddf45c41b7ffc", "fusion_lat": 0.0, "name": "bd6806c43cf0b2466d6ddf45c41b7ffc", "is_reserved": 0, "rental_uris": {"android": "https://dc.lft.to/lastmile_qr_scan", "ios": "https://dc.lft.to/lastmile_qr_scan"}, "fusion_lon": 0.0}, {"lat": 38.89773566666667, "is_disabled": 0, "type": "electric_scooter", "lon": -77.00923233333333, "bike_id": "48d0e6831e7ceb05ded32313ec0e56f2", "fusion_lat": 0.0, "name": "48d0e6831e7ceb05ded32313ec0e56f2", "is_reserved": 0, "rental_uris": {"android": "https://dc.lft.to/lastmile_qr_scan", "ios": "https://dc.lft.to/lastmile_qr_scan"}, "fusion_lon": 0.0}, {"lat": 38.91926133333333, "is_disabled": 0, "type": "electric_scooter", "lon": -77.0248665, "bike_id": "de8dc995b01bb67858485f69665b6bf7", "fusion_lat": 0.0, "name": "de8dc995b01bb67858485f69665b6bf7", "is_reserved": 0, "rental_uris": {"android": "https://dc.lft.to/lastmile_qr_scan", "ios": "https://dc.lft.to/lastmile_qr_scan"}, "fusion_lon": 0.0}, {"lat": 38.887629, "is_disabled": 0, "type": "electric_scooter", "lon": -76.95597383333333, "bike_id": "ba4c4f07b57c0baf75dd40356d8db1c9", "fusion_lat": 0.0, "name": "ba4c4f07b57c0baf75dd40356d8db1c9", "is_reserved": 0, "rental_uris": {"android": "https://dc.lft.to/lastmile_qr_scan", "ios": "https://dc.lft.to/lastmile_qr_scan"}, "fusion_lon": 0.0}, {"lat": 38.93658883333333, "is_disabled": 0, "type": "electric_scooter", "lon": -77.036765, "bike_id": "0a9ef563220274385b18edf5ab351f14", "fusion_lat": 0.0, "name": "0a9ef563220274385b18edf5ab351f14", "is_reserved": 0, "rental_uris": {"android": "https://dc.lft.to/lastmile_qr_scan", "ios": "https://dc.lft.to/lastmile_qr_scan"}, "fusion_lon": 0.0}, {"lat": 38.86651633333334, "is_disabled": 0, "type": "electric_scooter", "lon": -76.98889033333333, "bike_id": "8e1bbcb591a12a3a0cc8377676ffae62", "fusion_lat": 0.0, "name": "8e1bbcb591a12a3a0cc8377676ffae62", "is_reserved": 0, "rental_uris": {"android": "https://dc.lft.to/lastmile_qr_scan", "ios": "https://dc.lft.to/lastmile_qr_scan"}, "fusion_lon": 0.0}, {"lat": 38.952910833333334, "is_disabled": 0, "type": "electric_scooter", "lon": -77.08153766666666, "bike_id": "1e07ecd83d027606b36c4f303f2f8a66", "fusion_lat": 0.0, "name": "1e07ecd83d027606b36c4f303f2f8a66", "is_reserved": 0, "rental_uris": {"android": "https://dc.lft.to/lastmile_qr_scan", "ios": "https://dc.lft.to/lastmile_qr_scan"}, "fusion_lon": 0.0}, {"lat": 38.93869316666667, "is_disabled": 0, "type": "electric_scooter", "lon": -77.03132983333333, "bike_id": "25790b1529a18018b884f1dbc0ead033", "fusion_lat": 0.0, "name": "25790b1529a18018b884f1dbc0ead033", "is_reserved": 0, "rental_uris": {"android": "https://dc.lft.to/lastmile_qr_scan", "ios": "https://dc.lft.to/lastmile_qr_scan"}, "fusion_lon": 0.0}, {"lat": 38.90214366666667, "is_disabled": 0, "type": "electric_scooter", "lon": -76.94591483333333, "bike_id": "0377090fab70fcfb3e41414faa12a409", "fusion_lat": 0.0, "name": "0377090fab70fcfb3e41414faa12a409", "is_reserved": 0, "rental_uris": {"android": "https://dc.lft.to/lastmile_qr_scan", "ios": "https://dc.lft.to/lastmile_qr_scan"}, "fusion_lon": 0.0}, {"lat": 38.897663666666666, "is_disabled": 0, "type": "electric_scooter", "lon": -77.04346983333333, "bike_id": "b418ef143e7509e31c9f84f92b3f7a0d", "fusion_lat": 0.0, "name": "b418ef143e7509e31c9f84f92b3f7a0d", "is_reserved": 0, "rental_uris": {"android": "https://dc.lft.to/lastmile_qr_scan", "ios": "https://dc.lft.to/lastmile_qr_scan"}, "fusion_lon": 0.0}, {"lat": 38.908455833333335, "is_disabled": 0, "type": "electric_bike", "lon": -77.05580433333333, "bike_id": "0f7b1861d34b01d65459112ac00afde1", "fusion_lat": 0.0, "name": "0f7b1861d34b01d65459112ac00afde1", "is_reserved": 0, "rental_uris": {"android": "https://dc.lft.to/lastmile_qr_scan", "ios": "https://dc.lft.to/lastmile_qr_scan"}, "fusion_lon": 0.0}, {"lat": 38.922550666666666, "is_disabled": 0, "type": "electric_scooter", "lon": -77.03068016666667, "bike_id": "a414c4a5f7b70cd069a37706b5fba262", "fusion_lat": 0.0, "name": "a414c4a5f7b70cd069a37706b5fba262", "is_reserved": 0, "rental_uris": {"android": "https://dc.lft.to/lastmile_qr_scan", "ios": "https://dc.lft.to/lastmile_qr_scan"}, "fusion_lon": 0.0}, {"lat": 38.90147416666667, "is_disabled": 0, "type": "electric_bike", "lon": -76.98663616666667, "bike_id": "449514c884899f8bf7b77c362e52f36f", "fusion_lat": 0.0, "name": "449514c884899f8bf7b77c362e52f36f", "is_reserved": 0, "rental_uris": {"android": "https://dc.lft.to/lastmile_qr_scan", "ios": "https://dc.lft.to/lastmile_qr_scan"}, "fusion_lon": 0.0}, {"lat": 38.933776, "is_disabled": 0, "type": "electric_scooter", "lon": -77.03800183333334, "bike_id": "bbbb48748921c2b334f6daeeec0b7029", "fusion_lat": 0.0, "name": "bbbb48748921c2b334f6daeeec0b7029", "is_reserved": 0, "rental_uris": {"android": "https://dc.lft.to/lastmile_qr_scan", "ios": "https://dc.lft.to/lastmile_qr_scan"}, "fusion_lon": 0.0}, {"lat": 38.930115666666666, "is_disabled": 0, "type": "electric_bike", "lon": -77.21650766666667, "bike_id": "880a0e9896bcfcccf290f38f7afb6e12", "fusion_lat": 0.0, "name": "880a0e9896bcfcccf290f38f7afb6e12", "is_reserved": 0, "rental_uris": {"android": "https://dc.lft.to/lastmile_qr_scan", "ios": "https://dc.lft.to/lastmile_qr_scan"}, "fusion_lon": 0.0}, {"lat": 38.91963666666667, "is_disabled": 0, "type": "electric_bike", "lon": -76.9726535, "bike_id": "bb3efcc5058469eacfba78d665d2641c", "fusion_lat": 0.0, "name": "bb3efcc5058469eacfba78d665d2641c", "is_reserved": 0, "rental_uris": {"android": "https://dc.lft.to/lastmile_qr_scan", "ios": "https://dc.lft.to/lastmile_qr_scan"}, "fusion_lon": 0.0}, {"lat": 38.932026, "is_disabled": 0, "type": "electric_scooter", "lon": -77.04426233333334, "bike_id": "4fc2bef0deabd7dafa8a986ef3de3c51", "fusion_lat": 0.0, "name": "4fc2bef0deabd7dafa8a986ef3de3c51", "is_reserved": 0, "rental_uris": {"android": "https://dc.lft.to/lastmile_qr_scan", "ios": "https://dc.lft.to/lastmile_qr_scan"}, "fusion_lon": 0.0}, {"lat": 38.898866166666664, "is_disabled": 0, "type": "electric_scooter", "lon": -77.007222, "bike_id": "551adc21c3544473d5ef63b05d95e983", "fusion_lat": 0.0, "name": "551adc21c3544473d5ef63b05d95e983", "is_reserved": 0, "rental_uris": {"android": "https://dc.lft.to/lastmile_qr_scan", "ios": "https://dc.lft.to/lastmile_qr_scan"}, "fusion_lon": 0.0}, {"lat": 38.90214316666667, "is_disabled": 0, "type": "electric_scooter", "lon": -77.05334433333333, "bike_id": "7ca2cf81b2ce72fd8f08cd3c026158bd", "fusion_lat": 0.0, "name": "7ca2cf81b2ce72fd8f08cd3c026158bd", "is_reserved": 0, "rental_uris": {"android": "https://dc.lft.to/lastmile_qr_scan", "ios": "https://dc.lft.to/lastmile_qr_scan"}, "fusion_lon": 0.0}, {"lat": 38.87633, "is_disabled": 0, "type": "electric_scooter", "lon": -76.96529716666667, "bike_id": "359c3122bab8ce7a9e463410a17b9be3", "fusion_lat": 0.0, "name": "359c3122bab8ce7a9e463410a17b9be3", "is_reserved": 0, "rental_uris": {"android": "https://dc.lft.to/lastmile_qr_scan", "ios": "https://dc.lft.to/lastmile_qr_scan"}, "fusion_lon": 0.0}, {"lat": 38.9325405, "is_disabled": 0, "type": "electric_scooter", "lon": -77.032819, "bike_id": "a36424e59ae3e0f97df91e1d8e84df3b", "fusion_lat": 0.0, "name": "a36424e59ae3e0f97df91e1d8e84df3b", "is_reserved": 0, "rental_uris": {"android": "https://dc.lft.to/lastmile_qr_scan", "ios": "https://dc.lft.to/lastmile_qr_scan"}, "fusion_lon": 0.0}, {"lat": 38.902232, "is_disabled": 0, "type": "electric_scooter", "lon": -77.02152216666667, "bike_id": "9fec4dadb00e80bc90ef32b1339a87ca", "fusion_lat": 0.0, "name": "9fec4dadb00e80bc90ef32b1339a87ca", "is_reserved": 0, "rental_uris": {"android": "https://dc.lft.to/lastmile_qr_scan", "ios": "https://dc.lft.to/lastmile_qr_scan"}, "fusion_lon": 0.0}, {"lat": 38.940672, "is_disabled": 0, "type": "electric_scooter", "lon": -77.06138366666667, "bike_id": "7ee3904374f81e477210d60f671e5cf0", "fusion_lat": 0.0, "name": "7ee3904374f81e477210d60f671e5cf0", "is_reserved": 0, "rental_uris": {"android": "https://dc.lft.to/lastmile_qr_scan", "ios": "https://dc.lft.to/lastmile_qr_scan"}, "fusion_lon": 0.0}, {"lat": 38.93657816666666, "is_disabled": 0, "type": "electric_scooter", "lon": -77.036577, "bike_id": "c469db005c575878bccb737bda730258", "fusion_lat": 0.0, "name": "c469db005c575878bccb737bda730258", "is_reserved": 0, "rental_uris": {"android": "https://dc.lft.to/lastmile_qr_scan", "ios": "https://dc.lft.to/lastmile_qr_scan"}, "fusion_lon": 0.0}, {"lat": 38.9310755, "is_disabled": 0, "type": "electric_scooter", "lon": -77.03510833333333, "bike_id": "0cdc6e50565c7e6f1e49fd49f7445fca", "fusion_lat": 0.0, "name": "0cdc6e50565c7e6f1e49fd49f7445fca", "is_reserved": 0, "rental_uris": {"android": "https://dc.lft.to/lastmile_qr_scan", "ios": "https://dc.lft.to/lastmile_qr_scan"}, "fusion_lon": 0.0}, {"lat": 38.932934333333336, "is_disabled": 0, "type": "electric_scooter", "lon": -77.02830266666666, "bike_id": "0598ef8f6bacd57d807ba9d1654bc3e3", "fusion_lat": 0.0, "name": "0598ef8f6bacd57d807ba9d1654bc3e3", "is_reserved": 0, "rental_uris": {"android": "https://dc.lft.to/lastmile_qr_scan", "ios": "https://dc.lft.to/lastmile_qr_scan"}, "fusion_lon": 0.0}, {"lat": 38.91478, "is_disabled": 0, "type": "electric_scooter", "lon": -76.98351383333333, "bike_id": "4a208e540949340e8dd4b074dd2bb680", "fusion_lat": 0.0, "name": "4a208e540949340e8dd4b074dd2bb680", "is_reserved": 0, "rental_uris": {"android": "https://dc.lft.to/lastmile_qr_scan", "ios": "https://dc.lft.to/lastmile_qr_scan"}, "fusion_lon": 0.0}, {"lat": 38.900725666666666, "is_disabled": 0, "type": "electric_scooter", "lon": -77.00210433333334, "bike_id": "6bdfd7e93016142dd04781499a49456d", "fusion_lat": 0.0, "name": "6bdfd7e93016142dd04781499a49456d", "is_reserved": 0, "rental_uris": {"android": "https://dc.lft.to/lastmile_qr_scan", "ios": "https://dc.lft.to/lastmile_qr_scan"}, "fusion_lon": 0.0}, {"lat": 38.8998495, "is_disabled": 0, "type": "electric_scooter", "lon": -77.05268066666666, "bike_id": "f494dd007ed6aa8cd83662bbccee9378", "fusion_lat": 0.0, "name": "f494dd007ed6aa8cd83662bbccee9378", "is_reserved": 0, "rental_uris": {"android": "https://dc.lft.to/lastmile_qr_scan", "ios": "https://dc.lft.to/lastmile_qr_scan"}, "fusion_lon": 0.0}, {"lat": 38.90410383333333, "is_disabled": 0, "type": "electric_scooter", "lon": -76.99285733333333, "bike_id": "51d7cc2e07dee90589b0517861495b71", "fusion_lat": 0.0, "name": "51d7cc2e07dee90589b0517861495b71", "is_reserved": 0, "rental_uris": {"android": "https://dc.lft.to/lastmile_qr_scan", "ios": "https://dc.lft.to/lastmile_qr_scan"}, "fusion_lon": 0.0}, {"lat": 38.917048, "is_disabled": 0, "type": "electric_scooter", "lon": -77.03477016666666, "bike_id": "482e43099a7b6c31d0691269946b4050", "fusion_lat": 0.0, "name": "482e43099a7b6c31d0691269946b4050", "is_reserved": 0, "rental_uris": {"android": "https://dc.lft.to/lastmile_qr_scan", "ios": "https://dc.lft.to/lastmile_qr_scan"}, "fusion_lon": 0.0}, {"lat": 38.99333166666667, "is_disabled": 0, "type": "electric_bike", "lon": -77.032915, "bike_id": "a533d198e980e7b3998eb62cef7425ed", "fusion_lat": 0.0, "name": "a533d198e980e7b3998eb62cef7425ed", "is_reserved": 0, "rental_uris": {"android": "https://dc.lft.to/lastmile_qr_scan", "ios": "https://dc.lft.to/lastmile_qr_scan"}, "fusion_lon": 0.0}, {"lat": 38.87340016666667, "is_disabled": 0, "type": "electric_bike", "lon": -77.018579, "bike_id": "da7eabfc822a2fda647a94bba05b6ec0", "fusion_lat": 0.0, "name": "da7eabfc822a2fda647a94bba05b6ec0", "is_reserved": 0, "rental_uris": {"android": "https://dc.lft.to/lastmile_qr_scan", "ios": "https://dc.lft.to/lastmile_qr_scan"}, "fusion_lon": 0.0}, {"lat": 38.887713, "is_disabled": 0, "type": "electric_scooter", "lon": -77.0435345, "bike_id": "6441f321f96324bc7fa50753cc13af28", "fusion_lat": 0.0, "name": "6441f321f96324bc7fa50753cc13af28", "is_reserved": 0, "rental_uris": {"android": "https://dc.lft.to/lastmile_qr_scan", "ios": "https://dc.lft.to/lastmile_qr_scan"}, "fusion_lon": 0.0}, {"lat": 38.902605333333334, "is_disabled": 0, "type": "electric_scooter", "lon": -76.98697216666666, "bike_id": "ae463e3dcb13057fece4460ffa3bbd69", "fusion_lat": 0.0, "name": "ae463e3dcb13057fece4460ffa3bbd69", "is_reserved": 0, "rental_uris": {"android": "https://dc.lft.to/lastmile_qr_scan", "ios": "https://dc.lft.to/lastmile_qr_scan"}, "fusion_lon": 0.0}, {"lat": 38.8999085, "is_disabled": 0, "type": "electric_scooter", "lon": -77.02137033333334, "bike_id": "9521b0694e73e5c251b00846e84dd334", "fusion_lat": 0.0, "name": "9521b0694e73e5c251b00846e84dd334", "is_reserved": 0, "rental_uris": {"android": "https://dc.lft.to/lastmile_qr_scan", "ios": "https://dc.lft.to/lastmile_qr_scan"}, "fusion_lon": 0.0}, {"lat": 38.90356383333334, "is_disabled": 0, "type": "electric_scooter", "lon": -77.02973116666666, "bike_id": "70232c5bd301981862567e89758c8f2e", "fusion_lat": 0.0, "name": "70232c5bd301981862567e89758c8f2e", "is_reserved": 0, "rental_uris": {"android": "https://dc.lft.to/lastmile_qr_scan", "ios": "https://dc.lft.to/lastmile_qr_scan"}, "fusion_lon": 0.0}, {"lat": 38.90012816666667, "is_disabled": 0, "type": "electric_scooter", "lon": -77.01202816666667, "bike_id": "4861eb184cb6308334cc21a47cf23929", "fusion_lat": 0.0, "name": "4861eb184cb6308334cc21a47cf23929", "is_reserved": 0, "rental_uris": {"android": "https://dc.lft.to/lastmile_qr_scan", "ios": "https://dc.lft.to/lastmile_qr_scan"}, "fusion_lon": 0.0}, {"lat": 38.88461383333333, "is_disabled": 0, "type": "electric_scooter", "lon": -77.02424333333333, "bike_id": "2a72928ba12c6bcfd78b51be8e34e794", "fusion_lat": 0.0, "name": "2a72928ba12c6bcfd78b51be8e34e794", "is_reserved": 0, "rental_uris": {"android": "https://dc.lft.to/lastmile_qr_scan", "ios": "https://dc.lft.to/lastmile_qr_scan"}, "fusion_lon": 0.0}, {"lat": 38.905581833333336, "is_disabled": 0, "type": "electric_bike", "lon": -77.01312816666666, "bike_id": "2f997943854dd3976b469f0c5d2e530e", "fusion_lat": 0.0, "name": "2f997943854dd3976b469f0c5d2e530e", "is_reserved": 0, "rental_uris": {"android": "https://dc.lft.to/lastmile_qr_scan", "ios": "https://dc.lft.to/lastmile_qr_scan"}, "fusion_lon": 0.0}, {"lat": 38.865057666666665, "is_disabled": 0, "type": "electric_scooter", "lon": -76.9901025, "bike_id": "d4ea5bb146dc186e020d9f831b938ff9", "fusion_lat": 0.0, "name": "d4ea5bb146dc186e020d9f831b938ff9", "is_reserved": 0, "rental_uris": {"android": "https://dc.lft.to/lastmile_qr_scan", "ios": "https://dc.lft.to/lastmile_qr_scan"}, "fusion_lon": 0.0}, {"lat": 38.925031, "is_disabled": 0, "type": "electric_scooter", "lon": -76.98231783333334, "bike_id": "bece4409f3ac2115ff94ab2a7ef56d63", "fusion_lat": 0.0, "name": "bece4409f3ac2115ff94ab2a7ef56d63", "is_reserved": 0, "rental_uris": {"android": "https://dc.lft.to/lastmile_qr_scan", "ios": "https://dc.lft.to/lastmile_qr_scan"}, "fusion_lon": 0.0}, {"lat": 38.881116, "is_disabled": 0, "type": "electric_scooter", "lon": -77.016554, "bike_id": "14a6cdac6ef749e46da896654d91aaea", "fusion_lat": 0.0, "name": "14a6cdac6ef749e46da896654d91aaea", "is_reserved": 0, "rental_uris": {"android": "https://dc.lft.to/lastmile_qr_scan", "ios": "https://dc.lft.to/lastmile_qr_scan"}, "fusion_lon": 0.0}, {"lat": 38.867132166666664, "is_disabled": 0, "type": "electric_scooter", "lon": -76.98727883333333, "bike_id": "bd0ddfba8cd01410cfc5b404d251703c", "fusion_lat": 0.0, "name": "bd0ddfba8cd01410cfc5b404d251703c", "is_reserved": 0, "rental_uris": {"android": "https://dc.lft.to/lastmile_qr_scan", "ios": "https://dc.lft.to/lastmile_qr_scan"}, "fusion_lon": 0.0}, {"lat": 38.9126665, "is_disabled": 0, "type": "electric_scooter", "lon": -77.02253966666666, "bike_id": "fe626b13ad3aa00b226ad92552d5423d", "fusion_lat": 0.0, "name": "fe626b13ad3aa00b226ad92552d5423d", "is_reserved": 0, "rental_uris": {"android": "https://dc.lft.to/lastmile_qr_scan", "ios": "https://dc.lft.to/lastmile_qr_scan"}, "fusion_lon": 0.0}, {"lat": 38.90513933333333, "is_disabled": 0, "type": "electric_scooter", "lon": -77.048706, "bike_id": "64e601eebc4df961f888697dee0b84f3", "fusion_lat": 0.0, "name": "64e601eebc4df961f888697dee0b84f3", "is_reserved": 0, "rental_uris": {"android": "https://dc.lft.to/lastmile_qr_scan", "ios": "https://dc.lft.to/lastmile_qr_scan"}, "fusion_lon": 0.0}, {"lat": 39.05631233333333, "is_disabled": 0, "type": "electric_bike", "lon": -77.12529416666666, "bike_id": "f6b2b32227579e14e2ea4cbc7a1419d7", "fusion_lat": 0.0, "name": "f6b2b32227579e14e2ea4cbc7a1419d7", "is_reserved": 0, "rental_uris": {"android": "https://dc.lft.to/lastmile_qr_scan", "ios": "https://dc.lft.to/lastmile_qr_scan"}, "fusion_lon": 0.0}, {"lat": 38.915668, "is_disabled": 0, "type": "electric_scooter", "lon": -77.03210166666666, "bike_id": "f849441431f4ae0afca59442e4018cd0", "fusion_lat": 0.0, "name": "f849441431f4ae0afca59442e4018cd0", "is_reserved": 0, "rental_uris": {"android": "https://dc.lft.to/lastmile_qr_scan", "ios": "https://dc.lft.to/lastmile_qr_scan"}, "fusion_lon": 0.0}, {"lat": 38.88740116666666, "is_disabled": 0, "type": "electric_scooter", "lon": -77.01530866666667, "bike_id": "7d51496179bc44425aa3f2c8e9a6db7a", "fusion_lat": 0.0, "name": "7d51496179bc44425aa3f2c8e9a6db7a", "is_reserved": 0, "rental_uris": {"android": "https://dc.lft.to/lastmile_qr_scan", "ios": "https://dc.lft.to/lastmile_qr_scan"}, "fusion_lon": 0.0}, {"lat": 38.8840945, "is_disabled": 0, "type": "electric_bike", "lon": -76.95415783333334, "bike_id": "24f76d63f200f41535c4c21fc61b20b5", "fusion_lat": 0.0, "name": "24f76d63f200f41535c4c21fc61b20b5", "is_reserved": 0, "rental_uris": {"android": "https://dc.lft.to/lastmile_qr_scan", "ios": "https://dc.lft.to/lastmile_qr_scan"}, "fusion_lon": 0.0}, {"lat": 38.888895, "is_disabled": 0, "type": "electric_scooter", "lon": -76.93157533333333, "bike_id": "c93edd827af01baf6f6f398ec9a6843c", "fusion_lat": 0.0, "name": "c93edd827af01baf6f6f398ec9a6843c", "is_reserved": 0, "rental_uris": {"android": "https://dc.lft.to/lastmile_qr_scan", "ios": "https://dc.lft.to/lastmile_qr_scan"}, "fusion_lon": 0.0}, {"lat": 38.907199166666665, "is_disabled": 0, "type": "electric_scooter", "lon": -77.04644066666667, "bike_id": "ae5fb147c9b55f46ab6ea767e4f7ecb8", "fusion_lat": 0.0, "name": "ae5fb147c9b55f46ab6ea767e4f7ecb8", "is_reserved": 0, "rental_uris": {"android": "https://dc.lft.to/lastmile_qr_scan", "ios": "https://dc.lft.to/lastmile_qr_scan"}, "fusion_lon": 0.0}, {"lat": 38.96149333333334, "is_disabled": 0, "type": "electric_scooter", "lon": -77.02773733333333, "bike_id": "1f93d5e86847d4479cfdf9db2e92d0e8", "fusion_lat": 0.0, "name": "1f93d5e86847d4479cfdf9db2e92d0e8", "is_reserved": 0, "rental_uris": {"android": "https://dc.lft.to/lastmile_qr_scan", "ios": "https://dc.lft.to/lastmile_qr_scan"}, "fusion_lon": 0.0}, {"lat": 38.91188483333333, "is_disabled": 0, "type": "electric_scooter", "lon": -77.04310233333334, "bike_id": "2d24ea4320cfcf9157a52895e5a9948e", "fusion_lat": 0.0, "name": "2d24ea4320cfcf9157a52895e5a9948e", "is_reserved": 0, "rental_uris": {"android": "https://dc.lft.to/lastmile_qr_scan", "ios": "https://dc.lft.to/lastmile_qr_scan"}, "fusion_lon": 0.0}, {"lat": 38.890425666666665, "is_disabled": 0, "type": "electric_scooter", "lon": -76.95247566666667, "bike_id": "d76a2024d9b78e8c45f09f9338134148", "fusion_lat": 0.0, "name": "d76a2024d9b78e8c45f09f9338134148", "is_reserved": 0, "rental_uris": {"android": "https://dc.lft.to/lastmile_qr_scan", "ios": "https://dc.lft.to/lastmile_qr_scan"}, "fusion_lon": 0.0}, {"lat": 38.932084333333336, "is_disabled": 0, "type": "electric_scooter", "lon": -77.02250683333334, "bike_id": "87c4707854072745f2207e2f508ba875", "fusion_lat": 0.0, "name": "87c4707854072745f2207e2f508ba875", "is_reserved": 0, "rental_uris": {"android": "https://dc.lft.to/lastmile_qr_scan", "ios": "https://dc.lft.to/lastmile_qr_scan"}, "fusion_lon": 0.0}, {"lat": 38.91939816666667, "is_disabled": 0, "type": "electric_scooter", "lon": -77.03190633333334, "bike_id": "bd169bc9051bfe775838f107648ecb82", "fusion_lat": 0.0, "name": "bd169bc9051bfe775838f107648ecb82", "is_reserved": 0, "rental_uris": {"android": "https://dc.lft.to/lastmile_qr_scan", "ios": "https://dc.lft.to/lastmile_qr_scan"}, "fusion_lon": 0.0}, {"lat": 38.92482416666667, "is_disabled": 0, "type": "electric_scooter", "lon": -77.02843166666666, "bike_id": "b247d24395efbc1bac33975774a7a414", "fusion_lat": 0.0, "name": "b247d24395efbc1bac33975774a7a414", "is_reserved": 0, "rental_uris": {"android": "https://dc.lft.to/lastmile_qr_scan", "ios": "https://dc.lft.to/lastmile_qr_scan"}, "fusion_lon": 0.0}, {"lat": 38.898157, "is_disabled": 0, "type": "electric_scooter", "lon": -76.9969255, "bike_id": "04336225ce7535fe2cc6cc1c77a7a0bf", "fusion_lat": 0.0, "name": "04336225ce7535fe2cc6cc1c77a7a0bf", "is_reserved": 0, "rental_uris": {"android": "https://dc.lft.to/lastmile_qr_scan", "ios": "https://dc.lft.to/lastmile_qr_scan"}, "fusion_lon": 0.0}, {"lat": 38.90819033333333, "is_disabled": 0, "type": "electric_scooter", "lon": -77.00217366666666, "bike_id": "bfd73c0eb753d18b7914efc082eac202", "fusion_lat": 0.0, "name": "bfd73c0eb753d18b7914efc082eac202", "is_reserved": 0, "rental_uris": {"android": "https://dc.lft.to/lastmile_qr_scan", "ios": "https://dc.lft.to/lastmile_qr_scan"}, "fusion_lon": 0.0}, {"lat": 38.925506, "is_disabled": 0, "type": "electric_scooter", "lon": -77.03337633333334, "bike_id": "38835943bd7833fad19f20747119a7d6", "fusion_lat": 0.0, "name": "38835943bd7833fad19f20747119a7d6", "is_reserved": 0, "rental_uris": {"android": "https://dc.lft.to/lastmile_qr_scan", "ios": "https://dc.lft.to/lastmile_qr_scan"}, "fusion_lon": 0.0}, {"lat": 38.917224, "is_disabled": 0, "type": "electric_scooter", "lon": -77.045887, "bike_id": "5e325f53214942dec4c8c23937796084", "fusion_lat": 0.0, "name": "5e325f53214942dec4c8c23937796084", "is_reserved": 0, "rental_uris": {"android": "https://dc.lft.to/lastmile_qr_scan", "ios": "https://dc.lft.to/lastmile_qr_scan"}, "fusion_lon": 0.0}, {"lat": 38.91955633333333, "is_disabled": 0, "type": "electric_scooter", "lon": -76.9808255, "bike_id": "fc16c91a4306c177f124b7255c26cb3d", "fusion_lat": 0.0, "name": "fc16c91a4306c177f124b7255c26cb3d", "is_reserved": 0, "rental_uris": {"android": "https://dc.lft.to/lastmile_qr_scan", "ios": "https://dc.lft.to/lastmile_qr_scan"}, "fusion_lon": 0.0}, {"lat": 38.902696666666664, "is_disabled": 0, "type": "electric_scooter", "lon": -77.02817966666667, "bike_id": "49dec40ff2fb444cdbe0fbe68e2e8715", "fusion_lat": 0.0, "name": "49dec40ff2fb444cdbe0fbe68e2e8715", "is_reserved": 0, "rental_uris": {"android": "https://dc.lft.to/lastmile_qr_scan", "ios": "https://dc.lft.to/lastmile_qr_scan"}, "fusion_lon": 0.0}, {"lat": 38.855677166666666, "is_disabled": 0, "type": "electric_bike", "lon": -77.111395, "bike_id": "f9a7d6150ecdba8c42cb0c8cd8c4878d", "fusion_lat": 0.0, "name": "f9a7d6150ecdba8c42cb0c8cd8c4878d", "is_reserved": 0, "rental_uris": {"android": "https://dc.lft.to/lastmile_qr_scan", "ios": "https://dc.lft.to/lastmile_qr_scan"}, "fusion_lon": 0.0}, {"lat": 38.93329, "is_disabled": 0, "type": "electric_scooter", "lon": -77.0436965, "bike_id": "c8a5860799e9aa7c2c7b8d73a0501781", "fusion_lat": 0.0, "name": "c8a5860799e9aa7c2c7b8d73a0501781", "is_reserved": 0, "rental_uris": {"android": "https://dc.lft.to/lastmile_qr_scan", "ios": "https://dc.lft.to/lastmile_qr_scan"}, "fusion_lon": 0.0}, {"lat": 38.898165666666664, "is_disabled": 0, "type": "electric_scooter", "lon": -77.03035916666667, "bike_id": "f5a534ff141c12c23168191209b78797", "fusion_lat": 0.0, "name": "f5a534ff141c12c23168191209b78797", "is_reserved": 0, "rental_uris": {"android": "https://dc.lft.to/lastmile_qr_scan", "ios": "https://dc.lft.to/lastmile_qr_scan"}, "fusion_lon": 0.0}, {"lat": 38.892199, "is_disabled": 0, "type": "electric_scooter", "lon": -77.021217, "bike_id": "9f91ccb64498b9acd0ecda4ad2156645", "fusion_lat": 0.0, "name": "9f91ccb64498b9acd0ecda4ad2156645", "is_reserved": 0, "rental_uris": {"android": "https://dc.lft.to/lastmile_qr_scan", "ios": "https://dc.lft.to/lastmile_qr_scan"}, "fusion_lon": 0.0}, {"lat": 38.921064666666666, "is_disabled": 0, "type": "electric_scooter", "lon": -77.01829966666666, "bike_id": "68996a183fd68b66508ccfcf443da42e", "fusion_lat": 0.0, "name": "68996a183fd68b66508ccfcf443da42e", "is_reserved": 0, "rental_uris": {"android": "https://dc.lft.to/lastmile_qr_scan", "ios": "https://dc.lft.to/lastmile_qr_scan"}, "fusion_lon": 0.0}, {"lat": 38.92577933333333, "is_disabled": 0, "type": "electric_scooter", "lon": -77.0576245, "bike_id": "719a39e8dd4740daa0f6d73c4fdded5b", "fusion_lat": 0.0, "name": "719a39e8dd4740daa0f6d73c4fdded5b", "is_reserved": 0, "rental_uris": {"android": "https://dc.lft.to/lastmile_qr_scan", "ios": "https://dc.lft.to/lastmile_qr_scan"}, "fusion_lon": 0.0}, {"lat": 38.902463833333336, "is_disabled": 0, "type": "electric_scooter", "lon": -77.01758383333333, "bike_id": "84f44fb1d768515101a59bb204c0081c", "fusion_lat": 0.0, "name": "84f44fb1d768515101a59bb204c0081c", "is_reserved": 0, "rental_uris": {"android": "https://dc.lft.to/lastmile_qr_scan", "ios": "https://dc.lft.to/lastmile_qr_scan"}, "fusion_lon": 0.0}, {"lat": 38.90365216666667, "is_disabled": 0, "type": "electric_scooter", "lon": -77.01876366666667, "bike_id": "4fde5dd8ce057d4e833ab9b27a6dacd3", "fusion_lat": 0.0, "name": "4fde5dd8ce057d4e833ab9b27a6dacd3", "is_reserved": 0, "rental_uris": {"android": "https://dc.lft.to/lastmile_qr_scan", "ios": "https://dc.lft.to/lastmile_qr_scan"}, "fusion_lon": 0.0}, {"lat": 38.9073465, "is_disabled": 0, "type": "electric_scooter", "lon": -77.03198, "bike_id": "db71e36b4dd937b4d537ce8b1a8f242c", "fusion_lat": 0.0, "name": "db71e36b4dd937b4d537ce8b1a8f242c", "is_reserved": 0, "rental_uris": {"android": "https://dc.lft.to/lastmile_qr_scan", "ios": "https://dc.lft.to/lastmile_qr_scan"}, "fusion_lon": 0.0}, {"lat": 38.90190233333333, "is_disabled": 0, "type": "electric_scooter", "lon": -77.02319766666666, "bike_id": "efd660d7f44332adcb61ea8910fc87c7", "fusion_lat": 0.0, "name": "efd660d7f44332adcb61ea8910fc87c7", "is_reserved": 0, "rental_uris": {"android": "https://dc.lft.to/lastmile_qr_scan", "ios": "https://dc.lft.to/lastmile_qr_scan"}, "fusion_lon": 0.0}, {"lat": 38.96114683333333, "is_disabled": 0, "type": "electric_scooter", "lon": -77.02814733333334, "bike_id": "fe965f090af6b9dfc2e64ed530190ee5", "fusion_lat": 0.0, "name": "fe965f090af6b9dfc2e64ed530190ee5", "is_reserved": 0, "rental_uris": {"android": "https://dc.lft.to/lastmile_qr_scan", "ios": "https://dc.lft.to/lastmile_qr_scan"}, "fusion_lon": 0.0}, {"lat": 38.9047915, "is_disabled": 0, "type": "electric_scooter", "lon": -77.05133566666666, "bike_id": "46a38310ddcfb0071891b43d666e45a3", "fusion_lat": 0.0, "name": "46a38310ddcfb0071891b43d666e45a3", "is_reserved": 0, "rental_uris": {"android": "https://dc.lft.to/lastmile_qr_scan", "ios": "https://dc.lft.to/lastmile_qr_scan"}, "fusion_lon": 0.0}, {"lat": 38.929119166666666, "is_disabled": 0, "type": "electric_scooter", "lon": -77.02192366666667, "bike_id": "46483906372569d3a8a3cbc139d9d4b5", "fusion_lat": 0.0, "name": "46483906372569d3a8a3cbc139d9d4b5", "is_reserved": 0, "rental_uris": {"android": "https://dc.lft.to/lastmile_qr_scan", "ios": "https://dc.lft.to/lastmile_qr_scan"}, "fusion_lon": 0.0}, {"lat": 38.90145566666666, "is_disabled": 0, "type": "electric_scooter", "lon": -77.00068116666667, "bike_id": "8ed3a8e09a82196ef807e8abd40a3978", "fusion_lat": 0.0, "name": "8ed3a8e09a82196ef807e8abd40a3978", "is_reserved": 0, "rental_uris": {"android": "https://dc.lft.to/lastmile_qr_scan", "ios": "https://dc.lft.to/lastmile_qr_scan"}, "fusion_lon": 0.0}, {"lat": 38.90267816666667, "is_disabled": 0, "type": "electric_scooter", "lon": -77.03943683333334, "bike_id": "0db0b417f7b7ce31246fdeec42e1b598", "fusion_lat": 0.0, "name": "0db0b417f7b7ce31246fdeec42e1b598", "is_reserved": 0, "rental_uris": {"android": "https://dc.lft.to/lastmile_qr_scan", "ios": "https://dc.lft.to/lastmile_qr_scan"}, "fusion_lon": 0.0}, {"lat": 38.923517, "is_disabled": 0, "type": "electric_scooter", "lon": -77.04145383333334, "bike_id": "9644c1d5f8fec657011fd7d75d0401de", "fusion_lat": 0.0, "name": "9644c1d5f8fec657011fd7d75d0401de", "is_reserved": 0, "rental_uris": {"android": "https://dc.lft.to/lastmile_qr_scan", "ios": "https://dc.lft.to/lastmile_qr_scan"}, "fusion_lon": 0.0}, {"lat": 38.94631433333333, "is_disabled": 0, "type": "electric_scooter", "lon": -77.02524583333333, "bike_id": "61014bb3a05b7103bd99b46c1c2cc122", "fusion_lat": 0.0, "name": "61014bb3a05b7103bd99b46c1c2cc122", "is_reserved": 0, "rental_uris": {"android": "https://dc.lft.to/lastmile_qr_scan", "ios": "https://dc.lft.to/lastmile_qr_scan"}, "fusion_lon": 0.0}, {"lat": 38.957412833333336, "is_disabled": 0, "type": "electric_scooter", "lon": -77.0240415, "bike_id": "a634f15f981f2ec36550ae13ad753aa1", "fusion_lat": 0.0, "name": "a634f15f981f2ec36550ae13ad753aa1", "is_reserved": 0, "rental_uris": {"android": "https://dc.lft.to/lastmile_qr_scan", "ios": "https://dc.lft.to/lastmile_qr_scan"}, "fusion_lon": 0.0}, {"lat": 38.92297716666667, "is_disabled": 0, "type": "electric_scooter", "lon": -77.042689, "bike_id": "ba6c7a8692b0c3bfd7965c41476c0fe2", "fusion_lat": 0.0, "name": "ba6c7a8692b0c3bfd7965c41476c0fe2", "is_reserved": 0, "rental_uris": {"android": "https://dc.lft.to/lastmile_qr_scan", "ios": "https://dc.lft.to/lastmile_qr_scan"}, "fusion_lon": 0.0}, {"lat": 38.917451, "is_disabled": 0, "type": "electric_scooter", "lon": -77.03609533333334, "bike_id": "5be9073991c30e2a166c99ad3618b09c", "fusion_lat": 0.0, "name": "5be9073991c30e2a166c99ad3618b09c", "is_reserved": 0, "rental_uris": {"android": "https://dc.lft.to/lastmile_qr_scan", "ios": "https://dc.lft.to/lastmile_qr_scan"}, "fusion_lon": 0.0}, {"lat": 38.9020285, "is_disabled": 0, "type": "electric_scooter", "lon": -77.02319583333333, "bike_id": "af1135fbb7dc0c48e4defe7d8fad21c9", "fusion_lat": 0.0, "name": "af1135fbb7dc0c48e4defe7d8fad21c9", "is_reserved": 0, "rental_uris": {"android": "https://dc.lft.to/lastmile_qr_scan", "ios": "https://dc.lft.to/lastmile_qr_scan"}, "fusion_lon": 0.0}, {"lat": 38.927476666666664, "is_disabled": 0, "type": "electric_scooter", "lon": -77.02418466666667, "bike_id": "f7755870f9552cde809bf843e91adfcd", "fusion_lat": 0.0, "name": "f7755870f9552cde809bf843e91adfcd", "is_reserved": 0, "rental_uris": {"android": "https://dc.lft.to/lastmile_qr_scan", "ios": "https://dc.lft.to/lastmile_qr_scan"}, "fusion_lon": 0.0}, {"lat": 38.916793, "is_disabled": 0, "type": "electric_scooter", "lon": -77.02287766666667, "bike_id": "69e54d81c57235e8de8a8d70407ab301", "fusion_lat": 0.0, "name": "69e54d81c57235e8de8a8d70407ab301", "is_reserved": 0, "rental_uris": {"android": "https://dc.lft.to/lastmile_qr_scan", "ios": "https://dc.lft.to/lastmile_qr_scan"}, "fusion_lon": 0.0}, {"lat": 38.89759016666667, "is_disabled": 0, "type": "electric_scooter", "lon": -77.04669233333334, "bike_id": "2fd982f30a9133fc5c795276c6dd6955", "fusion_lat": 0.0, "name": "2fd982f30a9133fc5c795276c6dd6955", "is_reserved": 0, "rental_uris": {"android": "https://dc.lft.to/lastmile_qr_scan", "ios": "https://dc.lft.to/lastmile_qr_scan"}, "fusion_lon": 0.0}, {"lat": 38.90209383333333, "is_disabled": 0, "type": "electric_scooter", "lon": -77.04582416666666, "bike_id": "7bc5ce1b334e82c75e58c7254f7266c4", "fusion_lat": 0.0, "name": "7bc5ce1b334e82c75e58c7254f7266c4", "is_reserved": 0, "rental_uris": {"android": "https://dc.lft.to/lastmile_qr_scan", "ios": "https://dc.lft.to/lastmile_qr_scan"}, "fusion_lon": 0.0}, {"lat": 38.88926133333333, "is_disabled": 0, "type": "electric_scooter", "lon": -76.973762, "bike_id": "fadfacd42c0e278e450b8e5661fe8ed8", "fusion_lat": 0.0, "name": "fadfacd42c0e278e450b8e5661fe8ed8", "is_reserved": 0, "rental_uris": {"android": "https://dc.lft.to/lastmile_qr_scan", "ios": "https://dc.lft.to/lastmile_qr_scan"}, "fusion_lon": 0.0}, {"lat": 38.900732, "is_disabled": 0, "type": "electric_scooter", "lon": -77.00212333333333, "bike_id": "0c939572a5769045a37fb855e3f39472", "fusion_lat": 0.0, "name": "0c939572a5769045a37fb855e3f39472", "is_reserved": 0, "rental_uris": {"android": "https://dc.lft.to/lastmile_qr_scan", "ios": "https://dc.lft.to/lastmile_qr_scan"}, "fusion_lon": 0.0}, {"lat": 38.9249665, "is_disabled": 0, "type": "electric_scooter", "lon": -77.02153, "bike_id": "92678c47d371ef3c2d858d34c56e6730", "fusion_lat": 0.0, "name": "92678c47d371ef3c2d858d34c56e6730", "is_reserved": 0, "rental_uris": {"android": "https://dc.lft.to/lastmile_qr_scan", "ios": "https://dc.lft.to/lastmile_qr_scan"}, "fusion_lon": 0.0}, {"lat": 38.86159383333333, "is_disabled": 0, "type": "electric_bike", "lon": -77.1309565, "bike_id": "a14678324e14f135309108f606e0f3c6", "fusion_lat": 0.0, "name": "a14678324e14f135309108f606e0f3c6", "is_reserved": 0, "rental_uris": {"android": "https://dc.lft.to/lastmile_qr_scan", "ios": "https://dc.lft.to/lastmile_qr_scan"}, "fusion_lon": 0.0}, {"lat": 38.901996, "is_disabled": 0, "type": "electric_scooter", "lon": -77.0231775, "bike_id": "a202587ac2349a25560257c2c89abb0a", "fusion_lat": 0.0, "name": "a202587ac2349a25560257c2c89abb0a", "is_reserved": 0, "rental_uris": {"android": "https://dc.lft.to/lastmile_qr_scan", "ios": "https://dc.lft.to/lastmile_qr_scan"}, "fusion_lon": 0.0}, {"lat": 38.90856633333333, "is_disabled": 0, "type": "electric_scooter", "lon": -77.04773983333334, "bike_id": "498961312093bfe5be9a0d8dbe10091c", "fusion_lat": 0.0, "name": "498961312093bfe5be9a0d8dbe10091c", "is_reserved": 0, "rental_uris": {"android": "https://dc.lft.to/lastmile_qr_scan", "ios": "https://dc.lft.to/lastmile_qr_scan"}, "fusion_lon": 0.0}, {"lat": 38.862542833333336, "is_disabled": 0, "type": "electric_scooter", "lon": -76.995134, "bike_id": "a2404d16cea15f4623d81841397d24a7", "fusion_lat": 0.0, "name": "a2404d16cea15f4623d81841397d24a7", "is_reserved": 0, "rental_uris": {"android": "https://dc.lft.to/lastmile_qr_scan", "ios": "https://dc.lft.to/lastmile_qr_scan"}, "fusion_lon": 0.0}, {"lat": 38.94088033333333, "is_disabled": 0, "type": "electric_scooter", "lon": -77.02302, "bike_id": "7f7eb4314f27ba49a45fcf365bbc4f32", "fusion_lat": 0.0, "name": "7f7eb4314f27ba49a45fcf365bbc4f32", "is_reserved": 0, "rental_uris": {"android": "https://dc.lft.to/lastmile_qr_scan", "ios": "https://dc.lft.to/lastmile_qr_scan"}, "fusion_lon": 0.0}, {"lat": 38.90099, "is_disabled": 0, "type": "electric_scooter", "lon": -77.02723033333334, "bike_id": "667f28427e5055e1394f48adab2959a6", "fusion_lat": 0.0, "name": "667f28427e5055e1394f48adab2959a6", "is_reserved": 0, "rental_uris": {"android": "https://dc.lft.to/lastmile_qr_scan", "ios": "https://dc.lft.to/lastmile_qr_scan"}, "fusion_lon": 0.0}, {"lat": 38.901514166666665, "is_disabled": 0, "type": "electric_scooter", "lon": -77.05116366666667, "bike_id": "7993e721996bc04d3b0d5dda86a0cc5b", "fusion_lat": 0.0, "name": "7993e721996bc04d3b0d5dda86a0cc5b", "is_reserved": 0, "rental_uris": {"android": "https://dc.lft.to/lastmile_qr_scan", "ios": "https://dc.lft.to/lastmile_qr_scan"}, "fusion_lon": 0.0}, {"lat": 38.894136833333334, "is_disabled": 0, "type": "electric_scooter", "lon": -77.020931, "bike_id": "aec5d997269321e7752ff964b23e6098", "fusion_lat": 0.0, "name": "aec5d997269321e7752ff964b23e6098", "is_reserved": 0, "rental_uris": {"android": "https://dc.lft.to/lastmile_qr_scan", "ios": "https://dc.lft.to/lastmile_qr_scan"}, "fusion_lon": 0.0}, {"lat": 38.95078133333333, "is_disabled": 0, "type": "electric_bike", "lon": -77.012009, "bike_id": "7d25a2b61089ebb4919badde94a2ec14", "fusion_lat": 0.0, "name": "7d25a2b61089ebb4919badde94a2ec14", "is_reserved": 0, "rental_uris": {"android": "https://dc.lft.to/lastmile_qr_scan", "ios": "https://dc.lft.to/lastmile_qr_scan"}, "fusion_lon": 0.0}, {"lat": 38.905742000000004, "is_disabled": 0, "type": "electric_scooter", "lon": -77.02205533333333, "bike_id": "8316e2be3c2ac7952892e091ecfd4f93", "fusion_lat": 0.0, "name": "8316e2be3c2ac7952892e091ecfd4f93", "is_reserved": 0, "rental_uris": {"android": "https://dc.lft.to/lastmile_qr_scan", "ios": "https://dc.lft.to/lastmile_qr_scan"}, "fusion_lon": 0.0}, {"lat": 38.935741166666666, "is_disabled": 0, "type": "electric_scooter", "lon": -77.0375475, "bike_id": "8377502b054ca03309166a475833e03d", "fusion_lat": 0.0, "name": "8377502b054ca03309166a475833e03d", "is_reserved": 0, "rental_uris": {"android": "https://dc.lft.to/lastmile_qr_scan", "ios": "https://dc.lft.to/lastmile_qr_scan"}, "fusion_lon": 0.0}, {"lat": 38.8827995, "is_disabled": 0, "type": "electric_bike", "lon": -76.93242816666667, "bike_id": "5374ca3ba29e4d7fcfd0b6bdcc36a3b7", "fusion_lat": 0.0, "name": "5374ca3ba29e4d7fcfd0b6bdcc36a3b7", "is_reserved": 0, "rental_uris": {"android": "https://dc.lft.to/lastmile_qr_scan", "ios": "https://dc.lft.to/lastmile_qr_scan"}, "fusion_lon": 0.0}, {"lat": 38.90758533333333, "is_disabled": 0, "type": "electric_scooter", "lon": -77.04169866666666, "bike_id": "c4e6dec6403224ae5722acb5394829da", "fusion_lat": 0.0, "name": "c4e6dec6403224ae5722acb5394829da", "is_reserved": 0, "rental_uris": {"android": "https://dc.lft.to/lastmile_qr_scan", "ios": "https://dc.lft.to/lastmile_qr_scan"}, "fusion_lon": 0.0}, {"lat": 38.90216183333333, "is_disabled": 0, "type": "electric_scooter", "lon": -77.0215765, "bike_id": "26c962ae31b6b228acee1fb0fe86abd2", "fusion_lat": 0.0, "name": "26c962ae31b6b228acee1fb0fe86abd2", "is_reserved": 0, "rental_uris": {"android": "https://dc.lft.to/lastmile_qr_scan", "ios": "https://dc.lft.to/lastmile_qr_scan"}, "fusion_lon": 0.0}, {"lat": 38.89972066666667, "is_disabled": 0, "type": "electric_scooter", "lon": -77.05267016666667, "bike_id": "471cd08c23d8a4105ea1361e0446bb99", "fusion_lat": 0.0, "name": "471cd08c23d8a4105ea1361e0446bb99", "is_reserved": 0, "rental_uris": {"android": "https://dc.lft.to/lastmile_qr_scan", "ios": "https://dc.lft.to/lastmile_qr_scan"}, "fusion_lon": 0.0}, {"lat": 38.90335116666667, "is_disabled": 0, "type": "electric_scooter", "lon": -76.97056733333334, "bike_id": "cf67339207667daa0599466a8684912e", "fusion_lat": 0.0, "name": "cf67339207667daa0599466a8684912e", "is_reserved": 0, "rental_uris": {"android": "https://dc.lft.to/lastmile_qr_scan", "ios": "https://dc.lft.to/lastmile_qr_scan"}, "fusion_lon": 0.0}, {"lat": 38.9149095, "is_disabled": 0, "type": "electric_scooter", "lon": -76.98352116666666, "bike_id": "0ca5d5659d6c4e60eed4b1e15a71b78e", "fusion_lat": 0.0, "name": "0ca5d5659d6c4e60eed4b1e15a71b78e", "is_reserved": 0, "rental_uris": {"android": "https://dc.lft.to/lastmile_qr_scan", "ios": "https://dc.lft.to/lastmile_qr_scan"}, "fusion_lon": 0.0}, {"lat": 38.957338, "is_disabled": 0, "type": "electric_scooter", "lon": -77.02385916666667, "bike_id": "765d2a4e22d054bcb00f82cd3ece8dc8", "fusion_lat": 0.0, "name": "765d2a4e22d054bcb00f82cd3ece8dc8", "is_reserved": 0, "rental_uris": {"android": "https://dc.lft.to/lastmile_qr_scan", "ios": "https://dc.lft.to/lastmile_qr_scan"}, "fusion_lon": 0.0}, {"lat": 38.915573, "is_disabled": 0, "type": "electric_scooter", "lon": -77.00981583333333, "bike_id": "599fffe65beda3c7ed2e74f6c74ab45d", "fusion_lat": 0.0, "name": "599fffe65beda3c7ed2e74f6c74ab45d", "is_reserved": 0, "rental_uris": {"android": "https://dc.lft.to/lastmile_qr_scan", "ios": "https://dc.lft.to/lastmile_qr_scan"}, "fusion_lon": 0.0}, {"lat": 38.9088385, "is_disabled": 0, "type": "electric_scooter", "lon": -77.03664566666667, "bike_id": "d7300c3b11b1806f4af889b2e82a419f", "fusion_lat": 0.0, "name": "d7300c3b11b1806f4af889b2e82a419f", "is_reserved": 0, "rental_uris": {"android": "https://dc.lft.to/lastmile_qr_scan", "ios": "https://dc.lft.to/lastmile_qr_scan"}, "fusion_lon": 0.0}, {"lat": 38.8661145, "is_disabled": 0, "type": "electric_scooter", "lon": -76.98665783333334, "bike_id": "cf72b45a0c5c541392f7aea25c33b319", "fusion_lat": 0.0, "name": "cf72b45a0c5c541392f7aea25c33b319", "is_reserved": 0, "rental_uris": {"android": "https://dc.lft.to/lastmile_qr_scan", "ios": "https://dc.lft.to/lastmile_qr_scan"}, "fusion_lon": 0.0}, {"lat": 38.911963166666666, "is_disabled": 0, "type": "electric_scooter", "lon": -77.044872, "bike_id": "2735cb7ef3428e9212595e980ddfb9f8", "fusion_lat": 0.0, "name": "2735cb7ef3428e9212595e980ddfb9f8", "is_reserved": 0, "rental_uris": {"android": "https://dc.lft.to/lastmile_qr_scan", "ios": "https://dc.lft.to/lastmile_qr_scan"}, "fusion_lon": 0.0}, {"lat": 38.89431116666667, "is_disabled": 0, "type": "electric_scooter", "lon": -77.03190883333333, "bike_id": "2edec22545909eb9b454f9f8eb4a754d", "fusion_lat": 0.0, "name": "2edec22545909eb9b454f9f8eb4a754d", "is_reserved": 0, "rental_uris": {"android": "https://dc.lft.to/lastmile_qr_scan", "ios": "https://dc.lft.to/lastmile_qr_scan"}, "fusion_lon": 0.0}, {"lat": 38.866976666666666, "is_disabled": 0, "type": "electric_scooter", "lon": -76.98710966666667, "bike_id": "9a581ce38c3b1118fcc92677e842b40f", "fusion_lat": 0.0, "name": "9a581ce38c3b1118fcc92677e842b40f", "is_reserved": 0, "rental_uris": {"android": "https://dc.lft.to/lastmile_qr_scan", "ios": "https://dc.lft.to/lastmile_qr_scan"}, "fusion_lon": 0.0}, {"lat": 38.90944233333333, "is_disabled": 0, "type": "electric_scooter", "lon": -76.989634, "bike_id": "5cf2f7c0ff6a32de95f0cc1004952160", "fusion_lat": 0.0, "name": "5cf2f7c0ff6a32de95f0cc1004952160", "is_reserved": 0, "rental_uris": {"android": "https://dc.lft.to/lastmile_qr_scan", "ios": "https://dc.lft.to/lastmile_qr_scan"}, "fusion_lon": 0.0}, {"lat": 38.89948483333333, "is_disabled": 0, "type": "electric_scooter", "lon": -77.0337505, "bike_id": "9efc033a56c8308a4cdcf96df980855d", "fusion_lat": 0.0, "name": "9efc033a56c8308a4cdcf96df980855d", "is_reserved": 0, "rental_uris": {"android": "https://dc.lft.to/lastmile_qr_scan", "ios": "https://dc.lft.to/lastmile_qr_scan"}, "fusion_lon": 0.0}, {"lat": 38.91030083333333, "is_disabled": 0, "type": "electric_scooter", "lon": -77.02952316666666, "bike_id": "43bbd6da37b7dabca2ca6f46304cb54f", "fusion_lat": 0.0, "name": "43bbd6da37b7dabca2ca6f46304cb54f", "is_reserved": 0, "rental_uris": {"android": "https://dc.lft.to/lastmile_qr_scan", "ios": "https://dc.lft.to/lastmile_qr_scan"}, "fusion_lon": 0.0}, {"lat": 38.840247, "is_disabled": 0, "type": "electric_bike", "lon": -76.97583883333333, "bike_id": "22365d1c3155796da8086092c8c8ea08", "fusion_lat": 0.0, "name": "22365d1c3155796da8086092c8c8ea08", "is_reserved": 0, "rental_uris": {"android": "https://dc.lft.to/lastmile_qr_scan", "ios": "https://dc.lft.to/lastmile_qr_scan"}, "fusion_lon": 0.0}, {"lat": 38.90116016666666, "is_disabled": 0, "type": "electric_scooter", "lon": -77.01593966666667, "bike_id": "75bb2127f1d1cede89b48a002f48b7d3", "fusion_lat": 0.0, "name": "75bb2127f1d1cede89b48a002f48b7d3", "is_reserved": 0, "rental_uris": {"android": "https://dc.lft.to/lastmile_qr_scan", "ios": "https://dc.lft.to/lastmile_qr_scan"}, "fusion_lon": 0.0},