{"data": {"bikes": [{"bike_id": "d66dcbda2cbfc50ec3fe06e33064d7cc", "type": "electric_scooter", "is_disabled": 0, "lat": 38.900730833333334, "rental_uris": {"ios": "https://dc.lft.to/lastmile_qr_scan", "android": "https://dc.lft.to/lastmile_qr_scan"}, "is_reserved": 0, "fusion_lon": 0.0, "fusion_lat": 0.0, "lon": -77.0190185, "name": "d66dcbda2cbfc50ec3fe06e33064d7cc"}, {"bike_id": "77246a792bab24491250d9e31f25dae7", "type": "electric_scooter", "is_disabled": 0, "lat": 38.925439, "rental_uris": {"ios": "https://dc.lft.to/lastmile_qr_scan", "android": "https://dc.lft.to/lastmile_qr_scan"}, "is_reserved": 0, "fusion_lon": 0.0, "fusion_lat": 0.0, "lon": -77.03361516666666, "name": "77246a792bab24491250d9e31f25dae7"}, {"bike_id": "b7a251cf1e5d7bd63e8218246c43d14c", "type": "electric_bike", "is_disabled": 0, "lat": 38.942656166666666, "rental_uris": {"ios": "https://dc.lft.to/lastmile_qr_scan", "android": "https://dc.lft.to/lastmile_qr_scan"}, "is_reserved": 0, "fusion_lon": 0.0, "fusion_lat": 0.0, "lon": -76.99074133333333, "name": "b7a251cf1e5d7bd63e8218246c43d14c"}, {"bike_id": "01218330b35697a177cdbfeadf74bee6", "type": "electric_scooter", "is_disabled": 0, "lat": 38.89501816666667, "rental_uris": {"ios": "https://dc.lft.to/lastmile_qr_scan", "android": "https://dc.lft.to/lastmile_qr_scan"}, "is_reserved": 0, "fusion_lon": 0.0, "fusion_lat": 0.0, "lon": -76.93489433333333, "name": "01218330b35697a177cdbfeadf74bee6"}, {"bike_id": "3ee7164db1c39002cb06f295cc0420c8", "type": "electric_scooter", "is_disabled": 0, "lat": 38.90073566666667, "rental_uris": {"ios": "https://dc.lft.to/lastmile_qr_scan", "android": "https://dc.lft.to/lastmile_qr_scan"}, "is_reserved": 0, "fusion_lon": 0.0, "fusion_lat": 0.0, "lon": -77.05127533333334, "name": "3ee7164db1c39002cb06f295cc0420c8"}, {"bike_id": "ad39661bfdadc0c439836a15b3a31fe3", "type": "electric_scooter", "is_disabled": 0, "lat": 38.909545, "rental_uris": {"ios": "https://dc.lft.to/lastmile_qr_scan", "android": "https://dc.lft.to/lastmile_qr_scan"}, "is_reserved": 0, "fusion_lon": 0.0, "fusion_lat": 0.0, "lon": -77.027182, "name": "ad39661bfdadc0c439836a15b3a31fe3"}, {"bike_id": "5cf1d8e6ee7911eff55c6f70e501fe99", "type": "electric_bike", "is_disabled": 0, "lat": 38.848495, "rental_uris": {"ios": "https://dc.lft.to/lastmile_qr_scan", "android": "https://dc.lft.to/lastmile_qr_scan"}, "is_reserved": 0, "fusion_lon": 0.0, "fusion_lat": 0.0, "lon": -77.07921733333333, "name": "5cf1d8e6ee7911eff55c6f70e501fe99"}, {"bike_id": "8f751f89742cb40f5763b8ee7ea08bc8", "type": "electric_scooter", "is_disabled": 0, "lat": 38.9482975, "rental_uris": {"ios": "https://dc.lft.to/lastmile_qr_scan", "android": "https://dc.lft.to/lastmile_qr_scan"}, "is_reserved": 0, "fusion_lon": 0.0, "fusion_lat": 0.0, "lon": -77.06558516666666, "name": "8f751f89742cb40f5763b8ee7ea08bc8"}, {"bike_id": "9078bfb0a3b2f06c6b3847401f624203", "type": "electric_bike", "is_disabled": 0, "lat": 38.925428333333336, "rental_uris": {"ios": "https://dc.lft.to/lastmile_qr_scan", "android": "https://dc.lft.to/lastmile_qr_scan"}, "is_reserved": 0, "fusion_lon": 0.0, "fusion_lat": 0.0, "lon": -77.10200116666667, "name": "9078bfb0a3b2f06c6b3847401f624203"}, {"bike_id": "82bbdd6423ca461e53da9994b5608e71", "type": "electric_scooter", "is_disabled": 0, "lat": 38.951258333333335, "rental_uris": {"ios": "https://dc.lft.to/lastmile_qr_scan", "android": "https://dc.lft.to/lastmile_qr_scan"}, "is_reserved": 0, "fusion_lon": 0.0, "fusion_lat": 0.0, "lon": -77.01435116666667, "name": "82bbdd6423ca461e53da9994b5608e71"}, {"bike_id": "6dd0bbfa0e90a1039fb8c0112fc4a474", "type": "electric_scooter", "is_disabled": 0, "lat": 38.8669275, "rental_uris": {"ios": "https://dc.lft.to/lastmile_qr_scan", "android": "https://dc.lft.to/lastmile_qr_scan"}, "is_reserved": 0, "fusion_lon": 0.0, "fusion_lat": 0.0, "lon": -76.98568383333334, "name": "6dd0bbfa0e90a1039fb8c0112fc4a474"}, {"bike_id": "31b1882e3f616b5ebd5e659f3ad89abf", "type": "electric_scooter", "is_disabled": 0, "lat": 38.93245566666667, "rental_uris": {"ios": "https://dc.lft.to/lastmile_qr_scan", "android": "https://dc.lft.to/lastmile_qr_scan"}, "is_reserved": 0, "fusion_lon": 0.0, "fusion_lat": 0.0, "lon": -77.03593016666666, "name": "31b1882e3f616b5ebd5e659f3ad89abf"}, {"bike_id": "356dc9e4616f6076da85e232a1b00681", "type": "electric_scooter", "is_disabled": 0, "lat": 38.92060166666667, "rental_uris": {"ios": "https://dc.lft.to/lastmile_qr_scan", "android": "https://dc.lft.to/lastmile_qr_scan"}, "is_reserved": 0, "fusion_lon": 0.0, "fusion_lat": 0.0, "lon": -77.03463016666667, "name": "356dc9e4616f6076da85e232a1b00681"}, {"bike_id": "11b211a6cb64fd802e1c5538dad89f7c", "type": "electric_scooter", "is_disabled": 0, "lat": 38.885040833333335, "rental_uris": {"ios": "https://dc.lft.to/lastmile_qr_scan", "android": "https://dc.lft.to/lastmile_qr_scan"}, "is_reserved": 0, "fusion_lon": 0.0, "fusion_lat": 0.0, "lon": -77.015163, "name": "11b211a6cb64fd802e1c5538dad89f7c"}, {"bike_id": "225f764e2214d382860f8b94c8f10ca0", "type": "electric_scooter", "is_disabled": 0, "lat": 38.926875333333335, "rental_uris": {"ios": "https://dc.lft.to/lastmile_qr_scan", "android": "https://dc.lft.to/lastmile_qr_scan"}, "is_reserved": 0, "fusion_lon": 0.0, "fusion_lat": 0.0, "lon": -77.02161766666667, "name": "225f764e2214d382860f8b94c8f10ca0"}, {"bike_id": "b8e7947e65bd35e496aea2ccc733bffc", "type": "electric_scooter", "is_disabled": 0, "lat": 38.9197845, "rental_uris": {"ios": "https://dc.lft.to/lastmile_qr_scan", "android": "https://dc.lft.to/lastmile_qr_scan"}, "is_reserved": 0, "fusion_lon": 0.0, "fusion_lat": 0.0, "lon": -77.033255, "name": "b8e7947e65bd35e496aea2ccc733bffc"}, {"bike_id": "fbaf77d8bf7fe995e64f7795a49e7a5d", "type": "electric_scooter", "is_disabled": 0, "lat": 38.93351466666667, "rental_uris": {"ios": "https://dc.lft.to/lastmile_qr_scan", "android": "https://dc.lft.to/lastmile_qr_scan"}, "is_reserved": 0, "fusion_lon": 0.0, "fusion_lat": 0.0, "lon": -77.02400416666667, "name": "fbaf77d8bf7fe995e64f7795a49e7a5d"}, {"bike_id": "61dc099ae36654429df7673c7441b36f", "type": "electric_scooter", "is_disabled": 0, "lat": 38.90724516666667, "rental_uris": {"ios": "https://dc.lft.to/lastmile_qr_scan", "android": "https://dc.lft.to/lastmile_qr_scan"}, "is_reserved": 0, "fusion_lon": 0.0, "fusion_lat": 0.0, "lon": -77.05326066666667, "name": "61dc099ae36654429df7673c7441b36f"}, {"bike_id": "4791d74d7929b392d2ccc61a3ea49ec2", "type": "electric_scooter", "is_disabled": 0, "lat": 38.95687133333333, "rental_uris": {"ios": "https://dc.lft.to/lastmile_qr_scan", "android": "https://dc.lft.to/lastmile_qr_scan"}, "is_reserved": 0, "fusion_lon": 0.0, "fusion_lat": 0.0, "lon": -77.02418216666666, "name": "4791d74d7929b392d2ccc61a3ea49ec2"}, {"bike_id": "bde65a89b1993936d60c8c8d8a3bb140", "type": "electric_scooter", "is_disabled": 0, "lat": 38.92129766666667, "rental_uris": {"ios": "https://dc.lft.to/lastmile_qr_scan", "android": "https://dc.lft.to/lastmile_qr_scan"}, "is_reserved": 0, "fusion_lon": 0.0, "fusion_lat": 0.0, "lon": -77.01793866666667, "name": "bde65a89b1993936d60c8c8d8a3bb140"}, {"bike_id": "b8611238c25e3fe1940c57908ec71d20", "type": "electric_scooter", "is_disabled": 0, "lat": 38.901856333333335, "rental_uris": {"ios": "https://dc.lft.to/lastmile_qr_scan", "android": "https://dc.lft.to/lastmile_qr_scan"}, "is_reserved": 0, "fusion_lon": 0.0, "fusion_lat": 0.0, "lon": -76.996897, "name": "b8611238c25e3fe1940c57908ec71d20"}, {"bike_id": "6bd3b77f632fc967050009bf973a52e1", "type": "electric_bike", "is_disabled": 0, "lat": 38.865132833333334, "rental_uris": {"ios": "https://dc.lft.to/lastmile_qr_scan", "android": "https://dc.lft.to/lastmile_qr_scan"}, "is_reserved": 0, "fusion_lon": 0.0, "fusion_lat": 0.0, "lon": -77.12940333333333, "name": "6bd3b77f632fc967050009bf973a52e1"}, {"bike_id": "d61371d07e5c4155aa8796742657f0fb", "type": "electric_scooter", "is_disabled": 0, "lat": 38.9162015, "rental_uris": {"ios": "https://dc.lft.to/lastmile_qr_scan", "android": "https://dc.lft.to/lastmile_qr_scan"}, "is_reserved": 0, "fusion_lon": 0.0, "fusion_lat": 0.0, "lon": -77.03190716666667, "name": "d61371d07e5c4155aa8796742657f0fb"}, {"bike_id": "6583c7b18a09391ee39a9c7c3ab66e8c", "type": "electric_scooter", "is_disabled": 0, "lat": 38.88444633333334, "rental_uris": {"ios": "https://dc.lft.to/lastmile_qr_scan", "android": "https://dc.lft.to/lastmile_qr_scan"}, "is_reserved": 0, "fusion_lon": 0.0, "fusion_lat": 0.0, "lon": -76.95761083333333, "name": "6583c7b18a09391ee39a9c7c3ab66e8c"}, {"bike_id": "b44f18a899f9a4d95c0a5bd01b9fa546", "type": "electric_scooter", "is_disabled": 0, "lat": 38.87687666666667, "rental_uris": {"ios": "https://dc.lft.to/lastmile_qr_scan", "android": "https://dc.lft.to/lastmile_qr_scan"}, "is_reserved": 0, "fusion_lon": 0.0, "fusion_lat": 0.0, "lon": -77.00578783333333, "name": "b44f18a899f9a4d95c0a5bd01b9fa546"}, {"bike_id": "bc6c641e50d8d65fe56d52e89dec5d97", "type": "electric_scooter", "is_disabled": 0, "lat": 38.9304875, "rental_uris": {"ios": "https://dc.lft.to/lastmile_qr_scan", "android": "https://dc.lft.to/lastmile_qr_scan"}, "is_reserved": 0, "fusion_lon": 0.0, "fusion_lat": 0.0, "lon": -77.018331, "name": "bc6c641e50d8d65fe56d52e89dec5d97"}, {"bike_id": "11cc8cab65d679493dd9bd29d7d6ccd5", "type": "electric_scooter", "is_disabled": 0, "lat": 38.905376333333336, "rental_uris": {"ios": "https://dc.lft.to/lastmile_qr_scan", "android": "https://dc.lft.to/lastmile_qr_scan"}, "is_reserved": 0, "fusion_lon": 0.0, "fusion_lat": 0.0, "lon": -77.04955366666667, "name": "11cc8cab65d679493dd9bd29d7d6ccd5"}, {"bike_id": "dae7dcd26282072aeda9b9761ed8d237", "type": "electric_scooter", "is_disabled": 0, "lat": 38.90729416666667, "rental_uris": {"ios": "https://dc.lft.to/lastmile_qr_scan", "android": "https://dc.lft.to/lastmile_qr_scan"}, "is_reserved": 0, "fusion_lon": 0.0, "fusion_lat": 0.0, "lon": -77.03953283333334, "name": "dae7dcd26282072aeda9b9761ed8d237"}, {"bike_id": "0970b0f5cbff97dca3e877a7ca4e9456", "type": "electric_scooter", "is_disabled": 0, "lat": 38.89709333333333, "rental_uris": {"ios": "https://dc.lft.to/lastmile_qr_scan", "android": "https://dc.lft.to/lastmile_qr_scan"}, "is_reserved": 0, "fusion_lon": 0.0, "fusion_lat": 0.0, "lon": -76.93001766666667, "name": "0970b0f5cbff97dca3e877a7ca4e9456"}, {"bike_id": "ffe89542ae699341b21d34b4bb60fae1", "type": "electric_scooter", "is_disabled": 0, "lat": 38.901470833333335, "rental_uris": {"ios": "https://dc.lft.to/lastmile_qr_scan", "android": "https://dc.lft.to/lastmile_qr_scan"}, "is_reserved": 0, "fusion_lon": 0.0, "fusion_lat": 0.0, "lon": -76.99034533333334, "name": "ffe89542ae699341b21d34b4bb60fae1"}, {"bike_id": "910d282abb46c0f3bd3a82e00c625ad9", "type": "electric_bike", "is_disabled": 0, "lat": 38.803941333333334, "rental_uris": {"ios": "https://dc.lft.to/lastmile_qr_scan", "android": "https://dc.lft.to/lastmile_qr_scan"}, "is_reserved": 0, "fusion_lon": 0.0, "fusion_lat": 0.0, "lon": -77.05564516666666, "name": "910d282abb46c0f3bd3a82e00c625ad9"}, {"bike_id": "50e9f09ccc643b6a15d8d3a5b4d9ff76", "type": "electric_scooter", "is_disabled": 0, "lat": 38.88215, "rental_uris": {"ios": "https://dc.lft.to/lastmile_qr_scan", "android": "https://dc.lft.to/lastmile_qr_scan"}, "is_reserved": 0, "fusion_lon": 0.0, "fusion_lat": 0.0, "lon": -77.02909033333333, "name": "50e9f09ccc643b6a15d8d3a5b4d9ff76"}, {"bike_id": "17db4c2db23bcc92b488672877226c5b", "type": "electric_scooter", "is_disabled": 0, "lat": 38.915964833333334, "rental_uris": {"ios": "https://dc.lft.to/lastmile_qr_scan", "android": "https://dc.lft.to/lastmile_qr_scan"}, "is_reserved": 0, "fusion_lon": 0.0, "fusion_lat": 0.0, "lon": -77.02281433333333, "name": "17db4c2db23bcc92b488672877226c5b"}, {"bike_id": "76bfc5b9153194f2373353f0025a3ca1", "type": "electric_scooter", "is_disabled": 0, "lat": 38.9089685, "rental_uris": {"ios": "https://dc.lft.to/lastmile_qr_scan", "android": "https://dc.lft.to/lastmile_qr_scan"}, "is_reserved": 0, "fusion_lon": 0.0, "fusion_lat": 0.0, "lon": -77.0026815, "name": "76bfc5b9153194f2373353f0025a3ca1"}, {"bike_id": "9036fe8c8f0381388df5037935065610", "type": "electric_scooter", "is_disabled": 0, "lat": 38.90288566666667, "rental_uris": {"ios": "https://dc.lft.to/lastmile_qr_scan", "android": "https://dc.lft.to/lastmile_qr_scan"}, "is_reserved": 0, "fusion_lon": 0.0, "fusion_lat": 0.0, "lon": -77.02280233333333, "name": "9036fe8c8f0381388df5037935065610"}, {"bike_id": "7bb51561d8c87d61e6c5833fb3a97c91", "type": "electric_scooter", "is_disabled": 0, "lat": 38.921327, "rental_uris": {"ios": "https://dc.lft.to/lastmile_qr_scan", "android": "https://dc.lft.to/lastmile_qr_scan"}, "is_reserved": 0, "fusion_lon": 0.0, "fusion_lat": 0.0, "lon": -77.01804016666667, "name": "7bb51561d8c87d61e6c5833fb3a97c91"}, {"bike_id": "252f94b537345e6e4f0b1dac09f119c6", "type": "electric_scooter", "is_disabled": 0, "lat": 38.913988, "rental_uris": {"ios": "https://dc.lft.to/lastmile_qr_scan", "android": "https://dc.lft.to/lastmile_qr_scan"}, "is_reserved": 0, "fusion_lon": 0.0, "fusion_lat": 0.0, "lon": -77.041709, "name": "252f94b537345e6e4f0b1dac09f119c6"}, {"bike_id": "82a83cf5300434ea98b608ae9a381b4c", "type": "electric_scooter", "is_disabled": 0, "lat": 38.88042633333333, "rental_uris": {"ios": "https://dc.lft.to/lastmile_qr_scan", "android": "https://dc.lft.to/lastmile_qr_scan"}, "is_reserved": 0, "fusion_lon": 0.0, "fusion_lat": 0.0, "lon": -76.93216866666667, "name": "82a83cf5300434ea98b608ae9a381b4c"}, {"bike_id": "25c8bb175fa4a77cdbe45f8f1e81e0fd", "type": "electric_scooter", "is_disabled": 0, "lat": 38.905896, "rental_uris": {"ios": "https://dc.lft.to/lastmile_qr_scan", "android": "https://dc.lft.to/lastmile_qr_scan"}, "is_reserved": 0, "fusion_lon": 0.0, "fusion_lat": 0.0, "lon": -77.070154, "name": "25c8bb175fa4a77cdbe45f8f1e81e0fd"}, {"bike_id": "ae64398f7ce61ec51467b11ddbc98602", "type": "electric_bike", "is_disabled": 0, "lat": 38.87404766666667, "rental_uris": {"ios": "https://dc.lft.to/lastmile_qr_scan", "android": "https://dc.lft.to/lastmile_qr_scan"}, "is_reserved": 0, "fusion_lon": 0.0, "fusion_lat": 0.0, "lon": -77.00586083333333, "name": "ae64398f7ce61ec51467b11ddbc98602"}, {"bike_id": "8d6b0e5b7a9f33d1588db9ce79d4f1d8", "type": "electric_scooter", "is_disabled": 0, "lat": 38.90697016666667, "rental_uris": {"ios": "https://dc.lft.to/lastmile_qr_scan", "android": "https://dc.lft.to/lastmile_qr_scan"}, "is_reserved": 0, "fusion_lon": 0.0, "fusion_lat": 0.0, "lon": -77.03675333333334, "name": "8d6b0e5b7a9f33d1588db9ce79d4f1d8"}, {"bike_id": "eebe9640030b6d2f837a969cd941f857", "type": "electric_scooter", "is_disabled": 0, "lat": 38.956001666666666, "rental_uris": {"ios": "https://dc.lft.to/lastmile_qr_scan", "android": "https://dc.lft.to/lastmile_qr_scan"}, "is_reserved": 0, "fusion_lon": 0.0, "fusion_lat": 0.0, "lon": -77.0010895, "name": "eebe9640030b6d2f837a969cd941f857"}, {"bike_id": "1e01e8608da9e2fb6fe4a9b2cb8f89c2", "type": "electric_scooter", "is_disabled": 0, "lat": 38.862461333333336, "rental_uris": {"ios": "https://dc.lft.to/lastmile_qr_scan", "android": "https://dc.lft.to/lastmile_qr_scan"}, "is_reserved": 0, "fusion_lon": 0.0, "fusion_lat": 0.0, "lon": -76.99503166666666, "name": "1e01e8608da9e2fb6fe4a9b2cb8f89c2"}, {"bike_id": "ce1ec60e93853a412c3029f8e4212bbd", "type": "electric_scooter", "is_disabled": 0, "lat": 38.92383616666667, "rental_uris": {"ios": "https://dc.lft.to/lastmile_qr_scan", "android": "https://dc.lft.to/lastmile_qr_scan"}, "is_reserved": 0, "fusion_lon": 0.0, "fusion_lat": 0.0, "lon": -77.0308605, "name": "ce1ec60e93853a412c3029f8e4212bbd"}, {"bike_id": "3b6b0d4e16d84104ed8b30bedeaf34f2", "type": "electric_scooter", "is_disabled": 0, "lat": 38.92667, "rental_uris": {"ios": "https://dc.lft.to/lastmile_qr_scan", "android": "https://dc.lft.to/lastmile_qr_scan"}, "is_reserved": 0, "fusion_lon": 0.0, "fusion_lat": 0.0, "lon": -76.99553583333334, "name": "3b6b0d4e16d84104ed8b30bedeaf34f2"}, {"bike_id": "8faac36f0f144d42e01ddd0d09633514", "type": "electric_scooter", "is_disabled": 0, "lat": 38.9310255, "rental_uris": {"ios": "https://dc.lft.to/lastmile_qr_scan", "android": "https://dc.lft.to/lastmile_qr_scan"}, "is_reserved": 0, "fusion_lon": 0.0, "fusion_lat": 0.0, "lon": -77.03025183333334, "name": "8faac36f0f144d42e01ddd0d09633514"}, {"bike_id": "82c3a103430d8bac1b49b296a4afa657", "type": "electric_bike", "is_disabled": 0, "lat": 38.906397, "rental_uris": {"ios": "https://dc.lft.to/lastmile_qr_scan", "android": "https://dc.lft.to/lastmile_qr_scan"}, "is_reserved": 0, "fusion_lon": 0.0, "fusion_lat": 0.0, "lon": -77.00916716666667, "name": "82c3a103430d8bac1b49b296a4afa657"}, {"bike_id": "465db5bb43e0c96fdfbf5d6e27d3c594", "type": "electric_scooter", "is_disabled": 0, "lat": 38.96208, "rental_uris": {"ios": "https://dc.lft.to/lastmile_qr_scan", "android": "https://dc.lft.to/lastmile_qr_scan"}, "is_reserved": 0, "fusion_lon": 0.0, "fusion_lat": 0.0, "lon": -77.02237233333334, "name": "465db5bb43e0c96fdfbf5d6e27d3c594"}, {"bike_id": "61d61ad52b3b7888b3b50cf0316c4d61", "type": "electric_scooter", "is_disabled": 0, "lat": 38.936781333333336, "rental_uris": {"ios": "https://dc.lft.to/lastmile_qr_scan", "android": "https://dc.lft.to/lastmile_qr_scan"}, "is_reserved": 0, "fusion_lon": 0.0, "fusion_lat": 0.0, "lon": -77.03563583333333, "name": "61d61ad52b3b7888b3b50cf0316c4d61"}, {"bike_id": "b7c89c3e3b0654566793839ba6de85da", "type": "electric_bike", "is_disabled": 0, "lat": 38.98366566666667, "rental_uris": {"ios": "https://dc.lft.to/lastmile_qr_scan", "android": "https://dc.lft.to/lastmile_qr_scan"}, "is_reserved": 0, "fusion_lon": 0.0, "fusion_lat": 0.0, "lon": -76.97213816666667, "name": "b7c89c3e3b0654566793839ba6de85da"}, {"bike_id": "d5278af28ba776e281c3c692df1050b2", "type": "electric_scooter", "is_disabled": 0, "lat": 38.862453, "rental_uris": {"ios": "https://dc.lft.to/lastmile_qr_scan", "android": "https://dc.lft.to/lastmile_qr_scan"}, "is_reserved": 0, "fusion_lon": 0.0, "fusion_lat": 0.0, "lon": -76.995031, "name": "d5278af28ba776e281c3c692df1050b2"}, {"bike_id": "85c9c1d8fba4bcd2c32f06b3118dd1c6", "type": "electric_scooter", "is_disabled": 0, "lat": 38.866854833333335, "rental_uris": {"ios": "https://dc.lft.to/lastmile_qr_scan", "android": "https://dc.lft.to/lastmile_qr_scan"}, "is_reserved": 0, "fusion_lon": 0.0, "fusion_lat": 0.0, "lon": -76.9859755, "name": "85c9c1d8fba4bcd2c32f06b3118dd1c6"}, {"bike_id": "570240e2e99da278796ed47300fd8739", "type": "electric_bike", "is_disabled": 0, "lat": 38.93773383333333, "rental_uris": {"ios": "https://dc.lft.to/lastmile_qr_scan", "android": "https://dc.lft.to/lastmile_qr_scan"}, "is_reserved": 0, "fusion_lon": 0.0, "fusion_lat": 0.0, "lon": -77.01887566666667, "name": "570240e2e99da278796ed47300fd8739"}, {"bike_id": "1a2d43c23f4bc3ddfe9e4dccb90b13e0", "type": "electric_scooter", "is_disabled": 0, "lat": 38.85021616666667, "rental_uris": {"ios": "https://dc.lft.to/lastmile_qr_scan", "android": "https://dc.lft.to/lastmile_qr_scan"}, "is_reserved": 0, "fusion_lon": 0.0, "fusion_lat": 0.0, "lon": -76.975418, "name": "1a2d43c23f4bc3ddfe9e4dccb90b13e0"}, {"bike_id": "cf47c1d67a3e43cec9ba0d60048708b8", "type": "electric_scooter", "is_disabled": 0, "lat": 38.92068483333333, "rental_uris": {"ios": "https://dc.lft.to/lastmile_qr_scan", "android": "https://dc.lft.to/lastmile_qr_scan"}, "is_reserved": 0, "fusion_lon": 0.0, "fusion_lat": 0.0, "lon": -77.02671966666666, "name": "cf47c1d67a3e43cec9ba0d60048708b8"}, {"bike_id": "baab12c26ae452cf683cc06ac112af71", "type": "electric_scooter", "is_disabled": 0, "lat": 38.92741616666667, "rental_uris": {"ios": "https://dc.lft.to/lastmile_qr_scan", "android": "https://dc.lft.to/lastmile_qr_scan"}, "is_reserved": 0, "fusion_lon": 0.0, "fusion_lat": 0.0, "lon": -77.02533966666667, "name": "baab12c26ae452cf683cc06ac112af71"}, {"bike_id": "5d80f22fdb0239e53e78315553bde49e", "type": "electric_scooter", "is_disabled": 0, "lat": 38.9280115, "rental_uris": {"ios": "https://dc.lft.to/lastmile_qr_scan", "android": "https://dc.lft.to/lastmile_qr_scan"}, "is_reserved": 0, "fusion_lon": 0.0, "fusion_lat": 0.0, "lon": -77.02133183333333, "name": "5d80f22fdb0239e53e78315553bde49e"}, {"bike_id": "df19028e7e1800e3eb7ed299f582a73f", "type": "electric_scooter", "is_disabled": 0, "lat": 38.903351, "rental_uris": {"ios": "https://dc.lft.to/lastmile_qr_scan", "android": "https://dc.lft.to/lastmile_qr_scan"}, "is_reserved": 0, "fusion_lon": 0.0, "fusion_lat": 0.0, "lon": -77.05260016666666, "name": "df19028e7e1800e3eb7ed299f582a73f"}, {"bike_id": "2d12e05f6277d015870ba561e0e9de56", "type": "electric_scooter", "is_disabled": 0, "lat": 38.933126333333334, "rental_uris": {"ios": "https://dc.lft.to/lastmile_qr_scan", "android": "https://dc.lft.to/lastmile_qr_scan"}, "is_reserved": 0, "fusion_lon": 0.0, "fusion_lat": 0.0, "lon": -77.07234016666666, "name": "2d12e05f6277d015870ba561e0e9de56"}, {"bike_id": "6707b4997b1ea6768058c61b519d5fb7", "type": "electric_bike", "is_disabled": 0, "lat": 38.92967216666667, "rental_uris": {"ios": "https://dc.lft.to/lastmile_qr_scan", "android": "https://dc.lft.to/lastmile_qr_scan"}, "is_reserved": 0, "fusion_lon": 0.0, "fusion_lat": 0.0, "lon": -77.18567066666667, "name": "6707b4997b1ea6768058c61b519d5fb7"}, {"bike_id": "23318130e2997ba7c4b2f1ffc10103d8", "type": "electric_scooter", "is_disabled": 0, "lat": 38.93639433333333, "rental_uris": {"ios": "https://dc.lft.to/lastmile_qr_scan", "android": "https://dc.lft.to/lastmile_qr_scan"}, "is_reserved": 0, "fusion_lon": 0.0, "fusion_lat": 0.0, "lon": -77.05893066666667, "name": "23318130e2997ba7c4b2f1ffc10103d8"}, {"bike_id": "1baa94da2c1418b152ff16a298c1f29a", "type": "electric_scooter", "is_disabled": 0, "lat": 38.90293883333333, "rental_uris": {"ios": "https://dc.lft.to/lastmile_qr_scan", "android": "https://dc.lft.to/lastmile_qr_scan"}, "is_reserved": 0, "fusion_lon": 0.0, "fusion_lat": 0.0, "lon": -77.05817083333334, "name": "1baa94da2c1418b152ff16a298c1f29a"}, {"bike_id": "97d536e0414e73d431825bd78e18d582", "type": "electric_bike", "is_disabled": 0, "lat": 38.971635666666664, "rental_uris": {"ios": "https://dc.lft.to/lastmile_qr_scan", "android": "https://dc.lft.to/lastmile_qr_scan"}, "is_reserved": 0, "fusion_lon": 0.0, "fusion_lat": 0.0, "lon": -77.02734733333334, "name": "97d536e0414e73d431825bd78e18d582"}, {"bike_id": "88898a5bff9e6a77f41c79ab77d3a02b", "type": "electric_scooter", "is_disabled": 0, "lat": 38.870745166666666, "rental_uris": {"ios": "https://dc.lft.to/lastmile_qr_scan", "android": "https://dc.lft.to/lastmile_qr_scan"}, "is_reserved": 0, "fusion_lon": 0.0, "fusion_lat": 0.0, "lon": -76.98137316666667, "name": "88898a5bff9e6a77f41c79ab77d3a02b"}, {"bike_id": "c9c57fa991d2f75a66bac124b5a539c3", "type": "electric_scooter", "is_disabled": 0, "lat": 38.9325545, "rental_uris": {"ios": "https://dc.lft.to/lastmile_qr_scan", "android": "https://dc.lft.to/lastmile_qr_scan"}, "is_reserved": 0, "fusion_lon": 0.0, "fusion_lat": 0.0, "lon": -77.0200595, "name": "c9c57fa991d2f75a66bac124b5a539c3"}, {"bike_id": "3975281a8a0c2b3458f61b9e3bafb099", "type": "electric_scooter", "is_disabled": 0, "lat": 38.921177, "rental_uris": {"ios": "https://dc.lft.to/lastmile_qr_scan", "android": "https://dc.lft.to/lastmile_qr_scan"}, "is_reserved": 0, "fusion_lon": 0.0, "fusion_lat": 0.0, "lon": -77.012081, "name": "3975281a8a0c2b3458f61b9e3bafb099"}, {"bike_id": "d31c2def89cd5c09c479783bbb221345", "type": "electric_scooter", "is_disabled": 0, "lat": 38.898437333333334, "rental_uris": {"ios": "https://dc.lft.to/lastmile_qr_scan", "android": "https://dc.lft.to/lastmile_qr_scan"}, "is_reserved": 0, "fusion_lon": 0.0, "fusion_lat": 0.0, "lon": -76.94633233333333, "name": "d31c2def89cd5c09c479783bbb221345"}, {"bike_id": "9e30e0461823f7cda12a2d5086e98037", "type": "electric_scooter", "is_disabled": 0, "lat": 38.921116, "rental_uris": {"ios": "https://dc.lft.to/lastmile_qr_scan", "android": "https://dc.lft.to/lastmile_qr_scan"}, "is_reserved": 0, "fusion_lon": 0.0, "fusion_lat": 0.0, "lon": -77.031873, "name": "9e30e0461823f7cda12a2d5086e98037"}, {"bike_id": "87a207076672e7db76eafe49acc3b356", "type": "electric_scooter", "is_disabled": 0, "lat": 38.900039666666665, "rental_uris": {"ios": "https://dc.lft.to/lastmile_qr_scan", "android": "https://dc.lft.to/lastmile_qr_scan"}, "is_reserved": 0, "fusion_lon": 0.0, "fusion_lat": 0.0, "lon": -77.00380016666666, "name": "87a207076672e7db76eafe49acc3b356"}, {"bike_id": "3a2892db80fc1064e4120dfb406bac3e", "type": "electric_scooter", "is_disabled": 0, "lat": 38.92249016666667, "rental_uris": {"ios": "https://dc.lft.to/lastmile_qr_scan", "android": "https://dc.lft.to/lastmile_qr_scan"}, "is_reserved": 0, "fusion_lon": 0.0, "fusion_lat": 0.0, "lon": -77.04196633333333, "name": "3a2892db80fc1064e4120dfb406bac3e"}, {"bike_id": "20eaeba04f69660f84a18eb8d180a0e7", "type": "electric_scooter", "is_disabled": 0, "lat": 38.862092833333335, "rental_uris": {"ios": "https://dc.lft.to/lastmile_qr_scan", "android": "https://dc.lft.to/lastmile_qr_scan"}, "is_reserved": 0, "fusion_lon": 0.0, "fusion_lat": 0.0, "lon": -76.99472183333333, "name": "20eaeba04f69660f84a18eb8d180a0e7"}, {"bike_id": "cc96cd65e14a7d9562a04c243db491a3", "type": "electric_scooter", "is_disabled": 0, "lat": 38.93464, "rental_uris": {"ios": "https://dc.lft.to/lastmile_qr_scan", "android": "https://dc.lft.to/lastmile_qr_scan"}, "is_reserved": 0, "fusion_lon": 0.0, "fusion_lat": 0.0, "lon": -77.02800333333333, "name": "cc96cd65e14a7d9562a04c243db491a3"}, {"bike_id": "4a3395e0e5af28f872754e095e6c1eed", "type": "electric_scooter", "is_disabled": 0, "lat": 38.94765666666667, "rental_uris": {"ios": "https://dc.lft.to/lastmile_qr_scan", "android": "https://dc.lft.to/lastmile_qr_scan"}, "is_reserved": 0, "fusion_lon": 0.0, "fusion_lat": 0.0, "lon": -77.06571583333333, "name": "4a3395e0e5af28f872754e095e6c1eed"}, {"bike_id": "e2d2710aa0dfb46a8c1ac269d5c0a68f", "type": "electric_scooter", "is_disabled": 0, "lat": 38.929541, "rental_uris": {"ios": "https://dc.lft.to/lastmile_qr_scan", "android": "https://dc.lft.to/lastmile_qr_scan"}, "is_reserved": 0, "fusion_lon": 0.0, "fusion_lat": 0.0, "lon": -77.04404766666667, "name": "e2d2710aa0dfb46a8c1ac269d5c0a68f"}, {"bike_id": "89835c1e4956c45cae77c74e3cc42eed", "type": "electric_scooter", "is_disabled": 0, "lat": 38.91433133333334, "rental_uris": {"ios": "https://dc.lft.to/lastmile_qr_scan", "android": "https://dc.lft.to/lastmile_qr_scan"}, "is_reserved": 0, "fusion_lon": 0.0, "fusion_lat": 0.0, "lon": -77.03218866666667, "name": "89835c1e4956c45cae77c74e3cc42eed"}, {"bike_id": "b4e6214afcd1204505a8e0f8398be1dd", "type": "electric_bike", "is_disabled": 0, "lat": 38.93230483333333, "rental_uris": {"ios": "https://dc.lft.to/lastmile_qr_scan", "android": "https://dc.lft.to/lastmile_qr_scan"}, "is_reserved": 0, "fusion_lon": 0.0, "fusion_lat": 0.0, "lon": -77.18126116666667, "name": "b4e6214afcd1204505a8e0f8398be1dd"}, {"bike_id": "314062fd436ae586181de5bfd1fe08ee", "type": "electric_scooter", "is_disabled": 0, "lat": 38.871873666666666, "rental_uris": {"ios": "https://dc.lft.to/lastmile_qr_scan", "android": "https://dc.lft.to/lastmile_qr_scan"}, "is_reserved": 0, "fusion_lon": 0.0, "fusion_lat": 0.0, "lon": -77.00614083333333, "name": "314062fd436ae586181de5bfd1fe08ee"}, {"bike_id": "ddd24f70116da0b5ec3420d7286dee8b", "type": "electric_scooter", "is_disabled": 0, "lat": 38.913044, "rental_uris": {"ios": "https://dc.lft.to/lastmile_qr_scan", "android": "https://dc.lft.to/lastmile_qr_scan"}, "is_reserved": 0, "fusion_lon": 0.0, "fusion_lat": 0.0, "lon": -77.01697, "name": "ddd24f70116da0b5ec3420d7286dee8b"}, {"bike_id": "77975e87ebc20f059bb558392ce2e1f6", "type": "electric_scooter", "is_disabled": 0, "lat": 38.93705816666667, "rental_uris": {"ios": "https://dc.lft.to/lastmile_qr_scan", "android": "https://dc.lft.to/lastmile_qr_scan"}, "is_reserved": 0, "fusion_lon": 0.0, "fusion_lat": 0.0, "lon": -77.02412733333334, "name": "77975e87ebc20f059bb558392ce2e1f6"}, {"bike_id": "79e434d8440b52754ba46d5c0db6396f", "type": "electric_bike", "is_disabled": 0, "lat": 38.882494666666666, "rental_uris": {"ios": "https://dc.lft.to/lastmile_qr_scan", "android": "https://dc.lft.to/lastmile_qr_scan"}, "is_reserved": 0, "fusion_lon": 0.0, "fusion_lat": 0.0, "lon": -76.9626815, "name": "79e434d8440b52754ba46d5c0db6396f"}, {"bike_id": "f4b93ae509451f0e213d61417fd94943", "type": "electric_scooter", "is_disabled": 0, "lat": 38.910433833333336, "rental_uris": {"ios": "https://dc.lft.to/lastmile_qr_scan", "android": "https://dc.lft.to/lastmile_qr_scan"}, "is_reserved": 0, "fusion_lon": 0.0, "fusion_lat": 0.0, "lon": -77.02203116666666, "name": "f4b93ae509451f0e213d61417fd94943"}, {"bike_id": "67904515d09f0d008232277444dcaf62", "type": "electric_scooter", "is_disabled": 0, "lat": 38.9046445, "rental_uris": {"ios": "https://dc.lft.to/lastmile_qr_scan", "android": "https://dc.lft.to/lastmile_qr_scan"}, "is_reserved": 0, "fusion_lon": 0.0, "fusion_lat": 0.0, "lon": -76.97609883333334, "name": "67904515d09f0d008232277444dcaf62"}, {"bike_id": "2c446830b19722eca3b9283d099134ae", "type": "electric_scooter", "is_disabled": 0, "lat": 38.919575, "rental_uris": {"ios": "https://dc.lft.to/lastmile_qr_scan", "android": "https://dc.lft.to/lastmile_qr_scan"}, "is_reserved": 0, "fusion_lon": 0.0, "fusion_lat": 0.0, "lon": -77.04158433333333, "name": "2c446830b19722eca3b9283d099134ae"}, {"bike_id": "b74f9b2c36ec9099d57d95ac33647a6e", "type": "electric_scooter", "is_disabled": 0, "lat": 38.885823333333335, "rental_uris": {"ios": "https://dc.lft.to/lastmile_qr_scan", "android": "https://dc.lft.to/lastmile_qr_scan"}, "is_reserved": 0, "fusion_lon": 0.0, "fusion_lat": 0.0, "lon": -77.02839933333334, "name": "b74f9b2c36ec9099d57d95ac33647a6e"}, {"bike_id": "37f59c3be7ce4bdf2f71061e4bda694b", "type": "electric_scooter", "is_disabled": 0, "lat": 38.91971916666667, "rental_uris": {"ios": "https://dc.lft.to/lastmile_qr_scan", "android": "https://dc.lft.to/lastmile_qr_scan"}, "is_reserved": 0, "fusion_lon": 0.0, "fusion_lat": 0.0, "lon": -77.02491316666666, "name": "37f59c3be7ce4bdf2f71061e4bda694b"}, {"bike_id": "f8ff2b9550e51cb679d19ad9286b684f", "type": "electric_scooter", "is_disabled": 0, "lat": 38.83516516666667, "rental_uris": {"ios": "https://dc.lft.to/lastmile_qr_scan", "android": "https://dc.lft.to/lastmile_qr_scan"}, "is_reserved": 0, "fusion_lon": 0.0, "fusion_lat": 0.0, "lon": -77.00122016666667, "name": "f8ff2b9550e51cb679d19ad9286b684f"}, {"bike_id": "9e00281dbdf36bb831b8cc0738b2bfa9", "type": "electric_scooter", "is_disabled": 0, "lat": 38.9216315, "rental_uris": {"ios": "https://dc.lft.to/lastmile_qr_scan", "android": "https://dc.lft.to/lastmile_qr_scan"}, "is_reserved": 0, "fusion_lon": 0.0, "fusion_lat": 0.0, "lon": -77.03320166666667, "name": "9e00281dbdf36bb831b8cc0738b2bfa9"}, {"bike_id": "b8c17327fd67c299a1e5187adb1cfb9f", "type": "electric_scooter", "is_disabled": 0, "lat": 38.887489, "rental_uris": {"ios": "https://dc.lft.to/lastmile_qr_scan", "android": "https://dc.lft.to/lastmile_qr_scan"}, "is_reserved": 0, "fusion_lon": 0.0, "fusion_lat": 0.0, "lon": -77.01403883333333, "name": "b8c17327fd67c299a1e5187adb1cfb9f"}, {"bike_id": "0d8282d4aa6740897ca1fe67b693e14d", "type": "electric_scooter", "is_disabled": 0, "lat": 38.914689, "rental_uris": {"ios": "https://dc.lft.to/lastmile_qr_scan", "android": "https://dc.lft.to/lastmile_qr_scan"}, "is_reserved": 0, "fusion_lon": 0.0, "fusion_lat": 0.0, "lon": -76.985674, "name": "0d8282d4aa6740897ca1fe67b693e14d"}, {"bike_id": "1a60643f85f07b3c18ca64a1e567a907", "type": "electric_scooter", "is_disabled": 0, "lat": 38.901114666666665, "rental_uris": {"ios": "https://dc.lft.to/lastmile_qr_scan", "android": "https://dc.lft.to/lastmile_qr_scan"}, "is_reserved": 0, "fusion_lon": 0.0, "fusion_lat": 0.0, "lon": -77.0514935, "name": "1a60643f85f07b3c18ca64a1e567a907"}, {"bike_id": "26c4f07d61f1f5aeb05a81fab3d70bac", "type": "electric_scooter", "is_disabled": 0, "lat": 38.91417783333333, "rental_uris": {"ios": "https://dc.lft.to/lastmile_qr_scan", "android": "https://dc.lft.to/lastmile_qr_scan"}, "is_reserved": 0, "fusion_lon": 0.0, "fusion_lat": 0.0, "lon": -77.0428715, "name": "26c4f07d61f1f5aeb05a81fab3d70bac"}, {"bike_id": "10efaccdda34411ff792cd6ccbe819a4", "type": "electric_scooter", "is_disabled": 0, "lat": 38.884512666666666, "rental_uris": {"ios": "https://dc.lft.to/lastmile_qr_scan", "android": "https://dc.lft.to/lastmile_qr_scan"}, "is_reserved": 0, "fusion_lon": 0.0, "fusion_lat": 0.0, "lon": -76.95099816666666, "name": "10efaccdda34411ff792cd6ccbe819a4"}, {"bike_id": "4e5a641e68bd29eb766ecb044766408b", "type": "electric_scooter", "is_disabled": 0, "lat": 38.9055405, "rental_uris": {"ios": "https://dc.lft.to/lastmile_qr_scan", "android": "https://dc.lft.to/lastmile_qr_scan"}, "is_reserved": 0, "fusion_lon": 0.0, "fusion_lat": 0.0, "lon": -77.00633816666667, "name": "4e5a641e68bd29eb766ecb044766408b"}, {"bike_id": "3264e0fbd2b9e27c16ea7bbbd4dd0a02", "type": "electric_scooter", "is_disabled": 0, "lat": 38.90661433333333, "rental_uris": {"ios": "https://dc.lft.to/lastmile_qr_scan", "android": "https://dc.lft.to/lastmile_qr_scan"}, "is_reserved": 0, "fusion_lon": 0.0, "fusion_lat": 0.0, "lon": -77.03808116666667, "name": "3264e0fbd2b9e27c16ea7bbbd4dd0a02"}, {"bike_id": "f0c7b886f402bbf1ac49a7c7649f85c7", "type": "electric_bike", "is_disabled": 0, "lat": 38.87092966666667, "rental_uris": {"ios": "https://dc.lft.to/lastmile_qr_scan", "android": "https://dc.lft.to/lastmile_qr_scan"}, "is_reserved": 0, "fusion_lon": 0.0, "fusion_lat": 0.0, "lon": -77.012074, "name": "f0c7b886f402bbf1ac49a7c7649f85c7"}, {"bike_id": "f553070a33203686b16a391e568ebd60", "type": "electric_scooter", "is_disabled": 0, "lat": 38.89978583333333, "rental_uris": {"ios": "https://dc.lft.to/lastmile_qr_scan", "android": "https://dc.lft.to/lastmile_qr_scan"}, "is_reserved": 0, "fusion_lon": 0.0, "fusion_lat": 0.0, "lon": -76.983106, "name": "f553070a33203686b16a391e568ebd60"}, {"bike_id": "ef8df1dbe8730815e585c3443c73fb44", "type": "electric_bike", "is_disabled": 0, "lat": 38.858957333333336, "rental_uris": {"ios": "https://dc.lft.to/lastmile_qr_scan", "android": "https://dc.lft.to/lastmile_qr_scan"}, "is_reserved": 0, "fusion_lon": 0.0, "fusion_lat": 0.0, "lon": -77.118698, "name": "ef8df1dbe8730815e585c3443c73fb44"}, {"bike_id": "1800726dd80d042d622bbd8d43b4a44f", "type": "electric_scooter", "is_disabled": 0, "lat": 38.919289666666664, "rental_uris": {"ios": "https://dc.lft.to/lastmile_qr_scan", "android": "https://dc.lft.to/lastmile_qr_scan"}, "is_reserved": 0, "fusion_lon": 0.0, "fusion_lat": 0.0, "lon": -77.04180483333333, "name": "1800726dd80d042d622bbd8d43b4a44f"}, {"bike_id": "d9ff8aa828c30df3cedd38a1d22b4d78", "type": "electric_scooter", "is_disabled": 0, "lat": 38.904903, "rental_uris": {"ios": "https://dc.lft.to/lastmile_qr_scan", "android": "https://dc.lft.to/lastmile_qr_scan"}, "is_reserved": 0, "fusion_lon": 0.0, "fusion_lat": 0.0, "lon": -76.98973166666667, "name": "d9ff8aa828c30df3cedd38a1d22b4d78"}, {"bike_id": "2d38d815c08894ec39e6df9400dcf8c2", "type": "electric_scooter", "is_disabled": 0, "lat": 38.9023445, "rental_uris": {"ios": "https://dc.lft.to/lastmile_qr_scan", "android": "https://dc.lft.to/lastmile_qr_scan"}, "is_reserved": 0, "fusion_lon": 0.0, "fusion_lat": 0.0, "lon": -77.0020125, "name": "2d38d815c08894ec39e6df9400dcf8c2"}, {"bike_id": "c5dddb0175f6e54de490cc26ae90edb7", "type": "electric_scooter", "is_disabled": 0, "lat": 38.90720916666667, "rental_uris": {"ios": "https://dc.lft.to/lastmile_qr_scan", "android": "https://dc.lft.to/lastmile_qr_scan"}, "is_reserved": 0, "fusion_lon": 0.0, "fusion_lat": 0.0, "lon": -77.04175566666666, "name": "c5dddb0175f6e54de490cc26ae90edb7"}, {"bike_id": "f0a4e24576c9c50857e4e5caa419747e", "type": "electric_scooter", "is_disabled": 0, "lat": 38.9308705, "rental_uris": {"ios": "https://dc.lft.to/lastmile_qr_scan", "android": "https://dc.lft.to/lastmile_qr_scan"}, "is_reserved": 0, "fusion_lon": 0.0, "fusion_lat": 0.0, "lon": -77.0308345, "name": "f0a4e24576c9c50857e4e5caa419747e"}, {"bike_id": "efdac9266f6ec2add2db5d711879b11f", "type": "electric_scooter", "is_disabled": 0, "lat": 38.9041445, "rental_uris": {"ios": "https://dc.lft.to/lastmile_qr_scan", "android": "https://dc.lft.to/lastmile_qr_scan"}, "is_reserved": 0, "fusion_lon": 0.0, "fusion_lat": 0.0, "lon": -76.97331633333333, "name": "efdac9266f6ec2add2db5d711879b11f"}, {"bike_id": "dbf60d492674e5d4640fb192b11e0c05", "type": "electric_scooter", "is_disabled": 0, "lat": 38.9456225, "rental_uris": {"ios": "https://dc.lft.to/lastmile_qr_scan", "android": "https://dc.lft.to/lastmile_qr_scan"}, "is_reserved": 0, "fusion_lon": 0.0, "fusion_lat": 0.0, "lon": -77.071342, "name": "dbf60d492674e5d4640fb192b11e0c05"}, {"bike_id": "a1937d9ed1c8b5906ebd56e40fb25155", "type": "electric_bike", "is_disabled": 0, "lat": 38.957802666666666, "rental_uris": {"ios": "https://dc.lft.to/lastmile_qr_scan", "android": "https://dc.lft.to/lastmile_qr_scan"}, "is_reserved": 0, "fusion_lon": 0.0, "fusion_lat": 0.0, "lon": -77.02005, "name": "a1937d9ed1c8b5906ebd56e40fb25155"}, {"bike_id": "b83112d5d078d4c98ebc578847fdcf52", "type": "electric_scooter", "is_disabled": 0, "lat": 38.908497, "rental_uris": {"ios": "https://dc.lft.to/lastmile_qr_scan", "android": "https://dc.lft.to/lastmile_qr_scan"}, "is_reserved": 0, "fusion_lon": 0.0, "fusion_lat": 0.0, "lon": -77.05571333333333, "name": "b83112d5d078d4c98ebc578847fdcf52"}, {"bike_id": "7e06c7a6ea0bfa1c231b7d5872cd6df4", "type": "electric_scooter", "is_disabled": 0, "lat": 38.9068675, "rental_uris": {"ios": "https://dc.lft.to/lastmile_qr_scan", "android": "https://dc.lft.to/lastmile_qr_scan"}, "is_reserved": 0, "fusion_lon": 0.0, "fusion_lat": 0.0, "lon": -77.06341316666666, "name": "7e06c7a6ea0bfa1c231b7d5872cd6df4"}, {"bike_id": "be16588e38a2fd35a84fe5a9492275ac", "type": "electric_scooter", "is_disabled": 0, "lat": 38.903734, "rental_uris": {"ios": "https://dc.lft.to/lastmile_qr_scan", "android": "https://dc.lft.to/lastmile_qr_scan"}, "is_reserved": 0, "fusion_lon": 0.0, "fusion_lat": 0.0, "lon": -77.06891483333334, "name": "be16588e38a2fd35a84fe5a9492275ac"}, {"bike_id": "f0088c572a624c0d251446a480a9f6ba", "type": "electric_scooter", "is_disabled": 0, "lat": 38.921087666666665, "rental_uris": {"ios": "https://dc.lft.to/lastmile_qr_scan", "android": "https://dc.lft.to/lastmile_qr_scan"}, "is_reserved": 0, "fusion_lon": 0.0, "fusion_lat": 0.0, "lon": -77.03175616666667, "name": "f0088c572a624c0d251446a480a9f6ba"}, {"bike_id": "f11f1b8b4bfd73a46514b8188524e7f2", "type": "electric_scooter", "is_disabled": 0, "lat": 38.908761166666665, "rental_uris": {"ios": "https://dc.lft.to/lastmile_qr_scan", "android": "https://dc.lft.to/lastmile_qr_scan"}, "is_reserved": 0, "fusion_lon": 0.0, "fusion_lat": 0.0, "lon": -77.04276733333333, "name": "f11f1b8b4bfd73a46514b8188524e7f2"}, {"bike_id": "c2eda12f48cfee898ebf5ba246136c7a", "type": "electric_scooter", "is_disabled": 0, "lat": 38.91918966666667, "rental_uris": {"ios": "https://dc.lft.to/lastmile_qr_scan", "android": "https://dc.lft.to/lastmile_qr_scan"}, "is_reserved": 0, "fusion_lon": 0.0, "fusion_lat": 0.0, "lon": -77.0341825, "name": "c2eda12f48cfee898ebf5ba246136c7a"}, {"bike_id": "b83f90536f2399c30b3776858ff7784e", "type": "electric_scooter", "is_disabled": 0, "lat": 38.943299833333334, "rental_uris": {"ios": "https://dc.lft.to/lastmile_qr_scan", "android": "https://dc.lft.to/lastmile_qr_scan"}, "is_reserved": 0, "fusion_lon": 0.0, "fusion_lat": 0.0, "lon": -77.01495, "name": "b83f90536f2399c30b3776858ff7784e"}, {"bike_id": "2e4b04fb2d62fc3c99ea601ffc25e640", "type": "electric_scooter", "is_disabled": 0, "lat": 38.88266316666667, "rental_uris": {"ios": "https://dc.lft.to/lastmile_qr_scan", "android": "https://dc.lft.to/lastmile_qr_scan"}, "is_reserved": 0, "fusion_lon": 0.0, "fusion_lat": 0.0, "lon": -76.9925365, "name": "2e4b04fb2d62fc3c99ea601ffc25e640"}, {"bike_id": "14f47cd3e486e167489c27503658a9e1", "type": "electric_scooter", "is_disabled": 0, "lat": 38.92912716666667, "rental_uris": {"ios": "https://dc.lft.to/lastmile_qr_scan", "android": "https://dc.lft.to/lastmile_qr_scan"}, "is_reserved": 0, "fusion_lon": 0.0, "fusion_lat": 0.0, "lon": -77.03263383333334, "name": "14f47cd3e486e167489c27503658a9e1"}, {"bike_id": "23c139ccbd86bbc7855f3ef8d4121ca4", "type": "electric_scooter", "is_disabled": 0, "lat": 38.92164, "rental_uris": {"ios": "https://dc.lft.to/lastmile_qr_scan", "android": "https://dc.lft.to/lastmile_qr_scan"}, "is_reserved": 0, "fusion_lon": 0.0, "fusion_lat": 0.0, "lon": -77.03317866666667, "name": "23c139ccbd86bbc7855f3ef8d4121ca4"}, {"bike_id": "7fb01e0cbce4019419d89ceab44e18c6", "type": "electric_scooter", "is_disabled": 0, "lat": 38.905073, "rental_uris": {"ios": "https://dc.lft.to/lastmile_qr_scan", "android": "https://dc.lft.to/lastmile_qr_scan"}, "is_reserved": 0, "fusion_lon": 0.0, "fusion_lat": 0.0, "lon": -77.06379683333333, "name": "7fb01e0cbce4019419d89ceab44e18c6"}, {"bike_id": "49563fe8ef4ff04f81ae8613008391b3", "type": "electric_scooter", "is_disabled": 0, "lat": 38.94217666666667, "rental_uris": {"ios": "https://dc.lft.to/lastmile_qr_scan", "android": "https://dc.lft.to/lastmile_qr_scan"}, "is_reserved": 0, "fusion_lon": 0.0, "fusion_lat": 0.0, "lon": -77.02594866666666, "name": "49563fe8ef4ff04f81ae8613008391b3"}, {"bike_id": "cceb2cb8aeb5d98419e6e002d3c201a2", "type": "electric_scooter", "is_disabled": 0, "lat": 38.913286166666666, "rental_uris": {"ios": "https://dc.lft.to/lastmile_qr_scan", "android": "https://dc.lft.to/lastmile_qr_scan"}, "is_reserved": 0, "fusion_lon": 0.0, "fusion_lat": 0.0, "lon": -77.026951, "name": "cceb2cb8aeb5d98419e6e002d3c201a2"}, {"bike_id": "7f2c06a5bc16db83cae8edb37d41a691", "type": "electric_scooter", "is_disabled": 0, "lat": 38.92998083333333, "rental_uris": {"ios": "https://dc.lft.to/lastmile_qr_scan", "android": "https://dc.lft.to/lastmile_qr_scan"}, "is_reserved": 0, "fusion_lon": 0.0, "fusion_lat": 0.0, "lon": -77.03275033333334, "name": "7f2c06a5bc16db83cae8edb37d41a691"}, {"bike_id": "efc1ecdb1829d85e0e8a6559ac5af7e4", "type": "electric_scooter", "is_disabled": 0, "lat": 38.9155125, "rental_uris": {"ios": "https://dc.lft.to/lastmile_qr_scan", "android": "https://dc.lft.to/lastmile_qr_scan"}, "is_reserved": 0, "fusion_lon": 0.0, "fusion_lat": 0.0, "lon": -77.0321315, "name": "efc1ecdb1829d85e0e8a6559ac5af7e4"}, {"bike_id": "63e76290162ffd6830d93187218f2315", "type": "electric_scooter", "is_disabled": 0, "lat": 38.9182965, "rental_uris": {"ios": "https://dc.lft.to/lastmile_qr_scan", "android": "https://dc.lft.to/lastmile_qr_scan"}, "is_reserved": 0, "fusion_lon": 0.0, "fusion_lat": 0.0, "lon": -77.024498, "name": "63e76290162ffd6830d93187218f2315"}, {"bike_id": "eff6740a5f9a30385f7274a58a700e51", "type": "electric_scooter", "is_disabled": 0, "lat": 38.92487033333333, "rental_uris": {"ios": "https://dc.lft.to/lastmile_qr_scan", "android": "https://dc.lft.to/lastmile_qr_scan"}, "is_reserved": 0, "fusion_lon": 0.0, "fusion_lat": 0.0, "lon": -77.057644, "name": "eff6740a5f9a30385f7274a58a700e51"}, {"bike_id": "9ffaaba7c9421cbf9b32736affeb8f71", "type": "electric_scooter", "is_disabled": 0, "lat": 38.916254333333335, "rental_uris": {"ios": "https://dc.lft.to/lastmile_qr_scan", "android": "https://dc.lft.to/lastmile_qr_scan"}, "is_reserved": 0, "fusion_lon": 0.0, "fusion_lat": 0.0, "lon": -77.03041666666667, "name": "9ffaaba7c9421cbf9b32736affeb8f71"}, {"bike_id": "4a208229a6fa0e2f4ce90a6675372459", "type": "electric_scooter", "is_disabled": 0, "lat": 38.905221, "rental_uris": {"ios": "https://dc.lft.to/lastmile_qr_scan", "android": "https://dc.lft.to/lastmile_qr_scan"}, "is_reserved": 0, "fusion_lon": 0.0, "fusion_lat": 0.0, "lon": -77.06460066666666, "name": "4a208229a6fa0e2f4ce90a6675372459"}, {"bike_id": "ab76aee4a8825059373d4fce7b7c1d92", "type": "electric_scooter", "is_disabled": 0, "lat": 38.936338, "rental_uris": {"ios": "https://dc.lft.to/lastmile_qr_scan", "android": "https://dc.lft.to/lastmile_qr_scan"}, "is_reserved": 0, "fusion_lon": 0.0, "fusion_lat": 0.0, "lon": -77.05885716666667, "name": "ab76aee4a8825059373d4fce7b7c1d92"}, {"bike_id": "2f1d25e38f6fb9e0fda2e267dc24a312", "type": "electric_scooter", "is_disabled": 0, "lat": 38.91402933333333, "rental_uris": {"ios": "https://dc.lft.to/lastmile_qr_scan", "android": "https://dc.lft.to/lastmile_qr_scan"}, "is_reserved": 0, "fusion_lon": 0.0, "fusion_lat": 0.0, "lon": -77.03264083333333, "name": "2f1d25e38f6fb9e0fda2e267dc24a312"}, {"bike_id": "edacc463e78b3e2055353be6dbb3c748", "type": "electric_scooter", "is_disabled": 0, "lat": 38.934715833333335, "rental_uris": {"ios": "https://dc.lft.to/lastmile_qr_scan", "android": "https://dc.lft.to/lastmile_qr_scan"}, "is_reserved": 0, "fusion_lon": 0.0, "fusion_lat": 0.0, "lon": -77.07283516666666, "name": "edacc463e78b3e2055353be6dbb3c748"}, {"bike_id": "7cfcf4845c1375f1f86aceee29507b97", "type": "electric_scooter", "is_disabled": 0, "lat": 38.91916833333333, "rental_uris": {"ios": "https://dc.lft.to/lastmile_qr_scan", "android": "https://dc.lft.to/lastmile_qr_scan"}, "is_reserved": 0, "fusion_lon": 0.0, "fusion_lat": 0.0, "lon": -77.031775, "name": "7cfcf4845c1375f1f86aceee29507b97"}, {"bike_id": "33926dddfca28a033e15d263cced4507", "type": "electric_scooter", "is_disabled": 0, "lat": 38.9212895, "rental_uris": {"ios": "https://dc.lft.to/lastmile_qr_scan", "android": "https://dc.lft.to/lastmile_qr_scan"}, "is_reserved": 0, "fusion_lon": 0.0, "fusion_lat": 0.0, "lon": -77.018105, "name": "33926dddfca28a033e15d263cced4507"}, {"bike_id": "f8dc7ac9e45bf307dd7fb8cba0d56964", "type": "electric_scooter", "is_disabled": 0, "lat": 38.93535416666667, "rental_uris": {"ios": "https://dc.lft.to/lastmile_qr_scan", "android": "https://dc.lft.to/lastmile_qr_scan"}, "is_reserved": 0, "fusion_lon": 0.0, "fusion_lat": 0.0, "lon": -77.03407383333334, "name": "f8dc7ac9e45bf307dd7fb8cba0d56964"}, {"bike_id": "029951265b0be826ecc0c777d2f6d8d8", "type": "electric_scooter", "is_disabled": 0, "lat": 38.90265633333333, "rental_uris": {"ios": "https://dc.lft.to/lastmile_qr_scan", "android": "https://dc.lft.to/lastmile_qr_scan"}, "is_reserved": 0, "fusion_lon": 0.0, "fusion_lat": 0.0, "lon": -77.06117016666667, "name": "029951265b0be826ecc0c777d2f6d8d8"}, {"bike_id": "c2885117e6cb832ce59e4e6b768c78d9", "type": "electric_scooter", "is_disabled": 0, "lat": 38.93758733333333, "rental_uris": {"ios": "https://dc.lft.to/lastmile_qr_scan", "android": "https://dc.lft.to/lastmile_qr_scan"}, "is_reserved": 0, "fusion_lon": 0.0, "fusion_lat": 0.0, "lon": -77.035793, "name": "c2885117e6cb832ce59e4e6b768c78d9"}, {"bike_id": "a0f2ada40370359fea0b244de3623802", "type": "electric_scooter", "is_disabled": 0, "lat": 38.94297383333333, "rental_uris": {"ios": "https://dc.lft.to/lastmile_qr_scan", "android": "https://dc.lft.to/lastmile_qr_scan"}, "is_reserved": 0, "fusion_lon": 0.0, "fusion_lat": 0.0, "lon": -77.02172333333333, "name": "a0f2ada40370359fea0b244de3623802"}, {"bike_id": "6854438bf5c4ddfd432aa2ccc3334d56", "type": "electric_bike", "is_disabled": 0, "lat": 38.9647355, "rental_uris": {"ios": "https://dc.lft.to/lastmile_qr_scan", "android": "https://dc.lft.to/lastmile_qr_scan"}, "is_reserved": 0, "fusion_lon": 0.0, "fusion_lat": 0.0, "lon": -77.03565583333334, "name": "6854438bf5c4ddfd432aa2ccc3334d56"}, {"bike_id": "2b0fc1b5919d2e6640650d5b4caf81f3", "type": "electric_scooter", "is_disabled": 0, "lat": 38.91417966666667, "rental_uris": {"ios": "https://dc.lft.to/lastmile_qr_scan", "android": "https://dc.lft.to/lastmile_qr_scan"}, "is_reserved": 0, "fusion_lon": 0.0, "fusion_lat": 0.0, "lon": -77.02421233333334, "name": "2b0fc1b5919d2e6640650d5b4caf81f3"}, {"bike_id": "979c086cd06398238fc1ced02d259422", "type": "electric_scooter", "is_disabled": 0, "lat": 38.91259816666667, "rental_uris": {"ios": "https://dc.lft.to/lastmile_qr_scan", "android": "https://dc.lft.to/lastmile_qr_scan"}, "is_reserved": 0, "fusion_lon": 0.0, "fusion_lat": 0.0, "lon": -77.03268033333333, "name": "979c086cd06398238fc1ced02d259422"}, {"bike_id": "9c4cb343cec5d568dd6af386fef35107", "type": "electric_scooter", "is_disabled": 0, "lat": 38.9300705, "rental_uris": {"ios": "https://dc.lft.to/lastmile_qr_scan", "android": "https://dc.lft.to/lastmile_qr_scan"}, "is_reserved": 0, "fusion_lon": 0.0, "fusion_lat": 0.0, "lon": -77.02366, "name": "9c4cb343cec5d568dd6af386fef35107"}, {"bike_id": "bc5a54dd9b9c39fc45ae5a65f667828f", "type": "electric_scooter", "is_disabled": 0, "lat": 38.91240883333333, "rental_uris": {"ios": "https://dc.lft.to/lastmile_qr_scan", "android": "https://dc.lft.to/lastmile_qr_scan"}, "is_reserved": 0, "fusion_lon": 0.0, "fusion_lat": 0.0, "lon": -77.02224016666666, "name": "bc5a54dd9b9c39fc45ae5a65f667828f"}, {"bike_id": "278561888f3c13931a64d1b8e82a4fc2", "type": "electric_scooter", "is_disabled": 0, "lat": 38.91384516666667, "rental_uris": {"ios": "https://dc.lft.to/lastmile_qr_scan", "android": "https://dc.lft.to/lastmile_qr_scan"}, "is_reserved": 0, "fusion_lon": 0.0, "fusion_lat": 0.0, "lon": -77.041404, "name": "278561888f3c13931a64d1b8e82a4fc2"}, {"bike_id": "8e002c571503e6db50022a2391887483", "type": "electric_scooter", "is_disabled": 0, "lat": 38.92724466666667, "rental_uris": {"ios": "https://dc.lft.to/lastmile_qr_scan", "android": "https://dc.lft.to/lastmile_qr_scan"}, "is_reserved": 0, "fusion_lon": 0.0, "fusion_lat": 0.0, "lon": -77.05333583333334, "name": "8e002c571503e6db50022a2391887483"}, {"bike_id": "a6a0db702a4c680b39e905b1db6b4f07", "type": "electric_scooter", "is_disabled": 0, "lat": 38.89486683333333, "rental_uris": {"ios": "https://dc.lft.to/lastmile_qr_scan", "android": "https://dc.lft.to/lastmile_qr_scan"}, "is_reserved": 0, "fusion_lon": 0.0, "fusion_lat": 0.0, "lon": -77.01098033333334, "name": "a6a0db702a4c680b39e905b1db6b4f07"}, {"bike_id": "25d95162f821f9445816b9d4c7d709ee", "type": "electric_scooter", "is_disabled": 0, "lat": 38.94122016666667, "rental_uris": {"ios": "https://dc.lft.to/lastmile_qr_scan", "android": "https://dc.lft.to/lastmile_qr_scan"}, "is_reserved": 0, "fusion_lon": 0.0, "fusion_lat": 0.0, "lon": -77.02546266666667, "name": "25d95162f821f9445816b9d4c7d709ee"}, {"bike_id": "32e086039b9caa94258ff21910e6c19e", "type": "electric_scooter", "is_disabled": 0, "lat": 38.924909166666666, "rental_uris": {"ios": "https://dc.lft.to/lastmile_qr_scan", "android": "https://dc.lft.to/lastmile_qr_scan"}, "is_reserved": 0, "fusion_lon": 0.0, "fusion_lat": 0.0, "lon": -77.03180916666666, "name": "32e086039b9caa94258ff21910e6c19e"}, {"bike_id": "19c0c1bb332c4b2110c6d15eefd95483", "type": "electric_scooter", "is_disabled": 0, "lat": 38.9007135, "rental_uris": {"ios": "https://dc.lft.to/lastmile_qr_scan", "android": "https://dc.lft.to/lastmile_qr_scan"}, "is_reserved": 0, "fusion_lon": 0.0, "fusion_lat": 0.0, "lon": -77.01720733333333, "name": "19c0c1bb332c4b2110c6d15eefd95483"}, {"bike_id": "caea733fed8a9fcd9b27c27a852383ab", "type": "electric_scooter", "is_disabled": 0, "lat": 38.9237595, "rental_uris": {"ios": "https://dc.lft.to/lastmile_qr_scan", "android": "https://dc.lft.to/lastmile_qr_scan"}, "is_reserved": 0, "fusion_lon": 0.0, "fusion_lat": 0.0, "lon": -77.01223033333333, "name": "caea733fed8a9fcd9b27c27a852383ab"}, {"bike_id": "25d0a25ae51051bd182f551db7ad5dff", "type": "electric_scooter", "is_disabled": 0, "lat": 38.91336666666667, "rental_uris": {"ios": "https://dc.lft.to/lastmile_qr_scan", "android": "https://dc.lft.to/lastmile_qr_scan"}, "is_reserved": 0, "fusion_lon": 0.0, "fusion_lat": 0.0, "lon": -77.03856916666666, "name": "25d0a25ae51051bd182f551db7ad5dff"}, {"bike_id": "731c71a8b666cf3e9f9f9bfb29a292ef", "type": "electric_bike", "is_disabled": 0, "lat": 38.95176033333333, "rental_uris": {"ios": "https://dc.lft.to/lastmile_qr_scan", "android": "https://dc.lft.to/lastmile_qr_scan"}, "is_reserved": 0, "fusion_lon": 0.0, "fusion_lat": 0.0, "lon": -76.97735733333333, "name": "731c71a8b666cf3e9f9f9bfb29a292ef"}, {"bike_id": "7edbb36e22e634b0a5289e40cda7a80e", "type": "electric_bike", "is_disabled": 0, "lat": 38.908974666666666, "rental_uris": {"ios": "https://dc.lft.to/lastmile_qr_scan", "android": "https://dc.lft.to/lastmile_qr_scan"}, "is_reserved": 0, "fusion_lon": 0.0, "fusion_lat": 0.0, "lon": -77.05722366666667, "name": "7edbb36e22e634b0a5289e40cda7a80e"}, {"bike_id": "d809ab0a2cfe8e3039bd3e388b1dd527", "type": "electric_scooter", "is_disabled": 0, "lat": 38.9360335, "rental_uris": {"ios": "https://dc.lft.to/lastmile_qr_scan", "android": "https://dc.lft.to/lastmile_qr_scan"}, "is_reserved": 0, "fusion_lon": 0.0, "fusion_lat": 0.0, "lon": -77.03843716666667, "name": "d809ab0a2cfe8e3039bd3e388b1dd527"}, {"bike_id": "3ba013d02a0f0076d15b1d5a4b2ac7c6", "type": "electric_scooter", "is_disabled": 0, "lat": 38.9087245, "rental_uris": {"ios": "https://dc.lft.to/lastmile_qr_scan", "android": "https://dc.lft.to/lastmile_qr_scan"}, "is_reserved": 0, "fusion_lon": 0.0, "fusion_lat": 0.0, "lon": -77.03449316666666, "name": "3ba013d02a0f0076d15b1d5a4b2ac7c6"}, {"bike_id": "5777bf29f5e6e1ef988a8bfa4cd333ec", "type": "electric_scooter", "is_disabled": 0, "lat": 38.93193766666667, "rental_uris": {"ios": "https://dc.lft.to/lastmile_qr_scan", "android": "https://dc.lft.to/lastmile_qr_scan"}, "is_reserved": 0, "fusion_lon": 0.0, "fusion_lat": 0.0, "lon": -77.02351633333333, "name": "5777bf29f5e6e1ef988a8bfa4cd333ec"}, {"bike_id": "ea6f4263a7a97b716d0e982826a98bdc", "type": "electric_scooter", "is_disabled": 0, "lat": 38.90732416666667, "rental_uris": {"ios": "https://dc.lft.to/lastmile_qr_scan", "android": "https://dc.lft.to/lastmile_qr_scan"}, "is_reserved": 0, "fusion_lon": 0.0, "fusion_lat": 0.0, "lon": -77.00078583333334, "name": "ea6f4263a7a97b716d0e982826a98bdc"}, {"bike_id": "fbe6dd34700532acdb6898522fad841d", "type": "electric_scooter", "is_disabled": 0, "lat": 38.86691616666667, "rental_uris": {"ios": "https://dc.lft.to/lastmile_qr_scan", "android": "https://dc.lft.to/lastmile_qr_scan"}, "is_reserved": 0, "fusion_lon": 0.0, "fusion_lat": 0.0, "lon": -76.9858215, "name": "fbe6dd34700532acdb6898522fad841d"}, {"bike_id": "6a9133a2a87204b2a4e1c0eb304522f7", "type": "electric_scooter", "is_disabled": 0, "lat": 38.910861833333335, "rental_uris": {"ios": "https://dc.lft.to/lastmile_qr_scan", "android": "https://dc.lft.to/lastmile_qr_scan"}, "is_reserved": 0, "fusion_lon": 0.0, "fusion_lat": 0.0, "lon": -77.038509, "name": "6a9133a2a87204b2a4e1c0eb304522f7"}, {"bike_id": "de15f47b092126176435bfd73d158d21", "type": "electric_scooter", "is_disabled": 0, "lat": 38.873950666666666, "rental_uris": {"ios": "https://dc.lft.to/lastmile_qr_scan", "android": "https://dc.lft.to/lastmile_qr_scan"}, "is_reserved": 0, "fusion_lon": 0.0, "fusion_lat": 0.0, "lon": -77.0434725, "name": "de15f47b092126176435bfd73d158d21"}, {"bike_id": "80f64ba0198b4c2b6c0fc06d0ef46bb2", "type": "electric_scooter", "is_disabled": 0, "lat": 38.92469966666667, "rental_uris": {"ios": "https://dc.lft.to/lastmile_qr_scan", "android": "https://dc.lft.to/lastmile_qr_scan"}, "is_reserved": 0, "fusion_lon": 0.0, "fusion_lat": 0.0, "lon": -77.05204816666667, "name": "80f64ba0198b4c2b6c0fc06d0ef46bb2"}, {"bike_id": "c5b67590d925f7555ad4fb51df375730", "type": "electric_scooter", "is_disabled": 0, "lat": 38.90047283333333, "rental_uris": {"ios": "https://dc.lft.to/lastmile_qr_scan", "android": "https://dc.lft.to/lastmile_qr_scan"}, "is_reserved": 0, "fusion_lon": 0.0, "fusion_lat": 0.0, "lon": -77.03674766666667, "name": "c5b67590d925f7555ad4fb51df375730"}, {"bike_id": "3d57e3da4274d215c83684632a569bce", "type": "electric_scooter", "is_disabled": 0, "lat": 38.8637015, "rental_uris": {"ios": "https://dc.lft.to/lastmile_qr_scan", "android": "https://dc.lft.to/lastmile_qr_scan"}, "is_reserved": 0, "fusion_lon": 0.0, "fusion_lat": 0.0, "lon": -76.99063883333334, "name": "3d57e3da4274d215c83684632a569bce"}, {"bike_id": "476040e27bc80659745ba313b502a48a", "type": "electric_scooter", "is_disabled": 0, "lat": 38.8668395, "rental_uris": {"ios": "https://dc.lft.to/lastmile_qr_scan", "android": "https://dc.lft.to/lastmile_qr_scan"}, "is_reserved": 0, "fusion_lon": 0.0, "fusion_lat": 0.0, "lon": -76.98564633333334, "name": "476040e27bc80659745ba313b502a48a"}, {"bike_id": "4ac99caa5ac4e9bf7cda8e4c0dd93d70", "type": "electric_scooter", "is_disabled": 0, "lat": 38.89841716666667, "rental_uris": {"ios": "https://dc.lft.to/lastmile_qr_scan", "android": "https://dc.lft.to/lastmile_qr_scan"}, "is_reserved": 0, "fusion_lon": 0.0, "fusion_lat": 0.0, "lon": -76.94642533333334, "name": "4ac99caa5ac4e9bf7cda8e4c0dd93d70"}, {"bike_id": "b16f349c782966f772eabdc5f3364f4f", "type": "electric_scooter", "is_disabled": 0, "lat": 38.92479633333333, "rental_uris": {"ios": "https://dc.lft.to/lastmile_qr_scan", "android": "https://dc.lft.to/lastmile_qr_scan"}, "is_reserved": 0, "fusion_lon": 0.0, "fusion_lat": 0.0, "lon": -77.02836933333333, "name": "b16f349c782966f772eabdc5f3364f4f"}, {"bike_id": "a949b643c854a2fbc1e92bb772c9bc8a", "type": "electric_scooter", "is_disabled": 0, "lat": 38.90356083333333, "rental_uris": {"ios": "https://dc.lft.to/lastmile_qr_scan", "android": "https://dc.lft.to/lastmile_qr_scan"}, "is_reserved": 0, "fusion_lon": 0.0, "fusion_lat": 0.0, "lon": -77.06019716666667, "name": "a949b643c854a2fbc1e92bb772c9bc8a"}, {"bike_id": "8eb33743a3dd6118fc73bc84e27fdba1", "type": "electric_scooter", "is_disabled": 0, "lat": 38.88198783333333, "rental_uris": {"ios": "https://dc.lft.to/lastmile_qr_scan", "android": "https://dc.lft.to/lastmile_qr_scan"}, "is_reserved": 0, "fusion_lon": 0.0, "fusion_lat": 0.0, "lon": -77.01754633333333, "name": "8eb33743a3dd6118fc73bc84e27fdba1"}, {"bike_id": "e386f32c0ad9c26467d5f07614f73992", "type": "electric_scooter", "is_disabled": 0, "lat": 38.91461566666667, "rental_uris": {"ios": "https://dc.lft.to/lastmile_qr_scan", "android": "https://dc.lft.to/lastmile_qr_scan"}, "is_reserved": 0, "fusion_lon": 0.0, "fusion_lat": 0.0, "lon": -77.02171066666666, "name": "e386f32c0ad9c26467d5f07614f73992"}, {"bike_id": "11061f2d4c8aa74a1061ce4189793550", "type": "electric_scooter", "is_disabled": 0, "lat": 38.919269, "rental_uris": {"ios": "https://dc.lft.to/lastmile_qr_scan", "android": "https://dc.lft.to/lastmile_qr_scan"}, "is_reserved": 0, "fusion_lon": 0.0, "fusion_lat": 0.0, "lon": -77.0425765, "name": "11061f2d4c8aa74a1061ce4189793550"}, {"bike_id": "3a16a02db527fc154bc74e82508355a5", "type": "electric_scooter", "is_disabled": 0, "lat": 38.934154666666664, "rental_uris": {"ios": "https://dc.lft.to/lastmile_qr_scan", "android": "https://dc.lft.to/lastmile_qr_scan"}, "is_reserved": 0, "fusion_lon": 0.0, "fusion_lat": 0.0, "lon": -77.03915316666667, "name": "3a16a02db527fc154bc74e82508355a5"}, {"bike_id": "c549b4ab3e454c906ac0347f7f970ab8", "type": "electric_scooter", "is_disabled": 0, "lat": 38.94840966666667, "rental_uris": {"ios": "https://dc.lft.to/lastmile_qr_scan", "android": "https://dc.lft.to/lastmile_qr_scan"}, "is_reserved": 0, "fusion_lon": 0.0, "fusion_lat": 0.0, "lon": -77.0254965, "name": "c549b4ab3e454c906ac0347f7f970ab8"}, {"bike_id": "7fb075ebbf6fb582dfc279cf0f99c6fb", "type": "electric_bike", "is_disabled": 0, "lat": 38.853953, "rental_uris": {"ios": "https://dc.lft.to/lastmile_qr_scan", "android": "https://dc.lft.to/lastmile_qr_scan"}, "is_reserved": 0, "fusion_lon": 0.0, "fusion_lat": 0.0, "lon": -77.1208445, "name": "7fb075ebbf6fb582dfc279cf0f99c6fb"}, {"bike_id": "2af767fa63e37f68d3ab2ae5c09dad18", "type": "electric_scooter", "is_disabled": 0, "lat": 38.904236166666664, "rental_uris": {"ios": "https://dc.lft.to/lastmile_qr_scan", "android": "https://dc.lft.to/lastmile_qr_scan"}, "is_reserved": 0, "fusion_lon": 0.0, "fusion_lat": 0.0, "lon": -76.97376683333333, "name": "2af767fa63e37f68d3ab2ae5c09dad18"}, {"bike_id": "25634ee92b39abb303c914111b1d3722", "type": "electric_scooter", "is_disabled": 0, "lat": 38.93329933333333, "rental_uris": {"ios": "https://dc.lft.to/lastmile_qr_scan", "android": "https://dc.lft.to/lastmile_qr_scan"}, "is_reserved": 0, "fusion_lon": 0.0, "fusion_lat": 0.0, "lon": -77.02924516666667, "name": "25634ee92b39abb303c914111b1d3722"}, {"bike_id": "a940fa87047031c765ec33e6377b8871", "type": "electric_scooter", "is_disabled": 0, "lat": 38.887445166666666, "rental_uris": {"ios": "https://dc.lft.to/lastmile_qr_scan", "android": "https://dc.lft.to/lastmile_qr_scan"}, "is_reserved": 0, "fusion_lon": 0.0, "fusion_lat": 0.0, "lon": -76.99631116666667, "name": "a940fa87047031c765ec33e6377b8871"}, {"bike_id": "7c6d88ebec5c1e92fac3c3db664e37dc", "type": "electric_scooter", "is_disabled": 0, "lat": 38.90058283333333, "rental_uris": {"ios": "https://dc.lft.to/lastmile_qr_scan", "android": "https://dc.lft.to/lastmile_qr_scan"}, "is_reserved": 0, "fusion_lon": 0.0, "fusion_lat": 0.0, "lon": -76.9902395, "name": "7c6d88ebec5c1e92fac3c3db664e37dc"}, {"bike_id": "3969cd9f7d22822086146dab4bf0a252", "type": "electric_scooter", "is_disabled": 0, "lat": 38.90174866666667, "rental_uris": {"ios": "https://dc.lft.to/lastmile_qr_scan", "android": "https://dc.lft.to/lastmile_qr_scan"}, "is_reserved": 0, "fusion_lon": 0.0, "fusion_lat": 0.0, "lon": -76.98451466666667, "name": "3969cd9f7d22822086146dab4bf0a252"}, {"bike_id": "a8b19ca065c2696595bde417ff451eb5", "type": "electric_scooter", "is_disabled": 0, "lat": 38.92763433333333, "rental_uris": {"ios": "https://dc.lft.to/lastmile_qr_scan", "android": "https://dc.lft.to/lastmile_qr_scan"}, "is_reserved": 0, "fusion_lon": 0.0, "fusion_lat": 0.0, "lon": -77.029695, "name": "a8b19ca065c2696595bde417ff451eb5"}, {"bike_id": "4c93ad75b29444dfdab2b6c66332edc2", "type": "electric_scooter", "is_disabled": 0, "lat": 38.8623635, "rental_uris": {"ios": "https://dc.lft.to/lastmile_qr_scan", "android": "https://dc.lft.to/lastmile_qr_scan"}, "is_reserved": 0, "fusion_lon": 0.0, "fusion_lat": 0.0, "lon": -76.99509416666666, "name": "4c93ad75b29444dfdab2b6c66332edc2"}, {"bike_id": "3c51476d4dc04eda47f5c4406dd29795", "type": "electric_scooter", "is_disabled": 0, "lat": 38.9244945, "rental_uris": {"ios": "https://dc.lft.to/lastmile_qr_scan", "android": "https://dc.lft.to/lastmile_qr_scan"}, "is_reserved": 0, "fusion_lon": 0.0, "fusion_lat": 0.0, "lon": -77.02416616666666, "name": "3c51476d4dc04eda47f5c4406dd29795"}, {"bike_id": "b62c06e52ce524cae296790a7411a498", "type": "electric_scooter", "is_disabled": 0, "lat": 38.92960033333333, "rental_uris": {"ios": "https://dc.lft.to/lastmile_qr_scan", "android": "https://dc.lft.to/lastmile_qr_scan"}, "is_reserved": 0, "fusion_lon": 0.0, "fusion_lat": 0.0, "lon": -77.01846183333333, "name": "b62c06e52ce524cae296790a7411a498"}, {"bike_id": "6e0a3496c4620050f3d7847a80a15967", "type": "electric_scooter", "is_disabled": 0, "lat": 38.942970333333335, "rental_uris": {"ios": "https://dc.lft.to/lastmile_qr_scan", "android": "https://dc.lft.to/lastmile_qr_scan"}, "is_reserved": 0, "fusion_lon": 0.0, "fusion_lat": 0.0, "lon": -77.02178483333333, "name": "6e0a3496c4620050f3d7847a80a15967"}, {"bike_id": "531af861f4b9e8a022db45d550c8acdc", "type": "electric_bike", "is_disabled": 0, "lat": 38.873189833333335, "rental_uris": {"ios": "https://dc.lft.to/lastmile_qr_scan", "android": "https://dc.lft.to/lastmile_qr_scan"}, "is_reserved": 0, "fusion_lon": 0.0, "fusion_lat": 0.0, "lon": -77.01110716666666, "name": "531af861f4b9e8a022db45d550c8acdc"}, {"bike_id": "5f954053a83b0e307a90a528da41c6f0", "type": "electric_scooter", "is_disabled": 0, "lat": 38.93053033333333, "rental_uris": {"ios": "https://dc.lft.to/lastmile_qr_scan", "android": "https://dc.lft.to/lastmile_qr_scan"}, "is_reserved": 0, "fusion_lon": 0.0, "fusion_lat": 0.0, "lon": -77.02373316666667, "name": "5f954053a83b0e307a90a528da41c6f0"}, {"bike_id": "aa4708702f11bcb22c9b674bf36531b6", "type": "electric_scooter", "is_disabled": 0, "lat": 38.865048333333334, "rental_uris": {"ios": "https://dc.lft.to/lastmile_qr_scan", "android": "https://dc.lft.to/lastmile_qr_scan"}, "is_reserved": 0, "fusion_lon": 0.0, "fusion_lat": 0.0, "lon": -76.99005, "name": "aa4708702f11bcb22c9b674bf36531b6"}, {"bike_id": "600d913e64b7b0d651462ad1417af044", "type": "electric_scooter", "is_disabled": 0, "lat": 38.88088183333333, "rental_uris": {"ios": "https://dc.lft.to/lastmile_qr_scan", "android": "https://dc.lft.to/lastmile_qr_scan"}, "is_reserved": 0, "fusion_lon": 0.0, "fusion_lat": 0.0, "lon": -76.99510933333333, "name": "600d913e64b7b0d651462ad1417af044"}, {"bike_id": "a03fb1dab67e7a21f2a046c0b3182184", "type": "electric_scooter", "is_disabled": 0, "lat": 38.91482166666667, "rental_uris": {"ios": "https://dc.lft.to/lastmile_qr_scan", "android": "https://dc.lft.to/lastmile_qr_scan"}, "is_reserved": 0, "fusion_lon": 0.0, "fusion_lat": 0.0, "lon": -77.01324433333333, "name": "a03fb1dab67e7a21f2a046c0b3182184"}, {"bike_id": "8565a9ebf93e9d6183aa7f79cf0a4e1e", "type": "electric_bike", "is_disabled": 0, "lat": 38.85356516666667, "rental_uris": {"ios": "https://dc.lft.to/lastmile_qr_scan", "android": "https://dc.lft.to/lastmile_qr_scan"}, "is_reserved": 0, "fusion_lon": 0.0, "fusion_lat": 0.0, "lon": -77.0869225, "name": "8565a9ebf93e9d6183aa7f79cf0a4e1e"}, {"bike_id": "f4d90cb4c4e31e843aeb555be4689f3c", "type": "electric_scooter", "is_disabled": 0, "lat": 38.908773333333336, "rental_uris": {"ios": "https://dc.lft.to/lastmile_qr_scan", "android": "https://dc.lft.to/lastmile_qr_scan"}, "is_reserved": 0, "fusion_lon": 0.0, "fusion_lat": 0.0, "lon": -77.02719866666666, "name": "f4d90cb4c4e31e843aeb555be4689f3c"}, {"bike_id": "bf65066ac42af68f598fc8a98c59dad0", "type": "electric_scooter", "is_disabled": 0, "lat": 38.898646166666666, "rental_uris": {"ios": "https://dc.lft.to/lastmile_qr_scan", "android": "https://dc.lft.to/lastmile_qr_scan"}, "is_reserved": 0, "fusion_lon": 0.0, "fusion_lat": 0.0, "lon": -76.946576, "name": "bf65066ac42af68f598fc8a98c59dad0"}, {"bike_id": "f73df13966f217bd910f7497cd26999d", "type": "electric_scooter", "is_disabled": 0, "lat": 38.8781235, "rental_uris": {"ios": "https://dc.lft.to/lastmile_qr_scan", "android": "https://dc.lft.to/lastmile_qr_scan"}, "is_reserved": 0, "fusion_lon": 0.0, "fusion_lat": 0.0, "lon": -76.9716885, "name": "f73df13966f217bd910f7497cd26999d"}, {"bike_id": "1f537b39b2da86ba898853ead7d62141", "type": "electric_scooter", "is_disabled": 0, "lat": 38.90669966666667, "rental_uris": {"ios": "https://dc.lft.to/lastmile_qr_scan", "android": "https://dc.lft.to/lastmile_qr_scan"}, "is_reserved": 0, "fusion_lon": 0.0, "fusion_lat": 0.0, "lon": -77.06127533333333, "name": "1f537b39b2da86ba898853ead7d62141"}, {"bike_id": "43640130f53e54b2183a282a223dcff6", "type": "electric_bike", "is_disabled": 0, "lat": 38.863702833333335, "rental_uris": {"ios": "https://dc.lft.to/lastmile_qr_scan", "android": "https://dc.lft.to/lastmile_qr_scan"}, "is_reserved": 0, "fusion_lon": 0.0, "fusion_lat": 0.0, "lon": -76.97020566666667, "name": "43640130f53e54b2183a282a223dcff6"}, {"bike_id": "cd78ba6c515397bb52b2620068b921da", "type": "electric_scooter", "is_disabled": 0, "lat": 38.921825, "rental_uris": {"ios": "https://dc.lft.to/lastmile_qr_scan", "android": "https://dc.lft.to/lastmile_qr_scan"}, "is_reserved": 0, "fusion_lon": 0.0, "fusion_lat": 0.0, "lon": -76.99800533333334, "name": "cd78ba6c515397bb52b2620068b921da"}, {"bike_id": "1ccdb1a0cd90fd263109fd4a439fe90d", "type": "electric_scooter", "is_disabled": 0, "lat": 38.858921, "rental_uris": {"ios": "https://dc.lft.to/lastmile_qr_scan", "android": "https://dc.lft.to/lastmile_qr_scan"}, "is_reserved": 0, "fusion_lon": 0.0, "fusion_lat": 0.0, "lon": -76.99725233333334, "name": "1ccdb1a0cd90fd263109fd4a439fe90d"}, {"bike_id": "502e1f2fccbc8f545b4264da2a1a7af7", "type": "electric_bike", "is_disabled": 0, "lat": 38.86336083333333, "rental_uris": {"ios": "https://dc.lft.to/lastmile_qr_scan", "android": "https://dc.lft.to/lastmile_qr_scan"}, "is_reserved": 0, "fusion_lon": 0.0, "fusion_lat": 0.0, "lon": -76.987176, "name": "502e1f2fccbc8f545b4264da2a1a7af7"}, {"bike_id": "3dd3b17b6005837af0cff6cb8700830d", "type": "electric_scooter", "is_disabled": 0, "lat": 38.934720666666664, "rental_uris": {"ios": "https://dc.lft.to/lastmile_qr_scan", "android": "https://dc.lft.to/lastmile_qr_scan"}, "is_reserved": 0, "fusion_lon": 0.0, "fusion_lat": 0.0, "lon": -77.03616416666667, "name": "3dd3b17b6005837af0cff6cb8700830d"}, {"bike_id": "c2ecaab069db5fa499670932e7290808", "type": "electric_scooter", "is_disabled": 0, "lat": 38.93777733333334, "rental_uris": {"ios": "https://dc.lft.to/lastmile_qr_scan", "android": "https://dc.lft.to/lastmile_qr_scan"}, "is_reserved": 0, "fusion_lon": 0.0, "fusion_lat": 0.0, "lon": -77.01975766666666, "name": "c2ecaab069db5fa499670932e7290808"}, {"bike_id": "dd48e2180082f45f4a2a2b246ae321b4", "type": "electric_scooter", "is_disabled": 0, "lat": 38.89985433333333, "rental_uris": {"ios": "https://dc.lft.to/lastmile_qr_scan", "android": "https://dc.lft.to/lastmile_qr_scan"}, "is_reserved": 0, "fusion_lon": 0.0, "fusion_lat": 0.0, "lon": -76.9500455, "name": "dd48e2180082f45f4a2a2b246ae321b4"}, {"bike_id": "1728d0c3139d8af4de4d003e8b20b62f", "type": "electric_scooter", "is_disabled": 0, "lat": 38.90415266666667, "rental_uris": {"ios": "https://dc.lft.to/lastmile_qr_scan", "android": "https://dc.lft.to/lastmile_qr_scan"}, "is_reserved": 0, "fusion_lon": 0.0, "fusion_lat": 0.0, "lon": -77.02398583333333, "name": "1728d0c3139d8af4de4d003e8b20b62f"}, {"bike_id": "77dae88b195b6009391596ae76d2cc87", "type": "electric_scooter", "is_disabled": 0, "lat": 38.92185966666667, "rental_uris": {"ios": "https://dc.lft.to/lastmile_qr_scan", "android": "https://dc.lft.to/lastmile_qr_scan"}, "is_reserved": 0, "fusion_lon": 0.0, "fusion_lat": 0.0, "lon": -77.042532, "name": "77dae88b195b6009391596ae76d2cc87"}, {"bike_id": "c60d9e75426d88c06a6ae9b7e620a036", "type": "electric_scooter", "is_disabled": 0, "lat": 38.9050775, "rental_uris": {"ios": "https://dc.lft.to/lastmile_qr_scan", "android": "https://dc.lft.to/lastmile_qr_scan"}, "is_reserved": 0, "fusion_lon": 0.0, "fusion_lat": 0.0, "lon": -77.04173433333334, "name": "c60d9e75426d88c06a6ae9b7e620a036"}, {"bike_id": "a8701443d2ed6ad35318f2ee30669758", "type": "electric_bike", "is_disabled": 0, "lat": 38.880583333333334, "rental_uris": {"ios": "https://dc.lft.to/lastmile_qr_scan", "android": "https://dc.lft.to/lastmile_qr_scan"}, "is_reserved": 0, "fusion_lon": 0.0, "fusion_lat": 0.0, "lon": -76.96245083333334, "name": "a8701443d2ed6ad35318f2ee30669758"}, {"bike_id": "f6a090cf499a2a3b98bd069562cba8f1", "type": "electric_scooter", "is_disabled": 0, "lat": 38.95659716666667, "rental_uris": {"ios": "https://dc.lft.to/lastmile_qr_scan", "android": "https://dc.lft.to/lastmile_qr_scan"}, "is_reserved": 0, "fusion_lon": 0.0, "fusion_lat": 0.0, "lon": -77.01318916666666, "name": "f6a090cf499a2a3b98bd069562cba8f1"}, {"bike_id": "d8cf6e84769116371c960ac1ef014ed9", "type": "electric_scooter", "is_disabled": 0, "lat": 38.922928, "rental_uris": {"ios": "https://dc.lft.to/lastmile_qr_scan", "android": "https://dc.lft.to/lastmile_qr_scan"}, "is_reserved": 0, "fusion_lon": 0.0, "fusion_lat": 0.0, "lon": -77.04300533333333, "name": "d8cf6e84769116371c960ac1ef014ed9"}, {"bike_id": "7a11566616f650571c970bfc68aaef11", "type": "electric_scooter", "is_disabled": 0, "lat": 38.908316166666665, "rental_uris": {"ios": "https://dc.lft.to/lastmile_qr_scan", "android": "https://dc.lft.to/lastmile_qr_scan"}, "is_reserved": 0, "fusion_lon": 0.0, "fusion_lat": 0.0, "lon": -77.0436255, "name": "7a11566616f650571c970bfc68aaef11"}, {"bike_id": "b50619c97d81c7729346a92a23d081ea", "type": "electric_scooter", "is_disabled": 0, "lat": 38.928586833333334, "rental_uris": {"ios": "https://dc.lft.to/lastmile_qr_scan", "android": "https://dc.lft.to/lastmile_qr_scan"}, "is_reserved": 0, "fusion_lon": 0.0, "fusion_lat": 0.0, "lon": -77.01952216666666, "name": "b50619c97d81c7729346a92a23d081ea"}, {"bike_id": "11298256fd185d8d13083ef19f5afbc6", "type": "electric_scooter", "is_disabled": 0, "lat": 38.91415383333333, "rental_uris": {"ios": "https://dc.lft.to/lastmile_qr_scan", "android": "https://dc.lft.to/lastmile_qr_scan"}, "is_reserved": 0, "fusion_lon": 0.0, "fusion_lat": 0.0, "lon": -77.04818866666666, "name": "11298256fd185d8d13083ef19f5afbc6"}, {"bike_id": "75a1d2238d462cc9f79c0d7aa7cf55f9", "type": "electric_scooter", "is_disabled": 0, "lat": 38.921562333333334, "rental_uris": {"ios": "https://dc.lft.to/lastmile_qr_scan", "android": "https://dc.lft.to/lastmile_qr_scan"}, "is_reserved": 0, "fusion_lon": 0.0, "fusion_lat": 0.0, "lon": -77.03538183333333, "name": "75a1d2238d462cc9f79c0d7aa7cf55f9"}, {"bike_id": "63607b4f45dc52dec1a2c6711b5bb658", "type": "electric_scooter", "is_disabled": 0, "lat": 38.947873, "rental_uris": {"ios": "https://dc.lft.to/lastmile_qr_scan", "android": "https://dc.lft.to/lastmile_qr_scan"}, "is_reserved": 0, "fusion_lon": 0.0, "fusion_lat": 0.0, "lon": -77.02133966666666, "name": "63607b4f45dc52dec1a2c6711b5bb658"}, {"bike_id": "fe41332bcdf2b0cf4b4ad2b4e8378145", "type": "electric_scooter", "is_disabled": 0, "lat": 38.91261516666667, "rental_uris": {"ios": "https://dc.lft.to/lastmile_qr_scan", "android": "https://dc.lft.to/lastmile_qr_scan"}, "is_reserved": 0, "fusion_lon": 0.0, "fusion_lat": 0.0, "lon": -77.04447416666666, "name": "fe41332bcdf2b0cf4b4ad2b4e8378145"}, {"bike_id": "5df022d27a66066a6ffa553a378ee7b9", "type": "electric_scooter", "is_disabled": 0, "lat": 38.91372366666667, "rental_uris": {"ios": "https://dc.lft.to/lastmile_qr_scan", "android": "https://dc.lft.to/lastmile_qr_scan"}, "is_reserved": 0, "fusion_lon": 0.0, "fusion_lat": 0.0, "lon": -77.07271533333333, "name": "5df022d27a66066a6ffa553a378ee7b9"}, {"bike_id": "7524a72748cddc12ea50691add9cab42", "type": "electric_scooter", "is_disabled": 0, "lat": 38.8697655, "rental_uris": {"ios": "https://dc.lft.to/lastmile_qr_scan", "android": "https://dc.lft.to/lastmile_qr_scan"}, "is_reserved": 0, "fusion_lon": 0.0, "fusion_lat": 0.0, "lon": -76.98172516666666, "name": "7524a72748cddc12ea50691add9cab42"}, {"bike_id": "a87bf50f128502f06c1b162db3c4361c", "type": "electric_scooter", "is_disabled": 0, "lat": 38.882152, "rental_uris": {"ios": "https://dc.lft.to/lastmile_qr_scan", "android": "https://dc.lft.to/lastmile_qr_scan"}, "is_reserved": 0, "fusion_lon": 0.0, "fusion_lat": 0.0, "lon": -76.9266315, "name": "a87bf50f128502f06c1b162db3c4361c"}, {"bike_id": "08294e230771e90d0ca6d73c43b9c066", "type": "electric_bike", "is_disabled": 0, "lat": 38.91012283333333, "rental_uris": {"ios": "https://dc.lft.to/lastmile_qr_scan", "android": "https://dc.lft.to/lastmile_qr_scan"}, "is_reserved": 0, "fusion_lon": 0.0, "fusion_lat": 0.0, "lon": -77.22794616666667, "name": "08294e230771e90d0ca6d73c43b9c066"}, {"bike_id": "5b57439b213c1ceb738c814491b55efd", "type": "electric_scooter", "is_disabled": 0, "lat": 38.928261666666664, "rental_uris": {"ios": "https://dc.lft.to/lastmile_qr_scan", "android": "https://dc.lft.to/lastmile_qr_scan"}, "is_reserved": 0, "fusion_lon": 0.0, "fusion_lat": 0.0, "lon": -77.00597366666666, "name": "5b57439b213c1ceb738c814491b55efd"}, {"bike_id": "fda52f1e3ccc1fce8d43c89a993c28f7", "type": "electric_scooter", "is_disabled": 0, "lat": 38.906313, "rental_uris": {"ios": "https://dc.lft.to/lastmile_qr_scan", "android": "https://dc.lft.to/lastmile_qr_scan"}, "is_reserved": 0, "fusion_lon": 0.0, "fusion_lat": 0.0, "lon": -77.05560933333334, "name": "fda52f1e3ccc1fce8d43c89a993c28f7"}, {"bike_id": "087d7442bc9ecd0ce682ce502502692f", "type": "electric_scooter", "is_disabled": 0, "lat": 38.8991495, "rental_uris": {"ios": "https://dc.lft.to/lastmile_qr_scan", "android": "https://dc.lft.to/lastmile_qr_scan"}, "is_reserved": 0, "fusion_lon": 0.0, "fusion_lat": 0.0, "lon": -76.933743, "name": "087d7442bc9ecd0ce682ce502502692f"}, {"bike_id": "36896665dc321cbefed45a1b528a0bf7", "type": "electric_bike", "is_disabled": 0, "lat": 38.936858, "rental_uris": {"ios": "https://dc.lft.to/lastmile_qr_scan", "android": "https://dc.lft.to/lastmile_qr_scan"}, "is_reserved": 0, "fusion_lon": 0.0, "fusion_lat": 0.0, "lon": -77.0564385, "name": "36896665dc321cbefed45a1b528a0bf7"}, {"bike_id": "70bfca5768ffe9c806a5ebd986a17eff", "type": "electric_scooter", "is_disabled": 0, "lat": 38.90818766666666, "rental_uris": {"ios": "https://dc.lft.to/lastmile_qr_scan", "android": "https://dc.lft.to/lastmile_qr_scan"}, "is_reserved": 0, "fusion_lon": 0.0, "fusion_lat": 0.0, "lon": -77.06375, "name": "70bfca5768ffe9c806a5ebd986a17eff"}, {"bike_id": "9055a8cafa5aedf29d7f1ee816900366", "type": "electric_scooter", "is_disabled": 0, "lat": 38.87633833333334, "rental_uris": {"ios": "https://dc.lft.to/lastmile_qr_scan", "android": "https://dc.lft.to/lastmile_qr_scan"}, "is_reserved": 0, "fusion_lon": 0.0, "fusion_lat": 0.0, "lon": -77.00824883333334, "name": "9055a8cafa5aedf29d7f1ee816900366"}, {"bike_id": "16e2663347a86b6719cd4cb38dcaa82b", "type": "electric_scooter", "is_disabled": 0, "lat": 38.92361566666666, "rental_uris": {"ios": "https://dc.lft.to/lastmile_qr_scan", "android": "https://dc.lft.to/lastmile_qr_scan"}, "is_reserved": 0, "fusion_lon": 0.0, "fusion_lat": 0.0, "lon": -77.04128516666667, "name": "16e2663347a86b6719cd4cb38dcaa82b"}, {"bike_id": "4c79669be4d3ce61ee43f18469a299f5", "type": "electric_scooter", "is_disabled": 0, "lat": 38.921311333333335, "rental_uris": {"ios": "https://dc.lft.to/lastmile_qr_scan", "android": "https://dc.lft.to/lastmile_qr_scan"}, "is_reserved": 0, "fusion_lon": 0.0, "fusion_lat": 0.0, "lon": -77.0179785, "name": "4c79669be4d3ce61ee43f18469a299f5"}, {"bike_id": "1ba082b60aa09cc50280fe010f2739ef", "type": "electric_scooter", "is_disabled": 0, "lat": 38.917004666666664, "rental_uris": {"ios": "https://dc.lft.to/lastmile_qr_scan", "android": "https://dc.lft.to/lastmile_qr_scan"}, "is_reserved": 0, "fusion_lon": 0.0, "fusion_lat": 0.0, "lon": -77.01014816666667, "name": "1ba082b60aa09cc50280fe010f2739ef"}, {"bike_id": "44f03013bfd0231864811321108ceb8a", "type": "electric_scooter", "is_disabled": 0, "lat": 38.91690083333334, "rental_uris": {"ios": "https://dc.lft.to/lastmile_qr_scan", "android": "https://dc.lft.to/lastmile_qr_scan"}, "is_reserved": 0, "fusion_lon": 0.0, "fusion_lat": 0.0, "lon": -77.03161, "name": "44f03013bfd0231864811321108ceb8a"}, {"bike_id": "b991a00fb34191d9e64511f0dde34f74", "type": "electric_scooter", "is_disabled": 0, "lat": 38.908556833333336, "rental_uris": {"ios": "https://dc.lft.to/lastmile_qr_scan", "android": "https://dc.lft.to/lastmile_qr_scan"}, "is_reserved": 0, "fusion_lon": 0.0, "fusion_lat": 0.0, "lon": -77.0222445, "name": "b991a00fb34191d9e64511f0dde34f74"}, {"bike_id": "af04990399156085af4bfff2817167fa", "type": "electric_scooter", "is_disabled": 0, "lat": 38.92221516666667, "rental_uris": {"ios": "https://dc.lft.to/lastmile_qr_scan", "android": "https://dc.lft.to/lastmile_qr_scan"}, "is_reserved": 0, "fusion_lon": 0.0, "fusion_lat": 0.0, "lon": -77.03460316666667, "name": "af04990399156085af4bfff2817167fa"}, {"bike_id": "dd4a5fae5c799281ff0e36fe89c1e83c", "type": "electric_scooter", "is_disabled": 0, "lat": 38.904937, "rental_uris": {"ios": "https://dc.lft.to/lastmile_qr_scan", "android": "https://dc.lft.to/lastmile_qr_scan"}, "is_reserved": 0, "fusion_lon": 0.0, "fusion_lat": 0.0, "lon": -76.98685783333333, "name": "dd4a5fae5c799281ff0e36fe89c1e83c"}, {"bike_id": "cf7f2e7e438edda89884e774dc083a53", "type": "electric_bike", "is_disabled": 0, "lat": 38.929339666666664, "rental_uris": {"ios": "https://dc.lft.to/lastmile_qr_scan", "android": "https://dc.lft.to/lastmile_qr_scan"}, "is_reserved": 0, "fusion_lon": 0.0, "fusion_lat": 0.0, "lon": -77.03264583333333, "name": "cf7f2e7e438edda89884e774dc083a53"}, {"bike_id": "ba37635084d82d71fb9a4db5c4b52811", "type": "electric_scooter", "is_disabled": 0, "lat": 38.902612166666664, "rental_uris": {"ios": "https://dc.lft.to/lastmile_qr_scan", "android": "https://dc.lft.to/lastmile_qr_scan"}, "is_reserved": 0, "fusion_lon": 0.0, "fusion_lat": 0.0, "lon": -76.9755465, "name": "ba37635084d82d71fb9a4db5c4b52811"}, {"bike_id": "d4f04f32ec457118e261b766737496df", "type": "electric_bike", "is_disabled": 0, "lat": 39.03994316666667, "rental_uris": {"ios": "https://dc.lft.to/lastmile_qr_scan", "android": "https://dc.lft.to/lastmile_qr_scan"}, "is_reserved": 0, "fusion_lon": 0.0, "fusion_lat": 0.0, "lon": -76.99925766666667, "name": "d4f04f32ec457118e261b766737496df"}, {"bike_id": "420784382d91e1466a4d64f5cd095a86", "type": "electric_scooter", "is_disabled": 0, "lat": 38.961348, "rental_uris": {"ios": "https://dc.lft.to/lastmile_qr_scan", "android": "https://dc.lft.to/lastmile_qr_scan"}, "is_reserved": 0, "fusion_lon": 0.0, "fusion_lat": 0.0, "lon": -77.029875, "name": "420784382d91e1466a4d64f5cd095a86"}, {"bike_id": "febb3b3b960def40a07e31fb9fe2bf3b", "type": "electric_scooter", "is_disabled": 0, "lat": 38.8928235, "rental_uris": {"ios": "https://dc.lft.to/lastmile_qr_scan", "android": "https://dc.lft.to/lastmile_qr_scan"}, "is_reserved": 0, "fusion_lon": 0.0, "fusion_lat": 0.0, "lon": -77.048798, "name": "febb3b3b960def40a07e31fb9fe2bf3b"}, {"bike_id": "67b4fdb9c646c6fa6565bf081a6b0971", "type": "electric_scooter", "is_disabled": 0, "lat": 38.91648516666667, "rental_uris": {"ios": "https://dc.lft.to/lastmile_qr_scan", "android": "https://dc.lft.to/lastmile_qr_scan"}, "is_reserved": 0, "fusion_lon": 0.0, "fusion_lat": 0.0, "lon": -77.04628116666666, "name": "67b4fdb9c646c6fa6565bf081a6b0971"}, {"bike_id": "bb94cf202560db58feb6e425d7857146", "type": "electric_scooter", "is_disabled": 0, "lat": 38.90051166666667, "rental_uris": {"ios": "https://dc.lft.to/lastmile_qr_scan", "android": "https://dc.lft.to/lastmile_qr_scan"}, "is_reserved": 0, "fusion_lon": 0.0, "fusion_lat": 0.0, "lon": -77.036383, "name": "bb94cf202560db58feb6e425d7857146"}, {"bike_id": "970103efd96ea43a49cb0859b7fec4ae", "type": "electric_scooter", "is_disabled": 0, "lat": 38.93126483333333, "rental_uris": {"ios": "https://dc.lft.to/lastmile_qr_scan", "android": "https://dc.lft.to/lastmile_qr_scan"}, "is_reserved": 0, "fusion_lon": 0.0, "fusion_lat": 0.0, "lon": -77.057196, "name": "970103efd96ea43a49cb0859b7fec4ae"}, {"bike_id": "67e5f83bdfa3af519471a5a17b323a4e", "type": "electric_bike", "is_disabled": 0, "lat": 38.829399333333335, "rental_uris": {"ios": "https://dc.lft.to/lastmile_qr_scan", "android": "https://dc.lft.to/lastmile_qr_scan"}, "is_reserved": 0, "fusion_lon": 0.0, "fusion_lat": 0.0, "lon": -77.12364733333334, "name": "67e5f83bdfa3af519471a5a17b323a4e"}, {"bike_id": "7614c819ca688e92574016cddbae3e03", "type": "electric_scooter", "is_disabled": 0, "lat": 38.942325, "rental_uris": {"ios": "https://dc.lft.to/lastmile_qr_scan", "android": "https://dc.lft.to/lastmile_qr_scan"}, "is_reserved": 0, "fusion_lon": 0.0, "fusion_lat": 0.0, "lon": -77.014421, "name": "7614c819ca688e92574016cddbae3e03"}, {"bike_id": "273c55a8f9590afcdfe15e49df21bcf5", "type": "electric_scooter", "is_disabled": 0, "lat": 38.86683216666667, "rental_uris": {"ios": "https://dc.lft.to/lastmile_qr_scan", "android": "https://dc.lft.to/lastmile_qr_scan"}, "is_reserved": 0, "fusion_lon": 0.0, "fusion_lat": 0.0, "lon": -76.9852, "name": "273c55a8f9590afcdfe15e49df21bcf5"}, {"bike_id": "14248419230f452c8e7af6feae6cc936", "type": "electric_scooter", "is_disabled": 0, "lat": 38.924068, "rental_uris": {"ios": "https://dc.lft.to/lastmile_qr_scan", "android": "https://dc.lft.to/lastmile_qr_scan"}, "is_reserved": 0, "fusion_lon": 0.0, "fusion_lat": 0.0, "lon": -77.05067416666667, "name": "14248419230f452c8e7af6feae6cc936"}, {"bike_id": "97cfe895bb6e38b2074fa95ec699c03a", "type": "electric_scooter", "is_disabled": 0, "lat": 38.928654, "rental_uris": {"ios": "https://dc.lft.to/lastmile_qr_scan", "android": "https://dc.lft.to/lastmile_qr_scan"}, "is_reserved": 0, "fusion_lon": 0.0, "fusion_lat": 0.0, "lon": -77.0326385, "name": "97cfe895bb6e38b2074fa95ec699c03a"}, {"bike_id": "b1c0bd7b6368973fa6ff13c7fb76da36", "type": "electric_scooter", "is_disabled": 0, "lat": 38.874739166666664, "rental_uris": {"ios": "https://dc.lft.to/lastmile_qr_scan", "android": "https://dc.lft.to/lastmile_qr_scan"}, "is_reserved": 0, "fusion_lon": 0.0, "fusion_lat": 0.0, "lon": -77.00569066666667, "name": "b1c0bd7b6368973fa6ff13c7fb76da36"}, {"bike_id": "2bb238d973534d6375831e664d7b9ec2", "type": "electric_scooter", "is_disabled": 0, "lat": 38.917315, "rental_uris": {"ios": "https://dc.lft.to/lastmile_qr_scan", "android": "https://dc.lft.to/lastmile_qr_scan"}, "is_reserved": 0, "fusion_lon": 0.0, "fusion_lat": 0.0, "lon": -77.0418585, "name": "2bb238d973534d6375831e664d7b9ec2"}, {"bike_id": "e2aa2920d8e5522b1d20e5956d508d14", "type": "electric_scooter", "is_disabled": 0, "lat": 38.933721166666665, "rental_uris": {"ios": "https://dc.lft.to/lastmile_qr_scan", "android": "https://dc.lft.to/lastmile_qr_scan"}, "is_reserved": 0, "fusion_lon": 0.0, "fusion_lat": 0.0, "lon": -77.05731283333333, "name": "e2aa2920d8e5522b1d20e5956d508d14"}, {"bike_id": "49732ade57ff52e66173e4ef2a3803cb", "type": "electric_scooter", "is_disabled": 0, "lat": 38.90963466666667, "rental_uris": {"ios": "https://dc.lft.to/lastmile_qr_scan", "android": "https://dc.lft.to/lastmile_qr_scan"}, "is_reserved": 0, "fusion_lon": 0.0, "fusion_lat": 0.0, "lon": -77.02286516666666, "name": "49732ade57ff52e66173e4ef2a3803cb"}, {"bike_id": "dce57760dcca9288c336b84183fae8ff", "type": "electric_scooter", "is_disabled": 0, "lat": 38.91105666666667, "rental_uris": {"ios": "https://dc.lft.to/lastmile_qr_scan", "android": "https://dc.lft.to/lastmile_qr_scan"}, "is_reserved": 0, "fusion_lon": 0.0, "fusion_lat": 0.0, "lon": -77.0244365, "name": "dce57760dcca9288c336b84183fae8ff"}, {"bike_id": "97d93be8fa038ece655c91f28135399c", "type": "electric_scooter", "is_disabled": 0, "lat": 38.94723916666667, "rental_uris": {"ios": "https://dc.lft.to/lastmile_qr_scan", "android": "https://dc.lft.to/lastmile_qr_scan"}, "is_reserved": 0, "fusion_lon": 0.0, "fusion_lat": 0.0, "lon": -77.02775533333333, "name": "97d93be8fa038ece655c91f28135399c"}, {"bike_id": "aa3eff972def414e4db71589494725a3", "type": "electric_scooter", "is_disabled": 0, "lat": 38.90378616666667, "rental_uris": {"ios": "https://dc.lft.to/lastmile_qr_scan", "android": "https://dc.lft.to/lastmile_qr_scan"}, "is_reserved": 0, "fusion_lon": 0.0, "fusion_lat": 0.0, "lon": -77.00892466666667, "name": "aa3eff972def414e4db71589494725a3"}, {"bike_id": "3a006f93fffacb3a2e8b97db92b545bd", "type": "electric_scooter", "is_disabled": 0, "lat": 38.8620405, "rental_uris": {"ios": "https://dc.lft.to/lastmile_qr_scan", "android": "https://dc.lft.to/lastmile_qr_scan"}, "is_reserved": 0, "fusion_lon": 0.0, "fusion_lat": 0.0, "lon": -76.99468116666667, "name": "3a006f93fffacb3a2e8b97db92b545bd"}, {"bike_id": "ea38d7cc0c8dba4cbaacc05b748195d2", "type": "electric_scooter", "is_disabled": 0, "lat": 38.8841015, "rental_uris": {"ios": "https://dc.lft.to/lastmile_qr_scan", "android": "https://dc.lft.to/lastmile_qr_scan"}, "is_reserved": 0, "fusion_lon": 0.0, "fusion_lat": 0.0, "lon": -76.98586883333333, "name": "ea38d7cc0c8dba4cbaacc05b748195d2"}, {"bike_id": "8a036266497df2b6feb8354c1dcedd32", "type": "electric_scooter", "is_disabled": 0, "lat": 38.86698116666667, "rental_uris": {"ios": "https://dc.lft.to/lastmile_qr_scan", "android": "https://dc.lft.to/lastmile_qr_scan"}, "is_reserved": 0, "fusion_lon": 0.0, "fusion_lat": 0.0, "lon": -76.987155, "name": "8a036266497df2b6feb8354c1dcedd32"}, {"bike_id": "2961311fcddd122cfc7af9fdbc981f01", "type": "electric_scooter", "is_disabled": 0, "lat": 38.86217033333333, "rental_uris": {"ios": "https://dc.lft.to/lastmile_qr_scan", "android": "https://dc.lft.to/lastmile_qr_scan"}, "is_reserved": 0, "fusion_lon": 0.0, "fusion_lat": 0.0, "lon": -76.99475683333333, "name": "2961311fcddd122cfc7af9fdbc981f01"}, {"bike_id": "7dd8ef26675a52724208450187f1e53c", "type": "electric_scooter", "is_disabled": 0, "lat": 38.9381895, "rental_uris": {"ios": "https://dc.lft.to/lastmile_qr_scan", "android": "https://dc.lft.to/lastmile_qr_scan"}, "is_reserved": 0, "fusion_lon": 0.0, "fusion_lat": 0.0, "lon": -77.02719516666667, "name": "7dd8ef26675a52724208450187f1e53c"}, {"bike_id": "c19272efc9a91b6afb796d5e86c74647", "type": "electric_scooter", "is_disabled": 0, "lat": 38.9133525, "rental_uris": {"ios": "https://dc.lft.to/lastmile_qr_scan", "android": "https://dc.lft.to/lastmile_qr_scan"}, "is_reserved": 0, "fusion_lon": 0.0, "fusion_lat": 0.0, "lon": -77.031821, "name": "c19272efc9a91b6afb796d5e86c74647"}, {"bike_id": "5c9fb81e5ff8c2d3b52b345e32ef85a6", "type": "electric_scooter", "is_disabled": 0, "lat": 38.92509066666667, "rental_uris": {"ios": "https://dc.lft.to/lastmile_qr_scan", "android": "https://dc.lft.to/lastmile_qr_scan"}, "is_reserved": 0, "fusion_lon": 0.0, "fusion_lat": 0.0, "lon": -77.0089115, "name": "5c9fb81e5ff8c2d3b52b345e32ef85a6"}, {"bike_id": "08083e572838eb4700d4bbf5ef841118", "type": "electric_scooter", "is_disabled": 0, "lat": 38.918256666666665, "rental_uris": {"ios": "https://dc.lft.to/lastmile_qr_scan", "android": "https://dc.lft.to/lastmile_qr_scan"}, "is_reserved": 0, "fusion_lon": 0.0, "fusion_lat": 0.0, "lon": -77.04565416666667, "name": "08083e572838eb4700d4bbf5ef841118"}, {"bike_id": "a0b670e0954ec49ab4b56e03a95720e7", "type": "electric_scooter", "is_disabled": 0, "lat": 38.8443805, "rental_uris": {"ios": "https://dc.lft.to/lastmile_qr_scan", "android": "https://dc.lft.to/lastmile_qr_scan"}, "is_reserved": 0, "fusion_lon": 0.0, "fusion_lat": 0.0, "lon": -76.99872066666667, "name": "a0b670e0954ec49ab4b56e03a95720e7"}, {"bike_id": "9773eec3ca9c0b48f8c5295cd36a0075", "type": "electric_scooter", "is_disabled": 0, "lat": 38.900172, "rental_uris": {"ios": "https://dc.lft.to/lastmile_qr_scan", "android": "https://dc.lft.to/lastmile_qr_scan"}, "is_reserved": 0, "fusion_lon": 0.0, "fusion_lat": 0.0, "lon": -77.03292833333333, "name": "9773eec3ca9c0b48f8c5295cd36a0075"}, {"bike_id": "fdec75c30c6214842305281d6c99dc4d", "type": "electric_scooter", "is_disabled": 0, "lat": 38.9137535, "rental_uris": {"ios": "https://dc.lft.to/lastmile_qr_scan", "android": "https://dc.lft.to/lastmile_qr_scan"}, "is_reserved": 0, "fusion_lon": 0.0, "fusion_lat": 0.0, "lon": -77.03013483333334, "name": "fdec75c30c6214842305281d6c99dc4d"}, {"bike_id": "e6e23f253446dbfad2a29fdd02e217ae", "type": "electric_scooter", "is_disabled": 0, "lat": 38.91259866666667, "rental_uris": {"ios": "https://dc.lft.to/lastmile_qr_scan", "android": "https://dc.lft.to/lastmile_qr_scan"}, "is_reserved": 0, "fusion_lon": 0.0, "fusion_lat": 0.0, "lon": -77.03010316666666, "name": "e6e23f253446dbfad2a29fdd02e217ae"}, {"bike_id": "a6e312e7b782b60b7dda5c7bbeabfc35", "type": "electric_scooter", "is_disabled": 0, "lat": 38.899982333333334, "rental_uris": {"ios": "https://dc.lft.to/lastmile_qr_scan", "android": "https://dc.lft.to/lastmile_qr_scan"}, "is_reserved": 0, "fusion_lon": 0.0, "fusion_lat": 0.0, "lon": -77.00633333333333, "name": "a6e312e7b782b60b7dda5c7bbeabfc35"}, {"bike_id": "bcff11cab89f92db2489580d62227ac4", "type": "electric_scooter", "is_disabled": 0, "lat": 38.912597833333336, "rental_uris": {"ios": "https://dc.lft.to/lastmile_qr_scan", "android": "https://dc.lft.to/lastmile_qr_scan"}, "is_reserved": 0, "fusion_lon": 0.0, "fusion_lat": 0.0, "lon": -77.001129, "name": "bcff11cab89f92db2489580d62227ac4"}, {"bike_id": "3371b5f172fd081ce85c752554392b2e", "type": "electric_scooter", "is_disabled": 0, "lat": 38.9055415, "rental_uris": {"ios": "https://dc.lft.to/lastmile_qr_scan", "android": "https://dc.lft.to/lastmile_qr_scan"}, "is_reserved": 0, "fusion_lon": 0.0, "fusion_lat": 0.0, "lon": -77.04572333333333, "name": "3371b5f172fd081ce85c752554392b2e"}, {"bike_id": "2ea021b05b5beea30585effb4761f99a", "type": "electric_scooter", "is_disabled": 0, "lat": 38.92917933333333, "rental_uris": {"ios": "https://dc.lft.to/lastmile_qr_scan", "android": "https://dc.lft.to/lastmile_qr_scan"}, "is_reserved": 0, "fusion_lon": 0.0, "fusion_lat": 0.0, "lon": -77.0209175, "name": "2ea021b05b5beea30585effb4761f99a"}, {"bike_id": "9af2b1c6ad0d688f8d6fcad3672aa54f", "type": "electric_scooter", "is_disabled": 0, "lat": 38.89890183333333, "rental_uris": {"ios": "https://dc.lft.to/lastmile_qr_scan", "android": "https://dc.lft.to/lastmile_qr_scan"}, "is_reserved": 0, "fusion_lon": 0.0, "fusion_lat": 0.0, "lon": -76.93179416666666, "name": "9af2b1c6ad0d688f8d6fcad3672aa54f"}, {"bike_id": "651db4b964f4c440b3db51ad44c7f553", "type": "electric_scooter", "is_disabled": 0, "lat": 38.92040183333334, "rental_uris": {"ios": "https://dc.lft.to/lastmile_qr_scan", "android": "https://dc.lft.to/lastmile_qr_scan"}, "is_reserved": 0, "fusion_lon": 0.0, "fusion_lat": 0.0, "lon": -77.0217795, "name": "651db4b964f4c440b3db51ad44c7f553"}, {"bike_id": "5ee1f84977c2313138c931699535f7ec", "type": "electric_scooter", "is_disabled": 0, "lat": 38.912753, "rental_uris": {"ios": "https://dc.lft.to/lastmile_qr_scan", "android": "https://dc.lft.to/lastmile_qr_scan"}, "is_reserved": 0, "fusion_lon": 0.0, "fusion_lat": 0.0, "lon": -77.04506633333334, "name": "5ee1f84977c2313138c931699535f7ec"}, {"bike_id": "b7337c441964ef907107a4b6ef617596", "type": "electric_scooter", "is_disabled": 0, "lat": 38.902161666666665, "rental_uris": {"ios": "https://dc.lft.to/lastmile_qr_scan", "android": "https://dc.lft.to/lastmile_qr_scan"}, "is_reserved": 0, "fusion_lon": 0.0, "fusion_lat": 0.0, "lon": -77.02858616666667, "name": "b7337c441964ef907107a4b6ef617596"}, {"bike_id": "4d8d6806c3e494ef10db48a67bcaa342", "type": "electric_scooter", "is_disabled": 0, "lat": 38.94416233333333, "rental_uris": {"ios": "https://dc.lft.to/lastmile_qr_scan", "android": "https://dc.lft.to/lastmile_qr_scan"}, "is_reserved": 0, "fusion_lon": 0.0, "fusion_lat": 0.0, "lon": -77.0632485, "name": "4d8d6806c3e494ef10db48a67bcaa342"}, {"bike_id": "f81c9309b234cfab4d625b04eafd0d37", "type": "electric_scooter", "is_disabled": 0, "lat": 38.905189, "rental_uris": {"ios": "https://dc.lft.to/lastmile_qr_scan", "android": "https://dc.lft.to/lastmile_qr_scan"}, "is_reserved": 0, "fusion_lon": 0.0, "fusion_lat": 0.0, "lon": -77.06384216666666, "name": "f81c9309b234cfab4d625b04eafd0d37"}, {"bike_id": "17067ccf5ecfae4bfb153814307f8338", "type": "electric_scooter", "is_disabled": 0, "lat": 38.928681833333336, "rental_uris": {"ios": "https://dc.lft.to/lastmile_qr_scan", "android": "https://dc.lft.to/lastmile_qr_scan"}, "is_reserved": 0, "fusion_lon": 0.0, "fusion_lat": 0.0, "lon": -77.03439366666667, "name": "17067ccf5ecfae4bfb153814307f8338"}, {"bike_id": "fc2a772dceec2acbc79af257a8712841", "type": "electric_scooter", "is_disabled": 0, "lat": 38.91407383333333, "rental_uris": {"ios": "https://dc.lft.to/lastmile_qr_scan", "android": "https://dc.lft.to/lastmile_qr_scan"}, "is_reserved": 0, "fusion_lon": 0.0, "fusion_lat": 0.0, "lon": -77.03606883333333, "name": "fc2a772dceec2acbc79af257a8712841"}, {"bike_id": "9027bce93bb710980235b24efdff74f1", "type": "electric_scooter", "is_disabled": 0, "lat": 38.9282585, "rental_uris": {"ios": "https://dc.lft.to/lastmile_qr_scan", "android": "https://dc.lft.to/lastmile_qr_scan"}, "is_reserved": 0, "fusion_lon": 0.0, "fusion_lat": 0.0, "lon": -77.0226295, "name": "9027bce93bb710980235b24efdff74f1"}, {"bike_id": "69e999f316ab62aaed0e3130873289be", "type": "electric_bike", "is_disabled": 0, "lat": 38.842712166666665, "rental_uris": {"ios": "https://dc.lft.to/lastmile_qr_scan", "android": "https://dc.lft.to/lastmile_qr_scan"}, "is_reserved": 0, "fusion_lon": 0.0, "fusion_lat": 0.0, "lon": -76.9884835, "name": "69e999f316ab62aaed0e3130873289be"}, {"bike_id": "0066090b20cf8f4dd6022ad72b80b580", "type": "electric_scooter", "is_disabled": 0, "lat": 38.90805733333333, "rental_uris": {"ios": "https://dc.lft.to/lastmile_qr_scan", "android": "https://dc.lft.to/lastmile_qr_scan"}, "is_reserved": 0, "fusion_lon": 0.0, "fusion_lat": 0.0, "lon": -77.03062016666667, "name": "0066090b20cf8f4dd6022ad72b80b580"}, {"bike_id": "eaf5f51cb27566dc0bdc0da90e1ce35b", "type": "electric_scooter", "is_disabled": 0, "lat": 38.91282016666667, "rental_uris": {"ios": "https://dc.lft.to/lastmile_qr_scan", "android": "https://dc.lft.to/lastmile_qr_scan"}, "is_reserved": 0, "fusion_lon": 0.0, "fusion_lat": 0.0, "lon": -77.06114716666667, "name": "eaf5f51cb27566dc0bdc0da90e1ce35b"}, {"bike_id": "2f69a84cbc36cd67fced3a996021b20a", "type": "electric_scooter", "is_disabled": 0, "lat": 38.90292266666667, "rental_uris": {"ios": "https://dc.lft.to/lastmile_qr_scan", "android": "https://dc.lft.to/lastmile_qr_scan"}, "is_reserved": 0, "fusion_lon": 0.0, "fusion_lat": 0.0, "lon": -77.061243, "name": "2f69a84cbc36cd67fced3a996021b20a"}, {"bike_id": "bf5de4af53e59bf0a8203b09699a26f0", "type": "electric_scooter", "is_disabled": 0, "lat": 38.91414833333333, "rental_uris": {"ios": "https://dc.lft.to/lastmile_qr_scan", "android": "https://dc.lft.to/lastmile_qr_scan"}, "is_reserved": 0, "fusion_lon": 0.0, "fusion_lat": 0.0, "lon": -77.0211835, "name": "bf5de4af53e59bf0a8203b09699a26f0"}, {"bike_id": "74347a07b435b13740090188396b19a3", "type": "electric_scooter", "is_disabled": 0, "lat": 38.900498166666665, "rental_uris": {"ios": "https://dc.lft.to/lastmile_qr_scan", "android": "https://dc.lft.to/lastmile_qr_scan"}, "is_reserved": 0, "fusion_lon": 0.0, "fusion_lat": 0.0, "lon": -77.036417, "name": "74347a07b435b13740090188396b19a3"}, {"bike_id": "58bfaca45b7a384a3cc2ea5006a3c596", "type": "electric_scooter", "is_disabled": 0, "lat": 38.8430745, "rental_uris": {"ios": "https://dc.lft.to/lastmile_qr_scan", "android": "https://dc.lft.to/lastmile_qr_scan"}, "is_reserved": 0, "fusion_lon": 0.0, "fusion_lat": 0.0, "lon": -76.9993005, "name": "58bfaca45b7a384a3cc2ea5006a3c596"}, {"bike_id": "e38caf040f435cafc1a5424c77c45cd3", "type": "electric_scooter", "is_disabled": 0, "lat": 38.9335825, "rental_uris": {"ios": "https://dc.lft.to/lastmile_qr_scan", "android": "https://dc.lft.to/lastmile_qr_scan"}, "is_reserved": 0, "fusion_lon": 0.0, "fusion_lat": 0.0, "lon": -77.0731715, "name": "e38caf040f435cafc1a5424c77c45cd3"}, {"bike_id": "218305eef04be4eef11ebeae43c9edd8", "type": "electric_scooter", "is_disabled": 0, "lat": 38.93597, "rental_uris": {"ios": "https://dc.lft.to/lastmile_qr_scan", "android": "https://dc.lft.to/lastmile_qr_scan"}, "is_reserved": 0, "fusion_lon": 0.0, "fusion_lat": 0.0, "lon": -77.024127, "name": "218305eef04be4eef11ebeae43c9edd8"}, {"bike_id": "09a41891e2e78a31cd11dabebe38e97e", "type": "electric_scooter", "is_disabled": 0, "lat": 38.89886883333333, "rental_uris": {"ios": "https://dc.lft.to/lastmile_qr_scan", "android": "https://dc.lft.to/lastmile_qr_scan"}, "is_reserved": 0, "fusion_lon": 0.0, "fusion_lat": 0.0, "lon": -76.931777, "name": "09a41891e2e78a31cd11dabebe38e97e"}, {"bike_id": "2dbcc524d2ff1439bc4c41456c03c429", "type": "electric_scooter", "is_disabled": 0, "lat": 38.90814266666667, "rental_uris": {"ios": "https://dc.lft.to/lastmile_qr_scan", "android": "https://dc.lft.to/lastmile_qr_scan"}, "is_reserved": 0, "fusion_lon": 0.0, "fusion_lat": 0.0, "lon": -77.06372266666666, "name": "2dbcc524d2ff1439bc4c41456c03c429"}, {"bike_id": "920ad965391bf6ac4dcf3565daa5e262", "type": "electric_scooter", "is_disabled": 0, "lat": 38.933718, "rental_uris": {"ios": "https://dc.lft.to/lastmile_qr_scan", "android": "https://dc.lft.to/lastmile_qr_scan"}, "is_reserved": 0, "fusion_lon": 0.0, "fusion_lat": 0.0, "lon": -77.05727766666666, "name": "920ad965391bf6ac4dcf3565daa5e262"}, {"bike_id": "d5a394c31d94f0874cc200697344c800", "type": "electric_scooter", "is_disabled": 0, "lat": 38.925814, "rental_uris": {"ios": "https://dc.lft.to/lastmile_qr_scan", "android": "https://dc.lft.to/lastmile_qr_scan"}, "is_reserved": 0, "fusion_lon": 0.0, "fusion_lat": 0.0, "lon": -77.03059166666667, "name": "d5a394c31d94f0874cc200697344c800"},