{"data": {"bikes": [{"is_disabled": 0, "fusion_lon": 0.0, "fusion_lat": 0.0, "lat": 38.940076166666664, "type": "electric_scooter", "lon": -77.06029783333334, "bike_id": "536137f6702bdd40f30aab19f8ed440c", "rental_uris": {"android": "https://dc.lft.to/lastmile_qr_scan", "ios": "https://dc.lft.to/lastmile_qr_scan"}, "name": "536137f6702bdd40f30aab19f8ed440c", "is_reserved": 0}, {"is_disabled": 0, "fusion_lon": 0.0, "fusion_lat": 0.0, "lat": 38.86555716666667, "type": "electric_bike", "lon": -76.97311733333333, "bike_id": "4addff7be29617e60f5cc959d44dd334", "rental_uris": {"android": "https://dc.lft.to/lastmile_qr_scan", "ios": "https://dc.lft.to/lastmile_qr_scan"}, "name": "4addff7be29617e60f5cc959d44dd334", "is_reserved": 0}, {"is_disabled": 0, "fusion_lon": 0.0, "fusion_lat": 0.0, "lat": 38.86352333333333, "type": "electric_scooter", "lon": -76.99069716666666, "bike_id": "e57f220879648648fac65c777c521f21", "rental_uris": {"android": "https://dc.lft.to/lastmile_qr_scan", "ios": "https://dc.lft.to/lastmile_qr_scan"}, "name": "e57f220879648648fac65c777c521f21", "is_reserved": 0}, {"is_disabled": 0, "fusion_lon": 0.0, "fusion_lat": 0.0, "lat": 38.92678266666667, "type": "electric_scooter", "lon": -77.032156, "bike_id": "9752754530d674d8f8ab3801656bfa2b", "rental_uris": {"android": "https://dc.lft.to/lastmile_qr_scan", "ios": "https://dc.lft.to/lastmile_qr_scan"}, "name": "9752754530d674d8f8ab3801656bfa2b", "is_reserved": 0}, {"is_disabled": 0, "fusion_lon": 0.0, "fusion_lat": 0.0, "lat": 38.92024166666667, "type": "electric_scooter", "lon": -77.018896, "bike_id": "962ee4790f96ae16ea7936b650d2ac51", "rental_uris": {"android": "https://dc.lft.to/lastmile_qr_scan", "ios": "https://dc.lft.to/lastmile_qr_scan"}, "name": "962ee4790f96ae16ea7936b650d2ac51", "is_reserved": 0}, {"is_disabled": 0, "fusion_lon": 0.0, "fusion_lat": 0.0, "lat": 38.905301333333334, "type": "electric_scooter", "lon": -77.05043933333333, "bike_id": "09ce565af715340027a0c219b647c764", "rental_uris": {"android": "https://dc.lft.to/lastmile_qr_scan", "ios": "https://dc.lft.to/lastmile_qr_scan"}, "name": "09ce565af715340027a0c219b647c764", "is_reserved": 0}, {"is_disabled": 0, "fusion_lon": 0.0, "fusion_lat": 0.0, "lat": 38.9001575, "type": "electric_scooter", "lon": -77.05230833333333, "bike_id": "2096d074162c7403cd27e5e5db0092c3", "rental_uris": {"android": "https://dc.lft.to/lastmile_qr_scan", "ios": "https://dc.lft.to/lastmile_qr_scan"}, "name": "2096d074162c7403cd27e5e5db0092c3", "is_reserved": 0}, {"is_disabled": 0, "fusion_lon": 0.0, "fusion_lat": 0.0, "lat": 38.928092666666664, "type": "electric_scooter", "lon": -77.02347316666666, "bike_id": "47e58915ccfdad794808828658ad55e5", "rental_uris": {"android": "https://dc.lft.to/lastmile_qr_scan", "ios": "https://dc.lft.to/lastmile_qr_scan"}, "name": "47e58915ccfdad794808828658ad55e5", "is_reserved": 0}, {"is_disabled": 0, "fusion_lon": 0.0, "fusion_lat": 0.0, "lat": 38.94552083333333, "type": "electric_bike", "lon": -77.05114766666667, "bike_id": "a459aa222a880d8df4cd9df8bcbcafd2", "rental_uris": {"android": "https://dc.lft.to/lastmile_qr_scan", "ios": "https://dc.lft.to/lastmile_qr_scan"}, "name": "a459aa222a880d8df4cd9df8bcbcafd2", "is_reserved": 0}, {"is_disabled": 0, "fusion_lon": 0.0, "fusion_lat": 0.0, "lat": 38.90698066666667, "type": "electric_scooter", "lon": -77.07533316666667, "bike_id": "b5151368683355e212b0dfbd71618ab1", "rental_uris": {"android": "https://dc.lft.to/lastmile_qr_scan", "ios": "https://dc.lft.to/lastmile_qr_scan"}, "name": "b5151368683355e212b0dfbd71618ab1", "is_reserved": 0}, {"is_disabled": 0, "fusion_lon": 0.0, "fusion_lat": 0.0, "lat": 38.89994933333333, "type": "electric_scooter", "lon": -77.039699, "bike_id": "d1a0fd911e6b64e2e2ee48284a464e4f", "rental_uris": {"android": "https://dc.lft.to/lastmile_qr_scan", "ios": "https://dc.lft.to/lastmile_qr_scan"}, "name": "d1a0fd911e6b64e2e2ee48284a464e4f", "is_reserved": 0}, {"is_disabled": 0, "fusion_lon": 0.0, "fusion_lat": 0.0, "lat": 38.9158575, "type": "electric_scooter", "lon": -77.02128633333334, "bike_id": "83d6bd2cbb184a677559a870b7975eb7", "rental_uris": {"android": "https://dc.lft.to/lastmile_qr_scan", "ios": "https://dc.lft.to/lastmile_qr_scan"}, "name": "83d6bd2cbb184a677559a870b7975eb7", "is_reserved": 0}, {"is_disabled": 0, "fusion_lon": 0.0, "fusion_lat": 0.0, "lat": 38.9081925, "type": "electric_scooter", "lon": -77.0433905, "bike_id": "e1e87c4a273364d9b767123f9c1d9565", "rental_uris": {"android": "https://dc.lft.to/lastmile_qr_scan", "ios": "https://dc.lft.to/lastmile_qr_scan"}, "name": "e1e87c4a273364d9b767123f9c1d9565", "is_reserved": 0}, {"is_disabled": 0, "fusion_lon": 0.0, "fusion_lat": 0.0, "lat": 38.94474133333333, "type": "electric_bike", "lon": -77.00647833333333, "bike_id": "152419a75e091471bf6f9c7c176bf105", "rental_uris": {"android": "https://dc.lft.to/lastmile_qr_scan", "ios": "https://dc.lft.to/lastmile_qr_scan"}, "name": "152419a75e091471bf6f9c7c176bf105", "is_reserved": 0}, {"is_disabled": 0, "fusion_lon": 0.0, "fusion_lat": 0.0, "lat": 38.9246785, "type": "electric_scooter", "lon": -77.0373135, "bike_id": "bae92cfb21a04ba4154a10ca2c632515", "rental_uris": {"android": "https://dc.lft.to/lastmile_qr_scan", "ios": "https://dc.lft.to/lastmile_qr_scan"}, "name": "bae92cfb21a04ba4154a10ca2c632515", "is_reserved": 0}, {"is_disabled": 0, "fusion_lon": 0.0, "fusion_lat": 0.0, "lat": 38.886866, "type": "electric_scooter", "lon": -76.95476533333333, "bike_id": "3bc309aaf50d39b6eb0484cdeb1314f9", "rental_uris": {"android": "https://dc.lft.to/lastmile_qr_scan", "ios": "https://dc.lft.to/lastmile_qr_scan"}, "name": "3bc309aaf50d39b6eb0484cdeb1314f9", "is_reserved": 0}, {"is_disabled": 0, "fusion_lon": 0.0, "fusion_lat": 0.0, "lat": 38.9172725, "type": "electric_scooter", "lon": -77.032015, "bike_id": "e3121a6b580a91cc26aa7f87305bef05", "rental_uris": {"android": "https://dc.lft.to/lastmile_qr_scan", "ios": "https://dc.lft.to/lastmile_qr_scan"}, "name": "e3121a6b580a91cc26aa7f87305bef05", "is_reserved": 0}, {"is_disabled": 0, "fusion_lon": 0.0, "fusion_lat": 0.0, "lat": 38.90229983333333, "type": "electric_scooter", "lon": -77.0616385, "bike_id": "566c43234e1019a32ee16bf668787220", "rental_uris": {"android": "https://dc.lft.to/lastmile_qr_scan", "ios": "https://dc.lft.to/lastmile_qr_scan"}, "name": "566c43234e1019a32ee16bf668787220", "is_reserved": 0}, {"is_disabled": 0, "fusion_lon": 0.0, "fusion_lat": 0.0, "lat": 38.929675833333334, "type": "electric_scooter", "lon": -77.02072166666666, "bike_id": "fcb2f0e3d2d2b7725fe45e32163b46e5", "rental_uris": {"android": "https://dc.lft.to/lastmile_qr_scan", "ios": "https://dc.lft.to/lastmile_qr_scan"}, "name": "fcb2f0e3d2d2b7725fe45e32163b46e5", "is_reserved": 0}, {"is_disabled": 0, "fusion_lon": 0.0, "fusion_lat": 0.0, "lat": 38.942003166666666, "type": "electric_scooter", "lon": -77.0259265, "bike_id": "7017bb537dbbd289fad13cf42b113d83", "rental_uris": {"android": "https://dc.lft.to/lastmile_qr_scan", "ios": "https://dc.lft.to/lastmile_qr_scan"}, "name": "7017bb537dbbd289fad13cf42b113d83", "is_reserved": 0}, {"is_disabled": 0, "fusion_lon": 0.0, "fusion_lat": 0.0, "lat": 38.96416266666667, "type": "electric_scooter", "lon": -77.075295, "bike_id": "9be391c9400e330015c68f087ad8dd08", "rental_uris": {"android": "https://dc.lft.to/lastmile_qr_scan", "ios": "https://dc.lft.to/lastmile_qr_scan"}, "name": "9be391c9400e330015c68f087ad8dd08", "is_reserved": 0}, {"is_disabled": 0, "fusion_lon": 0.0, "fusion_lat": 0.0, "lat": 38.921940166666666, "type": "electric_scooter", "lon": -76.99705833333333, "bike_id": "0d96ff2fba484a23719850424aeb9429", "rental_uris": {"android": "https://dc.lft.to/lastmile_qr_scan", "ios": "https://dc.lft.to/lastmile_qr_scan"}, "name": "0d96ff2fba484a23719850424aeb9429", "is_reserved": 0}, {"is_disabled": 0, "fusion_lon": 0.0, "fusion_lat": 0.0, "lat": 38.90408566666667, "type": "electric_scooter", "lon": -77.005833, "bike_id": "46ab95f41655302f6e7b5360d1dfffca", "rental_uris": {"android": "https://dc.lft.to/lastmile_qr_scan", "ios": "https://dc.lft.to/lastmile_qr_scan"}, "name": "46ab95f41655302f6e7b5360d1dfffca", "is_reserved": 0}, {"is_disabled": 0, "fusion_lon": 0.0, "fusion_lat": 0.0, "lat": 38.906788166666665, "type": "electric_scooter", "lon": -76.98004066666667, "bike_id": "942d4c89cbdb3bbcb3227cc224bc47c4", "rental_uris": {"android": "https://dc.lft.to/lastmile_qr_scan", "ios": "https://dc.lft.to/lastmile_qr_scan"}, "name": "942d4c89cbdb3bbcb3227cc224bc47c4", "is_reserved": 0}, {"is_disabled": 0, "fusion_lon": 0.0, "fusion_lat": 0.0, "lat": 38.91036016666666, "type": "electric_scooter", "lon": -77.04009983333333, "bike_id": "2254f6486341c9efbeb2a38881fcbbba", "rental_uris": {"android": "https://dc.lft.to/lastmile_qr_scan", "ios": "https://dc.lft.to/lastmile_qr_scan"}, "name": "2254f6486341c9efbeb2a38881fcbbba", "is_reserved": 0}, {"is_disabled": 0, "fusion_lon": 0.0, "fusion_lat": 0.0, "lat": 38.858069666666665, "type": "electric_scooter", "lon": -76.98653566666667, "bike_id": "ba252b5987c1979bb7059cca0194fcf8", "rental_uris": {"android": "https://dc.lft.to/lastmile_qr_scan", "ios": "https://dc.lft.to/lastmile_qr_scan"}, "name": "ba252b5987c1979bb7059cca0194fcf8", "is_reserved": 0}, {"is_disabled": 0, "fusion_lon": 0.0, "fusion_lat": 0.0, "lat": 38.92747633333333, "type": "electric_scooter", "lon": -77.01615283333334, "bike_id": "8bccd4c72f8eb08c5a93007eda84934e", "rental_uris": {"android": "https://dc.lft.to/lastmile_qr_scan", "ios": "https://dc.lft.to/lastmile_qr_scan"}, "name": "8bccd4c72f8eb08c5a93007eda84934e", "is_reserved": 0}, {"is_disabled": 0, "fusion_lon": 0.0, "fusion_lat": 0.0, "lat": 38.917654, "type": "electric_scooter", "lon": -77.03458683333334, "bike_id": "b94679b8057333ee2fae506d9cbf2f6e", "rental_uris": {"android": "https://dc.lft.to/lastmile_qr_scan", "ios": "https://dc.lft.to/lastmile_qr_scan"}, "name": "b94679b8057333ee2fae506d9cbf2f6e", "is_reserved": 0}, {"is_disabled": 0, "fusion_lon": 0.0, "fusion_lat": 0.0, "lat": 38.900699833333334, "type": "electric_scooter", "lon": -77.01820933333333, "bike_id": "7d98e10def6730e605580578576061ef", "rental_uris": {"android": "https://dc.lft.to/lastmile_qr_scan", "ios": "https://dc.lft.to/lastmile_qr_scan"}, "name": "7d98e10def6730e605580578576061ef", "is_reserved": 0}, {"is_disabled": 0, "fusion_lon": 0.0, "fusion_lat": 0.0, "lat": 38.90042866666667, "type": "electric_scooter", "lon": -77.00205466666667, "bike_id": "6f492eb166cca0109ef921c143154ad4", "rental_uris": {"android": "https://dc.lft.to/lastmile_qr_scan", "ios": "https://dc.lft.to/lastmile_qr_scan"}, "name": "6f492eb166cca0109ef921c143154ad4", "is_reserved": 0}, {"is_disabled": 0, "fusion_lon": 0.0, "fusion_lat": 0.0, "lat": 38.91800533333333, "type": "electric_scooter", "lon": -77.04035316666666, "bike_id": "2c697d7478e6427b2b5786931ebe04b7", "rental_uris": {"android": "https://dc.lft.to/lastmile_qr_scan", "ios": "https://dc.lft.to/lastmile_qr_scan"}, "name": "2c697d7478e6427b2b5786931ebe04b7", "is_reserved": 0}, {"is_disabled": 0, "fusion_lon": 0.0, "fusion_lat": 0.0, "lat": 38.915645166666664, "type": "electric_scooter", "lon": -77.0327175, "bike_id": "7d64012d8fc2a22cf2369f1dbeeb1479", "rental_uris": {"android": "https://dc.lft.to/lastmile_qr_scan", "ios": "https://dc.lft.to/lastmile_qr_scan"}, "name": "7d64012d8fc2a22cf2369f1dbeeb1479", "is_reserved": 0}, {"is_disabled": 0, "fusion_lon": 0.0, "fusion_lat": 0.0, "lat": 38.87624233333333, "type": "electric_scooter", "lon": -77.0059625, "bike_id": "6a213ac6534c0447f8419a7c7bdf3aaf", "rental_uris": {"android": "https://dc.lft.to/lastmile_qr_scan", "ios": "https://dc.lft.to/lastmile_qr_scan"}, "name": "6a213ac6534c0447f8419a7c7bdf3aaf", "is_reserved": 0}, {"is_disabled": 0, "fusion_lon": 0.0, "fusion_lat": 0.0, "lat": 38.927560666666665, "type": "electric_scooter", "lon": -77.00593116666667, "bike_id": "7e550e5b5928fc6cf05d58d001201f81", "rental_uris": {"android": "https://dc.lft.to/lastmile_qr_scan", "ios": "https://dc.lft.to/lastmile_qr_scan"}, "name": "7e550e5b5928fc6cf05d58d001201f81", "is_reserved": 0}, {"is_disabled": 0, "fusion_lon": 0.0, "fusion_lat": 0.0, "lat": 38.944515, "type": "electric_scooter", "lon": -77.06347616666666, "bike_id": "0ab5a1863577dbbd602503fc59ced682", "rental_uris": {"android": "https://dc.lft.to/lastmile_qr_scan", "ios": "https://dc.lft.to/lastmile_qr_scan"}, "name": "0ab5a1863577dbbd602503fc59ced682", "is_reserved": 0}, {"is_disabled": 0, "fusion_lon": 0.0, "fusion_lat": 0.0, "lat": 38.855138, "type": "electric_bike", "lon": -76.9583825, "bike_id": "6f755b10e9894e9ae44e26832c3c27c7", "rental_uris": {"android": "https://dc.lft.to/lastmile_qr_scan", "ios": "https://dc.lft.to/lastmile_qr_scan"}, "name": "6f755b10e9894e9ae44e26832c3c27c7", "is_reserved": 0}, {"is_disabled": 0, "fusion_lon": 0.0, "fusion_lat": 0.0, "lat": 38.9193285, "type": "electric_scooter", "lon": -76.98079416666667, "bike_id": "46831deaa0b215227ca62259ce335e76", "rental_uris": {"android": "https://dc.lft.to/lastmile_qr_scan", "ios": "https://dc.lft.to/lastmile_qr_scan"}, "name": "46831deaa0b215227ca62259ce335e76", "is_reserved": 0}, {"is_disabled": 0, "fusion_lon": 0.0, "fusion_lat": 0.0, "lat": 38.94072333333333, "type": "electric_scooter", "lon": -77.0211345, "bike_id": "4957eb004126e698b54809676e48f04f", "rental_uris": {"android": "https://dc.lft.to/lastmile_qr_scan", "ios": "https://dc.lft.to/lastmile_qr_scan"}, "name": "4957eb004126e698b54809676e48f04f", "is_reserved": 0}, {"is_disabled": 0, "fusion_lon": 0.0, "fusion_lat": 0.0, "lat": 38.90955, "type": "electric_scooter", "lon": -77.01567783333333, "bike_id": "45856994aaa0995f557d4d7d3f695494", "rental_uris": {"android": "https://dc.lft.to/lastmile_qr_scan", "ios": "https://dc.lft.to/lastmile_qr_scan"}, "name": "45856994aaa0995f557d4d7d3f695494", "is_reserved": 0}, {"is_disabled": 0, "fusion_lon": 0.0, "fusion_lat": 0.0, "lat": 38.916497666666665, "type": "electric_scooter", "lon": -77.02183183333334, "bike_id": "8d2b433cb92aef28c3cb5dda522956c1", "rental_uris": {"android": "https://dc.lft.to/lastmile_qr_scan", "ios": "https://dc.lft.to/lastmile_qr_scan"}, "name": "8d2b433cb92aef28c3cb5dda522956c1", "is_reserved": 0}, {"is_disabled": 0, "fusion_lon": 0.0, "fusion_lat": 0.0, "lat": 38.895074666666666, "type": "electric_scooter", "lon": -77.01131766666667, "bike_id": "906bbc356a868dcc6dcaff77dc789f94", "rental_uris": {"android": "https://dc.lft.to/lastmile_qr_scan", "ios": "https://dc.lft.to/lastmile_qr_scan"}, "name": "906bbc356a868dcc6dcaff77dc789f94", "is_reserved": 0}, {"is_disabled": 0, "fusion_lon": 0.0, "fusion_lat": 0.0, "lat": 38.91909866666666, "type": "electric_scooter", "lon": -77.03025083333333, "bike_id": "1270eb37f30d82033fdb2b708b7fa565", "rental_uris": {"android": "https://dc.lft.to/lastmile_qr_scan", "ios": "https://dc.lft.to/lastmile_qr_scan"}, "name": "1270eb37f30d82033fdb2b708b7fa565", "is_reserved": 0}, {"is_disabled": 0, "fusion_lon": 0.0, "fusion_lat": 0.0, "lat": 38.9091945, "type": "electric_scooter", "lon": -77.0320065, "bike_id": "bdf259e01bfa1697c3749d5d17e893dc", "rental_uris": {"android": "https://dc.lft.to/lastmile_qr_scan", "ios": "https://dc.lft.to/lastmile_qr_scan"}, "name": "bdf259e01bfa1697c3749d5d17e893dc", "is_reserved": 0}, {"is_disabled": 0, "fusion_lon": 0.0, "fusion_lat": 0.0, "lat": 38.94984083333333, "type": "electric_scooter", "lon": -77.02703833333334, "bike_id": "bcd418e24c5e1a41ede9a0802dc93284", "rental_uris": {"android": "https://dc.lft.to/lastmile_qr_scan", "ios": "https://dc.lft.to/lastmile_qr_scan"}, "name": "bcd418e24c5e1a41ede9a0802dc93284", "is_reserved": 0}, {"is_disabled": 0, "fusion_lon": 0.0, "fusion_lat": 0.0, "lat": 38.8916465, "type": "electric_scooter", "lon": -77.01542266666667, "bike_id": "4f5ed313d549e05bc1e5f42c372d4e7e", "rental_uris": {"android": "https://dc.lft.to/lastmile_qr_scan", "ios": "https://dc.lft.to/lastmile_qr_scan"}, "name": "4f5ed313d549e05bc1e5f42c372d4e7e", "is_reserved": 0}, {"is_disabled": 0, "fusion_lon": 0.0, "fusion_lat": 0.0, "lat": 38.89218983333333, "type": "electric_scooter", "lon": -77.0226345, "bike_id": "338903ea34baae176f16d41553197d09", "rental_uris": {"android": "https://dc.lft.to/lastmile_qr_scan", "ios": "https://dc.lft.to/lastmile_qr_scan"}, "name": "338903ea34baae176f16d41553197d09", "is_reserved": 0}, {"is_disabled": 0, "fusion_lon": 0.0, "fusion_lat": 0.0, "lat": 38.910325666666665, "type": "electric_scooter", "lon": -77.01379133333333, "bike_id": "26bf7a9d75d69ab70d9431dd99f5b2ff", "rental_uris": {"android": "https://dc.lft.to/lastmile_qr_scan", "ios": "https://dc.lft.to/lastmile_qr_scan"}, "name": "26bf7a9d75d69ab70d9431dd99f5b2ff", "is_reserved": 0}, {"is_disabled": 0, "fusion_lon": 0.0, "fusion_lat": 0.0, "lat": 38.89757733333333, "type": "electric_scooter", "lon": -77.0265765, "bike_id": "c6974bb3ea5fe70f736eb785b6e0fe8c", "rental_uris": {"android": "https://dc.lft.to/lastmile_qr_scan", "ios": "https://dc.lft.to/lastmile_qr_scan"}, "name": "c6974bb3ea5fe70f736eb785b6e0fe8c", "is_reserved": 0}, {"is_disabled": 0, "fusion_lon": 0.0, "fusion_lat": 0.0, "lat": 38.9234525, "type": "electric_bike", "lon": -76.99248866666667, "bike_id": "966b0ddc76c563126a2ace770d725e52", "rental_uris": {"android": "https://dc.lft.to/lastmile_qr_scan", "ios": "https://dc.lft.to/lastmile_qr_scan"}, "name": "966b0ddc76c563126a2ace770d725e52", "is_reserved": 0}, {"is_disabled": 0, "fusion_lon": 0.0, "fusion_lat": 0.0, "lat": 38.92035033333333, "type": "electric_scooter", "lon": -77.048162, "bike_id": "2224fa8e14e30588a896cc8ddde2373f", "rental_uris": {"android": "https://dc.lft.to/lastmile_qr_scan", "ios": "https://dc.lft.to/lastmile_qr_scan"}, "name": "2224fa8e14e30588a896cc8ddde2373f", "is_reserved": 0}, {"is_disabled": 0, "fusion_lon": 0.0, "fusion_lat": 0.0, "lat": 38.8967595, "type": "electric_scooter", "lon": -77.011911, "bike_id": "c61ceec5fffb8f387264273c046be8c3", "rental_uris": {"android": "https://dc.lft.to/lastmile_qr_scan", "ios": "https://dc.lft.to/lastmile_qr_scan"}, "name": "c61ceec5fffb8f387264273c046be8c3", "is_reserved": 0}, {"is_disabled": 0, "fusion_lon": 0.0, "fusion_lat": 0.0, "lat": 38.9036205, "type": "electric_scooter", "lon": -77.022033, "bike_id": "c843e5208741aa8d26ee25f911c13ec4", "rental_uris": {"android": "https://dc.lft.to/lastmile_qr_scan", "ios": "https://dc.lft.to/lastmile_qr_scan"}, "name": "c843e5208741aa8d26ee25f911c13ec4", "is_reserved": 0}, {"is_disabled": 0, "fusion_lon": 0.0, "fusion_lat": 0.0, "lat": 38.88411583333333, "type": "electric_scooter", "lon": -77.03298866666667, "bike_id": "09a062acf26f431647b8767a3271c3a2", "rental_uris": {"android": "https://dc.lft.to/lastmile_qr_scan", "ios": "https://dc.lft.to/lastmile_qr_scan"}, "name": "09a062acf26f431647b8767a3271c3a2", "is_reserved": 0}, {"is_disabled": 0, "fusion_lon": 0.0, "fusion_lat": 0.0, "lat": 38.990718666666666, "type": "electric_bike", "lon": -77.02374883333333, "bike_id": "8646d1ea7459d458e9ee94972443099e", "rental_uris": {"android": "https://dc.lft.to/lastmile_qr_scan", "ios": "https://dc.lft.to/lastmile_qr_scan"}, "name": "8646d1ea7459d458e9ee94972443099e", "is_reserved": 0}, {"is_disabled": 0, "fusion_lon": 0.0, "fusion_lat": 0.0, "lat": 38.9178785, "type": "electric_scooter", "lon": -77.0435885, "bike_id": "a5972fa54f02fe56de0a6f4af065fb20", "rental_uris": {"android": "https://dc.lft.to/lastmile_qr_scan", "ios": "https://dc.lft.to/lastmile_qr_scan"}, "name": "a5972fa54f02fe56de0a6f4af065fb20", "is_reserved": 0}, {"is_disabled": 0, "fusion_lon": 0.0, "fusion_lat": 0.0, "lat": 38.905267333333335, "type": "electric_scooter", "lon": -77.04752416666666, "bike_id": "1552ed3f2a133bce53d113072b56277a", "rental_uris": {"android": "https://dc.lft.to/lastmile_qr_scan", "ios": "https://dc.lft.to/lastmile_qr_scan"}, "name": "1552ed3f2a133bce53d113072b56277a", "is_reserved": 0}, {"is_disabled": 0, "fusion_lon": 0.0, "fusion_lat": 0.0, "lat": 38.90977866666667, "type": "electric_bike", "lon": -77.08827133333334, "bike_id": "315f700f3e0c4dd75abff7217ff06d12", "rental_uris": {"android": "https://dc.lft.to/lastmile_qr_scan", "ios": "https://dc.lft.to/lastmile_qr_scan"}, "name": "315f700f3e0c4dd75abff7217ff06d12", "is_reserved": 0}, {"is_disabled": 0, "fusion_lon": 0.0, "fusion_lat": 0.0, "lat": 38.88128283333333, "type": "electric_scooter", "lon": -77.02079666666667, "bike_id": "3280bce93599ea2fd4494a080a4dd65b", "rental_uris": {"android": "https://dc.lft.to/lastmile_qr_scan", "ios": "https://dc.lft.to/lastmile_qr_scan"}, "name": "3280bce93599ea2fd4494a080a4dd65b", "is_reserved": 0}, {"is_disabled": 0, "fusion_lon": 0.0, "fusion_lat": 0.0, "lat": 38.9216465, "type": "electric_scooter", "lon": -77.04368883333333, "bike_id": "e40925c258801e6d71aa47a6ed2a416e", "rental_uris": {"android": "https://dc.lft.to/lastmile_qr_scan", "ios": "https://dc.lft.to/lastmile_qr_scan"}, "name": "e40925c258801e6d71aa47a6ed2a416e", "is_reserved": 0}, {"is_disabled": 0, "fusion_lon": 0.0, "fusion_lat": 0.0, "lat": 38.901980333333334, "type": "electric_scooter", "lon": -77.03918266666666, "bike_id": "98ad8463df9b1e700675c1ef868a4827", "rental_uris": {"android": "https://dc.lft.to/lastmile_qr_scan", "ios": "https://dc.lft.to/lastmile_qr_scan"}, "name": "98ad8463df9b1e700675c1ef868a4827", "is_reserved": 0}, {"is_disabled": 0, "fusion_lon": 0.0, "fusion_lat": 0.0, "lat": 38.8800485, "type": "electric_scooter", "lon": -77.005872, "bike_id": "c84ead12ab62d6327f90d1d9a62f234c", "rental_uris": {"android": "https://dc.lft.to/lastmile_qr_scan", "ios": "https://dc.lft.to/lastmile_qr_scan"}, "name": "c84ead12ab62d6327f90d1d9a62f234c", "is_reserved": 0}, {"is_disabled": 0, "fusion_lon": 0.0, "fusion_lat": 0.0, "lat": 38.93705533333333, "type": "electric_scooter", "lon": -77.0240115, "bike_id": "4bc2aeeda60c1601bd52addb1314f916", "rental_uris": {"android": "https://dc.lft.to/lastmile_qr_scan", "ios": "https://dc.lft.to/lastmile_qr_scan"}, "name": "4bc2aeeda60c1601bd52addb1314f916", "is_reserved": 0}, {"is_disabled": 0, "fusion_lon": 0.0, "fusion_lat": 0.0, "lat": 38.88568583333333, "type": "electric_scooter", "lon": -77.00070633333333, "bike_id": "1a7284203258f3eeed3e1fbfca35d899", "rental_uris": {"android": "https://dc.lft.to/lastmile_qr_scan", "ios": "https://dc.lft.to/lastmile_qr_scan"}, "name": "1a7284203258f3eeed3e1fbfca35d899", "is_reserved": 0}, {"is_disabled": 0, "fusion_lon": 0.0, "fusion_lat": 0.0, "lat": 38.97047333333333, "type": "electric_bike", "lon": -76.9608765, "bike_id": "95c2a92150802c664a9bc5c92c35e0cf", "rental_uris": {"android": "https://dc.lft.to/lastmile_qr_scan", "ios": "https://dc.lft.to/lastmile_qr_scan"}, "name": "95c2a92150802c664a9bc5c92c35e0cf", "is_reserved": 0}, {"is_disabled": 0, "fusion_lon": 0.0, "fusion_lat": 0.0, "lat": 38.917334833333335, "type": "electric_scooter", "lon": -76.99180666666666, "bike_id": "6a83203d16ab08c311b47b277916d938", "rental_uris": {"android": "https://dc.lft.to/lastmile_qr_scan", "ios": "https://dc.lft.to/lastmile_qr_scan"}, "name": "6a83203d16ab08c311b47b277916d938", "is_reserved": 0}, {"is_disabled": 0, "fusion_lon": 0.0, "fusion_lat": 0.0, "lat": 38.94806066666666, "type": "electric_bike", "lon": -76.97210583333333, "bike_id": "00b5f361a2d760fcb1383f10ebc1073c", "rental_uris": {"android": "https://dc.lft.to/lastmile_qr_scan", "ios": "https://dc.lft.to/lastmile_qr_scan"}, "name": "00b5f361a2d760fcb1383f10ebc1073c", "is_reserved": 0}, {"is_disabled": 0, "fusion_lon": 0.0, "fusion_lat": 0.0, "lat": 38.901629166666666, "type": "electric_scooter", "lon": -76.99381233333334, "bike_id": "e5ae807b3182fdc12736b9b2d71f2fbf", "rental_uris": {"android": "https://dc.lft.to/lastmile_qr_scan", "ios": "https://dc.lft.to/lastmile_qr_scan"}, "name": "e5ae807b3182fdc12736b9b2d71f2fbf", "is_reserved": 0}, {"is_disabled": 0, "fusion_lon": 0.0, "fusion_lat": 0.0, "lat": 38.91198083333333, "type": "electric_scooter", "lon": -76.98477783333334, "bike_id": "d081194976c66de347a95052a8535306", "rental_uris": {"android": "https://dc.lft.to/lastmile_qr_scan", "ios": "https://dc.lft.to/lastmile_qr_scan"}, "name": "d081194976c66de347a95052a8535306", "is_reserved": 0}, {"is_disabled": 0, "fusion_lon": 0.0, "fusion_lat": 0.0, "lat": 38.887534333333335, "type": "electric_scooter", "lon": -77.0022265, "bike_id": "4df087e492d6fef88e9edd2187152150", "rental_uris": {"android": "https://dc.lft.to/lastmile_qr_scan", "ios": "https://dc.lft.to/lastmile_qr_scan"}, "name": "4df087e492d6fef88e9edd2187152150", "is_reserved": 0}, {"is_disabled": 0, "fusion_lon": 0.0, "fusion_lat": 0.0, "lat": 38.9062135, "type": "electric_scooter", "lon": -77.02414483333334, "bike_id": "95b51596a742943ef067d1a23ba03ec6", "rental_uris": {"android": "https://dc.lft.to/lastmile_qr_scan", "ios": "https://dc.lft.to/lastmile_qr_scan"}, "name": "95b51596a742943ef067d1a23ba03ec6", "is_reserved": 0}, {"is_disabled": 0, "fusion_lon": 0.0, "fusion_lat": 0.0, "lat": 38.9058205, "type": "electric_scooter", "lon": -77.05142333333333, "bike_id": "27dad905aedb1fa8246fba0622609c54", "rental_uris": {"android": "https://dc.lft.to/lastmile_qr_scan", "ios": "https://dc.lft.to/lastmile_qr_scan"}, "name": "27dad905aedb1fa8246fba0622609c54", "is_reserved": 0}, {"is_disabled": 0, "fusion_lon": 0.0, "fusion_lat": 0.0, "lat": 38.900597166666664, "type": "electric_scooter", "lon": -77.00760133333333, "bike_id": "04b7845724e6f66c11ccb0b8e14594ad", "rental_uris": {"android": "https://dc.lft.to/lastmile_qr_scan", "ios": "https://dc.lft.to/lastmile_qr_scan"}, "name": "04b7845724e6f66c11ccb0b8e14594ad", "is_reserved": 0}, {"is_disabled": 0, "fusion_lon": 0.0, "fusion_lat": 0.0, "lat": 38.9118335, "type": "electric_scooter", "lon": -77.04176583333333, "bike_id": "6bdb09e164321628d1eab8bad93a2f44", "rental_uris": {"android": "https://dc.lft.to/lastmile_qr_scan", "ios": "https://dc.lft.to/lastmile_qr_scan"}, "name": "6bdb09e164321628d1eab8bad93a2f44", "is_reserved": 0}, {"is_disabled": 0, "fusion_lon": 0.0, "fusion_lat": 0.0, "lat": 38.87774533333334, "type": "electric_scooter", "lon": -77.01433033333333, "bike_id": "834d4f8d5ecd951425bf63acdbe0eec4", "rental_uris": {"android": "https://dc.lft.to/lastmile_qr_scan", "ios": "https://dc.lft.to/lastmile_qr_scan"}, "name": "834d4f8d5ecd951425bf63acdbe0eec4", "is_reserved": 0}, {"is_disabled": 0, "fusion_lon": 0.0, "fusion_lat": 0.0, "lat": 38.9369985, "type": "electric_scooter", "lon": -77.06105116666667, "bike_id": "e736ee97ed4b97bb2df8ef3dad3e1558", "rental_uris": {"android": "https://dc.lft.to/lastmile_qr_scan", "ios": "https://dc.lft.to/lastmile_qr_scan"}, "name": "e736ee97ed4b97bb2df8ef3dad3e1558", "is_reserved": 0}, {"is_disabled": 0, "fusion_lon": 0.0, "fusion_lat": 0.0, "lat": 38.90211133333333, "type": "electric_scooter", "lon": -77.0236915, "bike_id": "4ecc22bd7558e267776a74b12090eec2", "rental_uris": {"android": "https://dc.lft.to/lastmile_qr_scan", "ios": "https://dc.lft.to/lastmile_qr_scan"}, "name": "4ecc22bd7558e267776a74b12090eec2", "is_reserved": 0}, {"is_disabled": 0, "fusion_lon": 0.0, "fusion_lat": 0.0, "lat": 38.84879683333333, "type": "electric_scooter", "lon": -77.00517383333333, "bike_id": "ef08aed8f2d3390438ac8e49dbba879f", "rental_uris": {"android": "https://dc.lft.to/lastmile_qr_scan", "ios": "https://dc.lft.to/lastmile_qr_scan"}, "name": "ef08aed8f2d3390438ac8e49dbba879f", "is_reserved": 0}, {"is_disabled": 0, "fusion_lon": 0.0, "fusion_lat": 0.0, "lat": 38.897320666666666, "type": "electric_scooter", "lon": -77.00757033333333, "bike_id": "0bd973170dcee2d9b5565579f8b6341f", "rental_uris": {"android": "https://dc.lft.to/lastmile_qr_scan", "ios": "https://dc.lft.to/lastmile_qr_scan"}, "name": "0bd973170dcee2d9b5565579f8b6341f", "is_reserved": 0}, {"is_disabled": 0, "fusion_lon": 0.0, "fusion_lat": 0.0, "lat": 38.981302666666664, "type": "electric_bike", "lon": -77.00776716666667, "bike_id": "c57ec304f43ec89434b7b2f118d4a99c", "rental_uris": {"android": "https://dc.lft.to/lastmile_qr_scan", "ios": "https://dc.lft.to/lastmile_qr_scan"}, "name": "c57ec304f43ec89434b7b2f118d4a99c", "is_reserved": 0}, {"is_disabled": 0, "fusion_lon": 0.0, "fusion_lat": 0.0, "lat": 38.91813166666667, "type": "electric_scooter", "lon": -77.04001583333333, "bike_id": "4b1faf06d88d61230ffe42cfc7635e56", "rental_uris": {"android": "https://dc.lft.to/lastmile_qr_scan", "ios": "https://dc.lft.to/lastmile_qr_scan"}, "name": "4b1faf06d88d61230ffe42cfc7635e56", "is_reserved": 0}, {"is_disabled": 0, "fusion_lon": 0.0, "fusion_lat": 0.0, "lat": 38.941758, "type": "electric_scooter", "lon": -77.0365535, "bike_id": "7685e6cc4e9e80523e9f883034ed715f", "rental_uris": {"android": "https://dc.lft.to/lastmile_qr_scan", "ios": "https://dc.lft.to/lastmile_qr_scan"}, "name": "7685e6cc4e9e80523e9f883034ed715f", "is_reserved": 0}, {"is_disabled": 0, "fusion_lon": 0.0, "fusion_lat": 0.0, "lat": 38.897857, "type": "electric_scooter", "lon": -77.0248125, "bike_id": "337dca85de19387ef42d1a570b9e1801", "rental_uris": {"android": "https://dc.lft.to/lastmile_qr_scan", "ios": "https://dc.lft.to/lastmile_qr_scan"}, "name": "337dca85de19387ef42d1a570b9e1801", "is_reserved": 0}, {"is_disabled": 0, "fusion_lon": 0.0, "fusion_lat": 0.0, "lat": 38.95647833333334, "type": "electric_scooter", "lon": -77.01498266666667, "bike_id": "e148a3795e060786043a295adec0942f", "rental_uris": {"android": "https://dc.lft.to/lastmile_qr_scan", "ios": "https://dc.lft.to/lastmile_qr_scan"}, "name": "e148a3795e060786043a295adec0942f", "is_reserved": 0}, {"is_disabled": 0, "fusion_lon": 0.0, "fusion_lat": 0.0, "lat": 38.9021595, "type": "electric_scooter", "lon": -77.047623, "bike_id": "b81fd660f265c3f7862ecc46601762d1", "rental_uris": {"android": "https://dc.lft.to/lastmile_qr_scan", "ios": "https://dc.lft.to/lastmile_qr_scan"}, "name": "b81fd660f265c3f7862ecc46601762d1", "is_reserved": 0}, {"is_disabled": 0, "fusion_lon": 0.0, "fusion_lat": 0.0, "lat": 38.92154583333333, "type": "electric_scooter", "lon": -77.03382933333333, "bike_id": "4e579fd8ecad21cc7a703d403c920c8b", "rental_uris": {"android": "https://dc.lft.to/lastmile_qr_scan", "ios": "https://dc.lft.to/lastmile_qr_scan"}, "name": "4e579fd8ecad21cc7a703d403c920c8b", "is_reserved": 0}, {"is_disabled": 0, "fusion_lon": 0.0, "fusion_lat": 0.0, "lat": 38.900332166666665, "type": "electric_scooter", "lon": -76.998692, "bike_id": "35e07ed893bef7f3b16026936ef15070", "rental_uris": {"android": "https://dc.lft.to/lastmile_qr_scan", "ios": "https://dc.lft.to/lastmile_qr_scan"}, "name": "35e07ed893bef7f3b16026936ef15070", "is_reserved": 0}, {"is_disabled": 0, "fusion_lon": 0.0, "fusion_lat": 0.0, "lat": 38.92905183333333, "type": "electric_scooter", "lon": -77.031739, "bike_id": "9e7fe4401bd1c1aad91f012657d1a98e", "rental_uris": {"android": "https://dc.lft.to/lastmile_qr_scan", "ios": "https://dc.lft.to/lastmile_qr_scan"}, "name": "9e7fe4401bd1c1aad91f012657d1a98e", "is_reserved": 0}, {"is_disabled": 0, "fusion_lon": 0.0, "fusion_lat": 0.0, "lat": 38.92587116666667, "type": "electric_scooter", "lon": -77.02288583333333, "bike_id": "2c1687b589934d861571b252eacd886c", "rental_uris": {"android": "https://dc.lft.to/lastmile_qr_scan", "ios": "https://dc.lft.to/lastmile_qr_scan"}, "name": "2c1687b589934d861571b252eacd886c", "is_reserved": 0}, {"is_disabled": 0, "fusion_lon": 0.0, "fusion_lat": 0.0, "lat": 38.89948783333333, "type": "electric_scooter", "lon": -77.046109, "bike_id": "77b13ff8782f88b519f7209b77026a2b", "rental_uris": {"android": "https://dc.lft.to/lastmile_qr_scan", "ios": "https://dc.lft.to/lastmile_qr_scan"}, "name": "77b13ff8782f88b519f7209b77026a2b", "is_reserved": 0}, {"is_disabled": 0, "fusion_lon": 0.0, "fusion_lat": 0.0, "lat": 38.92101616666667, "type": "electric_scooter", "lon": -77.0305475, "bike_id": "68105df976bf5af6cd30037867545378", "rental_uris": {"android": "https://dc.lft.to/lastmile_qr_scan", "ios": "https://dc.lft.to/lastmile_qr_scan"}, "name": "68105df976bf5af6cd30037867545378", "is_reserved": 0}, {"is_disabled": 0, "fusion_lon": 0.0, "fusion_lat": 0.0, "lat": 38.90823183333333, "type": "electric_scooter", "lon": -77.04160266666666, "bike_id": "6901bf31b09b451ff0ae6a2e741e9834", "rental_uris": {"android": "https://dc.lft.to/lastmile_qr_scan", "ios": "https://dc.lft.to/lastmile_qr_scan"}, "name": "6901bf31b09b451ff0ae6a2e741e9834", "is_reserved": 0}, {"is_disabled": 0, "fusion_lon": 0.0, "fusion_lat": 0.0, "lat": 38.93144916666667, "type": "electric_scooter", "lon": -77.03452616666667, "bike_id": "66cd57fd4d0dc8c0a284e34a0b269508", "rental_uris": {"android": "https://dc.lft.to/lastmile_qr_scan", "ios": "https://dc.lft.to/lastmile_qr_scan"}, "name": "66cd57fd4d0dc8c0a284e34a0b269508", "is_reserved": 0}, {"is_disabled": 0, "fusion_lon": 0.0, "fusion_lat": 0.0, "lat": 38.8762435, "type": "electric_scooter", "lon": -77.01560633333334, "bike_id": "f986e14d26fdcd72a757af6d097e9b50", "rental_uris": {"android": "https://dc.lft.to/lastmile_qr_scan", "ios": "https://dc.lft.to/lastmile_qr_scan"}, "name": "f986e14d26fdcd72a757af6d097e9b50", "is_reserved": 0}, {"is_disabled": 0, "fusion_lon": 0.0, "fusion_lat": 0.0, "lat": 38.90969183333333, "type": "electric_scooter", "lon": -77.08072866666667, "bike_id": "f88e4c6afdc7481610e2062458ff24df", "rental_uris": {"android": "https://dc.lft.to/lastmile_qr_scan", "ios": "https://dc.lft.to/lastmile_qr_scan"}, "name": "f88e4c6afdc7481610e2062458ff24df", "is_reserved": 0}, {"is_disabled": 0, "fusion_lon": 0.0, "fusion_lat": 0.0, "lat": 38.9044095, "type": "electric_scooter", "lon": -77.0289955, "bike_id": "38380ed2a4b46b9eb6d3a33ac85c9f2b", "rental_uris": {"android": "https://dc.lft.to/lastmile_qr_scan", "ios": "https://dc.lft.to/lastmile_qr_scan"}, "name": "38380ed2a4b46b9eb6d3a33ac85c9f2b", "is_reserved": 0}, {"is_disabled": 0, "fusion_lon": 0.0, "fusion_lat": 0.0, "lat": 38.898261833333336, "type": "electric_scooter", "lon": -76.946555, "bike_id": "8e463f0f19f88002cefaaf13bac3c32f", "rental_uris": {"android": "https://dc.lft.to/lastmile_qr_scan", "ios": "https://dc.lft.to/lastmile_qr_scan"}, "name": "8e463f0f19f88002cefaaf13bac3c32f", "is_reserved": 0}, {"is_disabled": 0, "fusion_lon": 0.0, "fusion_lat": 0.0, "lat": 38.882290833333336, "type": "electric_bike", "lon": -77.11270933333333, "bike_id": "fd297473909d5e53fe116e7aa533b04c", "rental_uris": {"android": "https://dc.lft.to/lastmile_qr_scan", "ios": "https://dc.lft.to/lastmile_qr_scan"}, "name": "fd297473909d5e53fe116e7aa533b04c", "is_reserved": 0}, {"is_disabled": 0, "fusion_lon": 0.0, "fusion_lat": 0.0, "lat": 38.90046916666667, "type": "electric_scooter", "lon": -77.00067166666666, "bike_id": "04572cc6e72724c1a3012dc22bf5b17d", "rental_uris": {"android": "https://dc.lft.to/lastmile_qr_scan", "ios": "https://dc.lft.to/lastmile_qr_scan"}, "name": "04572cc6e72724c1a3012dc22bf5b17d", "is_reserved": 0}, {"is_disabled": 0, "fusion_lon": 0.0, "fusion_lat": 0.0, "lat": 38.9530775, "type": "electric_scooter", "lon": -77.03601416666666, "bike_id": "5422c06f31c7ecc1faff883d5fac252b", "rental_uris": {"android": "https://dc.lft.to/lastmile_qr_scan", "ios": "https://dc.lft.to/lastmile_qr_scan"}, "name": "5422c06f31c7ecc1faff883d5fac252b", "is_reserved": 0}, {"is_disabled": 0, "fusion_lon": 0.0, "fusion_lat": 0.0, "lat": 38.903115666666665, "type": "electric_scooter", "lon": -77.019072, "bike_id": "f6771f60399dad3336e2fd8e8d6f7487", "rental_uris": {"android": "https://dc.lft.to/lastmile_qr_scan", "ios": "https://dc.lft.to/lastmile_qr_scan"}, "name": "f6771f60399dad3336e2fd8e8d6f7487", "is_reserved": 0}, {"is_disabled": 0, "fusion_lon": 0.0, "fusion_lat": 0.0, "lat": 38.910842333333335, "type": "electric_scooter", "lon": -77.0385355, "bike_id": "563d12ac96584d1c3c30549db22040bd", "rental_uris": {"android": "https://dc.lft.to/lastmile_qr_scan", "ios": "https://dc.lft.to/lastmile_qr_scan"}, "name": "563d12ac96584d1c3c30549db22040bd", "is_reserved": 0}, {"is_disabled": 0, "fusion_lon": 0.0, "fusion_lat": 0.0, "lat": 38.833212833333334, "type": "electric_scooter", "lon": -77.00004666666666, "bike_id": "a9364488b686dd3e08261b394daeaf64", "rental_uris": {"android": "https://dc.lft.to/lastmile_qr_scan", "ios": "https://dc.lft.to/lastmile_qr_scan"}, "name": "a9364488b686dd3e08261b394daeaf64", "is_reserved": 0}, {"is_disabled": 0, "fusion_lon": 0.0, "fusion_lat": 0.0, "lat": 38.8702995, "type": "electric_scooter", "lon": -77.0107385, "bike_id": "456205bc5bc625e648036c678bb3eef2", "rental_uris": {"android": "https://dc.lft.to/lastmile_qr_scan", "ios": "https://dc.lft.to/lastmile_qr_scan"}, "name": "456205bc5bc625e648036c678bb3eef2", "is_reserved": 0}, {"is_disabled": 0, "fusion_lon": 0.0, "fusion_lat": 0.0, "lat": 38.92820966666667, "type": "electric_scooter", "lon": -77.03714683333334, "bike_id": "783b474dc0144cf16b08f483c1a6a2ae", "rental_uris": {"android": "https://dc.lft.to/lastmile_qr_scan", "ios": "https://dc.lft.to/lastmile_qr_scan"}, "name": "783b474dc0144cf16b08f483c1a6a2ae", "is_reserved": 0}, {"is_disabled": 0, "fusion_lon": 0.0, "fusion_lat": 0.0, "lat": 38.91708533333333, "type": "electric_scooter", "lon": -77.0244465, "bike_id": "09c5f8dd93835dac8ecec603afa8855a", "rental_uris": {"android": "https://dc.lft.to/lastmile_qr_scan", "ios": "https://dc.lft.to/lastmile_qr_scan"}, "name": "09c5f8dd93835dac8ecec603afa8855a", "is_reserved": 0}, {"is_disabled": 0, "fusion_lon": 0.0, "fusion_lat": 0.0, "lat": 38.9258985, "type": "electric_scooter", "lon": -77.0553865, "bike_id": "85b96854429b87d9ecf7172f616f9ce6", "rental_uris": {"android": "https://dc.lft.to/lastmile_qr_scan", "ios": "https://dc.lft.to/lastmile_qr_scan"}, "name": "85b96854429b87d9ecf7172f616f9ce6", "is_reserved": 0}, {"is_disabled": 0, "fusion_lon": 0.0, "fusion_lat": 0.0, "lat": 38.95178533333333, "type": "electric_scooter", "lon": -77.05657466666666, "bike_id": "32422edd8fdd6717b279a58b76d59085", "rental_uris": {"android": "https://dc.lft.to/lastmile_qr_scan", "ios": "https://dc.lft.to/lastmile_qr_scan"}, "name": "32422edd8fdd6717b279a58b76d59085", "is_reserved": 0}, {"is_disabled": 0, "fusion_lon": 0.0, "fusion_lat": 0.0, "lat": 38.8319195, "type": "electric_bike", "lon": -77.07682816666667, "bike_id": "dacd9d0700f625914eae11736ea71dc0", "rental_uris": {"android": "https://dc.lft.to/lastmile_qr_scan", "ios": "https://dc.lft.to/lastmile_qr_scan"}, "name": "dacd9d0700f625914eae11736ea71dc0", "is_reserved": 0}, {"is_disabled": 0, "fusion_lon": 0.0, "fusion_lat": 0.0, "lat": 38.955448833333335, "type": "electric_bike", "lon": -76.935333, "bike_id": "0f852813c33d158d954b4bf8ea0739f0", "rental_uris": {"android": "https://dc.lft.to/lastmile_qr_scan", "ios": "https://dc.lft.to/lastmile_qr_scan"}, "name": "0f852813c33d158d954b4bf8ea0739f0", "is_reserved": 0}, {"is_disabled": 0, "fusion_lon": 0.0, "fusion_lat": 0.0, "lat": 38.828767, "type": "electric_bike", "lon": -77.1121915, "bike_id": "c627ebbd743e02b3526a467d9619f9a5", "rental_uris": {"android": "https://dc.lft.to/lastmile_qr_scan", "ios": "https://dc.lft.to/lastmile_qr_scan"}, "name": "c627ebbd743e02b3526a467d9619f9a5", "is_reserved": 0}, {"is_disabled": 0, "fusion_lon": 0.0, "fusion_lat": 0.0, "lat": 38.913312, "type": "electric_scooter", "lon": -77.04865966666667, "bike_id": "f661c396b780540779288af2655bdc20", "rental_uris": {"android": "https://dc.lft.to/lastmile_qr_scan", "ios": "https://dc.lft.to/lastmile_qr_scan"}, "name": "f661c396b780540779288af2655bdc20", "is_reserved": 0}, {"is_disabled": 0, "fusion_lon": 0.0, "fusion_lat": 0.0, "lat": 38.89745516666667, "type": "electric_scooter", "lon": -77.025069, "bike_id": "1ecfce2bfd15b0012d3bb34fa5c1020a", "rental_uris": {"android": "https://dc.lft.to/lastmile_qr_scan", "ios": "https://dc.lft.to/lastmile_qr_scan"}, "name": "1ecfce2bfd15b0012d3bb34fa5c1020a", "is_reserved": 0}, {"is_disabled": 0, "fusion_lon": 0.0, "fusion_lat": 0.0, "lat": 38.92021283333333, "type": "electric_scooter", "lon": -77.03194533333334, "bike_id": "de4cfc107b8995d96a8d377077e47861", "rental_uris": {"android": "https://dc.lft.to/lastmile_qr_scan", "ios": "https://dc.lft.to/lastmile_qr_scan"}, "name": "de4cfc107b8995d96a8d377077e47861", "is_reserved": 0}, {"is_disabled": 0, "fusion_lon": 0.0, "fusion_lat": 0.0, "lat": 38.87731766666667, "type": "electric_scooter", "lon": -77.00052833333334, "bike_id": "57fbc6bbdbc2c7360f7b0ef4acb125cb", "rental_uris": {"android": "https://dc.lft.to/lastmile_qr_scan", "ios": "https://dc.lft.to/lastmile_qr_scan"}, "name": "57fbc6bbdbc2c7360f7b0ef4acb125cb", "is_reserved": 0}, {"is_disabled": 0, "fusion_lon": 0.0, "fusion_lat": 0.0, "lat": 38.8987325, "type": "electric_scooter", "lon": -76.9318465, "bike_id": "8d2e695e67465383c4082ede23f14ba0", "rental_uris": {"android": "https://dc.lft.to/lastmile_qr_scan", "ios": "https://dc.lft.to/lastmile_qr_scan"}, "name": "8d2e695e67465383c4082ede23f14ba0", "is_reserved": 0}, {"is_disabled": 0, "fusion_lon": 0.0, "fusion_lat": 0.0, "lat": 38.909467166666666, "type": "electric_scooter", "lon": -77.04749616666666, "bike_id": "c53e623ddd590f10414749d03b15ac75", "rental_uris": {"android": "https://dc.lft.to/lastmile_qr_scan", "ios": "https://dc.lft.to/lastmile_qr_scan"}, "name": "c53e623ddd590f10414749d03b15ac75", "is_reserved": 0}, {"is_disabled": 0, "fusion_lon": 0.0, "fusion_lat": 0.0, "lat": 38.980262833333335, "type": "electric_bike", "lon": -76.92916683333334, "bike_id": "36de2072ee24409e82bc7301bccf19c9", "rental_uris": {"android": "https://dc.lft.to/lastmile_qr_scan", "ios": "https://dc.lft.to/lastmile_qr_scan"}, "name": "36de2072ee24409e82bc7301bccf19c9", "is_reserved": 0}, {"is_disabled": 0, "fusion_lon": 0.0, "fusion_lat": 0.0, "lat": 38.907066, "type": "electric_scooter", "lon": -77.06322466666667, "bike_id": "5a17775391c0fb2bfb6e06879d07d935", "rental_uris": {"android": "https://dc.lft.to/lastmile_qr_scan", "ios": "https://dc.lft.to/lastmile_qr_scan"}, "name": "5a17775391c0fb2bfb6e06879d07d935", "is_reserved": 0}, {"is_disabled": 0, "fusion_lon": 0.0, "fusion_lat": 0.0, "lat": 38.8957135, "type": "electric_scooter", "lon": -77.00454116666667, "bike_id": "bd3eff66ca68966fa055570e2eaca734", "rental_uris": {"android": "https://dc.lft.to/lastmile_qr_scan", "ios": "https://dc.lft.to/lastmile_qr_scan"}, "name": "bd3eff66ca68966fa055570e2eaca734", "is_reserved": 0}, {"is_disabled": 0, "fusion_lon": 0.0, "fusion_lat": 0.0, "lat": 38.89309683333333, "type": "electric_scooter", "lon": -77.02207316666667, "bike_id": "a16421e45edbb420d54758d175c10961", "rental_uris": {"android": "https://dc.lft.to/lastmile_qr_scan", "ios": "https://dc.lft.to/lastmile_qr_scan"}, "name": "a16421e45edbb420d54758d175c10961", "is_reserved": 0}, {"is_disabled": 0, "fusion_lon": 0.0, "fusion_lat": 0.0, "lat": 38.902829833333335, "type": "electric_scooter", "lon": -77.02429866666667, "bike_id": "9855bd0f885162c0e308ca12205269ef", "rental_uris": {"android": "https://dc.lft.to/lastmile_qr_scan", "ios": "https://dc.lft.to/lastmile_qr_scan"}, "name": "9855bd0f885162c0e308ca12205269ef", "is_reserved": 0}, {"is_disabled": 0, "fusion_lon": 0.0, "fusion_lat": 0.0, "lat": 38.85876833333333, "type": "electric_scooter", "lon": -76.9903485, "bike_id": "c45bf7216250953132dfbc8460a50e08", "rental_uris": {"android": "https://dc.lft.to/lastmile_qr_scan", "ios": "https://dc.lft.to/lastmile_qr_scan"}, "name": "c45bf7216250953132dfbc8460a50e08", "is_reserved": 0}, {"is_disabled": 0, "fusion_lon": 0.0, "fusion_lat": 0.0, "lat": 38.915653166666665, "type": "electric_scooter", "lon": -77.01206533333334, "bike_id": "ad56f2fbfa04c075b09116e1cbfb83da", "rental_uris": {"android": "https://dc.lft.to/lastmile_qr_scan", "ios": "https://dc.lft.to/lastmile_qr_scan"}, "name": "ad56f2fbfa04c075b09116e1cbfb83da", "is_reserved": 0}, {"is_disabled": 0, "fusion_lon": 0.0, "fusion_lat": 0.0, "lat": 38.91741866666667, "type": "electric_scooter", "lon": -77.0319895, "bike_id": "b18887830b157db578ddcb99edba5058", "rental_uris": {"android": "https://dc.lft.to/lastmile_qr_scan", "ios": "https://dc.lft.to/lastmile_qr_scan"}, "name": "b18887830b157db578ddcb99edba5058", "is_reserved": 0}, {"is_disabled": 0, "fusion_lon": 0.0, "fusion_lat": 0.0, "lat": 38.897265833333336, "type": "electric_scooter", "lon": -77.02276816666667, "bike_id": "9c6b7c26665aaf80bb74da421cdb819b", "rental_uris": {"android": "https://dc.lft.to/lastmile_qr_scan", "ios": "https://dc.lft.to/lastmile_qr_scan"}, "name": "9c6b7c26665aaf80bb74da421cdb819b", "is_reserved": 0}, {"is_disabled": 0, "fusion_lon": 0.0, "fusion_lat": 0.0, "lat": 38.87052833333333, "type": "electric_scooter", "lon": -76.98078816666667, "bike_id": "10b4dd1b6e98d1fe4088b9e487050d6c", "rental_uris": {"android": "https://dc.lft.to/lastmile_qr_scan", "ios": "https://dc.lft.to/lastmile_qr_scan"}, "name": "10b4dd1b6e98d1fe4088b9e487050d6c", "is_reserved": 0}, {"is_disabled": 0, "fusion_lon": 0.0, "fusion_lat": 0.0, "lat": 38.9169715, "type": "electric_scooter", "lon": -77.01169033333333, "bike_id": "97e9a378fb77f23d585bdbf294a31758", "rental_uris": {"android": "https://dc.lft.to/lastmile_qr_scan", "ios": "https://dc.lft.to/lastmile_qr_scan"}, "name": "97e9a378fb77f23d585bdbf294a31758", "is_reserved": 0}, {"is_disabled": 0, "fusion_lon": 0.0, "fusion_lat": 0.0, "lat": 38.886916, "type": "electric_scooter", "lon": -76.98797883333333, "bike_id": "f9e3c3dc6acb1b910e33d73a92854b72", "rental_uris": {"android": "https://dc.lft.to/lastmile_qr_scan", "ios": "https://dc.lft.to/lastmile_qr_scan"}, "name": "f9e3c3dc6acb1b910e33d73a92854b72", "is_reserved": 0}, {"is_disabled": 0, "fusion_lon": 0.0, "fusion_lat": 0.0, "lat": 38.88614316666666, "type": "electric_scooter", "lon": -77.00569566666667, "bike_id": "e6eebb692e35adc7a4329b76f45cc745", "rental_uris": {"android": "https://dc.lft.to/lastmile_qr_scan", "ios": "https://dc.lft.to/lastmile_qr_scan"}, "name": "e6eebb692e35adc7a4329b76f45cc745", "is_reserved": 0}, {"is_disabled": 0, "fusion_lon": 0.0, "fusion_lat": 0.0, "lat": 38.92363983333333, "type": "electric_scooter", "lon": -77.05027116666666, "bike_id": "c498abc4007aecf46d44a8e7f2b96df4", "rental_uris": {"android": "https://dc.lft.to/lastmile_qr_scan", "ios": "https://dc.lft.to/lastmile_qr_scan"}, "name": "c498abc4007aecf46d44a8e7f2b96df4", "is_reserved": 0}, {"is_disabled": 0, "fusion_lon": 0.0, "fusion_lat": 0.0, "lat": 38.956349833333334, "type": "electric_scooter", "lon": -77.09104483333333, "bike_id": "c392cd5073511205c1dd2f28cb3a12da", "rental_uris": {"android": "https://dc.lft.to/lastmile_qr_scan", "ios": "https://dc.lft.to/lastmile_qr_scan"}, "name": "c392cd5073511205c1dd2f28cb3a12da", "is_reserved": 0}, {"is_disabled": 0, "fusion_lon": 0.0, "fusion_lat": 0.0, "lat": 38.9119975, "type": "electric_scooter", "lon": -77.041743, "bike_id": "89111032517c879c621dea54509015f7", "rental_uris": {"android": "https://dc.lft.to/lastmile_qr_scan", "ios": "https://dc.lft.to/lastmile_qr_scan"}, "name": "89111032517c879c621dea54509015f7", "is_reserved": 0}, {"is_disabled": 0, "fusion_lon": 0.0, "fusion_lat": 0.0, "lat": 38.85641, "type": "electric_bike", "lon": -77.0852815, "bike_id": "8ba1c3c27dfb678b7604a45a600b1c15", "rental_uris": {"android": "https://dc.lft.to/lastmile_qr_scan", "ios": "https://dc.lft.to/lastmile_qr_scan"}, "name": "8ba1c3c27dfb678b7604a45a600b1c15", "is_reserved": 0}, {"is_disabled": 0, "fusion_lon": 0.0, "fusion_lat": 0.0, "lat": 38.894800833333335, "type": "electric_scooter", "lon": -76.94872583333333, "bike_id": "c3f14a5f9a426b416b6abeee2134c1f7", "rental_uris": {"android": "https://dc.lft.to/lastmile_qr_scan", "ios": "https://dc.lft.to/lastmile_qr_scan"}, "name": "c3f14a5f9a426b416b6abeee2134c1f7", "is_reserved": 0}, {"is_disabled": 0, "fusion_lon": 0.0, "fusion_lat": 0.0, "lat": 38.84928016666667, "type": "electric_bike", "lon": -77.1001345, "bike_id": "3101c2e8289f99cb22422206cdd0838b", "rental_uris": {"android": "https://dc.lft.to/lastmile_qr_scan", "ios": "https://dc.lft.to/lastmile_qr_scan"}, "name": "3101c2e8289f99cb22422206cdd0838b", "is_reserved": 0}, {"is_disabled": 0, "fusion_lon": 0.0, "fusion_lat": 0.0, "lat": 38.905435, "type": "electric_scooter", "lon": -77.03252266666667, "bike_id": "9be8230d74b5c05903ad681ff3f80cc6", "rental_uris": {"android": "https://dc.lft.to/lastmile_qr_scan", "ios": "https://dc.lft.to/lastmile_qr_scan"}, "name": "9be8230d74b5c05903ad681ff3f80cc6", "is_reserved": 0}, {"is_disabled": 0, "fusion_lon": 0.0, "fusion_lat": 0.0, "lat": 38.86607766666667, "type": "electric_scooter", "lon": -77.010866, "bike_id": "723c9d41194baa2abd586011e6da87e6", "rental_uris": {"android": "https://dc.lft.to/lastmile_qr_scan", "ios": "https://dc.lft.to/lastmile_qr_scan"}, "name": "723c9d41194baa2abd586011e6da87e6", "is_reserved": 0}, {"is_disabled": 0, "fusion_lon": 0.0, "fusion_lat": 0.0, "lat": 38.93698783333333, "type": "electric_scooter", "lon": -77.055967, "bike_id": "7126473372f5dbd5997cb57191ca6ec7", "rental_uris": {"android": "https://dc.lft.to/lastmile_qr_scan", "ios": "https://dc.lft.to/lastmile_qr_scan"}, "name": "7126473372f5dbd5997cb57191ca6ec7", "is_reserved": 0}, {"is_disabled": 0, "fusion_lon": 0.0, "fusion_lat": 0.0, "lat": 38.894818, "type": "electric_scooter", "lon": -76.94875366666666, "bike_id": "62fe1e98d4bfb8b4d6642b68fb8f9dfb", "rental_uris": {"android": "https://dc.lft.to/lastmile_qr_scan", "ios": "https://dc.lft.to/lastmile_qr_scan"}, "name": "62fe1e98d4bfb8b4d6642b68fb8f9dfb", "is_reserved": 0}, {"is_disabled": 0, "fusion_lon": 0.0, "fusion_lat": 0.0, "lat": 38.90125233333333, "type": "electric_scooter", "lon": -77.04405516666667, "bike_id": "ddf1cc0e3c0c5d8d3f9200f7a84f0079", "rental_uris": {"android": "https://dc.lft.to/lastmile_qr_scan", "ios": "https://dc.lft.to/lastmile_qr_scan"}, "name": "ddf1cc0e3c0c5d8d3f9200f7a84f0079", "is_reserved": 0}, {"is_disabled": 0, "fusion_lon": 0.0, "fusion_lat": 0.0, "lat": 38.89846633333333, "type": "electric_scooter", "lon": -77.029216, "bike_id": "885ec6e8bc4a3563691fbbdafb62e4f1", "rental_uris": {"android": "https://dc.lft.to/lastmile_qr_scan", "ios": "https://dc.lft.to/lastmile_qr_scan"}, "name": "885ec6e8bc4a3563691fbbdafb62e4f1", "is_reserved": 0}, {"is_disabled": 0, "fusion_lon": 0.0, "fusion_lat": 0.0, "lat": 38.93053916666667, "type": "electric_scooter", "lon": -77.02967316666667, "bike_id": "580e8b00343edc3e8458c40d475fab37", "rental_uris": {"android": "https://dc.lft.to/lastmile_qr_scan", "ios": "https://dc.lft.to/lastmile_qr_scan"}, "name": "580e8b00343edc3e8458c40d475fab37", "is_reserved": 0}, {"is_disabled": 0, "fusion_lon": 0.0, "fusion_lat": 0.0, "lat": 39.024968333333334, "type": "electric_bike", "lon": -77.12567566666667, "bike_id": "5929be4c377e9dc30b50d0445feb3b0f", "rental_uris": {"android": "https://dc.lft.to/lastmile_qr_scan", "ios": "https://dc.lft.to/lastmile_qr_scan"}, "name": "5929be4c377e9dc30b50d0445feb3b0f", "is_reserved": 0}, {"is_disabled": 0, "fusion_lon": 0.0, "fusion_lat": 0.0, "lat": 38.930794166666665, "type": "electric_scooter", "lon": -77.036303, "bike_id": "25c3eb75856d748501fac0b699faead8", "rental_uris": {"android": "https://dc.lft.to/lastmile_qr_scan", "ios": "https://dc.lft.to/lastmile_qr_scan"}, "name": "25c3eb75856d748501fac0b699faead8", "is_reserved": 0}, {"is_disabled": 0, "fusion_lon": 0.0, "fusion_lat": 0.0, "lat": 38.91055633333333, "type": "electric_scooter", "lon": -77.0435255, "bike_id": "54ac4292f547c9c13b76c7411ddf7e64", "rental_uris": {"android": "https://dc.lft.to/lastmile_qr_scan", "ios": "https://dc.lft.to/lastmile_qr_scan"}, "name": "54ac4292f547c9c13b76c7411ddf7e64", "is_reserved": 0}, {"is_disabled": 0, "fusion_lon": 0.0, "fusion_lat": 0.0, "lat": 38.94308983333333, "type": "electric_scooter", "lon": -77.061735, "bike_id": "d4df83eada02ee923dab6a721fc6ccd4", "rental_uris": {"android": "https://dc.lft.to/lastmile_qr_scan", "ios": "https://dc.lft.to/lastmile_qr_scan"}, "name": "d4df83eada02ee923dab6a721fc6ccd4", "is_reserved": 0}, {"is_disabled": 0, "fusion_lon": 0.0, "fusion_lat": 0.0, "lat": 38.92634, "type": "electric_scooter", "lon": -77.0363145, "bike_id": "2482a9e2e6b44eee45262d17076ec1e5", "rental_uris": {"android": "https://dc.lft.to/lastmile_qr_scan", "ios": "https://dc.lft.to/lastmile_qr_scan"}, "name": "2482a9e2e6b44eee45262d17076ec1e5", "is_reserved": 0}, {"is_disabled": 0, "fusion_lon": 0.0, "fusion_lat": 0.0, "lat": 38.911919833333336, "type": "electric_scooter", "lon": -77.03632383333333, "bike_id": "553f569cf7afdae2eed0fa98f558c3a2", "rental_uris": {"android": "https://dc.lft.to/lastmile_qr_scan", "ios": "https://dc.lft.to/lastmile_qr_scan"}, "name": "553f569cf7afdae2eed0fa98f558c3a2", "is_reserved": 0}, {"is_disabled": 0, "fusion_lon": 0.0, "fusion_lat": 0.0, "lat": 38.909378, "type": "electric_scooter", "lon": -77.032094, "bike_id": "0a9c715937123f879487ec6d5932f1a6", "rental_uris": {"android": "https://dc.lft.to/lastmile_qr_scan", "ios": "https://dc.lft.to/lastmile_qr_scan"}, "name": "0a9c715937123f879487ec6d5932f1a6", "is_reserved": 0}, {"is_disabled": 0, "fusion_lon": 0.0, "fusion_lat": 0.0, "lat": 38.895031, "type": "electric_scooter", "lon": -76.9488245, "bike_id": "f61fd1198984fcbe992fe21cd63c03a1", "rental_uris": {"android": "https://dc.lft.to/lastmile_qr_scan", "ios": "https://dc.lft.to/lastmile_qr_scan"}, "name": "f61fd1198984fcbe992fe21cd63c03a1", "is_reserved": 0}, {"is_disabled": 0, "fusion_lon": 0.0, "fusion_lat": 0.0, "lat": 38.914648666666665, "type": "electric_scooter", "lon": -77.0197985, "bike_id": "45a0b231413008e06312e8f61ca823af", "rental_uris": {"android": "https://dc.lft.to/lastmile_qr_scan", "ios": "https://dc.lft.to/lastmile_qr_scan"}, "name": "45a0b231413008e06312e8f61ca823af", "is_reserved": 0}, {"is_disabled": 0, "fusion_lon": 0.0, "fusion_lat": 0.0, "lat": 38.892209, "type": "electric_scooter", "lon": -77.0480165, "bike_id": "e7cab5ea3c3381682db113b8a4bbab19", "rental_uris": {"android": "https://dc.lft.to/lastmile_qr_scan", "ios": "https://dc.lft.to/lastmile_qr_scan"}, "name": "e7cab5ea3c3381682db113b8a4bbab19", "is_reserved": 0}, {"is_disabled": 0, "fusion_lon": 0.0, "fusion_lat": 0.0, "lat": 38.91168966666667, "type": "electric_scooter", "lon": -77.0270415, "bike_id": "05932ae4045bdd9f906665bd83c159e1", "rental_uris": {"android": "https://dc.lft.to/lastmile_qr_scan", "ios": "https://dc.lft.to/lastmile_qr_scan"}, "name": "05932ae4045bdd9f906665bd83c159e1", "is_reserved": 0}, {"is_disabled": 0, "fusion_lon": 0.0, "fusion_lat": 0.0, "lat": 38.923083, "type": "electric_scooter", "lon": -77.03917733333333, "bike_id": "2a276b6bab78b2de0f89712d2204c78b", "rental_uris": {"android": "https://dc.lft.to/lastmile_qr_scan", "ios": "https://dc.lft.to/lastmile_qr_scan"}, "name": "2a276b6bab78b2de0f89712d2204c78b", "is_reserved": 0}, {"is_disabled": 0, "fusion_lon": 0.0, "fusion_lat": 0.0, "lat": 38.942009166666665, "type": "electric_scooter", "lon": -77.01828883333333, "bike_id": "2376e75d21ad5dbed95c6130cadf01e7", "rental_uris": {"android": "https://dc.lft.to/lastmile_qr_scan", "ios": "https://dc.lft.to/lastmile_qr_scan"}, "name": "2376e75d21ad5dbed95c6130cadf01e7", "is_reserved": 0}, {"is_disabled": 0, "fusion_lon": 0.0, "fusion_lat": 0.0, "lat": 38.90871666666666, "type": "electric_scooter", "lon": -77.02693883333333, "bike_id": "fe66ccf28177b88092fdccf016edb7ef", "rental_uris": {"android": "https://dc.lft.to/lastmile_qr_scan", "ios": "https://dc.lft.to/lastmile_qr_scan"}, "name": "fe66ccf28177b88092fdccf016edb7ef", "is_reserved": 0}, {"is_disabled": 0, "fusion_lon": 0.0, "fusion_lat": 0.0, "lat": 38.913455666666664, "type": "electric_scooter", "lon": -77.03173633333333, "bike_id": "4d1bd29b64133304fab56b3ccafa9c25", "rental_uris": {"android": "https://dc.lft.to/lastmile_qr_scan", "ios": "https://dc.lft.to/lastmile_qr_scan"}, "name": "4d1bd29b64133304fab56b3ccafa9c25", "is_reserved": 0}, {"is_disabled": 0, "fusion_lon": 0.0, "fusion_lat": 0.0, "lat": 38.91151383333333, "type": "electric_scooter", "lon": -76.98500883333334, "bike_id": "d0edc6bf4a5527a2027f467b10588a50", "rental_uris": {"android": "https://dc.lft.to/lastmile_qr_scan", "ios": "https://dc.lft.to/lastmile_qr_scan"}, "name": "d0edc6bf4a5527a2027f467b10588a50", "is_reserved": 0}, {"is_disabled": 0, "fusion_lon": 0.0, "fusion_lat": 0.0, "lat": 38.894939666666666, "type": "electric_scooter", "lon": -77.02289766666667, "bike_id": "5dced52a2e23c6afb14a9474c12d70fe", "rental_uris": {"android": "https://dc.lft.to/lastmile_qr_scan", "ios": "https://dc.lft.to/lastmile_qr_scan"}, "name": "5dced52a2e23c6afb14a9474c12d70fe", "is_reserved": 0}, {"is_disabled": 0, "fusion_lon": 0.0, "fusion_lat": 0.0, "lat": 38.9053425, "type": "electric_scooter", "lon": -77.02961583333334, "bike_id": "fbf29e92739c424989b0bedb9639c439", "rental_uris": {"android": "https://dc.lft.to/lastmile_qr_scan", "ios": "https://dc.lft.to/lastmile_qr_scan"}, "name": "fbf29e92739c424989b0bedb9639c439", "is_reserved": 0}, {"is_disabled": 0, "fusion_lon": 0.0, "fusion_lat": 0.0, "lat": 38.894740166666665, "type": "electric_scooter", "lon": -76.97721333333334, "bike_id": "67f2164790f6a7baa7720a3b308798b3", "rental_uris": {"android": "https://dc.lft.to/lastmile_qr_scan", "ios": "https://dc.lft.to/lastmile_qr_scan"}, "name": "67f2164790f6a7baa7720a3b308798b3", "is_reserved": 0}, {"is_disabled": 0, "fusion_lon": 0.0, "fusion_lat": 0.0, "lat": 38.944478, "type": "electric_scooter", "lon": -77.060414, "bike_id": "f7543fc41f3d8ecffc58a00e3803fced", "rental_uris": {"android": "https://dc.lft.to/lastmile_qr_scan", "ios": "https://dc.lft.to/lastmile_qr_scan"}, "name": "f7543fc41f3d8ecffc58a00e3803fced", "is_reserved": 0}, {"is_disabled": 0, "fusion_lon": 0.0, "fusion_lat": 0.0, "lat": 38.916362166666666, "type": "electric_scooter", "lon": -77.050569, "bike_id": "8707fc8ccd56dea32aa2080c3ec37ec5", "rental_uris": {"android": "https://dc.lft.to/lastmile_qr_scan", "ios": "https://dc.lft.to/lastmile_qr_scan"}, "name": "8707fc8ccd56dea32aa2080c3ec37ec5", "is_reserved": 0}, {"is_disabled": 0, "fusion_lon": 0.0, "fusion_lat": 0.0, "lat": 38.9046265, "type": "electric_scooter", "lon": -76.99207983333334, "bike_id": "908afb6d00845e4973f205e8551c2f89", "rental_uris": {"android": "https://dc.lft.to/lastmile_qr_scan", "ios": "https://dc.lft.to/lastmile_qr_scan"}, "name": "908afb6d00845e4973f205e8551c2f89", "is_reserved": 0}, {"is_disabled": 0, "fusion_lon": 0.0, "fusion_lat": 0.0, "lat": 38.8952805, "type": "electric_scooter", "lon": -77.03350883333333, "bike_id": "b45de6c0d014f94f4df843d49be79cf6", "rental_uris": {"android": "https://dc.lft.to/lastmile_qr_scan", "ios": "https://dc.lft.to/lastmile_qr_scan"}, "name": "b45de6c0d014f94f4df843d49be79cf6", "is_reserved": 0}, {"is_disabled": 0, "fusion_lon": 0.0, "fusion_lat": 0.0, "lat": 38.909365666666666, "type": "electric_scooter", "lon": -77.03200466666667, "bike_id": "0ffbf9e816316bb806f19580b169af9a", "rental_uris": {"android": "https://dc.lft.to/lastmile_qr_scan", "ios": "https://dc.lft.to/lastmile_qr_scan"}, "name": "0ffbf9e816316bb806f19580b169af9a", "is_reserved": 0}, {"is_disabled": 0, "fusion_lon": 0.0, "fusion_lat": 0.0, "lat": 38.9212085, "type": "electric_scooter", "lon": -77.02185083333333, "bike_id": "f5642fe98dfa89d98c39cb45b57f259d", "rental_uris": {"android": "https://dc.lft.to/lastmile_qr_scan", "ios": "https://dc.lft.to/lastmile_qr_scan"}, "name": "f5642fe98dfa89d98c39cb45b57f259d", "is_reserved": 0}, {"is_disabled": 0, "fusion_lon": 0.0, "fusion_lat": 0.0, "lat": 38.917213333333336, "type": "electric_scooter", "lon": -77.03454516666666, "bike_id": "bacd7b88cfc88c01f21a4d2ec5e74522", "rental_uris": {"android": "https://dc.lft.to/lastmile_qr_scan", "ios": "https://dc.lft.to/lastmile_qr_scan"}, "name": "bacd7b88cfc88c01f21a4d2ec5e74522", "is_reserved": 0}, {"is_disabled": 0, "fusion_lon": 0.0, "fusion_lat": 0.0, "lat": 38.92121983333333, "type": "electric_scooter", "lon": -77.0365925, "bike_id": "37ac60c2f1da088d0cc3a45376602e64", "rental_uris": {"android": "https://dc.lft.to/lastmile_qr_scan", "ios": "https://dc.lft.to/lastmile_qr_scan"}, "name": "37ac60c2f1da088d0cc3a45376602e64", "is_reserved": 0}, {"is_disabled": 0, "fusion_lon": 0.0, "fusion_lat": 0.0, "lat": 38.900360666666664, "type": "electric_scooter", "lon": -77.01228266666666, "bike_id": "c9eece0a97192e2a7234f7245fed5155", "rental_uris": {"android": "https://dc.lft.to/lastmile_qr_scan", "ios": "https://dc.lft.to/lastmile_qr_scan"}, "name": "c9eece0a97192e2a7234f7245fed5155", "is_reserved": 0}, {"is_disabled": 0, "fusion_lon": 0.0, "fusion_lat": 0.0, "lat": 38.93398083333334, "type": "electric_scooter", "lon": -77.02733, "bike_id": "eb69d6e90b28e72d7d65884ce2acebd1", "rental_uris": {"android": "https://dc.lft.to/lastmile_qr_scan", "ios": "https://dc.lft.to/lastmile_qr_scan"}, "name": "eb69d6e90b28e72d7d65884ce2acebd1", "is_reserved": 0}, {"is_disabled": 0, "fusion_lon": 0.0, "fusion_lat": 0.0, "lat": 38.91726283333333, "type": "electric_scooter", "lon": -77.0416965, "bike_id": "f8e128966fe58f2066b00e324970fbd9", "rental_uris": {"android": "https://dc.lft.to/lastmile_qr_scan", "ios": "https://dc.lft.to/lastmile_qr_scan"}, "name": "f8e128966fe58f2066b00e324970fbd9", "is_reserved": 0}, {"is_disabled": 0, "fusion_lon": 0.0, "fusion_lat": 0.0, "lat": 38.895295833333336, "type": "electric_scooter", "lon": -77.028101, "bike_id": "f400dc00c40530941262c540678da8b3", "rental_uris": {"android": "https://dc.lft.to/lastmile_qr_scan", "ios": "https://dc.lft.to/lastmile_qr_scan"}, "name": "f400dc00c40530941262c540678da8b3", "is_reserved": 0}, {"is_disabled": 0, "fusion_lon": 0.0, "fusion_lat": 0.0, "lat": 38.9005335, "type": "electric_scooter", "lon": -77.03447516666667, "bike_id": "fbf0009d0862030006b1c17a31c4d79f", "rental_uris": {"android": "https://dc.lft.to/lastmile_qr_scan", "ios": "https://dc.lft.to/lastmile_qr_scan"}, "name": "fbf0009d0862030006b1c17a31c4d79f", "is_reserved": 0}, {"is_disabled": 0, "fusion_lon": 0.0, "fusion_lat": 0.0, "lat": 38.96605483333333, "type": "electric_bike", "lon": -76.98331433333334, "bike_id": "5cdc84bfb1dadbf12540c00bf370617d", "rental_uris": {"android": "https://dc.lft.to/lastmile_qr_scan", "ios": "https://dc.lft.to/lastmile_qr_scan"}, "name": "5cdc84bfb1dadbf12540c00bf370617d", "is_reserved": 0}, {"is_disabled": 0, "fusion_lon": 0.0, "fusion_lat": 0.0, "lat": 38.84844233333333, "type": "electric_bike", "lon": -77.080442, "bike_id": "dc1222a85a73f747f6f20ad3c732bbfb", "rental_uris": {"android": "https://dc.lft.to/lastmile_qr_scan", "ios": "https://dc.lft.to/lastmile_qr_scan"}, "name": "dc1222a85a73f747f6f20ad3c732bbfb", "is_reserved": 0}, {"is_disabled": 0, "fusion_lon": 0.0, "fusion_lat": 0.0, "lat": 38.88762466666667, "type": "electric_scooter", "lon": -76.95457583333334, "bike_id": "d2b8a22c413558bc19c4bde420f2319a", "rental_uris": {"android": "https://dc.lft.to/lastmile_qr_scan", "ios": "https://dc.lft.to/lastmile_qr_scan"}, "name": "d2b8a22c413558bc19c4bde420f2319a", "is_reserved": 0}, {"is_disabled": 0, "fusion_lon": 0.0, "fusion_lat": 0.0, "lat": 38.935552333333334, "type": "electric_scooter", "lon": -77.07359616666666, "bike_id": "507f132fc2f4eb7598713bef73922eae", "rental_uris": {"android": "https://dc.lft.to/lastmile_qr_scan", "ios": "https://dc.lft.to/lastmile_qr_scan"}, "name": "507f132fc2f4eb7598713bef73922eae", "is_reserved": 0}, {"is_disabled": 0, "fusion_lon": 0.0, "fusion_lat": 0.0, "lat": 38.902552166666666, "type": "electric_scooter", "lon": -77.03658483333334, "bike_id": "534c6ebe49bb0e084f5eaaf7e5ca4499", "rental_uris": {"android": "https://dc.lft.to/lastmile_qr_scan", "ios": "https://dc.lft.to/lastmile_qr_scan"}, "name": "534c6ebe49bb0e084f5eaaf7e5ca4499", "is_reserved": 0}, {"is_disabled": 0, "fusion_lon": 0.0, "fusion_lat": 0.0, "lat": 38.90190183333333, "type": "electric_scooter", "lon": -77.02089633333334, "bike_id": "bf3e0d4dcc6286aa884e6d0d38a0c070", "rental_uris": {"android": "https://dc.lft.to/lastmile_qr_scan", "ios": "https://dc.lft.to/lastmile_qr_scan"}, "name": "bf3e0d4dcc6286aa884e6d0d38a0c070", "is_reserved": 0}, {"is_disabled": 0, "fusion_lon": 0.0, "fusion_lat": 0.0, "lat": 38.917895666666666, "type": "electric_scooter", "lon": -77.036603, "bike_id": "cf2157c0b70df0879a4d9d83bfb3459a", "rental_uris": {"android": "https://dc.lft.to/lastmile_qr_scan", "ios": "https://dc.lft.to/lastmile_qr_scan"}, "name": "cf2157c0b70df0879a4d9d83bfb3459a", "is_reserved": 0}, {"is_disabled": 0, "fusion_lon": 0.0, "fusion_lat": 0.0, "lat": 38.87569883333333, "type": "electric_scooter", "lon": -77.01993733333333, "bike_id": "813b789d1d270a0eb82693303e93242c", "rental_uris": {"android": "https://dc.lft.to/lastmile_qr_scan", "ios": "https://dc.lft.to/lastmile_qr_scan"}, "name": "813b789d1d270a0eb82693303e93242c", "is_reserved": 0}, {"is_disabled": 0, "fusion_lon": 0.0, "fusion_lat": 0.0, "lat": 38.91705733333333, "type": "electric_scooter", "lon": -77.03231433333333, "bike_id": "a9564117b31d4cf370976d9657779202", "rental_uris": {"android": "https://dc.lft.to/lastmile_qr_scan", "ios": "https://dc.lft.to/lastmile_qr_scan"}, "name": "a9564117b31d4cf370976d9657779202", "is_reserved": 0}, {"is_disabled": 0, "fusion_lon": 0.0, "fusion_lat": 0.0, "lat": 38.905368833333334, "type": "electric_scooter", "lon": -77.02195733333333, "bike_id": "65a8d61a86d67a80bd7a94641df3a08e", "rental_uris": {"android": "https://dc.lft.to/lastmile_qr_scan", "ios": "https://dc.lft.to/lastmile_qr_scan"}, "name": "65a8d61a86d67a80bd7a94641df3a08e", "is_reserved": 0}, {"is_disabled": 0, "fusion_lon": 0.0, "fusion_lat": 0.0, "lat": 38.896762833333334, "type": "electric_scooter", "lon": -76.9471875, "bike_id": "feb81dd9f75ca1d349d479539d47c81d", "rental_uris": {"android": "https://dc.lft.to/lastmile_qr_scan", "ios": "https://dc.lft.to/lastmile_qr_scan"}, "name": "feb81dd9f75ca1d349d479539d47c81d", "is_reserved": 0}, {"is_disabled": 0, "fusion_lon": 0.0, "fusion_lat": 0.0, "lat": 38.892484833333334, "type": "electric_scooter", "lon": -77.0316675, "bike_id": "d31b2f684e7ae3732dd92b420483b6d5", "rental_uris": {"android": "https://dc.lft.to/lastmile_qr_scan", "ios": "https://dc.lft.to/lastmile_qr_scan"}, "name": "d31b2f684e7ae3732dd92b420483b6d5", "is_reserved": 0}, {"is_disabled": 0, "fusion_lon": 0.0, "fusion_lat": 0.0, "lat": 38.91539266666667, "type": "electric_scooter", "lon": -77.01976566666667, "bike_id": "64957933c59e94e859466496f18adbd8", "rental_uris": {"android": "https://dc.lft.to/lastmile_qr_scan", "ios": "https://dc.lft.to/lastmile_qr_scan"}, "name": "64957933c59e94e859466496f18adbd8", "is_reserved": 0}, {"is_disabled": 0, "fusion_lon": 0.0, "fusion_lat": 0.0, "lat": 38.888592333333335, "type": "electric_scooter", "lon": -76.97736083333334, "bike_id": "f42c370e67416b884f05889c23323048", "rental_uris": {"android": "https://dc.lft.to/lastmile_qr_scan", "ios": "https://dc.lft.to/lastmile_qr_scan"}, "name": "f42c370e67416b884f05889c23323048", "is_reserved": 0}, {"is_disabled": 0, "fusion_lon": 0.0, "fusion_lat": 0.0, "lat": 38.895015666666666, "type": "electric_scooter", "lon": -77.02210883333333, "bike_id": "cbd2d1c6416d6b13b7be971564ee1e48", "rental_uris": {"android": "https://dc.lft.to/lastmile_qr_scan", "ios": "https://dc.lft.to/lastmile_qr_scan"}, "name": "cbd2d1c6416d6b13b7be971564ee1e48", "is_reserved": 0}, {"is_disabled": 0, "fusion_lon": 0.0, "fusion_lat": 0.0, "lat": 38.92866766666667, "type": "electric_scooter", "lon": -77.033407, "bike_id": "9bb7a80413b676c1345cf4817d9f9428", "rental_uris": {"android": "https://dc.lft.to/lastmile_qr_scan", "ios": "https://dc.lft.to/lastmile_qr_scan"}, "name": "9bb7a80413b676c1345cf4817d9f9428", "is_reserved": 0}, {"is_disabled": 0, "fusion_lon": 0.0, "fusion_lat": 0.0, "lat": 38.827271833333334, "type": "electric_bike", "lon": -77.00863766666667, "bike_id": "d0bd8f9bff412a80bc3a297d32125279", "rental_uris": {"android": "https://dc.lft.to/lastmile_qr_scan", "ios": "https://dc.lft.to/lastmile_qr_scan"}, "name": "d0bd8f9bff412a80bc3a297d32125279", "is_reserved": 0}, {"is_disabled": 0, "fusion_lon": 0.0, "fusion_lat": 0.0, "lat": 38.89317666666667, "type": "electric_scooter", "lon": -77.01983, "bike_id": "dc35dca08ebe7c8d557b4cce7d8da892", "rental_uris": {"android": "https://dc.lft.to/lastmile_qr_scan", "ios": "https://dc.lft.to/lastmile_qr_scan"}, "name": "dc35dca08ebe7c8d557b4cce7d8da892", "is_reserved": 0}, {"is_disabled": 0, "fusion_lon": 0.0, "fusion_lat": 0.0, "lat": 38.83120266666667, "type": "electric_bike", "lon": -77.0432125, "bike_id": "abc7bac2bce5eb46a930e253500a7faa", "rental_uris": {"android": "https://dc.lft.to/lastmile_qr_scan", "ios": "https://dc.lft.to/lastmile_qr_scan"}, "name": "abc7bac2bce5eb46a930e253500a7faa", "is_reserved": 0}, {"is_disabled": 0, "fusion_lon": 0.0, "fusion_lat": 0.0, "lat": 38.901347333333334, "type": "electric_scooter", "lon": -77.04156583333334, "bike_id": "c91b2872270074db20fc6c2a60a00c80", "rental_uris": {"android": "https://dc.lft.to/lastmile_qr_scan", "ios": "https://dc.lft.to/lastmile_qr_scan"}, "name": "c91b2872270074db20fc6c2a60a00c80", "is_reserved": 0}, {"is_disabled": 0, "fusion_lon": 0.0, "fusion_lat": 0.0, "lat": 38.9196665, "type": "electric_scooter", "lon": -77.04173283333333, "bike_id": "34c65ba5543e5dfeb69fc17a20e6f874", "rental_uris": {"android": "https://dc.lft.to/lastmile_qr_scan", "ios": "https://dc.lft.to/lastmile_qr_scan"}, "name": "34c65ba5543e5dfeb69fc17a20e6f874", "is_reserved": 0}, {"is_disabled": 0, "fusion_lon": 0.0, "fusion_lat": 0.0, "lat": 38.899725333333336, "type": "electric_scooter", "lon": -77.02183883333333, "bike_id": "6277fa84e31e6fecd84e08d78c8f8ac7", "rental_uris": {"android": "https://dc.lft.to/lastmile_qr_scan", "ios": "https://dc.lft.to/lastmile_qr_scan"}, "name": "6277fa84e31e6fecd84e08d78c8f8ac7", "is_reserved": 0}, {"is_disabled": 0, "fusion_lon": 0.0, "fusion_lat": 0.0, "lat": 38.89961683333333, "type": "electric_scooter", "lon": -77.03359183333333, "bike_id": "ed1d3a6b8a41ab69a6c735924015b686", "rental_uris": {"android": "https://dc.lft.to/lastmile_qr_scan", "ios": "https://dc.lft.to/lastmile_qr_scan"}, "name": "ed1d3a6b8a41ab69a6c735924015b686", "is_reserved": 0}, {"is_disabled": 0, "fusion_lon": 0.0, "fusion_lat": 0.0, "lat": 38.90148633333333, "type": "electric_scooter", "lon": -77.0417775, "bike_id": "0268a18cd9559c462c72c6952ce1acdf", "rental_uris": {"android": "https://dc.lft.to/lastmile_qr_scan", "ios": "https://dc.lft.to/lastmile_qr_scan"}, "name": "0268a18cd9559c462c72c6952ce1acdf", "is_reserved": 0}, {"is_disabled": 0, "fusion_lon": 0.0, "fusion_lat": 0.0, "lat": 38.905593, "type": "electric_scooter", "lon": -77.0335805, "bike_id": "f772d1985331d1f671ab155e626ffe25", "rental_uris": {"android": "https://dc.lft.to/lastmile_qr_scan", "ios": "https://dc.lft.to/lastmile_qr_scan"}, "name": "f772d1985331d1f671ab155e626ffe25", "is_reserved": 0}, {"is_disabled": 0, "fusion_lon": 0.0, "fusion_lat": 0.0, "lat": 38.91682433333333, "type": "electric_scooter", "lon": -77.04146066666667, "bike_id": "f18070b4234f407d57ad5e45707c6e1a", "rental_uris": {"android": "https://dc.lft.to/lastmile_qr_scan", "ios": "https://dc.lft.to/lastmile_qr_scan"}, "name": "f18070b4234f407d57ad5e45707c6e1a", "is_reserved": 0}, {"is_disabled": 0, "fusion_lon": 0.0, "fusion_lat": 0.0, "lat": 38.9197575, "type": "electric_scooter", "lon": -77.041518, "bike_id": "600305972fc18b0b4defb79086382bf2", "rental_uris": {"android": "https://dc.lft.to/lastmile_qr_scan", "ios": "https://dc.lft.to/lastmile_qr_scan"}, "name": "600305972fc18b0b4defb79086382bf2", "is_reserved": 0}, {"is_disabled": 0, "fusion_lon": 0.0, "fusion_lat": 0.0, "lat": 38.91970233333333, "type": "electric_scooter", "lon": -77.04173066666667, "bike_id": "f92564f27c1295cf5836a4edb9df9ed7", "rental_uris": {"android": "https://dc.lft.to/lastmile_qr_scan", "ios": "https://dc.lft.to/lastmile_qr_scan"}, "name": "f92564f27c1295cf5836a4edb9df9ed7", "is_reserved": 0}, {"is_disabled": 0, "fusion_lon": 0.0, "fusion_lat": 0.0, "lat": 38.95607733333333, "type": "electric_scooter", "lon": -77.02759216666666, "bike_id": "4c45e4fb31dfd4b7a99bf7346a440272", "rental_uris": {"android": "https://dc.lft.to/lastmile_qr_scan", "ios": "https://dc.lft.to/lastmile_qr_scan"}, "name": "4c45e4fb31dfd4b7a99bf7346a440272", "is_reserved": 0}, {"is_disabled": 0, "fusion_lon": 0.0, "fusion_lat": 0.0, "lat": 38.88911816666667, "type": "electric_scooter", "lon": -76.97996816666667, "bike_id": "76afb018385f1a1ffeedf4335fbbc72f", "rental_uris": {"android": "https://dc.lft.to/lastmile_qr_scan", "ios": "https://dc.lft.to/lastmile_qr_scan"}, "name": "76afb018385f1a1ffeedf4335fbbc72f", "is_reserved": 0}, {"is_disabled": 0, "fusion_lon": 0.0, "fusion_lat": 0.0, "lat": 38.91701783333333, "type": "electric_scooter", "lon": -77.02617983333333, "bike_id": "bde0d5af981fa9dcd3199277b4898ba2", "rental_uris": {"android": "https://dc.lft.to/lastmile_qr_scan", "ios": "https://dc.lft.to/lastmile_qr_scan"}, "name": "bde0d5af981fa9dcd3199277b4898ba2", "is_reserved": 0}, {"is_disabled": 0, "fusion_lon": 0.0, "fusion_lat": 0.0, "lat": 38.92438, "type": "electric_bike", "lon": -76.907526, "bike_id": "fb536a1f425d5204a6202645cdc7e5a9", "rental_uris": {"android": "https://dc.lft.to/lastmile_qr_scan", "ios": "https://dc.lft.to/lastmile_qr_scan"}, "name": "fb536a1f425d5204a6202645cdc7e5a9", "is_reserved": 0}, {"is_disabled": 0, "fusion_lon": 0.0, "fusion_lat": 0.0, "lat": 38.90217633333334, "type": "electric_scooter", "lon": -77.02374883333333, "bike_id": "67672f2fdd947c0fe2d4e69ee3019586", "rental_uris": {"android": "https://dc.lft.to/lastmile_qr_scan", "ios": "https://dc.lft.to/lastmile_qr_scan"}, "name": "67672f2fdd947c0fe2d4e69ee3019586", "is_reserved": 0}, {"is_disabled": 0, "fusion_lon": 0.0, "fusion_lat": 0.0, "lat": 38.908193, "type": "electric_scooter", "lon": -77.001601, "bike_id": "139828581ba99854f5b9e598b45a3a6c", "rental_uris": {"android": "https://dc.lft.to/lastmile_qr_scan", "ios": "https://dc.lft.to/lastmile_qr_scan"}, "name": "139828581ba99854f5b9e598b45a3a6c", "is_reserved": 0}, {"is_disabled": 0, "fusion_lon": 0.0, "fusion_lat": 0.0, "lat": 38.907067166666664, "type": "electric_scooter", "lon": -77.0630405, "bike_id": "f5531f71c21d2f79fe47565e9454343d", "rental_uris": {"android": "https://dc.lft.to/lastmile_qr_scan", "ios": "https://dc.lft.to/lastmile_qr_scan"}, "name": "f5531f71c21d2f79fe47565e9454343d", "is_reserved": 0}, {"is_disabled": 0, "fusion_lon": 0.0, "fusion_lat": 0.0, "lat": 38.918368, "type": "electric_scooter", "lon": -77.022974, "bike_id": "39c5ca248a380df7a5e549139ebd1344", "rental_uris": {"android": "https://dc.lft.to/lastmile_qr_scan", "ios": "https://dc.lft.to/lastmile_qr_scan"}, "name": "39c5ca248a380df7a5e549139ebd1344", "is_reserved": 0}, {"is_disabled": 0, "fusion_lon": 0.0, "fusion_lat": 0.0, "lat": 38.907729, "type": "electric_scooter", "lon": -77.03270366666666, "bike_id": "445897c32fa00979178c68e566667618", "rental_uris": {"android": "https://dc.lft.to/lastmile_qr_scan", "ios": "https://dc.lft.to/lastmile_qr_scan"}, "name": "445897c32fa00979178c68e566667618", "is_reserved": 0}, {"is_disabled": 0, "fusion_lon": 0.0, "fusion_lat": 0.0, "lat": 38.97571666666666, "type": "electric_bike", "lon": -76.96405783333333, "bike_id": "707f6e48ddc70511509c56643de90dc6", "rental_uris": {"android": "https://dc.lft.to/lastmile_qr_scan", "ios": "https://dc.lft.to/lastmile_qr_scan"}, "name": "707f6e48ddc70511509c56643de90dc6", "is_reserved": 0}, {"is_disabled": 0, "fusion_lon": 0.0, "fusion_lat": 0.0, "lat": 38.93295216666667, "type": "electric_scooter", "lon": -77.02390633333333, "bike_id": "94704db10db967849bd7b3db86a8e272", "rental_uris": {"android": "https://dc.lft.to/lastmile_qr_scan", "ios": "https://dc.lft.to/lastmile_qr_scan"}, "name": "94704db10db967849bd7b3db86a8e272", "is_reserved": 0}, {"is_disabled": 0, "fusion_lon": 0.0, "fusion_lat": 0.0, "lat": 38.99224316666667, "type": "electric_bike", "lon": -76.87774183333333, "bike_id": "499cbe3bd4ded7a62491b0127fdb89db", "rental_uris": {"android": "https://dc.lft.to/lastmile_qr_scan", "ios": "https://dc.lft.to/lastmile_qr_scan"}, "name": "499cbe3bd4ded7a62491b0127fdb89db", "is_reserved": 0}, {"is_disabled": 0, "fusion_lon": 0.0, "fusion_lat": 0.0, "lat": 38.90828583333333, "type": "electric_bike", "lon": -76.941563, "bike_id": "9c0f33cdffbaf3a787399264d2fa080c", "rental_uris": {"android": "https://dc.lft.to/lastmile_qr_scan", "ios": "https://dc.lft.to/lastmile_qr_scan"}, "name": "9c0f33cdffbaf3a787399264d2fa080c", "is_reserved": 0}, {"is_disabled": 0, "fusion_lon": 0.0, "fusion_lat": 0.0, "lat": 38.88964983333334, "type": "electric_bike", "lon": -76.9486495, "bike_id": "427637c19df2261fe6f254c16c2b7226", "rental_uris": {"android": "https://dc.lft.to/lastmile_qr_scan", "ios": "https://dc.lft.to/lastmile_qr_scan"}, "name": "427637c19df2261fe6f254c16c2b7226", "is_reserved": 0}, {"is_disabled": 0, "fusion_lon": 0.0, "fusion_lat": 0.0, "lat": 38.8882185, "type": "electric_bike", "lon": -77.12740033333333, "bike_id": "58e655b5c91f4a524d8e42e5d5d78e8f", "rental_uris": {"android": "https://dc.lft.to/lastmile_qr_scan", "ios": "https://dc.lft.to/lastmile_qr_scan"}, "name": "58e655b5c91f4a524d8e42e5d5d78e8f", "is_reserved": 0}, {"is_disabled": 0, "fusion_lon": 0.0, "fusion_lat": 0.0, "lat": 38.90804, "type": "electric_scooter", "lon": -77.00145916666666, "bike_id": "823018c7f564eb61cb69ed7416022a46", "rental_uris": {"android": "https://dc.lft.to/lastmile_qr_scan", "ios": "https://dc.lft.to/lastmile_qr_scan"}, "name": "823018c7f564eb61cb69ed7416022a46", "is_reserved": 0}, {"is_disabled": 0, "fusion_lon": 0.0, "fusion_lat": 0.0, "lat": 38.87393733333333, "type": "electric_scooter", "lon": -77.0020535, "bike_id": "11cf4f64a1e38b89246397271b88f250", "rental_uris": {"android": "https://dc.lft.to/lastmile_qr_scan", "ios": "https://dc.lft.to/lastmile_qr_scan"}, "name": "11cf4f64a1e38b89246397271b88f250", "is_reserved": 0}, {"is_disabled": 0, "fusion_lon": 0.0, "fusion_lat": 0.0, "lat": 38.936368333333334, "type": "electric_bike", "lon": -76.95460933333334, "bike_id": "4a4c5c511add122005446eaac769aa04", "rental_uris": {"android": "https://dc.lft.to/lastmile_qr_scan", "ios": "https://dc.lft.to/lastmile_qr_scan"}, "name": "4a4c5c511add122005446eaac769aa04", "is_reserved": 0}, {"is_disabled": 0, "fusion_lon": 0.0, "fusion_lat": 0.0, "lat": 38.90451233333334, "type": "electric_scooter", "lon": -77.03458266666667, "bike_id": "9b3725f66b53942de2a413b2ec8188e1", "rental_uris": {"android": "https://dc.lft.to/lastmile_qr_scan", "ios": "https://dc.lft.to/lastmile_qr_scan"}, "name": "9b3725f66b53942de2a413b2ec8188e1", "is_reserved": 0}, {"is_disabled": 0, "fusion_lon": 0.0, "fusion_lat": 0.0, "lat": 38.92353716666667, "type": "electric_scooter", "lon": -77.03228183333333, "bike_id": "4585c841a512e9769a8c1c7a8ac56a68", "rental_uris": {"android": "https://dc.lft.to/lastmile_qr_scan", "ios": "https://dc.lft.to/lastmile_qr_scan"}, "name": "4585c841a512e9769a8c1c7a8ac56a68", "is_reserved": 0}, {"is_disabled": 0, "fusion_lon": 0.0, "fusion_lat": 0.0, "lat": 38.90467733333333, "type": "electric_scooter", "lon": -77.035851, "bike_id": "d9dd32b35607a06cbecb9e1a1dbc5f54", "rental_uris": {"android": "https://dc.lft.to/lastmile_qr_scan", "ios": "https://dc.lft.to/lastmile_qr_scan"}, "name": "d9dd32b35607a06cbecb9e1a1dbc5f54", "is_reserved": 0}, {"is_disabled": 0, "fusion_lon": 0.0, "fusion_lat": 0.0, "lat": 38.945753333333336, "type": "electric_bike", "lon": -76.98776333333333, "bike_id": "2e8057dd16d78095f062d32d21dfe9fb", "rental_uris": {"android": "https://dc.lft.to/lastmile_qr_scan", "ios": "https://dc.lft.to/lastmile_qr_scan"}, "name": "2e8057dd16d78095f062d32d21dfe9fb", "is_reserved": 0}, {"is_disabled": 0, "fusion_lon": 0.0, "fusion_lat": 0.0, "lat": 38.904246, "type": "electric_scooter", "lon": -77.0288275, "bike_id": "181ca0cd6567d50c7f034f344bf86ad3", "rental_uris": {"android": "https://dc.lft.to/lastmile_qr_scan", "ios": "https://dc.lft.to/lastmile_qr_scan"}, "name": "181ca0cd6567d50c7f034f344bf86ad3", "is_reserved": 0}, {"is_disabled": 0, "fusion_lon": 0.0, "fusion_lat": 0.0, "lat": 38.93077733333333, "type": "electric_scooter", "lon": -77.03105016666666, "bike_id": "221e0170ed150233c578dc9ff38f1af0", "rental_uris": {"android": "https://dc.lft.to/lastmile_qr_scan", "ios": "https://dc.lft.to/lastmile_qr_scan"}, "name": "221e0170ed150233c578dc9ff38f1af0", "is_reserved": 0}, {"is_disabled": 0, "fusion_lon": 0.0, "fusion_lat": 0.0, "lat": 38.947499666666666, "type": "electric_scooter", "lon": -77.0179245, "bike_id": "4842a27f5b60e239d7c2628ccff101df", "rental_uris": {"android": "https://dc.lft.to/lastmile_qr_scan", "ios": "https://dc.lft.to/lastmile_qr_scan"}, "name": "4842a27f5b60e239d7c2628ccff101df", "is_reserved": 0}, {"is_disabled": 0, "fusion_lon": 0.0, "fusion_lat": 0.0, "lat": 38.910438, "type": "electric_scooter", "lon": -77.06458216666667, "bike_id": "6eb866167f34cd6a40d7d6b80324a46e", "rental_uris": {"android": "https://dc.lft.to/lastmile_qr_scan", "ios": "https://dc.lft.to/lastmile_qr_scan"}, "name": "6eb866167f34cd6a40d7d6b80324a46e", "is_reserved": 0}, {"is_disabled": 0, "fusion_lon": 0.0, "fusion_lat": 0.0, "lat": 38.90144683333333, "type": "electric_scooter", "lon": -77.01503016666666, "bike_id": "ac7e54e27fe652f0e0e43419959864c5", "rental_uris": {"android": "https://dc.lft.to/lastmile_qr_scan", "ios": "https://dc.lft.to/lastmile_qr_scan"}, "name": "ac7e54e27fe652f0e0e43419959864c5", "is_reserved": 0}, {"is_disabled": 0, "fusion_lon": 0.0, "fusion_lat": 0.0, "lat": 38.91685983333333, "type": "electric_scooter", "lon": -77.04141883333334, "bike_id": "1ab8c7acdc71f5a503fa6cf607876e60", "rental_uris": {"android": "https://dc.lft.to/lastmile_qr_scan", "ios": "https://dc.lft.to/lastmile_qr_scan"}, "name": "1ab8c7acdc71f5a503fa6cf607876e60", "is_reserved": 0}, {"is_disabled": 0, "fusion_lon": 0.0, "fusion_lat": 0.0, "lat": 38.965570666666665, "type": "electric_bike", "lon": -77.023016, "bike_id": "e4de976715984d4305c500ace4ae852b", "rental_uris": {"android": "https://dc.lft.to/lastmile_qr_scan", "ios": "https://dc.lft.to/lastmile_qr_scan"}, "name": "e4de976715984d4305c500ace4ae852b", "is_reserved": 0}, {"is_disabled": 0, "fusion_lon": 0.0, "fusion_lat": 0.0, "lat": 38.89887566666667, "type": "electric_scooter", "lon": -77.04175716666667, "bike_id": "e558c3abd2342eba14d919dc57ec9e1e", "rental_uris": {"android": "https://dc.lft.to/lastmile_qr_scan", "ios": "https://dc.lft.to/lastmile_qr_scan"}, "name": "e558c3abd2342eba14d919dc57ec9e1e", "is_reserved": 0}, {"is_disabled": 0, "fusion_lon": 0.0, "fusion_lat": 0.0, "lat": 38.89819683333333, "type": "electric_scooter", "lon": -77.00211183333333, "bike_id": "b8bb3812a3d2a3ad2488068fd3ff578b", "rental_uris": {"android": "https://dc.lft.to/lastmile_qr_scan", "ios": "https://dc.lft.to/lastmile_qr_scan"}, "name": "b8bb3812a3d2a3ad2488068fd3ff578b", "is_reserved": 0}, {"is_disabled": 0, "fusion_lon": 0.0, "fusion_lat": 0.0, "lat": 38.900307833333336, "type": "electric_scooter", "lon": -76.99866516666667, "bike_id": "966059711bf0e8bafd4b331ad2c29dea", "rental_uris": {"android": "https://dc.lft.to/lastmile_qr_scan", "ios": "https://dc.lft.to/lastmile_qr_scan"}, "name": "966059711bf0e8bafd4b331ad2c29dea", "is_reserved": 0}, {"is_disabled": 0, "fusion_lon": 0.0, "fusion_lat": 0.0, "lat": 39.00370916666667, "type": "electric_bike", "lon": -77.0131075, "bike_id": "aeeafc0bde7e15c32073875fd5843739", "rental_uris": {"android": "https://dc.lft.to/lastmile_qr_scan", "ios": "https://dc.lft.to/lastmile_qr_scan"}, "name": "aeeafc0bde7e15c32073875fd5843739", "is_reserved": 0}, {"is_disabled": 0, "fusion_lon": 0.0, "fusion_lat": 0.0, "lat": 38.91705616666667, "type": "electric_scooter", "lon": -77.02616216666667, "bike_id": "21f947dd9a41a4c27804fdbbac14fb87", "rental_uris": {"android": "https://dc.lft.to/lastmile_qr_scan", "ios": "https://dc.lft.to/lastmile_qr_scan"}, "name": "21f947dd9a41a4c27804fdbbac14fb87", "is_reserved": 0}, {"is_disabled": 0, "fusion_lon": 0.0, "fusion_lat": 0.0, "lat": 38.9024985, "type": "electric_scooter", "lon": -77.03091533333334, "bike_id": "73c62cde03cd32121533c9c54ebf3e7d", "rental_uris": {"android": "https://dc.lft.to/lastmile_qr_scan", "ios": "https://dc.lft.to/lastmile_qr_scan"}, "name": "73c62cde03cd32121533c9c54ebf3e7d", "is_reserved": 0}, {"is_disabled": 0, "fusion_lon": 0.0, "fusion_lat": 0.0, "lat": 38.93934866666667, "type": "electric_scooter", "lon": -77.02483116666667, "bike_id": "bc5adf1ea2e3f878b90f4e6dce8edc1e", "rental_uris": {"android": "https://dc.lft.to/lastmile_qr_scan", "ios": "https://dc.lft.to/lastmile_qr_scan"}, "name": "bc5adf1ea2e3f878b90f4e6dce8edc1e", "is_reserved": 0}, {"is_disabled": 0, "fusion_lon": 0.0, "fusion_lat": 0.0, "lat": 38.900997, "type": "electric_bike", "lon": -77.024661, "bike_id": "dbcf27521ae0b53209fbb89d0d8e0ebb", "rental_uris": {"android": "https://dc.lft.to/lastmile_qr_scan", "ios": "https://dc.lft.to/lastmile_qr_scan"}, "name": "dbcf27521ae0b53209fbb89d0d8e0ebb", "is_reserved": 0}, {"is_disabled": 0, "fusion_lon": 0.0, "fusion_lat": 0.0, "lat": 38.93276516666667, "type": "electric_scooter", "lon": -76.97421083333333, "bike_id": "a44ee619a3ba1fce988873a5658f5777", "rental_uris": {"android": "https://dc.lft.to/lastmile_qr_scan", "ios": "https://dc.lft.to/lastmile_qr_scan"}, "name": "a44ee619a3ba1fce988873a5658f5777", "is_reserved": 0}, {"is_disabled": 0, "fusion_lon": 0.0, "fusion_lat": 0.0, "lat": 38.9054705, "type": "electric_scooter", "lon": -77.04988783333333, "bike_id": "b143ce9d24ca73ef0c00e9cd89459fed", "rental_uris": {"android": "https://dc.lft.to/lastmile_qr_scan", "ios": "https://dc.lft.to/lastmile_qr_scan"}, "name": "b143ce9d24ca73ef0c00e9cd89459fed", "is_reserved": 0}, {"is_disabled": 0, "fusion_lon": 0.0, "fusion_lat": 0.0, "lat": 38.93201033333333, "type": "electric_scooter", "lon": -77.02350166666666, "bike_id": "258e520ce23aae882d288b3a5fb43b3f", "rental_uris": {"android": "https://dc.lft.to/lastmile_qr_scan", "ios": "https://dc.lft.to/lastmile_qr_scan"}, "name": "258e520ce23aae882d288b3a5fb43b3f", "is_reserved": 0}, {"is_disabled": 0, "fusion_lon": 0.0, "fusion_lat": 0.0, "lat": 38.908294833333336, "type": "electric_bike", "lon": -76.99693333333333, "bike_id": "0cf444207a1947ff07d583e381f64e85", "rental_uris": {"android": "https://dc.lft.to/lastmile_qr_scan", "ios": "https://dc.lft.to/lastmile_qr_scan"}, "name": "0cf444207a1947ff07d583e381f64e85", "is_reserved": 0}, {"is_disabled": 0, "fusion_lon": 0.0, "fusion_lat": 0.0, "lat": 38.8876925, "type": "electric_scooter", "lon": -77.01547366666667, "bike_id": "f9073049dbf18ff795eced0d850eaa65", "rental_uris": {"android": "https://dc.lft.to/lastmile_qr_scan", "ios": "https://dc.lft.to/lastmile_qr_scan"}, "name": "f9073049dbf18ff795eced0d850eaa65", "is_reserved": 0}, {"is_disabled": 0, "fusion_lon": 0.0, "fusion_lat": 0.0, "lat": 38.86973483333333, "type": "electric_scooter", "lon": -77.01232383333334, "bike_id": "0893ecfd92072d26c350752136d02621", "rental_uris": {"android": "https://dc.lft.to/lastmile_qr_scan", "ios": "https://dc.lft.to/lastmile_qr_scan"}, "name": "0893ecfd92072d26c350752136d02621", "is_reserved": 0}, {"is_disabled": 0, "fusion_lon": 0.0, "fusion_lat": 0.0, "lat": 38.88732383333333, "type": "electric_scooter", "lon": -77.0153205, "bike_id": "8b820fce509951c70e6648a42aef0cec", "rental_uris": {"android": "https://dc.lft.to/lastmile_qr_scan", "ios": "https://dc.lft.to/lastmile_qr_scan"}, "name": "8b820fce509951c70e6648a42aef0cec", "is_reserved": 0}, {"is_disabled": 0, "fusion_lon": 0.0, "fusion_lat": 0.0, "lat": 38.9355875, "type": "electric_scooter", "lon": -77.029632, "bike_id": "cee24287a052a717b461faf0a05db34d", "rental_uris": {"android": "https://dc.lft.to/lastmile_qr_scan", "ios": "https://dc.lft.to/lastmile_qr_scan"}, "name": "cee24287a052a717b461faf0a05db34d", "is_reserved": 0}, {"is_disabled": 0, "fusion_lon": 0.0, "fusion_lat": 0.0, "lat": 38.90044616666667, "type": "electric_scooter", "lon": -77.00067533333333, "bike_id": "d91b29b48273fba31d3c26bc60174f5d", "rental_uris": {"android": "https://dc.lft.to/lastmile_qr_scan", "ios": "https://dc.lft.to/lastmile_qr_scan"}, "name": "d91b29b48273fba31d3c26bc60174f5d", "is_reserved": 0}, {"is_disabled": 0, "fusion_lon": 0.0, "fusion_lat": 0.0, "lat": 38.87996566666666, "type": "electric_scooter", "lon": -76.98530583333333, "bike_id": "87daf693eed4bec3f35cb3062a09524b", "rental_uris": {"android": "https://dc.lft.to/lastmile_qr_scan", "ios": "https://dc.lft.to/lastmile_qr_scan"}, "name": "87daf693eed4bec3f35cb3062a09524b", "is_reserved": 0}, {"is_disabled": 0, "fusion_lon": 0.0, "fusion_lat": 0.0, "lat": 38.9242095, "type": "electric_scooter", "lon": -77.0561405, "bike_id": "4b82fa36a6178ed3171fea8bd066cbff", "rental_uris": {"android": "https://dc.lft.to/lastmile_qr_scan", "ios": "https://dc.lft.to/lastmile_qr_scan"}, "name": "4b82fa36a6178ed3171fea8bd066cbff", "is_reserved": 0}, {"is_disabled": 0, "fusion_lon": 0.0, "fusion_lat": 0.0, "lat": 38.969074166666665, "type": "electric_bike", "lon": -77.02615583333333, "bike_id": "d058f7e059ccf842627278809ec9035f", "rental_uris": {"android": "https://dc.lft.to/lastmile_qr_scan", "ios": "https://dc.lft.to/lastmile_qr_scan"}, "name": "d058f7e059ccf842627278809ec9035f", "is_reserved": 0}, {"is_disabled": 0, "fusion_lon": 0.0, "fusion_lat": 0.0, "lat": 38.986664833333336, "type": "electric_scooter", "lon": -77.02642416666667, "bike_id": "bbfca32db2bc8d3ebbd99ff52039c679", "rental_uris": {"android": "https://dc.lft.to/lastmile_qr_scan", "ios": "https://dc.lft.to/lastmile_qr_scan"}, "name": "bbfca32db2bc8d3ebbd99ff52039c679", "is_reserved": 0}, {"is_disabled": 0, "fusion_lon": 0.0, "fusion_lat": 0.0, "lat": 38.91471383333333, "type": "electric_scooter", "lon": -77.04379483333334, "bike_id": "10de2921ed9faee102e5b70d16bbcbdd", "rental_uris": {"android": "https://dc.lft.to/lastmile_qr_scan", "ios": "https://dc.lft.to/lastmile_qr_scan"}, "name": "10de2921ed9faee102e5b70d16bbcbdd", "is_reserved": 0}, {"is_disabled": 0, "fusion_lon": 0.0, "fusion_lat": 0.0, "lat": 38.8920965, "type": "electric_scooter", "lon": -76.9879455, "bike_id": "e339aa5e8f583fae6e42e235477ed42c", "rental_uris": {"android": "https://dc.lft.to/lastmile_qr_scan", "ios": "https://dc.lft.to/lastmile_qr_scan"}, "name": "e339aa5e8f583fae6e42e235477ed42c", "is_reserved": 0}, {"is_disabled": 0, "fusion_lon": 0.0, "fusion_lat": 0.0, "lat": 38.91691, "type": "electric_scooter", "lon": -77.03216266666666, "bike_id": "adf2843de721bfb9f88ebbbe952ba460", "rental_uris": {"android": "https://dc.lft.to/lastmile_qr_scan", "ios": "https://dc.lft.to/lastmile_qr_scan"}, "name": "adf2843de721bfb9f88ebbbe952ba460", "is_reserved": 0}, {"is_disabled": 0, "fusion_lon": 0.0, "fusion_lat": 0.0, "lat": 38.918584833333334, "type": "electric_bike", "lon": -76.96174566666667, "bike_id": "6e6ea68a3c2d92c74e12ef7660f64dc8", "rental_uris": {"android": "https://dc.lft.to/lastmile_qr_scan", "ios": "https://dc.lft.to/lastmile_qr_scan"}, "name": "6e6ea68a3c2d92c74e12ef7660f64dc8", "is_reserved": 0}, {"is_disabled": 0, "fusion_lon": 0.0, "fusion_lat": 0.0, "lat": 38.914844333333335, "type": "electric_scooter", "lon": -77.01989183333333, "bike_id": "eb85ced27655ce53e3f9e6efeaeafa1d", "rental_uris": {"android": "https://dc.lft.to/lastmile_qr_scan", "ios": "https://dc.lft.to/lastmile_qr_scan"}, "name": "eb85ced27655ce53e3f9e6efeaeafa1d", "is_reserved": 0}, {"is_disabled": 0, "fusion_lon": 0.0, "fusion_lat": 0.0, "lat": 38.93271816666667, "type": "electric_scooter", "lon": -76.996895, "bike_id": "bfed42ae05ad3e7ac144a6ae901e9bd1", "rental_uris": {"android": "https://dc.lft.to/lastmile_qr_scan", "ios": "https://dc.lft.to/lastmile_qr_scan"}, "name": "bfed42ae05ad3e7ac144a6ae901e9bd1", "is_reserved": 0}, {"is_disabled": 0, "fusion_lon": 0.0, "fusion_lat": 0.0, "lat": 38.89976083333333, "type": "electric_scooter", "lon": -77.02685666666666, "bike_id": "7ce6f20bfe69cfcfacc24005d543c568", "rental_uris": {"android": "https://dc.lft.to/lastmile_qr_scan", "ios": "https://dc.lft.to/lastmile_qr_scan"}, "name": "7ce6f20bfe69cfcfacc24005d543c568", "is_reserved": 0}, {"is_disabled": 0, "fusion_lon": 0.0, "fusion_lat": 0.0, "lat": 38.89899616666667, "type": "electric_scooter", "lon": -76.93386633333333, "bike_id": "cae5011f589fa8128df2f7251133cb41", "rental_uris": {"android": "https://dc.lft.to/lastmile_qr_scan", "ios": "https://dc.lft.to/lastmile_qr_scan"}, "name": "cae5011f589fa8128df2f7251133cb41", "is_reserved": 0}, {"is_disabled": 0, "fusion_lon": 0.0, "fusion_lat": 0.0, "lat": 38.887511833333335, "type": "electric_scooter", "lon": -76.99615283333333, "bike_id": "9dd6fb7e0072ab785ae196a10e2df87f", "rental_uris": {"android": "https://dc.lft.to/lastmile_qr_scan", "ios": "https://dc.lft.to/lastmile_qr_scan"}, "name": "9dd6fb7e0072ab785ae196a10e2df87f", "is_reserved": 0}, {"is_disabled": 0, "fusion_lon": 0.0, "fusion_lat": 0.0, "lat": 38.911115833333334, "type": "electric_scooter", "lon": -77.037328, "bike_id": "9a328a853a513abc63a5e432818010b7", "rental_uris": {"android": "https://dc.lft.to/lastmile_qr_scan", "ios": "https://dc.lft.to/lastmile_qr_scan"}, "name": "9a328a853a513abc63a5e432818010b7", "is_reserved": 0}, {"is_disabled": 0, "fusion_lon": 0.0, "fusion_lat": 0.0, "lat": 38.89739566666667, "type": "electric_scooter", "lon": -77.047977, "bike_id": "60b18f36d14f4c3d3f82d755b42bc3bd", "rental_uris": {"android": "https://dc.lft.to/lastmile_qr_scan", "ios": "https://dc.lft.to/lastmile_qr_scan"}, "name": "60b18f36d14f4c3d3f82d755b42bc3bd", "is_reserved": 0}, {"is_disabled": 0, "fusion_lon": 0.0, "fusion_lat": 0.0, "lat": 38.94997083333333, "type": "electric_bike", "lon": -77.35310083333333, "bike_id": "f5558f360aca915255595121b672811e", "rental_uris": {"android": "https://dc.lft.to/lastmile_qr_scan", "ios": "https://dc.lft.to/lastmile_qr_scan"}, "name": "f5558f360aca915255595121b672811e", "is_reserved": 0}, {"is_disabled": 0, "fusion_lon": 0.0, "fusion_lat": 0.0, "lat": 38.8767425, "type": "electric_scooter", "lon": -76.9319895, "bike_id": "f52d8b9a6ec01eb309fae30e7b1e28ab", "rental_uris": {"android": "https://dc.lft.to/lastmile_qr_scan", "ios": "https://dc.lft.to/lastmile_qr_scan"}, "name": "f52d8b9a6ec01eb309fae30e7b1e28ab", "is_reserved": 0}, {"is_disabled": 0, "fusion_lon": 0.0, "fusion_lat": 0.0, "lat": 38.87823816666667, "type": "electric_scooter", "lon": -76.963175, "bike_id": "85da10f4e59be6125df98b064e45a4d9", "rental_uris": {"android": "https://dc.lft.to/lastmile_qr_scan", "ios": "https://dc.lft.to/lastmile_qr_scan"}, "name": "85da10f4e59be6125df98b064e45a4d9", "is_reserved": 0}, {"is_disabled": 0, "fusion_lon": 0.0, "fusion_lat": 0.0, "lat": 38.9240675, "type": "electric_bike", "lon": -77.0426595, "bike_id": "773795f5217dc1d15a3c7ff4a5f80a96", "rental_uris": {"android": "https://dc.lft.to/lastmile_qr_scan", "ios": "https://dc.lft.to/lastmile_qr_scan"}, "name": "773795f5217dc1d15a3c7ff4a5f80a96", "is_reserved": 0}, {"is_disabled": 0, "fusion_lon": 0.0, "fusion_lat": 0.0, "lat": 38.916580833333335, "type": "electric_scooter", "lon": -77.02823583333333, "bike_id": "eb2b816aeccb9e818d4e980e9af96256", "rental_uris": {"android": "https://dc.lft.to/lastmile_qr_scan", "ios": "https://dc.lft.to/lastmile_qr_scan"}, "name": "eb2b816aeccb9e818d4e980e9af96256", "is_reserved": 0}, {"is_disabled": 0, "fusion_lon": 0.0, "fusion_lat": 0.0, "lat": 38.900072333333334, "type": "electric_scooter", "lon": -77.04160116666667, "bike_id": "e6e5d702feace61be4e899419b7a1d3c", "rental_uris": {"android": "https://dc.lft.to/lastmile_qr_scan", "ios": "https://dc.lft.to/lastmile_qr_scan"}, "name": "e6e5d702feace61be4e899419b7a1d3c", "is_reserved": 0}, {"is_disabled": 0, "fusion_lon": 0.0, "fusion_lat": 0.0, "lat": 38.919656833333335, "type": "electric_scooter", "lon": -77.024838, "bike_id": "aebb2410adae6eb3648a016a195a7e9e", "rental_uris": {"android": "https://dc.lft.to/lastmile_qr_scan", "ios": "https://dc.lft.to/lastmile_qr_scan"}, "name": "aebb2410adae6eb3648a016a195a7e9e", "is_reserved": 0}, {"is_disabled": 0, "fusion_lon": 0.0, "fusion_lat": 0.0, "lat": 38.9512525, "type": "electric_scooter", "lon": -77.0139495, "bike_id": "41313e538fad9a1652cf355da837c308", "rental_uris": {"android": "https://dc.lft.to/lastmile_qr_scan", "ios": "https://dc.lft.to/lastmile_qr_scan"}, "name": "41313e538fad9a1652cf355da837c308", "is_reserved": 0}, {"is_disabled": 0, "fusion_lon": 0.0, "fusion_lat": 0.0, "lat": 38.90710466666667, "type": "electric_scooter", "lon": -77.02715, "bike_id": "14ca86382fe078697efcae9f13752f9e", "rental_uris": {"android": "https://dc.lft.to/lastmile_qr_scan", "ios": "https://dc.lft.to/lastmile_qr_scan"}, "name": "14ca86382fe078697efcae9f13752f9e", "is_reserved": 0}, {"is_disabled": 0, "fusion_lon": 0.0, "fusion_lat": 0.0, "lat": 38.908794, "type": "electric_scooter", "lon": -77.02689383333333, "bike_id": "ba9a09851aeee340b245e3da85a43165", "rental_uris": {"android": "https://dc.lft.to/lastmile_qr_scan", "ios": "https://dc.lft.to/lastmile_qr_scan"}, "name": "ba9a09851aeee340b245e3da85a43165", "is_reserved": 0}, {"is_disabled": 0, "fusion_lon": 0.0, "fusion_lat": 0.0, "lat": 38.84506916666667, "type": "electric_bike", "lon": -76.97214733333334, "bike_id": "ba3ffdccdb86bffcc58bd08f1d13ff0a", "rental_uris": {"android": "https://dc.lft.to/lastmile_qr_scan", "ios": "https://dc.lft.to/lastmile_qr_scan"}, "name": "ba3ffdccdb86bffcc58bd08f1d13ff0a", "is_reserved": 0}, {"is_disabled": 0, "fusion_lon": 0.0, "fusion_lat": 0.0, "lat": 38.909060833333335, "type": "electric_scooter", "lon": -77.02706083333334, "bike_id": "3acffe3acd09eb64a54ffb3059f4b516", "rental_uris": {"android": "https://dc.lft.to/lastmile_qr_scan", "ios": "https://dc.lft.to/lastmile_qr_scan"}, "name": "3acffe3acd09eb64a54ffb3059f4b516", "is_reserved": 0}, {"is_disabled": 0, "fusion_lon": 0.0, "fusion_lat": 0.0, "lat": 38.919853833333335, "type": "electric_bike", "lon": -76.973132, "bike_id": "f639ce803bf0e01b918901eaea526672", "rental_uris": {"android": "https://dc.lft.to/lastmile_qr_scan", "ios": "https://dc.lft.to/lastmile_qr_scan"}, "name": "f639ce803bf0e01b918901eaea526672", "is_reserved": 0}, {"is_disabled": 0, "fusion_lon": 0.0, "fusion_lat": 0.0, "lat": 38.910283166666666, "type": "electric_scooter", "lon": -77.00759183333334, "bike_id": "93e645996dddbceb152a6aaeb5e68b22", "rental_uris": {"android": "https://dc.lft.to/lastmile_qr_scan", "ios": "https://dc.lft.to/lastmile_qr_scan"}, "name": "93e645996dddbceb152a6aaeb5e68b22", "is_reserved": 0}, {"is_disabled": 0, "fusion_lon": 0.0, "fusion_lat": 0.0, "lat": 38.899340333333335, "type": "electric_scooter", "lon": -77.02971116666667, "bike_id": "e21422a50dd4d6edc888231b593be713", "rental_uris": {"android": "https://dc.lft.to/lastmile_qr_scan", "ios": "https://dc.lft.to/lastmile_qr_scan"}, "name": "e21422a50dd4d6edc888231b593be713", "is_reserved": 0}, {"is_disabled": 0, "fusion_lon": 0.0, "fusion_lat": 0.0, "lat": 38.89832783333333, "type": "electric_scooter", "lon": -76.94634533333334, "bike_id": "cc6e8f21f9000fff023894e9e4cf224d", "rental_uris": {"android": "https://dc.lft.to/lastmile_qr_scan", "ios": "https://dc.lft.to/lastmile_qr_scan"}, "name": "cc6e8f21f9000fff023894e9e4cf224d", "is_reserved": 0}, {"is_disabled": 0, "fusion_lon": 0.0, "fusion_lat": 0.0, "lat": 38.9027835, "type": "electric_scooter", "lon": -77.03357683333333, "bike_id": "46ebf160d48c9c4395085103960f52f7", "rental_uris": {"android": "https://dc.lft.to/lastmile_qr_scan", "ios": "https://dc.lft.to/lastmile_qr_scan"}, "name": "46ebf160d48c9c4395085103960f52f7", "is_reserved": 0}, {"is_disabled": 0, "fusion_lon": 0.0, "fusion_lat": 0.0, "lat": 38.895674666666665, "type": "electric_scooter", "lon": -77.0229675, "bike_id": "6dde44d41c0c4fd4227c815b0a6cee6a", "rental_uris": {"android": "https://dc.lft.to/lastmile_qr_scan", "ios": "https://dc.lft.to/lastmile_qr_scan"}, "name": "6dde44d41c0c4fd4227c815b0a6cee6a", "is_reserved": 0}, {"is_disabled": 0, "fusion_lon": 0.0, "fusion_lat": 0.0, "lat": 38.89972733333333, "type": "electric_scooter", "lon": -77.02384466666666, "bike_id": "c560a4d943442a9d3c52b1c424290329", "rental_uris": {"android": "https://dc.lft.to/lastmile_qr_scan", "ios": "https://dc.lft.to/lastmile_qr_scan"}, "name": "c560a4d943442a9d3c52b1c424290329", "is_reserved": 0},