{"data": {"bikes": [{"rental_uris": {"android": "https://dc.lft.to/lastmile_qr_scan", "ios": "https://dc.lft.to/lastmile_qr_scan"}, "type": "electric_scooter", "lon": -77.01218383333334, "name": "8b1d4b409cf7935d59b1bb9918229add", "bike_id": "8b1d4b409cf7935d59b1bb9918229add", "fusion_lat": 0.0, "is_reserved": 0, "lat": 38.90050733333333, "fusion_lon": 0.0, "is_disabled": 0}, {"rental_uris": {"android": "https://dc.lft.to/lastmile_qr_scan", "ios": "https://dc.lft.to/lastmile_qr_scan"}, "type": "electric_scooter", "lon": -77.006477, "name": "5d14dc3812f7253e079d58994b2edaaa", "bike_id": "5d14dc3812f7253e079d58994b2edaaa", "fusion_lat": 0.0, "is_reserved": 0, "lat": 38.88336366666667, "fusion_lon": 0.0, "is_disabled": 0}, {"rental_uris": {"android": "https://dc.lft.to/lastmile_qr_scan", "ios": "https://dc.lft.to/lastmile_qr_scan"}, "type": "electric_bike", "lon": -76.94948166666667, "name": "26bad5065fcfdc0bc20d4910ccdefd1f", "bike_id": "26bad5065fcfdc0bc20d4910ccdefd1f", "fusion_lat": 0.0, "is_reserved": 0, "lat": 38.9350125, "fusion_lon": 0.0, "is_disabled": 0}, {"rental_uris": {"android": "https://dc.lft.to/lastmile_qr_scan", "ios": "https://dc.lft.to/lastmile_qr_scan"}, "type": "electric_scooter", "lon": -77.03204283333334, "name": "e64a36dc402e17596478a3f6d8ddc9fd", "bike_id": "e64a36dc402e17596478a3f6d8ddc9fd", "fusion_lat": 0.0, "is_reserved": 0, "lat": 38.907514666666664, "fusion_lon": 0.0, "is_disabled": 0}, {"rental_uris": {"android": "https://dc.lft.to/lastmile_qr_scan", "ios": "https://dc.lft.to/lastmile_qr_scan"}, "type": "electric_scooter", "lon": -77.01104316666667, "name": "b092fc4a2f40af40439f2d95c838c624", "bike_id": "b092fc4a2f40af40439f2d95c838c624", "fusion_lat": 0.0, "is_reserved": 0, "lat": 38.9035655, "fusion_lon": 0.0, "is_disabled": 0}, {"rental_uris": {"android": "https://dc.lft.to/lastmile_qr_scan", "ios": "https://dc.lft.to/lastmile_qr_scan"}, "type": "electric_scooter", "lon": -77.01016516666667, "name": "a604a889d4d10b76fee249f28e8c17cb", "bike_id": "a604a889d4d10b76fee249f28e8c17cb", "fusion_lat": 0.0, "is_reserved": 0, "lat": 38.86731733333333, "fusion_lon": 0.0, "is_disabled": 0}, {"rental_uris": {"android": "https://dc.lft.to/lastmile_qr_scan", "ios": "https://dc.lft.to/lastmile_qr_scan"}, "type": "electric_scooter", "lon": -77.03035433333334, "name": "80b14f36810d43a97d0d21d7e8074460", "bike_id": "80b14f36810d43a97d0d21d7e8074460", "fusion_lat": 0.0, "is_reserved": 0, "lat": 38.90861433333333, "fusion_lon": 0.0, "is_disabled": 0}, {"rental_uris": {"android": "https://dc.lft.to/lastmile_qr_scan", "ios": "https://dc.lft.to/lastmile_qr_scan"}, "type": "electric_scooter", "lon": -77.032068, "name": "a5cf9045324bb32afdb11ed41840a044", "bike_id": "a5cf9045324bb32afdb11ed41840a044", "fusion_lat": 0.0, "is_reserved": 0, "lat": 38.918949, "fusion_lon": 0.0, "is_disabled": 0}, {"rental_uris": {"android": "https://dc.lft.to/lastmile_qr_scan", "ios": "https://dc.lft.to/lastmile_qr_scan"}, "type": "electric_scooter", "lon": -77.03277733333333, "name": "5a6380ff818e05a407f1ed6109b70e59", "bike_id": "5a6380ff818e05a407f1ed6109b70e59", "fusion_lat": 0.0, "is_reserved": 0, "lat": 38.9398915, "fusion_lon": 0.0, "is_disabled": 0}, {"rental_uris": {"android": "https://dc.lft.to/lastmile_qr_scan", "ios": "https://dc.lft.to/lastmile_qr_scan"}, "type": "electric_scooter", "lon": -76.99004633333334, "name": "c08d40b037f55aed59230d53eb0a5b26", "bike_id": "c08d40b037f55aed59230d53eb0a5b26", "fusion_lat": 0.0, "is_reserved": 0, "lat": 38.9039375, "fusion_lon": 0.0, "is_disabled": 0}, {"rental_uris": {"android": "https://dc.lft.to/lastmile_qr_scan", "ios": "https://dc.lft.to/lastmile_qr_scan"}, "type": "electric_scooter", "lon": -77.04158166666667, "name": "2cb4832a6a34bb5088ed8c96140ef6e2", "bike_id": "2cb4832a6a34bb5088ed8c96140ef6e2", "fusion_lat": 0.0, "is_reserved": 0, "lat": 38.913554833333336, "fusion_lon": 0.0, "is_disabled": 0}, {"rental_uris": {"android": "https://dc.lft.to/lastmile_qr_scan", "ios": "https://dc.lft.to/lastmile_qr_scan"}, "type": "electric_scooter", "lon": -77.00669666666667, "name": "03f14591f4ca5be8c5b4ab8267befd6a", "bike_id": "03f14591f4ca5be8c5b4ab8267befd6a", "fusion_lat": 0.0, "is_reserved": 0, "lat": 38.94986033333333, "fusion_lon": 0.0, "is_disabled": 0}, {"rental_uris": {"android": "https://dc.lft.to/lastmile_qr_scan", "ios": "https://dc.lft.to/lastmile_qr_scan"}, "type": "electric_scooter", "lon": -76.994926, "name": "0214e7dc7a132419f1301fb302dc5ffa", "bike_id": "0214e7dc7a132419f1301fb302dc5ffa", "fusion_lat": 0.0, "is_reserved": 0, "lat": 38.862393, "fusion_lon": 0.0, "is_disabled": 0}, {"rental_uris": {"android": "https://dc.lft.to/lastmile_qr_scan", "ios": "https://dc.lft.to/lastmile_qr_scan"}, "type": "electric_scooter", "lon": -77.02961316666666, "name": "c20072f1213c74e699e422d9bfead92b", "bike_id": "c20072f1213c74e699e422d9bfead92b", "fusion_lat": 0.0, "is_reserved": 0, "lat": 38.921477333333335, "fusion_lon": 0.0, "is_disabled": 0}, {"rental_uris": {"android": "https://dc.lft.to/lastmile_qr_scan", "ios": "https://dc.lft.to/lastmile_qr_scan"}, "type": "electric_scooter", "lon": -77.032712, "name": "179a177ad7c390ddc0dc6c101c86837b", "bike_id": "179a177ad7c390ddc0dc6c101c86837b", "fusion_lat": 0.0, "is_reserved": 0, "lat": 38.9103865, "fusion_lon": 0.0, "is_disabled": 0}, {"rental_uris": {"android": "https://dc.lft.to/lastmile_qr_scan", "ios": "https://dc.lft.to/lastmile_qr_scan"}, "type": "electric_scooter", "lon": -77.02737316666666, "name": "6fb12cc294bcef350a27d3e66b9f69c6", "bike_id": "6fb12cc294bcef350a27d3e66b9f69c6", "fusion_lat": 0.0, "is_reserved": 0, "lat": 38.95603116666667, "fusion_lon": 0.0, "is_disabled": 0}, {"rental_uris": {"android": "https://dc.lft.to/lastmile_qr_scan", "ios": "https://dc.lft.to/lastmile_qr_scan"}, "type": "electric_bike", "lon": -76.99515083333333, "name": "9a4d454885b0d6f7d8cf5b5e85d1d213", "bike_id": "9a4d454885b0d6f7d8cf5b5e85d1d213", "fusion_lat": 0.0, "is_reserved": 0, "lat": 38.9393055, "fusion_lon": 0.0, "is_disabled": 0}, {"rental_uris": {"android": "https://dc.lft.to/lastmile_qr_scan", "ios": "https://dc.lft.to/lastmile_qr_scan"}, "type": "electric_scooter", "lon": -76.98684433333334, "name": "a7dfcb9d83a65cfd24086620def95364", "bike_id": "a7dfcb9d83a65cfd24086620def95364", "fusion_lat": 0.0, "is_reserved": 0, "lat": 38.8821645, "fusion_lon": 0.0, "is_disabled": 0}, {"rental_uris": {"android": "https://dc.lft.to/lastmile_qr_scan", "ios": "https://dc.lft.to/lastmile_qr_scan"}, "type": "electric_scooter", "lon": -77.04820233333334, "name": "3c3c319b4c2597a49139fd050aadb702", "bike_id": "3c3c319b4c2597a49139fd050aadb702", "fusion_lat": 0.0, "is_reserved": 0, "lat": 38.914879666666664, "fusion_lon": 0.0, "is_disabled": 0}, {"rental_uris": {"android": "https://dc.lft.to/lastmile_qr_scan", "ios": "https://dc.lft.to/lastmile_qr_scan"}, "type": "electric_scooter", "lon": -77.015977, "name": "30ba05bc9fcb66906694de6d2f1fa97f", "bike_id": "30ba05bc9fcb66906694de6d2f1fa97f", "fusion_lat": 0.0, "is_reserved": 0, "lat": 38.90151733333333, "fusion_lon": 0.0, "is_disabled": 0}, {"rental_uris": {"android": "https://dc.lft.to/lastmile_qr_scan", "ios": "https://dc.lft.to/lastmile_qr_scan"}, "type": "electric_scooter", "lon": -77.00816066666667, "name": "4a4dadb266251e7e391348394e9a186c", "bike_id": "4a4dadb266251e7e391348394e9a186c", "fusion_lat": 0.0, "is_reserved": 0, "lat": 38.876378, "fusion_lon": 0.0, "is_disabled": 0}, {"rental_uris": {"android": "https://dc.lft.to/lastmile_qr_scan", "ios": "https://dc.lft.to/lastmile_qr_scan"}, "type": "electric_scooter", "lon": -77.01820066666667, "name": "d04986cdda00430dfd0bc8df605363ed", "bike_id": "d04986cdda00430dfd0bc8df605363ed", "fusion_lat": 0.0, "is_reserved": 0, "lat": 38.908108, "fusion_lon": 0.0, "is_disabled": 0}, {"rental_uris": {"android": "https://dc.lft.to/lastmile_qr_scan", "ios": "https://dc.lft.to/lastmile_qr_scan"}, "type": "electric_scooter", "lon": -77.0432445, "name": "6898db9e1b74d883f689f985015f302b", "bike_id": "6898db9e1b74d883f689f985015f302b", "fusion_lat": 0.0, "is_reserved": 0, "lat": 38.903233666666665, "fusion_lon": 0.0, "is_disabled": 0}, {"rental_uris": {"android": "https://dc.lft.to/lastmile_qr_scan", "ios": "https://dc.lft.to/lastmile_qr_scan"}, "type": "electric_scooter", "lon": -76.96505683333334, "name": "c1e981ae3f2f3ac4fb3ab70ce8563fb1", "bike_id": "c1e981ae3f2f3ac4fb3ab70ce8563fb1", "fusion_lat": 0.0, "is_reserved": 0, "lat": 38.876512, "fusion_lon": 0.0, "is_disabled": 0}, {"rental_uris": {"android": "https://dc.lft.to/lastmile_qr_scan", "ios": "https://dc.lft.to/lastmile_qr_scan"}, "type": "electric_scooter", "lon": -77.043889, "name": "e011d212cf9325f6d7ec2acad61a716f", "bike_id": "e011d212cf9325f6d7ec2acad61a716f", "fusion_lat": 0.0, "is_reserved": 0, "lat": 38.922752833333334, "fusion_lon": 0.0, "is_disabled": 0}, {"rental_uris": {"android": "https://dc.lft.to/lastmile_qr_scan", "ios": "https://dc.lft.to/lastmile_qr_scan"}, "type": "electric_bike", "lon": -77.10912783333333, "name": "a5b2dfd8911593e541e5e0400be24cb4", "bike_id": "a5b2dfd8911593e541e5e0400be24cb4", "fusion_lat": 0.0, "is_reserved": 0, "lat": 39.05206716666667, "fusion_lon": 0.0, "is_disabled": 0}, {"rental_uris": {"android": "https://dc.lft.to/lastmile_qr_scan", "ios": "https://dc.lft.to/lastmile_qr_scan"}, "type": "electric_scooter", "lon": -76.98310716666667, "name": "07640b0047c65f8c6fbe530c9bf53e8e", "bike_id": "07640b0047c65f8c6fbe530c9bf53e8e", "fusion_lat": 0.0, "is_reserved": 0, "lat": 38.868878, "fusion_lon": 0.0, "is_disabled": 0}, {"rental_uris": {"android": "https://dc.lft.to/lastmile_qr_scan", "ios": "https://dc.lft.to/lastmile_qr_scan"}, "type": "electric_scooter", "lon": -77.03505483333333, "name": "98e2134d5287284e42aaccc85b353462", "bike_id": "98e2134d5287284e42aaccc85b353462", "fusion_lat": 0.0, "is_reserved": 0, "lat": 38.91877133333333, "fusion_lon": 0.0, "is_disabled": 0}, {"rental_uris": {"android": "https://dc.lft.to/lastmile_qr_scan", "ios": "https://dc.lft.to/lastmile_qr_scan"}, "type": "electric_scooter", "lon": -77.04339933333333, "name": "5812b74b77eb11d60b2b950053b36930", "bike_id": "5812b74b77eb11d60b2b950053b36930", "fusion_lat": 0.0, "is_reserved": 0, "lat": 38.9037895, "fusion_lon": 0.0, "is_disabled": 0}, {"rental_uris": {"android": "https://dc.lft.to/lastmile_qr_scan", "ios": "https://dc.lft.to/lastmile_qr_scan"}, "type": "electric_scooter", "lon": -77.04149616666666, "name": "7d281ddef22b29c7561dfafe55974a20", "bike_id": "7d281ddef22b29c7561dfafe55974a20", "fusion_lat": 0.0, "is_reserved": 0, "lat": 38.9060925, "fusion_lon": 0.0, "is_disabled": 0}, {"rental_uris": {"android": "https://dc.lft.to/lastmile_qr_scan", "ios": "https://dc.lft.to/lastmile_qr_scan"}, "type": "electric_scooter", "lon": -76.99027233333334, "name": "6c46206f69f4658ec5f8fef909f24fc5", "bike_id": "6c46206f69f4658ec5f8fef909f24fc5", "fusion_lat": 0.0, "is_reserved": 0, "lat": 38.858683666666664, "fusion_lon": 0.0, "is_disabled": 0}, {"rental_uris": {"android": "https://dc.lft.to/lastmile_qr_scan", "ios": "https://dc.lft.to/lastmile_qr_scan"}, "type": "electric_scooter", "lon": -77.02370533333334, "name": "f6bd015969abe0de27edc53948cb010c", "bike_id": "f6bd015969abe0de27edc53948cb010c", "fusion_lat": 0.0, "is_reserved": 0, "lat": 38.892205833333335, "fusion_lon": 0.0, "is_disabled": 0}, {"rental_uris": {"android": "https://dc.lft.to/lastmile_qr_scan", "ios": "https://dc.lft.to/lastmile_qr_scan"}, "type": "electric_scooter", "lon": -77.049056, "name": "7d40149637f1fe26b06ffc6753f56e4a", "bike_id": "7d40149637f1fe26b06ffc6753f56e4a", "fusion_lat": 0.0, "is_reserved": 0, "lat": 38.89253766666667, "fusion_lon": 0.0, "is_disabled": 0}, {"rental_uris": {"android": "https://dc.lft.to/lastmile_qr_scan", "ios": "https://dc.lft.to/lastmile_qr_scan"}, "type": "electric_scooter", "lon": -76.99579883333334, "name": "57539d4a25b225520a77e34415bae526", "bike_id": "57539d4a25b225520a77e34415bae526", "fusion_lat": 0.0, "is_reserved": 0, "lat": 38.92066366666667, "fusion_lon": 0.0, "is_disabled": 0}, {"rental_uris": {"android": "https://dc.lft.to/lastmile_qr_scan", "ios": "https://dc.lft.to/lastmile_qr_scan"}, "type": "electric_bike", "lon": -77.01208016666666, "name": "a4f5214364f24767db81559a6b54ac23", "bike_id": "a4f5214364f24767db81559a6b54ac23", "fusion_lat": 0.0, "is_reserved": 0, "lat": 38.8708105, "fusion_lon": 0.0, "is_disabled": 0}, {"rental_uris": {"android": "https://dc.lft.to/lastmile_qr_scan", "ios": "https://dc.lft.to/lastmile_qr_scan"}, "type": "electric_scooter", "lon": -76.99482233333333, "name": "aeb3c47b9145511e6d277fbe8ec4e94f", "bike_id": "aeb3c47b9145511e6d277fbe8ec4e94f", "fusion_lat": 0.0, "is_reserved": 0, "lat": 38.90096783333333, "fusion_lon": 0.0, "is_disabled": 0}, {"rental_uris": {"android": "https://dc.lft.to/lastmile_qr_scan", "ios": "https://dc.lft.to/lastmile_qr_scan"}, "type": "electric_scooter", "lon": -76.99381866666667, "name": "cf362ea1612fef5649fa5a59e70bc07b", "bike_id": "cf362ea1612fef5649fa5a59e70bc07b", "fusion_lat": 0.0, "is_reserved": 0, "lat": 38.88694683333333, "fusion_lon": 0.0, "is_disabled": 0}, {"rental_uris": {"android": "https://dc.lft.to/lastmile_qr_scan", "ios": "https://dc.lft.to/lastmile_qr_scan"}, "type": "electric_scooter", "lon": -77.0681785, "name": "9e3f607e7ab46954818331c444d8e54f", "bike_id": "9e3f607e7ab46954818331c444d8e54f", "fusion_lat": 0.0, "is_reserved": 0, "lat": 38.916391, "fusion_lon": 0.0, "is_disabled": 0}, {"rental_uris": {"android": "https://dc.lft.to/lastmile_qr_scan", "ios": "https://dc.lft.to/lastmile_qr_scan"}, "type": "electric_scooter", "lon": -77.040166, "name": "aab94f4faaf3d21841fea5b4812f4b96", "bike_id": "aab94f4faaf3d21841fea5b4812f4b96", "fusion_lat": 0.0, "is_reserved": 0, "lat": 38.9027705, "fusion_lon": 0.0, "is_disabled": 0}, {"rental_uris": {"android": "https://dc.lft.to/lastmile_qr_scan", "ios": "https://dc.lft.to/lastmile_qr_scan"}, "type": "electric_scooter", "lon": -77.05804716666667, "name": "84be86dd8a7b75070988901276821686", "bike_id": "84be86dd8a7b75070988901276821686", "fusion_lat": 0.0, "is_reserved": 0, "lat": 38.903745666666666, "fusion_lon": 0.0, "is_disabled": 0}, {"rental_uris": {"android": "https://dc.lft.to/lastmile_qr_scan", "ios": "https://dc.lft.to/lastmile_qr_scan"}, "type": "electric_scooter", "lon": -77.02589683333333, "name": "6f4b3cc06706325b78dd728662ab6de9", "bike_id": "6f4b3cc06706325b78dd728662ab6de9", "fusion_lat": 0.0, "is_reserved": 0, "lat": 38.90010016666667, "fusion_lon": 0.0, "is_disabled": 0}, {"rental_uris": {"android": "https://dc.lft.to/lastmile_qr_scan", "ios": "https://dc.lft.to/lastmile_qr_scan"}, "type": "electric_scooter", "lon": -77.04539216666667, "name": "9afa3dd2649a3d42c74f34d74a539fad", "bike_id": "9afa3dd2649a3d42c74f34d74a539fad", "fusion_lat": 0.0, "is_reserved": 0, "lat": 38.9178845, "fusion_lon": 0.0, "is_disabled": 0}, {"rental_uris": {"android": "https://dc.lft.to/lastmile_qr_scan", "ios": "https://dc.lft.to/lastmile_qr_scan"}, "type": "electric_scooter", "lon": -77.0209495, "name": "9873c8ae6b9e96cd7258f0294dfd1b6e", "bike_id": "9873c8ae6b9e96cd7258f0294dfd1b6e", "fusion_lat": 0.0, "is_reserved": 0, "lat": 38.911033833333335, "fusion_lon": 0.0, "is_disabled": 0}, {"rental_uris": {"android": "https://dc.lft.to/lastmile_qr_scan", "ios": "https://dc.lft.to/lastmile_qr_scan"}, "type": "electric_scooter", "lon": -77.02169416666666, "name": "ec4459b6aa23095b04d3f4550ccf91c8", "bike_id": "ec4459b6aa23095b04d3f4550ccf91c8", "fusion_lat": 0.0, "is_reserved": 0, "lat": 38.9429235, "fusion_lon": 0.0, "is_disabled": 0}, {"rental_uris": {"android": "https://dc.lft.to/lastmile_qr_scan", "ios": "https://dc.lft.to/lastmile_qr_scan"}, "type": "electric_scooter", "lon": -77.03802566666667, "name": "be1f2ba459dba15249308a2e01d0c2a3", "bike_id": "be1f2ba459dba15249308a2e01d0c2a3", "fusion_lat": 0.0, "is_reserved": 0, "lat": 38.9217745, "fusion_lon": 0.0, "is_disabled": 0}, {"rental_uris": {"android": "https://dc.lft.to/lastmile_qr_scan", "ios": "https://dc.lft.to/lastmile_qr_scan"}, "type": "electric_scooter", "lon": -77.03442883333334, "name": "41b525a4f5b2a09a65f88876ebdeb260", "bike_id": "41b525a4f5b2a09a65f88876ebdeb260", "fusion_lat": 0.0, "is_reserved": 0, "lat": 38.9287315, "fusion_lon": 0.0, "is_disabled": 0}, {"rental_uris": {"android": "https://dc.lft.to/lastmile_qr_scan", "ios": "https://dc.lft.to/lastmile_qr_scan"}, "type": "electric_scooter", "lon": -76.99505133333334, "name": "b3928cdc12d6d9af6f933f10f6363a9f", "bike_id": "b3928cdc12d6d9af6f933f10f6363a9f", "fusion_lat": 0.0, "is_reserved": 0, "lat": 38.88094816666667, "fusion_lon": 0.0, "is_disabled": 0}, {"rental_uris": {"android": "https://dc.lft.to/lastmile_qr_scan", "ios": "https://dc.lft.to/lastmile_qr_scan"}, "type": "electric_bike", "lon": -77.13230716666666, "name": "d74e69949ac1d814cac14b2020af4c4c", "bike_id": "d74e69949ac1d814cac14b2020af4c4c", "fusion_lat": 0.0, "is_reserved": 0, "lat": 38.869732166666665, "fusion_lon": 0.0, "is_disabled": 0}, {"rental_uris": {"android": "https://dc.lft.to/lastmile_qr_scan", "ios": "https://dc.lft.to/lastmile_qr_scan"}, "type": "electric_scooter", "lon": -77.03827166666666, "name": "12fa0791f4f718515c913d66740ff641", "bike_id": "12fa0791f4f718515c913d66740ff641", "fusion_lat": 0.0, "is_reserved": 0, "lat": 38.908360333333334, "fusion_lon": 0.0, "is_disabled": 0}, {"rental_uris": {"android": "https://dc.lft.to/lastmile_qr_scan", "ios": "https://dc.lft.to/lastmile_qr_scan"}, "type": "electric_bike", "lon": -76.97980533333333, "name": "252ac39088cf86f396a658fdd8810362", "bike_id": "252ac39088cf86f396a658fdd8810362", "fusion_lat": 0.0, "is_reserved": 0, "lat": 38.95775233333333, "fusion_lon": 0.0, "is_disabled": 0}, {"rental_uris": {"android": "https://dc.lft.to/lastmile_qr_scan", "ios": "https://dc.lft.to/lastmile_qr_scan"}, "type": "electric_scooter", "lon": -77.02475433333333, "name": "b6e852c98eb16cf04ecb431344b7fe71", "bike_id": "b6e852c98eb16cf04ecb431344b7fe71", "fusion_lat": 0.0, "is_reserved": 0, "lat": 38.926522166666665, "fusion_lon": 0.0, "is_disabled": 0}, {"rental_uris": {"android": "https://dc.lft.to/lastmile_qr_scan", "ios": "https://dc.lft.to/lastmile_qr_scan"}, "type": "electric_scooter", "lon": -77.03637516666667, "name": "d946cdb6529650ee04c22a80b0c546ad", "bike_id": "d946cdb6529650ee04c22a80b0c546ad", "fusion_lat": 0.0, "is_reserved": 0, "lat": 38.927405666666665, "fusion_lon": 0.0, "is_disabled": 0}, {"rental_uris": {"android": "https://dc.lft.to/lastmile_qr_scan", "ios": "https://dc.lft.to/lastmile_qr_scan"}, "type": "electric_scooter", "lon": -77.00756516666667, "name": "a0c4f17b762c3b7b73782f8ee79274bc", "bike_id": "a0c4f17b762c3b7b73782f8ee79274bc", "fusion_lat": 0.0, "is_reserved": 0, "lat": 38.876420333333336, "fusion_lon": 0.0, "is_disabled": 0}, {"rental_uris": {"android": "https://dc.lft.to/lastmile_qr_scan", "ios": "https://dc.lft.to/lastmile_qr_scan"}, "type": "electric_scooter", "lon": -77.0214605, "name": "f86476e0e2c271b43c9c794e4b6f051b", "bike_id": "f86476e0e2c271b43c9c794e4b6f051b", "fusion_lat": 0.0, "is_reserved": 0, "lat": 38.89623533333334, "fusion_lon": 0.0, "is_disabled": 0}, {"rental_uris": {"android": "https://dc.lft.to/lastmile_qr_scan", "ios": "https://dc.lft.to/lastmile_qr_scan"}, "type": "electric_scooter", "lon": -77.0198965, "name": "7314d99d691e91a82048ff5b83501ccf", "bike_id": "7314d99d691e91a82048ff5b83501ccf", "fusion_lat": 0.0, "is_reserved": 0, "lat": 38.9132855, "fusion_lon": 0.0, "is_disabled": 0}, {"rental_uris": {"android": "https://dc.lft.to/lastmile_qr_scan", "ios": "https://dc.lft.to/lastmile_qr_scan"}, "type": "electric_scooter", "lon": -77.031557, "name": "54f4aefb2fdcf8314b646a8bb567a8c5", "bike_id": "54f4aefb2fdcf8314b646a8bb567a8c5", "fusion_lat": 0.0, "is_reserved": 0, "lat": 38.92720416666667, "fusion_lon": 0.0, "is_disabled": 0}, {"rental_uris": {"android": "https://dc.lft.to/lastmile_qr_scan", "ios": "https://dc.lft.to/lastmile_qr_scan"}, "type": "electric_scooter", "lon": -77.05013783333334, "name": "d2213823c5c05b993b44a8162b1e94c9", "bike_id": "d2213823c5c05b993b44a8162b1e94c9", "fusion_lat": 0.0, "is_reserved": 0, "lat": 38.90765666666667, "fusion_lon": 0.0, "is_disabled": 0}, {"rental_uris": {"android": "https://dc.lft.to/lastmile_qr_scan", "ios": "https://dc.lft.to/lastmile_qr_scan"}, "type": "electric_bike", "lon": -77.05114766666667, "name": "8b95c282347a6d75c2879474e4a8b3a1", "bike_id": "8b95c282347a6d75c2879474e4a8b3a1", "fusion_lat": 0.0, "is_reserved": 0, "lat": 38.94561566666667, "fusion_lon": 0.0, "is_disabled": 0}, {"rental_uris": {"android": "https://dc.lft.to/lastmile_qr_scan", "ios": "https://dc.lft.to/lastmile_qr_scan"}, "type": "electric_scooter", "lon": -77.02414833333333, "name": "5ee99a6b58bb5ac81e4055950c6e23b8", "bike_id": "5ee99a6b58bb5ac81e4055950c6e23b8", "fusion_lat": 0.0, "is_reserved": 0, "lat": 38.9353425, "fusion_lon": 0.0, "is_disabled": 0}, {"rental_uris": {"android": "https://dc.lft.to/lastmile_qr_scan", "ios": "https://dc.lft.to/lastmile_qr_scan"}, "type": "electric_scooter", "lon": -77.02950783333333, "name": "88cc0333fcb4a59bdd00dd04adf07949", "bike_id": "88cc0333fcb4a59bdd00dd04adf07949", "fusion_lat": 0.0, "is_reserved": 0, "lat": 38.906715, "fusion_lon": 0.0, "is_disabled": 0}, {"rental_uris": {"android": "https://dc.lft.to/lastmile_qr_scan", "ios": "https://dc.lft.to/lastmile_qr_scan"}, "type": "electric_bike", "lon": -77.10721533333333, "name": "8e167377616c584eb547e456f58ad799", "bike_id": "8e167377616c584eb547e456f58ad799", "fusion_lat": 0.0, "is_reserved": 0, "lat": 38.855451333333335, "fusion_lon": 0.0, "is_disabled": 0}, {"rental_uris": {"android": "https://dc.lft.to/lastmile_qr_scan", "ios": "https://dc.lft.to/lastmile_qr_scan"}, "type": "electric_scooter", "lon": -76.95864133333333, "name": "b958e8adee14b06292c0151b4d6e0e79", "bike_id": "b958e8adee14b06292c0151b4d6e0e79", "fusion_lat": 0.0, "is_reserved": 0, "lat": 38.92998383333333, "fusion_lon": 0.0, "is_disabled": 0}, {"rental_uris": {"android": "https://dc.lft.to/lastmile_qr_scan", "ios": "https://dc.lft.to/lastmile_qr_scan"}, "type": "electric_scooter", "lon": -77.03879683333334, "name": "1a75b9eafb32a84a9bf27be8c7e2b581", "bike_id": "1a75b9eafb32a84a9bf27be8c7e2b581", "fusion_lat": 0.0, "is_reserved": 0, "lat": 38.934260333333334, "fusion_lon": 0.0, "is_disabled": 0}, {"rental_uris": {"android": "https://dc.lft.to/lastmile_qr_scan", "ios": "https://dc.lft.to/lastmile_qr_scan"}, "type": "electric_scooter", "lon": -77.00132916666666, "name": "bcf9b6e72c2c21f0ed9d66659cea8e72", "bike_id": "bcf9b6e72c2c21f0ed9d66659cea8e72", "fusion_lat": 0.0, "is_reserved": 0, "lat": 38.90021133333333, "fusion_lon": 0.0, "is_disabled": 0}, {"rental_uris": {"android": "https://dc.lft.to/lastmile_qr_scan", "ios": "https://dc.lft.to/lastmile_qr_scan"}, "type": "electric_scooter", "lon": -77.04199283333334, "name": "bbeaec7b92af5a05c476388adaf54f25", "bike_id": "bbeaec7b92af5a05c476388adaf54f25", "fusion_lat": 0.0, "is_reserved": 0, "lat": 38.8922205, "fusion_lon": 0.0, "is_disabled": 0}, {"rental_uris": {"android": "https://dc.lft.to/lastmile_qr_scan", "ios": "https://dc.lft.to/lastmile_qr_scan"}, "type": "electric_scooter", "lon": -76.990249, "name": "6e495cbd5555ec35678fc296db780147", "bike_id": "6e495cbd5555ec35678fc296db780147", "fusion_lat": 0.0, "is_reserved": 0, "lat": 38.8984845, "fusion_lon": 0.0, "is_disabled": 0}, {"rental_uris": {"android": "https://dc.lft.to/lastmile_qr_scan", "ios": "https://dc.lft.to/lastmile_qr_scan"}, "type": "electric_scooter", "lon": -77.027068, "name": "6b3408f50c8a2ad549ac06a6f19b028a", "bike_id": "6b3408f50c8a2ad549ac06a6f19b028a", "fusion_lat": 0.0, "is_reserved": 0, "lat": 38.9278285, "fusion_lon": 0.0, "is_disabled": 0}, {"rental_uris": {"android": "https://dc.lft.to/lastmile_qr_scan", "ios": "https://dc.lft.to/lastmile_qr_scan"}, "type": "electric_scooter", "lon": -76.9745125, "name": "21689752c01d724b752704c888034688", "bike_id": "21689752c01d724b752704c888034688", "fusion_lat": 0.0, "is_reserved": 0, "lat": 38.863691, "fusion_lon": 0.0, "is_disabled": 0}, {"rental_uris": {"android": "https://dc.lft.to/lastmile_qr_scan", "ios": "https://dc.lft.to/lastmile_qr_scan"}, "type": "electric_bike", "lon": -77.069737, "name": "806f34b2889564c403aaf8f00a5ff7cb", "bike_id": "806f34b2889564c403aaf8f00a5ff7cb", "fusion_lat": 0.0, "is_reserved": 0, "lat": 38.95271916666667, "fusion_lon": 0.0, "is_disabled": 0}, {"rental_uris": {"android": "https://dc.lft.to/lastmile_qr_scan", "ios": "https://dc.lft.to/lastmile_qr_scan"}, "type": "electric_scooter", "lon": -77.00602, "name": "14a951eec50af5e4b7e72aa97d442ebc", "bike_id": "14a951eec50af5e4b7e72aa97d442ebc", "fusion_lat": 0.0, "is_reserved": 0, "lat": 38.90574566666667, "fusion_lon": 0.0, "is_disabled": 0}, {"rental_uris": {"android": "https://dc.lft.to/lastmile_qr_scan", "ios": "https://dc.lft.to/lastmile_qr_scan"}, "type": "electric_scooter", "lon": -77.0422505, "name": "c17722312427083706a187fbf279d4a4", "bike_id": "c17722312427083706a187fbf279d4a4", "fusion_lat": 0.0, "is_reserved": 0, "lat": 38.91108, "fusion_lon": 0.0, "is_disabled": 0}, {"rental_uris": {"android": "https://dc.lft.to/lastmile_qr_scan", "ios": "https://dc.lft.to/lastmile_qr_scan"}, "type": "electric_scooter", "lon": -77.03657083333333, "name": "b0511664dd0da809e896d3d88704db2d", "bike_id": "b0511664dd0da809e896d3d88704db2d", "fusion_lat": 0.0, "is_reserved": 0, "lat": 38.918667666666664, "fusion_lon": 0.0, "is_disabled": 0}, {"rental_uris": {"android": "https://dc.lft.to/lastmile_qr_scan", "ios": "https://dc.lft.to/lastmile_qr_scan"}, "type": "electric_scooter", "lon": -77.0418545, "name": "f6f8d116c4a7ad623a8d92241745d90e", "bike_id": "f6f8d116c4a7ad623a8d92241745d90e", "fusion_lat": 0.0, "is_reserved": 0, "lat": 38.920522, "fusion_lon": 0.0, "is_disabled": 0}, {"rental_uris": {"android": "https://dc.lft.to/lastmile_qr_scan", "ios": "https://dc.lft.to/lastmile_qr_scan"}, "type": "electric_scooter", "lon": -77.00191733333334, "name": "923aa879f7a6d94f710500f1796f5c1e", "bike_id": "923aa879f7a6d94f710500f1796f5c1e", "fusion_lat": 0.0, "is_reserved": 0, "lat": 38.900314333333334, "fusion_lon": 0.0, "is_disabled": 0}, {"rental_uris": {"android": "https://dc.lft.to/lastmile_qr_scan", "ios": "https://dc.lft.to/lastmile_qr_scan"}, "type": "electric_scooter", "lon": -77.02208133333333, "name": "3f86905ae068c7e11bbe7d163ee75e6c", "bike_id": "3f86905ae068c7e11bbe7d163ee75e6c", "fusion_lat": 0.0, "is_reserved": 0, "lat": 38.910086666666665, "fusion_lon": 0.0, "is_disabled": 0}, {"rental_uris": {"android": "https://dc.lft.to/lastmile_qr_scan", "ios": "https://dc.lft.to/lastmile_qr_scan"}, "type": "electric_bike", "lon": -77.089248, "name": "6fad2d00ff2ad98f2ea2fa7696d51d6c", "bike_id": "6fad2d00ff2ad98f2ea2fa7696d51d6c", "fusion_lat": 0.0, "is_reserved": 0, "lat": 38.8409, "fusion_lon": 0.0, "is_disabled": 0}, {"rental_uris": {"android": "https://dc.lft.to/lastmile_qr_scan", "ios": "https://dc.lft.to/lastmile_qr_scan"}, "type": "electric_scooter", "lon": -77.03278466666667, "name": "1394dfcddafbfe3b1931b6951bda5fc9", "bike_id": "1394dfcddafbfe3b1931b6951bda5fc9", "fusion_lat": 0.0, "is_reserved": 0, "lat": 38.956481833333335, "fusion_lon": 0.0, "is_disabled": 0}, {"rental_uris": {"android": "https://dc.lft.to/lastmile_qr_scan", "ios": "https://dc.lft.to/lastmile_qr_scan"}, "type": "electric_scooter", "lon": -77.03208333333333, "name": "e272037aa01af147d717e1145de1416e", "bike_id": "e272037aa01af147d717e1145de1416e", "fusion_lat": 0.0, "is_reserved": 0, "lat": 38.91887083333334, "fusion_lon": 0.0, "is_disabled": 0}, {"rental_uris": {"android": "https://dc.lft.to/lastmile_qr_scan", "ios": "https://dc.lft.to/lastmile_qr_scan"}, "type": "electric_scooter", "lon": -76.94792933333333, "name": "7281b4c34c71c9f7ab6feb75bbd063ae", "bike_id": "7281b4c34c71c9f7ab6feb75bbd063ae", "fusion_lat": 0.0, "is_reserved": 0, "lat": 38.89629383333333, "fusion_lon": 0.0, "is_disabled": 0}, {"rental_uris": {"android": "https://dc.lft.to/lastmile_qr_scan", "ios": "https://dc.lft.to/lastmile_qr_scan"}, "type": "electric_scooter", "lon": -76.9977765, "name": "cd28ebd0afb54c2d280eba82ca198a48", "bike_id": "cd28ebd0afb54c2d280eba82ca198a48", "fusion_lat": 0.0, "is_reserved": 0, "lat": 38.844222333333335, "fusion_lon": 0.0, "is_disabled": 0}, {"rental_uris": {"android": "https://dc.lft.to/lastmile_qr_scan", "ios": "https://dc.lft.to/lastmile_qr_scan"}, "type": "electric_scooter", "lon": -77.01143916666666, "name": "b50d6d72bc475585f13c13a6d7d784eb", "bike_id": "b50d6d72bc475585f13c13a6d7d784eb", "fusion_lat": 0.0, "is_reserved": 0, "lat": 38.918118, "fusion_lon": 0.0, "is_disabled": 0}, {"rental_uris": {"android": "https://dc.lft.to/lastmile_qr_scan", "ios": "https://dc.lft.to/lastmile_qr_scan"}, "type": "electric_bike", "lon": -77.026781, "name": "a4f504516213dc763e946aee95fb3d13", "bike_id": "a4f504516213dc763e946aee95fb3d13", "fusion_lat": 0.0, "is_reserved": 0, "lat": 38.973792833333334, "fusion_lon": 0.0, "is_disabled": 0}, {"rental_uris": {"android": "https://dc.lft.to/lastmile_qr_scan", "ios": "https://dc.lft.to/lastmile_qr_scan"}, "type": "electric_scooter", "lon": -76.94939016666666, "name": "fb46e8ea2382362bff35acd89cf3f0b8", "bike_id": "fb46e8ea2382362bff35acd89cf3f0b8", "fusion_lat": 0.0, "is_reserved": 0, "lat": 38.883169333333335, "fusion_lon": 0.0, "is_disabled": 0}, {"rental_uris": {"android": "https://dc.lft.to/lastmile_qr_scan", "ios": "https://dc.lft.to/lastmile_qr_scan"}, "type": "electric_scooter", "lon": -77.01251916666666, "name": "803af225eca85bd22338de11df3b533e", "bike_id": "803af225eca85bd22338de11df3b533e", "fusion_lat": 0.0, "is_reserved": 0, "lat": 38.90865216666667, "fusion_lon": 0.0, "is_disabled": 0}, {"rental_uris": {"android": "https://dc.lft.to/lastmile_qr_scan", "ios": "https://dc.lft.to/lastmile_qr_scan"}, "type": "electric_scooter", "lon": -77.01339216666666, "name": "525e4242c0ccf2097430eaa7b0e94300", "bike_id": "525e4242c0ccf2097430eaa7b0e94300", "fusion_lat": 0.0, "is_reserved": 0, "lat": 38.91912683333334, "fusion_lon": 0.0, "is_disabled": 0}, {"rental_uris": {"android": "https://dc.lft.to/lastmile_qr_scan", "ios": "https://dc.lft.to/lastmile_qr_scan"}, "type": "electric_scooter", "lon": -77.012764, "name": "bb390e66f0803c7e50a8ac9747fa604d", "bike_id": "bb390e66f0803c7e50a8ac9747fa604d", "fusion_lat": 0.0, "is_reserved": 0, "lat": 38.91564116666667, "fusion_lon": 0.0, "is_disabled": 0}, {"rental_uris": {"android": "https://dc.lft.to/lastmile_qr_scan", "ios": "https://dc.lft.to/lastmile_qr_scan"}, "type": "electric_scooter", "lon": -76.96517883333334, "name": "426878ccb0ff0483a14f86c2b168dca9", "bike_id": "426878ccb0ff0483a14f86c2b168dca9", "fusion_lat": 0.0, "is_reserved": 0, "lat": 38.874823166666665, "fusion_lon": 0.0, "is_disabled": 0}, {"rental_uris": {"android": "https://dc.lft.to/lastmile_qr_scan", "ios": "https://dc.lft.to/lastmile_qr_scan"}, "type": "electric_scooter", "lon": -76.97472533333334, "name": "4669e6944de958a75a6a93357c210dd9", "bike_id": "4669e6944de958a75a6a93357c210dd9", "fusion_lat": 0.0, "is_reserved": 0, "lat": 38.9035385, "fusion_lon": 0.0, "is_disabled": 0}, {"rental_uris": {"android": "https://dc.lft.to/lastmile_qr_scan", "ios": "https://dc.lft.to/lastmile_qr_scan"}, "type": "electric_scooter", "lon": -77.02701266666666, "name": "86c89b3c45bb8187ca13a7e0a0751193", "bike_id": "86c89b3c45bb8187ca13a7e0a0751193", "fusion_lat": 0.0, "is_reserved": 0, "lat": 38.9499705, "fusion_lon": 0.0, "is_disabled": 0}, {"rental_uris": {"android": "https://dc.lft.to/lastmile_qr_scan", "ios": "https://dc.lft.to/lastmile_qr_scan"}, "type": "electric_scooter", "lon": -77.02322, "name": "c63cef36132b34f3c48ab05774648042", "bike_id": "c63cef36132b34f3c48ab05774648042", "fusion_lat": 0.0, "is_reserved": 0, "lat": 38.91684166666667, "fusion_lon": 0.0, "is_disabled": 0}, {"rental_uris": {"android": "https://dc.lft.to/lastmile_qr_scan", "ios": "https://dc.lft.to/lastmile_qr_scan"}, "type": "electric_scooter", "lon": -77.07290533333334, "name": "bee0e7e39e8535683a8664751ee4b900", "bike_id": "bee0e7e39e8535683a8664751ee4b900", "fusion_lat": 0.0, "is_reserved": 0, "lat": 38.93057683333333, "fusion_lon": 0.0, "is_disabled": 0}, {"rental_uris": {"android": "https://dc.lft.to/lastmile_qr_scan", "ios": "https://dc.lft.to/lastmile_qr_scan"}, "type": "electric_scooter", "lon": -77.0339765, "name": "fa93b87181582892a80a7e85216c3f24", "bike_id": "fa93b87181582892a80a7e85216c3f24", "fusion_lat": 0.0, "is_reserved": 0, "lat": 38.919249666666666, "fusion_lon": 0.0, "is_disabled": 0}, {"rental_uris": {"android": "https://dc.lft.to/lastmile_qr_scan", "ios": "https://dc.lft.to/lastmile_qr_scan"}, "type": "electric_scooter", "lon": -77.03053333333334, "name": "331be54eb5c0eea7b02d90d0bff053f3", "bike_id": "331be54eb5c0eea7b02d90d0bff053f3", "fusion_lat": 0.0, "is_reserved": 0, "lat": 38.8840965, "fusion_lon": 0.0, "is_disabled": 0}, {"rental_uris": {"android": "https://dc.lft.to/lastmile_qr_scan", "ios": "https://dc.lft.to/lastmile_qr_scan"}, "type": "electric_scooter", "lon": -77.03446683333334, "name": "98c20c3fbacf4cf178d0ced1492951e1", "bike_id": "98c20c3fbacf4cf178d0ced1492951e1", "fusion_lat": 0.0, "is_reserved": 0, "lat": 38.90232783333333, "fusion_lon": 0.0, "is_disabled": 0}, {"rental_uris": {"android": "https://dc.lft.to/lastmile_qr_scan", "ios": "https://dc.lft.to/lastmile_qr_scan"}, "type": "electric_scooter", "lon": -76.9938185, "name": "4ab1f48c28ab1d0fefc656d1f31653f5", "bike_id": "4ab1f48c28ab1d0fefc656d1f31653f5", "fusion_lat": 0.0, "is_reserved": 0, "lat": 38.887109, "fusion_lon": 0.0, "is_disabled": 0}, {"rental_uris": {"android": "https://dc.lft.to/lastmile_qr_scan", "ios": "https://dc.lft.to/lastmile_qr_scan"}, "type": "electric_scooter", "lon": -76.99029816666666, "name": "375a604411f696e95ccd116d03bc04ce", "bike_id": "375a604411f696e95ccd116d03bc04ce", "fusion_lat": 0.0, "is_reserved": 0, "lat": 38.86406266666667, "fusion_lon": 0.0, "is_disabled": 0}, {"rental_uris": {"android": "https://dc.lft.to/lastmile_qr_scan", "ios": "https://dc.lft.to/lastmile_qr_scan"}, "type": "electric_scooter", "lon": -77.00596916666667, "name": "f2dcd9938d2ea076a6ee1ae54e048d25", "bike_id": "f2dcd9938d2ea076a6ee1ae54e048d25", "fusion_lat": 0.0, "is_reserved": 0, "lat": 38.90818683333333, "fusion_lon": 0.0, "is_disabled": 0}, {"rental_uris": {"android": "https://dc.lft.to/lastmile_qr_scan", "ios": "https://dc.lft.to/lastmile_qr_scan"}, "type": "electric_scooter", "lon": -77.06095266666667, "name": "0be1ae17e8f42d557e5d96e78923b879", "bike_id": "0be1ae17e8f42d557e5d96e78923b879", "fusion_lat": 0.0, "is_reserved": 0, "lat": 38.94364683333333, "fusion_lon": 0.0, "is_disabled": 0}, {"rental_uris": {"android": "https://dc.lft.to/lastmile_qr_scan", "ios": "https://dc.lft.to/lastmile_qr_scan"}, "type": "electric_scooter", "lon": -77.048835, "name": "a808e526ee8960df8f1b20178cb65b5a", "bike_id": "a808e526ee8960df8f1b20178cb65b5a", "fusion_lat": 0.0, "is_reserved": 0, "lat": 38.90093316666667, "fusion_lon": 0.0, "is_disabled": 0}, {"rental_uris": {"android": "https://dc.lft.to/lastmile_qr_scan", "ios": "https://dc.lft.to/lastmile_qr_scan"}, "type": "electric_scooter", "lon": -77.0202325, "name": "e53a772958b61a7487509cc7135b0a98", "bike_id": "e53a772958b61a7487509cc7135b0a98", "fusion_lat": 0.0, "is_reserved": 0, "lat": 38.92432216666667, "fusion_lon": 0.0, "is_disabled": 0}, {"rental_uris": {"android": "https://dc.lft.to/lastmile_qr_scan", "ios": "https://dc.lft.to/lastmile_qr_scan"}, "type": "electric_scooter", "lon": -76.9906345, "name": "a615222a285a56cf21e3d916b77432c9", "bike_id": "a615222a285a56cf21e3d916b77432c9", "fusion_lat": 0.0, "is_reserved": 0, "lat": 38.92944116666666, "fusion_lon": 0.0, "is_disabled": 0}, {"rental_uris": {"android": "https://dc.lft.to/lastmile_qr_scan", "ios": "https://dc.lft.to/lastmile_qr_scan"}, "type": "electric_scooter", "lon": -77.04034083333333, "name": "94e032640adedbc0b2c95a95b3346bf2", "bike_id": "94e032640adedbc0b2c95a95b3346bf2", "fusion_lat": 0.0, "is_reserved": 0, "lat": 38.9245355, "fusion_lon": 0.0, "is_disabled": 0}, {"rental_uris": {"android": "https://dc.lft.to/lastmile_qr_scan", "ios": "https://dc.lft.to/lastmile_qr_scan"}, "type": "electric_scooter", "lon": -77.04763866666667, "name": "be9d951b2a50bcc0f5721ac7e4897daf", "bike_id": "be9d951b2a50bcc0f5721ac7e4897daf", "fusion_lat": 0.0, "is_reserved": 0, "lat": 38.91748066666667, "fusion_lon": 0.0, "is_disabled": 0}, {"rental_uris": {"android": "https://dc.lft.to/lastmile_qr_scan", "ios": "https://dc.lft.to/lastmile_qr_scan"}, "type": "electric_scooter", "lon": -76.997228, "name": "b80050519d7b1cf00a2f85c47aa10579", "bike_id": "b80050519d7b1cf00a2f85c47aa10579", "fusion_lat": 0.0, "is_reserved": 0, "lat": 38.8989985, "fusion_lon": 0.0, "is_disabled": 0}, {"rental_uris": {"android": "https://dc.lft.to/lastmile_qr_scan", "ios": "https://dc.lft.to/lastmile_qr_scan"}, "type": "electric_scooter", "lon": -77.041489, "name": "3f654765c47c6f80ac1351c4ffa45ef5", "bike_id": "3f654765c47c6f80ac1351c4ffa45ef5", "fusion_lat": 0.0, "is_reserved": 0, "lat": 38.91963466666667, "fusion_lon": 0.0, "is_disabled": 0}, {"rental_uris": {"android": "https://dc.lft.to/lastmile_qr_scan", "ios": "https://dc.lft.to/lastmile_qr_scan"}, "type": "electric_scooter", "lon": -77.06770216666666, "name": "52214d3ee786380c58dfb748d5a566c6", "bike_id": "52214d3ee786380c58dfb748d5a566c6", "fusion_lat": 0.0, "is_reserved": 0, "lat": 38.90366216666666, "fusion_lon": 0.0, "is_disabled": 0}, {"rental_uris": {"android": "https://dc.lft.to/lastmile_qr_scan", "ios": "https://dc.lft.to/lastmile_qr_scan"}, "type": "electric_scooter", "lon": -77.03903616666666, "name": "448ae13ed9f7d5d2750ce3d791c29677", "bike_id": "448ae13ed9f7d5d2750ce3d791c29677", "fusion_lat": 0.0, "is_reserved": 0, "lat": 38.91419116666667, "fusion_lon": 0.0, "is_disabled": 0}, {"rental_uris": {"android": "https://dc.lft.to/lastmile_qr_scan", "ios": "https://dc.lft.to/lastmile_qr_scan"}, "type": "electric_scooter", "lon": -77.0195185, "name": "457cdd792d73332fe41292e01f94f56f", "bike_id": "457cdd792d73332fe41292e01f94f56f", "fusion_lat": 0.0, "is_reserved": 0, "lat": 38.922521833333334, "fusion_lon": 0.0, "is_disabled": 0}, {"rental_uris": {"android": "https://dc.lft.to/lastmile_qr_scan", "ios": "https://dc.lft.to/lastmile_qr_scan"}, "type": "electric_scooter", "lon": -77.0074555, "name": "973345364c1556752eef869925e63221", "bike_id": "973345364c1556752eef869925e63221", "fusion_lat": 0.0, "is_reserved": 0, "lat": 38.876455166666666, "fusion_lon": 0.0, "is_disabled": 0}, {"rental_uris": {"android": "https://dc.lft.to/lastmile_qr_scan", "ios": "https://dc.lft.to/lastmile_qr_scan"}, "type": "electric_scooter", "lon": -76.99446883333333, "name": "650b80338f5d4317ce69b51f91fb067d", "bike_id": "650b80338f5d4317ce69b51f91fb067d", "fusion_lat": 0.0, "is_reserved": 0, "lat": 38.905080833333336, "fusion_lon": 0.0, "is_disabled": 0}, {"rental_uris": {"android": "https://dc.lft.to/lastmile_qr_scan", "ios": "https://dc.lft.to/lastmile_qr_scan"}, "type": "electric_scooter", "lon": -77.02972383333334, "name": "072b803498b90dc63a0d9d06b7460758", "bike_id": "072b803498b90dc63a0d9d06b7460758", "fusion_lat": 0.0, "is_reserved": 0, "lat": 38.923117166666664, "fusion_lon": 0.0, "is_disabled": 0}, {"rental_uris": {"android": "https://dc.lft.to/lastmile_qr_scan", "ios": "https://dc.lft.to/lastmile_qr_scan"}, "type": "electric_scooter", "lon": -76.95512966666666, "name": "23cd154179e513f1b5349d8c9bd59230", "bike_id": "23cd154179e513f1b5349d8c9bd59230", "fusion_lat": 0.0, "is_reserved": 0, "lat": 38.89053083333334, "fusion_lon": 0.0, "is_disabled": 0}, {"rental_uris": {"android": "https://dc.lft.to/lastmile_qr_scan", "ios": "https://dc.lft.to/lastmile_qr_scan"}, "type": "electric_scooter", "lon": -77.0219025, "name": "74206de28057f79cc12264fcfa9a0721", "bike_id": "74206de28057f79cc12264fcfa9a0721", "fusion_lat": 0.0, "is_reserved": 0, "lat": 38.916905666666665, "fusion_lon": 0.0, "is_disabled": 0}, {"rental_uris": {"android": "https://dc.lft.to/lastmile_qr_scan", "ios": "https://dc.lft.to/lastmile_qr_scan"}, "type": "electric_scooter", "lon": -76.969253, "name": "822e8399aed1146a34db9118d6d631d2", "bike_id": "822e8399aed1146a34db9118d6d631d2", "fusion_lat": 0.0, "is_reserved": 0, "lat": 38.930329666666665, "fusion_lon": 0.0, "is_disabled": 0}, {"rental_uris": {"android": "https://dc.lft.to/lastmile_qr_scan", "ios": "https://dc.lft.to/lastmile_qr_scan"}, "type": "electric_scooter", "lon": -76.98120533333334, "name": "ed62bfd62a658bf54fe10f80ff8ca716", "bike_id": "ed62bfd62a658bf54fe10f80ff8ca716", "fusion_lat": 0.0, "is_reserved": 0, "lat": 38.891978, "fusion_lon": 0.0, "is_disabled": 0}, {"rental_uris": {"android": "https://dc.lft.to/lastmile_qr_scan", "ios": "https://dc.lft.to/lastmile_qr_scan"}, "type": "electric_scooter", "lon": -77.027068, "name": "f9d3685510b2719b4b60fa5a4a44f5d0", "bike_id": "f9d3685510b2719b4b60fa5a4a44f5d0", "fusion_lat": 0.0, "is_reserved": 0, "lat": 38.906676833333336, "fusion_lon": 0.0, "is_disabled": 0}, {"rental_uris": {"android": "https://dc.lft.to/lastmile_qr_scan", "ios": "https://dc.lft.to/lastmile_qr_scan"}, "type": "electric_bike", "lon": -76.98558083333333, "name": "f89c26e220dc9008c7078654ed744e13", "bike_id": "f89c26e220dc9008c7078654ed744e13", "fusion_lat": 0.0, "is_reserved": 0, "lat": 38.8689185, "fusion_lon": 0.0, "is_disabled": 0}, {"rental_uris": {"android": "https://dc.lft.to/lastmile_qr_scan", "ios": "https://dc.lft.to/lastmile_qr_scan"}, "type": "electric_scooter", "lon": -77.034962, "name": "455065bc25fb037c68ffac729a5d6719", "bike_id": "455065bc25fb037c68ffac729a5d6719", "fusion_lat": 0.0, "is_reserved": 0, "lat": 38.935683833333336, "fusion_lon": 0.0, "is_disabled": 0}, {"rental_uris": {"android": "https://dc.lft.to/lastmile_qr_scan", "ios": "https://dc.lft.to/lastmile_qr_scan"}, "type": "electric_scooter", "lon": -77.03338266666667, "name": "057d17073807f418df28304231b7ba99", "bike_id": "057d17073807f418df28304231b7ba99", "fusion_lat": 0.0, "is_reserved": 0, "lat": 38.90971366666667, "fusion_lon": 0.0, "is_disabled": 0}, {"rental_uris": {"android": "https://dc.lft.to/lastmile_qr_scan", "ios": "https://dc.lft.to/lastmile_qr_scan"}, "type": "electric_scooter", "lon": -77.00293, "name": "8de053cbc8cf9c5cbf413e0b9b3ca93f", "bike_id": "8de053cbc8cf9c5cbf413e0b9b3ca93f", "fusion_lat": 0.0, "is_reserved": 0, "lat": 38.90895833333333, "fusion_lon": 0.0, "is_disabled": 0}, {"rental_uris": {"android": "https://dc.lft.to/lastmile_qr_scan", "ios": "https://dc.lft.to/lastmile_qr_scan"}, "type": "electric_scooter", "lon": -77.04838633333334, "name": "3ed954324a9443864089835f22069965", "bike_id": "3ed954324a9443864089835f22069965", "fusion_lat": 0.0, "is_reserved": 0, "lat": 38.91626216666667, "fusion_lon": 0.0, "is_disabled": 0}, {"rental_uris": {"android": "https://dc.lft.to/lastmile_qr_scan", "ios": "https://dc.lft.to/lastmile_qr_scan"}, "type": "electric_scooter", "lon": -77.02688966666666, "name": "252f85f93ff95ac0419cda534970542a", "bike_id": "252f85f93ff95ac0419cda534970542a", "fusion_lat": 0.0, "is_reserved": 0, "lat": 38.899893, "fusion_lon": 0.0, "is_disabled": 0}, {"rental_uris": {"android": "https://dc.lft.to/lastmile_qr_scan", "ios": "https://dc.lft.to/lastmile_qr_scan"}, "type": "electric_scooter", "lon": -77.0422715, "name": "acd664a937c80be77d67a3d356413fb7", "bike_id": "acd664a937c80be77d67a3d356413fb7", "fusion_lat": 0.0, "is_reserved": 0, "lat": 38.9110795, "fusion_lon": 0.0, "is_disabled": 0}, {"rental_uris": {"android": "https://dc.lft.to/lastmile_qr_scan", "ios": "https://dc.lft.to/lastmile_qr_scan"}, "type": "electric_scooter", "lon": -77.026908, "name": "3d05e2f8a822f6fe5c80b684d1156cd1", "bike_id": "3d05e2f8a822f6fe5c80b684d1156cd1", "fusion_lat": 0.0, "is_reserved": 0, "lat": 38.908453333333334, "fusion_lon": 0.0, "is_disabled": 0}, {"rental_uris": {"android": "https://dc.lft.to/lastmile_qr_scan", "ios": "https://dc.lft.to/lastmile_qr_scan"}, "type": "electric_scooter", "lon": -76.946401, "name": "8f6ab8a473cfdab695989538b777f18b", "bike_id": "8f6ab8a473cfdab695989538b777f18b", "fusion_lat": 0.0, "is_reserved": 0, "lat": 38.89841533333333, "fusion_lon": 0.0, "is_disabled": 0}, {"rental_uris": {"android": "https://dc.lft.to/lastmile_qr_scan", "ios": "https://dc.lft.to/lastmile_qr_scan"}, "type": "electric_scooter", "lon": -77.03088433333333, "name": "7fa542ef5c4334743530f3ac9ee19a2c", "bike_id": "7fa542ef5c4334743530f3ac9ee19a2c", "fusion_lat": 0.0, "is_reserved": 0, "lat": 38.92237883333333, "fusion_lon": 0.0, "is_disabled": 0}, {"rental_uris": {"android": "https://dc.lft.to/lastmile_qr_scan", "ios": "https://dc.lft.to/lastmile_qr_scan"}, "type": "electric_scooter", "lon": -77.06495716666667, "name": "2e6eb97c158732289f208e093dfbcfc9", "bike_id": "2e6eb97c158732289f208e093dfbcfc9", "fusion_lat": 0.0, "is_reserved": 0, "lat": 38.9051985, "fusion_lon": 0.0, "is_disabled": 0}, {"rental_uris": {"android": "https://dc.lft.to/lastmile_qr_scan", "ios": "https://dc.lft.to/lastmile_qr_scan"}, "type": "electric_scooter", "lon": -77.0182135, "name": "ee66f292f72bb2803e7a5056bdb5a409", "bike_id": "ee66f292f72bb2803e7a5056bdb5a409", "fusion_lat": 0.0, "is_reserved": 0, "lat": 38.911122666666664, "fusion_lon": 0.0, "is_disabled": 0}, {"rental_uris": {"android": "https://dc.lft.to/lastmile_qr_scan", "ios": "https://dc.lft.to/lastmile_qr_scan"}, "type": "electric_scooter", "lon": -76.94718366666666, "name": "a138a00d646ddcad221476967d974f26", "bike_id": "a138a00d646ddcad221476967d974f26", "fusion_lat": 0.0, "is_reserved": 0, "lat": 38.89736333333333, "fusion_lon": 0.0, "is_disabled": 0}, {"rental_uris": {"android": "https://dc.lft.to/lastmile_qr_scan", "ios": "https://dc.lft.to/lastmile_qr_scan"}, "type": "electric_scooter", "lon": -77.05908466666666, "name": "59698b687c802c90eef71d82e25289c1", "bike_id": "59698b687c802c90eef71d82e25289c1", "fusion_lat": 0.0, "is_reserved": 0, "lat": 38.905326333333335, "fusion_lon": 0.0, "is_disabled": 0}, {"rental_uris": {"android": "https://dc.lft.to/lastmile_qr_scan", "ios": "https://dc.lft.to/lastmile_qr_scan"}, "type": "electric_scooter", "lon": -76.99601666666666, "name": "261b6003fcabf917c6aa65f2d6ef28c6", "bike_id": "261b6003fcabf917c6aa65f2d6ef28c6", "fusion_lat": 0.0, "is_reserved": 0, "lat": 38.9261685, "fusion_lon": 0.0, "is_disabled": 0}, {"rental_uris": {"android": "https://dc.lft.to/lastmile_qr_scan", "ios": "https://dc.lft.to/lastmile_qr_scan"}, "type": "electric_scooter", "lon": -76.99141566666667, "name": "dd2004273b891717f6169875958777bd", "bike_id": "dd2004273b891717f6169875958777bd", "fusion_lat": 0.0, "is_reserved": 0, "lat": 38.8822265, "fusion_lon": 0.0, "is_disabled": 0}, {"rental_uris": {"android": "https://dc.lft.to/lastmile_qr_scan", "ios": "https://dc.lft.to/lastmile_qr_scan"}, "type": "electric_scooter", "lon": -77.01052933333334, "name": "8ce23a900e1769b48a73426dd0760424", "bike_id": "8ce23a900e1769b48a73426dd0760424", "fusion_lat": 0.0, "is_reserved": 0, "lat": 38.92986533333333, "fusion_lon": 0.0, "is_disabled": 0}, {"rental_uris": {"android": "https://dc.lft.to/lastmile_qr_scan", "ios": "https://dc.lft.to/lastmile_qr_scan"}, "type": "electric_bike", "lon": -77.0647265, "name": "eb97a85444ef427a4a6611a82bbcdc90", "bike_id": "eb97a85444ef427a4a6611a82bbcdc90", "fusion_lat": 0.0, "is_reserved": 0, "lat": 38.973824666666665, "fusion_lon": 0.0, "is_disabled": 0}, {"rental_uris": {"android": "https://dc.lft.to/lastmile_qr_scan", "ios": "https://dc.lft.to/lastmile_qr_scan"}, "type": "electric_scooter", "lon": -77.0432105, "name": "7bcfb08b76029f0d18579592e961766f", "bike_id": "7bcfb08b76029f0d18579592e961766f", "fusion_lat": 0.0, "is_reserved": 0, "lat": 38.892205833333335, "fusion_lon": 0.0, "is_disabled": 0}, {"rental_uris": {"android": "https://dc.lft.to/lastmile_qr_scan", "ios": "https://dc.lft.to/lastmile_qr_scan"}, "type": "electric_bike", "lon": -77.02589133333333, "name": "34407ba29aca3a52809fd32a53e03a74", "bike_id": "34407ba29aca3a52809fd32a53e03a74", "fusion_lat": 0.0, "is_reserved": 0, "lat": 38.982297, "fusion_lon": 0.0, "is_disabled": 0}, {"rental_uris": {"android": "https://dc.lft.to/lastmile_qr_scan", "ios": "https://dc.lft.to/lastmile_qr_scan"}, "type": "electric_scooter", "lon": -77.04674183333333, "name": "098ec8c53c2187075df7714a3425c95a", "bike_id": "098ec8c53c2187075df7714a3425c95a", "fusion_lat": 0.0, "is_reserved": 0, "lat": 38.908438833333335, "fusion_lon": 0.0, "is_disabled": 0}, {"rental_uris": {"android": "https://dc.lft.to/lastmile_qr_scan", "ios": "https://dc.lft.to/lastmile_qr_scan"}, "type": "electric_scooter", "lon": -77.04228483333333, "name": "554fecc995f9ef90553cf6f1da920c02", "bike_id": "554fecc995f9ef90553cf6f1da920c02", "fusion_lat": 0.0, "is_reserved": 0, "lat": 38.91105833333334, "fusion_lon": 0.0, "is_disabled": 0}, {"rental_uris": {"android": "https://dc.lft.to/lastmile_qr_scan", "ios": "https://dc.lft.to/lastmile_qr_scan"}, "type": "electric_scooter", "lon": -77.03324883333333, "name": "d1465acb4756e3089333358ea706edc1", "bike_id": "d1465acb4756e3089333358ea706edc1", "fusion_lat": 0.0, "is_reserved": 0, "lat": 38.90381716666667, "fusion_lon": 0.0, "is_disabled": 0}, {"rental_uris": {"android": "https://dc.lft.to/lastmile_qr_scan", "ios": "https://dc.lft.to/lastmile_qr_scan"}, "type": "electric_scooter", "lon": -76.9916625, "name": "64ffdba988e5451c89a58ddcbfe1ddc5", "bike_id": "64ffdba988e5451c89a58ddcbfe1ddc5", "fusion_lat": 0.0, "is_reserved": 0, "lat": 38.8792855, "fusion_lon": 0.0, "is_disabled": 0}, {"rental_uris": {"android": "https://dc.lft.to/lastmile_qr_scan", "ios": "https://dc.lft.to/lastmile_qr_scan"}, "type": "electric_scooter", "lon": -77.01207, "name": "7837c4a877b566cc818f658cd56a5545", "bike_id": "7837c4a877b566cc818f658cd56a5545", "fusion_lat": 0.0, "is_reserved": 0, "lat": 38.90669316666666, "fusion_lon": 0.0, "is_disabled": 0}, {"rental_uris": {"android": "https://dc.lft.to/lastmile_qr_scan", "ios": "https://dc.lft.to/lastmile_qr_scan"}, "type": "electric_scooter", "lon": -77.06765666666666, "name": "fa2d0f54389f98e00d6fd948967b7cfa", "bike_id": "fa2d0f54389f98e00d6fd948967b7cfa", "fusion_lat": 0.0, "is_reserved": 0, "lat": 38.949786833333334, "fusion_lon": 0.0, "is_disabled": 0}, {"rental_uris": {"android": "https://dc.lft.to/lastmile_qr_scan", "ios": "https://dc.lft.to/lastmile_qr_scan"}, "type": "electric_scooter", "lon": -77.04536533333334, "name": "550e17ceb2dd1bc043deb36bee41b580", "bike_id": "550e17ceb2dd1bc043deb36bee41b580", "fusion_lat": 0.0, "is_reserved": 0, "lat": 38.920510166666666, "fusion_lon": 0.0, "is_disabled": 0}, {"rental_uris": {"android": "https://dc.lft.to/lastmile_qr_scan", "ios": "https://dc.lft.to/lastmile_qr_scan"}, "type": "electric_scooter", "lon": -77.0351245, "name": "fbd06b36f3d87ec9c21ec22e5b386334", "bike_id": "fbd06b36f3d87ec9c21ec22e5b386334", "fusion_lat": 0.0, "is_reserved": 0, "lat": 38.9215015, "fusion_lon": 0.0, "is_disabled": 0}, {"rental_uris": {"android": "https://dc.lft.to/lastmile_qr_scan", "ios": "https://dc.lft.to/lastmile_qr_scan"}, "type": "electric_scooter", "lon": -77.032005, "name": "f0feae17a8a91f369af55a5ede8dec48", "bike_id": "f0feae17a8a91f369af55a5ede8dec48", "fusion_lat": 0.0, "is_reserved": 0, "lat": 38.93970383333333, "fusion_lon": 0.0, "is_disabled": 0}, {"rental_uris": {"android": "https://dc.lft.to/lastmile_qr_scan", "ios": "https://dc.lft.to/lastmile_qr_scan"}, "type": "electric_scooter", "lon": -77.0215165, "name": "84eba2a99f1d4914f0bb066c3c2f3aef", "bike_id": "84eba2a99f1d4914f0bb066c3c2f3aef", "fusion_lat": 0.0, "is_reserved": 0, "lat": 38.926025, "fusion_lon": 0.0, "is_disabled": 0}, {"rental_uris": {"android": "https://dc.lft.to/lastmile_qr_scan", "ios": "https://dc.lft.to/lastmile_qr_scan"}, "type": "electric_bike", "lon": -77.02776416666667, "name": "69ca26e1caf0fa0749583464d317a1e6", "bike_id": "69ca26e1caf0fa0749583464d317a1e6", "fusion_lat": 0.0, "is_reserved": 0, "lat": 38.965271, "fusion_lon": 0.0, "is_disabled": 0}, {"rental_uris": {"android": "https://dc.lft.to/lastmile_qr_scan", "ios": "https://dc.lft.to/lastmile_qr_scan"}, "type": "electric_bike", "lon": -76.972177, "name": "b5fcb535ede2d0acbd1863676ced557e", "bike_id": "b5fcb535ede2d0acbd1863676ced557e", "fusion_lat": 0.0, "is_reserved": 0, "lat": 38.844787, "fusion_lon": 0.0, "is_disabled": 0}, {"rental_uris": {"android": "https://dc.lft.to/lastmile_qr_scan", "ios": "https://dc.lft.to/lastmile_qr_scan"}, "type": "electric_scooter", "lon": -77.030385, "name": "9d6f7f921762ad5b1790b4e225248a9e", "bike_id": "9d6f7f921762ad5b1790b4e225248a9e", "fusion_lat": 0.0, "is_reserved": 0, "lat": 38.93982666666667, "fusion_lon": 0.0, "is_disabled": 0}, {"rental_uris": {"android": "https://dc.lft.to/lastmile_qr_scan", "ios": "https://dc.lft.to/lastmile_qr_scan"}, "type": "electric_scooter", "lon": -77.025924, "name": "1e6fe3ee495c6ad1d3756d1b74482164", "bike_id": "1e6fe3ee495c6ad1d3756d1b74482164", "fusion_lat": 0.0, "is_reserved": 0, "lat": 38.9084485, "fusion_lon": 0.0, "is_disabled": 0}, {"rental_uris": {"android": "https://dc.lft.to/lastmile_qr_scan", "ios": "https://dc.lft.to/lastmile_qr_scan"}, "type": "electric_scooter", "lon": -77.02048383333333, "name": "eb7aee779351c32630c1915859a58c4b", "bike_id": "eb7aee779351c32630c1915859a58c4b", "fusion_lat": 0.0, "is_reserved": 0, "lat": 38.95870983333333, "fusion_lon": 0.0, "is_disabled": 0}, {"rental_uris": {"android": "https://dc.lft.to/lastmile_qr_scan", "ios": "https://dc.lft.to/lastmile_qr_scan"}, "type": "electric_scooter", "lon": -77.0185065, "name": "ed9c1fd5a3cdefca44d296bbf224e86a", "bike_id": "ed9c1fd5a3cdefca44d296bbf224e86a", "fusion_lat": 0.0, "is_reserved": 0, "lat": 38.9196225, "fusion_lon": 0.0, "is_disabled": 0}, {"rental_uris": {"android": "https://dc.lft.to/lastmile_qr_scan", "ios": "https://dc.lft.to/lastmile_qr_scan"}, "type": "electric_scooter", "lon": -77.02172666666667, "name": "a95783965ac4d5db16466d09c8706c56", "bike_id": "a95783965ac4d5db16466d09c8706c56", "fusion_lat": 0.0, "is_reserved": 0, "lat": 38.9430895, "fusion_lon": 0.0, "is_disabled": 0}, {"rental_uris": {"android": "https://dc.lft.to/lastmile_qr_scan", "ios": "https://dc.lft.to/lastmile_qr_scan"}, "type": "electric_scooter", "lon": -76.99550333333333, "name": "7cabc0d8a8c20b32e844f7fca22f7afc", "bike_id": "7cabc0d8a8c20b32e844f7fca22f7afc", "fusion_lat": 0.0, "is_reserved": 0, "lat": 38.884237666666664, "fusion_lon": 0.0, "is_disabled": 0}, {"rental_uris": {"android": "https://dc.lft.to/lastmile_qr_scan", "ios": "https://dc.lft.to/lastmile_qr_scan"}, "type": "electric_bike", "lon": -77.09519383333334, "name": "23ae691d59c109fa52d652ab6739c029", "bike_id": "23ae691d59c109fa52d652ab6739c029", "fusion_lat": 0.0, "is_reserved": 0, "lat": 38.838125833333336, "fusion_lon": 0.0, "is_disabled": 0}, {"rental_uris": {"android": "https://dc.lft.to/lastmile_qr_scan", "ios": "https://dc.lft.to/lastmile_qr_scan"}, "type": "electric_scooter", "lon": -77.023936, "name": "3a5aca7e2b4d94873cae5d2a938e3b10", "bike_id": "3a5aca7e2b4d94873cae5d2a938e3b10", "fusion_lat": 0.0, "is_reserved": 0, "lat": 38.90426166666666, "fusion_lon": 0.0, "is_disabled": 0}, {"rental_uris": {"android": "https://dc.lft.to/lastmile_qr_scan", "ios": "https://dc.lft.to/lastmile_qr_scan"}, "type": "electric_scooter", "lon": -77.04580416666667, "name": "056b3bad1d80e15acb2b8f7a7f014fea", "bike_id": "056b3bad1d80e15acb2b8f7a7f014fea", "fusion_lat": 0.0, "is_reserved": 0, "lat": 38.92133916666667, "fusion_lon": 0.0, "is_disabled": 0}, {"rental_uris": {"android": "https://dc.lft.to/lastmile_qr_scan", "ios": "https://dc.lft.to/lastmile_qr_scan"}, "type": "electric_scooter", "lon": -77.04216316666667, "name": "597e7b90018d584f4c3bec7a71bf1768", "bike_id": "597e7b90018d584f4c3bec7a71bf1768", "fusion_lat": 0.0, "is_reserved": 0, "lat": 38.9212445, "fusion_lon": 0.0, "is_disabled": 0}, {"rental_uris": {"android": "https://dc.lft.to/lastmile_qr_scan", "ios": "https://dc.lft.to/lastmile_qr_scan"}, "type": "electric_scooter", "lon": -77.03444966666666, "name": "628c2e93d816d32fa5a95693b0c5e16d", "bike_id": "628c2e93d816d32fa5a95693b0c5e16d", "fusion_lat": 0.0, "is_reserved": 0, "lat": 38.90731, "fusion_lon": 0.0, "is_disabled": 0}, {"rental_uris": {"android": "https://dc.lft.to/lastmile_qr_scan", "ios": "https://dc.lft.to/lastmile_qr_scan"}, "type": "electric_scooter", "lon": -77.05290516666666, "name": "5529a17a816e46fc8bc2be64e23c4f8d", "bike_id": "5529a17a816e46fc8bc2be64e23c4f8d", "fusion_lat": 0.0, "is_reserved": 0, "lat": 38.91066166666667, "fusion_lon": 0.0, "is_disabled": 0}, {"rental_uris": {"android": "https://dc.lft.to/lastmile_qr_scan", "ios": "https://dc.lft.to/lastmile_qr_scan"}, "type": "electric_scooter", "lon": -77.0390115, "name": "0f811309d2fbed30f8cca6664077df9a", "bike_id": "0f811309d2fbed30f8cca6664077df9a", "fusion_lat": 0.0, "is_reserved": 0, "lat": 38.914186666666666, "fusion_lon": 0.0, "is_disabled": 0}, {"rental_uris": {"android": "https://dc.lft.to/lastmile_qr_scan", "ios": "https://dc.lft.to/lastmile_qr_scan"}, "type": "electric_scooter", "lon": -76.9671265, "name": "88e3242d62c6e6f4e54547674db7179b", "bike_id": "88e3242d62c6e6f4e54547674db7179b", "fusion_lat": 0.0, "is_reserved": 0, "lat": 38.869525, "fusion_lon": 0.0, "is_disabled": 0}, {"rental_uris": {"android": "https://dc.lft.to/lastmile_qr_scan", "ios": "https://dc.lft.to/lastmile_qr_scan"}, "type": "electric_scooter", "lon": -77.07097183333333, "name": "3b3e886979a8b863a0fec1291a0dbd02", "bike_id": "3b3e886979a8b863a0fec1291a0dbd02", "fusion_lat": 0.0, "is_reserved": 0, "lat": 38.91972333333333, "fusion_lon": 0.0, "is_disabled": 0}, {"rental_uris": {"android": "https://dc.lft.to/lastmile_qr_scan", "ios": "https://dc.lft.to/lastmile_qr_scan"}, "type": "electric_scooter", "lon": -77.02955116666666, "name": "9490a90a0f98d1f528297deea83c5053", "bike_id": "9490a90a0f98d1f528297deea83c5053", "fusion_lat": 0.0, "is_reserved": 0, "lat": 38.905541166666666, "fusion_lon": 0.0, "is_disabled": 0}, {"rental_uris": {"android": "https://dc.lft.to/lastmile_qr_scan", "ios": "https://dc.lft.to/lastmile_qr_scan"}, "type": "electric_scooter", "lon": -77.03875733333334, "name": "5eb410d466d97fa0ca0f312f05c6ecb3", "bike_id": "5eb410d466d97fa0ca0f312f05c6ecb3", "fusion_lat": 0.0, "is_reserved": 0, "lat": 38.93262883333333, "fusion_lon": 0.0, "is_disabled": 0}, {"rental_uris": {"android": "https://dc.lft.to/lastmile_qr_scan", "ios": "https://dc.lft.to/lastmile_qr_scan"}, "type": "electric_bike", "lon": -77.02486533333334, "name": "f0f243fcdee7bc204d5333eb80f949d2", "bike_id": "f0f243fcdee7bc204d5333eb80f949d2", "fusion_lat": 0.0, "is_reserved": 0, "lat": 38.97366266666667, "fusion_lon": 0.0, "is_disabled": 0}, {"rental_uris": {"android": "https://dc.lft.to/lastmile_qr_scan", "ios": "https://dc.lft.to/lastmile_qr_scan"}, "type": "electric_scooter", "lon": -76.99631416666666, "name": "c219efb806f5a943cac548ef97035543", "bike_id": "c219efb806f5a943cac548ef97035543", "fusion_lat": 0.0, "is_reserved": 0, "lat": 38.84619583333333, "fusion_lon": 0.0, "is_disabled": 0}, {"rental_uris": {"android": "https://dc.lft.to/lastmile_qr_scan", "ios": "https://dc.lft.to/lastmile_qr_scan"}, "type": "electric_scooter", "lon": -77.02481566666667, "name": "8a30f79ccce733b26a69ea863693f49f", "bike_id": "8a30f79ccce733b26a69ea863693f49f", "fusion_lat": 0.0, "is_reserved": 0, "lat": 38.938816333333335, "fusion_lon": 0.0, "is_disabled": 0}, {"rental_uris": {"android": "https://dc.lft.to/lastmile_qr_scan", "ios": "https://dc.lft.to/lastmile_qr_scan"}, "type": "electric_scooter", "lon": -76.949177, "name": "df4a3ec51eccb9a3ecc0022686b41170", "bike_id": "df4a3ec51eccb9a3ecc0022686b41170", "fusion_lat": 0.0, "is_reserved": 0, "lat": 38.88482716666667, "fusion_lon": 0.0, "is_disabled": 0}, {"rental_uris": {"android": "https://dc.lft.to/lastmile_qr_scan", "ios": "https://dc.lft.to/lastmile_qr_scan"}, "type": "electric_scooter", "lon": -77.06290066666666, "name": "0e45efdf8760432c9b87dd90889d890a", "bike_id": "0e45efdf8760432c9b87dd90889d890a", "fusion_lat": 0.0, "is_reserved": 0, "lat": 38.90458366666667, "fusion_lon": 0.0, "is_disabled": 0}, {"rental_uris": {"android": "https://dc.lft.to/lastmile_qr_scan", "ios": "https://dc.lft.to/lastmile_qr_scan"}, "type": "electric_scooter", "lon": -76.99009033333333, "name": "40cc0e933f6b566e9efc8eb75738b7f8", "bike_id": "40cc0e933f6b566e9efc8eb75738b7f8", "fusion_lat": 0.0, "is_reserved": 0, "lat": 38.86111833333333, "fusion_lon": 0.0, "is_disabled": 0}, {"rental_uris": {"android": "https://dc.lft.to/lastmile_qr_scan", "ios": "https://dc.lft.to/lastmile_qr_scan"}, "type": "electric_scooter", "lon": -77.01380933333333, "name": "624ea5eaa7fc319f775aed98257e972c", "bike_id": "624ea5eaa7fc319f775aed98257e972c", "fusion_lat": 0.0, "is_reserved": 0, "lat": 38.919504333333336, "fusion_lon": 0.0, "is_disabled": 0}, {"rental_uris": {"android": "https://dc.lft.to/lastmile_qr_scan", "ios": "https://dc.lft.to/lastmile_qr_scan"}, "type": "electric_scooter", "lon": -77.01894166666666, "name": "d487b3134564794328890f2c9311b9d3", "bike_id": "d487b3134564794328890f2c9311b9d3", "fusion_lat": 0.0, "is_reserved": 0, "lat": 38.90941983333333, "fusion_lon": 0.0, "is_disabled": 0}, {"rental_uris": {"android": "https://dc.lft.to/lastmile_qr_scan", "ios": "https://dc.lft.to/lastmile_qr_scan"}, "type": "electric_scooter", "lon": -77.0202895, "name": "0121c9dbfcffb96a28576f7182777831", "bike_id": "0121c9dbfcffb96a28576f7182777831", "fusion_lat": 0.0, "is_reserved": 0, "lat": 38.892622833333334, "fusion_lon": 0.0, "is_disabled": 0}, {"rental_uris": {"android": "https://dc.lft.to/lastmile_qr_scan", "ios": "https://dc.lft.to/lastmile_qr_scan"}, "type": "electric_scooter", "lon": -76.9949705, "name": "a469d05283281f58de6b91639b1b6bc0", "bike_id": "a469d05283281f58de6b91639b1b6bc0", "fusion_lat": 0.0, "is_reserved": 0, "lat": 38.8768665, "fusion_lon": 0.0, "is_disabled": 0}, {"rental_uris": {"android": "https://dc.lft.to/lastmile_qr_scan", "ios": "https://dc.lft.to/lastmile_qr_scan"}, "type": "electric_scooter", "lon": -77.06340416666667, "name": "38b19bdb7be5c149360ed9d852041cf9", "bike_id": "38b19bdb7be5c149360ed9d852041cf9", "fusion_lat": 0.0, "is_reserved": 0, "lat": 38.908554333333335, "fusion_lon": 0.0, "is_disabled": 0}, {"rental_uris": {"android": "https://dc.lft.to/lastmile_qr_scan", "ios": "https://dc.lft.to/lastmile_qr_scan"}, "type": "electric_scooter", "lon": -77.02161266666667, "name": "c1d6a4653835a70ede5e22d6f8055ffd", "bike_id": "c1d6a4653835a70ede5e22d6f8055ffd", "fusion_lat": 0.0, "is_reserved": 0, "lat": 38.94083166666667, "fusion_lon": 0.0, "is_disabled": 0}, {"rental_uris": {"android": "https://dc.lft.to/lastmile_qr_scan", "ios": "https://dc.lft.to/lastmile_qr_scan"}, "type": "electric_scooter", "lon": -77.0365725, "name": "4257b1b2f08b9ee89c0128c446eea6bb", "bike_id": "4257b1b2f08b9ee89c0128c446eea6bb", "fusion_lat": 0.0, "is_reserved": 0, "lat": 38.916228333333336, "fusion_lon": 0.0, "is_disabled": 0}, {"rental_uris": {"android": "https://dc.lft.to/lastmile_qr_scan", "ios": "https://dc.lft.to/lastmile_qr_scan"}, "type": "electric_scooter", "lon": -77.01766483333333, "name": "68bff4cc057da890e5c6fc9bed82a596", "bike_id": "68bff4cc057da890e5c6fc9bed82a596", "fusion_lat": 0.0, "is_reserved": 0, "lat": 38.872978333333336, "fusion_lon": 0.0, "is_disabled": 0}, {"rental_uris": {"android": "https://dc.lft.to/lastmile_qr_scan", "ios": "https://dc.lft.to/lastmile_qr_scan"}, "type": "electric_scooter", "lon": -77.02688366666666, "name": "9c84858224389c4e44edb9a6a82b42b5", "bike_id": "9c84858224389c4e44edb9a6a82b42b5", "fusion_lat": 0.0, "is_reserved": 0, "lat": 38.912748, "fusion_lon": 0.0, "is_disabled": 0}, {"rental_uris": {"android": "https://dc.lft.to/lastmile_qr_scan", "ios": "https://dc.lft.to/lastmile_qr_scan"}, "type": "electric_scooter", "lon": -76.99951683333333, "name": "f4e558cf283098d2421ccca2d7dabf89", "bike_id": "f4e558cf283098d2421ccca2d7dabf89", "fusion_lat": 0.0, "is_reserved": 0, "lat": 38.908632, "fusion_lon": 0.0, "is_disabled": 0}, {"rental_uris": {"android": "https://dc.lft.to/lastmile_qr_scan", "ios": "https://dc.lft.to/lastmile_qr_scan"}, "type": "electric_bike", "lon": -77.11430433333334, "name": "8e656df7f576eae60ad36a7715072e94", "bike_id": "8e656df7f576eae60ad36a7715072e94", "fusion_lat": 0.0, "is_reserved": 0, "lat": 38.85244316666667, "fusion_lon": 0.0, "is_disabled": 0}, {"rental_uris": {"android": "https://dc.lft.to/lastmile_qr_scan", "ios": "https://dc.lft.to/lastmile_qr_scan"}, "type": "electric_scooter", "lon": -76.99485, "name": "6af428203f084acd1a5280150f9b603e", "bike_id": "6af428203f084acd1a5280150f9b603e", "fusion_lat": 0.0, "is_reserved": 0, "lat": 38.86241166666667, "fusion_lon": 0.0, "is_disabled": 0}, {"rental_uris": {"android": "https://dc.lft.to/lastmile_qr_scan", "ios": "https://dc.lft.to/lastmile_qr_scan"}, "type": "electric_scooter", "lon": -77.0358305, "name": "bcc4e6b2f21bd1b986b351fd5aba1703", "bike_id": "bcc4e6b2f21bd1b986b351fd5aba1703", "fusion_lat": 0.0, "is_reserved": 0, "lat": 38.91924266666667, "fusion_lon": 0.0, "is_disabled": 0}, {"rental_uris": {"android": "https://dc.lft.to/lastmile_qr_scan", "ios": "https://dc.lft.to/lastmile_qr_scan"}, "type": "electric_scooter", "lon": -77.03426016666667, "name": "00ebebfe30fe3f73392f38099e55c0cc", "bike_id": "00ebebfe30fe3f73392f38099e55c0cc", "fusion_lat": 0.0, "is_reserved": 0, "lat": 38.90588116666667, "fusion_lon": 0.0, "is_disabled": 0}, {"rental_uris": {"android": "https://dc.lft.to/lastmile_qr_scan", "ios": "https://dc.lft.to/lastmile_qr_scan"}, "type": "electric_bike", "lon": -76.9976165, "name": "75858bfd3dd3b56d247227194c6a98d5", "bike_id": "75858bfd3dd3b56d247227194c6a98d5", "fusion_lat": 0.0, "is_reserved": 0, "lat": 39.0059345, "fusion_lon": 0.0, "is_disabled": 0}, {"rental_uris": {"android": "https://dc.lft.to/lastmile_qr_scan", "ios": "https://dc.lft.to/lastmile_qr_scan"}, "type": "electric_scooter", "lon": -76.99728483333334, "name": "0225ec52c8a73d03ef93c3dca8d613b8", "bike_id": "0225ec52c8a73d03ef93c3dca8d613b8", "fusion_lat": 0.0, "is_reserved": 0, "lat": 38.90794316666667, "fusion_lon": 0.0, "is_disabled": 0}, {"rental_uris": {"android": "https://dc.lft.to/lastmile_qr_scan", "ios": "https://dc.lft.to/lastmile_qr_scan"}, "type": "electric_scooter", "lon": -77.034456, "name": "2ec533166478796deb766316e2f01b78", "bike_id": "2ec533166478796deb766316e2f01b78", "fusion_lat": 0.0, "is_reserved": 0, "lat": 38.91812, "fusion_lon": 0.0, "is_disabled": 0}, {"rental_uris": {"android": "https://dc.lft.to/lastmile_qr_scan", "ios": "https://dc.lft.to/lastmile_qr_scan"}, "type": "electric_scooter", "lon": -76.99145816666666, "name": "6b58b6dcd45a3b86d18a419251d0682d", "bike_id": "6b58b6dcd45a3b86d18a419251d0682d", "fusion_lat": 0.0, "is_reserved": 0, "lat": 38.90125866666666, "fusion_lon": 0.0, "is_disabled": 0}, {"rental_uris": {"android": "https://dc.lft.to/lastmile_qr_scan", "ios": "https://dc.lft.to/lastmile_qr_scan"}, "type": "electric_scooter", "lon": -76.99776183333333, "name": "ce62f5b6f7f58c981ed720a3e7e75c7a", "bike_id": "ce62f5b6f7f58c981ed720a3e7e75c7a", "fusion_lat": 0.0, "is_reserved": 0, "lat": 38.92283066666667, "fusion_lon": 0.0, "is_disabled": 0}, {"rental_uris": {"android": "https://dc.lft.to/lastmile_qr_scan", "ios": "https://dc.lft.to/lastmile_qr_scan"}, "type": "electric_scooter", "lon": -76.98134616666667, "name": "90fa0fec59a88cb0f5a0ec74cfd046ed", "bike_id": "90fa0fec59a88cb0f5a0ec74cfd046ed", "fusion_lat": 0.0, "is_reserved": 0, "lat": 38.8842205, "fusion_lon": 0.0, "is_disabled": 0}, {"rental_uris": {"android": "https://dc.lft.to/lastmile_qr_scan", "ios": "https://dc.lft.to/lastmile_qr_scan"}, "type": "electric_scooter", "lon": -77.03711066666666, "name": "9ed710c6fc42aa4af4d756889f29d671", "bike_id": "9ed710c6fc42aa4af4d756889f29d671", "fusion_lat": 0.0, "is_reserved": 0, "lat": 38.918094333333336, "fusion_lon": 0.0, "is_disabled": 0}, {"rental_uris": {"android": "https://dc.lft.to/lastmile_qr_scan", "ios": "https://dc.lft.to/lastmile_qr_scan"}, "type": "electric_bike", "lon": -76.964864, "name": "c8065be57e3f03c446f52ade848efbef", "bike_id": "c8065be57e3f03c446f52ade848efbef", "fusion_lat": 0.0, "is_reserved": 0, "lat": 38.8754885, "fusion_lon": 0.0, "is_disabled": 0}, {"rental_uris": {"android": "https://dc.lft.to/lastmile_qr_scan", "ios": "https://dc.lft.to/lastmile_qr_scan"}, "type": "electric_scooter", "lon": -77.08611283333333, "name": "18fb7412d75a3bef042e6a5e71d09e9d", "bike_id": "18fb7412d75a3bef042e6a5e71d09e9d", "fusion_lat": 0.0, "is_reserved": 0, "lat": 38.95871233333333, "fusion_lon": 0.0, "is_disabled": 0}, {"rental_uris": {"android": "https://dc.lft.to/lastmile_qr_scan", "ios": "https://dc.lft.to/lastmile_qr_scan"}, "type": "electric_scooter", "lon": -77.03775683333333, "name": "9b33dc7b531cce8ac160534cec2d4dd9", "bike_id": "9b33dc7b531cce8ac160534cec2d4dd9", "fusion_lat": 0.0, "is_reserved": 0, "lat": 38.925490333333336, "fusion_lon": 0.0, "is_disabled": 0}, {"rental_uris": {"android": "https://dc.lft.to/lastmile_qr_scan", "ios": "https://dc.lft.to/lastmile_qr_scan"}, "type": "electric_scooter", "lon": -76.94764216666667, "name": "88e4a30127629df544dd032a602c8c10", "bike_id": "88e4a30127629df544dd032a602c8c10", "fusion_lat": 0.0, "is_reserved": 0, "lat": 38.89672766666666, "fusion_lon": 0.0, "is_disabled": 0}, {"rental_uris": {"android": "https://dc.lft.to/lastmile_qr_scan", "ios": "https://dc.lft.to/lastmile_qr_scan"}, "type": "electric_scooter", "lon": -77.00857233333333, "name": "34e3a26dcd06f5d145b3c50053a009c9", "bike_id": "34e3a26dcd06f5d145b3c50053a009c9", "fusion_lat": 0.0, "is_reserved": 0, "lat": 38.87647583333333, "fusion_lon": 0.0, "is_disabled": 0}, {"rental_uris": {"android": "https://dc.lft.to/lastmile_qr_scan", "ios": "https://dc.lft.to/lastmile_qr_scan"}, "type": "electric_scooter", "lon": -77.01159216666667, "name": "81511d56ec7e64b1239c210c0e6695cc", "bike_id": "81511d56ec7e64b1239c210c0e6695cc", "fusion_lat": 0.0, "is_reserved": 0, "lat": 38.91270316666667, "fusion_lon": 0.0, "is_disabled": 0}, {"rental_uris": {"android": "https://dc.lft.to/lastmile_qr_scan", "ios": "https://dc.lft.to/lastmile_qr_scan"}, "type": "electric_scooter", "lon": -76.99577333333333, "name": "3e89d790e704575594a5dc3c234567b0", "bike_id": "3e89d790e704575594a5dc3c234567b0", "fusion_lat": 0.0, "is_reserved": 0, "lat": 38.94947666666667, "fusion_lon": 0.0, "is_disabled": 0}, {"rental_uris": {"android": "https://dc.lft.to/lastmile_qr_scan", "ios": "https://dc.lft.to/lastmile_qr_scan"}, "type": "electric_bike", "lon": -76.95206666666667, "name": "c977de73460e5dc9a60767ab5ac7a96c", "bike_id": "c977de73460e5dc9a60767ab5ac7a96c", "fusion_lat": 0.0, "is_reserved": 0, "lat": 38.936720666666666, "fusion_lon": 0.0, "is_disabled": 0}, {"rental_uris": {"android": "https://dc.lft.to/lastmile_qr_scan", "ios": "https://dc.lft.to/lastmile_qr_scan"}, "type": "electric_scooter", "lon": -77.023459, "name": "16fa911ff367f38dd2d1f2bd40771691", "bike_id": "16fa911ff367f38dd2d1f2bd40771691", "fusion_lat": 0.0, "is_reserved": 0, "lat": 38.929841833333334, "fusion_lon": 0.0, "is_disabled": 0}, {"rental_uris": {"android": "https://dc.lft.to/lastmile_qr_scan", "ios": "https://dc.lft.to/lastmile_qr_scan"}, "type": "electric_scooter", "lon": -77.0191755, "name": "63a94dab01b72b7c2850245cb429121b", "bike_id": "63a94dab01b72b7c2850245cb429121b", "fusion_lat": 0.0, "is_reserved": 0, "lat": 38.900174, "fusion_lon": 0.0, "is_disabled": 0}, {"rental_uris": {"android": "https://dc.lft.to/lastmile_qr_scan", "ios": "https://dc.lft.to/lastmile_qr_scan"}, "type": "electric_scooter", "lon": -77.04006416666667, "name": "ae70e95817e82d4b9f47b6ac4931aee5", "bike_id": "ae70e95817e82d4b9f47b6ac4931aee5", "fusion_lat": 0.0, "is_reserved": 0, "lat": 38.903550333333335, "fusion_lon": 0.0, "is_disabled": 0}, {"rental_uris": {"android": "https://dc.lft.to/lastmile_qr_scan", "ios": "https://dc.lft.to/lastmile_qr_scan"}, "type": "electric_scooter", "lon": -77.069845, "name": "2a3a6a68a79f9e9f71c0d0931f012367", "bike_id": "2a3a6a68a79f9e9f71c0d0931f012367", "fusion_lat": 0.0, "is_reserved": 0, "lat": 38.952859833333335, "fusion_lon": 0.0, "is_disabled": 0}, {"rental_uris": {"android": "https://dc.lft.to/lastmile_qr_scan", "ios": "https://dc.lft.to/lastmile_qr_scan"}, "type": "electric_scooter", "lon": -77.00226816666667, "name": "3314243e10d38b18c7ce9e9173fae5f6", "bike_id": "3314243e10d38b18c7ce9e9173fae5f6", "fusion_lat": 0.0, "is_reserved": 0, "lat": 38.9083065, "fusion_lon": 0.0, "is_disabled": 0}, {"rental_uris": {"android": "https://dc.lft.to/lastmile_qr_scan", "ios": "https://dc.lft.to/lastmile_qr_scan"}, "type": "electric_scooter", "lon": -77.02882016666666, "name": "c7c86d7cbd7edce6b214245b2ebf4f3d", "bike_id": "c7c86d7cbd7edce6b214245b2ebf4f3d", "fusion_lat": 0.0, "is_reserved": 0, "lat": 38.90451266666667, "fusion_lon": 0.0, "is_disabled": 0}, {"rental_uris": {"android": "https://dc.lft.to/lastmile_qr_scan", "ios": "https://dc.lft.to/lastmile_qr_scan"}, "type": "electric_scooter", "lon": -77.0215215, "name": "c3aaf08b2e10d82fdcc83fee9e886976", "bike_id": "c3aaf08b2e10d82fdcc83fee9e886976", "fusion_lat": 0.0, "is_reserved": 0, "lat": 38.879283666666666, "fusion_lon": 0.0, "is_disabled": 0}, {"rental_uris": {"android": "https://dc.lft.to/lastmile_qr_scan", "ios": "https://dc.lft.to/lastmile_qr_scan"}, "type": "electric_bike", "lon": -76.99030166666667, "name": "320bacdda5741e88189bd888400f80ee", "bike_id": "320bacdda5741e88189bd888400f80ee", "fusion_lat": 0.0, "is_reserved": 0, "lat": 38.898131, "fusion_lon": 0.0, "is_disabled": 0}, {"rental_uris": {"android": "https://dc.lft.to/lastmile_qr_scan", "ios": "https://dc.lft.to/lastmile_qr_scan"}, "type": "electric_scooter", "lon": -77.04122016666666, "name": "0b88591368b27a32d1ca4f9a6ecc3dfb", "bike_id": "0b88591368b27a32d1ca4f9a6ecc3dfb", "fusion_lat": 0.0, "is_reserved": 0, "lat": 38.92137483333333, "fusion_lon": 0.0, "is_disabled": 0}, {"rental_uris": {"android": "https://dc.lft.to/lastmile_qr_scan", "ios": "https://dc.lft.to/lastmile_qr_scan"}, "type": "electric_scooter", "lon": -77.03195833333334, "name": "21ec8871a216f4a206c7ec1923a8810f", "bike_id": "21ec8871a216f4a206c7ec1923a8810f", "fusion_lat": 0.0, "is_reserved": 0, "lat": 38.918252, "fusion_lon": 0.0, "is_disabled": 0}, {"rental_uris": {"android": "https://dc.lft.to/lastmile_qr_scan", "ios": "https://dc.lft.to/lastmile_qr_scan"}, "type": "electric_scooter", "lon": -77.02483616666666, "name": "0e69d0f4075779ca6add9355c7acbb59", "bike_id": "0e69d0f4075779ca6add9355c7acbb59", "fusion_lat": 0.0, "is_reserved": 0, "lat": 38.88012766666667, "fusion_lon": 0.0, "is_disabled": 0}, {"rental_uris": {"android": "https://dc.lft.to/lastmile_qr_scan", "ios": "https://dc.lft.to/lastmile_qr_scan"}, "type": "electric_bike", "lon": -76.874941, "name": "b4813541d03c39183c2622ab07340957", "bike_id": "b4813541d03c39183c2622ab07340957", "fusion_lat": 0.0, "is_reserved": 0, "lat": 38.99090116666667, "fusion_lon": 0.0, "is_disabled": 0}, {"rental_uris": {"android": "https://dc.lft.to/lastmile_qr_scan", "ios": "https://dc.lft.to/lastmile_qr_scan"}, "type": "electric_scooter", "lon": -76.9315835, "name": "7bdf2b95c681446c76200cb79b383139", "bike_id": "7bdf2b95c681446c76200cb79b383139", "fusion_lat": 0.0, "is_reserved": 0, "lat": 38.898802, "fusion_lon": 0.0, "is_disabled": 0}, {"rental_uris": {"android": "https://dc.lft.to/lastmile_qr_scan", "ios": "https://dc.lft.to/lastmile_qr_scan"}, "type": "electric_scooter", "lon": -76.99923933333334, "name": "9b87f8bc190c3bb2fd3a4e3ea7423852", "bike_id": "9b87f8bc190c3bb2fd3a4e3ea7423852", "fusion_lat": 0.0, "is_reserved": 0, "lat": 38.90914733333334, "fusion_lon": 0.0, "is_disabled": 0}, {"rental_uris": {"android": "https://dc.lft.to/lastmile_qr_scan", "ios": "https://dc.lft.to/lastmile_qr_scan"}, "type": "electric_scooter", "lon": -77.01585066666667, "name": "e5c2a196d5c8ed536f76b19123b5357f", "bike_id": "e5c2a196d5c8ed536f76b19123b5357f", "fusion_lat": 0.0, "is_reserved": 0, "lat": 38.876538, "fusion_lon": 0.0, "is_disabled": 0}, {"rental_uris": {"android": "https://dc.lft.to/lastmile_qr_scan", "ios": "https://dc.lft.to/lastmile_qr_scan"}, "type": "electric_scooter", "lon": -77.00068516666667, "name": "bc8236fca6d31fdec0dd434fcbd5e493", "bike_id": "bc8236fca6d31fdec0dd434fcbd5e493", "fusion_lat": 0.0, "is_reserved": 0, "lat": 38.8974415, "fusion_lon": 0.0, "is_disabled": 0}, {"rental_uris": {"android": "https://dc.lft.to/lastmile_qr_scan", "ios": "https://dc.lft.to/lastmile_qr_scan"}, "type": "electric_bike", "lon": -77.1121805, "name": "18209e68707d89ee606ce879b95b3d67", "bike_id": "18209e68707d89ee606ce879b95b3d67", "fusion_lat": 0.0, "is_reserved": 0, "lat": 38.828748, "fusion_lon": 0.0, "is_disabled": 0}, {"rental_uris": {"android": "https://dc.lft.to/lastmile_qr_scan", "ios": "https://dc.lft.to/lastmile_qr_scan"}, "type": "electric_scooter", "lon": -77.0217985, "name": "6c335db13d76ebd3bb9aac15f7005720", "bike_id": "6c335db13d76ebd3bb9aac15f7005720", "fusion_lat": 0.0, "is_reserved": 0, "lat": 38.911152, "fusion_lon": 0.0, "is_disabled": 0}, {"rental_uris": {"android": "https://dc.lft.to/lastmile_qr_scan", "ios": "https://dc.lft.to/lastmile_qr_scan"}, "type": "electric_scooter", "lon": -77.06804983333333, "name": "647cfc59641a50cb764ff7df9eaf02fb", "bike_id": "647cfc59641a50cb764ff7df9eaf02fb", "fusion_lat": 0.0, "is_reserved": 0, "lat": 38.90505533333334, "fusion_lon": 0.0, "is_disabled": 0}, {"rental_uris": {"android": "https://dc.lft.to/lastmile_qr_scan", "ios": "https://dc.lft.to/lastmile_qr_scan"}, "type": "electric_scooter", "lon": -77.02679066666667, "name": "9a4efc53edc3179fe2326b508eb11770", "bike_id": "9a4efc53edc3179fe2326b508eb11770", "fusion_lat": 0.0, "is_reserved": 0, "lat": 38.89877083333333, "fusion_lon": 0.0, "is_disabled": 0}, {"rental_uris": {"android": "https://dc.lft.to/lastmile_qr_scan", "ios": "https://dc.lft.to/lastmile_qr_scan"}, "type": "electric_scooter", "lon": -77.0384325, "name": "1110f8e36c7db2dc0614b0ab11f0bf01", "bike_id": "1110f8e36c7db2dc0614b0ab11f0bf01", "fusion_lat": 0.0, "is_reserved": 0, "lat": 38.91210933333333, "fusion_lon": 0.0, "is_disabled": 0}, {"rental_uris": {"android": "https://dc.lft.to/lastmile_qr_scan", "ios": "https://dc.lft.to/lastmile_qr_scan"}, "type": "electric_scooter", "lon": -77.01355483333333, "name": "95037eb12aece29322eaf468bc1b9ea6", "bike_id": "95037eb12aece29322eaf468bc1b9ea6", "fusion_lat": 0.0, "is_reserved": 0, "lat": 38.903864, "fusion_lon": 0.0, "is_disabled": 0}, {"rental_uris": {"android": "https://dc.lft.to/lastmile_qr_scan", "ios": "https://dc.lft.to/lastmile_qr_scan"}, "type": "electric_scooter", "lon": -77.043334, "name": "9a00959bcbc6ae9a1a78dd13f27ca3cb", "bike_id": "9a00959bcbc6ae9a1a78dd13f27ca3cb", "fusion_lat": 0.0, "is_reserved": 0, "lat": 38.91378733333333, "fusion_lon": 0.0, "is_disabled": 0}, {"rental_uris": {"android": "https://dc.lft.to/lastmile_qr_scan", "ios": "https://dc.lft.to/lastmile_qr_scan"}, "type": "electric_scooter", "lon": -77.03837066666667, "name": "b1ff09c4dc09ef7662401a7d614482f7", "bike_id": "b1ff09c4dc09ef7662401a7d614482f7", "fusion_lat": 0.0, "is_reserved": 0, "lat": 38.911941, "fusion_lon": 0.0, "is_disabled": 0}, {"rental_uris": {"android": "https://dc.lft.to/lastmile_qr_scan", "ios": "https://dc.lft.to/lastmile_qr_scan"}, "type": "electric_scooter", "lon": -77.05263716666667, "name": "386438cc6130bf3c7a00da475401e263", "bike_id": "386438cc6130bf3c7a00da475401e263", "fusion_lat": 0.0, "is_reserved": 0, "lat": 38.927565666666666, "fusion_lon": 0.0, "is_disabled": 0}, {"rental_uris": {"android": "https://dc.lft.to/lastmile_qr_scan", "ios": "https://dc.lft.to/lastmile_qr_scan"}, "type": "electric_scooter", "lon": -76.9901175, "name": "f63c3ff2b1e89c405fb98acd8a8ad78b", "bike_id": "f63c3ff2b1e89c405fb98acd8a8ad78b", "fusion_lat": 0.0, "is_reserved": 0, "lat": 38.91136433333333, "fusion_lon": 0.0, "is_disabled": 0}, {"rental_uris": {"android": "https://dc.lft.to/lastmile_qr_scan", "ios": "https://dc.lft.to/lastmile_qr_scan"}, "type": "electric_scooter", "lon": -77.0103825, "name": "49a94c9c50462135d282286b4461ff02", "bike_id": "49a94c9c50462135d282286b4461ff02", "fusion_lat": 0.0, "is_reserved": 0, "lat": 38.8844885, "fusion_lon": 0.0, "is_disabled": 0}, {"rental_uris": {"android": "https://dc.lft.to/lastmile_qr_scan", "ios": "https://dc.lft.to/lastmile_qr_scan"}, "type": "electric_scooter", "lon": -77.025721, "name": "e1e9cb1878604b910fc36dec42274aa9", "bike_id": "e1e9cb1878604b910fc36dec42274aa9", "fusion_lat": 0.0, "is_reserved": 0, "lat": 38.92574333333334, "fusion_lon": 0.0, "is_disabled": 0}, {"rental_uris": {"android": "https://dc.lft.to/lastmile_qr_scan", "ios": "https://dc.lft.to/lastmile_qr_scan"}, "type": "electric_scooter", "lon": -77.03862066666667, "name": "d627629fba09a3584b49d993d31ac41c", "bike_id": "d627629fba09a3584b49d993d31ac41c", "fusion_lat": 0.0, "is_reserved": 0, "lat": 38.917084, "fusion_lon": 0.0, "is_disabled": 0}, {"rental_uris": {"android": "https://dc.lft.to/lastmile_qr_scan", "ios": "https://dc.lft.to/lastmile_qr_scan"}, "type": "electric_bike", "lon": -76.91123616666667, "name": "f0725d071a78188cd51483b7fd257e8b", "bike_id": "f0725d071a78188cd51483b7fd257e8b", "fusion_lat": 0.0, "is_reserved": 0, "lat": 39.010365, "fusion_lon": 0.0, "is_disabled": 0}, {"rental_uris": {"android": "https://dc.lft.to/lastmile_qr_scan", "ios": "https://dc.lft.to/lastmile_qr_scan"}, "type": "electric_scooter", "lon": -76.94140533333334, "name": "8cd787ac0a2bd53bfb101e53c726e765", "bike_id": "8cd787ac0a2bd53bfb101e53c726e765", "fusion_lat": 0.0, "is_reserved": 0, "lat": 38.891148333333334, "fusion_lon": 0.0, "is_disabled": 0}, {"rental_uris": {"android": "https://dc.lft.to/lastmile_qr_scan", "ios": "https://dc.lft.to/lastmile_qr_scan"}, "type": "electric_scooter", "lon": -76.97908383333333, "name": "52ae8088b5bb1b9f5cd9278660c3ccf7", "bike_id": "52ae8088b5bb1b9f5cd9278660c3ccf7", "fusion_lat": 0.0, "is_reserved": 0, "lat": 38.903915166666664, "fusion_lon": 0.0, "is_disabled": 0}, {"rental_uris": {"android": "https://dc.lft.to/lastmile_qr_scan", "ios": "https://dc.lft.to/lastmile_qr_scan"}, "type": "electric_scooter", "lon": -76.98588183333334, "name": "2fd214ea6fa1f45cc5c7ce5e8d09c5f1", "bike_id": "2fd214ea6fa1f45cc5c7ce5e8d09c5f1", "fusion_lat": 0.0, "is_reserved": 0, "lat": 38.88969633333333, "fusion_lon": 0.0, "is_disabled": 0}, {"rental_uris": {"android": "https://dc.lft.to/lastmile_qr_scan", "ios": "https://dc.lft.to/lastmile_qr_scan"}, "type": "electric_scooter", "lon": -77.04026066666667, "name": "a3e8ba882e016f825dfaee3665c870a2", "bike_id": "a3e8ba882e016f825dfaee3665c870a2", "fusion_lat": 0.0, "is_reserved": 0, "lat": 38.924484166666666, "fusion_lon": 0.0, "is_disabled": 0}, {"rental_uris": {"android": "https://dc.lft.to/lastmile_qr_scan", "ios": "https://dc.lft.to/lastmile_qr_scan"}, "type": "electric_scooter", "lon": -77.03191966666667, "name": "ddc7895b57287f144effea2e4914b124", "bike_id": "ddc7895b57287f144effea2e4914b124", "fusion_lat": 0.0, "is_reserved": 0, "lat": 38.9188925, "fusion_lon": 0.0, "is_disabled": 0}, {"rental_uris": {"android": "https://dc.lft.to/lastmile_qr_scan", "ios": "https://dc.lft.to/lastmile_qr_scan"}, "type": "electric_bike", "lon": -77.024193, "name": "18a3e5bb5df317f2afa2af68efe3c818", "bike_id": "18a3e5bb5df317f2afa2af68efe3c818", "fusion_lat": 0.0, "is_reserved": 0, "lat": 38.94912266666667, "fusion_lon": 0.0, "is_disabled": 0}, {"rental_uris": {"android": "https://dc.lft.to/lastmile_qr_scan", "ios": "https://dc.lft.to/lastmile_qr_scan"}, "type": "electric_scooter", "lon": -77.00756166666666, "name": "9b0e68fa3114e6d94f4fe6a1a39a9e98", "bike_id": "9b0e68fa3114e6d94f4fe6a1a39a9e98", "fusion_lat": 0.0, "is_reserved": 0, "lat": 38.9103045, "fusion_lon": 0.0, "is_disabled": 0}, {"rental_uris": {"android": "https://dc.lft.to/lastmile_qr_scan", "ios": "https://dc.lft.to/lastmile_qr_scan"}, "type": "electric_scooter", "lon": -77.01760383333334, "name": "de1a9919f3c356776393af19a13eca6b", "bike_id": "de1a9919f3c356776393af19a13eca6b", "fusion_lat": 0.0, "is_reserved": 0, "lat": 38.90203316666667, "fusion_lon": 0.0, "is_disabled": 0}, {"rental_uris": {"android": "https://dc.lft.to/lastmile_qr_scan", "ios": "https://dc.lft.to/lastmile_qr_scan"}, "type": "electric_scooter", "lon": -76.98554183333333, "name": "2f60eb2126bf8d1d2145d3ffd8c71ff1", "bike_id": "2f60eb2126bf8d1d2145d3ffd8c71ff1", "fusion_lat": 0.0, "is_reserved": 0, "lat": 38.85583783333333, "fusion_lon": 0.0, "is_disabled": 0}, {"rental_uris": {"android": "https://dc.lft.to/lastmile_qr_scan", "ios": "https://dc.lft.to/lastmile_qr_scan"}, "type": "electric_scooter", "lon": -76.993791, "name": "2e2335949c52f6fc9e086030c2f93a54", "bike_id": "2e2335949c52f6fc9e086030c2f93a54", "fusion_lat": 0.0, "is_reserved": 0, "lat": 38.923950833333336, "fusion_lon": 0.0, "is_disabled": 0}, {"rental_uris": {"android": "https://dc.lft.to/lastmile_qr_scan", "ios": "https://dc.lft.to/lastmile_qr_scan"}, "type": "electric_scooter", "lon": -76.96482966666667, "name": "b70ff12c95a42623b86388411718af93", "bike_id": "b70ff12c95a42623b86388411718af93", "fusion_lat": 0.0, "is_reserved": 0, "lat": 38.87548133333333, "fusion_lon": 0.0, "is_disabled": 0}, {"rental_uris": {"android": "https://dc.lft.to/lastmile_qr_scan", "ios": "https://dc.lft.to/lastmile_qr_scan"}, "type": "electric_scooter", "lon": -77.017123, "name": "6bef9b8173a3445af6ad21dfc84ff136", "bike_id": "6bef9b8173a3445af6ad21dfc84ff136", "fusion_lat": 0.0, "is_reserved": 0, "lat": 38.879375833333334, "fusion_lon": 0.0, "is_disabled": 0}, {"rental_uris": {"android": "https://dc.lft.to/lastmile_qr_scan", "ios": "https://dc.lft.to/lastmile_qr_scan"}, "type": "electric_scooter", "lon": -77.03832733333333, "name": "95be14b06d8d519b47a03d801c3375a0", "bike_id": "95be14b06d8d519b47a03d801c3375a0", "fusion_lat": 0.0, "is_reserved": 0, "lat": 38.9310725, "fusion_lon": 0.0, "is_disabled": 0}, {"rental_uris": {"android": "https://dc.lft.to/lastmile_qr_scan", "ios": "https://dc.lft.to/lastmile_qr_scan"}, "type": "electric_scooter", "lon": -76.986189, "name": "aad5a0ab785be08a6e98c5c9becc29c1", "bike_id": "aad5a0ab785be08a6e98c5c9becc29c1", "fusion_lat": 0.0, "is_reserved": 0, "lat": 38.90585883333333, "fusion_lon": 0.0, "is_disabled": 0}, {"rental_uris": {"android": "https://dc.lft.to/lastmile_qr_scan", "ios": "https://dc.lft.to/lastmile_qr_scan"}, "type": "electric_scooter", "lon": -77.07264416666666, "name": "afff0ccebbb80dd90ec7f11dc680bc03", "bike_id": "afff0ccebbb80dd90ec7f11dc680bc03", "fusion_lat": 0.0, "is_reserved": 0, "lat": 38.934824, "fusion_lon": 0.0, "is_disabled": 0}, {"rental_uris": {"android": "https://dc.lft.to/lastmile_qr_scan", "ios": "https://dc.lft.to/lastmile_qr_scan"}, "type": "electric_scooter", "lon": -77.020086, "name": "b22977dd26266bd8fa5acfbd3b7ac13e", "bike_id": "b22977dd26266bd8fa5acfbd3b7ac13e", "fusion_lat": 0.0, "is_reserved": 0, "lat": 38.87942733333333, "fusion_lon": 0.0, "is_disabled": 0}, {"rental_uris": {"android": "https://dc.lft.to/lastmile_qr_scan", "ios": "https://dc.lft.to/lastmile_qr_scan"}, "type": "electric_scooter", "lon": -77.03855783333333, "name": "2142ded241867d2805729537148a3045", "bike_id": "2142ded241867d2805729537148a3045", "fusion_lat": 0.0, "is_reserved": 0, "lat": 38.911672833333334, "fusion_lon": 0.0, "is_disabled": 0}, {"rental_uris": {"android": "https://dc.lft.to/lastmile_qr_scan", "ios": "https://dc.lft.to/lastmile_qr_scan"}, "type": "electric_scooter", "lon": -77.02476233333333, "name": "6f287088f721857ed9412b850edd0068", "bike_id": "6f287088f721857ed9412b850edd0068", "fusion_lat": 0.0, "is_reserved": 0, "lat": 38.93880816666667, "fusion_lon": 0.0, "is_disabled": 0}, {"rental_uris": {"android": "https://dc.lft.to/lastmile_qr_scan", "ios": "https://dc.lft.to/lastmile_qr_scan"}, "type": "electric_scooter", "lon": -77.07360616666666, "name": "98f4d9955a2d6b9c5a7333cc7d4d3e3e", "bike_id": "98f4d9955a2d6b9c5a7333cc7d4d3e3e", "fusion_lat": 0.0, "is_reserved": 0, "lat": 38.9432315, "fusion_lon": 0.0, "is_disabled": 0}, {"rental_uris": {"android": "https://dc.lft.to/lastmile_qr_scan", "ios": "https://dc.lft.to/lastmile_qr_scan"}, "type": "electric_bike", "lon": -77.00855783333333, "name": "2e87b9c6466305a1c4d7c01e3810effc", "bike_id": "2e87b9c6466305a1c4d7c01e3810effc", "fusion_lat": 0.0, "is_reserved": 0, "lat": 38.82728183333333, "fusion_lon": 0.0, "is_disabled": 0}, {"rental_uris": {"android": "https://dc.lft.to/lastmile_qr_scan", "ios": "https://dc.lft.to/lastmile_qr_scan"}, "type": "electric_scooter", "lon": -77.03460183333334, "name": "ff479e886caa046e6b06587d972635f4", "bike_id": "ff479e886caa046e6b06587d972635f4", "fusion_lat": 0.0, "is_reserved": 0, "lat": 38.90878516666667, "fusion_lon": 0.0, "is_disabled": 0}, {"rental_uris": {"android": "https://dc.lft.to/lastmile_qr_scan", "ios": "https://dc.lft.to/lastmile_qr_scan"}, "type": "electric_scooter", "lon": -77.02276083333334, "name": "a71a5df52bfb981befb7a47ac95927cb", "bike_id": "a71a5df52bfb981befb7a47ac95927cb", "fusion_lat": 0.0, "is_reserved": 0, "lat": 38.92689883333333, "fusion_lon": 0.0, "is_disabled": 0}, {"rental_uris": {"android": "https://dc.lft.to/lastmile_qr_scan", "ios": "https://dc.lft.to/lastmile_qr_scan"}, "type": "electric_bike", "lon": -77.0398455, "name": "8a4566ad262779077597ae75b7ac7d28", "bike_id": "8a4566ad262779077597ae75b7ac7d28", "fusion_lat": 0.0, "is_reserved": 0, "lat": 38.80301516666667, "fusion_lon": 0.0, "is_disabled": 0}, {"rental_uris": {"android": "https://dc.lft.to/lastmile_qr_scan", "ios": "https://dc.lft.to/lastmile_qr_scan"}, "type": "electric_scooter", "lon": -77.00216433333334, "name": "b2c4cd1e862e49cdf19f5dd5dbed606a", "bike_id": "b2c4cd1e862e49cdf19f5dd5dbed606a", "fusion_lat": 0.0, "is_reserved": 0, "lat": 38.907368166666664, "fusion_lon": 0.0, "is_disabled": 0}, {"rental_uris": {"android": "https://dc.lft.to/lastmile_qr_scan", "ios": "https://dc.lft.to/lastmile_qr_scan"}, "type": "electric_scooter", "lon": -77.04116383333333, "name": "4f080882a4565e5734f16f7312f71fda", "bike_id": "4f080882a4565e5734f16f7312f71fda", "fusion_lat": 0.0, "is_reserved": 0, "lat": 38.925251833333334, "fusion_lon": 0.0, "is_disabled": 0}, {"rental_uris": {"android": "https://dc.lft.to/lastmile_qr_scan", "ios": "https://dc.lft.to/lastmile_qr_scan"}, "type": "electric_scooter", "lon": -76.99619983333334, "name": "3724f9822cd693b4df51cd7bfc6bb784", "bike_id": "3724f9822cd693b4df51cd7bfc6bb784", "fusion_lat": 0.0, "is_reserved": 0, "lat": 38.88027666666667, "fusion_lon": 0.0, "is_disabled": 0}, {"rental_uris": {"android": "https://dc.lft.to/lastmile_qr_scan", "ios": "https://dc.lft.to/lastmile_qr_scan"}, "type": "electric_scooter", "lon": -76.997794, "name": "00f6702ea3be0d8f3c37d0d462da9a83", "bike_id": "00f6702ea3be0d8f3c37d0d462da9a83", "fusion_lat": 0.0, "is_reserved": 0, "lat": 38.844228666666666, "fusion_lon": 0.0, "is_disabled": 0}, {"rental_uris": {"android": "https://dc.lft.to/lastmile_qr_scan", "ios": "https://dc.lft.to/lastmile_qr_scan"}, "type": "electric_scooter", "lon": -76.99091283333334, "name": "0b0cef44fbafe7bacd8ba69c0342b9c8", "bike_id": "0b0cef44fbafe7bacd8ba69c0342b9c8", "fusion_lat": 0.0, "is_reserved": 0, "lat": 38.929508, "fusion_lon": 0.0, "is_disabled": 0}, {"rental_uris": {"android": "https://dc.lft.to/lastmile_qr_scan", "ios": "https://dc.lft.to/lastmile_qr_scan"}, "type": "electric_scooter", "lon": -76.98926416666667, "name": "03f0bb38eeaf1fdeb2ad1ad8248097a5", "bike_id": "03f0bb38eeaf1fdeb2ad1ad8248097a5", "fusion_lat": 0.0, "is_reserved": 0, "lat": 38.865851, "fusion_lon": 0.0, "is_disabled": 0}, {"rental_uris": {"android": "https://dc.lft.to/lastmile_qr_scan", "ios": "https://dc.lft.to/lastmile_qr_scan"}, "type": "electric_scooter", "lon": -77.01822066666666, "name": "3264dae4cc516dd070f9a53f48c0cc43", "bike_id": "3264dae4cc516dd070f9a53f48c0cc43", "fusion_lat": 0.0, "is_reserved": 0, "lat": 38.90385466666667, "fusion_lon": 0.0, "is_disabled": 0}, {"rental_uris": {"android": "https://dc.lft.to/lastmile_qr_scan", "ios": "https://dc.lft.to/lastmile_qr_scan"}, "type": "electric_scooter", "lon": -77.04094183333333, "name": "532aca8fd55cdd1d4ac224935bee2084", "bike_id": "532aca8fd55cdd1d4ac224935bee2084", "fusion_lat": 0.0, "is_reserved": 0, "lat": 38.91412316666667, "fusion_lon": 0.0, "is_disabled": 0}, {"rental_uris": {"android": "https://dc.lft.to/lastmile_qr_scan", "ios": "https://dc.lft.to/lastmile_qr_scan"}, "type": "electric_scooter", "lon": -77.01871833333334, "name": "9983c6bc6e255b27ab9d80e358a91add", "bike_id": "9983c6bc6e255b27ab9d80e358a91add", "fusion_lat": 0.0, "is_reserved": 0, "lat": 38.917652833333335, "fusion_lon": 0.0, "is_disabled": 0}, {"rental_uris": {"android": "https://dc.lft.to/lastmile_qr_scan", "ios": "https://dc.lft.to/lastmile_qr_scan"}, "type": "electric_scooter", "lon": -77.0061555, "name": "d4822a15b53eaa2b8f292f7f2cf76ae5", "bike_id": "d4822a15b53eaa2b8f292f7f2cf76ae5", "fusion_lat": 0.0, "is_reserved": 0, "lat": 38.90572083333333, "fusion_lon": 0.0, "is_disabled": 0}, {"rental_uris": {"android": "https://dc.lft.to/lastmile_qr_scan", "ios": "https://dc.lft.to/lastmile_qr_scan"}, "type": "electric_scooter", "lon": -77.03316333333333, "name": "68a303efdf33f4826b3e5c0a830e82c2", "bike_id": "68a303efdf33f4826b3e5c0a830e82c2", "fusion_lat": 0.0, "is_reserved": 0, "lat": 38.8923425, "fusion_lon": 0.0, "is_disabled": 0}, {"rental_uris": {"android": "https://dc.lft.to/lastmile_qr_scan", "ios": "https://dc.lft.to/lastmile_qr_scan"}, "type": "electric_scooter", "lon": -77.0365265, "name": "ab39efc7781606f69b8684af0f4a3fab", "bike_id": "ab39efc7781606f69b8684af0f4a3fab", "fusion_lat": 0.0, "is_reserved": 0, "lat": 38.9224495, "fusion_lon": 0.0, "is_disabled": 0}, {"rental_uris": {"android": "https://dc.lft.to/lastmile_qr_scan", "ios": "https://dc.lft.to/lastmile_qr_scan"}, "type": "electric_scooter", "lon": -77.00357366666667, "name": "8e817d75d6f1200c10ff647a228bf05e", "bike_id": "8e817d75d6f1200c10ff647a228bf05e", "fusion_lat": 0.0, "is_reserved": 0, "lat": 38.90603016666667, "fusion_lon": 0.0, "is_disabled": 0}, {"rental_uris": {"android": "https://dc.lft.to/lastmile_qr_scan", "ios": "https://dc.lft.to/lastmile_qr_scan"}, "type": "electric_scooter", "lon": -76.94229883333334, "name": "2ea1cc9722abe8d4ccf3b1f22f708ec2", "bike_id": "2ea1cc9722abe8d4ccf3b1f22f708ec2", "fusion_lat": 0.0, "is_reserved": 0, "lat": 38.8967525, "fusion_lon": 0.0, "is_disabled": 0}, {"rental_uris": {"android": "https://dc.lft.to/lastmile_qr_scan", "ios": "https://dc.lft.to/lastmile_qr_scan"}, "type": "electric_scooter", "lon": -77.03320916666667, "name": "bf6b70ea9887889885f52dfacba72315", "bike_id": "bf6b70ea9887889885f52dfacba72315", "fusion_lat": 0.0, "is_reserved": 0, "lat": 38.89884466666667, "fusion_lon": 0.0, "is_disabled": 0}, {"rental_uris": {"android": "https://dc.lft.to/lastmile_qr_scan", "ios": "https://dc.lft.to/lastmile_qr_scan"}, "type": "electric_scooter", "lon": -77.02365983333334, "name": "6bd60fc0c4a38e7e044fb15979983b2c", "bike_id": "6bd60fc0c4a38e7e044fb15979983b2c", "fusion_lat": 0.0, "is_reserved": 0, "lat": 38.90438816666666, "fusion_lon": 0.0, "is_disabled": 0}, {"rental_uris": {"android": "https://dc.lft.to/lastmile_qr_scan", "ios": "https://dc.lft.to/lastmile_qr_scan"}, "type": "electric_bike", "lon": -76.9486455, "name": "9671603ef35d3756ba1181f77db7a7b6", "bike_id": "9671603ef35d3756ba1181f77db7a7b6", "fusion_lat": 0.0, "is_reserved": 0, "lat": 38.88967483333333, "fusion_lon": 0.0, "is_disabled": 0}, {"rental_uris": {"android": "https://dc.lft.to/lastmile_qr_scan", "ios": "https://dc.lft.to/lastmile_qr_scan"}, "type": "electric_bike", "lon": -76.9852775, "name": "a9552a952170131acd4fa41347eee0a7", "bike_id": "a9552a952170131acd4fa41347eee0a7", "fusion_lat": 0.0, "is_reserved": 0, "lat": 38.92009766666666, "fusion_lon": 0.0, "is_disabled": 0}, {"rental_uris": {"android": "https://dc.lft.to/lastmile_qr_scan", "ios": "https://dc.lft.to/lastmile_qr_scan"}, "type": "electric_bike", "lon": -76.877722, "name": "c5c612acbe00e21b21406e5b6867ea6b", "bike_id": "c5c612acbe00e21b21406e5b6867ea6b", "fusion_lat": 0.0, "is_reserved": 0, "lat": 38.992215333333334, "fusion_lon": 0.0, "is_disabled": 0}, {"rental_uris": {"android": "https://dc.lft.to/lastmile_qr_scan", "ios": "https://dc.lft.to/lastmile_qr_scan"}, "type": "electric_scooter", "lon": -76.9877155, "name": "9d8437a4ed5dad8ec0a72e4081b5b0ed", "bike_id": "9d8437a4ed5dad8ec0a72e4081b5b0ed", "fusion_lat": 0.0, "is_reserved": 0, "lat": 38.900270666666664, "fusion_lon": 0.0, "is_disabled": 0}, {"rental_uris": {"android": "https://dc.lft.to/lastmile_qr_scan", "ios": "https://dc.lft.to/lastmile_qr_scan"}, "type": "electric_scooter", "lon": -76.987749, "name": "b8db37480f40f42983f406ade9666922", "bike_id": "b8db37480f40f42983f406ade9666922", "fusion_lat": 0.0, "is_reserved": 0, "lat": 38.900267666666664, "fusion_lon": 0.0, "is_disabled": 0}, {"rental_uris": {"android": "https://dc.lft.to/lastmile_qr_scan", "ios": "https://dc.lft.to/lastmile_qr_scan"}, "type": "electric_bike", "lon": -76.96386, "name": "8451a29f0ef30ec919c383e180e2eb0a", "bike_id": "8451a29f0ef30ec919c383e180e2eb0a", "fusion_lat": 0.0, "is_reserved": 0, "lat": 38.97575966666667, "fusion_lon": 0.0, "is_disabled": 0}, {"rental_uris": {"android": "https://dc.lft.to/lastmile_qr_scan", "ios": "https://dc.lft.to/lastmile_qr_scan"}, "type": "electric_scooter", "lon": -77.0378155, "name": "8f06eff6f19ad81199180ef6972e1ee5", "bike_id": "8f06eff6f19ad81199180ef6972e1ee5", "fusion_lat": 0.0, "is_reserved": 0, "lat": 38.92620933333333, "fusion_lon": 0.0, "is_disabled": 0}, {"rental_uris": {"android": "https://dc.lft.to/lastmile_qr_scan", "ios": "https://dc.lft.to/lastmile_qr_scan"}, "type": "electric_scooter", "lon": -77.0294605, "name": "87a609fdb4e57eb744f46d98b0ced3c0", "bike_id": "87a609fdb4e57eb744f46d98b0ced3c0", "fusion_lat": 0.0, "is_reserved": 0, "lat": 38.93248333333333, "fusion_lon": 0.0, "is_disabled": 0}, {"rental_uris": {"android": "https://dc.lft.to/lastmile_qr_scan", "ios": "https://dc.lft.to/lastmile_qr_scan"}, "type": "electric_bike", "lon": -77.0270635, "name": "9633781e35b386b7651cc1375d6d34ef", "bike_id": "9633781e35b386b7651cc1375d6d34ef", "fusion_lat": 0.0, "is_reserved": 0, "lat": 38.92294733333333, "fusion_lon": 0.0, "is_disabled": 0}, {"rental_uris": {"android": "https://dc.lft.to/lastmile_qr_scan", "ios": "https://dc.lft.to/lastmile_qr_scan"}, "type": "electric_scooter", "lon": -77.0424335, "name": "6e05dd46ea3ac8038f0b7d7f8e2a1eab", "bike_id": "6e05dd46ea3ac8038f0b7d7f8e2a1eab", "fusion_lat": 0.0, "is_reserved": 0, "lat": 38.94548, "fusion_lon": 0.0, "is_disabled": 0}, {"rental_uris": {"android": "https://dc.lft.to/lastmile_qr_scan", "ios": "https://dc.lft.to/lastmile_qr_scan"}, "type": "electric_scooter", "lon": -77.06384966666667, "name": "290f3be14a539a5db605d6d6a355cc01", "bike_id": "290f3be14a539a5db605d6d6a355cc01", "fusion_lat": 0.0, "is_reserved": 0, "lat": 38.92905233333333, "fusion_lon": 0.0, "is_disabled": 0}, {"rental_uris": {"android": "https://dc.lft.to/lastmile_qr_scan", "ios": "https://dc.lft.to/lastmile_qr_scan"}, "type": "electric_scooter", "lon": -77.0014095, "name": "e1b118466a1967c1e73c4d646bac565b", "bike_id": "e1b118466a1967c1e73c4d646bac565b", "fusion_lat": 0.0, "is_reserved": 0, "lat": 38.9001675, "fusion_lon": 0.0, "is_disabled": 0}, {"rental_uris": {"android": "https://dc.lft.to/lastmile_qr_scan", "ios": "https://dc.lft.to/lastmile_qr_scan"}, "type": "electric_scooter", "lon": -77.0507865, "name": "6daf217f4d1d35694f20f29257e3fd2f", "bike_id": "6daf217f4d1d35694f20f29257e3fd2f", "fusion_lat": 0.0, "is_reserved": 0, "lat": 38.9246165, "fusion_lon": 0.0, "is_disabled": 0}, {"rental_uris": {"android": "https://dc.lft.to/lastmile_qr_scan", "ios": "https://dc.lft.to/lastmile_qr_scan"},