{"data": {"bikes": [{"is_disabled": 0, "fusion_lon": 0.0, "fusion_lat": 0.0, "lat": 38.914781, "type": "electric_scooter", "lon": -77.03219466666667, "bike_id": "886cf992ac68bd9767b578fc7e37083c", "rental_uris": {"android": "https://dc.lft.to/lastmile_qr_scan", "ios": "https://dc.lft.to/lastmile_qr_scan"}, "name": "886cf992ac68bd9767b578fc7e37083c", "is_reserved": 0}, {"is_disabled": 0, "fusion_lon": 0.0, "fusion_lat": 0.0, "lat": 38.901786, "type": "electric_scooter", "lon": -76.92824933333333, "bike_id": "6e9ac6fa756e30f06b234aa219d80807", "rental_uris": {"android": "https://dc.lft.to/lastmile_qr_scan", "ios": "https://dc.lft.to/lastmile_qr_scan"}, "name": "6e9ac6fa756e30f06b234aa219d80807", "is_reserved": 0}, {"is_disabled": 0, "fusion_lon": 0.0, "fusion_lat": 0.0, "lat": 38.91093683333333, "type": "electric_scooter", "lon": -77.0385755, "bike_id": "70a535a78562e05a38012cd01566b13d", "rental_uris": {"android": "https://dc.lft.to/lastmile_qr_scan", "ios": "https://dc.lft.to/lastmile_qr_scan"}, "name": "70a535a78562e05a38012cd01566b13d", "is_reserved": 0}, {"is_disabled": 0, "fusion_lon": 0.0, "fusion_lat": 0.0, "lat": 38.909427, "type": "electric_scooter", "lon": -77.03205666666666, "bike_id": "aa1ad13148bccc1e6d520ec1139ba671", "rental_uris": {"android": "https://dc.lft.to/lastmile_qr_scan", "ios": "https://dc.lft.to/lastmile_qr_scan"}, "name": "aa1ad13148bccc1e6d520ec1139ba671", "is_reserved": 0}, {"is_disabled": 0, "fusion_lon": 0.0, "fusion_lat": 0.0, "lat": 38.915674833333334, "type": "electric_scooter", "lon": -77.03270183333333, "bike_id": "0b2b81d7553ab109f5370e9447118cf7", "rental_uris": {"android": "https://dc.lft.to/lastmile_qr_scan", "ios": "https://dc.lft.to/lastmile_qr_scan"}, "name": "0b2b81d7553ab109f5370e9447118cf7", "is_reserved": 0}, {"is_disabled": 0, "fusion_lon": 0.0, "fusion_lat": 0.0, "lat": 38.947865, "type": "electric_scooter", "lon": -77.092786, "bike_id": "81a759b39723b6ac6e34e8fa5dd8744e", "rental_uris": {"android": "https://dc.lft.to/lastmile_qr_scan", "ios": "https://dc.lft.to/lastmile_qr_scan"}, "name": "81a759b39723b6ac6e34e8fa5dd8744e", "is_reserved": 0}, {"is_disabled": 0, "fusion_lon": 0.0, "fusion_lat": 0.0, "lat": 38.8659305, "type": "electric_scooter", "lon": -76.99018016666666, "bike_id": "cecc22d2ee035da685a4c68525610be3", "rental_uris": {"android": "https://dc.lft.to/lastmile_qr_scan", "ios": "https://dc.lft.to/lastmile_qr_scan"}, "name": "cecc22d2ee035da685a4c68525610be3", "is_reserved": 0}, {"is_disabled": 0, "fusion_lon": 0.0, "fusion_lat": 0.0, "lat": 38.887179, "type": "electric_scooter", "lon": -77.02829266666667, "bike_id": "8da3151f480b14e02c81519fd28e605f", "rental_uris": {"android": "https://dc.lft.to/lastmile_qr_scan", "ios": "https://dc.lft.to/lastmile_qr_scan"}, "name": "8da3151f480b14e02c81519fd28e605f", "is_reserved": 0}, {"is_disabled": 0, "fusion_lon": 0.0, "fusion_lat": 0.0, "lat": 38.92076216666667, "type": "electric_scooter", "lon": -77.018293, "bike_id": "70718ceb82637a50c22fc8215498cb1d", "rental_uris": {"android": "https://dc.lft.to/lastmile_qr_scan", "ios": "https://dc.lft.to/lastmile_qr_scan"}, "name": "70718ceb82637a50c22fc8215498cb1d", "is_reserved": 0}, {"is_disabled": 0, "fusion_lon": 0.0, "fusion_lat": 0.0, "lat": 38.931089, "type": "electric_scooter", "lon": -77.034844, "bike_id": "0a1a846a47ac84bdee12e2a1dd83531a", "rental_uris": {"android": "https://dc.lft.to/lastmile_qr_scan", "ios": "https://dc.lft.to/lastmile_qr_scan"}, "name": "0a1a846a47ac84bdee12e2a1dd83531a", "is_reserved": 0}, {"is_disabled": 0, "fusion_lon": 0.0, "fusion_lat": 0.0, "lat": 38.90237366666667, "type": "electric_scooter", "lon": -77.02011366666666, "bike_id": "6afe3407d9b5e9f99627f2e0c92e9438", "rental_uris": {"android": "https://dc.lft.to/lastmile_qr_scan", "ios": "https://dc.lft.to/lastmile_qr_scan"}, "name": "6afe3407d9b5e9f99627f2e0c92e9438", "is_reserved": 0}, {"is_disabled": 0, "fusion_lon": 0.0, "fusion_lat": 0.0, "lat": 38.8961405, "type": "electric_scooter", "lon": -76.9963345, "bike_id": "46e5713b9aabc44dc2ef8a4f2f1f5810", "rental_uris": {"android": "https://dc.lft.to/lastmile_qr_scan", "ios": "https://dc.lft.to/lastmile_qr_scan"}, "name": "46e5713b9aabc44dc2ef8a4f2f1f5810", "is_reserved": 0}, {"is_disabled": 0, "fusion_lon": 0.0, "fusion_lat": 0.0, "lat": 38.91621383333333, "type": "electric_scooter", "lon": -77.0229465, "bike_id": "99f7ba843a5853458df7c0a0cc518ef6", "rental_uris": {"android": "https://dc.lft.to/lastmile_qr_scan", "ios": "https://dc.lft.to/lastmile_qr_scan"}, "name": "99f7ba843a5853458df7c0a0cc518ef6", "is_reserved": 0}, {"is_disabled": 0, "fusion_lon": 0.0, "fusion_lat": 0.0, "lat": 38.91697766666667, "type": "electric_scooter", "lon": -77.01167066666666, "bike_id": "399cb92678d45db8c5f44350ed94a3a2", "rental_uris": {"android": "https://dc.lft.to/lastmile_qr_scan", "ios": "https://dc.lft.to/lastmile_qr_scan"}, "name": "399cb92678d45db8c5f44350ed94a3a2", "is_reserved": 0}, {"is_disabled": 0, "fusion_lon": 0.0, "fusion_lat": 0.0, "lat": 38.907607, "type": "electric_scooter", "lon": -77.00080116666666, "bike_id": "dc29dd569823f8596f32c50d2daed893", "rental_uris": {"android": "https://dc.lft.to/lastmile_qr_scan", "ios": "https://dc.lft.to/lastmile_qr_scan"}, "name": "dc29dd569823f8596f32c50d2daed893", "is_reserved": 0}, {"is_disabled": 0, "fusion_lon": 0.0, "fusion_lat": 0.0, "lat": 38.8861715, "type": "electric_scooter", "lon": -77.00572633333333, "bike_id": "fa8d822b392d4e85718ab68713e861ca", "rental_uris": {"android": "https://dc.lft.to/lastmile_qr_scan", "ios": "https://dc.lft.to/lastmile_qr_scan"}, "name": "fa8d822b392d4e85718ab68713e861ca", "is_reserved": 0}, {"is_disabled": 0, "fusion_lon": 0.0, "fusion_lat": 0.0, "lat": 38.937050166666666, "type": "electric_scooter", "lon": -77.05594366666666, "bike_id": "78341d9d3ecea89b200f237e62e91087", "rental_uris": {"android": "https://dc.lft.to/lastmile_qr_scan", "ios": "https://dc.lft.to/lastmile_qr_scan"}, "name": "78341d9d3ecea89b200f237e62e91087", "is_reserved": 0}, {"is_disabled": 0, "fusion_lon": 0.0, "fusion_lat": 0.0, "lat": 38.886847, "type": "electric_scooter", "lon": -76.98798483333333, "bike_id": "c2c1c9dbebf2c93735fc31c11f38dc10", "rental_uris": {"android": "https://dc.lft.to/lastmile_qr_scan", "ios": "https://dc.lft.to/lastmile_qr_scan"}, "name": "c2c1c9dbebf2c93735fc31c11f38dc10", "is_reserved": 0}, {"is_disabled": 0, "fusion_lon": 0.0, "fusion_lat": 0.0, "lat": 38.91465, "type": "electric_scooter", "lon": -77.03196633333333, "bike_id": "12e0c72461f2bfc74682a1c57ef116a9", "rental_uris": {"android": "https://dc.lft.to/lastmile_qr_scan", "ios": "https://dc.lft.to/lastmile_qr_scan"}, "name": "12e0c72461f2bfc74682a1c57ef116a9", "is_reserved": 0}, {"is_disabled": 0, "fusion_lon": 0.0, "fusion_lat": 0.0, "lat": 38.856464833333334, "type": "electric_bike", "lon": -77.08528866666667, "bike_id": "5af4a8eecb4558cb251d57af840a5854", "rental_uris": {"android": "https://dc.lft.to/lastmile_qr_scan", "ios": "https://dc.lft.to/lastmile_qr_scan"}, "name": "5af4a8eecb4558cb251d57af840a5854", "is_reserved": 0}, {"is_disabled": 0, "fusion_lon": 0.0, "fusion_lat": 0.0, "lat": 38.8705695, "type": "electric_scooter", "lon": -76.9808525, "bike_id": "f04dbd2102678a075b3f0ccfcfd25b7a", "rental_uris": {"android": "https://dc.lft.to/lastmile_qr_scan", "ios": "https://dc.lft.to/lastmile_qr_scan"}, "name": "f04dbd2102678a075b3f0ccfcfd25b7a", "is_reserved": 0}, {"is_disabled": 0, "fusion_lon": 0.0, "fusion_lat": 0.0, "lat": 38.849339, "type": "electric_bike", "lon": -77.10012566666667, "bike_id": "be5b26ca47c14b20c7671298492ce7c8", "rental_uris": {"android": "https://dc.lft.to/lastmile_qr_scan", "ios": "https://dc.lft.to/lastmile_qr_scan"}, "name": "be5b26ca47c14b20c7671298492ce7c8", "is_reserved": 0}, {"is_disabled": 0, "fusion_lon": 0.0, "fusion_lat": 0.0, "lat": 38.91717383333334, "type": "electric_scooter", "lon": -77.0415405, "bike_id": "e973f095d01e7fc7d16aa64382d6ef6b", "rental_uris": {"android": "https://dc.lft.to/lastmile_qr_scan", "ios": "https://dc.lft.to/lastmile_qr_scan"}, "name": "e973f095d01e7fc7d16aa64382d6ef6b", "is_reserved": 0}, {"is_disabled": 0, "fusion_lon": 0.0, "fusion_lat": 0.0, "lat": 38.9119115, "type": "electric_scooter", "lon": -77.04168083333333, "bike_id": "289a3594db45eec655803c8d5461e667", "rental_uris": {"android": "https://dc.lft.to/lastmile_qr_scan", "ios": "https://dc.lft.to/lastmile_qr_scan"}, "name": "289a3594db45eec655803c8d5461e667", "is_reserved": 0}, {"is_disabled": 0, "fusion_lon": 0.0, "fusion_lat": 0.0, "lat": 38.95637583333333, "type": "electric_scooter", "lon": -77.0910025, "bike_id": "c144b1f2096cd0a534b6545b051ec582", "rental_uris": {"android": "https://dc.lft.to/lastmile_qr_scan", "ios": "https://dc.lft.to/lastmile_qr_scan"}, "name": "c144b1f2096cd0a534b6545b051ec582", "is_reserved": 0}, {"is_disabled": 0, "fusion_lon": 0.0, "fusion_lat": 0.0, "lat": 38.896302666666664, "type": "electric_scooter", "lon": -77.02131166666666, "bike_id": "df6f657786499c1e3adc63cf4baa27ff", "rental_uris": {"android": "https://dc.lft.to/lastmile_qr_scan", "ios": "https://dc.lft.to/lastmile_qr_scan"}, "name": "df6f657786499c1e3adc63cf4baa27ff", "is_reserved": 0}, {"is_disabled": 0, "fusion_lon": 0.0, "fusion_lat": 0.0, "lat": 38.92364083333333, "type": "electric_scooter", "lon": -77.0502835, "bike_id": "786088526ee7b193ffef29029335e325", "rental_uris": {"android": "https://dc.lft.to/lastmile_qr_scan", "ios": "https://dc.lft.to/lastmile_qr_scan"}, "name": "786088526ee7b193ffef29029335e325", "is_reserved": 0}, {"is_disabled": 0, "fusion_lon": 0.0, "fusion_lat": 0.0, "lat": 38.9082615, "type": "electric_scooter", "lon": -77.00192, "bike_id": "a2e4c6733dddeda2a3ec2189143245db", "rental_uris": {"android": "https://dc.lft.to/lastmile_qr_scan", "ios": "https://dc.lft.to/lastmile_qr_scan"}, "name": "a2e4c6733dddeda2a3ec2189143245db", "is_reserved": 0}, {"is_disabled": 0, "fusion_lon": 0.0, "fusion_lat": 0.0, "lat": 38.94512833333334, "type": "electric_bike", "lon": -77.00667816666666, "bike_id": "245459bd1b18d1fdaf66153aebc4e211", "rental_uris": {"android": "https://dc.lft.to/lastmile_qr_scan", "ios": "https://dc.lft.to/lastmile_qr_scan"}, "name": "245459bd1b18d1fdaf66153aebc4e211", "is_reserved": 0}, {"is_disabled": 0, "fusion_lon": 0.0, "fusion_lat": 0.0, "lat": 38.93483483333333, "type": "electric_scooter", "lon": -77.03605533333334, "bike_id": "7a4637bedcd7a63a224c804513dd6ef8", "rental_uris": {"android": "https://dc.lft.to/lastmile_qr_scan", "ios": "https://dc.lft.to/lastmile_qr_scan"}, "name": "7a4637bedcd7a63a224c804513dd6ef8", "is_reserved": 0}, {"is_disabled": 0, "fusion_lon": 0.0, "fusion_lat": 0.0, "lat": 38.9092855, "type": "electric_scooter", "lon": -77.05716833333334, "bike_id": "22c0d9f57544cf7722e065b9d07f4206", "rental_uris": {"android": "https://dc.lft.to/lastmile_qr_scan", "ios": "https://dc.lft.to/lastmile_qr_scan"}, "name": "22c0d9f57544cf7722e065b9d07f4206", "is_reserved": 0}, {"is_disabled": 0, "fusion_lon": 0.0, "fusion_lat": 0.0, "lat": 38.9138475, "type": "electric_scooter", "lon": -77.01704466666666, "bike_id": "b59ba6f3ddedd86c48dbdcbf11b73132", "rental_uris": {"android": "https://dc.lft.to/lastmile_qr_scan", "ios": "https://dc.lft.to/lastmile_qr_scan"}, "name": "b59ba6f3ddedd86c48dbdcbf11b73132", "is_reserved": 0}, {"is_disabled": 0, "fusion_lon": 0.0, "fusion_lat": 0.0, "lat": 38.900311, "type": "electric_scooter", "lon": -77.03304716666666, "bike_id": "9184c5f2a651d91c89aea36ac1c1227b", "rental_uris": {"android": "https://dc.lft.to/lastmile_qr_scan", "ios": "https://dc.lft.to/lastmile_qr_scan"}, "name": "9184c5f2a651d91c89aea36ac1c1227b", "is_reserved": 0}, {"is_disabled": 0, "fusion_lon": 0.0, "fusion_lat": 0.0, "lat": 38.8972445, "type": "electric_scooter", "lon": -77.02163666666667, "bike_id": "69e71f2e343ea7ac4bfa8aaa262a3752", "rental_uris": {"android": "https://dc.lft.to/lastmile_qr_scan", "ios": "https://dc.lft.to/lastmile_qr_scan"}, "name": "69e71f2e343ea7ac4bfa8aaa262a3752", "is_reserved": 0}, {"is_disabled": 0, "fusion_lon": 0.0, "fusion_lat": 0.0, "lat": 38.87535966666667, "type": "electric_scooter", "lon": -77.00060933333333, "bike_id": "f2ad0227aaa3bc6841035a5b844ccea6", "rental_uris": {"android": "https://dc.lft.to/lastmile_qr_scan", "ios": "https://dc.lft.to/lastmile_qr_scan"}, "name": "f2ad0227aaa3bc6841035a5b844ccea6", "is_reserved": 0}, {"is_disabled": 0, "fusion_lon": 0.0, "fusion_lat": 0.0, "lat": 38.935504333333334, "type": "electric_scooter", "lon": -77.03451533333333, "bike_id": "04d08313a5984a4dd4e08e8cf6ef1e54", "rental_uris": {"android": "https://dc.lft.to/lastmile_qr_scan", "ios": "https://dc.lft.to/lastmile_qr_scan"}, "name": "04d08313a5984a4dd4e08e8cf6ef1e54", "is_reserved": 0}, {"is_disabled": 0, "fusion_lon": 0.0, "fusion_lat": 0.0, "lat": 38.915211666666664, "type": "electric_scooter", "lon": -77.01982316666667, "bike_id": "2126f395bb15d31101c2f2c408754a4c", "rental_uris": {"android": "https://dc.lft.to/lastmile_qr_scan", "ios": "https://dc.lft.to/lastmile_qr_scan"}, "name": "2126f395bb15d31101c2f2c408754a4c", "is_reserved": 0}, {"is_disabled": 0, "fusion_lon": 0.0, "fusion_lat": 0.0, "lat": 38.9314935, "type": "electric_scooter", "lon": -77.07846166666667, "bike_id": "9c8994d1176cf1224c2d2a0f48651185", "rental_uris": {"android": "https://dc.lft.to/lastmile_qr_scan", "ios": "https://dc.lft.to/lastmile_qr_scan"}, "name": "9c8994d1176cf1224c2d2a0f48651185", "is_reserved": 0}, {"is_disabled": 0, "fusion_lon": 0.0, "fusion_lat": 0.0, "lat": 38.892475833333336, "type": "electric_scooter", "lon": -77.02003916666666, "bike_id": "5fc0b3358bf2a31e03d281626cdf218a", "rental_uris": {"android": "https://dc.lft.to/lastmile_qr_scan", "ios": "https://dc.lft.to/lastmile_qr_scan"}, "name": "5fc0b3358bf2a31e03d281626cdf218a", "is_reserved": 0}, {"is_disabled": 0, "fusion_lon": 0.0, "fusion_lat": 0.0, "lat": 38.9231875, "type": "electric_scooter", "lon": -77.04514733333333, "bike_id": "a42096ecdcf5a914d39497a1e7184e29", "rental_uris": {"android": "https://dc.lft.to/lastmile_qr_scan", "ios": "https://dc.lft.to/lastmile_qr_scan"}, "name": "a42096ecdcf5a914d39497a1e7184e29", "is_reserved": 0}, {"is_disabled": 0, "fusion_lon": 0.0, "fusion_lat": 0.0, "lat": 38.8591565, "type": "electric_scooter", "lon": -76.9877235, "bike_id": "34d4d267ece4194ba806732edfbb8241", "rental_uris": {"android": "https://dc.lft.to/lastmile_qr_scan", "ios": "https://dc.lft.to/lastmile_qr_scan"}, "name": "34d4d267ece4194ba806732edfbb8241", "is_reserved": 0}, {"is_disabled": 0, "fusion_lon": 0.0, "fusion_lat": 0.0, "lat": 38.985981833333334, "type": "electric_bike", "lon": -77.03753166666667, "bike_id": "d66eeec7247fa1423790fc0b8967a0f6", "rental_uris": {"android": "https://dc.lft.to/lastmile_qr_scan", "ios": "https://dc.lft.to/lastmile_qr_scan"}, "name": "d66eeec7247fa1423790fc0b8967a0f6", "is_reserved": 0}, {"is_disabled": 0, "fusion_lon": 0.0, "fusion_lat": 0.0, "lat": 38.93117633333333, "type": "electric_scooter", "lon": -77.02359933333334, "bike_id": "a7439ffb8f24390b351854a4721f0223", "rental_uris": {"android": "https://dc.lft.to/lastmile_qr_scan", "ios": "https://dc.lft.to/lastmile_qr_scan"}, "name": "a7439ffb8f24390b351854a4721f0223", "is_reserved": 0}, {"is_disabled": 0, "fusion_lon": 0.0, "fusion_lat": 0.0, "lat": 38.91680183333333, "type": "electric_scooter", "lon": -77.0297415, "bike_id": "99a36fd37948ce86b227bdc1503b8b35", "rental_uris": {"android": "https://dc.lft.to/lastmile_qr_scan", "ios": "https://dc.lft.to/lastmile_qr_scan"}, "name": "99a36fd37948ce86b227bdc1503b8b35", "is_reserved": 0}, {"is_disabled": 0, "fusion_lon": 0.0, "fusion_lat": 0.0, "lat": 38.9182325, "type": "electric_scooter", "lon": -77.0366155, "bike_id": "a93e78508f7a52179e0ccdc75d52f5be", "rental_uris": {"android": "https://dc.lft.to/lastmile_qr_scan", "ios": "https://dc.lft.to/lastmile_qr_scan"}, "name": "a93e78508f7a52179e0ccdc75d52f5be", "is_reserved": 0}, {"is_disabled": 0, "fusion_lon": 0.0, "fusion_lat": 0.0, "lat": 38.9236245, "type": "electric_scooter", "lon": -77.05026833333334, "bike_id": "a69cea9ad4318b378cd7e773c0f9422e", "rental_uris": {"android": "https://dc.lft.to/lastmile_qr_scan", "ios": "https://dc.lft.to/lastmile_qr_scan"}, "name": "a69cea9ad4318b378cd7e773c0f9422e", "is_reserved": 0}, {"is_disabled": 0, "fusion_lon": 0.0, "fusion_lat": 0.0, "lat": 38.923710666666665, "type": "electric_scooter", "lon": -77.02811416666667, "bike_id": "8a4eb81f115bf458b946b03024ccc9e0", "rental_uris": {"android": "https://dc.lft.to/lastmile_qr_scan", "ios": "https://dc.lft.to/lastmile_qr_scan"}, "name": "8a4eb81f115bf458b946b03024ccc9e0", "is_reserved": 0}, {"is_disabled": 0, "fusion_lon": 0.0, "fusion_lat": 0.0, "lat": 38.93494866666666, "type": "electric_scooter", "lon": -77.0260385, "bike_id": "24e02a9d556b27d15a8ac61c07c21f20", "rental_uris": {"android": "https://dc.lft.to/lastmile_qr_scan", "ios": "https://dc.lft.to/lastmile_qr_scan"}, "name": "24e02a9d556b27d15a8ac61c07c21f20", "is_reserved": 0}, {"is_disabled": 0, "fusion_lon": 0.0, "fusion_lat": 0.0, "lat": 38.928475, "type": "electric_scooter", "lon": -77.01416883333333, "bike_id": "fe3a71f1725727d0de1ef71ff1116007", "rental_uris": {"android": "https://dc.lft.to/lastmile_qr_scan", "ios": "https://dc.lft.to/lastmile_qr_scan"}, "name": "fe3a71f1725727d0de1ef71ff1116007", "is_reserved": 0}, {"is_disabled": 0, "fusion_lon": 0.0, "fusion_lat": 0.0, "lat": 38.91927366666667, "type": "electric_scooter", "lon": -77.04600933333333, "bike_id": "bc7faa2b7706a293141035966107f30c", "rental_uris": {"android": "https://dc.lft.to/lastmile_qr_scan", "ios": "https://dc.lft.to/lastmile_qr_scan"}, "name": "bc7faa2b7706a293141035966107f30c", "is_reserved": 0}, {"is_disabled": 0, "fusion_lon": 0.0, "fusion_lat": 0.0, "lat": 38.92595166666667, "type": "electric_bike", "lon": -76.88905866666667, "bike_id": "cb50e7e79a9a17251dde4b51f751c59e", "rental_uris": {"android": "https://dc.lft.to/lastmile_qr_scan", "ios": "https://dc.lft.to/lastmile_qr_scan"}, "name": "cb50e7e79a9a17251dde4b51f751c59e", "is_reserved": 0}, {"is_disabled": 0, "fusion_lon": 0.0, "fusion_lat": 0.0, "lat": 38.9767675, "type": "electric_bike", "lon": -76.9716605, "bike_id": "89b4ff1ce16c928c46904c52b1b7df02", "rental_uris": {"android": "https://dc.lft.to/lastmile_qr_scan", "ios": "https://dc.lft.to/lastmile_qr_scan"}, "name": "89b4ff1ce16c928c46904c52b1b7df02", "is_reserved": 0}, {"is_disabled": 0, "fusion_lon": 0.0, "fusion_lat": 0.0, "lat": 38.913418666666665, "type": "electric_scooter", "lon": -77.03182333333334, "bike_id": "0d9c40ab62935da3a3a107dfba479535", "rental_uris": {"android": "https://dc.lft.to/lastmile_qr_scan", "ios": "https://dc.lft.to/lastmile_qr_scan"}, "name": "0d9c40ab62935da3a3a107dfba479535", "is_reserved": 0}, {"is_disabled": 0, "fusion_lon": 0.0, "fusion_lat": 0.0, "lat": 38.8961165, "type": "electric_scooter", "lon": -77.04755116666666, "bike_id": "24cbd957360ab0fe809976a057f9cf8d", "rental_uris": {"android": "https://dc.lft.to/lastmile_qr_scan", "ios": "https://dc.lft.to/lastmile_qr_scan"}, "name": "24cbd957360ab0fe809976a057f9cf8d", "is_reserved": 0}, {"is_disabled": 0, "fusion_lon": 0.0, "fusion_lat": 0.0, "lat": 38.954133, "type": "electric_scooter", "lon": -77.02845283333333, "bike_id": "188338fdcf1821f81eb44f12280efdaf", "rental_uris": {"android": "https://dc.lft.to/lastmile_qr_scan", "ios": "https://dc.lft.to/lastmile_qr_scan"}, "name": "188338fdcf1821f81eb44f12280efdaf", "is_reserved": 0}, {"is_disabled": 0, "fusion_lon": 0.0, "fusion_lat": 0.0, "lat": 38.89236483333333, "type": "electric_bike", "lon": -76.95223966666667, "bike_id": "74760cd630d5688b513a96635067b042", "rental_uris": {"android": "https://dc.lft.to/lastmile_qr_scan", "ios": "https://dc.lft.to/lastmile_qr_scan"}, "name": "74760cd630d5688b513a96635067b042", "is_reserved": 0}, {"is_disabled": 0, "fusion_lon": 0.0, "fusion_lat": 0.0, "lat": 38.91417383333334, "type": "electric_scooter", "lon": -77.03228666666666, "bike_id": "7181adc42b018267809efea3fe6e9668", "rental_uris": {"android": "https://dc.lft.to/lastmile_qr_scan", "ios": "https://dc.lft.to/lastmile_qr_scan"}, "name": "7181adc42b018267809efea3fe6e9668", "is_reserved": 0}, {"is_disabled": 0, "fusion_lon": 0.0, "fusion_lat": 0.0, "lat": 38.87848966666667, "type": "electric_scooter", "lon": -77.001889, "bike_id": "c58889100a4341ab5412ab0c683154ef", "rental_uris": {"android": "https://dc.lft.to/lastmile_qr_scan", "ios": "https://dc.lft.to/lastmile_qr_scan"}, "name": "c58889100a4341ab5412ab0c683154ef", "is_reserved": 0}, {"is_disabled": 0, "fusion_lon": 0.0, "fusion_lat": 0.0, "lat": 38.921666333333334, "type": "electric_scooter", "lon": -77.03824633333333, "bike_id": "15cb3c967dbea1fc93ba3ce38639f909", "rental_uris": {"android": "https://dc.lft.to/lastmile_qr_scan", "ios": "https://dc.lft.to/lastmile_qr_scan"}, "name": "15cb3c967dbea1fc93ba3ce38639f909", "is_reserved": 0}, {"is_disabled": 0, "fusion_lon": 0.0, "fusion_lat": 0.0, "lat": 38.917076, "type": "electric_scooter", "lon": -77.0367065, "bike_id": "15186ab434dd685bf9491fd72f3c1a5f", "rental_uris": {"android": "https://dc.lft.to/lastmile_qr_scan", "ios": "https://dc.lft.to/lastmile_qr_scan"}, "name": "15186ab434dd685bf9491fd72f3c1a5f", "is_reserved": 0}, {"is_disabled": 0, "fusion_lon": 0.0, "fusion_lat": 0.0, "lat": 38.901471, "type": "electric_scooter", "lon": -77.03044383333334, "bike_id": "fa83a5a9febea07936aa8ab590adad82", "rental_uris": {"android": "https://dc.lft.to/lastmile_qr_scan", "ios": "https://dc.lft.to/lastmile_qr_scan"}, "name": "fa83a5a9febea07936aa8ab590adad82", "is_reserved": 0}, {"is_disabled": 0, "fusion_lon": 0.0, "fusion_lat": 0.0, "lat": 38.833543166666665, "type": "electric_bike", "lon": -76.96555833333333, "bike_id": "4540130ca661a9d4f3e4bdd347c0f05e", "rental_uris": {"android": "https://dc.lft.to/lastmile_qr_scan", "ios": "https://dc.lft.to/lastmile_qr_scan"}, "name": "4540130ca661a9d4f3e4bdd347c0f05e", "is_reserved": 0}, {"is_disabled": 0, "fusion_lon": 0.0, "fusion_lat": 0.0, "lat": 38.918526666666665, "type": "electric_bike", "lon": -76.9608855, "bike_id": "9ec6a5c8f500af11cdcccb28be20caca", "rental_uris": {"android": "https://dc.lft.to/lastmile_qr_scan", "ios": "https://dc.lft.to/lastmile_qr_scan"}, "name": "9ec6a5c8f500af11cdcccb28be20caca", "is_reserved": 0}, {"is_disabled": 0, "fusion_lon": 0.0, "fusion_lat": 0.0, "lat": 38.945502166666664, "type": "electric_scooter", "lon": -77.04239383333334, "bike_id": "074916ea68490d78a2e5d2a5452eff38", "rental_uris": {"android": "https://dc.lft.to/lastmile_qr_scan", "ios": "https://dc.lft.to/lastmile_qr_scan"}, "name": "074916ea68490d78a2e5d2a5452eff38", "is_reserved": 0}, {"is_disabled": 0, "fusion_lon": 0.0, "fusion_lat": 0.0, "lat": 38.8825555, "type": "electric_scooter", "lon": -77.0034215, "bike_id": "cc86f02299cbbcceab67ec3585afc500", "rental_uris": {"android": "https://dc.lft.to/lastmile_qr_scan", "ios": "https://dc.lft.to/lastmile_qr_scan"}, "name": "cc86f02299cbbcceab67ec3585afc500", "is_reserved": 0}, {"is_disabled": 0, "fusion_lon": 0.0, "fusion_lat": 0.0, "lat": 38.904853, "type": "electric_scooter", "lon": -77.03824083333333, "bike_id": "79a4466a048bbb2d9c8b3533aa29a7f6", "rental_uris": {"android": "https://dc.lft.to/lastmile_qr_scan", "ios": "https://dc.lft.to/lastmile_qr_scan"}, "name": "79a4466a048bbb2d9c8b3533aa29a7f6", "is_reserved": 0}, {"is_disabled": 0, "fusion_lon": 0.0, "fusion_lat": 0.0, "lat": 38.96310166666667, "type": "electric_bike", "lon": -77.05760066666667, "bike_id": "55f407087762da66eb0fa74ba741dad5", "rental_uris": {"android": "https://dc.lft.to/lastmile_qr_scan", "ios": "https://dc.lft.to/lastmile_qr_scan"}, "name": "55f407087762da66eb0fa74ba741dad5", "is_reserved": 0}, {"is_disabled": 0, "fusion_lon": 0.0, "fusion_lat": 0.0, "lat": 38.868425333333334, "type": "electric_bike", "lon": -77.09732116666666, "bike_id": "25b6c9617b3796e7483e63c1efd3d4ad", "rental_uris": {"android": "https://dc.lft.to/lastmile_qr_scan", "ios": "https://dc.lft.to/lastmile_qr_scan"}, "name": "25b6c9617b3796e7483e63c1efd3d4ad", "is_reserved": 0}, {"is_disabled": 0, "fusion_lon": 0.0, "fusion_lat": 0.0, "lat": 38.842928666666666, "type": "electric_scooter", "lon": -76.99950366666667, "bike_id": "e10e13ced88954e7d77299a7030f1e1c", "rental_uris": {"android": "https://dc.lft.to/lastmile_qr_scan", "ios": "https://dc.lft.to/lastmile_qr_scan"}, "name": "e10e13ced88954e7d77299a7030f1e1c", "is_reserved": 0}, {"is_disabled": 0, "fusion_lon": 0.0, "fusion_lat": 0.0, "lat": 38.88703133333333, "type": "electric_scooter", "lon": -76.95359983333333, "bike_id": "b5e1855c748cf5525d88709b9f65d163", "rental_uris": {"android": "https://dc.lft.to/lastmile_qr_scan", "ios": "https://dc.lft.to/lastmile_qr_scan"}, "name": "b5e1855c748cf5525d88709b9f65d163", "is_reserved": 0}, {"is_disabled": 0, "fusion_lon": 0.0, "fusion_lat": 0.0, "lat": 38.90834566666667, "type": "electric_scooter", "lon": -76.996944, "bike_id": "0af5ca8a1d0dd3da8b8b18d7fc4eded4", "rental_uris": {"android": "https://dc.lft.to/lastmile_qr_scan", "ios": "https://dc.lft.to/lastmile_qr_scan"}, "name": "0af5ca8a1d0dd3da8b8b18d7fc4eded4", "is_reserved": 0}, {"is_disabled": 0, "fusion_lon": 0.0, "fusion_lat": 0.0, "lat": 38.91899866666667, "type": "electric_scooter", "lon": -77.02469766666667, "bike_id": "76a3973659d3209323dcfee01bf6988b", "rental_uris": {"android": "https://dc.lft.to/lastmile_qr_scan", "ios": "https://dc.lft.to/lastmile_qr_scan"}, "name": "76a3973659d3209323dcfee01bf6988b", "is_reserved": 0}, {"is_disabled": 0, "fusion_lon": 0.0, "fusion_lat": 0.0, "lat": 38.905708833333335, "type": "electric_scooter", "lon": -77.00560766666666, "bike_id": "4a5c7b9959d2797f57b64aa5c6443cdd", "rental_uris": {"android": "https://dc.lft.to/lastmile_qr_scan", "ios": "https://dc.lft.to/lastmile_qr_scan"}, "name": "4a5c7b9959d2797f57b64aa5c6443cdd", "is_reserved": 0}, {"is_disabled": 0, "fusion_lon": 0.0, "fusion_lat": 0.0, "lat": 38.935325, "type": "electric_scooter", "lon": -77.02489733333333, "bike_id": "0bf9038c9e2e4db73cd57f1926d0b19a", "rental_uris": {"android": "https://dc.lft.to/lastmile_qr_scan", "ios": "https://dc.lft.to/lastmile_qr_scan"}, "name": "0bf9038c9e2e4db73cd57f1926d0b19a", "is_reserved": 0}, {"is_disabled": 0, "fusion_lon": 0.0, "fusion_lat": 0.0, "lat": 38.845984, "type": "electric_bike", "lon": -76.96883016666666, "bike_id": "62d253f7d36f56a85042c2ad1088d5b6", "rental_uris": {"android": "https://dc.lft.to/lastmile_qr_scan", "ios": "https://dc.lft.to/lastmile_qr_scan"}, "name": "62d253f7d36f56a85042c2ad1088d5b6", "is_reserved": 0}, {"is_disabled": 0, "fusion_lon": 0.0, "fusion_lat": 0.0, "lat": 38.95965283333334, "type": "electric_scooter", "lon": -77.0210645, "bike_id": "beb740fb75ecd474cfe7c2927783d3fc", "rental_uris": {"android": "https://dc.lft.to/lastmile_qr_scan", "ios": "https://dc.lft.to/lastmile_qr_scan"}, "name": "beb740fb75ecd474cfe7c2927783d3fc", "is_reserved": 0}, {"is_disabled": 0, "fusion_lon": 0.0, "fusion_lat": 0.0, "lat": 38.910976166666664, "type": "electric_scooter", "lon": -76.984774, "bike_id": "71b4a64e7ff107bac938541fa0ae90a1", "rental_uris": {"android": "https://dc.lft.to/lastmile_qr_scan", "ios": "https://dc.lft.to/lastmile_qr_scan"}, "name": "71b4a64e7ff107bac938541fa0ae90a1", "is_reserved": 0}, {"is_disabled": 0, "fusion_lon": 0.0, "fusion_lat": 0.0, "lat": 38.90755883333333, "type": "electric_scooter", "lon": -77.0358045, "bike_id": "c590f378c62b895ff67842796034e3a8", "rental_uris": {"android": "https://dc.lft.to/lastmile_qr_scan", "ios": "https://dc.lft.to/lastmile_qr_scan"}, "name": "c590f378c62b895ff67842796034e3a8", "is_reserved": 0}, {"is_disabled": 0, "fusion_lon": 0.0, "fusion_lat": 0.0, "lat": 38.887381500000004, "type": "electric_scooter", "lon": -77.01533216666667, "bike_id": "5aac392159f5abbc33610bfa1ee2b688", "rental_uris": {"android": "https://dc.lft.to/lastmile_qr_scan", "ios": "https://dc.lft.to/lastmile_qr_scan"}, "name": "5aac392159f5abbc33610bfa1ee2b688", "is_reserved": 0}, {"is_disabled": 0, "fusion_lon": 0.0, "fusion_lat": 0.0, "lat": 38.91106966666667, "type": "electric_scooter", "lon": -77.038302, "bike_id": "a4bcde6553be5d56c0c2e5f4f3cd9020", "rental_uris": {"android": "https://dc.lft.to/lastmile_qr_scan", "ios": "https://dc.lft.to/lastmile_qr_scan"}, "name": "a4bcde6553be5d56c0c2e5f4f3cd9020", "is_reserved": 0}, {"is_disabled": 0, "fusion_lon": 0.0, "fusion_lat": 0.0, "lat": 38.89196716666667, "type": "electric_scooter", "lon": -77.022416, "bike_id": "fd881bea13dbb396c3c458fb4732e678", "rental_uris": {"android": "https://dc.lft.to/lastmile_qr_scan", "ios": "https://dc.lft.to/lastmile_qr_scan"}, "name": "fd881bea13dbb396c3c458fb4732e678", "is_reserved": 0}, {"is_disabled": 0, "fusion_lon": 0.0, "fusion_lat": 0.0, "lat": 38.89508633333333, "type": "electric_scooter", "lon": -77.016087, "bike_id": "bb78d6d29bbb2913626fa6e234e14d79", "rental_uris": {"android": "https://dc.lft.to/lastmile_qr_scan", "ios": "https://dc.lft.to/lastmile_qr_scan"}, "name": "bb78d6d29bbb2913626fa6e234e14d79", "is_reserved": 0}, {"is_disabled": 0, "fusion_lon": 0.0, "fusion_lat": 0.0, "lat": 38.9211995, "type": "electric_scooter", "lon": -77.012048, "bike_id": "57b183c2910ba9a2dba6dce9746337d1", "rental_uris": {"android": "https://dc.lft.to/lastmile_qr_scan", "ios": "https://dc.lft.to/lastmile_qr_scan"}, "name": "57b183c2910ba9a2dba6dce9746337d1", "is_reserved": 0}, {"is_disabled": 0, "fusion_lon": 0.0, "fusion_lat": 0.0, "lat": 38.95634833333333, "type": "electric_scooter", "lon": -77.02980983333333, "bike_id": "1fa09ab0cf0c42c8d479060106590703", "rental_uris": {"android": "https://dc.lft.to/lastmile_qr_scan", "ios": "https://dc.lft.to/lastmile_qr_scan"}, "name": "1fa09ab0cf0c42c8d479060106590703", "is_reserved": 0}, {"is_disabled": 0, "fusion_lon": 0.0, "fusion_lat": 0.0, "lat": 38.92749216666667, "type": "electric_scooter", "lon": -77.07592483333333, "bike_id": "44b605e925d0324cac530f980a2ac98c", "rental_uris": {"android": "https://dc.lft.to/lastmile_qr_scan", "ios": "https://dc.lft.to/lastmile_qr_scan"}, "name": "44b605e925d0324cac530f980a2ac98c", "is_reserved": 0}, {"is_disabled": 0, "fusion_lon": 0.0, "fusion_lat": 0.0, "lat": 38.88392133333333, "type": "electric_bike", "lon": -77.03079083333333, "bike_id": "479b59036952a59cdc16c2f93dfcb935", "rental_uris": {"android": "https://dc.lft.to/lastmile_qr_scan", "ios": "https://dc.lft.to/lastmile_qr_scan"}, "name": "479b59036952a59cdc16c2f93dfcb935", "is_reserved": 0}, {"is_disabled": 0, "fusion_lon": 0.0, "fusion_lat": 0.0, "lat": 38.8881965, "type": "electric_bike", "lon": -77.12739516666667, "bike_id": "818e8f861cf4c43a77a9ceb628ea2f60", "rental_uris": {"android": "https://dc.lft.to/lastmile_qr_scan", "ios": "https://dc.lft.to/lastmile_qr_scan"}, "name": "818e8f861cf4c43a77a9ceb628ea2f60", "is_reserved": 0}, {"is_disabled": 0, "fusion_lon": 0.0, "fusion_lat": 0.0, "lat": 38.90828066666667, "type": "electric_bike", "lon": -76.94157233333334, "bike_id": "375340a3b7b413664fe3f3a9811d961b", "rental_uris": {"android": "https://dc.lft.to/lastmile_qr_scan", "ios": "https://dc.lft.to/lastmile_qr_scan"}, "name": "375340a3b7b413664fe3f3a9811d961b", "is_reserved": 0}, {"is_disabled": 0, "fusion_lon": 0.0, "fusion_lat": 0.0, "lat": 38.88742633333333, "type": "electric_scooter", "lon": -77.022722, "bike_id": "b422109795752e805f5aff793427e2c2", "rental_uris": {"android": "https://dc.lft.to/lastmile_qr_scan", "ios": "https://dc.lft.to/lastmile_qr_scan"}, "name": "b422109795752e805f5aff793427e2c2", "is_reserved": 0}, {"is_disabled": 0, "fusion_lon": 0.0, "fusion_lat": 0.0, "lat": 38.92871133333333, "type": "electric_scooter", "lon": -77.03095633333334, "bike_id": "16d9184db6fae46e0aea4e0935562413", "rental_uris": {"android": "https://dc.lft.to/lastmile_qr_scan", "ios": "https://dc.lft.to/lastmile_qr_scan"}, "name": "16d9184db6fae46e0aea4e0935562413", "is_reserved": 0}, {"is_disabled": 0, "fusion_lon": 0.0, "fusion_lat": 0.0, "lat": 38.99092483333333, "type": "electric_bike", "lon": -76.8749305, "bike_id": "7ca0f0c465c8edf8ca55850902f85fa9", "rental_uris": {"android": "https://dc.lft.to/lastmile_qr_scan", "ios": "https://dc.lft.to/lastmile_qr_scan"}, "name": "7ca0f0c465c8edf8ca55850902f85fa9", "is_reserved": 0}, {"is_disabled": 0, "fusion_lon": 0.0, "fusion_lat": 0.0, "lat": 38.889664333333336, "type": "electric_bike", "lon": -76.94863033333333, "bike_id": "c77feb5a59b86eb55b4cebdf2621b3b7", "rental_uris": {"android": "https://dc.lft.to/lastmile_qr_scan", "ios": "https://dc.lft.to/lastmile_qr_scan"}, "name": "c77feb5a59b86eb55b4cebdf2621b3b7", "is_reserved": 0}, {"is_disabled": 0, "fusion_lon": 0.0, "fusion_lat": 0.0, "lat": 38.932915, "type": "electric_scooter", "lon": -77.0239505, "bike_id": "472bcc442e717e1ee9bb785184a80ef8", "rental_uris": {"android": "https://dc.lft.to/lastmile_qr_scan", "ios": "https://dc.lft.to/lastmile_qr_scan"}, "name": "472bcc442e717e1ee9bb785184a80ef8", "is_reserved": 0}, {"is_disabled": 0, "fusion_lon": 0.0, "fusion_lat": 0.0, "lat": 38.90766933333333, "type": "electric_scooter", "lon": -77.03272166666666, "bike_id": "4de6268fcbd5adafe0667425bf3cff94", "rental_uris": {"android": "https://dc.lft.to/lastmile_qr_scan", "ios": "https://dc.lft.to/lastmile_qr_scan"}, "name": "4de6268fcbd5adafe0667425bf3cff94", "is_reserved": 0}, {"is_disabled": 0, "fusion_lon": 0.0, "fusion_lat": 0.0, "lat": 38.907532333333336, "type": "electric_bike", "lon": -77.0075635, "bike_id": "f3f6a9c791e15144e8f8ee7a1707d25c", "rental_uris": {"android": "https://dc.lft.to/lastmile_qr_scan", "ios": "https://dc.lft.to/lastmile_qr_scan"}, "name": "f3f6a9c791e15144e8f8ee7a1707d25c", "is_reserved": 0}, {"is_disabled": 0, "fusion_lon": 0.0, "fusion_lat": 0.0, "lat": 38.916245833333335, "type": "electric_scooter", "lon": -77.04358533333334, "bike_id": "8dcdb7434ecfaa73afdb453a919b65d9", "rental_uris": {"android": "https://dc.lft.to/lastmile_qr_scan", "ios": "https://dc.lft.to/lastmile_qr_scan"}, "name": "8dcdb7434ecfaa73afdb453a919b65d9", "is_reserved": 0}, {"is_disabled": 0, "fusion_lon": 0.0, "fusion_lat": 0.0, "lat": 38.97576183333334, "type": "electric_bike", "lon": -76.96400983333334, "bike_id": "63b655be7a9a5cac16396e76adf0f4b7", "rental_uris": {"android": "https://dc.lft.to/lastmile_qr_scan", "ios": "https://dc.lft.to/lastmile_qr_scan"}, "name": "63b655be7a9a5cac16396e76adf0f4b7", "is_reserved": 0}, {"is_disabled": 0, "fusion_lon": 0.0, "fusion_lat": 0.0, "lat": 38.916490333333336, "type": "electric_scooter", "lon": -77.02177316666666, "bike_id": "f418d0758fc992220cac69179f7fbe53", "rental_uris": {"android": "https://dc.lft.to/lastmile_qr_scan", "ios": "https://dc.lft.to/lastmile_qr_scan"}, "name": "f418d0758fc992220cac69179f7fbe53", "is_reserved": 0}, {"is_disabled": 0, "fusion_lon": 0.0, "fusion_lat": 0.0, "lat": 38.918004333333336, "type": "electric_scooter", "lon": -77.023919, "bike_id": "9b92cd3eb30ae52eaf424ea1b26a0ceb", "rental_uris": {"android": "https://dc.lft.to/lastmile_qr_scan", "ios": "https://dc.lft.to/lastmile_qr_scan"}, "name": "9b92cd3eb30ae52eaf424ea1b26a0ceb", "is_reserved": 0}, {"is_disabled": 0, "fusion_lon": 0.0, "fusion_lat": 0.0, "lat": 38.91478166666667, "type": "electric_scooter", "lon": -77.03185583333334, "bike_id": "065154f0da9ba16da45a742edf4be51a", "rental_uris": {"android": "https://dc.lft.to/lastmile_qr_scan", "ios": "https://dc.lft.to/lastmile_qr_scan"}, "name": "065154f0da9ba16da45a742edf4be51a", "is_reserved": 0}, {"is_disabled": 0, "fusion_lon": 0.0, "fusion_lat": 0.0, "lat": 38.897473833333336, "type": "electric_scooter", "lon": -77.02176966666667, "bike_id": "9547ed7ea6dc5c98af21e1d6aac18857", "rental_uris": {"android": "https://dc.lft.to/lastmile_qr_scan", "ios": "https://dc.lft.to/lastmile_qr_scan"}, "name": "9547ed7ea6dc5c98af21e1d6aac18857", "is_reserved": 0}, {"is_disabled": 0, "fusion_lon": 0.0, "fusion_lat": 0.0, "lat": 38.90784216666667, "type": "electric_scooter", "lon": -77.03204533333333, "bike_id": "07447e8410dd64652bc58e016cd9b4e0", "rental_uris": {"android": "https://dc.lft.to/lastmile_qr_scan", "ios": "https://dc.lft.to/lastmile_qr_scan"}, "name": "07447e8410dd64652bc58e016cd9b4e0", "is_reserved": 0}, {"is_disabled": 0, "fusion_lon": 0.0, "fusion_lat": 0.0, "lat": 38.92649466666667, "type": "electric_scooter", "lon": -77.03727633333334, "bike_id": "a4170180cd4771b96594604f76485318", "rental_uris": {"android": "https://dc.lft.to/lastmile_qr_scan", "ios": "https://dc.lft.to/lastmile_qr_scan"}, "name": "a4170180cd4771b96594604f76485318", "is_reserved": 0}, {"is_disabled": 0, "fusion_lon": 0.0, "fusion_lat": 0.0, "lat": 38.906778, "type": "electric_scooter", "lon": -77.02718316666666, "bike_id": "ec1beb65f94c60bf30247135829f29c0", "rental_uris": {"android": "https://dc.lft.to/lastmile_qr_scan", "ios": "https://dc.lft.to/lastmile_qr_scan"}, "name": "ec1beb65f94c60bf30247135829f29c0", "is_reserved": 0}, {"is_disabled": 0, "fusion_lon": 0.0, "fusion_lat": 0.0, "lat": 38.89584383333333, "type": "electric_scooter", "lon": -77.02310183333333, "bike_id": "c3da4b592b0d9db1c4363d6554922ced", "rental_uris": {"android": "https://dc.lft.to/lastmile_qr_scan", "ios": "https://dc.lft.to/lastmile_qr_scan"}, "name": "c3da4b592b0d9db1c4363d6554922ced", "is_reserved": 0}, {"is_disabled": 0, "fusion_lon": 0.0, "fusion_lat": 0.0, "lat": 38.90321566666667, "type": "electric_scooter", "lon": -77.0367605, "bike_id": "2308eb6c8ffc38ec4ddcf74a2565967a", "rental_uris": {"android": "https://dc.lft.to/lastmile_qr_scan", "ios": "https://dc.lft.to/lastmile_qr_scan"}, "name": "2308eb6c8ffc38ec4ddcf74a2565967a", "is_reserved": 0}, {"is_disabled": 0, "fusion_lon": 0.0, "fusion_lat": 0.0, "lat": 38.961146166666666, "type": "electric_bike", "lon": -77.028481, "bike_id": "04365bf5b20d3ef2760994ccedbbaf94", "rental_uris": {"android": "https://dc.lft.to/lastmile_qr_scan", "ios": "https://dc.lft.to/lastmile_qr_scan"}, "name": "04365bf5b20d3ef2760994ccedbbaf94", "is_reserved": 0}, {"is_disabled": 0, "fusion_lon": 0.0, "fusion_lat": 0.0, "lat": 38.914212, "type": "electric_scooter", "lon": -77.04497933333333, "bike_id": "95a2d1db44011cb97d93245a8eb4c0c9", "rental_uris": {"android": "https://dc.lft.to/lastmile_qr_scan", "ios": "https://dc.lft.to/lastmile_qr_scan"}, "name": "95a2d1db44011cb97d93245a8eb4c0c9", "is_reserved": 0}, {"is_disabled": 0, "fusion_lon": 0.0, "fusion_lat": 0.0, "lat": 38.904679, "type": "electric_scooter", "lon": -77.03569966666667, "bike_id": "5270c219278cddfdccc0d525ef60ed5b", "rental_uris": {"android": "https://dc.lft.to/lastmile_qr_scan", "ios": "https://dc.lft.to/lastmile_qr_scan"}, "name": "5270c219278cddfdccc0d525ef60ed5b", "is_reserved": 0}, {"is_disabled": 0, "fusion_lon": 0.0, "fusion_lat": 0.0, "lat": 38.89759333333333, "type": "electric_scooter", "lon": -77.02973666666666, "bike_id": "4c2e494e05c94e59a908c1ee3d6f8ba8", "rental_uris": {"android": "https://dc.lft.to/lastmile_qr_scan", "ios": "https://dc.lft.to/lastmile_qr_scan"}, "name": "4c2e494e05c94e59a908c1ee3d6f8ba8", "is_reserved": 0}, {"is_disabled": 0, "fusion_lon": 0.0, "fusion_lat": 0.0, "lat": 38.90413516666667, "type": "electric_scooter", "lon": -77.02883466666667, "bike_id": "1b3381612b632e7bc61037057cfae8f4", "rental_uris": {"android": "https://dc.lft.to/lastmile_qr_scan", "ios": "https://dc.lft.to/lastmile_qr_scan"}, "name": "1b3381612b632e7bc61037057cfae8f4", "is_reserved": 0}, {"is_disabled": 0, "fusion_lon": 0.0, "fusion_lat": 0.0, "lat": 38.91048033333333, "type": "electric_scooter", "lon": -77.06457066666667, "bike_id": "9f4c8c7f039c7c5f94d66d463c626003", "rental_uris": {"android": "https://dc.lft.to/lastmile_qr_scan", "ios": "https://dc.lft.to/lastmile_qr_scan"}, "name": "9f4c8c7f039c7c5f94d66d463c626003", "is_reserved": 0}, {"is_disabled": 0, "fusion_lon": 0.0, "fusion_lat": 0.0, "lat": 38.93645516666667, "type": "electric_bike", "lon": -76.95450783333334, "bike_id": "0cf093b2f56e4b3e68d939ec32fab1ba", "rental_uris": {"android": "https://dc.lft.to/lastmile_qr_scan", "ios": "https://dc.lft.to/lastmile_qr_scan"}, "name": "0cf093b2f56e4b3e68d939ec32fab1ba", "is_reserved": 0}, {"is_disabled": 0, "fusion_lon": 0.0, "fusion_lat": 0.0, "lat": 38.9457865, "type": "electric_bike", "lon": -76.98775816666667, "bike_id": "e5c447456afaef82b27fd9107449c9bf", "rental_uris": {"android": "https://dc.lft.to/lastmile_qr_scan", "ios": "https://dc.lft.to/lastmile_qr_scan"}, "name": "e5c447456afaef82b27fd9107449c9bf", "is_reserved": 0}, {"is_disabled": 0, "fusion_lon": 0.0, "fusion_lat": 0.0, "lat": 38.881397666666665, "type": "electric_scooter", "lon": -76.99615633333333, "bike_id": "4fad0891d50408e692d392c8f0a2ebd6", "rental_uris": {"android": "https://dc.lft.to/lastmile_qr_scan", "ios": "https://dc.lft.to/lastmile_qr_scan"}, "name": "4fad0891d50408e692d392c8f0a2ebd6", "is_reserved": 0}, {"is_disabled": 0, "fusion_lon": 0.0, "fusion_lat": 0.0, "lat": 38.918087166666666, "type": "electric_scooter", "lon": -77.0287645, "bike_id": "01acc6bf39eb13593d0bfcb39db88682", "rental_uris": {"android": "https://dc.lft.to/lastmile_qr_scan", "ios": "https://dc.lft.to/lastmile_qr_scan"}, "name": "01acc6bf39eb13593d0bfcb39db88682", "is_reserved": 0}, {"is_disabled": 0, "fusion_lon": 0.0, "fusion_lat": 0.0, "lat": 38.92156, "type": "electric_scooter", "lon": -77.03361266666667, "bike_id": "458aadc461a4b5128a1fc365b03d982f", "rental_uris": {"android": "https://dc.lft.to/lastmile_qr_scan", "ios": "https://dc.lft.to/lastmile_qr_scan"}, "name": "458aadc461a4b5128a1fc365b03d982f", "is_reserved": 0}, {"is_disabled": 0, "fusion_lon": 0.0, "fusion_lat": 0.0, "lat": 38.90566333333334, "type": "electric_scooter", "lon": -77.005609, "bike_id": "10f567c3d63729d835b44666696d779c", "rental_uris": {"android": "https://dc.lft.to/lastmile_qr_scan", "ios": "https://dc.lft.to/lastmile_qr_scan"}, "name": "10f567c3d63729d835b44666696d779c", "is_reserved": 0}, {"is_disabled": 0, "fusion_lon": 0.0, "fusion_lat": 0.0, "lat": 38.93098666666667, "type": "electric_scooter", "lon": -77.03095883333333, "bike_id": "bdc5417dc6f3f88e4dcddfbdf13a3360", "rental_uris": {"android": "https://dc.lft.to/lastmile_qr_scan", "ios": "https://dc.lft.to/lastmile_qr_scan"}, "name": "bdc5417dc6f3f88e4dcddfbdf13a3360", "is_reserved": 0}, {"is_disabled": 0, "fusion_lon": 0.0, "fusion_lat": 0.0, "lat": 38.904528, "type": "electric_scooter", "lon": -77.03480366666666, "bike_id": "c52a74f5240da3bfe954b39dc2ec720a", "rental_uris": {"android": "https://dc.lft.to/lastmile_qr_scan", "ios": "https://dc.lft.to/lastmile_qr_scan"}, "name": "c52a74f5240da3bfe954b39dc2ec720a", "is_reserved": 0}, {"is_disabled": 0, "fusion_lon": 0.0, "fusion_lat": 0.0, "lat": 38.91169466666667, "type": "electric_scooter", "lon": -77.026987, "bike_id": "34527d7a93d20835e06c8e77ab4e7aab", "rental_uris": {"android": "https://dc.lft.to/lastmile_qr_scan", "ios": "https://dc.lft.to/lastmile_qr_scan"}, "name": "34527d7a93d20835e06c8e77ab4e7aab", "is_reserved": 0}, {"is_disabled": 0, "fusion_lon": 0.0, "fusion_lat": 0.0, "lat": 38.89358816666667, "type": "electric_scooter", "lon": -77.02180016666667, "bike_id": "92880e0b096d9e7f85bfbba5ccce998c", "rental_uris": {"android": "https://dc.lft.to/lastmile_qr_scan", "ios": "https://dc.lft.to/lastmile_qr_scan"}, "name": "92880e0b096d9e7f85bfbba5ccce998c", "is_reserved": 0}, {"is_disabled": 0, "fusion_lon": 0.0, "fusion_lat": 0.0, "lat": 38.9103005, "type": "electric_scooter", "lon": -77.0383725, "bike_id": "89fdb73ed8945e056f0cdc1b3a08928b", "rental_uris": {"android": "https://dc.lft.to/lastmile_qr_scan", "ios": "https://dc.lft.to/lastmile_qr_scan"}, "name": "89fdb73ed8945e056f0cdc1b3a08928b", "is_reserved": 0}, {"is_disabled": 0, "fusion_lon": 0.0, "fusion_lat": 0.0, "lat": 38.913123, "type": "electric_scooter", "lon": -77.03213866666667, "bike_id": "a928497bc9b86e2411f17666c9f9d9c3", "rental_uris": {"android": "https://dc.lft.to/lastmile_qr_scan", "ios": "https://dc.lft.to/lastmile_qr_scan"}, "name": "a928497bc9b86e2411f17666c9f9d9c3", "is_reserved": 0}, {"is_disabled": 0, "fusion_lon": 0.0, "fusion_lat": 0.0, "lat": 38.94609283333333, "type": "electric_scooter", "lon": -77.034635, "bike_id": "4ad64c897107904a9673a06c27b41d2d", "rental_uris": {"android": "https://dc.lft.to/lastmile_qr_scan", "ios": "https://dc.lft.to/lastmile_qr_scan"}, "name": "4ad64c897107904a9673a06c27b41d2d", "is_reserved": 0}, {"is_disabled": 0, "fusion_lon": 0.0, "fusion_lat": 0.0, "lat": 38.92055216666667, "type": "electric_scooter", "lon": -77.04189233333334, "bike_id": "c55bdc72b90446abf0c6a375b76393ef", "rental_uris": {"android": "https://dc.lft.to/lastmile_qr_scan", "ios": "https://dc.lft.to/lastmile_qr_scan"}, "name": "c55bdc72b90446abf0c6a375b76393ef", "is_reserved": 0}, {"is_disabled": 0, "fusion_lon": 0.0, "fusion_lat": 0.0, "lat": 38.90938166666667, "type": "electric_scooter", "lon": -77.03203683333334, "bike_id": "6e7a47e3148320b2ec929ee351268028", "rental_uris": {"android": "https://dc.lft.to/lastmile_qr_scan", "ios": "https://dc.lft.to/lastmile_qr_scan"}, "name": "6e7a47e3148320b2ec929ee351268028", "is_reserved": 0}, {"is_disabled": 0, "fusion_lon": 0.0, "fusion_lat": 0.0, "lat": 38.906692, "type": "electric_scooter", "lon": -77.02712266666667, "bike_id": "2c652ace2789726b904c0e71576f6f18", "rental_uris": {"android": "https://dc.lft.to/lastmile_qr_scan", "ios": "https://dc.lft.to/lastmile_qr_scan"}, "name": "2c652ace2789726b904c0e71576f6f18", "is_reserved": 0}, {"is_disabled": 0, "fusion_lon": 0.0, "fusion_lat": 0.0, "lat": 38.89505616666667, "type": "electric_scooter", "lon": -76.9488125, "bike_id": "c2c1f01f0e052458455512c83264535f", "rental_uris": {"android": "https://dc.lft.to/lastmile_qr_scan", "ios": "https://dc.lft.to/lastmile_qr_scan"}, "name": "c2c1f01f0e052458455512c83264535f", "is_reserved": 0}, {"is_disabled": 0, "fusion_lon": 0.0, "fusion_lat": 0.0, "lat": 38.844233333333335, "type": "electric_scooter", "lon": -76.997819, "bike_id": "b463c24c1e3526233bbe6cf9274f7c5b", "rental_uris": {"android": "https://dc.lft.to/lastmile_qr_scan", "ios": "https://dc.lft.to/lastmile_qr_scan"}, "name": "b463c24c1e3526233bbe6cf9274f7c5b", "is_reserved": 0}, {"is_disabled": 0, "fusion_lon": 0.0, "fusion_lat": 0.0, "lat": 38.920736833333336, "type": "electric_scooter", "lon": -77.0419555, "bike_id": "336d99e9fe3bb586ad8a13e551bea5c7", "rental_uris": {"android": "https://dc.lft.to/lastmile_qr_scan", "ios": "https://dc.lft.to/lastmile_qr_scan"}, "name": "336d99e9fe3bb586ad8a13e551bea5c7", "is_reserved": 0}, {"is_disabled": 0, "fusion_lon": 0.0, "fusion_lat": 0.0, "lat": 38.90017616666667, "type": "electric_scooter", "lon": -77.01187116666667, "bike_id": "c6cabc5ceaa1fdc5f999339314569abf", "rental_uris": {"android": "https://dc.lft.to/lastmile_qr_scan", "ios": "https://dc.lft.to/lastmile_qr_scan"}, "name": "c6cabc5ceaa1fdc5f999339314569abf", "is_reserved": 0}, {"is_disabled": 0, "fusion_lon": 0.0, "fusion_lat": 0.0, "lat": 38.91079966666667, "type": "electric_scooter", "lon": -77.0218795, "bike_id": "d5b949fa758e4d7d9c5ce2eede356613", "rental_uris": {"android": "https://dc.lft.to/lastmile_qr_scan", "ios": "https://dc.lft.to/lastmile_qr_scan"}, "name": "d5b949fa758e4d7d9c5ce2eede356613", "is_reserved": 0}, {"is_disabled": 0, "fusion_lon": 0.0, "fusion_lat": 0.0, "lat": 38.9267905, "type": "electric_scooter", "lon": -77.02692216666667, "bike_id": "64701a124eb1fc99b8f22725499f6a0d", "rental_uris": {"android": "https://dc.lft.to/lastmile_qr_scan", "ios": "https://dc.lft.to/lastmile_qr_scan"}, "name": "64701a124eb1fc99b8f22725499f6a0d", "is_reserved": 0}, {"is_disabled": 0, "fusion_lon": 0.0, "fusion_lat": 0.0, "lat": 38.96216183333333, "type": "electric_scooter", "lon": -77.028056, "bike_id": "a3dad83979437a849635aa2c174559ee", "rental_uris": {"android": "https://dc.lft.to/lastmile_qr_scan", "ios": "https://dc.lft.to/lastmile_qr_scan"}, "name": "a3dad83979437a849635aa2c174559ee", "is_reserved": 0}, {"is_disabled": 0, "fusion_lon": 0.0, "fusion_lat": 0.0, "lat": 38.921141166666665, "type": "electric_scooter", "lon": -77.0176235, "bike_id": "02f76ebe07dc7abec481a95bdcf102a0", "rental_uris": {"android": "https://dc.lft.to/lastmile_qr_scan", "ios": "https://dc.lft.to/lastmile_qr_scan"}, "name": "02f76ebe07dc7abec481a95bdcf102a0", "is_reserved": 0}, {"is_disabled": 0, "fusion_lon": 0.0, "fusion_lat": 0.0, "lat": 38.9614115, "type": "electric_scooter", "lon": -77.027905, "bike_id": "7141a066034eff087de631fe0d118f74", "rental_uris": {"android": "https://dc.lft.to/lastmile_qr_scan", "ios": "https://dc.lft.to/lastmile_qr_scan"}, "name": "7141a066034eff087de631fe0d118f74", "is_reserved": 0}, {"is_disabled": 0, "fusion_lon": 0.0, "fusion_lat": 0.0, "lat": 38.893284666666666, "type": "electric_scooter", "lon": -77.02111716666667, "bike_id": "9ce77e6ae2dcf65f6ea17aebe1926b06", "rental_uris": {"android": "https://dc.lft.to/lastmile_qr_scan", "ios": "https://dc.lft.to/lastmile_qr_scan"}, "name": "9ce77e6ae2dcf65f6ea17aebe1926b06", "is_reserved": 0}, {"is_disabled": 0, "fusion_lon": 0.0, "fusion_lat": 0.0, "lat": 38.86519583333333, "type": "electric_scooter", "lon": -76.97334, "bike_id": "bddd31c3ee29b5d0bd76934420035d3d", "rental_uris": {"android": "https://dc.lft.to/lastmile_qr_scan", "ios": "https://dc.lft.to/lastmile_qr_scan"}, "name": "bddd31c3ee29b5d0bd76934420035d3d", "is_reserved": 0}, {"is_disabled": 0, "fusion_lon": 0.0, "fusion_lat": 0.0, "lat": 38.858125, "type": "electric_scooter", "lon": -76.989619, "bike_id": "5a06adec1fdb5bb57f4356f9f1904d49", "rental_uris": {"android": "https://dc.lft.to/lastmile_qr_scan", "ios": "https://dc.lft.to/lastmile_qr_scan"}, "name": "5a06adec1fdb5bb57f4356f9f1904d49", "is_reserved": 0}, {"is_disabled": 0, "fusion_lon": 0.0, "fusion_lat": 0.0, "lat": 38.94982916666667, "type": "electric_scooter", "lon": -77.0270555, "bike_id": "b169b08bdeb2ea586ab9218c80a5d744", "rental_uris": {"android": "https://dc.lft.to/lastmile_qr_scan", "ios": "https://dc.lft.to/lastmile_qr_scan"}, "name": "b169b08bdeb2ea586ab9218c80a5d744", "is_reserved": 0}, {"is_disabled": 0, "fusion_lon": 0.0, "fusion_lat": 0.0, "lat": 38.9428175, "type": "electric_scooter", "lon": -77.03632216666666, "bike_id": "f8f91f36892fb9ea2789fe0ce15f78de", "rental_uris": {"android": "https://dc.lft.to/lastmile_qr_scan", "ios": "https://dc.lft.to/lastmile_qr_scan"}, "name": "f8f91f36892fb9ea2789fe0ce15f78de", "is_reserved": 0}, {"is_disabled": 0, "fusion_lon": 0.0, "fusion_lat": 0.0, "lat": 38.91710483333333, "type": "electric_scooter", "lon": -77.0284175, "bike_id": "f987ae1faea15fb35216bbd719610698", "rental_uris": {"android": "https://dc.lft.to/lastmile_qr_scan", "ios": "https://dc.lft.to/lastmile_qr_scan"}, "name": "f987ae1faea15fb35216bbd719610698", "is_reserved": 0}, {"is_disabled": 0, "fusion_lon": 0.0, "fusion_lat": 0.0, "lat": 38.9126535, "type": "electric_bike", "lon": -77.03140483333334, "bike_id": "7cd1919bdd4f3924598c2cb9cdee1d81", "rental_uris": {"android": "https://dc.lft.to/lastmile_qr_scan", "ios": "https://dc.lft.to/lastmile_qr_scan"}, "name": "7cd1919bdd4f3924598c2cb9cdee1d81", "is_reserved": 0}, {"is_disabled": 0, "fusion_lon": 0.0, "fusion_lat": 0.0, "lat": 38.88747566666667, "type": "electric_scooter", "lon": -77.01732316666667, "bike_id": "d182c233f5bb634baa62e2361ee44408", "rental_uris": {"android": "https://dc.lft.to/lastmile_qr_scan", "ios": "https://dc.lft.to/lastmile_qr_scan"}, "name": "d182c233f5bb634baa62e2361ee44408", "is_reserved": 0}, {"is_disabled": 0, "fusion_lon": 0.0, "fusion_lat": 0.0, "lat": 38.894773666666666, "type": "electric_scooter", "lon": -76.99523866666667, "bike_id": "28bf9615903b4d60835bbeb953895e32", "rental_uris": {"android": "https://dc.lft.to/lastmile_qr_scan", "ios": "https://dc.lft.to/lastmile_qr_scan"}, "name": "28bf9615903b4d60835bbeb953895e32", "is_reserved": 0}, {"is_disabled": 0, "fusion_lon": 0.0, "fusion_lat": 0.0, "lat": 38.9337955, "type": "electric_scooter", "lon": -77.02393366666666, "bike_id": "e1880f5d8420c07013e7bbfa16e3f96a", "rental_uris": {"android": "https://dc.lft.to/lastmile_qr_scan", "ios": "https://dc.lft.to/lastmile_qr_scan"}, "name": "e1880f5d8420c07013e7bbfa16e3f96a", "is_reserved": 0}, {"is_disabled": 0, "fusion_lon": 0.0, "fusion_lat": 0.0, "lat": 38.90442916666667, "type": "electric_scooter", "lon": -77.02230783333333, "bike_id": "e723803543c3cf694344f0d4d1e647ec", "rental_uris": {"android": "https://dc.lft.to/lastmile_qr_scan", "ios": "https://dc.lft.to/lastmile_qr_scan"}, "name": "e723803543c3cf694344f0d4d1e647ec", "is_reserved": 0}, {"is_disabled": 0, "fusion_lon": 0.0, "fusion_lat": 0.0, "lat": 39.0079455, "type": "electric_bike", "lon": -76.995689, "bike_id": "6f639b2098380b6cd61532c0cd9207ac", "rental_uris": {"android": "https://dc.lft.to/lastmile_qr_scan", "ios": "https://dc.lft.to/lastmile_qr_scan"}, "name": "6f639b2098380b6cd61532c0cd9207ac", "is_reserved": 0}, {"is_disabled": 0, "fusion_lon": 0.0, "fusion_lat": 0.0, "lat": 38.94291483333333, "type": "electric_bike", "lon": -77.069158, "bike_id": "5f65734caa841f217b6c2e1541074172", "rental_uris": {"android": "https://dc.lft.to/lastmile_qr_scan", "ios": "https://dc.lft.to/lastmile_qr_scan"}, "name": "5f65734caa841f217b6c2e1541074172", "is_reserved": 0}, {"is_disabled": 0, "fusion_lon": 0.0, "fusion_lat": 0.0, "lat": 38.93965216666667, "type": "electric_scooter", "lon": -77.03264016666667, "bike_id": "f7e2efaae60d16803d24c0e029146770", "rental_uris": {"android": "https://dc.lft.to/lastmile_qr_scan", "ios": "https://dc.lft.to/lastmile_qr_scan"}, "name": "f7e2efaae60d16803d24c0e029146770", "is_reserved": 0}, {"is_disabled": 0, "fusion_lon": 0.0, "fusion_lat": 0.0, "lat": 38.9136505, "type": "electric_scooter", "lon": -77.039658, "bike_id": "84f1297e80c2d0151657a529e265541a", "rental_uris": {"android": "https://dc.lft.to/lastmile_qr_scan", "ios": "https://dc.lft.to/lastmile_qr_scan"}, "name": "84f1297e80c2d0151657a529e265541a", "is_reserved": 0}, {"is_disabled": 0, "fusion_lon": 0.0, "fusion_lat": 0.0, "lat": 38.914623666666664, "type": "electric_scooter", "lon": -77.02285816666667, "bike_id": "afcdbc6ff53f8d9e9a95b45587545bf9", "rental_uris": {"android": "https://dc.lft.to/lastmile_qr_scan", "ios": "https://dc.lft.to/lastmile_qr_scan"}, "name": "afcdbc6ff53f8d9e9a95b45587545bf9", "is_reserved": 0}, {"is_disabled": 0, "fusion_lon": 0.0, "fusion_lat": 0.0, "lat": 38.906446, "type": "electric_scooter", "lon": -77.04537583333334, "bike_id": "315022b939c541fb293f244ced149529", "rental_uris": {"android": "https://dc.lft.to/lastmile_qr_scan", "ios": "https://dc.lft.to/lastmile_qr_scan"}, "name": "315022b939c541fb293f244ced149529", "is_reserved": 0}, {"is_disabled": 0, "fusion_lon": 0.0, "fusion_lat": 0.0, "lat": 38.89747583333333, "type": "electric_scooter", "lon": -76.99485416666667, "bike_id": "8e840be13f567dd6a3707a33428aaf3e", "rental_uris": {"android": "https://dc.lft.to/lastmile_qr_scan", "ios": "https://dc.lft.to/lastmile_qr_scan"}, "name": "8e840be13f567dd6a3707a33428aaf3e", "is_reserved": 0}, {"is_disabled": 0, "fusion_lon": 0.0, "fusion_lat": 0.0, "lat": 38.91694016666667, "type": "electric_scooter", "lon": -77.025973, "bike_id": "8dde2ab5f70a8003d7bde95605770341", "rental_uris": {"android": "https://dc.lft.to/lastmile_qr_scan", "ios": "https://dc.lft.to/lastmile_qr_scan"}, "name": "8dde2ab5f70a8003d7bde95605770341", "is_reserved": 0}, {"is_disabled": 0, "fusion_lon": 0.0, "fusion_lat": 0.0, "lat": 38.917100833333336, "type": "electric_scooter", "lon": -77.041228, "bike_id": "3efdb684bc99dfefa8036708b17df3f7", "rental_uris": {"android": "https://dc.lft.to/lastmile_qr_scan", "ios": "https://dc.lft.to/lastmile_qr_scan"}, "name": "3efdb684bc99dfefa8036708b17df3f7", "is_reserved": 0}, {"is_disabled": 0, "fusion_lon": 0.0, "fusion_lat": 0.0, "lat": 38.909188, "type": "electric_scooter", "lon": -77.023103, "bike_id": "d5b6d3c904f33cc1d1627f0cc253fd75", "rental_uris": {"android": "https://dc.lft.to/lastmile_qr_scan", "ios": "https://dc.lft.to/lastmile_qr_scan"}, "name": "d5b6d3c904f33cc1d1627f0cc253fd75", "is_reserved": 0}, {"is_disabled": 0, "fusion_lon": 0.0, "fusion_lat": 0.0, "lat": 38.905105666666664, "type": "electric_scooter", "lon": -77.02511433333333, "bike_id": "074e51e6a01430b0df30c9cc0d557801", "rental_uris": {"android": "https://dc.lft.to/lastmile_qr_scan", "ios": "https://dc.lft.to/lastmile_qr_scan"}, "name": "074e51e6a01430b0df30c9cc0d557801", "is_reserved": 0}, {"is_disabled": 0, "fusion_lon": 0.0, "fusion_lat": 0.0, "lat": 38.917020666666666, "type": "electric_scooter", "lon": -77.0010795, "bike_id": "6c5d4920395fe427a0c21b3903225f0e", "rental_uris": {"android": "https://dc.lft.to/lastmile_qr_scan", "ios": "https://dc.lft.to/lastmile_qr_scan"}, "name": "6c5d4920395fe427a0c21b3903225f0e", "is_reserved": 0}, {"is_disabled": 0, "fusion_lon": 0.0, "fusion_lat": 0.0, "lat": 38.985008666666666, "type": "electric_bike", "lon": -76.98201933333333, "bike_id": "81bc0fefff0bdcc1f2bedc37c883bc7c", "rental_uris": {"android": "https://dc.lft.to/lastmile_qr_scan", "ios": "https://dc.lft.to/lastmile_qr_scan"}, "name": "81bc0fefff0bdcc1f2bedc37c883bc7c", "is_reserved": 0}, {"is_disabled": 0, "fusion_lon": 0.0, "fusion_lat": 0.0, "lat": 38.91559866666667, "type": "electric_scooter", "lon": -77.01022883333333, "bike_id": "7e7f1fdc532691caf39ed8ece67e628d", "rental_uris": {"android": "https://dc.lft.to/lastmile_qr_scan", "ios": "https://dc.lft.to/lastmile_qr_scan"}, "name": "7e7f1fdc532691caf39ed8ece67e628d", "is_reserved": 0}, {"is_disabled": 0, "fusion_lon": 0.0, "fusion_lat": 0.0, "lat": 38.918068166666664, "type": "electric_scooter", "lon": -77.0322265, "bike_id": "150536fa6013043bc47ab5aa44cde2ee", "rental_uris": {"android": "https://dc.lft.to/lastmile_qr_scan", "ios": "https://dc.lft.to/lastmile_qr_scan"}, "name": "150536fa6013043bc47ab5aa44cde2ee", "is_reserved": 0}, {"is_disabled": 0, "fusion_lon": 0.0, "fusion_lat": 0.0, "lat": 38.9055115, "type": "electric_scooter", "lon": -77.03254366666667, "bike_id": "a02b665dc61ede6a07b4666f94f307b3", "rental_uris": {"android": "https://dc.lft.to/lastmile_qr_scan", "ios": "https://dc.lft.to/lastmile_qr_scan"}, "name": "a02b665dc61ede6a07b4666f94f307b3", "is_reserved": 0}, {"is_disabled": 0, "fusion_lon": 0.0, "fusion_lat": 0.0, "lat": 38.90013833333333, "type": "electric_scooter", "lon": -77.01193833333333, "bike_id": "79781870abdf831335e27a765df2035b", "rental_uris": {"android": "https://dc.lft.to/lastmile_qr_scan", "ios": "https://dc.lft.to/lastmile_qr_scan"}, "name": "79781870abdf831335e27a765df2035b", "is_reserved": 0}, {"is_disabled": 0, "fusion_lon": 0.0, "fusion_lat": 0.0, "lat": 38.89950866666667, "type": "electric_scooter", "lon": -77.0513425, "bike_id": "9830be93deaf96e9dc01ef55f6938873", "rental_uris": {"android": "https://dc.lft.to/lastmile_qr_scan", "ios": "https://dc.lft.to/lastmile_qr_scan"}, "name": "9830be93deaf96e9dc01ef55f6938873", "is_reserved": 0}, {"is_disabled": 0, "fusion_lon": 0.0, "fusion_lat": 0.0, "lat": 38.990633833333334, "type": "electric_bike", "lon": -77.10024183333333, "bike_id": "749337733ab528bffe3fcdeca69317ba", "rental_uris": {"android": "https://dc.lft.to/lastmile_qr_scan", "ios": "https://dc.lft.to/lastmile_qr_scan"}, "name": "749337733ab528bffe3fcdeca69317ba", "is_reserved": 0}, {"is_disabled": 0, "fusion_lon": 0.0, "fusion_lat": 0.0, "lat": 38.9377925, "type": "electric_scooter", "lon": -77.02306366666667, "bike_id": "ca0dceb23f1c95f9e825f2ab2cd0dbe7", "rental_uris": {"android": "https://dc.lft.to/lastmile_qr_scan", "ios": "https://dc.lft.to/lastmile_qr_scan"}, "name": "ca0dceb23f1c95f9e825f2ab2cd0dbe7", "is_reserved": 0}, {"is_disabled": 0, "fusion_lon": 0.0, "fusion_lat": 0.0, "lat": 38.99089816666667, "type": "electric_bike", "lon": -76.87492733333333, "bike_id": "39207fba4ee6c4107efa261fecf5fc96", "rental_uris": {"android": "https://dc.lft.to/lastmile_qr_scan", "ios": "https://dc.lft.to/lastmile_qr_scan"}, "name": "39207fba4ee6c4107efa261fecf5fc96", "is_reserved": 0}, {"is_disabled": 0, "fusion_lon": 0.0, "fusion_lat": 0.0, "lat": 38.9072025, "type": "electric_scooter", "lon": -77.04076633333334, "bike_id": "2086c3200bc3adc009ebbf937b78fc15", "rental_uris": {"android": "https://dc.lft.to/lastmile_qr_scan", "ios": "https://dc.lft.to/lastmile_qr_scan"}, "name": "2086c3200bc3adc009ebbf937b78fc15", "is_reserved": 0}, {"is_disabled": 0, "fusion_lon": 0.0, "fusion_lat": 0.0, "lat": 38.87496566666667, "type": "electric_bike", "lon": -77.04899416666666, "bike_id": "639bfc912229ed49f43e0a306a3b4b5f", "rental_uris": {"android": "https://dc.lft.to/lastmile_qr_scan", "ios": "https://dc.lft.to/lastmile_qr_scan"}, "name": "639bfc912229ed49f43e0a306a3b4b5f", "is_reserved": 0}, {"is_disabled": 0, "fusion_lon": 0.0, "fusion_lat": 0.0, "lat": 38.905387, "type": "electric_scooter", "lon": -77.0652615, "bike_id": "d23eacf30226d3f838f054818f9bb7f4", "rental_uris": {"android": "https://dc.lft.to/lastmile_qr_scan", "ios": "https://dc.lft.to/lastmile_qr_scan"}, "name": "d23eacf30226d3f838f054818f9bb7f4", "is_reserved": 0}, {"is_disabled": 0, "fusion_lon": 0.0, "fusion_lat": 0.0, "lat": 38.91645533333333, "type": "electric_scooter", "lon": -77.03195566666666, "bike_id": "bfec7636caae4ba8519b29cff622628f", "rental_uris": {"android": "https://dc.lft.to/lastmile_qr_scan", "ios": "https://dc.lft.to/lastmile_qr_scan"}, "name": "bfec7636caae4ba8519b29cff622628f", "is_reserved": 0}, {"is_disabled": 0, "fusion_lon": 0.0, "fusion_lat": 0.0, "lat": 38.93302416666667, "type": "electric_scooter", "lon": -77.02142216666667, "bike_id": "709ea0b686c8701d96ceeb6607cc1fd3", "rental_uris": {"android": "https://dc.lft.to/lastmile_qr_scan", "ios": "https://dc.lft.to/lastmile_qr_scan"}, "name": "709ea0b686c8701d96ceeb6607cc1fd3", "is_reserved": 0}, {"is_disabled": 0, "fusion_lon": 0.0, "fusion_lat": 0.0, "lat": 38.863533333333336, "type": "electric_scooter", "lon": -76.99070666666667, "bike_id": "fe93f50584c660e4739fb2cea8fa55c7", "rental_uris": {"android": "https://dc.lft.to/lastmile_qr_scan", "ios": "https://dc.lft.to/lastmile_qr_scan"}, "name": "fe93f50584c660e4739fb2cea8fa55c7", "is_reserved": 0}, {"is_disabled": 0, "fusion_lon": 0.0, "fusion_lat": 0.0, "lat": 38.92848433333333, "type": "electric_scooter", "lon": -77.014159, "bike_id": "d8772529c2e5e150117035bb2e71e44a", "rental_uris": {"android": "https://dc.lft.to/lastmile_qr_scan", "ios": "https://dc.lft.to/lastmile_qr_scan"}, "name": "d8772529c2e5e150117035bb2e71e44a", "is_reserved": 0}, {"is_disabled": 0, "fusion_lon": 0.0, "fusion_lat": 0.0, "lat": 38.96211316666667, "type": "electric_scooter", "lon": -77.02801016666666, "bike_id": "f013affd4a2067553c88bc5d321ff433", "rental_uris": {"android": "https://dc.lft.to/lastmile_qr_scan", "ios": "https://dc.lft.to/lastmile_qr_scan"}, "name": "f013affd4a2067553c88bc5d321ff433", "is_reserved": 0}, {"is_disabled": 0, "fusion_lon": 0.0, "fusion_lat": 0.0, "lat": 38.938778166666665, "type": "electric_scooter", "lon": -77.03327833333333, "bike_id": "c00d09cb95dab14f9e4edf3cb200a1e5", "rental_uris": {"android": "https://dc.lft.to/lastmile_qr_scan", "ios": "https://dc.lft.to/lastmile_qr_scan"}, "name": "c00d09cb95dab14f9e4edf3cb200a1e5", "is_reserved": 0}, {"is_disabled": 0, "fusion_lon": 0.0, "fusion_lat": 0.0, "lat": 39.11509383333333, "type": "electric_bike", "lon": -77.19544733333333, "bike_id": "5cbae9df840b1c276ec2cc63b0b51909", "rental_uris": {"android": "https://dc.lft.to/lastmile_qr_scan", "ios": "https://dc.lft.to/lastmile_qr_scan"}, "name": "5cbae9df840b1c276ec2cc63b0b51909", "is_reserved": 0}, {"is_disabled": 0, "fusion_lon": 0.0, "fusion_lat": 0.0, "lat": 38.93047816666667, "type": "electric_scooter", "lon": -77.00415833333334, "bike_id": "30af78f4ed51f644b28c2d9071a16dc8", "rental_uris": {"android": "https://dc.lft.to/lastmile_qr_scan", "ios": "https://dc.lft.to/lastmile_qr_scan"}, "name": "30af78f4ed51f644b28c2d9071a16dc8", "is_reserved": 0}, {"is_disabled": 0, "fusion_lon": 0.0, "fusion_lat": 0.0, "lat": 38.838114166666664, "type": "electric_scooter", "lon": -77.00430516666667, "bike_id": "38ae04fcd997a07f41c6887dfbf39e25", "rental_uris": {"android": "https://dc.lft.to/lastmile_qr_scan", "ios": "https://dc.lft.to/lastmile_qr_scan"}, "name": "38ae04fcd997a07f41c6887dfbf39e25", "is_reserved": 0}, {"is_disabled": 0, "fusion_lon": 0.0, "fusion_lat": 0.0, "lat": 38.85717733333333, "type": "electric_bike", "lon": -76.9811305, "bike_id": "0f4a2cb590138d8cf1e755d67e6de7c0", "rental_uris": {"android": "https://dc.lft.to/lastmile_qr_scan", "ios": "https://dc.lft.to/lastmile_qr_scan"}, "name": "0f4a2cb590138d8cf1e755d67e6de7c0", "is_reserved": 0}, {"is_disabled": 0, "fusion_lon": 0.0, "fusion_lat": 0.0, "lat": 38.9925545, "type": "electric_bike", "lon": -77.04997583333333, "bike_id": "3423b3772337177355c58a042a65eedd", "rental_uris": {"android": "https://dc.lft.to/lastmile_qr_scan", "ios": "https://dc.lft.to/lastmile_qr_scan"}, "name": "3423b3772337177355c58a042a65eedd", "is_reserved": 0}, {"is_disabled": 0, "fusion_lon": 0.0, "fusion_lat": 0.0, "lat": 38.943038, "type": "electric_scooter", "lon": -77.0235105, "bike_id": "b7cc6c95f29e13cd359dea788e2a4098", "rental_uris": {"android": "https://dc.lft.to/lastmile_qr_scan", "ios": "https://dc.lft.to/lastmile_qr_scan"}, "name": "b7cc6c95f29e13cd359dea788e2a4098", "is_reserved": 0}, {"is_disabled": 0, "fusion_lon": 0.0, "fusion_lat": 0.0, "lat": 38.90516933333333, "type": "electric_scooter", "lon": -77.00209433333333, "bike_id": "99f3f8ccbf6a53fa25c6f5a14136f2bc", "rental_uris": {"android": "https://dc.lft.to/lastmile_qr_scan", "ios": "https://dc.lft.to/lastmile_qr_scan"}, "name": "99f3f8ccbf6a53fa25c6f5a14136f2bc", "is_reserved": 0}, {"is_disabled": 0, "fusion_lon": 0.0, "fusion_lat": 0.0, "lat": 38.889974333333335, "type": "electric_scooter", "lon": -77.0150365, "bike_id": "a221acabd6ed6c5f3d2d7854bce0c70f", "rental_uris": {"android": "https://dc.lft.to/lastmile_qr_scan", "ios": "https://dc.lft.to/lastmile_qr_scan"}, "name": "a221acabd6ed6c5f3d2d7854bce0c70f", "is_reserved": 0}, {"is_disabled": 0, "fusion_lon": 0.0, "fusion_lat": 0.0, "lat": 38.8922405, "type": "electric_scooter", "lon": -77.02258733333333, "bike_id": "4ffd027db0050a58c6b1c66042b96ecb", "rental_uris": {"android": "https://dc.lft.to/lastmile_qr_scan", "ios": "https://dc.lft.to/lastmile_qr_scan"}, "name": "4ffd027db0050a58c6b1c66042b96ecb", "is_reserved": 0}, {"is_disabled": 0, "fusion_lon": 0.0, "fusion_lat": 0.0, "lat": 38.918198833333335, "type": "electric_scooter", "lon": -77.03440966666666, "bike_id": "a2407f1252afc08f27f1cbd380375c23", "rental_uris": {"android": "https://dc.lft.to/lastmile_qr_scan", "ios": "https://dc.lft.to/lastmile_qr_scan"}, "name": "a2407f1252afc08f27f1cbd380375c23", "is_reserved": 0}, {"is_disabled": 0, "fusion_lon": 0.0, "fusion_lat": 0.0, "lat": 38.91922316666667, "type": "electric_scooter", "lon": -77.03019983333333, "bike_id": "0115db29cb1d36d9ee95526620d864ab", "rental_uris": {"android": "https://dc.lft.to/lastmile_qr_scan", "ios": "https://dc.lft.to/lastmile_qr_scan"}, "name": "0115db29cb1d36d9ee95526620d864ab", "is_reserved": 0}, {"is_disabled": 0, "fusion_lon": 0.0, "fusion_lat": 0.0, "lat": 38.91036966666667, "type": "electric_scooter", "lon": -77.01370816666666, "bike_id": "ee1c9dc3a388c969818dcfbb0d235a66", "rental_uris": {"android": "https://dc.lft.to/lastmile_qr_scan", "ios": "https://dc.lft.to/lastmile_qr_scan"}, "name": "ee1c9dc3a388c969818dcfbb0d235a66", "is_reserved": 0}, {"is_disabled": 0, "fusion_lon": 0.0, "fusion_lat": 0.0, "lat": 38.90927633333333, "type": "electric_scooter", "lon": -77.03202966666667, "bike_id": "bb523e051333f529b8ac0e46c8182267", "rental_uris": {"android": "https://dc.lft.to/lastmile_qr_scan", "ios": "https://dc.lft.to/lastmile_qr_scan"}, "name": "bb523e051333f529b8ac0e46c8182267", "is_reserved": 0}, {"is_disabled": 0, "fusion_lon": 0.0, "fusion_lat": 0.0, "lat": 38.905820166666665, "type": "electric_scooter", "lon": -77.004219, "bike_id": "d3c3717f53c845a611e8185c62cd85e0", "rental_uris": {"android": "https://dc.lft.to/lastmile_qr_scan", "ios": "https://dc.lft.to/lastmile_qr_scan"}, "name": "d3c3717f53c845a611e8185c62cd85e0", "is_reserved": 0}, {"is_disabled": 0, "fusion_lon": 0.0, "fusion_lat": 0.0, "lat": 38.949835666666665, "type": "electric_scooter", "lon": -77.02702983333333, "bike_id": "0b2babde3c78d95f105092e5158c0b32", "rental_uris": {"android": "https://dc.lft.to/lastmile_qr_scan", "ios": "https://dc.lft.to/lastmile_qr_scan"}, "name": "0b2babde3c78d95f105092e5158c0b32", "is_reserved": 0}, {"is_disabled": 0, "fusion_lon": 0.0, "fusion_lat": 0.0, "lat": 38.90285933333333, "type": "electric_scooter", "lon": -77.03646633333334, "bike_id": "49b230e2eeaa996ad6e0f032614c159c", "rental_uris": {"android": "https://dc.lft.to/lastmile_qr_scan", "ios": "https://dc.lft.to/lastmile_qr_scan"}, "name": "49b230e2eeaa996ad6e0f032614c159c", "is_reserved": 0}, {"is_disabled": 0, "fusion_lon": 0.0, "fusion_lat": 0.0, "lat": 38.89262166666666, "type": "electric_scooter", "lon": -76.94152783333334, "bike_id": "c8e57da77f15f3e0331e898eea879ce5", "rental_uris": {"android": "https://dc.lft.to/lastmile_qr_scan", "ios": "https://dc.lft.to/lastmile_qr_scan"}, "name": "c8e57da77f15f3e0331e898eea879ce5", "is_reserved": 0}, {"is_disabled": 0, "fusion_lon": 0.0, "fusion_lat": 0.0, "lat": 38.909508333333335, "type": "electric_scooter", "lon": -77.01523566666667, "bike_id": "4e49748d83104b07cf81a89522a39615", "rental_uris": {"android": "https://dc.lft.to/lastmile_qr_scan", "ios": "https://dc.lft.to/lastmile_qr_scan"}, "name": "4e49748d83104b07cf81a89522a39615", "is_reserved": 0}, {"is_disabled": 0, "fusion_lon": 0.0, "fusion_lat": 0.0, "lat": 38.923810833333334, "type": "electric_scooter", "lon": -77.02767033333333, "bike_id": "ca6d9a48b902bcec54884f4348738a5a", "rental_uris": {"android": "https://dc.lft.to/lastmile_qr_scan", "ios": "https://dc.lft.to/lastmile_qr_scan"}, "name": "ca6d9a48b902bcec54884f4348738a5a", "is_reserved": 0}, {"is_disabled": 0, "fusion_lon": 0.0, "fusion_lat": 0.0, "lat": 38.87760866666667, "type": "electric_scooter", "lon": -77.00132833333333, "bike_id": "40eca138ec154e944540347a9da566e1", "rental_uris": {"android": "https://dc.lft.to/lastmile_qr_scan", "ios": "https://dc.lft.to/lastmile_qr_scan"}, "name": "40eca138ec154e944540347a9da566e1", "is_reserved": 0}, {"is_disabled": 0, "fusion_lon": 0.0, "fusion_lat": 0.0, "lat": 38.88733766666667, "type": "electric_scooter", "lon": -77.01530883333334, "bike_id": "8ab214600b3a2716f090b8970ed98f48", "rental_uris": {"android": "https://dc.lft.to/lastmile_qr_scan", "ios": "https://dc.lft.to/lastmile_qr_scan"}, "name": "8ab214600b3a2716f090b8970ed98f48", "is_reserved": 0}, {"is_disabled": 0, "fusion_lon": 0.0, "fusion_lat": 0.0, "lat": 38.87430116666667, "type": "electric_bike", "lon": -77.00898466666666, "bike_id": "68e86c2a0cd54758c88e8e678faa153b", "rental_uris": {"android": "https://dc.lft.to/lastmile_qr_scan", "ios": "https://dc.lft.to/lastmile_qr_scan"}, "name": "68e86c2a0cd54758c88e8e678faa153b", "is_reserved": 0}, {"is_disabled": 0, "fusion_lon": 0.0, "fusion_lat": 0.0, "lat": 38.86351483333333, "type": "electric_scooter", "lon": -76.9906235, "bike_id": "361df1ad075bcd0bc1e3056e4132f561", "rental_uris": {"android": "https://dc.lft.to/lastmile_qr_scan", "ios": "https://dc.lft.to/lastmile_qr_scan"}, "name": "361df1ad075bcd0bc1e3056e4132f561", "is_reserved": 0}, {"is_disabled": 0, "fusion_lon": 0.0, "fusion_lat": 0.0, "lat": 38.90861683333333, "type": "electric_scooter", "lon": -77.03208816666667, "bike_id": "7513a48d3f329e6246902d7c1e4bd2bd", "rental_uris": {"android": "https://dc.lft.to/lastmile_qr_scan", "ios": "https://dc.lft.to/lastmile_qr_scan"}, "name": "7513a48d3f329e6246902d7c1e4bd2bd", "is_reserved": 0}, {"is_disabled": 0, "fusion_lon": 0.0, "fusion_lat": 0.0, "lat": 38.90585566666667, "type": "electric_scooter", "lon": -77.04866766666666, "bike_id": "e048d0f7de44e4c1e95afea5bca3ef53", "rental_uris": {"android": "https://dc.lft.to/lastmile_qr_scan", "ios": "https://dc.lft.to/lastmile_qr_scan"}, "name": "e048d0f7de44e4c1e95afea5bca3ef53", "is_reserved": 0}, {"is_disabled": 0, "fusion_lon": 0.0, "fusion_lat": 0.0, "lat": 38.920239, "type": "electric_scooter", "lon": -77.01864566666667, "bike_id": "a5c5346b75bfd5c9fc8de1d62d34c24d", "rental_uris": {"android": "https://dc.lft.to/lastmile_qr_scan", "ios": "https://dc.lft.to/lastmile_qr_scan"}, "name": "a5c5346b75bfd5c9fc8de1d62d34c24d", "is_reserved": 0}, {"is_disabled": 0, "fusion_lon": 0.0, "fusion_lat": 0.0, "lat": 38.93462066666667, "type": "electric_scooter", "lon": -77.07297116666666, "bike_id": "36459d3069bde0d3bafb0b3e0230c4ed", "rental_uris": {"android": "https://dc.lft.to/lastmile_qr_scan", "ios": "https://dc.lft.to/lastmile_qr_scan"}, "name": "36459d3069bde0d3bafb0b3e0230c4ed", "is_reserved": 0}, {"is_disabled": 0, "fusion_lon": 0.0, "fusion_lat": 0.0, "lat": 38.93875966666667, "type": "electric_scooter", "lon": -77.032543, "bike_id": "892efdf29707e290601dfa5e6f8cd452", "rental_uris": {"android": "https://dc.lft.to/lastmile_qr_scan", "ios": "https://dc.lft.to/lastmile_qr_scan"}, "name": "892efdf29707e290601dfa5e6f8cd452", "is_reserved": 0}, {"is_disabled": 0, "fusion_lon": 0.0, "fusion_lat": 0.0, "lat": 38.880038166666665, "type": "electric_bike", "lon": -76.91595833333334, "bike_id": "8ff5823dc520af57e99991ed2ce818a7", "rental_uris": {"android": "https://dc.lft.to/lastmile_qr_scan", "ios": "https://dc.lft.to/lastmile_qr_scan"}, "name": "8ff5823dc520af57e99991ed2ce818a7", "is_reserved": 0}, {"is_disabled": 0, "fusion_lon": 0.0, "fusion_lat": 0.0, "lat": 38.90277566666666, "type": "electric_scooter", "lon": -77.03440066666667, "bike_id": "023d080d2515f75e2614707658527025", "rental_uris": {"android": "https://dc.lft.to/lastmile_qr_scan", "ios": "https://dc.lft.to/lastmile_qr_scan"}, "name": "023d080d2515f75e2614707658527025", "is_reserved": 0}, {"is_disabled": 0, "fusion_lon": 0.0, "fusion_lat": 0.0, "lat": 38.9539915, "type": "electric_scooter", "lon": -77.02753633333333, "bike_id": "1ed84bcf40ff393cb8943ee271798113", "rental_uris": {"android": "https://dc.lft.to/lastmile_qr_scan", "ios": "https://dc.lft.to/lastmile_qr_scan"}, "name": "1ed84bcf40ff393cb8943ee271798113", "is_reserved": 0}, {"is_disabled": 0, "fusion_lon": 0.0, "fusion_lat": 0.0, "lat": 38.90727066666667, "type": "electric_scooter", "lon": -77.03838, "bike_id": "5bf44f7a69192284f8af121ec4ced24c", "rental_uris": {"android": "https://dc.lft.to/lastmile_qr_scan", "ios": "https://dc.lft.to/lastmile_qr_scan"}, "name": "5bf44f7a69192284f8af121ec4ced24c", "is_reserved": 0}, {"is_disabled": 0, "fusion_lon": 0.0, "fusion_lat": 0.0, "lat": 38.924195, "type": "electric_scooter", "lon": -77.04156483333334, "bike_id": "28f3146ba8b47eb91617010c0ed0b303", "rental_uris": {"android": "https://dc.lft.to/lastmile_qr_scan", "ios": "https://dc.lft.to/lastmile_qr_scan"}, "name": "28f3146ba8b47eb91617010c0ed0b303", "is_reserved": 0}, {"is_disabled": 0, "fusion_lon": 0.0, "fusion_lat": 0.0, "lat": 38.85837566666667, "type": "electric_bike", "lon": -76.992839, "bike_id": "828d96d3da522386ad35e9c330777809", "rental_uris": {"android": "https://dc.lft.to/lastmile_qr_scan", "ios": "https://dc.lft.to/lastmile_qr_scan"}, "name": "828d96d3da522386ad35e9c330777809", "is_reserved": 0}, {"is_disabled": 0, "fusion_lon": 0.0, "fusion_lat": 0.0, "lat": 38.9015145, "type": "electric_scooter", "lon": -77.05931166666667, "bike_id": "e5eaf2b48419fe92c0f4309a69f513a1", "rental_uris": {"android": "https://dc.lft.to/lastmile_qr_scan", "ios": "https://dc.lft.to/lastmile_qr_scan"}, "name": "e5eaf2b48419fe92c0f4309a69f513a1", "is_reserved": 0}, {"is_disabled": 0, "fusion_lon": 0.0, "fusion_lat": 0.0, "lat": 38.89193066666667, "type": "electric_scooter", "lon": -77.02239333333333, "bike_id": "fa818255deb8457b4ba8b83f03e28226", "rental_uris": {"android": "https://dc.lft.to/lastmile_qr_scan", "ios": "https://dc.lft.to/lastmile_qr_scan"}, "name": "fa818255deb8457b4ba8b83f03e28226", "is_reserved": 0}, {"is_disabled": 0, "fusion_lon": 0.0, "fusion_lat": 0.0, "lat": 38.95380083333333, "type": "electric_scooter", "lon": -77.025561, "bike_id": "b1762b84adb40cf43f8847d2b099546f", "rental_uris": {"android": "https://dc.lft.to/lastmile_qr_scan", "ios": "https://dc.lft.to/lastmile_qr_scan"}, "name": "b1762b84adb40cf43f8847d2b099546f", "is_reserved": 0}, {"is_disabled": 0, "fusion_lon": 0.0, "fusion_lat": 0.0, "lat": 38.914823, "type": "electric_scooter", "lon": -77.03236783333334, "bike_id": "f40da54cb3f6cea4c1c58fe27e463311", "rental_uris": {"android": "https://dc.lft.to/lastmile_qr_scan", "ios": "https://dc.lft.to/lastmile_qr_scan"}, "name": "f40da54cb3f6cea4c1c58fe27e463311", "is_reserved": 0}, {"is_disabled": 0, "fusion_lon": 0.0, "fusion_lat": 0.0, "lat": 38.89503, "type": "electric_scooter", "lon": -77.01123933333334, "bike_id": "e75d749d4daa8f0b9be00994c6fd3b6c", "rental_uris": {"android": "https://dc.lft.to/lastmile_qr_scan", "ios": "https://dc.lft.to/lastmile_qr_scan"}, "name": "e75d749d4daa8f0b9be00994c6fd3b6c", "is_reserved": 0}, {"is_disabled": 0, "fusion_lon": 0.0, "fusion_lat": 0.0, "lat": 38.9272405, "type": "electric_scooter", "lon": -77.05354266666667, "bike_id": "4c819327ce91eb61a5d162bc58322cab", "rental_uris": {"android": "https://dc.lft.to/lastmile_qr_scan", "ios": "https://dc.lft.to/lastmile_qr_scan"}, "name": "4c819327ce91eb61a5d162bc58322cab", "is_reserved": 0}, {"is_disabled": 0, "fusion_lon": 0.0, "fusion_lat": 0.0, "lat": 38.9664755, "type": "electric_bike", "lon": -76.93023533333333, "bike_id": "d5302a076eac51f1e68c09b07e6e6292", "rental_uris": {"android": "https://dc.lft.to/lastmile_qr_scan", "ios": "https://dc.lft.to/lastmile_qr_scan"}, "name": "d5302a076eac51f1e68c09b07e6e6292", "is_reserved": 0}, {"is_disabled": 0, "fusion_lon": 0.0, "fusion_lat": 0.0, "lat": 38.880570166666665, "type": "electric_scooter", "lon": -77.01662866666666, "bike_id": "74b1763ecb277c7ccd0868c8807c3e6e", "rental_uris": {"android": "https://dc.lft.to/lastmile_qr_scan", "ios": "https://dc.lft.to/lastmile_qr_scan"}, "name": "74b1763ecb277c7ccd0868c8807c3e6e", "is_reserved": 0}, {"is_disabled": 0, "fusion_lon": 0.0, "fusion_lat": 0.0, "lat": 38.922458, "type": "electric_scooter", "lon": -77.03083866666667, "bike_id": "334618db90fb8082110308edf9bba637", "rental_uris": {"android": "https://dc.lft.to/lastmile_qr_scan", "ios": "https://dc.lft.to/lastmile_qr_scan"}, "name": "334618db90fb8082110308edf9bba637", "is_reserved": 0}, {"is_disabled": 0, "fusion_lon": 0.0, "fusion_lat": 0.0, "lat": 38.930065666666664, "type": "electric_scooter", "lon": -77.07839866666667, "bike_id": "a0344088ac4694b40c14f737f37bf23a", "rental_uris": {"android": "https://dc.lft.to/lastmile_qr_scan", "ios": "https://dc.lft.to/lastmile_qr_scan"}, "name": "a0344088ac4694b40c14f737f37bf23a", "is_reserved": 0}, {"is_disabled": 0, "fusion_lon": 0.0, "fusion_lat": 0.0, "lat": 38.965030666666664, "type": "electric_scooter", "lon": -77.024801, "bike_id": "ab932113f667a749b6d52eee2f6c4336", "rental_uris": {"android": "https://dc.lft.to/lastmile_qr_scan", "ios": "https://dc.lft.to/lastmile_qr_scan"}, "name": "ab932113f667a749b6d52eee2f6c4336", "is_reserved": 0}, {"is_disabled": 0, "fusion_lon": 0.0, "fusion_lat": 0.0, "lat": 38.909679833333335, "type": "electric_scooter", "lon": -77.0330855, "bike_id": "544a7e630a4c0ffd167f1ca5f9648d52", "rental_uris": {"android": "https://dc.lft.to/lastmile_qr_scan", "ios": "https://dc.lft.to/lastmile_qr_scan"}, "name": "544a7e630a4c0ffd167f1ca5f9648d52", "is_reserved": 0}, {"is_disabled": 0, "fusion_lon": 0.0, "fusion_lat": 0.0, "lat": 38.92346783333333, "type": "electric_scooter", "lon": -77.033943, "bike_id": "5ac8a68ff93a5ad32ebe7d5db1a70253", "rental_uris": {"android": "https://dc.lft.to/lastmile_qr_scan", "ios": "https://dc.lft.to/lastmile_qr_scan"}, "name": "5ac8a68ff93a5ad32ebe7d5db1a70253", "is_reserved": 0}, {"is_disabled": 0, "fusion_lon": 0.0, "fusion_lat": 0.0, "lat": 38.858087833333336, "type": "electric_scooter", "lon": -76.98654866666666, "bike_id": "532e5a6581cf979d17585d6027163f36", "rental_uris": {"android": "https://dc.lft.to/lastmile_qr_scan", "ios": "https://dc.lft.to/lastmile_qr_scan"}, "name": "532e5a6581cf979d17585d6027163f36", "is_reserved": 0}, {"is_disabled": 0, "fusion_lon": 0.0, "fusion_lat": 0.0, "lat": 38.865250333333336, "type": "electric_scooter", "lon": -76.98965533333333, "bike_id": "631d65e8baf90cb933f725755978c07e", "rental_uris": {"android": "https://dc.lft.to/lastmile_qr_scan", "ios": "https://dc.lft.to/lastmile_qr_scan"}, "name": "631d65e8baf90cb933f725755978c07e", "is_reserved": 0}, {"is_disabled": 0, "fusion_lon": 0.0, "fusion_lat": 0.0, "lat": 38.9087525, "type": "electric_scooter", "lon": -77.03541833333334, "bike_id": "1e5bdfcef713aa3e524970efc9bbc9e2", "rental_uris": {"android": "https://dc.lft.to/lastmile_qr_scan", "ios": "https://dc.lft.to/lastmile_qr_scan"}, "name": "1e5bdfcef713aa3e524970efc9bbc9e2", "is_reserved": 0}, {"is_disabled": 0, "fusion_lon": 0.0, "fusion_lat": 0.0, "lat": 38.921974666666664, "type": "electric_scooter", "lon": -76.99697383333333, "bike_id": "7786d49097456856307d70eecbc3bd5e", "rental_uris": {"android": "https://dc.lft.to/lastmile_qr_scan", "ios": "https://dc.lft.to/lastmile_qr_scan"}, "name": "7786d49097456856307d70eecbc3bd5e", "is_reserved": 0}, {"is_disabled": 0, "fusion_lon": 0.0, "fusion_lat": 0.0, "lat": 38.9119005, "type": "electric_scooter", "lon": -77.03501233333333, "bike_id": "1d34083997b45ec3cc44dbbf82cf766a", "rental_uris": {"android": "https://dc.lft.to/lastmile_qr_scan", "ios": "https://dc.lft.to/lastmile_qr_scan"}, "name": "1d34083997b45ec3cc44dbbf82cf766a", "is_reserved": 0}, {"is_disabled": 0, "fusion_lon": 0.0, "fusion_lat": 0.0, "lat": 38.900743, "type": "electric_scooter", "lon": -77.01817066666666, "bike_id": "aa5f00f409a4b2668fc0a539069db7f0", "rental_uris": {"android": "https://dc.lft.to/lastmile_qr_scan", "ios": "https://dc.lft.to/lastmile_qr_scan"}, "name": "aa5f00f409a4b2668fc0a539069db7f0", "is_reserved": 0}, {"is_disabled": 0, "fusion_lon": 0.0, "fusion_lat": 0.0, "lat": 38.92978566666667, "type": "electric_scooter", "lon": -77.020718, "bike_id": "40fec054e451cd710d697e1ad81aa62b", "rental_uris": {"android": "https://dc.lft.to/lastmile_qr_scan", "ios": "https://dc.lft.to/lastmile_qr_scan"}, "name": "40fec054e451cd710d697e1ad81aa62b", "is_reserved": 0}, {"is_disabled": 0, "fusion_lon": 0.0, "fusion_lat": 0.0, "lat": 38.916699666666666, "type": "electric_scooter", "lon": -77.04153233333334, "bike_id": "be278a6167f3250d8da98fec65e1ca9a", "rental_uris": {"android": "https://dc.lft.to/lastmile_qr_scan", "ios": "https://dc.lft.to/lastmile_qr_scan"}, "name": "be278a6167f3250d8da98fec65e1ca9a", "is_reserved": 0}, {"is_disabled": 0, "fusion_lon": 0.0, "fusion_lat": 0.0, "lat": 38.90407666666667, "type": "electric_scooter", "lon": -77.00584883333333, "bike_id": "5e5398c93dab5b87f28e7c90d666bbdb", "rental_uris": {"android": "https://dc.lft.to/lastmile_qr_scan", "ios": "https://dc.lft.to/lastmile_qr_scan"}, "name": "5e5398c93dab5b87f28e7c90d666bbdb", "is_reserved": 0}, {"is_disabled": 0, "fusion_lon": 0.0, "fusion_lat": 0.0, "lat": 38.96419566666667, "type": "electric_scooter", "lon": -77.07525416666667, "bike_id": "45c1be48e34ee012ea6a832a24aa1f83", "rental_uris": {"android": "https://dc.lft.to/lastmile_qr_scan", "ios": "https://dc.lft.to/lastmile_qr_scan"}, "name": "45c1be48e34ee012ea6a832a24aa1f83", "is_reserved": 0}, {"is_disabled": 0, "fusion_lon": 0.0, "fusion_lat": 0.0, "lat": 38.908987, "type": "electric_scooter", "lon": -77.0457155, "bike_id": "dfe9b6484cc0202bb75aa8c0e5d81b19", "rental_uris": {"android": "https://dc.lft.to/lastmile_qr_scan", "ios": "https://dc.lft.to/lastmile_qr_scan"}, "name": "dfe9b6484cc0202bb75aa8c0e5d81b19", "is_reserved": 0}, {"is_disabled": 0, "fusion_lon": 0.0, "fusion_lat": 0.0, "lat": 38.94203733333333, "type": "electric_scooter", "lon": -77.025893, "bike_id": "b6e364f7d284909cb4aa6c8aad53d5a1", "rental_uris": {"android": "https://dc.lft.to/lastmile_qr_scan", "ios": "https://dc.lft.to/lastmile_qr_scan"}, "name": "b6e364f7d284909cb4aa6c8aad53d5a1", "is_reserved": 0}, {"is_disabled": 0, "fusion_lon": 0.0, "fusion_lat": 0.0, "lat": 38.90679933333333, "type": "electric_scooter", "lon": -76.98000916666666, "bike_id": "c152212808013710eac83955f4496763", "rental_uris": {"android": "https://dc.lft.to/lastmile_qr_scan", "ios": "https://dc.lft.to/lastmile_qr_scan"}, "name": "c152212808013710eac83955f4496763", "is_reserved": 0}, {"is_disabled": 0, "fusion_lon": 0.0, "fusion_lat": 0.0, "lat": 38.934108, "type": "electric_scooter", "lon": -77.03265183333333, "bike_id": "2da47a73ae0a2102f48effda1196b794", "rental_uris": {"android": "https://dc.lft.to/lastmile_qr_scan", "ios": "https://dc.lft.to/lastmile_qr_scan"}, "name": "2da47a73ae0a2102f48effda1196b794", "is_reserved": 0}, {"is_disabled": 0, "fusion_lon": 0.0, "fusion_lat": 0.0, "lat": 38.91033316666667, "type": "electric_scooter", "lon": -77.0400675, "bike_id": "0c5c951424fe62e49ba4548d21cd6766", "rental_uris": {"android": "https://dc.lft.to/lastmile_qr_scan", "ios": "https://dc.lft.to/lastmile_qr_scan"}, "name": "0c5c951424fe62e49ba4548d21cd6766", "is_reserved": 0}, {"is_disabled": 0, "fusion_lon": 0.0, "fusion_lat": 0.0, "lat": 38.92034066666667, "type": "electric_scooter", "lon": -77.02583616666666, "bike_id": "73b40b14843f5fb183aad24c1f59eddc", "rental_uris": {"android": "https://dc.lft.to/lastmile_qr_scan", "ios": "https://dc.lft.to/lastmile_qr_scan"}, "name": "73b40b14843f5fb183aad24c1f59eddc", "is_reserved": 0}, {"is_disabled": 0, "fusion_lon": 0.0, "fusion_lat": 0.0, "lat": 38.91602916666667, "type": "electric_scooter", "lon": -77.02339466666666, "bike_id": "33f287ea4bd3ef28d0ba39dc7d2b67c9", "rental_uris": {"android": "https://dc.lft.to/lastmile_qr_scan", "ios": "https://dc.lft.to/lastmile_qr_scan"}, "name": "33f287ea4bd3ef28d0ba39dc7d2b67c9", "is_reserved": 0}, {"is_disabled": 0, "fusion_lon": 0.0, "fusion_lat": 0.0, "lat": 38.917093, "type": "electric_scooter", "lon": -77.038751, "bike_id": "3a34a7cc6aa5e995229358eefde46b5b", "rental_uris": {"android": "https://dc.lft.to/lastmile_qr_scan", "ios": "https://dc.lft.to/lastmile_qr_scan"}, "name": "3a34a7cc6aa5e995229358eefde46b5b", "is_reserved": 0}, {"is_disabled": 0, "fusion_lon": 0.0, "fusion_lat": 0.0, "lat": 38.903739, "type": "electric_scooter", "lon": -77.00708283333333, "bike_id": "da1dea02f786cdb261d967a9267fcf1d", "rental_uris": {"android": "https://dc.lft.to/lastmile_qr_scan", "ios": "https://dc.lft.to/lastmile_qr_scan"}, "name": "da1dea02f786cdb261d967a9267fcf1d", "is_reserved": 0}, {"is_disabled": 0, "fusion_lon": 0.0, "fusion_lat": 0.0, "lat": 38.9163355, "type": "electric_scooter", "lon": -77.04620366666667, "bike_id": "bd0b5a522f1d5c2f2c7e931a9b21ae7b", "rental_uris": {"android": "https://dc.lft.to/lastmile_qr_scan", "ios": "https://dc.lft.to/lastmile_qr_scan"}, "name": "bd0b5a522f1d5c2f2c7e931a9b21ae7b", "is_reserved": 0}, {"is_disabled": 0, "fusion_lon": 0.0, "fusion_lat": 0.0, "lat": 38.91043233333333, "type": "electric_scooter", "lon": -77.03850716666666, "bike_id": "79d3b0a1ef150863f3651a9b0c14ce79", "rental_uris": {"android": "https://dc.lft.to/lastmile_qr_scan", "ios": "https://dc.lft.to/lastmile_qr_scan"}, "name": "79d3b0a1ef150863f3651a9b0c14ce79", "is_reserved": 0}, {"is_disabled": 0, "fusion_lon": 0.0, "fusion_lat": 0.0, "lat": 38.910115166666664, "type": "electric_scooter", "lon": -77.0383945, "bike_id": "d858e1d17cd27bd502a585c1681489bc", "rental_uris": {"android": "https://dc.lft.to/lastmile_qr_scan", "ios": "https://dc.lft.to/lastmile_qr_scan"}, "name": "d858e1d17cd27bd502a585c1681489bc", "is_reserved": 0}, {"is_disabled": 0, "fusion_lon": 0.0, "fusion_lat": 0.0, "lat": 38.86349583333333, "type": "electric_scooter", "lon": -76.98256416666666, "bike_id": "8e2de532850bce1c249ea89acace4fae", "rental_uris": {"android": "https://dc.lft.to/lastmile_qr_scan", "ios": "https://dc.lft.to/lastmile_qr_scan"}, "name": "8e2de532850bce1c249ea89acace4fae", "is_reserved": 0}, {"is_disabled": 0, "fusion_lon": 0.0, "fusion_lat": 0.0, "lat": 38.9130995, "type": "electric_scooter", "lon": -77.032151, "bike_id": "c7066eb1c5b0d7baa5df8307653cc908", "rental_uris": {"android": "https://dc.lft.to/lastmile_qr_scan", "ios": "https://dc.lft.to/lastmile_qr_scan"}, "name": "c7066eb1c5b0d7baa5df8307653cc908", "is_reserved": 0}, {"is_disabled": 0, "fusion_lon": 0.0, "fusion_lat": 0.0, "lat": 38.95623333333333, "type": "electric_scooter", "lon": -77.02457933333334, "bike_id": "52f32df363bf12273491be663706cb50", "rental_uris": {"android": "https://dc.lft.to/lastmile_qr_scan", "ios": "https://dc.lft.to/lastmile_qr_scan"}, "name": "52f32df363bf12273491be663706cb50", "is_reserved": 0}, {"is_disabled": 0, "fusion_lon": 0.0, "fusion_lat": 0.0, "lat": 38.911213333333336, "type": "electric_scooter", "lon": -77.04403366666666, "bike_id": "64e2101f41048328d969d3d7de5f22d3", "rental_uris": {"android": "https://dc.lft.to/lastmile_qr_scan", "ios": "https://dc.lft.to/lastmile_qr_scan"}, "name": "64e2101f41048328d969d3d7de5f22d3", "is_reserved": 0}, {"is_disabled": 0, "fusion_lon": 0.0, "fusion_lat": 0.0, "lat": 38.89800833333334, "type": "electric_scooter", "lon": -77.02978, "bike_id": "d091fcac9f5b37e3a33230ac953ae631", "rental_uris": {"android": "https://dc.lft.to/lastmile_qr_scan", "ios": "https://dc.lft.to/lastmile_qr_scan"}, "name": "d091fcac9f5b37e3a33230ac953ae631", "is_reserved": 0}, {"is_disabled": 0, "fusion_lon": 0.0, "fusion_lat": 0.0, "lat": 38.90028383333333, "type": "electric_scooter", "lon": -77.01195133333333, "bike_id": "3514c7f0cab169474b139d88856fc02b", "rental_uris": {"android": "https://dc.lft.to/lastmile_qr_scan", "ios": "https://dc.lft.to/lastmile_qr_scan"}, "name": "3514c7f0cab169474b139d88856fc02b", "is_reserved": 0}, {"is_disabled": 0, "fusion_lon": 0.0, "fusion_lat": 0.0, "lat": 38.89196, "type": "electric_scooter", "lon": -77.0224165, "bike_id": "a9d5d7f483f721e23c65529dead725e3", "rental_uris": {"android": "https://dc.lft.to/lastmile_qr_scan", "ios": "https://dc.lft.to/lastmile_qr_scan"}, "name": "a9d5d7f483f721e23c65529dead725e3", "is_reserved": 0}, {"is_disabled": 0, "fusion_lon": 0.0, "fusion_lat": 0.0, "lat": 38.90578633333333, "type": "electric_scooter", "lon": -77.04334933333334, "bike_id": "2b4b3775174b627177c82d66ddc635d5", "rental_uris": {"android": "https://dc.lft.to/lastmile_qr_scan", "ios": "https://dc.lft.to/lastmile_qr_scan"}, "name": "2b4b3775174b627177c82d66ddc635d5", "is_reserved": 0}, {"is_disabled": 0, "fusion_lon": 0.0, "fusion_lat": 0.0, "lat": 38.911916833333336, "type": "electric_scooter", "lon": -77.04166133333334, "bike_id": "22fb6621b6cc27c44f4007e3d7d89cdc", "rental_uris": {"android": "https://dc.lft.to/lastmile_qr_scan", "ios": "https://dc.lft.to/lastmile_qr_scan"}, "name": "22fb6621b6cc27c44f4007e3d7d89cdc", "is_reserved": 0}, {"is_disabled": 0, "fusion_lon": 0.0, "fusion_lat": 0.0, "lat": 38.908871166666664, "type": "electric_scooter", "lon": -77.0413455, "bike_id": "b230c81f0bb37f0712708ec3a76c079e", "rental_uris": {"android": "https://dc.lft.to/lastmile_qr_scan", "ios": "https://dc.lft.to/lastmile_qr_scan"}, "name": "b230c81f0bb37f0712708ec3a76c079e", "is_reserved": 0}, {"is_disabled": 0, "fusion_lon": 0.0, "fusion_lat": 0.0, "lat": 38.894030666666666, "type": "electric_scooter", "lon": -76.94993983333333, "bike_id": "a76cae54c0e1b8d931b4cfb23172ea6f", "rental_uris": {"android": "https://dc.lft.to/lastmile_qr_scan", "ios": "https://dc.lft.to/lastmile_qr_scan"}, "name": "a76cae54c0e1b8d931b4cfb23172ea6f", "is_reserved": 0}, {"is_disabled": 0, "fusion_lon": 0.0, "fusion_lat": 0.0, "lat": 38.91199816666666, "type": "electric_scooter", "lon": -77.03709416666666, "bike_id": "02f845fc2c5fa1c5bf64f20631cea359", "rental_uris": {"android": "https://dc.lft.to/lastmile_qr_scan", "ios": "https://dc.lft.to/lastmile_qr_scan"}, "name": "02f845fc2c5fa1c5bf64f20631cea359", "is_reserved": 0}, {"is_disabled": 0, "fusion_lon": 0.0, "fusion_lat": 0.0, "lat": 38.91566, "type": "electric_scooter", "lon": -77.0324635, "bike_id": "bdff75cd60db8ef3c8cb3bf967d8c6f9", "rental_uris": {"android": "https://dc.lft.to/lastmile_qr_scan", "ios": "https://dc.lft.to/lastmile_qr_scan"}, "name": "bdff75cd60db8ef3c8cb3bf967d8c6f9", "is_reserved": 0}, {"is_disabled": 0, "fusion_lon": 0.0, "fusion_lat": 0.0, "lat": 38.89531133333333, "type": "electric_scooter", "lon": -77.02693016666667, "bike_id": "879dc27353a8de78e3db55318e86fd51", "rental_uris": {"android": "https://dc.lft.to/lastmile_qr_scan", "ios": "https://dc.lft.to/lastmile_qr_scan"}, "name": "879dc27353a8de78e3db55318e86fd51", "is_reserved": 0}, {"is_disabled": 0, "fusion_lon": 0.0, "fusion_lat": 0.0, "lat": 38.82873283333333, "type": "electric_bike", "lon": -77.112211, "bike_id": "8d47fc495f36ecc4271870658ab3de3d", "rental_uris": {"android": "https://dc.lft.to/lastmile_qr_scan", "ios": "https://dc.lft.to/lastmile_qr_scan"}, "name": "8d47fc495f36ecc4271870658ab3de3d", "is_reserved": 0}, {"is_disabled": 0, "fusion_lon": 0.0, "fusion_lat": 0.0, "lat": 38.918185333333334, "type": "electric_scooter", "lon": -77.04177466666667, "bike_id": "1649af1effff573af19e6be1749b9417", "rental_uris": {"android": "https://dc.lft.to/lastmile_qr_scan", "ios": "https://dc.lft.to/lastmile_qr_scan"}, "name": "1649af1effff573af19e6be1749b9417", "is_reserved": 0}, {"is_disabled": 0, "fusion_lon": 0.0, "fusion_lat": 0.0, "lat": 38.913416, "type": "electric_scooter", "lon": -77.04329266666667, "bike_id": "3a37973fa0fa4a5c8f08eb3678675d96", "rental_uris": {"android": "https://dc.lft.to/lastmile_qr_scan", "ios": "https://dc.lft.to/lastmile_qr_scan"}, "name": "3a37973fa0fa4a5c8f08eb3678675d96", "is_reserved": 0}, {"is_disabled": 0, "fusion_lon": 0.0, "fusion_lat": 0.0, "lat": 38.916132, "type": "electric_scooter", "lon": -77.04352066666667, "bike_id": "eb77fc453709bd169783d2626a770f42", "rental_uris": {"android": "https://dc.lft.to/lastmile_qr_scan", "ios": "https://dc.lft.to/lastmile_qr_scan"}, "name": "eb77fc453709bd169783d2626a770f42", "is_reserved": 0}, {"is_disabled": 0, "fusion_lon": 0.0, "fusion_lat": 0.0, "lat": 38.92481016666667, "type": "electric_scooter", "lon": -77.0271345, "bike_id": "b53a9a7db22c85c509b495ebdc60e384", "rental_uris": {"android": "https://dc.lft.to/lastmile_qr_scan", "ios": "https://dc.lft.to/lastmile_qr_scan"}, "name": "b53a9a7db22c85c509b495ebdc60e384", "is_reserved": 0}, {"is_disabled": 0, "fusion_lon": 0.0, "fusion_lat": 0.0, "lat": 38.9170455, "type": "electric_scooter", "lon": -77.02839316666666, "bike_id": "9867ba26b73b0d96e5669d94fadabeed", "rental_uris": {"android": "https://dc.lft.to/lastmile_qr_scan", "ios": "https://dc.lft.to/lastmile_qr_scan"}, "name": "9867ba26b73b0d96e5669d94fadabeed", "is_reserved": 0}, {"is_disabled": 0, "fusion_lon": 0.0, "fusion_lat": 0.0, "lat": 39.00015666666667, "type": "electric_bike", "lon": -76.87283283333333, "bike_id": "af843579c207f715865bfaf91d09a148", "rental_uris": {"android": "https://dc.lft.to/lastmile_qr_scan", "ios": "https://dc.lft.to/lastmile_qr_scan"}, "name": "af843579c207f715865bfaf91d09a148", "is_reserved": 0}, {"is_disabled": 0, "fusion_lon": 0.0, "fusion_lat": 0.0, "lat": 38.91565933333333, "type": "electric_scooter", "lon": -77.03236433333333, "bike_id": "0025f14f559f0866ae7a259118aba1d8", "rental_uris": {"android": "https://dc.lft.to/lastmile_qr_scan", "ios": "https://dc.lft.to/lastmile_qr_scan"}, "name": "0025f14f559f0866ae7a259118aba1d8", "is_reserved": 0}, {"is_disabled": 0, "fusion_lon": 0.0, "fusion_lat": 0.0, "lat": 38.9027845, "type": "electric_scooter", "lon": -77.053337, "bike_id": "3af71ce8b7df5585d4c0c9d07a18da4c", "rental_uris": {"android": "https://dc.lft.to/lastmile_qr_scan", "ios": "https://dc.lft.to/lastmile_qr_scan"}, "name": "3af71ce8b7df5585d4c0c9d07a18da4c", "is_reserved": 0}, {"is_disabled": 0, "fusion_lon": 0.0, "fusion_lat": 0.0, "lat": 38.91817066666667, "type": "electric_scooter", "lon": -77.0417735, "bike_id": "6464e69e0f41935a30ca979bc183ca33", "rental_uris": {"android": "https://dc.lft.to/lastmile_qr_scan", "ios": "https://dc.lft.to/lastmile_qr_scan"}, "name": "6464e69e0f41935a30ca979bc183ca33", "is_reserved": 0}, {"is_disabled": 0, "fusion_lon": 0.0, "fusion_lat": 0.0, "lat": 38.897229333333335, "type": "electric_scooter", "lon": -77.02164016666667, "bike_id": "cbb3fb1550529f6baa70b2fe3a17eee7", "rental_uris": {"android": "https://dc.lft.to/lastmile_qr_scan", "ios": "https://dc.lft.to/lastmile_qr_scan"}, "name": "cbb3fb1550529f6baa70b2fe3a17eee7", "is_reserved": 0}, {"is_disabled": 0, "fusion_lon": 0.0, "fusion_lat": 0.0, "lat": 38.89669766666667, "type": "electric_scooter", "lon": -77.01176916666667, "bike_id": "8974a3287963d5c77cc84a797b385c72", "rental_uris": {"android": "https://dc.lft.to/lastmile_qr_scan", "ios": "https://dc.lft.to/lastmile_qr_scan"}, "name": "8974a3287963d5c77cc84a797b385c72", "is_reserved": 0}, {"is_disabled": 0, "fusion_lon": 0.0, "fusion_lat": 0.0, "lat": 38.9247225, "type": "electric_scooter", "lon": -77.03533433333334, "bike_id": "d05b90e91ca91f772a038335af993c08", "rental_uris": {"android": "https://dc.lft.to/lastmile_qr_scan", "ios": "https://dc.lft.to/lastmile_qr_scan"}, "name": "d05b90e91ca91f772a038335af993c08", "is_reserved": 0}, {"is_disabled": 0, "fusion_lon": 0.0, "fusion_lat": 0.0, "lat": 38.884880333333335, "type": "electric_scooter", "lon": -76.92963883333333, "bike_id": "6c9f7296602cd6422713f95f45d6ca66", "rental_uris": {"android": "https://dc.lft.to/lastmile_qr_scan", "ios": "https://dc.lft.to/lastmile_qr_scan"}, "name": "6c9f7296602cd6422713f95f45d6ca66", "is_reserved": 0}, {"is_disabled": 0, "fusion_lon": 0.0, "fusion_lat": 0.0, "lat": 38.907776, "type": "electric_scooter", "lon": -77.032029, "bike_id": "2a282e737585e663267e10e030571f03", "rental_uris": {"android": "https://dc.lft.to/lastmile_qr_scan", "ios": "https://dc.lft.to/lastmile_qr_scan"}, "name": "2a282e737585e663267e10e030571f03", "is_reserved": 0}, {"is_disabled": 0, "fusion_lon": 0.0, "fusion_lat": 0.0, "lat": 38.90156916666667, "type": "electric_scooter", "lon": -77.03176283333333, "bike_id": "eeb013f73d62cb8226055386730076e5", "rental_uris": {"android": "https://dc.lft.to/lastmile_qr_scan", "ios": "https://dc.lft.to/lastmile_qr_scan"}, "name": "eeb013f73d62cb8226055386730076e5", "is_reserved": 0}, {"is_disabled": 0, "fusion_lon": 0.0, "fusion_lat": 0.0, "lat": 38.84517833333334, "type": "electric_bike", "lon": -77.07798666666666, "bike_id": "4f93cbd2e41c5431f48eb1dbc42eec02", "rental_uris": {"android": "https://dc.lft.to/lastmile_qr_scan", "ios": "https://dc.lft.to/lastmile_qr_scan"}, "name": "4f93cbd2e41c5431f48eb1dbc42eec02", "is_reserved": 0}, {"is_disabled": 0, "fusion_lon": 0.0, "fusion_lat": 0.0, "lat": 38.916806333333334, "type": "electric_scooter", "lon": -77.02719583333334, "bike_id": "92d39300949b3b47f58d2dd5eea5f3f7", "rental_uris": {"android": "https://dc.lft.to/lastmile_qr_scan", "ios": "https://dc.lft.to/lastmile_qr_scan"}, "name": "92d39300949b3b47f58d2dd5eea5f3f7", "is_reserved": 0}, {"is_disabled": 0, "fusion_lon": 0.0, "fusion_lat": 0.0, "lat": 38.90685666666667, "type": "electric_scooter", "lon": -77.026925, "bike_id": "0c6836c03ab7138eac2022d92c935f6b", "rental_uris": {"android": "https://dc.lft.to/lastmile_qr_scan", "ios": "https://dc.lft.to/lastmile_qr_scan"}, "name": "0c6836c03ab7138eac2022d92c935f6b", "is_reserved": 0}, {"is_disabled": 0, "fusion_lon": 0.0, "fusion_lat": 0.0, "lat": 38.92051266666667, "type": "electric_scooter", "lon": -77.02611866666666, "bike_id": "7edd52db6efa4e7cb5646c11c4591d0b", "rental_uris": {"android": "https://dc.lft.to/lastmile_qr_scan", "ios": "https://dc.lft.to/lastmile_qr_scan"}, "name": "7edd52db6efa4e7cb5646c11c4591d0b", "is_reserved": 0}, {"is_disabled": 0, "fusion_lon": 0.0, "fusion_lat": 0.0, "lat": 38.90578133333333, "type": "electric_scooter", "lon": -77.03347616666667, "bike_id": "dcffef76e5993ef09f4e26a2f76f95b3", "rental_uris": {"android": "https://dc.lft.to/lastmile_qr_scan", "ios": "https://dc.lft.to/lastmile_qr_scan"}, "name": "dcffef76e5993ef09f4e26a2f76f95b3", "is_reserved": 0},