{"data": {"bikes": [{"rental_uris": {"android": "https://dc.lft.to/lastmile_qr_scan", "ios": "https://dc.lft.to/lastmile_qr_scan"}, "type": "electric_scooter", "lon": -77.02279583333333, "name": "96d145cf940cce1a87953b0b56e09b50", "bike_id": "96d145cf940cce1a87953b0b56e09b50", "fusion_lat": 0.0, "is_reserved": 0, "lat": 38.909590333333334, "fusion_lon": 0.0, "is_disabled": 0}, {"rental_uris": {"android": "https://dc.lft.to/lastmile_qr_scan", "ios": "https://dc.lft.to/lastmile_qr_scan"}, "type": "electric_scooter", "lon": -77.04345866666667, "name": "1d01a2de3868a57a5688d2fc648dae2a", "bike_id": "1d01a2de3868a57a5688d2fc648dae2a", "fusion_lat": 0.0, "is_reserved": 0, "lat": 38.9086055, "fusion_lon": 0.0, "is_disabled": 0}, {"rental_uris": {"android": "https://dc.lft.to/lastmile_qr_scan", "ios": "https://dc.lft.to/lastmile_qr_scan"}, "type": "electric_scooter", "lon": -76.999415, "name": "a3c503dd92b4ec620865c04c90dc257f", "bike_id": "a3c503dd92b4ec620865c04c90dc257f", "fusion_lat": 0.0, "is_reserved": 0, "lat": 38.843123, "fusion_lon": 0.0, "is_disabled": 0}, {"rental_uris": {"android": "https://dc.lft.to/lastmile_qr_scan", "ios": "https://dc.lft.to/lastmile_qr_scan"}, "type": "electric_scooter", "lon": -77.01996166666666, "name": "fa8fc4dd85cefdf25b15bd04bc705184", "bike_id": "fa8fc4dd85cefdf25b15bd04bc705184", "fusion_lat": 0.0, "is_reserved": 0, "lat": 38.966335, "fusion_lon": 0.0, "is_disabled": 0}, {"rental_uris": {"android": "https://dc.lft.to/lastmile_qr_scan", "ios": "https://dc.lft.to/lastmile_qr_scan"}, "type": "electric_scooter", "lon": -77.0464685, "name": "1b44432cb3cd97c2c1dc4793cc78bb80", "bike_id": "1b44432cb3cd97c2c1dc4793cc78bb80", "fusion_lat": 0.0, "is_reserved": 0, "lat": 38.900220833333336, "fusion_lon": 0.0, "is_disabled": 0}, {"rental_uris": {"android": "https://dc.lft.to/lastmile_qr_scan", "ios": "https://dc.lft.to/lastmile_qr_scan"}, "type": "electric_scooter", "lon": -77.04498833333334, "name": "ee088e0457f2965c938cff3415d3578e", "bike_id": "ee088e0457f2965c938cff3415d3578e", "fusion_lat": 0.0, "is_reserved": 0, "lat": 38.918526666666665, "fusion_lon": 0.0, "is_disabled": 0}, {"rental_uris": {"android": "https://dc.lft.to/lastmile_qr_scan", "ios": "https://dc.lft.to/lastmile_qr_scan"}, "type": "electric_scooter", "lon": -77.03449916666666, "name": "daa3e2c6548344ebb3c44a9a34f2cbbc", "bike_id": "daa3e2c6548344ebb3c44a9a34f2cbbc", "fusion_lat": 0.0, "is_reserved": 0, "lat": 38.9073345, "fusion_lon": 0.0, "is_disabled": 0}, {"rental_uris": {"android": "https://dc.lft.to/lastmile_qr_scan", "ios": "https://dc.lft.to/lastmile_qr_scan"}, "type": "electric_bike", "lon": -76.9580965, "name": "a752f99722da4ecbb930b4d0c6767756", "bike_id": "a752f99722da4ecbb930b4d0c6767756", "fusion_lat": 0.0, "is_reserved": 0, "lat": 38.9804565, "fusion_lon": 0.0, "is_disabled": 0}, {"rental_uris": {"android": "https://dc.lft.to/lastmile_qr_scan", "ios": "https://dc.lft.to/lastmile_qr_scan"}, "type": "electric_scooter", "lon": -76.99363533333333, "name": "618f8650655b59c4618c1912e9452e18", "bike_id": "618f8650655b59c4618c1912e9452e18", "fusion_lat": 0.0, "is_reserved": 0, "lat": 38.928337166666665, "fusion_lon": 0.0, "is_disabled": 0}, {"rental_uris": {"android": "https://dc.lft.to/lastmile_qr_scan", "ios": "https://dc.lft.to/lastmile_qr_scan"}, "type": "electric_scooter", "lon": -76.994035, "name": "76355c99b44744289162ef7bf3d6e6a7", "bike_id": "76355c99b44744289162ef7bf3d6e6a7", "fusion_lat": 0.0, "is_reserved": 0, "lat": 38.92260266666667, "fusion_lon": 0.0, "is_disabled": 0}, {"rental_uris": {"android": "https://dc.lft.to/lastmile_qr_scan", "ios": "https://dc.lft.to/lastmile_qr_scan"}, "type": "electric_scooter", "lon": -77.0588095, "name": "05f01c6a9c1472924cc3298a0215dd67", "bike_id": "05f01c6a9c1472924cc3298a0215dd67", "fusion_lat": 0.0, "is_reserved": 0, "lat": 38.93631833333333, "fusion_lon": 0.0, "is_disabled": 0}, {"rental_uris": {"android": "https://dc.lft.to/lastmile_qr_scan", "ios": "https://dc.lft.to/lastmile_qr_scan"}, "type": "electric_scooter", "lon": -76.99082066666666, "name": "7bf1c8ed82ee0493810ab37ea06d871e", "bike_id": "7bf1c8ed82ee0493810ab37ea06d871e", "fusion_lat": 0.0, "is_reserved": 0, "lat": 38.860490666666664, "fusion_lon": 0.0, "is_disabled": 0}, {"rental_uris": {"android": "https://dc.lft.to/lastmile_qr_scan", "ios": "https://dc.lft.to/lastmile_qr_scan"}, "type": "electric_scooter", "lon": -76.99006416666667, "name": "700391a9ec1b484f989839840890361e", "bike_id": "700391a9ec1b484f989839840890361e", "fusion_lat": 0.0, "is_reserved": 0, "lat": 38.86505666666667, "fusion_lon": 0.0, "is_disabled": 0}, {"rental_uris": {"android": "https://dc.lft.to/lastmile_qr_scan", "ios": "https://dc.lft.to/lastmile_qr_scan"}, "type": "electric_scooter", "lon": -77.031866, "name": "d831eda1124ab98c001fc318a48936ba", "bike_id": "d831eda1124ab98c001fc318a48936ba", "fusion_lat": 0.0, "is_reserved": 0, "lat": 38.92974, "fusion_lon": 0.0, "is_disabled": 0}, {"rental_uris": {"android": "https://dc.lft.to/lastmile_qr_scan", "ios": "https://dc.lft.to/lastmile_qr_scan"}, "type": "electric_scooter", "lon": -77.022184, "name": "562e328bb93bd77adc7c1c204cef7337", "bike_id": "562e328bb93bd77adc7c1c204cef7337", "fusion_lat": 0.0, "is_reserved": 0, "lat": 38.912699833333335, "fusion_lon": 0.0, "is_disabled": 0}, {"rental_uris": {"android": "https://dc.lft.to/lastmile_qr_scan", "ios": "https://dc.lft.to/lastmile_qr_scan"}, "type": "electric_scooter", "lon": -77.032124, "name": "72d140b3ac5a64fe3cebf33bd257044d", "bike_id": "72d140b3ac5a64fe3cebf33bd257044d", "fusion_lat": 0.0, "is_reserved": 0, "lat": 38.9169055, "fusion_lon": 0.0, "is_disabled": 0}, {"rental_uris": {"android": "https://dc.lft.to/lastmile_qr_scan", "ios": "https://dc.lft.to/lastmile_qr_scan"}, "type": "electric_scooter", "lon": -77.03453066666667, "name": "60c4673f6fd9e6610d21ea18e8a3bd67", "bike_id": "60c4673f6fd9e6610d21ea18e8a3bd67", "fusion_lat": 0.0, "is_reserved": 0, "lat": 38.91818466666667, "fusion_lon": 0.0, "is_disabled": 0}, {"rental_uris": {"android": "https://dc.lft.to/lastmile_qr_scan", "ios": "https://dc.lft.to/lastmile_qr_scan"}, "type": "electric_scooter", "lon": -77.01121416666666, "name": "713f44e30ea9a6a2e31a4160a1b3048d", "bike_id": "713f44e30ea9a6a2e31a4160a1b3048d", "fusion_lat": 0.0, "is_reserved": 0, "lat": 38.920236833333334, "fusion_lon": 0.0, "is_disabled": 0}, {"rental_uris": {"android": "https://dc.lft.to/lastmile_qr_scan", "ios": "https://dc.lft.to/lastmile_qr_scan"}, "type": "electric_scooter", "lon": -77.0386885, "name": "5a13bff360bb145b666deae6c5de2782", "bike_id": "5a13bff360bb145b666deae6c5de2782", "fusion_lat": 0.0, "is_reserved": 0, "lat": 38.90970733333333, "fusion_lon": 0.0, "is_disabled": 0}, {"rental_uris": {"android": "https://dc.lft.to/lastmile_qr_scan", "ios": "https://dc.lft.to/lastmile_qr_scan"}, "type": "electric_scooter", "lon": -77.021113, "name": "b955bc6565986eb5596d308cd7b6e082", "bike_id": "b955bc6565986eb5596d308cd7b6e082", "fusion_lat": 0.0, "is_reserved": 0, "lat": 38.94097683333333, "fusion_lon": 0.0, "is_disabled": 0}, {"rental_uris": {"android": "https://dc.lft.to/lastmile_qr_scan", "ios": "https://dc.lft.to/lastmile_qr_scan"}, "type": "electric_scooter", "lon": -77.02088933333333, "name": "c7486d4d93c89bd5dde488354efca319", "bike_id": "c7486d4d93c89bd5dde488354efca319", "fusion_lat": 0.0, "is_reserved": 0, "lat": 38.92909083333333, "fusion_lon": 0.0, "is_disabled": 0}, {"rental_uris": {"android": "https://dc.lft.to/lastmile_qr_scan", "ios": "https://dc.lft.to/lastmile_qr_scan"}, "type": "electric_scooter", "lon": -77.04049716666667, "name": "ac93e92c53709f714ec328867444285b", "bike_id": "ac93e92c53709f714ec328867444285b", "fusion_lat": 0.0, "is_reserved": 0, "lat": 38.905772166666665, "fusion_lon": 0.0, "is_disabled": 0}, {"rental_uris": {"android": "https://dc.lft.to/lastmile_qr_scan", "ios": "https://dc.lft.to/lastmile_qr_scan"}, "type": "electric_scooter", "lon": -77.0652205, "name": "64b588e3a676c89c1a96df396865393d", "bike_id": "64b588e3a676c89c1a96df396865393d", "fusion_lat": 0.0, "is_reserved": 0, "lat": 38.9052505, "fusion_lon": 0.0, "is_disabled": 0}, {"rental_uris": {"android": "https://dc.lft.to/lastmile_qr_scan", "ios": "https://dc.lft.to/lastmile_qr_scan"}, "type": "electric_scooter", "lon": -76.999513, "name": "cafce6aa3ebaf280b13a2cb31b4573c0", "bike_id": "cafce6aa3ebaf280b13a2cb31b4573c0", "fusion_lat": 0.0, "is_reserved": 0, "lat": 38.8428855, "fusion_lon": 0.0, "is_disabled": 0}, {"rental_uris": {"android": "https://dc.lft.to/lastmile_qr_scan", "ios": "https://dc.lft.to/lastmile_qr_scan"}, "type": "electric_scooter", "lon": -77.02696333333333, "name": "aa50e92fdf798b062c72d6046e32a5fe", "bike_id": "aa50e92fdf798b062c72d6046e32a5fe", "fusion_lat": 0.0, "is_reserved": 0, "lat": 38.908417166666666, "fusion_lon": 0.0, "is_disabled": 0}, {"rental_uris": {"android": "https://dc.lft.to/lastmile_qr_scan", "ios": "https://dc.lft.to/lastmile_qr_scan"}, "type": "electric_scooter", "lon": -77.01851416666666, "name": "9169ec5fe8b83ede310a717d11c59a1a", "bike_id": "9169ec5fe8b83ede310a717d11c59a1a", "fusion_lat": 0.0, "is_reserved": 0, "lat": 38.87712616666666, "fusion_lon": 0.0, "is_disabled": 0}, {"rental_uris": {"android": "https://dc.lft.to/lastmile_qr_scan", "ios": "https://dc.lft.to/lastmile_qr_scan"}, "type": "electric_scooter", "lon": -77.00643366666667, "name": "c109e4598f1f74dbc2735bdbea4c7718", "bike_id": "c109e4598f1f74dbc2735bdbea4c7718", "fusion_lat": 0.0, "is_reserved": 0, "lat": 38.88337666666666, "fusion_lon": 0.0, "is_disabled": 0}, {"rental_uris": {"android": "https://dc.lft.to/lastmile_qr_scan", "ios": "https://dc.lft.to/lastmile_qr_scan"}, "type": "electric_scooter", "lon": -77.01205116666667, "name": "8a127e573da578fbcc0211008377617d", "bike_id": "8a127e573da578fbcc0211008377617d", "fusion_lat": 0.0, "is_reserved": 0, "lat": 38.87081083333333, "fusion_lon": 0.0, "is_disabled": 0}, {"rental_uris": {"android": "https://dc.lft.to/lastmile_qr_scan", "ios": "https://dc.lft.to/lastmile_qr_scan"}, "type": "electric_scooter", "lon": -77.0342925, "name": "28c08b5db900482cfc841f9145d38404", "bike_id": "28c08b5db900482cfc841f9145d38404", "fusion_lat": 0.0, "is_reserved": 0, "lat": 38.90564466666667, "fusion_lon": 0.0, "is_disabled": 0}, {"rental_uris": {"android": "https://dc.lft.to/lastmile_qr_scan", "ios": "https://dc.lft.to/lastmile_qr_scan"}, "type": "electric_scooter", "lon": -77.01861516666666, "name": "d0b46caf21eae2fbad3d1df17b27dd8d", "bike_id": "d0b46caf21eae2fbad3d1df17b27dd8d", "fusion_lat": 0.0, "is_reserved": 0, "lat": 38.949181, "fusion_lon": 0.0, "is_disabled": 0}, {"rental_uris": {"android": "https://dc.lft.to/lastmile_qr_scan", "ios": "https://dc.lft.to/lastmile_qr_scan"}, "type": "electric_scooter", "lon": -77.02830616666667, "name": "0dbb82b2f0aed079d97752dc5ae680b3", "bike_id": "0dbb82b2f0aed079d97752dc5ae680b3", "fusion_lat": 0.0, "is_reserved": 0, "lat": 38.93286333333333, "fusion_lon": 0.0, "is_disabled": 0}, {"rental_uris": {"android": "https://dc.lft.to/lastmile_qr_scan", "ios": "https://dc.lft.to/lastmile_qr_scan"}, "type": "electric_scooter", "lon": -77.05597366666667, "name": "17740e62587c63454304ead81375470d", "bike_id": "17740e62587c63454304ead81375470d", "fusion_lat": 0.0, "is_reserved": 0, "lat": 38.93694433333334, "fusion_lon": 0.0, "is_disabled": 0}, {"rental_uris": {"android": "https://dc.lft.to/lastmile_qr_scan", "ios": "https://dc.lft.to/lastmile_qr_scan"}, "type": "electric_scooter", "lon": -77.03052616666666, "name": "58489cc48329e4257057be0ac378c999", "bike_id": "58489cc48329e4257057be0ac378c999", "fusion_lat": 0.0, "is_reserved": 0, "lat": 38.909754166666666, "fusion_lon": 0.0, "is_disabled": 0}, {"rental_uris": {"android": "https://dc.lft.to/lastmile_qr_scan", "ios": "https://dc.lft.to/lastmile_qr_scan"}, "type": "electric_scooter", "lon": -77.0473725, "name": "959b11188c2deb49c8825aba6e0dbe01", "bike_id": "959b11188c2deb49c8825aba6e0dbe01", "fusion_lat": 0.0, "is_reserved": 0, "lat": 38.90513966666666, "fusion_lon": 0.0, "is_disabled": 0}, {"rental_uris": {"android": "https://dc.lft.to/lastmile_qr_scan", "ios": "https://dc.lft.to/lastmile_qr_scan"}, "type": "electric_scooter", "lon": -77.030222, "name": "df8fcd4d803aaa51ecb5e61c74bf3065", "bike_id": "df8fcd4d803aaa51ecb5e61c74bf3065", "fusion_lat": 0.0, "is_reserved": 0, "lat": 38.923695333333335, "fusion_lon": 0.0, "is_disabled": 0}, {"rental_uris": {"android": "https://dc.lft.to/lastmile_qr_scan", "ios": "https://dc.lft.to/lastmile_qr_scan"}, "type": "electric_scooter", "lon": -77.02167883333334, "name": "6c4a545978852ce0a3a5f2a4a287fbc4", "bike_id": "6c4a545978852ce0a3a5f2a4a287fbc4", "fusion_lat": 0.0, "is_reserved": 0, "lat": 38.88742883333333, "fusion_lon": 0.0, "is_disabled": 0}, {"rental_uris": {"android": "https://dc.lft.to/lastmile_qr_scan", "ios": "https://dc.lft.to/lastmile_qr_scan"}, "type": "electric_scooter", "lon": -77.052546, "name": "b68b8ce0a1fb79bfa7a9306c21aba493", "bike_id": "b68b8ce0a1fb79bfa7a9306c21aba493", "fusion_lat": 0.0, "is_reserved": 0, "lat": 38.923715, "fusion_lon": 0.0, "is_disabled": 0}, {"rental_uris": {"android": "https://dc.lft.to/lastmile_qr_scan", "ios": "https://dc.lft.to/lastmile_qr_scan"}, "type": "electric_scooter", "lon": -77.04991316666667, "name": "2b7825c0698a2c02417e466e12d927ab", "bike_id": "2b7825c0698a2c02417e466e12d927ab", "fusion_lat": 0.0, "is_reserved": 0, "lat": 38.905394666666666, "fusion_lon": 0.0, "is_disabled": 0}, {"rental_uris": {"android": "https://dc.lft.to/lastmile_qr_scan", "ios": "https://dc.lft.to/lastmile_qr_scan"}, "type": "electric_scooter", "lon": -77.03283333333333, "name": "f8be4cf0c358e208460b6388af1e0ea8", "bike_id": "f8be4cf0c358e208460b6388af1e0ea8", "fusion_lat": 0.0, "is_reserved": 0, "lat": 38.902486333333336, "fusion_lon": 0.0, "is_disabled": 0}, {"rental_uris": {"android": "https://dc.lft.to/lastmile_qr_scan", "ios": "https://dc.lft.to/lastmile_qr_scan"}, "type": "electric_scooter", "lon": -77.040526, "name": "9992cf20af1ec21c91d9e418b13a5e37", "bike_id": "9992cf20af1ec21c91d9e418b13a5e37", "fusion_lat": 0.0, "is_reserved": 0, "lat": 38.926454166666666, "fusion_lon": 0.0, "is_disabled": 0}, {"rental_uris": {"android": "https://dc.lft.to/lastmile_qr_scan", "ios": "https://dc.lft.to/lastmile_qr_scan"}, "type": "electric_scooter", "lon": -77.00832516666667, "name": "0376a5fdcab7b22a9109bf282f4749e8", "bike_id": "0376a5fdcab7b22a9109bf282f4749e8", "fusion_lat": 0.0, "is_reserved": 0, "lat": 38.91547283333333, "fusion_lon": 0.0, "is_disabled": 0}, {"rental_uris": {"android": "https://dc.lft.to/lastmile_qr_scan", "ios": "https://dc.lft.to/lastmile_qr_scan"}, "type": "electric_bike", "lon": -76.90536633333333, "name": "3b727bb9abd76f836675198350500935", "bike_id": "3b727bb9abd76f836675198350500935", "fusion_lat": 0.0, "is_reserved": 0, "lat": 38.89736883333333, "fusion_lon": 0.0, "is_disabled": 0}, {"rental_uris": {"android": "https://dc.lft.to/lastmile_qr_scan", "ios": "https://dc.lft.to/lastmile_qr_scan"}, "type": "electric_scooter", "lon": -77.00741716666667, "name": "9677231d778715f8da2f3a5814466a34", "bike_id": "9677231d778715f8da2f3a5814466a34", "fusion_lat": 0.0, "is_reserved": 0, "lat": 38.879068833333335, "fusion_lon": 0.0, "is_disabled": 0}, {"rental_uris": {"android": "https://dc.lft.to/lastmile_qr_scan", "ios": "https://dc.lft.to/lastmile_qr_scan"}, "type": "electric_scooter", "lon": -77.04802316666667, "name": "a7d46cac4ae6db109ffa7c115cd8f3e6", "bike_id": "a7d46cac4ae6db109ffa7c115cd8f3e6", "fusion_lat": 0.0, "is_reserved": 0, "lat": 38.9190485, "fusion_lon": 0.0, "is_disabled": 0}, {"rental_uris": {"android": "https://dc.lft.to/lastmile_qr_scan", "ios": "https://dc.lft.to/lastmile_qr_scan"}, "type": "electric_scooter", "lon": -77.03875933333333, "name": "0c094d8b26bb1b98e7e609c21744c421", "bike_id": "0c094d8b26bb1b98e7e609c21744c421", "fusion_lat": 0.0, "is_reserved": 0, "lat": 38.909693833333336, "fusion_lon": 0.0, "is_disabled": 0}, {"rental_uris": {"android": "https://dc.lft.to/lastmile_qr_scan", "ios": "https://dc.lft.to/lastmile_qr_scan"}, "type": "electric_scooter", "lon": -77.02713733333333, "name": "8788cc6b21de579f2b4afa671fcdc934", "bike_id": "8788cc6b21de579f2b4afa671fcdc934", "fusion_lat": 0.0, "is_reserved": 0, "lat": 38.9246445, "fusion_lon": 0.0, "is_disabled": 0}, {"rental_uris": {"android": "https://dc.lft.to/lastmile_qr_scan", "ios": "https://dc.lft.to/lastmile_qr_scan"}, "type": "electric_scooter", "lon": -77.03048533333333, "name": "0c282253e4ebb14b84272a84cfb2e861", "bike_id": "0c282253e4ebb14b84272a84cfb2e861", "fusion_lat": 0.0, "is_reserved": 0, "lat": 38.8840795, "fusion_lon": 0.0, "is_disabled": 0}, {"rental_uris": {"android": "https://dc.lft.to/lastmile_qr_scan", "ios": "https://dc.lft.to/lastmile_qr_scan"}, "type": "electric_scooter", "lon": -77.05459733333333, "name": "c5685237baba86e6d7ad3e29a6b8c963", "bike_id": "c5685237baba86e6d7ad3e29a6b8c963", "fusion_lat": 0.0, "is_reserved": 0, "lat": 38.9289845, "fusion_lon": 0.0, "is_disabled": 0}, {"rental_uris": {"android": "https://dc.lft.to/lastmile_qr_scan", "ios": "https://dc.lft.to/lastmile_qr_scan"}, "type": "electric_scooter", "lon": -76.97184083333333, "name": "85e4f371a96e4f4ad0aa48f9e724fff3", "bike_id": "85e4f371a96e4f4ad0aa48f9e724fff3", "fusion_lat": 0.0, "is_reserved": 0, "lat": 38.91262416666667, "fusion_lon": 0.0, "is_disabled": 0}, {"rental_uris": {"android": "https://dc.lft.to/lastmile_qr_scan", "ios": "https://dc.lft.to/lastmile_qr_scan"}, "type": "electric_scooter", "lon": -77.01216416666666, "name": "1d1504d23a864a12f958dd93270a025f", "bike_id": "1d1504d23a864a12f958dd93270a025f", "fusion_lat": 0.0, "is_reserved": 0, "lat": 38.908370833333336, "fusion_lon": 0.0, "is_disabled": 0}, {"rental_uris": {"android": "https://dc.lft.to/lastmile_qr_scan", "ios": "https://dc.lft.to/lastmile_qr_scan"}, "type": "electric_scooter", "lon": -77.024197, "name": "dee89d77688cbbedc834cba38c7a52f0", "bike_id": "dee89d77688cbbedc834cba38c7a52f0", "fusion_lat": 0.0, "is_reserved": 0, "lat": 38.883542166666665, "fusion_lon": 0.0, "is_disabled": 0}, {"rental_uris": {"android": "https://dc.lft.to/lastmile_qr_scan", "ios": "https://dc.lft.to/lastmile_qr_scan"}, "type": "electric_scooter", "lon": -77.04178416666667, "name": "44ea83189d83095c2ecfd1e30ad35442", "bike_id": "44ea83189d83095c2ecfd1e30ad35442", "fusion_lat": 0.0, "is_reserved": 0, "lat": 38.915882833333335, "fusion_lon": 0.0, "is_disabled": 0}, {"rental_uris": {"android": "https://dc.lft.to/lastmile_qr_scan", "ios": "https://dc.lft.to/lastmile_qr_scan"}, "type": "electric_scooter", "lon": -76.99452183333334, "name": "e11051b11599167ac0a2bededea9b198", "bike_id": "e11051b11599167ac0a2bededea9b198", "fusion_lat": 0.0, "is_reserved": 0, "lat": 38.876583333333336, "fusion_lon": 0.0, "is_disabled": 0}, {"rental_uris": {"android": "https://dc.lft.to/lastmile_qr_scan", "ios": "https://dc.lft.to/lastmile_qr_scan"}, "type": "electric_bike", "lon": -76.96883416666667, "name": "7d39083bb4e8394f0d0b7e5aa61b8e83", "bike_id": "7d39083bb4e8394f0d0b7e5aa61b8e83", "fusion_lat": 0.0, "is_reserved": 0, "lat": 38.845999666666664, "fusion_lon": 0.0, "is_disabled": 0}, {"rental_uris": {"android": "https://dc.lft.to/lastmile_qr_scan", "ios": "https://dc.lft.to/lastmile_qr_scan"}, "type": "electric_scooter", "lon": -77.03662566666667, "name": "574b8475430c5519140efbed9233b5f1", "bike_id": "574b8475430c5519140efbed9233b5f1", "fusion_lat": 0.0, "is_reserved": 0, "lat": 38.917220666666665, "fusion_lon": 0.0, "is_disabled": 0}, {"rental_uris": {"android": "https://dc.lft.to/lastmile_qr_scan", "ios": "https://dc.lft.to/lastmile_qr_scan"}, "type": "electric_scooter", "lon": -77.06584466666666, "name": "fd58cc13a6fc0f1ef8bdc535fb3ca034", "bike_id": "fd58cc13a6fc0f1ef8bdc535fb3ca034", "fusion_lat": 0.0, "is_reserved": 0, "lat": 38.913698, "fusion_lon": 0.0, "is_disabled": 0}, {"rental_uris": {"android": "https://dc.lft.to/lastmile_qr_scan", "ios": "https://dc.lft.to/lastmile_qr_scan"}, "type": "electric_bike", "lon": -77.127417, "name": "3e37aa0e5065993580008d2aace909d3", "bike_id": "3e37aa0e5065993580008d2aace909d3", "fusion_lat": 0.0, "is_reserved": 0, "lat": 38.88822033333334, "fusion_lon": 0.0, "is_disabled": 0}, {"rental_uris": {"android": "https://dc.lft.to/lastmile_qr_scan", "ios": "https://dc.lft.to/lastmile_qr_scan"}, "type": "electric_scooter", "lon": -77.02401233333333, "name": "1fc79c6cbe44fe4e27d864f5a238a02e", "bike_id": "1fc79c6cbe44fe4e27d864f5a238a02e", "fusion_lat": 0.0, "is_reserved": 0, "lat": 38.91693183333334, "fusion_lon": 0.0, "is_disabled": 0}, {"rental_uris": {"android": "https://dc.lft.to/lastmile_qr_scan", "ios": "https://dc.lft.to/lastmile_qr_scan"}, "type": "electric_scooter", "lon": -77.03857816666667, "name": "7f333b747715b1b67f07175e5cc7d9da", "bike_id": "7f333b747715b1b67f07175e5cc7d9da", "fusion_lat": 0.0, "is_reserved": 0, "lat": 38.91274166666667, "fusion_lon": 0.0, "is_disabled": 0}, {"rental_uris": {"android": "https://dc.lft.to/lastmile_qr_scan", "ios": "https://dc.lft.to/lastmile_qr_scan"}, "type": "electric_scooter", "lon": -77.02393966666666, "name": "17e47bb75ff3c5431996d682e1774ac5", "bike_id": "17e47bb75ff3c5431996d682e1774ac5", "fusion_lat": 0.0, "is_reserved": 0, "lat": 38.8873355, "fusion_lon": 0.0, "is_disabled": 0}, {"rental_uris": {"android": "https://dc.lft.to/lastmile_qr_scan", "ios": "https://dc.lft.to/lastmile_qr_scan"}, "type": "electric_scooter", "lon": -76.941171, "name": "950eefb8a973aad1887b47857a1deb8d", "bike_id": "950eefb8a973aad1887b47857a1deb8d", "fusion_lat": 0.0, "is_reserved": 0, "lat": 38.9079085, "fusion_lon": 0.0, "is_disabled": 0}, {"rental_uris": {"android": "https://dc.lft.to/lastmile_qr_scan", "ios": "https://dc.lft.to/lastmile_qr_scan"}, "type": "electric_scooter", "lon": -77.01989266666666, "name": "3250d5fbe2d70a0b6503dc54f13a389d", "bike_id": "3250d5fbe2d70a0b6503dc54f13a389d", "fusion_lat": 0.0, "is_reserved": 0, "lat": 38.9002545, "fusion_lon": 0.0, "is_disabled": 0}, {"rental_uris": {"android": "https://dc.lft.to/lastmile_qr_scan", "ios": "https://dc.lft.to/lastmile_qr_scan"}, "type": "electric_scooter", "lon": -76.93158966666667, "name": "18d45dd9fc4711d7a1b47537becb9e0c", "bike_id": "18d45dd9fc4711d7a1b47537becb9e0c", "fusion_lat": 0.0, "is_reserved": 0, "lat": 38.8987445, "fusion_lon": 0.0, "is_disabled": 0}, {"rental_uris": {"android": "https://dc.lft.to/lastmile_qr_scan", "ios": "https://dc.lft.to/lastmile_qr_scan"}, "type": "electric_scooter", "lon": -77.06161616666667, "name": "4156d114affa9321f25d12552fcad385", "bike_id": "4156d114affa9321f25d12552fcad385", "fusion_lat": 0.0, "is_reserved": 0, "lat": 38.9421175, "fusion_lon": 0.0, "is_disabled": 0}, {"rental_uris": {"android": "https://dc.lft.to/lastmile_qr_scan", "ios": "https://dc.lft.to/lastmile_qr_scan"}, "type": "electric_scooter", "lon": -76.9868105, "name": "fc11ae7064b1cd962126fd6a6a4ecf39", "bike_id": "fc11ae7064b1cd962126fd6a6a4ecf39", "fusion_lat": 0.0, "is_reserved": 0, "lat": 38.8556365, "fusion_lon": 0.0, "is_disabled": 0}, {"rental_uris": {"android": "https://dc.lft.to/lastmile_qr_scan", "ios": "https://dc.lft.to/lastmile_qr_scan"}, "type": "electric_scooter", "lon": -77.03996966666666, "name": "153c8c6a829d15a63f51f2f20cc66fb3", "bike_id": "153c8c6a829d15a63f51f2f20cc66fb3", "fusion_lat": 0.0, "is_reserved": 0, "lat": 38.914082666666665, "fusion_lon": 0.0, "is_disabled": 0}, {"rental_uris": {"android": "https://dc.lft.to/lastmile_qr_scan", "ios": "https://dc.lft.to/lastmile_qr_scan"}, "type": "electric_scooter", "lon": -76.98777266666667, "name": "a7f00a21d5c9547e6bca9644b8ce44e8", "bike_id": "a7f00a21d5c9547e6bca9644b8ce44e8", "fusion_lat": 0.0, "is_reserved": 0, "lat": 38.911725833333335, "fusion_lon": 0.0, "is_disabled": 0}, {"rental_uris": {"android": "https://dc.lft.to/lastmile_qr_scan", "ios": "https://dc.lft.to/lastmile_qr_scan"}, "type": "electric_scooter", "lon": -77.043595, "name": "5a9abfe8d5983c4ac655dfdbe69af4bf", "bike_id": "5a9abfe8d5983c4ac655dfdbe69af4bf", "fusion_lat": 0.0, "is_reserved": 0, "lat": 38.92158716666667, "fusion_lon": 0.0, "is_disabled": 0}, {"rental_uris": {"android": "https://dc.lft.to/lastmile_qr_scan", "ios": "https://dc.lft.to/lastmile_qr_scan"}, "type": "electric_scooter", "lon": -77.02155666666667, "name": "cb814fd732fecb89debd67caa64c022c", "bike_id": "cb814fd732fecb89debd67caa64c022c", "fusion_lat": 0.0, "is_reserved": 0, "lat": 38.879133333333336, "fusion_lon": 0.0, "is_disabled": 0}, {"rental_uris": {"android": "https://dc.lft.to/lastmile_qr_scan", "ios": "https://dc.lft.to/lastmile_qr_scan"}, "type": "electric_scooter", "lon": -76.98731616666667, "name": "f887442eaceec754b97f67a80d286fa3", "bike_id": "f887442eaceec754b97f67a80d286fa3", "fusion_lat": 0.0, "is_reserved": 0, "lat": 38.86708083333333, "fusion_lon": 0.0, "is_disabled": 0}, {"rental_uris": {"android": "https://dc.lft.to/lastmile_qr_scan", "ios": "https://dc.lft.to/lastmile_qr_scan"}, "type": "electric_scooter", "lon": -77.04077283333334, "name": "f26c4d34f29a538219a03972595b1b1c", "bike_id": "f26c4d34f29a538219a03972595b1b1c", "fusion_lat": 0.0, "is_reserved": 0, "lat": 38.90721683333334, "fusion_lon": 0.0, "is_disabled": 0}, {"rental_uris": {"android": "https://dc.lft.to/lastmile_qr_scan", "ios": "https://dc.lft.to/lastmile_qr_scan"}, "type": "electric_bike", "lon": -76.97558483333333, "name": "bb2f08b4a9305781ce4a7de5f788bec7", "bike_id": "bb2f08b4a9305781ce4a7de5f788bec7", "fusion_lat": 0.0, "is_reserved": 0, "lat": 38.903183, "fusion_lon": 0.0, "is_disabled": 0}, {"rental_uris": {"android": "https://dc.lft.to/lastmile_qr_scan", "ios": "https://dc.lft.to/lastmile_qr_scan"}, "type": "electric_scooter", "lon": -77.02668033333333, "name": "e0243934d938eb50c3ade1f1712a9c43", "bike_id": "e0243934d938eb50c3ade1f1712a9c43", "fusion_lat": 0.0, "is_reserved": 0, "lat": 38.93098, "fusion_lon": 0.0, "is_disabled": 0}, {"rental_uris": {"android": "https://dc.lft.to/lastmile_qr_scan", "ios": "https://dc.lft.to/lastmile_qr_scan"}, "type": "electric_scooter", "lon": -77.02903866666666, "name": "ed9ae1ab98b6fe2116a18ef7bb5905d4", "bike_id": "ed9ae1ab98b6fe2116a18ef7bb5905d4", "fusion_lat": 0.0, "is_reserved": 0, "lat": 38.95848983333333, "fusion_lon": 0.0, "is_disabled": 0}, {"rental_uris": {"android": "https://dc.lft.to/lastmile_qr_scan", "ios": "https://dc.lft.to/lastmile_qr_scan"}, "type": "electric_scooter", "lon": -77.02568733333334, "name": "c13d09563c15edc943f45676261e249a", "bike_id": "c13d09563c15edc943f45676261e249a", "fusion_lat": 0.0, "is_reserved": 0, "lat": 38.885802166666664, "fusion_lon": 0.0, "is_disabled": 0}, {"rental_uris": {"android": "https://dc.lft.to/lastmile_qr_scan", "ios": "https://dc.lft.to/lastmile_qr_scan"}, "type": "electric_bike", "lon": -77.08822083333334, "name": "a7f0b6538d559d0815511ddc5ed44fc2", "bike_id": "a7f0b6538d559d0815511ddc5ed44fc2", "fusion_lat": 0.0, "is_reserved": 0, "lat": 38.9097015, "fusion_lon": 0.0, "is_disabled": 0}, {"rental_uris": {"android": "https://dc.lft.to/lastmile_qr_scan", "ios": "https://dc.lft.to/lastmile_qr_scan"}, "type": "electric_scooter", "lon": -77.03870983333333, "name": "125a32ee98c7701c33bdb2334c09cc86", "bike_id": "125a32ee98c7701c33bdb2334c09cc86", "fusion_lat": 0.0, "is_reserved": 0, "lat": 38.9126305, "fusion_lon": 0.0, "is_disabled": 0}, {"rental_uris": {"android": "https://dc.lft.to/lastmile_qr_scan", "ios": "https://dc.lft.to/lastmile_qr_scan"}, "type": "electric_scooter", "lon": -77.04020983333334, "name": "c9c6bc09de9f4cf859e4b104800a309b", "bike_id": "c9c6bc09de9f4cf859e4b104800a309b", "fusion_lat": 0.0, "is_reserved": 0, "lat": 38.921983166666664, "fusion_lon": 0.0, "is_disabled": 0}, {"rental_uris": {"android": "https://dc.lft.to/lastmile_qr_scan", "ios": "https://dc.lft.to/lastmile_qr_scan"}, "type": "electric_scooter", "lon": -77.02353116666667, "name": "d60a317afe9655a5b7da21275ac487e9", "bike_id": "d60a317afe9655a5b7da21275ac487e9", "fusion_lat": 0.0, "is_reserved": 0, "lat": 38.88479266666667, "fusion_lon": 0.0, "is_disabled": 0}, {"rental_uris": {"android": "https://dc.lft.to/lastmile_qr_scan", "ios": "https://dc.lft.to/lastmile_qr_scan"}, "type": "electric_scooter", "lon": -77.0527835, "name": "323413db2fe4d0f5c97744dc51f7bd3d", "bike_id": "323413db2fe4d0f5c97744dc51f7bd3d", "fusion_lat": 0.0, "is_reserved": 0, "lat": 38.922519333333334, "fusion_lon": 0.0, "is_disabled": 0}, {"rental_uris": {"android": "https://dc.lft.to/lastmile_qr_scan", "ios": "https://dc.lft.to/lastmile_qr_scan"}, "type": "electric_scooter", "lon": -76.94157933333334, "name": "2ef406d20f3150d690a4d6aac859ef4f", "bike_id": "2ef406d20f3150d690a4d6aac859ef4f", "fusion_lat": 0.0, "is_reserved": 0, "lat": 38.88362683333333, "fusion_lon": 0.0, "is_disabled": 0}, {"rental_uris": {"android": "https://dc.lft.to/lastmile_qr_scan", "ios": "https://dc.lft.to/lastmile_qr_scan"}, "type": "electric_scooter", "lon": -77.001999, "name": "458514d2c342267884abd12a5f8786c0", "bike_id": "458514d2c342267884abd12a5f8786c0", "fusion_lat": 0.0, "is_reserved": 0, "lat": 38.902319, "fusion_lon": 0.0, "is_disabled": 0}, {"rental_uris": {"android": "https://dc.lft.to/lastmile_qr_scan", "ios": "https://dc.lft.to/lastmile_qr_scan"}, "type": "electric_scooter", "lon": -77.0381125, "name": "7f19cc7915aab955689c4ae546f27cae", "bike_id": "7f19cc7915aab955689c4ae546f27cae", "fusion_lat": 0.0, "is_reserved": 0, "lat": 38.914115833333334, "fusion_lon": 0.0, "is_disabled": 0}, {"rental_uris": {"android": "https://dc.lft.to/lastmile_qr_scan", "ios": "https://dc.lft.to/lastmile_qr_scan"}, "type": "electric_scooter", "lon": -77.04010283333334, "name": "5d65a5210d093a3db83ff7ba64e11f79", "bike_id": "5d65a5210d093a3db83ff7ba64e11f79", "fusion_lat": 0.0, "is_reserved": 0, "lat": 38.92566683333333, "fusion_lon": 0.0, "is_disabled": 0}, {"rental_uris": {"android": "https://dc.lft.to/lastmile_qr_scan", "ios": "https://dc.lft.to/lastmile_qr_scan"}, "type": "electric_scooter", "lon": -77.04015316666667, "name": "ec3afa7866284be6742f7cc820e1cd4a", "bike_id": "ec3afa7866284be6742f7cc820e1cd4a", "fusion_lat": 0.0, "is_reserved": 0, "lat": 38.924436666666665, "fusion_lon": 0.0, "is_disabled": 0}, {"rental_uris": {"android": "https://dc.lft.to/lastmile_qr_scan", "ios": "https://dc.lft.to/lastmile_qr_scan"}, "type": "electric_scooter", "lon": -77.04339183333333, "name": "3617e6d4761e6c6f83a98be85a6a4438", "bike_id": "3617e6d4761e6c6f83a98be85a6a4438", "fusion_lat": 0.0, "is_reserved": 0, "lat": 38.91371433333333, "fusion_lon": 0.0, "is_disabled": 0}, {"rental_uris": {"android": "https://dc.lft.to/lastmile_qr_scan", "ios": "https://dc.lft.to/lastmile_qr_scan"}, "type": "electric_scooter", "lon": -77.01353833333333, "name": "d8ed67dcd99961e0e76ede66d140ce5a", "bike_id": "d8ed67dcd99961e0e76ede66d140ce5a", "fusion_lat": 0.0, "is_reserved": 0, "lat": 38.90388383333333, "fusion_lon": 0.0, "is_disabled": 0}, {"rental_uris": {"android": "https://dc.lft.to/lastmile_qr_scan", "ios": "https://dc.lft.to/lastmile_qr_scan"}, "type": "electric_scooter", "lon": -77.03660016666667, "name": "9b61b2b2cb6863a611bdddcf2f2a1c6e", "bike_id": "9b61b2b2cb6863a611bdddcf2f2a1c6e", "fusion_lat": 0.0, "is_reserved": 0, "lat": 38.92134866666667, "fusion_lon": 0.0, "is_disabled": 0}, {"rental_uris": {"android": "https://dc.lft.to/lastmile_qr_scan", "ios": "https://dc.lft.to/lastmile_qr_scan"}, "type": "electric_bike", "lon": -77.02419366666666, "name": "8ffbedcbd408e02694bbafa6b45a0d01", "bike_id": "8ffbedcbd408e02694bbafa6b45a0d01", "fusion_lat": 0.0, "is_reserved": 0, "lat": 38.949132166666665, "fusion_lon": 0.0, "is_disabled": 0}, {"rental_uris": {"android": "https://dc.lft.to/lastmile_qr_scan", "ios": "https://dc.lft.to/lastmile_qr_scan"}, "type": "electric_scooter", "lon": -77.03856383333333, "name": "75b0e2e83dbdd21c22ca3da378f26c7f", "bike_id": "75b0e2e83dbdd21c22ca3da378f26c7f", "fusion_lat": 0.0, "is_reserved": 0, "lat": 38.9118875, "fusion_lon": 0.0, "is_disabled": 0}, {"rental_uris": {"android": "https://dc.lft.to/lastmile_qr_scan", "ios": "https://dc.lft.to/lastmile_qr_scan"}, "type": "electric_scooter", "lon": -76.990122, "name": "e7d5d36dea31d992a1f4c208d81f393f", "bike_id": "e7d5d36dea31d992a1f4c208d81f393f", "fusion_lat": 0.0, "is_reserved": 0, "lat": 38.911377333333334, "fusion_lon": 0.0, "is_disabled": 0}, {"rental_uris": {"android": "https://dc.lft.to/lastmile_qr_scan", "ios": "https://dc.lft.to/lastmile_qr_scan"}, "type": "electric_scooter", "lon": -77.01043983333334, "name": "eab4ba693ad830ec91a5fe6df47bd5cc", "bike_id": "eab4ba693ad830ec91a5fe6df47bd5cc", "fusion_lat": 0.0, "is_reserved": 0, "lat": 38.884481666666666, "fusion_lon": 0.0, "is_disabled": 0}, {"rental_uris": {"android": "https://dc.lft.to/lastmile_qr_scan", "ios": "https://dc.lft.to/lastmile_qr_scan"}, "type": "electric_scooter", "lon": -77.02569833333334, "name": "88cf02c6330924652c13a88dff44f99d", "bike_id": "88cf02c6330924652c13a88dff44f99d", "fusion_lat": 0.0, "is_reserved": 0, "lat": 38.9256785, "fusion_lon": 0.0, "is_disabled": 0}, {"rental_uris": {"android": "https://dc.lft.to/lastmile_qr_scan", "ios": "https://dc.lft.to/lastmile_qr_scan"}, "type": "electric_scooter", "lon": -77.0526765, "name": "06cc4599ccbc845a40f6c5af26fcc836", "bike_id": "06cc4599ccbc845a40f6c5af26fcc836", "fusion_lat": 0.0, "is_reserved": 0, "lat": 38.9275395, "fusion_lon": 0.0, "is_disabled": 0}, {"rental_uris": {"android": "https://dc.lft.to/lastmile_qr_scan", "ios": "https://dc.lft.to/lastmile_qr_scan"}, "type": "electric_scooter", "lon": -76.942963, "name": "cd0b760e26cf1d796f82415f134572df", "bike_id": "cd0b760e26cf1d796f82415f134572df", "fusion_lat": 0.0, "is_reserved": 0, "lat": 38.890951333333334, "fusion_lon": 0.0, "is_disabled": 0}, {"rental_uris": {"android": "https://dc.lft.to/lastmile_qr_scan", "ios": "https://dc.lft.to/lastmile_qr_scan"}, "type": "electric_scooter", "lon": -76.97903066666667, "name": "09d4730637bb101c7fded85c83634b14", "bike_id": "09d4730637bb101c7fded85c83634b14", "fusion_lat": 0.0, "is_reserved": 0, "lat": 38.90387466666667, "fusion_lon": 0.0, "is_disabled": 0}, {"rental_uris": {"android": "https://dc.lft.to/lastmile_qr_scan", "ios": "https://dc.lft.to/lastmile_qr_scan"}, "type": "electric_scooter", "lon": -77.03181483333333, "name": "cf13afa3796bf620452bd40fee6976c2", "bike_id": "cf13afa3796bf620452bd40fee6976c2", "fusion_lat": 0.0, "is_reserved": 0, "lat": 38.91894716666667, "fusion_lon": 0.0, "is_disabled": 0}, {"rental_uris": {"android": "https://dc.lft.to/lastmile_qr_scan", "ios": "https://dc.lft.to/lastmile_qr_scan"}, "type": "electric_scooter", "lon": -76.985965, "name": "e81b74dcff38be538f33dd441b1c128e", "bike_id": "e81b74dcff38be538f33dd441b1c128e", "fusion_lat": 0.0, "is_reserved": 0, "lat": 38.88968716666667, "fusion_lon": 0.0, "is_disabled": 0}, {"rental_uris": {"android": "https://dc.lft.to/lastmile_qr_scan", "ios": "https://dc.lft.to/lastmile_qr_scan"}, "type": "electric_bike", "lon": -76.91124416666666, "name": "a4870d8074a90c4a991d2b832bbbcc23", "bike_id": "a4870d8074a90c4a991d2b832bbbcc23", "fusion_lat": 0.0, "is_reserved": 0, "lat": 39.0103235, "fusion_lon": 0.0, "is_disabled": 0}, {"rental_uris": {"android": "https://dc.lft.to/lastmile_qr_scan", "ios": "https://dc.lft.to/lastmile_qr_scan"}, "type": "electric_scooter", "lon": -77.00098366666667, "name": "dd5166325cf38b436738208aff053175", "bike_id": "dd5166325cf38b436738208aff053175", "fusion_lat": 0.0, "is_reserved": 0, "lat": 38.89989933333333, "fusion_lon": 0.0, "is_disabled": 0}, {"rental_uris": {"android": "https://dc.lft.to/lastmile_qr_scan", "ios": "https://dc.lft.to/lastmile_qr_scan"}, "type": "electric_scooter", "lon": -77.02426866666667, "name": "55f5e568e9a633a5b0ca4bc5d6da8125", "bike_id": "55f5e568e9a633a5b0ca4bc5d6da8125", "fusion_lat": 0.0, "is_reserved": 0, "lat": 38.892273333333335, "fusion_lon": 0.0, "is_disabled": 0}, {"rental_uris": {"android": "https://dc.lft.to/lastmile_qr_scan", "ios": "https://dc.lft.to/lastmile_qr_scan"}, "type": "electric_scooter", "lon": -77.02789266666667, "name": "b0b2fbf7f061e4df6c973af2f0be715c", "bike_id": "b0b2fbf7f061e4df6c973af2f0be715c", "fusion_lat": 0.0, "is_reserved": 0, "lat": 38.927677333333335, "fusion_lon": 0.0, "is_disabled": 0}, {"rental_uris": {"android": "https://dc.lft.to/lastmile_qr_scan", "ios": "https://dc.lft.to/lastmile_qr_scan"}, "type": "electric_scooter", "lon": -77.063514, "name": "2943db6fe0bec71b1df9b330d68115d0", "bike_id": "2943db6fe0bec71b1df9b330d68115d0", "fusion_lat": 0.0, "is_reserved": 0, "lat": 38.94436433333333, "fusion_lon": 0.0, "is_disabled": 0}, {"rental_uris": {"android": "https://dc.lft.to/lastmile_qr_scan", "ios": "https://dc.lft.to/lastmile_qr_scan"}, "type": "electric_scooter", "lon": -77.02813166666667, "name": "9c67c92dfe15e48896e2769d056e4b45", "bike_id": "9c67c92dfe15e48896e2769d056e4b45", "fusion_lat": 0.0, "is_reserved": 0, "lat": 38.95609833333334, "fusion_lon": 0.0, "is_disabled": 0}, {"rental_uris": {"android": "https://dc.lft.to/lastmile_qr_scan", "ios": "https://dc.lft.to/lastmile_qr_scan"}, "type": "electric_scooter", "lon": -77.0434655, "name": "5d050b041b5bd54ad34ac7f651cbbea3", "bike_id": "5d050b041b5bd54ad34ac7f651cbbea3", "fusion_lat": 0.0, "is_reserved": 0, "lat": 38.896666333333336, "fusion_lon": 0.0, "is_disabled": 0}, {"rental_uris": {"android": "https://dc.lft.to/lastmile_qr_scan", "ios": "https://dc.lft.to/lastmile_qr_scan"}, "type": "electric_scooter", "lon": -77.03883483333334, "name": "617c01ceab321f44025babe33c20f3a5", "bike_id": "617c01ceab321f44025babe33c20f3a5", "fusion_lat": 0.0, "is_reserved": 0, "lat": 38.932656333333334, "fusion_lon": 0.0, "is_disabled": 0}, {"rental_uris": {"android": "https://dc.lft.to/lastmile_qr_scan", "ios": "https://dc.lft.to/lastmile_qr_scan"}, "type": "electric_scooter", "lon": -77.0675215, "name": "4cb334bc296cac3da4bfb80856cb393d", "bike_id": "4cb334bc296cac3da4bfb80856cb393d", "fusion_lat": 0.0, "is_reserved": 0, "lat": 38.90354216666667, "fusion_lon": 0.0, "is_disabled": 0}, {"rental_uris": {"android": "https://dc.lft.to/lastmile_qr_scan", "ios": "https://dc.lft.to/lastmile_qr_scan"}, "type": "electric_scooter", "lon": -76.99160966666666, "name": "ae7bc1fa8cef56f8603978207f3a2bc6", "bike_id": "ae7bc1fa8cef56f8603978207f3a2bc6", "fusion_lat": 0.0, "is_reserved": 0, "lat": 38.8791445, "fusion_lon": 0.0, "is_disabled": 0}, {"rental_uris": {"android": "https://dc.lft.to/lastmile_qr_scan", "ios": "https://dc.lft.to/lastmile_qr_scan"}, "type": "electric_scooter", "lon": -77.0155725, "name": "30595e048ed3dfe261538947764a6037", "bike_id": "30595e048ed3dfe261538947764a6037", "fusion_lat": 0.0, "is_reserved": 0, "lat": 38.91468, "fusion_lon": 0.0, "is_disabled": 0}, {"rental_uris": {"android": "https://dc.lft.to/lastmile_qr_scan", "ios": "https://dc.lft.to/lastmile_qr_scan"}, "type": "electric_scooter", "lon": -77.05298, "name": "f507a9432ec6564ee9fba1a772f5a5ee", "bike_id": "f507a9432ec6564ee9fba1a772f5a5ee", "fusion_lat": 0.0, "is_reserved": 0, "lat": 38.92552333333333, "fusion_lon": 0.0, "is_disabled": 0}, {"rental_uris": {"android": "https://dc.lft.to/lastmile_qr_scan", "ios": "https://dc.lft.to/lastmile_qr_scan"}, "type": "electric_bike", "lon": -77.12260766666667, "name": "9b329f853031c86dfb75b62f8627e288", "bike_id": "9b329f853031c86dfb75b62f8627e288", "fusion_lat": 0.0, "is_reserved": 0, "lat": 38.891883166666666, "fusion_lon": 0.0, "is_disabled": 0}, {"rental_uris": {"android": "https://dc.lft.to/lastmile_qr_scan", "ios": "https://dc.lft.to/lastmile_qr_scan"}, "type": "electric_bike", "lon": -77.112214, "name": "50e7bb7836fd9c57213f4c72dcbebd29", "bike_id": "50e7bb7836fd9c57213f4c72dcbebd29", "fusion_lat": 0.0, "is_reserved": 0, "lat": 38.828767666666664, "fusion_lon": 0.0, "is_disabled": 0}, {"rental_uris": {"android": "https://dc.lft.to/lastmile_qr_scan", "ios": "https://dc.lft.to/lastmile_qr_scan"}, "type": "electric_bike", "lon": -76.93542216666667, "name": "3ab17788fd0b65e77fafd6a5379cbd95", "bike_id": "3ab17788fd0b65e77fafd6a5379cbd95", "fusion_lat": 0.0, "is_reserved": 0, "lat": 38.9555505, "fusion_lon": 0.0, "is_disabled": 0}, {"rental_uris": {"android": "https://dc.lft.to/lastmile_qr_scan", "ios": "https://dc.lft.to/lastmile_qr_scan"}, "type": "electric_bike", "lon": -77.07685083333334, "name": "433162b90f9d07ff689094060496bded", "bike_id": "433162b90f9d07ff689094060496bded", "fusion_lat": 0.0, "is_reserved": 0, "lat": 38.831904333333334, "fusion_lon": 0.0, "is_disabled": 0}, {"rental_uris": {"android": "https://dc.lft.to/lastmile_qr_scan", "ios": "https://dc.lft.to/lastmile_qr_scan"}, "type": "electric_scooter", "lon": -77.00220966666667, "name": "efe662ffb188184fce94c7e0cb7fcbed", "bike_id": "efe662ffb188184fce94c7e0cb7fcbed", "fusion_lat": 0.0, "is_reserved": 0, "lat": 38.8774435, "fusion_lon": 0.0, "is_disabled": 0}, {"rental_uris": {"android": "https://dc.lft.to/lastmile_qr_scan", "ios": "https://dc.lft.to/lastmile_qr_scan"}, "type": "electric_scooter", "lon": -77.02711566666666, "name": "15b7b5ca1bbe03ff74a9c8a33e38aadf", "bike_id": "15b7b5ca1bbe03ff74a9c8a33e38aadf", "fusion_lat": 0.0, "is_reserved": 0, "lat": 38.92465766666667, "fusion_lon": 0.0, "is_disabled": 0}, {"rental_uris": {"android": "https://dc.lft.to/lastmile_qr_scan", "ios": "https://dc.lft.to/lastmile_qr_scan"}, "type": "electric_bike", "lon": -76.98739566666667, "name": "82363c2a3ce708e93d01b5001f765823", "bike_id": "82363c2a3ce708e93d01b5001f765823", "fusion_lat": 0.0, "is_reserved": 0, "lat": 38.944301333333335, "fusion_lon": 0.0, "is_disabled": 0}, {"rental_uris": {"android": "https://dc.lft.to/lastmile_qr_scan", "ios": "https://dc.lft.to/lastmile_qr_scan"}, "type": "electric_scooter", "lon": -77.04757666666667, "name": "bafd7aa1dc5b6495756832bd900ef37b", "bike_id": "bafd7aa1dc5b6495756832bd900ef37b", "fusion_lat": 0.0, "is_reserved": 0, "lat": 38.90258983333333, "fusion_lon": 0.0, "is_disabled": 0}, {"rental_uris": {"android": "https://dc.lft.to/lastmile_qr_scan", "ios": "https://dc.lft.to/lastmile_qr_scan"}, "type": "electric_scooter", "lon": -77.00057183333334, "name": "bd588349ff1278cfbd4ff3fa45da0c6d", "bike_id": "bd588349ff1278cfbd4ff3fa45da0c6d", "fusion_lat": 0.0, "is_reserved": 0, "lat": 38.875224333333335, "fusion_lon": 0.0, "is_disabled": 0}, {"rental_uris": {"android": "https://dc.lft.to/lastmile_qr_scan", "ios": "https://dc.lft.to/lastmile_qr_scan"}, "type": "electric_scooter", "lon": -77.047899, "name": "ec4c7051110c4414606ac41bdefeb136", "bike_id": "ec4c7051110c4414606ac41bdefeb136", "fusion_lat": 0.0, "is_reserved": 0, "lat": 38.902662, "fusion_lon": 0.0, "is_disabled": 0}, {"rental_uris": {"android": "https://dc.lft.to/lastmile_qr_scan", "ios": "https://dc.lft.to/lastmile_qr_scan"}, "type": "electric_scooter", "lon": -77.029847, "name": "5cf462fb9c034f6bd8e8f5e04fa8e29a", "bike_id": "5cf462fb9c034f6bd8e8f5e04fa8e29a", "fusion_lat": 0.0, "is_reserved": 0, "lat": 38.90720966666667, "fusion_lon": 0.0, "is_disabled": 0}, {"rental_uris": {"android": "https://dc.lft.to/lastmile_qr_scan", "ios": "https://dc.lft.to/lastmile_qr_scan"}, "type": "electric_scooter", "lon": -76.99759866666666, "name": "ba612733b05a03981dce8e07eaa05d12", "bike_id": "ba612733b05a03981dce8e07eaa05d12", "fusion_lat": 0.0, "is_reserved": 0, "lat": 38.92268, "fusion_lon": 0.0, "is_disabled": 0}, {"rental_uris": {"android": "https://dc.lft.to/lastmile_qr_scan", "ios": "https://dc.lft.to/lastmile_qr_scan"}, "type": "electric_scooter", "lon": -76.994912, "name": "837a142a4b4a04625e0d1b8446aa0768", "bike_id": "837a142a4b4a04625e0d1b8446aa0768", "fusion_lat": 0.0, "is_reserved": 0, "lat": 38.862422333333335, "fusion_lon": 0.0, "is_disabled": 0}, {"rental_uris": {"android": "https://dc.lft.to/lastmile_qr_scan", "ios": "https://dc.lft.to/lastmile_qr_scan"}, "type": "electric_scooter", "lon": -76.99491583333334, "name": "f0f60716575f3ee8314b29cea51e97d7", "bike_id": "f0f60716575f3ee8314b29cea51e97d7", "fusion_lat": 0.0, "is_reserved": 0, "lat": 38.876902, "fusion_lon": 0.0, "is_disabled": 0}, {"rental_uris": {"android": "https://dc.lft.to/lastmile_qr_scan", "ios": "https://dc.lft.to/lastmile_qr_scan"}, "type": "electric_scooter", "lon": -76.98128216666667, "name": "8a97be078834d8b36d4438b4964ec87b", "bike_id": "8a97be078834d8b36d4438b4964ec87b", "fusion_lat": 0.0, "is_reserved": 0, "lat": 38.88413116666667, "fusion_lon": 0.0, "is_disabled": 0}, {"rental_uris": {"android": "https://dc.lft.to/lastmile_qr_scan", "ios": "https://dc.lft.to/lastmile_qr_scan"}, "type": "electric_scooter", "lon": -77.02034083333334, "name": "395d637cdbe1b08ab031c4ef6c68a829", "bike_id": "395d637cdbe1b08ab031c4ef6c68a829", "fusion_lat": 0.0, "is_reserved": 0, "lat": 38.89258183333333, "fusion_lon": 0.0, "is_disabled": 0}, {"rental_uris": {"android": "https://dc.lft.to/lastmile_qr_scan", "ios": "https://dc.lft.to/lastmile_qr_scan"}, "type": "electric_scooter", "lon": -77.01772833333334, "name": "37ec0dd4c05b57ac0c969a676c81d301", "bike_id": "37ec0dd4c05b57ac0c969a676c81d301", "fusion_lat": 0.0, "is_reserved": 0, "lat": 38.8729355, "fusion_lon": 0.0, "is_disabled": 0}, {"rental_uris": {"android": "https://dc.lft.to/lastmile_qr_scan", "ios": "https://dc.lft.to/lastmile_qr_scan"}, "type": "electric_scooter", "lon": -77.06353416666667, "name": "73bb3bcbbdba8e05196019b439beba14", "bike_id": "73bb3bcbbdba8e05196019b439beba14", "fusion_lat": 0.0, "is_reserved": 0, "lat": 38.908434166666666, "fusion_lon": 0.0, "is_disabled": 0}, {"rental_uris": {"android": "https://dc.lft.to/lastmile_qr_scan", "ios": "https://dc.lft.to/lastmile_qr_scan"}, "type": "electric_scooter", "lon": -77.03660683333334, "name": "990f78fab9fffff51a654514e24038af", "bike_id": "990f78fab9fffff51a654514e24038af", "fusion_lat": 0.0, "is_reserved": 0, "lat": 38.91622383333333, "fusion_lon": 0.0, "is_disabled": 0}, {"rental_uris": {"android": "https://dc.lft.to/lastmile_qr_scan", "ios": "https://dc.lft.to/lastmile_qr_scan"}, "type": "electric_scooter", "lon": -76.99954016666666, "name": "d30bba003849ffd109a1f5de3f1cccdf", "bike_id": "d30bba003849ffd109a1f5de3f1cccdf", "fusion_lat": 0.0, "is_reserved": 0, "lat": 38.908610833333334, "fusion_lon": 0.0, "is_disabled": 0}, {"rental_uris": {"android": "https://dc.lft.to/lastmile_qr_scan", "ios": "https://dc.lft.to/lastmile_qr_scan"}, "type": "electric_scooter", "lon": -77.02692783333333, "name": "7a7837bdb630165de5ca3775682deb36", "bike_id": "7a7837bdb630165de5ca3775682deb36", "fusion_lat": 0.0, "is_reserved": 0, "lat": 38.912723166666666, "fusion_lon": 0.0, "is_disabled": 0}, {"rental_uris": {"android": "https://dc.lft.to/lastmile_qr_scan", "ios": "https://dc.lft.to/lastmile_qr_scan"}, "type": "electric_scooter", "lon": -77.02167233333333, "name": "6ad894a2d9dafc23f9ab424f34b1ad69", "bike_id": "6ad894a2d9dafc23f9ab424f34b1ad69", "fusion_lat": 0.0, "is_reserved": 0, "lat": 38.9408175, "fusion_lon": 0.0, "is_disabled": 0}, {"rental_uris": {"android": "https://dc.lft.to/lastmile_qr_scan", "ios": "https://dc.lft.to/lastmile_qr_scan"}, "type": "electric_scooter", "lon": -77.0357645, "name": "63c494780c70c079d92e08db9df55e1e", "bike_id": "63c494780c70c079d92e08db9df55e1e", "fusion_lat": 0.0, "is_reserved": 0, "lat": 38.9191145, "fusion_lon": 0.0, "is_disabled": 0}, {"rental_uris": {"android": "https://dc.lft.to/lastmile_qr_scan", "ios": "https://dc.lft.to/lastmile_qr_scan"}, "type": "electric_scooter", "lon": -77.03436566666667, "name": "f59c79ed194cda14a7d1060d0e6555e4", "bike_id": "f59c79ed194cda14a7d1060d0e6555e4", "fusion_lat": 0.0, "is_reserved": 0, "lat": 38.90564283333333, "fusion_lon": 0.0, "is_disabled": 0}, {"rental_uris": {"android": "https://dc.lft.to/lastmile_qr_scan", "ios": "https://dc.lft.to/lastmile_qr_scan"}, "type": "electric_bike", "lon": -76.997725, "name": "cda85b9f8eeb246f4876041f39654ad4", "bike_id": "cda85b9f8eeb246f4876041f39654ad4", "fusion_lat": 0.0, "is_reserved": 0, "lat": 39.00597466666667, "fusion_lon": 0.0, "is_disabled": 0}, {"rental_uris": {"android": "https://dc.lft.to/lastmile_qr_scan", "ios": "https://dc.lft.to/lastmile_qr_scan"}, "type": "electric_scooter", "lon": -77.03438133333333, "name": "3058a2d6fa90c0da160df06586774ab1", "bike_id": "3058a2d6fa90c0da160df06586774ab1", "fusion_lat": 0.0, "is_reserved": 0, "lat": 38.91800966666667, "fusion_lon": 0.0, "is_disabled": 0}, {"rental_uris": {"android": "https://dc.lft.to/lastmile_qr_scan", "ios": "https://dc.lft.to/lastmile_qr_scan"}, "type": "electric_bike", "lon": -77.11429266666667, "name": "518d7b0b7e8d670b1da6d1ce4eeb7157", "bike_id": "518d7b0b7e8d670b1da6d1ce4eeb7157", "fusion_lat": 0.0, "is_reserved": 0, "lat": 38.85245183333333, "fusion_lon": 0.0, "is_disabled": 0}, {"rental_uris": {"android": "https://dc.lft.to/lastmile_qr_scan", "ios": "https://dc.lft.to/lastmile_qr_scan"}, "type": "electric_scooter", "lon": -76.99729883333333, "name": "dac92dfd620d242fe387d7b227719bf2", "bike_id": "dac92dfd620d242fe387d7b227719bf2", "fusion_lat": 0.0, "is_reserved": 0, "lat": 38.907918, "fusion_lon": 0.0, "is_disabled": 0}, {"rental_uris": {"android": "https://dc.lft.to/lastmile_qr_scan", "ios": "https://dc.lft.to/lastmile_qr_scan"}, "type": "electric_scooter", "lon": -77.024822, "name": "80b649993b4faf4d3bd575516baaebc6", "bike_id": "80b649993b4faf4d3bd575516baaebc6", "fusion_lat": 0.0, "is_reserved": 0, "lat": 38.93881366666667, "fusion_lon": 0.0, "is_disabled": 0}, {"rental_uris": {"android": "https://dc.lft.to/lastmile_qr_scan", "ios": "https://dc.lft.to/lastmile_qr_scan"}, "type": "electric_scooter", "lon": -76.99014666666666, "name": "b6419a670a740bffc2eb40700d687f48", "bike_id": "b6419a670a740bffc2eb40700d687f48", "fusion_lat": 0.0, "is_reserved": 0, "lat": 38.861140666666664, "fusion_lon": 0.0, "is_disabled": 0}, {"rental_uris": {"android": "https://dc.lft.to/lastmile_qr_scan", "ios": "https://dc.lft.to/lastmile_qr_scan"}, "type": "electric_scooter", "lon": -77.0628905, "name": "e7fc7ca961d7206259e11e7995ff4150", "bike_id": "e7fc7ca961d7206259e11e7995ff4150", "fusion_lat": 0.0, "is_reserved": 0, "lat": 38.904535, "fusion_lon": 0.0, "is_disabled": 0}, {"rental_uris": {"android": "https://dc.lft.to/lastmile_qr_scan", "ios": "https://dc.lft.to/lastmile_qr_scan"}, "type": "electric_scooter", "lon": -77.07112516666666, "name": "fefe312d2329fd60817324a63890e1e3", "bike_id": "fefe312d2329fd60817324a63890e1e3", "fusion_lat": 0.0, "is_reserved": 0, "lat": 38.9198585, "fusion_lon": 0.0, "is_disabled": 0}, {"rental_uris": {"android": "https://dc.lft.to/lastmile_qr_scan", "ios": "https://dc.lft.to/lastmile_qr_scan"}, "type": "electric_scooter", "lon": -77.01889866666667, "name": "f7f5720afbc8eef4e2eca0ad8a87967a", "bike_id": "f7f5720afbc8eef4e2eca0ad8a87967a", "fusion_lat": 0.0, "is_reserved": 0, "lat": 38.90940716666667, "fusion_lon": 0.0, "is_disabled": 0}, {"rental_uris": {"android": "https://dc.lft.to/lastmile_qr_scan", "ios": "https://dc.lft.to/lastmile_qr_scan"}, "type": "electric_scooter", "lon": -77.03907566666666, "name": "89859cf3a162e08955914321d6084793", "bike_id": "89859cf3a162e08955914321d6084793", "fusion_lat": 0.0, "is_reserved": 0, "lat": 38.91421166666667, "fusion_lon": 0.0, "is_disabled": 0}, {"rental_uris": {"android": "https://dc.lft.to/lastmile_qr_scan", "ios": "https://dc.lft.to/lastmile_qr_scan"}, "type": "electric_scooter", "lon": -76.96715516666667, "name": "5d1bf48e90e80b987fed4c49ea2f9759", "bike_id": "5d1bf48e90e80b987fed4c49ea2f9759", "fusion_lat": 0.0, "is_reserved": 0, "lat": 38.8695215, "fusion_lon": 0.0, "is_disabled": 0}, {"rental_uris": {"android": "https://dc.lft.to/lastmile_qr_scan", "ios": "https://dc.lft.to/lastmile_qr_scan"}, "type": "electric_scooter", "lon": -76.9492175, "name": "cccda1de6ca0055d70644f7a5ec105dc", "bike_id": "cccda1de6ca0055d70644f7a5ec105dc", "fusion_lat": 0.0, "is_reserved": 0, "lat": 38.88476816666667, "fusion_lon": 0.0, "is_disabled": 0}, {"rental_uris": {"android": "https://dc.lft.to/lastmile_qr_scan", "ios": "https://dc.lft.to/lastmile_qr_scan"}, "type": "electric_scooter", "lon": -77.0388445, "name": "eeb1e25eda46b6c7a0a371cc43ea3b1c", "bike_id": "eeb1e25eda46b6c7a0a371cc43ea3b1c", "fusion_lat": 0.0, "is_reserved": 0, "lat": 38.932644, "fusion_lon": 0.0, "is_disabled": 0}, {"rental_uris": {"android": "https://dc.lft.to/lastmile_qr_scan", "ios": "https://dc.lft.to/lastmile_qr_scan"}, "type": "electric_scooter", "lon": -77.02945833333334, "name": "71b1a57a29016f4bb4e11d8c56d011de", "bike_id": "71b1a57a29016f4bb4e11d8c56d011de", "fusion_lat": 0.0, "is_reserved": 0, "lat": 38.905359, "fusion_lon": 0.0, "is_disabled": 0}, {"rental_uris": {"android": "https://dc.lft.to/lastmile_qr_scan", "ios": "https://dc.lft.to/lastmile_qr_scan"}, "type": "electric_scooter", "lon": -77.01383683333333, "name": "7c2a44c76855e1fba82563f774315718", "bike_id": "7c2a44c76855e1fba82563f774315718", "fusion_lat": 0.0, "is_reserved": 0, "lat": 38.91947616666667, "fusion_lon": 0.0, "is_disabled": 0}, {"rental_uris": {"android": "https://dc.lft.to/lastmile_qr_scan", "ios": "https://dc.lft.to/lastmile_qr_scan"}, "type": "electric_bike", "lon": -77.0248925, "name": "387d8f81b456a742bab67490f93cba0b", "bike_id": "387d8f81b456a742bab67490f93cba0b", "fusion_lat": 0.0, "is_reserved": 0, "lat": 38.9736245, "fusion_lon": 0.0, "is_disabled": 0}, {"rental_uris": {"android": "https://dc.lft.to/lastmile_qr_scan", "ios": "https://dc.lft.to/lastmile_qr_scan"}, "type": "electric_scooter", "lon": -76.9963135, "name": "d1a073c0aa725376c3cc64e331787d0b", "bike_id": "d1a073c0aa725376c3cc64e331787d0b", "fusion_lat": 0.0, "is_reserved": 0, "lat": 38.846192, "fusion_lon": 0.0, "is_disabled": 0}, {"rental_uris": {"android": "https://dc.lft.to/lastmile_qr_scan", "ios": "https://dc.lft.to/lastmile_qr_scan"}, "type": "electric_scooter", "lon": -77.01209083333333, "name": "8b5d6963e67a85becdc3a5712ff005f0", "bike_id": "8b5d6963e67a85becdc3a5712ff005f0", "fusion_lat": 0.0, "is_reserved": 0, "lat": 38.90671066666667, "fusion_lon": 0.0, "is_disabled": 0}, {"rental_uris": {"android": "https://dc.lft.to/lastmile_qr_scan", "ios": "https://dc.lft.to/lastmile_qr_scan"}, "type": "electric_scooter", "lon": -77.01052333333334, "name": "670f5b8ea93d4f2ecccac8484b1eb8d1", "bike_id": "670f5b8ea93d4f2ecccac8484b1eb8d1", "fusion_lat": 0.0, "is_reserved": 0, "lat": 38.929841833333334, "fusion_lon": 0.0, "is_disabled": 0}, {"rental_uris": {"android": "https://dc.lft.to/lastmile_qr_scan", "ios": "https://dc.lft.to/lastmile_qr_scan"}, "type": "electric_scooter", "lon": -76.99136033333333, "name": "f2ab74f44c21e960a5721b5c3175ae7e", "bike_id": "f2ab74f44c21e960a5721b5c3175ae7e", "fusion_lat": 0.0, "is_reserved": 0, "lat": 38.8821955, "fusion_lon": 0.0, "is_disabled": 0}, {"rental_uris": {"android": "https://dc.lft.to/lastmile_qr_scan", "ios": "https://dc.lft.to/lastmile_qr_scan"}, "type": "electric_scooter", "lon": -77.04321933333334, "name": "2ed80b3023b443e2c3d806ae2ac2f127", "bike_id": "2ed80b3023b443e2c3d806ae2ac2f127", "fusion_lat": 0.0, "is_reserved": 0, "lat": 38.89219516666667, "fusion_lon": 0.0, "is_disabled": 0}, {"rental_uris": {"android": "https://dc.lft.to/lastmile_qr_scan", "ios": "https://dc.lft.to/lastmile_qr_scan"}, "type": "electric_scooter", "lon": -77.03837283333333, "name": "581b3e6478f84b96364b22475efba49b", "bike_id": "581b3e6478f84b96364b22475efba49b", "fusion_lat": 0.0, "is_reserved": 0, "lat": 38.915621, "fusion_lon": 0.0, "is_disabled": 0}, {"rental_uris": {"android": "https://dc.lft.to/lastmile_qr_scan", "ios": "https://dc.lft.to/lastmile_qr_scan"}, "type": "electric_scooter", "lon": -77.04674666666666, "name": "5910606d9b9683b96fd0d4e7e165235a", "bike_id": "5910606d9b9683b96fd0d4e7e165235a", "fusion_lat": 0.0, "is_reserved": 0, "lat": 38.908433, "fusion_lon": 0.0, "is_disabled": 0}, {"rental_uris": {"android": "https://dc.lft.to/lastmile_qr_scan", "ios": "https://dc.lft.to/lastmile_qr_scan"}, "type": "electric_scooter", "lon": -77.04225, "name": "3444770af8af104503387ef14e7ca6b6", "bike_id": "3444770af8af104503387ef14e7ca6b6", "fusion_lat": 0.0, "is_reserved": 0, "lat": 38.91106833333333, "fusion_lon": 0.0, "is_disabled": 0}, {"rental_uris": {"android": "https://dc.lft.to/lastmile_qr_scan", "ios": "https://dc.lft.to/lastmile_qr_scan"}, "type": "electric_scooter", "lon": -77.03335933333334, "name": "e09c8a28b7c8ff56324090104c327301", "bike_id": "e09c8a28b7c8ff56324090104c327301", "fusion_lat": 0.0, "is_reserved": 0, "lat": 38.903595333333335, "fusion_lon": 0.0, "is_disabled": 0}, {"rental_uris": {"android": "https://dc.lft.to/lastmile_qr_scan", "ios": "https://dc.lft.to/lastmile_qr_scan"}, "type": "electric_bike", "lon": -77.06472166666667, "name": "d9da8eea4e8adbfcb881391f02aae949", "bike_id": "d9da8eea4e8adbfcb881391f02aae949", "fusion_lat": 0.0, "is_reserved": 0, "lat": 38.97380866666666, "fusion_lon": 0.0, "is_disabled": 0}, {"rental_uris": {"android": "https://dc.lft.to/lastmile_qr_scan", "ios": "https://dc.lft.to/lastmile_qr_scan"}, "type": "electric_bike", "lon": -77.025947, "name": "1d8973e8adf9f2b9086a53d2e85e4e3b", "bike_id": "1d8973e8adf9f2b9086a53d2e85e4e3b", "fusion_lat": 0.0, "is_reserved": 0, "lat": 38.982297833333334, "fusion_lon": 0.0, "is_disabled": 0}, {"rental_uris": {"android": "https://dc.lft.to/lastmile_qr_scan", "ios": "https://dc.lft.to/lastmile_qr_scan"}, "type": "electric_scooter", "lon": -76.9917035, "name": "3cd265d47a1b66cb0abaf0efd50c6eca", "bike_id": "3cd265d47a1b66cb0abaf0efd50c6eca", "fusion_lat": 0.0, "is_reserved": 0, "lat": 38.87924066666667, "fusion_lon": 0.0, "is_disabled": 0}, {"rental_uris": {"android": "https://dc.lft.to/lastmile_qr_scan", "ios": "https://dc.lft.to/lastmile_qr_scan"}, "type": "electric_scooter", "lon": -76.99506816666667, "name": "5dc3cac22522557715de506993380cdf", "bike_id": "5dc3cac22522557715de506993380cdf", "fusion_lat": 0.0, "is_reserved": 0, "lat": 38.926694, "fusion_lon": 0.0, "is_disabled": 0}, {"rental_uris": {"android": "https://dc.lft.to/lastmile_qr_scan", "ios": "https://dc.lft.to/lastmile_qr_scan"}, "type": "electric_bike", "lon": -76.97619233333333, "name": "373831490abc7eb7c7093733de184469", "bike_id": "373831490abc7eb7c7093733de184469", "fusion_lat": 0.0, "is_reserved": 0, "lat": 38.89574783333333, "fusion_lon": 0.0, "is_disabled": 0}, {"rental_uris": {"android": "https://dc.lft.to/lastmile_qr_scan", "ios": "https://dc.lft.to/lastmile_qr_scan"}, "type": "electric_scooter", "lon": -77.01592666666667, "name": "a7584ee9b3d598d30bfee44f01bbe1e7", "bike_id": "a7584ee9b3d598d30bfee44f01bbe1e7", "fusion_lat": 0.0, "is_reserved": 0, "lat": 38.92843466666667, "fusion_lon": 0.0, "is_disabled": 0}, {"rental_uris": {"android": "https://dc.lft.to/lastmile_qr_scan", "ios": "https://dc.lft.to/lastmile_qr_scan"}, "type": "electric_scooter", "lon": -77.04635666666667, "name": "1e1af4e3598f262bfd5c643a73f99d2b", "bike_id": "1e1af4e3598f262bfd5c643a73f99d2b", "fusion_lat": 0.0, "is_reserved": 0, "lat": 38.897330333333336, "fusion_lon": 0.0, "is_disabled": 0}, {"rental_uris": {"android": "https://dc.lft.to/lastmile_qr_scan", "ios": "https://dc.lft.to/lastmile_qr_scan"}, "type": "electric_scooter", "lon": -77.010617, "name": "4eb9c2d55c6fadd416c593cd7b56b1c1", "bike_id": "4eb9c2d55c6fadd416c593cd7b56b1c1", "fusion_lat": 0.0, "is_reserved": 0, "lat": 38.87240416666667, "fusion_lon": 0.0, "is_disabled": 0}, {"rental_uris": {"android": "https://dc.lft.to/lastmile_qr_scan", "ios": "https://dc.lft.to/lastmile_qr_scan"}, "type": "electric_scooter", "lon": -77.02380016666666, "name": "5891ae167296f32efbebdee59b6cec1e", "bike_id": "5891ae167296f32efbebdee59b6cec1e", "fusion_lat": 0.0, "is_reserved": 0, "lat": 38.8922835, "fusion_lon": 0.0, "is_disabled": 0}, {"rental_uris": {"android": "https://dc.lft.to/lastmile_qr_scan", "ios": "https://dc.lft.to/lastmile_qr_scan"}, "type": "electric_scooter", "lon": -77.02396266666666, "name": "2cbb4d9a563160a550f4c970cf3f202f", "bike_id": "2cbb4d9a563160a550f4c970cf3f202f", "fusion_lat": 0.0, "is_reserved": 0, "lat": 38.916894, "fusion_lon": 0.0, "is_disabled": 0}, {"rental_uris": {"android": "https://dc.lft.to/lastmile_qr_scan", "ios": "https://dc.lft.to/lastmile_qr_scan"}, "type": "electric_scooter", "lon": -77.04481716666666, "name": "cf81491c9dc1a2b635c8c1a3f605d3f6", "bike_id": "cf81491c9dc1a2b635c8c1a3f605d3f6", "fusion_lat": 0.0, "is_reserved": 0, "lat": 38.90690816666667, "fusion_lon": 0.0, "is_disabled": 0}, {"rental_uris": {"android": "https://dc.lft.to/lastmile_qr_scan", "ios": "https://dc.lft.to/lastmile_qr_scan"}, "type": "electric_scooter", "lon": -77.04489933333333, "name": "6f8dda5face7d276835a4cc77652158d", "bike_id": "6f8dda5face7d276835a4cc77652158d", "fusion_lat": 0.0, "is_reserved": 0, "lat": 38.919414333333336, "fusion_lon": 0.0, "is_disabled": 0}, {"rental_uris": {"android": "https://dc.lft.to/lastmile_qr_scan", "ios": "https://dc.lft.to/lastmile_qr_scan"}, "type": "electric_scooter", "lon": -77.0349215, "name": "66a3437c7577520c3f63ec4dcd5b7ac1", "bike_id": "66a3437c7577520c3f63ec4dcd5b7ac1", "fusion_lat": 0.0, "is_reserved": 0, "lat": 38.937327333333336, "fusion_lon": 0.0, "is_disabled": 0}, {"rental_uris": {"android": "https://dc.lft.to/lastmile_qr_scan", "ios": "https://dc.lft.to/lastmile_qr_scan"}, "type": "electric_scooter", "lon": -77.02482133333334, "name": "fb881b3b2e8ea09c289bbd5ec5b6156d", "bike_id": "fb881b3b2e8ea09c289bbd5ec5b6156d", "fusion_lat": 0.0, "is_reserved": 0, "lat": 38.938835166666664, "fusion_lon": 0.0, "is_disabled": 0}, {"rental_uris": {"android": "https://dc.lft.to/lastmile_qr_scan", "ios": "https://dc.lft.to/lastmile_qr_scan"}, "type": "electric_scooter", "lon": -77.0063535, "name": "95d4c2512996ad9a243e319a2235bee4", "bike_id": "95d4c2512996ad9a243e319a2235bee4", "fusion_lat": 0.0, "is_reserved": 0, "lat": 38.89991633333333, "fusion_lon": 0.0, "is_disabled": 0}, {"rental_uris": {"android": "https://dc.lft.to/lastmile_qr_scan", "ios": "https://dc.lft.to/lastmile_qr_scan"}, "type": "electric_scooter", "lon": -77.005252, "name": "c8080a64ea804b9fd15cc9bd59453cdb", "bike_id": "c8080a64ea804b9fd15cc9bd59453cdb", "fusion_lat": 0.0, "is_reserved": 0, "lat": 38.916940833333335, "fusion_lon": 0.0, "is_disabled": 0}, {"rental_uris": {"android": "https://dc.lft.to/lastmile_qr_scan", "ios": "https://dc.lft.to/lastmile_qr_scan"}, "type": "electric_scooter", "lon": -77.02503566666667, "name": "015486325ddd820a324ae5400def8bb2", "bike_id": "015486325ddd820a324ae5400def8bb2", "fusion_lat": 0.0, "is_reserved": 0, "lat": 38.903984666666666, "fusion_lon": 0.0, "is_disabled": 0}, {"rental_uris": {"android": "https://dc.lft.to/lastmile_qr_scan", "ios": "https://dc.lft.to/lastmile_qr_scan"}, "type": "electric_scooter", "lon": -77.02760533333333, "name": "1eb32151d2f1ec67f6c1d71a15ba39ed", "bike_id": "1eb32151d2f1ec67f6c1d71a15ba39ed", "fusion_lat": 0.0, "is_reserved": 0, "lat": 38.953947666666664, "fusion_lon": 0.0, "is_disabled": 0}, {"rental_uris": {"android": "https://dc.lft.to/lastmile_qr_scan", "ios": "https://dc.lft.to/lastmile_qr_scan"}, "type": "electric_bike", "lon": -77.02902366666666, "name": "9f9e1b26aab193c4c5b8f78377991f7e", "bike_id": "9f9e1b26aab193c4c5b8f78377991f7e", "fusion_lat": 0.0, "is_reserved": 0, "lat": 38.89200916666667, "fusion_lon": 0.0, "is_disabled": 0}, {"rental_uris": {"android": "https://dc.lft.to/lastmile_qr_scan", "ios": "https://dc.lft.to/lastmile_qr_scan"}, "type": "electric_scooter", "lon": -77.03197533333334, "name": "78ef5e76b06a58d06b8cd23afcaba504", "bike_id": "78ef5e76b06a58d06b8cd23afcaba504", "fusion_lat": 0.0, "is_reserved": 0, "lat": 38.91859, "fusion_lon": 0.0, "is_disabled": 0}, {"rental_uris": {"android": "https://dc.lft.to/lastmile_qr_scan", "ios": "https://dc.lft.to/lastmile_qr_scan"}, "type": "electric_scooter", "lon": -76.98264716666667, "name": "0f87a60d6ff686cb20e8eb94f57cb062", "bike_id": "0f87a60d6ff686cb20e8eb94f57cb062", "fusion_lat": 0.0, "is_reserved": 0, "lat": 38.86353883333334, "fusion_lon": 0.0, "is_disabled": 0}, {"rental_uris": {"android": "https://dc.lft.to/lastmile_qr_scan", "ios": "https://dc.lft.to/lastmile_qr_scan"}, "type": "electric_scooter", "lon": -76.97617, "name": "072136d3a9ec17f6e07cdd5e06419dc0", "bike_id": "072136d3a9ec17f6e07cdd5e06419dc0", "fusion_lat": 0.0, "is_reserved": 0, "lat": 38.931414833333335, "fusion_lon": 0.0, "is_disabled": 0}, {"rental_uris": {"android": "https://dc.lft.to/lastmile_qr_scan", "ios": "https://dc.lft.to/lastmile_qr_scan"}, "type": "electric_bike", "lon": -76.95465, "name": "8ee3a1bca9e14ba66c9f63642d75f5b7", "bike_id": "8ee3a1bca9e14ba66c9f63642d75f5b7", "fusion_lat": 0.0, "is_reserved": 0, "lat": 38.93561716666667, "fusion_lon": 0.0, "is_disabled": 0}, {"rental_uris": {"android": "https://dc.lft.to/lastmile_qr_scan", "ios": "https://dc.lft.to/lastmile_qr_scan"}, "type": "electric_bike", "lon": -76.98879383333333, "name": "9fc7a988b03cadd2439f9147a88c39ad", "bike_id": "9fc7a988b03cadd2439f9147a88c39ad", "fusion_lat": 0.0, "is_reserved": 0, "lat": 38.921111, "fusion_lon": 0.0, "is_disabled": 0}, {"rental_uris": {"android": "https://dc.lft.to/lastmile_qr_scan", "ios": "https://dc.lft.to/lastmile_qr_scan"}, "type": "electric_scooter", "lon": -77.002168, "name": "39da0d8bc49f461b7a5565206f9ebd00", "bike_id": "39da0d8bc49f461b7a5565206f9ebd00", "fusion_lat": 0.0, "is_reserved": 0, "lat": 38.9029475, "fusion_lon": 0.0, "is_disabled": 0}, {"rental_uris": {"android": "https://dc.lft.to/lastmile_qr_scan", "ios": "https://dc.lft.to/lastmile_qr_scan"}, "type": "electric_scooter", "lon": -77.00522066666667, "name": "04434c99e6dd36a9aa11f49aae540401", "bike_id": "04434c99e6dd36a9aa11f49aae540401", "fusion_lat": 0.0, "is_reserved": 0, "lat": 38.926010833333336, "fusion_lon": 0.0, "is_disabled": 0}, {"rental_uris": {"android": "https://dc.lft.to/lastmile_qr_scan", "ios": "https://dc.lft.to/lastmile_qr_scan"}, "type": "electric_scooter", "lon": -77.0081135, "name": "c2f1cd2ef3b8bbb8bed4055fdf74e007", "bike_id": "c2f1cd2ef3b8bbb8bed4055fdf74e007", "fusion_lat": 0.0, "is_reserved": 0, "lat": 38.876372333333336, "fusion_lon": 0.0, "is_disabled": 0}, {"rental_uris": {"android": "https://dc.lft.to/lastmile_qr_scan", "ios": "https://dc.lft.to/lastmile_qr_scan"}, "type": "electric_scooter", "lon": -76.97734066666666, "name": "61c8c97a8b8e1d5a26aed7be25eb122e", "bike_id": "61c8c97a8b8e1d5a26aed7be25eb122e", "fusion_lat": 0.0, "is_reserved": 0, "lat": 38.872799666666666, "fusion_lon": 0.0, "is_disabled": 0}, {"rental_uris": {"android": "https://dc.lft.to/lastmile_qr_scan", "ios": "https://dc.lft.to/lastmile_qr_scan"}, "type": "electric_scooter", "lon": -77.05517666666667, "name": "b9855e865d57b69a4f1ecb5319a9d42d", "bike_id": "b9855e865d57b69a4f1ecb5319a9d42d", "fusion_lat": 0.0, "is_reserved": 0, "lat": 38.929614666666666, "fusion_lon": 0.0, "is_disabled": 0}, {"rental_uris": {"android": "https://dc.lft.to/lastmile_qr_scan", "ios": "https://dc.lft.to/lastmile_qr_scan"}, "type": "electric_scooter", "lon": -76.9847105, "name": "2c5e05ae10eb481a38639130490fcbd1", "bike_id": "2c5e05ae10eb481a38639130490fcbd1", "fusion_lat": 0.0, "is_reserved": 0, "lat": 38.92891933333333, "fusion_lon": 0.0, "is_disabled": 0}, {"rental_uris": {"android": "https://dc.lft.to/lastmile_qr_scan", "ios": "https://dc.lft.to/lastmile_qr_scan"}, "type": "electric_scooter", "lon": -77.04020183333333, "name": "cb88d22ea78410590e8ace28ec79ba34", "bike_id": "cb88d22ea78410590e8ace28ec79ba34", "fusion_lat": 0.0, "is_reserved": 0, "lat": 38.918415333333336, "fusion_lon": 0.0, "is_disabled": 0}, {"rental_uris": {"android": "https://dc.lft.to/lastmile_qr_scan", "ios": "https://dc.lft.to/lastmile_qr_scan"}, "type": "electric_scooter", "lon": -77.02503183333333, "name": "5ed88e8d4237904ebd64aa8dbb280705", "bike_id": "5ed88e8d4237904ebd64aa8dbb280705", "fusion_lat": 0.0, "is_reserved": 0, "lat": 38.941974333333334, "fusion_lon": 0.0, "is_disabled": 0}, {"rental_uris": {"android": "https://dc.lft.to/lastmile_qr_scan", "ios": "https://dc.lft.to/lastmile_qr_scan"}, "type": "electric_scooter", "lon": -77.02203566666667, "name": "8f220d854bb5d26431355f25c434de36", "bike_id": "8f220d854bb5d26431355f25c434de36", "fusion_lat": 0.0, "is_reserved": 0, "lat": 38.921085, "fusion_lon": 0.0, "is_disabled": 0}, {"rental_uris": {"android": "https://dc.lft.to/lastmile_qr_scan", "ios": "https://dc.lft.to/lastmile_qr_scan"}, "type": "electric_scooter", "lon": -77.0239915, "name": "a985ec2d68e6bae98626ca85ec4fa21f", "bike_id": "a985ec2d68e6bae98626ca85ec4fa21f", "fusion_lat": 0.0, "is_reserved": 0, "lat": 38.91682733333333, "fusion_lon": 0.0, "is_disabled": 0}, {"rental_uris": {"android": "https://dc.lft.to/lastmile_qr_scan", "ios": "https://dc.lft.to/lastmile_qr_scan"}, "type": "electric_scooter", "lon": -77.03290233333334, "name": "ce96bf29566fc74d9977d7c1c9589e22", "bike_id": "ce96bf29566fc74d9977d7c1c9589e22", "fusion_lat": 0.0, "is_reserved": 0, "lat": 38.956492833333336, "fusion_lon": 0.0, "is_disabled": 0}, {"rental_uris": {"android": "https://dc.lft.to/lastmile_qr_scan", "ios": "https://dc.lft.to/lastmile_qr_scan"}, "type": "electric_scooter", "lon": -77.03279683333334, "name": "09910c02338f562bdef793ec0ffc8f69", "bike_id": "09910c02338f562bdef793ec0ffc8f69", "fusion_lat": 0.0, "is_reserved": 0, "lat": 38.936802166666666, "fusion_lon": 0.0, "is_disabled": 0}, {"rental_uris": {"android": "https://dc.lft.to/lastmile_qr_scan", "ios": "https://dc.lft.to/lastmile_qr_scan"}, "type": "electric_scooter", "lon": -77.04336033333334, "name": "8aaa8c9bd09710d143d357c26e9a1e72", "bike_id": "8aaa8c9bd09710d143d357c26e9a1e72", "fusion_lat": 0.0, "is_reserved": 0, "lat": 38.905036333333335, "fusion_lon": 0.0, "is_disabled": 0}, {"rental_uris": {"android": "https://dc.lft.to/lastmile_qr_scan", "ios": "https://dc.lft.to/lastmile_qr_scan"}, "type": "electric_scooter", "lon": -77.03502533333334, "name": "07750a6842c80e93b096de4ec135cc88", "bike_id": "07750a6842c80e93b096de4ec135cc88", "fusion_lat": 0.0, "is_reserved": 0, "lat": 38.91873433333333, "fusion_lon": 0.0, "is_disabled": 0}, {"rental_uris": {"android": "https://dc.lft.to/lastmile_qr_scan", "ios": "https://dc.lft.to/lastmile_qr_scan"}, "type": "electric_bike", "lon": -76.932017, "name": "fa7c6faedf02c2a9d735898471f0b5d7", "bike_id": "fa7c6faedf02c2a9d735898471f0b5d7", "fusion_lat": 0.0, "is_reserved": 0, "lat": 38.87236583333333, "fusion_lon": 0.0, "is_disabled": 0}, {"rental_uris": {"android": "https://dc.lft.to/lastmile_qr_scan", "ios": "https://dc.lft.to/lastmile_qr_scan"}, "type": "electric_scooter", "lon": -77.02606333333334, "name": "cde35adbb8192b07a4c59efde201129b", "bike_id": "cde35adbb8192b07a4c59efde201129b", "fusion_lat": 0.0, "is_reserved": 0, "lat": 38.916168, "fusion_lon": 0.0, "is_disabled": 0}, {"rental_uris": {"android": "https://dc.lft.to/lastmile_qr_scan", "ios": "https://dc.lft.to/lastmile_qr_scan"}, "type": "electric_bike", "lon": -77.09964216666667, "name": "87706f0bafc430e0843b255ad3000b0b", "bike_id": "87706f0bafc430e0843b255ad3000b0b", "fusion_lat": 0.0, "is_reserved": 0, "lat": 38.85787233333333, "fusion_lon": 0.0, "is_disabled": 0}, {"rental_uris": {"android": "https://dc.lft.to/lastmile_qr_scan", "ios": "https://dc.lft.to/lastmile_qr_scan"}, "type": "electric_scooter", "lon": -77.02195066666667, "name": "3a0b427b6db0793ddb3efff81d6c34b8", "bike_id": "3a0b427b6db0793ddb3efff81d6c34b8", "fusion_lat": 0.0, "is_reserved": 0, "lat": 38.89509116666667, "fusion_lon": 0.0, "is_disabled": 0}, {"rental_uris": {"android": "https://dc.lft.to/lastmile_qr_scan", "ios": "https://dc.lft.to/lastmile_qr_scan"}, "type": "electric_scooter", "lon": -77.02624416666667, "name": "e8c186c137970e611b865107ede788b6", "bike_id": "e8c186c137970e611b865107ede788b6", "fusion_lat": 0.0, "is_reserved": 0, "lat": 38.88732383333333, "fusion_lon": 0.0, "is_disabled": 0}, {"rental_uris": {"android": "https://dc.lft.to/lastmile_qr_scan", "ios": "https://dc.lft.to/lastmile_qr_scan"}, "type": "electric_scooter", "lon": -77.03445716666667, "name": "cc9e8fa3a95bdc60813ba6934ea26346", "bike_id": "cc9e8fa3a95bdc60813ba6934ea26346", "fusion_lat": 0.0, "is_reserved": 0, "lat": 38.9205155, "fusion_lon": 0.0, "is_disabled": 0}, {"rental_uris": {"android": "https://dc.lft.to/lastmile_qr_scan", "ios": "https://dc.lft.to/lastmile_qr_scan"}, "type": "electric_scooter", "lon": -77.027076, "name": "e775013331e8033cfd945873363d97d6", "bike_id": "e775013331e8033cfd945873363d97d6", "fusion_lat": 0.0, "is_reserved": 0, "lat": 38.9499625, "fusion_lon": 0.0, "is_disabled": 0}, {"rental_uris": {"android": "https://dc.lft.to/lastmile_qr_scan", "ios": "https://dc.lft.to/lastmile_qr_scan"}, "type": "electric_scooter", "lon": -77.03343533333333, "name": "1cdd6028909ed5bf2294b03116ec413c", "bike_id": "1cdd6028909ed5bf2294b03116ec413c", "fusion_lat": 0.0, "is_reserved": 0, "lat": 38.9289365, "fusion_lon": 0.0, "is_disabled": 0}, {"rental_uris": {"android": "https://dc.lft.to/lastmile_qr_scan", "ios": "https://dc.lft.to/lastmile_qr_scan"}, "type": "electric_scooter", "lon": -77.02992983333333, "name": "115fd32a1170a395897b535b70a588d5", "bike_id": "115fd32a1170a395897b535b70a588d5", "fusion_lat": 0.0, "is_reserved": 0, "lat": 38.956307833333334, "fusion_lon": 0.0, "is_disabled": 0}, {"rental_uris": {"android": "https://dc.lft.to/lastmile_qr_scan", "ios": "https://dc.lft.to/lastmile_qr_scan"}, "type": "electric_bike", "lon": -77.04069716666666, "name": "b7381137b54e0f761a28734183767da9", "bike_id": "b7381137b54e0f761a28734183767da9", "fusion_lat": 0.0, "is_reserved": 0, "lat": 38.81239983333333, "fusion_lon": 0.0, "is_disabled": 0}, {"rental_uris": {"android": "https://dc.lft.to/lastmile_qr_scan", "ios": "https://dc.lft.to/lastmile_qr_scan"}, "type": "electric_scooter", "lon": -76.95217283333334, "name": "bd635dca9f8e1012740583896dbb382e", "bike_id": "bd635dca9f8e1012740583896dbb382e", "fusion_lat": 0.0, "is_reserved": 0, "lat": 38.88674316666667, "fusion_lon": 0.0, "is_disabled": 0}, {"rental_uris": {"android": "https://dc.lft.to/lastmile_qr_scan", "ios": "https://dc.lft.to/lastmile_qr_scan"}, "type": "electric_scooter", "lon": -77.02587766666667, "name": "a7e8d195fd4f42801b72c12cec524bb7", "bike_id": "a7e8d195fd4f42801b72c12cec524bb7", "fusion_lat": 0.0, "is_reserved": 0, "lat": 38.904857666666665, "fusion_lon": 0.0, "is_disabled": 0}, {"rental_uris": {"android": "https://dc.lft.to/lastmile_qr_scan", "ios": "https://dc.lft.to/lastmile_qr_scan"}, "type": "electric_scooter", "lon": -77.0271235, "name": "b393f0f2093e2e0b37ec35d5b464198a", "bike_id": "b393f0f2093e2e0b37ec35d5b464198a", "fusion_lat": 0.0, "is_reserved": 0, "lat": 38.9154015, "fusion_lon": 0.0, "is_disabled": 0}, {"rental_uris": {"android": "https://dc.lft.to/lastmile_qr_scan", "ios": "https://dc.lft.to/lastmile_qr_scan"}, "type": "electric_bike", "lon": -77.036286, "name": "7f48a34067828326974cdcb45f68780d", "bike_id": "7f48a34067828326974cdcb45f68780d", "fusion_lat": 0.0, "is_reserved": 0, "lat": 38.97296866666667, "fusion_lon": 0.0, "is_disabled": 0}, {"rental_uris": {"android": "https://dc.lft.to/lastmile_qr_scan", "ios": "https://dc.lft.to/lastmile_qr_scan"}, "type": "electric_scooter", "lon": -76.949418, "name": "9324b5932555ba8c121e51c6503be0ee", "bike_id": "9324b5932555ba8c121e51c6503be0ee", "fusion_lat": 0.0, "is_reserved": 0, "lat": 38.883188, "fusion_lon": 0.0, "is_disabled": 0}, {"rental_uris": {"android": "https://dc.lft.to/lastmile_qr_scan", "ios": "https://dc.lft.to/lastmile_qr_scan"}, "type": "electric_scooter", "lon": -76.947623, "name": "79453ebd792a5c0fa209d64f3b4286fb", "bike_id": "79453ebd792a5c0fa209d64f3b4286fb", "fusion_lat": 0.0, "is_reserved": 0, "lat": 38.8962185, "fusion_lon": 0.0, "is_disabled": 0}, {"rental_uris": {"android": "https://dc.lft.to/lastmile_qr_scan", "ios": "https://dc.lft.to/lastmile_qr_scan"}, "type": "electric_scooter", "lon": -77.04181283333334, "name": "83d43af6733914b9cd0b1ff150cc62d9", "bike_id": "83d43af6733914b9cd0b1ff150cc62d9", "fusion_lat": 0.0, "is_reserved": 0, "lat": 38.91584433333333, "fusion_lon": 0.0, "is_disabled": 0}, {"rental_uris": {"android": "https://dc.lft.to/lastmile_qr_scan", "ios": "https://dc.lft.to/lastmile_qr_scan"}, "type": "electric_scooter", "lon": -76.99779083333334, "name": "91ea4d38dc2df7e05574c21e5d013279", "bike_id": "91ea4d38dc2df7e05574c21e5d013279", "fusion_lat": 0.0, "is_reserved": 0, "lat": 38.844249, "fusion_lon": 0.0, "is_disabled": 0}, {"rental_uris": {"android": "https://dc.lft.to/lastmile_qr_scan", "ios": "https://dc.lft.to/lastmile_qr_scan"}, "type": "electric_scooter", "lon": -77.03290916666667, "name": "c2fec118efd770f9560ef2b210969c47", "bike_id": "c2fec118efd770f9560ef2b210969c47", "fusion_lat": 0.0, "is_reserved": 0, "lat": 38.95650716666667, "fusion_lon": 0.0, "is_disabled": 0}, {"rental_uris": {"android": "https://dc.lft.to/lastmile_qr_scan", "ios": "https://dc.lft.to/lastmile_qr_scan"}, "type": "electric_bike", "lon": -77.0036915, "name": "365d5595a7d1bf6f82bbde9a76ffca24", "bike_id": "365d5595a7d1bf6f82bbde9a76ffca24", "fusion_lat": 0.0, "is_reserved": 0, "lat": 38.836044333333334, "fusion_lon": 0.0, "is_disabled": 0}, {"rental_uris": {"android": "https://dc.lft.to/lastmile_qr_scan", "ios": "https://dc.lft.to/lastmile_qr_scan"}, "type": "electric_scooter", "lon": -77.03197116666666, "name": "caa18bb9219cf626c649845a11e857a0", "bike_id": "caa18bb9219cf626c649845a11e857a0", "fusion_lat": 0.0, "is_reserved": 0, "lat": 38.91888466666666, "fusion_lon": 0.0, "is_disabled": 0}, {"rental_uris": {"android": "https://dc.lft.to/lastmile_qr_scan", "ios": "https://dc.lft.to/lastmile_qr_scan"}, "type": "electric_scooter", "lon": -77.01143783333333, "name": "a8517a32a3feece60bcec2b09f504678", "bike_id": "a8517a32a3feece60bcec2b09f504678", "fusion_lat": 0.0, "is_reserved": 0, "lat": 38.91799266666666, "fusion_lon": 0.0, "is_disabled": 0}, {"rental_uris": {"android": "https://dc.lft.to/lastmile_qr_scan", "ios": "https://dc.lft.to/lastmile_qr_scan"}, "type": "electric_bike", "lon": -76.98332283333333, "name": "f7d237bfe59440a860aa1467c8ac5e62", "bike_id": "f7d237bfe59440a860aa1467c8ac5e62", "fusion_lat": 0.0, "is_reserved": 0, "lat": 38.966006666666665, "fusion_lon": 0.0, "is_disabled": 0}, {"rental_uris": {"android": "https://dc.lft.to/lastmile_qr_scan", "ios": "https://dc.lft.to/lastmile_qr_scan"}, "type": "electric_bike", "lon": -77.08944016666666, "name": "5c29ccb648b0aa4bb4ad59d699f39756", "bike_id": "5c29ccb648b0aa4bb4ad59d699f39756", "fusion_lat": 0.0, "is_reserved": 0, "lat": 38.84096783333333, "fusion_lon": 0.0, "is_disabled": 0}, {"rental_uris": {"android": "https://dc.lft.to/lastmile_qr_scan", "ios": "https://dc.lft.to/lastmile_qr_scan"}, "type": "electric_scooter", "lon": -77.01244316666667, "name": "6acf40b71f33586b915cb40774b2369f", "bike_id": "6acf40b71f33586b915cb40774b2369f", "fusion_lat": 0.0, "is_reserved": 0, "lat": 38.90864766666667, "fusion_lon": 0.0, "is_disabled": 0}, {"rental_uris": {"android": "https://dc.lft.to/lastmile_qr_scan", "ios": "https://dc.lft.to/lastmile_qr_scan"}, "type": "electric_scooter", "lon": -77.01274283333333, "name": "df5a52d40aef7c534cd9314204310a92", "bike_id": "df5a52d40aef7c534cd9314204310a92", "fusion_lat": 0.0, "is_reserved": 0, "lat": 38.91560916666667, "fusion_lon": 0.0, "is_disabled": 0}, {"rental_uris": {"android": "https://dc.lft.to/lastmile_qr_scan", "ios": "https://dc.lft.to/lastmile_qr_scan"}, "type": "electric_scooter", "lon": -76.96520433333333, "name": "8c6410d39ea707ca90c2d9b57940627e", "bike_id": "8c6410d39ea707ca90c2d9b57940627e", "fusion_lat": 0.0, "is_reserved": 0, "lat": 38.8747965, "fusion_lon": 0.0, "is_disabled": 0}, {"rental_uris": {"android": "https://dc.lft.to/lastmile_qr_scan", "ios": "https://dc.lft.to/lastmile_qr_scan"}, "type": "electric_scooter", "lon": -77.01343733333333, "name": "4644ca0bb4002fed32684037fa4981ef", "bike_id": "4644ca0bb4002fed32684037fa4981ef", "fusion_lat": 0.0, "is_reserved": 0, "lat": 38.91913183333333, "fusion_lon": 0.0, "is_disabled": 0}, {"rental_uris": {"android": "https://dc.lft.to/lastmile_qr_scan", "ios": "https://dc.lft.to/lastmile_qr_scan"}, "type": "electric_scooter", "lon": -77.02707183333334, "name": "040e332906045c93c9b839488b966f0c", "bike_id": "040e332906045c93c9b839488b966f0c", "fusion_lat": 0.0, "is_reserved": 0, "lat": 38.94995133333333, "fusion_lon": 0.0, "is_disabled": 0}, {"rental_uris": {"android": "https://dc.lft.to/lastmile_qr_scan", "ios": "https://dc.lft.to/lastmile_qr_scan"}, "type": "electric_scooter", "lon": -76.974776, "name": "2e5afb89060bddf189b98f54901bbb77", "bike_id": "2e5afb89060bddf189b98f54901bbb77", "fusion_lat": 0.0, "is_reserved": 0, "lat": 38.90348383333333, "fusion_lon": 0.0, "is_disabled": 0}, {"rental_uris": {"android": "https://dc.lft.to/lastmile_qr_scan", "ios": "https://dc.lft.to/lastmile_qr_scan"}, "type": "electric_scooter", "lon": -77.07299166666667, "name": "3b3b574171cb72f1b118ecc78a3cab37", "bike_id": "3b3b574171cb72f1b118ecc78a3cab37", "fusion_lat": 0.0, "is_reserved": 0, "lat": 38.930575833333336, "fusion_lon": 0.0, "is_disabled": 0}, {"rental_uris": {"android": "https://dc.lft.to/lastmile_qr_scan", "ios": "https://dc.lft.to/lastmile_qr_scan"}, "type": "electric_scooter", "lon": -77.02326433333333, "name": "1792bf87eb3278d84062737c2473deff", "bike_id": "1792bf87eb3278d84062737c2473deff", "fusion_lat": 0.0, "is_reserved": 0, "lat": 38.916926, "fusion_lon": 0.0, "is_disabled": 0}, {"rental_uris": {"android": "https://dc.lft.to/lastmile_qr_scan", "ios": "https://dc.lft.to/lastmile_qr_scan"}, "type": "electric_scooter", "lon": -77.0339945, "name": "6d8d59c0b5924f3f3a3436451986f9f7", "bike_id": "6d8d59c0b5924f3f3a3436451986f9f7", "fusion_lat": 0.0, "is_reserved": 0, "lat": 38.91910683333333, "fusion_lon": 0.0, "is_disabled": 0}, {"rental_uris": {"android": "https://dc.lft.to/lastmile_qr_scan", "ios": "https://dc.lft.to/lastmile_qr_scan"}, "type": "electric_scooter", "lon": -77.00919166666667, "name": "40db08d1446a22b5a90fa77189cee3c4", "bike_id": "40db08d1446a22b5a90fa77189cee3c4", "fusion_lat": 0.0, "is_reserved": 0, "lat": 38.910497, "fusion_lon": 0.0, "is_disabled": 0}, {"rental_uris": {"android": "https://dc.lft.to/lastmile_qr_scan", "ios": "https://dc.lft.to/lastmile_qr_scan"}, "type": "electric_scooter", "lon": -77.08215983333334, "name": "50849b58470e1943dd00e22074b1b445", "bike_id": "50849b58470e1943dd00e22074b1b445", "fusion_lat": 0.0, "is_reserved": 0, "lat": 38.93552733333333, "fusion_lon": 0.0, "is_disabled": 0}, {"rental_uris": {"android": "https://dc.lft.to/lastmile_qr_scan", "ios": "https://dc.lft.to/lastmile_qr_scan"}, "type": "electric_scooter", "lon": -77.0305745, "name": "af6fe1aa050f5406697f2f29f706940a", "bike_id": "af6fe1aa050f5406697f2f29f706940a", "fusion_lat": 0.0, "is_reserved": 0, "lat": 38.9192045, "fusion_lon": 0.0, "is_disabled": 0}, {"rental_uris": {"android": "https://dc.lft.to/lastmile_qr_scan", "ios": "https://dc.lft.to/lastmile_qr_scan"}, "type": "electric_scooter", "lon": -77.02513883333333, "name": "7d73d367db008254c336620a835808cf", "bike_id": "7d73d367db008254c336620a835808cf", "fusion_lat": 0.0, "is_reserved": 0, "lat": 38.9417965, "fusion_lon": 0.0, "is_disabled": 0}, {"rental_uris": {"android": "https://dc.lft.to/lastmile_qr_scan", "ios": "https://dc.lft.to/lastmile_qr_scan"}, "type": "electric_scooter", "lon": -77.00342866666666, "name": "1f0acf46099c556599e07cb2d178b276", "bike_id": "1f0acf46099c556599e07cb2d178b276", "fusion_lat": 0.0, "is_reserved": 0, "lat": 38.913486, "fusion_lon": 0.0, "is_disabled": 0}, {"rental_uris": {"android": "https://dc.lft.to/lastmile_qr_scan", "ios": "https://dc.lft.to/lastmile_qr_scan"}, "type": "electric_scooter", "lon": -76.9484395, "name": "33292468c06daa2a7884c7974fa049af", "bike_id": "33292468c06daa2a7884c7974fa049af", "fusion_lat": 0.0, "is_reserved": 0, "lat": 38.89486433333333, "fusion_lon": 0.0, "is_disabled": 0}, {"rental_uris": {"android": "https://dc.lft.to/lastmile_qr_scan", "ios": "https://dc.lft.to/lastmile_qr_scan"}, "type": "electric_scooter", "lon": -76.9921435, "name": "c6525cce3659e8c5f349e79f4f3b6be6", "bike_id": "c6525cce3659e8c5f349e79f4f3b6be6", "fusion_lat": 0.0, "is_reserved": 0, "lat": 38.90465966666667, "fusion_lon": 0.0, "is_disabled": 0}, {"rental_uris": {"android": "https://dc.lft.to/lastmile_qr_scan", "ios": "https://dc.lft.to/lastmile_qr_scan"}, "type": "electric_scooter", "lon": -76.99474533333333, "name": "2cd000287c4ea616696ed4a633508630", "bike_id": "2cd000287c4ea616696ed4a633508630", "fusion_lat": 0.0, "is_reserved": 0, "lat": 38.89615716666667, "fusion_lon": 0.0, "is_disabled": 0}, {"rental_uris": {"android": "https://dc.lft.to/lastmile_qr_scan", "ios": "https://dc.lft.to/lastmile_qr_scan"}, "type": "electric_scooter", "lon": -77.06147833333333, "name": "c6c1abc168a0a80d31aaba18fb633ad2", "bike_id": "c6c1abc168a0a80d31aaba18fb633ad2", "fusion_lat": 0.0, "is_reserved": 0, "lat": 38.91057033333333, "fusion_lon": 0.0, "is_disabled": 0}, {"rental_uris": {"android": "https://dc.lft.to/lastmile_qr_scan", "ios": "https://dc.lft.to/lastmile_qr_scan"}, "type": "electric_scooter", "lon": -76.98414633333333, "name": "03b3276de7dd0a2b92c3a6400888083c", "bike_id": "03b3276de7dd0a2b92c3a6400888083c", "fusion_lat": 0.0, "is_reserved": 0, "lat": 38.9138685, "fusion_lon": 0.0, "is_disabled": 0}, {"rental_uris": {"android": "https://dc.lft.to/lastmile_qr_scan", "ios": "https://dc.lft.to/lastmile_qr_scan"}, "type": "electric_scooter", "lon": -77.04096066666666, "name": "d3d5abed1245d555f5a27cc0a70229e2", "bike_id": "d3d5abed1245d555f5a27cc0a70229e2", "fusion_lat": 0.0, "is_reserved": 0, "lat": 38.917722833333336, "fusion_lon": 0.0, "is_disabled": 0}, {"rental_uris": {"android": "https://dc.lft.to/lastmile_qr_scan", "ios": "https://dc.lft.to/lastmile_qr_scan"}, "type": "electric_scooter", "lon": -76.93836216666666, "name": "5b14e77326d51d08fcefa130d4869f87", "bike_id": "5b14e77326d51d08fcefa130d4869f87", "fusion_lat": 0.0, "is_reserved": 0, "lat": 38.8975475, "fusion_lon": 0.0, "is_disabled": 0}, {"rental_uris": {"android": "https://dc.lft.to/lastmile_qr_scan", "ios": "https://dc.lft.to/lastmile_qr_scan"}, "type": "electric_scooter", "lon": -77.03878283333333, "name": "d51dfda57b4cf513112f8be5e73eca74", "bike_id": "d51dfda57b4cf513112f8be5e73eca74", "fusion_lat": 0.0, "is_reserved": 0, "lat": 38.934280333333334, "fusion_lon": 0.0, "is_disabled": 0}, {"rental_uris": {"android": "https://dc.lft.to/lastmile_qr_scan", "ios": "https://dc.lft.to/lastmile_qr_scan"}, "type": "electric_scooter", "lon": -77.05011066666667, "name": "6288336d877ee4fd83efad0e7365ab54", "bike_id": "6288336d877ee4fd83efad0e7365ab54", "fusion_lat": 0.0, "is_reserved": 0, "lat": 38.907605833333335, "fusion_lon": 0.0, "is_disabled": 0}, {"rental_uris": {"android": "https://dc.lft.to/lastmile_qr_scan", "ios": "https://dc.lft.to/lastmile_qr_scan"}, "type": "electric_bike", "lon": -77.10730216666667, "name": "c4b4c01eb13565d47bdd2816879382bd", "bike_id": "c4b4c01eb13565d47bdd2816879382bd", "fusion_lat": 0.0, "is_reserved": 0, "lat": 38.855537, "fusion_lon": 0.0, "is_disabled": 0}, {"rental_uris": {"android": "https://dc.lft.to/lastmile_qr_scan", "ios": "https://dc.lft.to/lastmile_qr_scan"}, "type": "electric_scooter", "lon": -77.02653083333334, "name": "d49de8fdcb5220b62883d2cb3f912d67", "bike_id": "d49de8fdcb5220b62883d2cb3f912d67", "fusion_lat": 0.0, "is_reserved": 0, "lat": 38.902424333333336, "fusion_lon": 0.0, "is_disabled": 0}, {"rental_uris": {"android": "https://dc.lft.to/lastmile_qr_scan", "ios": "https://dc.lft.to/lastmile_qr_scan"}, "type": "electric_scooter", "lon": -77.03707833333333, "name": "9e13f79643e76d83ade0749c5bed409f", "bike_id": "9e13f79643e76d83ade0749c5bed409f", "fusion_lat": 0.0, "is_reserved": 0, "lat": 38.92623, "fusion_lon": 0.0, "is_disabled": 0}, {"rental_uris": {"android": "https://dc.lft.to/lastmile_qr_scan", "ios": "https://dc.lft.to/lastmile_qr_scan"}, "type": "electric_scooter", "lon": -77.02122966666667, "name": "06b780eaa477e495e8d5740b5af62e73", "bike_id": "06b780eaa477e495e8d5740b5af62e73", "fusion_lat": 0.0, "is_reserved": 0, "lat": 38.9301875, "fusion_lon": 0.0, "is_disabled": 0}, {"rental_uris": {"android": "https://dc.lft.to/lastmile_qr_scan", "ios": "https://dc.lft.to/lastmile_qr_scan"}, "type": "electric_bike", "lon": -77.05118816666666, "name": "7533a5f22402d4d0eaa3f429ecb4c426", "bike_id": "7533a5f22402d4d0eaa3f429ecb4c426", "fusion_lat": 0.0, "is_reserved": 0, "lat": 38.94562066666667, "fusion_lon": 0.0, "is_disabled": 0}, {"rental_uris": {"android": "https://dc.lft.to/lastmile_qr_scan", "ios": "https://dc.lft.to/lastmile_qr_scan"}, "type": "electric_scooter", "lon": -77.0269935, "name": "04fe1646a6760c9cd44da43fc9ca1fbb", "bike_id": "04fe1646a6760c9cd44da43fc9ca1fbb", "fusion_lat": 0.0, "is_reserved": 0, "lat": 38.9045275, "fusion_lon": 0.0, "is_disabled": 0}, {"rental_uris": {"android": "https://dc.lft.to/lastmile_qr_scan", "ios": "https://dc.lft.to/lastmile_qr_scan"}, "type": "electric_scooter", "lon": -76.97823983333333, "name": "88edf0b2a42251b61d53c430dee01970", "bike_id": "88edf0b2a42251b61d53c430dee01970", "fusion_lat": 0.0, "is_reserved": 0, "lat": 38.8960375, "fusion_lon": 0.0, "is_disabled": 0}, {"rental_uris": {"android": "https://dc.lft.to/lastmile_qr_scan", "ios": "https://dc.lft.to/lastmile_qr_scan"}, "type": "electric_scooter", "lon": -77.02294166666667, "name": "03ade3cb422e581692db5207d9aff96b", "bike_id": "03ade3cb422e581692db5207d9aff96b", "fusion_lat": 0.0, "is_reserved": 0, "lat": 38.91786033333333, "fusion_lon": 0.0, "is_disabled": 0}, {"rental_uris": {"android": "https://dc.lft.to/lastmile_qr_scan", "ios": "https://dc.lft.to/lastmile_qr_scan"}, "type": "electric_scooter", "lon": -77.03290266666667, "name": "f0fe8c0029722e3eefbd4b96c47a2c3c", "bike_id": "f0fe8c0029722e3eefbd4b96c47a2c3c", "fusion_lat": 0.0, "is_reserved": 0, "lat": 38.9565215, "fusion_lon": 0.0, "is_disabled": 0}, {"rental_uris": {"android": "https://dc.lft.to/lastmile_qr_scan", "ios": "https://dc.lft.to/lastmile_qr_scan"}, "type": "electric_scooter", "lon": -77.0400095, "name": "591633f7f8f7122ccd1373aef8ff4933", "bike_id": "591633f7f8f7122ccd1373aef8ff4933", "fusion_lat": 0.0, "is_reserved": 0, "lat": 38.91801816666667, "fusion_lon": 0.0, "is_disabled": 0}, {"rental_uris": {"android": "https://dc.lft.to/lastmile_qr_scan", "ios": "https://dc.lft.to/lastmile_qr_scan"}, "type": "electric_bike", "lon": -77.12738033333333, "name": "5ef3b6ebce85c1da2e1c263210ea241d", "bike_id": "5ef3b6ebce85c1da2e1c263210ea241d", "fusion_lat": 0.0, "is_reserved": 0, "lat": 38.89564083333333, "fusion_lon": 0.0, "is_disabled": 0}, {"rental_uris": {"android": "https://dc.lft.to/lastmile_qr_scan", "ios": "https://dc.lft.to/lastmile_qr_scan"}, "type": "electric_scooter", "lon": -77.010055, "name": "886162147c185db5d107b05aa4ddadf7", "bike_id": "886162147c185db5d107b05aa4ddadf7", "fusion_lat": 0.0, "is_reserved": 0, "lat": 38.86704866666667, "fusion_lon": 0.0, "is_disabled": 0}, {"rental_uris": {"android": "https://dc.lft.to/lastmile_qr_scan", "ios": "https://dc.lft.to/lastmile_qr_scan"}, "type": "electric_scooter", "lon": -77.03979033333333, "name": "6a05a74d5f094b787946a6595c3dc072", "bike_id": "6a05a74d5f094b787946a6595c3dc072", "fusion_lat": 0.0, "is_reserved": 0, "lat": 38.916362666666664, "fusion_lon": 0.0, "is_disabled": 0}, {"rental_uris": {"android": "https://dc.lft.to/lastmile_qr_scan", "ios": "https://dc.lft.to/lastmile_qr_scan"}, "type": "electric_scooter", "lon": -77.03639466666667, "name": "c6944f5e33566d9aaf143786e48f8a2b", "bike_id": "c6944f5e33566d9aaf143786e48f8a2b", "fusion_lat": 0.0, "is_reserved": 0, "lat": 38.917603166666666, "fusion_lon": 0.0, "is_disabled": 0}, {"rental_uris": {"android": "https://dc.lft.to/lastmile_qr_scan", "ios": "https://dc.lft.to/lastmile_qr_scan"}, "type": "electric_scooter", "lon": -76.99887, "name": "b494defd7e9ec9f3d3bc5591240f4d33", "bike_id": "b494defd7e9ec9f3d3bc5591240f4d33", "fusion_lat": 0.0, "is_reserved": 0, "lat": 38.920542, "fusion_lon": 0.0, "is_disabled": 0}, {"rental_uris": {"android": "https://dc.lft.to/lastmile_qr_scan", "ios": "https://dc.lft.to/lastmile_qr_scan"}, "type": "electric_scooter", "lon": -77.04994083333334, "name": "c03dfefb555a9574fe322aebbf18bb65", "bike_id": "c03dfefb555a9574fe322aebbf18bb65", "fusion_lat": 0.0, "is_reserved": 0, "lat": 38.904015333333334, "fusion_lon": 0.0, "is_disabled": 0}, {"rental_uris": {"android": "https://dc.lft.to/lastmile_qr_scan", "ios": "https://dc.lft.to/lastmile_qr_scan"}, "type": "electric_scooter", "lon": -76.99371966666666, "name": "8b8426351c977ceb32905ef38d541f5d", "bike_id": "8b8426351c977ceb32905ef38d541f5d", "fusion_lat": 0.0, "is_reserved": 0, "lat": 38.9005435, "fusion_lon": 0.0, "is_disabled": 0}, {"rental_uris": {"android": "https://dc.lft.to/lastmile_qr_scan", "ios": "https://dc.lft.to/lastmile_qr_scan"}, "type": "electric_scooter", "lon": -76.98848516666666, "name": "730380d67ac1b1dfdc9ca6d82a206257", "bike_id": "730380d67ac1b1dfdc9ca6d82a206257", "fusion_lat": 0.0, "is_reserved": 0, "lat": 38.90343033333333, "fusion_lon": 0.0, "is_disabled": 0}, {"rental_uris": {"android": "https://dc.lft.to/lastmile_qr_scan", "ios": "https://dc.lft.to/lastmile_qr_scan"}, "type": "electric_scooter", "lon": -77.02772466666667, "name": "7d938808c87056ff4d166fc1840e2070", "bike_id": "7d938808c87056ff4d166fc1840e2070", "fusion_lat": 0.0, "is_reserved": 0, "lat": 38.89220433333333, "fusion_lon": 0.0, "is_disabled": 0}, {"rental_uris": {"android": "https://dc.lft.to/lastmile_qr_scan", "ios": "https://dc.lft.to/lastmile_qr_scan"}, "type": "electric_scooter", "lon": -77.02498933333334, "name": "1bc7be572658d5b78497422d50d78d20", "bike_id": "1bc7be572658d5b78497422d50d78d20", "fusion_lat": 0.0, "is_reserved": 0, "lat": 38.932808333333334, "fusion_lon": 0.0, "is_disabled": 0}, {"rental_uris": {"android": "https://dc.lft.to/lastmile_qr_scan", "ios": "https://dc.lft.to/lastmile_qr_scan"}, "type": "electric_bike", "lon": -76.98163566666666, "name": "b7589ff9a42d2fedbb825493e1124f69", "bike_id": "b7589ff9a42d2fedbb825493e1124f69", "fusion_lat": 0.0, "is_reserved": 0, "lat": 38.88495833333333, "fusion_lon": 0.0, "is_disabled": 0}, {"rental_uris": {"android": "https://dc.lft.to/lastmile_qr_scan", "ios": "https://dc.lft.to/lastmile_qr_scan"}, "type": "electric_bike", "lon": -77.36092483333333, "name": "7dc62d95fc9489472845b6d5b530740f", "bike_id": "7dc62d95fc9489472845b6d5b530740f", "fusion_lat": 0.0, "is_reserved": 0, "lat": 38.939565, "fusion_lon": 0.0, "is_disabled": 0}, {"rental_uris": {"android": "https://dc.lft.to/lastmile_qr_scan", "ios": "https://dc.lft.to/lastmile_qr_scan"}, "type": "electric_scooter", "lon": -77.02170516666666, "name": "d3b0e25b892d80d08ee9fe07c797e30c", "bike_id": "d3b0e25b892d80d08ee9fe07c797e30c", "fusion_lat": 0.0, "is_reserved": 0, "lat": 38.942924833333336, "fusion_lon": 0.0, "is_disabled": 0}, {"rental_uris": {"android": "https://dc.lft.to/lastmile_qr_scan", "ios": "https://dc.lft.to/lastmile_qr_scan"}, "type": "electric_scooter", "lon": -77.03472516666666, "name": "125a846fcb54fdc1da3660066287245c", "bike_id": "125a846fcb54fdc1da3660066287245c", "fusion_lat": 0.0, "is_reserved": 0, "lat": 38.9215775, "fusion_lon": 0.0, "is_disabled": 0}, {"rental_uris": {"android": "https://dc.lft.to/lastmile_qr_scan", "ios": "https://dc.lft.to/lastmile_qr_scan"}, "type": "electric_scooter", "lon": -77.040314, "name": "74c1d07794d17a7ea10b8fddb63a02dc", "bike_id": "74c1d07794d17a7ea10b8fddb63a02dc", "fusion_lat": 0.0, "is_reserved": 0, "lat": 38.9002065, "fusion_lon": 0.0, "is_disabled": 0}, {"rental_uris": {"android": "https://dc.lft.to/lastmile_qr_scan", "ios": "https://dc.lft.to/lastmile_qr_scan"}, "type": "electric_scooter", "lon": -76.99015316666667, "name": "5b4de627417ed6ef2b97a5afbc6f2b1a", "bike_id": "5b4de627417ed6ef2b97a5afbc6f2b1a", "fusion_lat": 0.0, "is_reserved": 0, "lat": 38.886175333333334, "fusion_lon": 0.0, "is_disabled": 0}, {"rental_uris": {"android": "https://dc.lft.to/lastmile_qr_scan", "ios": "https://dc.lft.to/lastmile_qr_scan"}, "type": "electric_scooter", "lon": -77.03579033333334, "name": "567733c41eec84c1cc4accdce5a83840", "bike_id": "567733c41eec84c1cc4accdce5a83840", "fusion_lat": 0.0, "is_reserved": 0, "lat": 38.9347065, "fusion_lon": 0.0, "is_disabled": 0}, {"rental_uris": {"android": "https://dc.lft.to/lastmile_qr_scan", "ios": "https://dc.lft.to/lastmile_qr_scan"}, "type": "electric_scooter", "lon": -77.01415033333333, "name": "563124d14d8c81f6688483c3e1b392cc", "bike_id": "563124d14d8c81f6688483c3e1b392cc", "fusion_lat": 0.0, "is_reserved": 0, "lat": 38.87893416666667, "fusion_lon": 0.0, "is_disabled": 0}, {"rental_uris": {"android": "https://dc.lft.to/lastmile_qr_scan", "ios": "https://dc.lft.to/lastmile_qr_scan"}, "type": "electric_scooter", "lon": -77.03831033333333, "name": "57e9fb37efcc42910e56890e15486947", "bike_id": "57e9fb37efcc42910e56890e15486947", "fusion_lat": 0.0, "is_reserved": 0, "lat": 38.92165966666666, "fusion_lon": 0.0, "is_disabled": 0}, {"rental_uris": {"android": "https://dc.lft.to/lastmile_qr_scan", "ios": "https://dc.lft.to/lastmile_qr_scan"}, "type": "electric_scooter", "lon": -77.032933, "name": "d21912a99d3ec4e4ad3120251d189817", "bike_id": "d21912a99d3ec4e4ad3120251d189817", "fusion_lat": 0.0, "is_reserved": 0, "lat": 38.922117666666665, "fusion_lon": 0.0, "is_disabled": 0}, {"rental_uris": {"android": "https://dc.lft.to/lastmile_qr_scan", "ios": "https://dc.lft.to/lastmile_qr_scan"}, "type": "electric_scooter", "lon": -77.02116666666667, "name": "e0198608a85834f112234643a7717231", "bike_id": "e0198608a85834f112234643a7717231", "fusion_lat": 0.0, "is_reserved": 0, "lat": 38.91732233333333, "fusion_lon": 0.0, "is_disabled": 0}, {"rental_uris": {"android": "https://dc.lft.to/lastmile_qr_scan", "ios": "https://dc.lft.to/lastmile_qr_scan"}, "type": "electric_scooter", "lon": -77.00126766666666, "name": "0681f6ac660e8cb5cef29454226e27b1", "bike_id": "0681f6ac660e8cb5cef29454226e27b1", "fusion_lat": 0.0, "is_reserved": 0, "lat": 38.87793516666667, "fusion_lon": 0.0, "is_disabled": 0}, {"rental_uris": {"android": "https://dc.lft.to/lastmile_qr_scan", "ios": "https://dc.lft.to/lastmile_qr_scan"}, "type": "electric_scooter", "lon": -77.04209783333333, "name": "398d87742ac0fb99446e5d03fefff2b0", "bike_id": "398d87742ac0fb99446e5d03fefff2b0", "fusion_lat": 0.0, "is_reserved": 0, "lat": 38.91123, "fusion_lon": 0.0, "is_disabled": 0}, {"rental_uris": {"android": "https://dc.lft.to/lastmile_qr_scan", "ios": "https://dc.lft.to/lastmile_qr_scan"}, "type": "electric_scooter", "lon": -77.03442, "name": "0ebee20fbc717ea7b932578f7ad2c82d", "bike_id": "0ebee20fbc717ea7b932578f7ad2c82d", "fusion_lat": 0.0, "is_reserved": 0, "lat": 38.934348, "fusion_lon": 0.0, "is_disabled": 0}, {"rental_uris": {"android": "https://dc.lft.to/lastmile_qr_scan", "ios": "https://dc.lft.to/lastmile_qr_scan"}, "type": "electric_scooter", "lon": -77.03791783333334, "name": "7e31bcb75311552429e85b5dae48f4f3", "bike_id": "7e31bcb75311552429e85b5dae48f4f3", "fusion_lat": 0.0, "is_reserved": 0, "lat": 38.90572016666667, "fusion_lon": 0.0, "is_disabled": 0}, {"rental_uris": {"android": "https://dc.lft.to/lastmile_qr_scan", "ios": "https://dc.lft.to/lastmile_qr_scan"}, "type": "electric_scooter", "lon": -77.029774, "name": "f7a7d365f6205f2c5ccca3082783e73b", "bike_id": "f7a7d365f6205f2c5ccca3082783e73b", "fusion_lat": 0.0, "is_reserved": 0, "lat": 38.94065616666666, "fusion_lon": 0.0, "is_disabled": 0}, {"rental_uris": {"android": "https://dc.lft.to/lastmile_qr_scan", "ios": "https://dc.lft.to/lastmile_qr_scan"}, "type": "electric_scooter", "lon": -77.021992, "name": "3ab0f96cc59428b83d6c9af0ba1b9d8a", "bike_id": "3ab0f96cc59428b83d6c9af0ba1b9d8a", "fusion_lat": 0.0, "is_reserved": 0, "lat": 38.89640333333333, "fusion_lon": 0.0, "is_disabled": 0}, {"rental_uris": {"android": "https://dc.lft.to/lastmile_qr_scan", "ios": "https://dc.lft.to/lastmile_qr_scan"}, "type": "electric_scooter", "lon": -77.03844716666667, "name": "a99085c13d6737bd735ac9eddc3f5280", "bike_id": "a99085c13d6737bd735ac9eddc3f5280", "fusion_lat": 0.0, "is_reserved": 0, "lat": 38.915326, "fusion_lon": 0.0, "is_disabled": 0},