{"data": {"bikes": [{"lat": 38.925308666666666, "type": "electric_scooter", "is_disabled": 0, "rental_uris": {"android": "https://dc.lft.to/lastmile_qr_scan", "ios": "https://dc.lft.to/lastmile_qr_scan"}, "is_reserved": 0, "bike_id": "a395d7021bf97d24f9f40cfc3658f03c", "name": "a395d7021bf97d24f9f40cfc3658f03c", "fusion_lon": 0.0, "lon": -77.04097633333333, "fusion_lat": 0.0}, {"lat": 38.8871485, "type": "electric_scooter", "is_disabled": 0, "rental_uris": {"android": "https://dc.lft.to/lastmile_qr_scan", "ios": "https://dc.lft.to/lastmile_qr_scan"}, "is_reserved": 0, "bike_id": "d4937d464a29e05cd5994cf487995e58", "name": "d4937d464a29e05cd5994cf487995e58", "fusion_lon": 0.0, "lon": -77.0320725, "fusion_lat": 0.0}, {"lat": 38.89646616666667, "type": "electric_scooter", "is_disabled": 0, "rental_uris": {"android": "https://dc.lft.to/lastmile_qr_scan", "ios": "https://dc.lft.to/lastmile_qr_scan"}, "is_reserved": 0, "bike_id": "989957b505e04f0dc87d94ecbbe5cc1b", "name": "989957b505e04f0dc87d94ecbbe5cc1b", "fusion_lon": 0.0, "lon": -77.02710816666666, "fusion_lat": 0.0}, {"lat": 38.908549666666666, "type": "electric_scooter", "is_disabled": 0, "rental_uris": {"android": "https://dc.lft.to/lastmile_qr_scan", "ios": "https://dc.lft.to/lastmile_qr_scan"}, "is_reserved": 0, "bike_id": "8880661074adeb1c6f316169bff642ab", "name": "8880661074adeb1c6f316169bff642ab", "fusion_lon": 0.0, "lon": -77.047662, "fusion_lat": 0.0}, {"lat": 38.89840016666667, "type": "electric_scooter", "is_disabled": 0, "rental_uris": {"android": "https://dc.lft.to/lastmile_qr_scan", "ios": "https://dc.lft.to/lastmile_qr_scan"}, "is_reserved": 0, "bike_id": "9ae4e8d9674c425ef22bb1ef4991008c", "name": "9ae4e8d9674c425ef22bb1ef4991008c", "fusion_lon": 0.0, "lon": -76.946338, "fusion_lat": 0.0}, {"lat": 38.90477416666667, "type": "electric_scooter", "is_disabled": 0, "rental_uris": {"android": "https://dc.lft.to/lastmile_qr_scan", "ios": "https://dc.lft.to/lastmile_qr_scan"}, "is_reserved": 0, "bike_id": "9a6d1619a65b17170e63faa42fad85be", "name": "9a6d1619a65b17170e63faa42fad85be", "fusion_lon": 0.0, "lon": -77.06219, "fusion_lat": 0.0}, {"lat": 38.918685333333336, "type": "electric_scooter", "is_disabled": 0, "rental_uris": {"android": "https://dc.lft.to/lastmile_qr_scan", "ios": "https://dc.lft.to/lastmile_qr_scan"}, "is_reserved": 0, "bike_id": "57ab3a6c400e56cb843c7d39fdf9419c", "name": "57ab3a6c400e56cb843c7d39fdf9419c", "fusion_lon": 0.0, "lon": -77.04031516666667, "fusion_lat": 0.0}, {"lat": 38.8982665, "type": "electric_scooter", "is_disabled": 0, "rental_uris": {"android": "https://dc.lft.to/lastmile_qr_scan", "ios": "https://dc.lft.to/lastmile_qr_scan"}, "is_reserved": 0, "bike_id": "8461129410ce771ec18b0aec61e35ee6", "name": "8461129410ce771ec18b0aec61e35ee6", "fusion_lon": 0.0, "lon": -77.029237, "fusion_lat": 0.0}, {"lat": 38.8923645, "type": "electric_scooter", "is_disabled": 0, "rental_uris": {"android": "https://dc.lft.to/lastmile_qr_scan", "ios": "https://dc.lft.to/lastmile_qr_scan"}, "is_reserved": 0, "bike_id": "ba152c151e3b620e6152727db91dc2fb", "name": "ba152c151e3b620e6152727db91dc2fb", "fusion_lon": 0.0, "lon": -77.0317495, "fusion_lat": 0.0}, {"lat": 38.906073666666664, "type": "electric_scooter", "is_disabled": 0, "rental_uris": {"android": "https://dc.lft.to/lastmile_qr_scan", "ios": "https://dc.lft.to/lastmile_qr_scan"}, "is_reserved": 0, "bike_id": "db49a00f861b274792df7337eb0133d4", "name": "db49a00f861b274792df7337eb0133d4", "fusion_lon": 0.0, "lon": -77.04339833333333, "fusion_lat": 0.0}, {"lat": 38.909568, "type": "electric_scooter", "is_disabled": 0, "rental_uris": {"android": "https://dc.lft.to/lastmile_qr_scan", "ios": "https://dc.lft.to/lastmile_qr_scan"}, "is_reserved": 0, "bike_id": "c14295e4642fa5e4f2a2e0f8c9860cc2", "name": "c14295e4642fa5e4f2a2e0f8c9860cc2", "fusion_lon": 0.0, "lon": -77.04863383333333, "fusion_lat": 0.0}, {"lat": 38.936350166666664, "type": "electric_scooter", "is_disabled": 0, "rental_uris": {"android": "https://dc.lft.to/lastmile_qr_scan", "ios": "https://dc.lft.to/lastmile_qr_scan"}, "is_reserved": 0, "bike_id": "f952db79bfd31f907bd755cb6b78ffd1", "name": "f952db79bfd31f907bd755cb6b78ffd1", "fusion_lon": 0.0, "lon": -77.0269515, "fusion_lat": 0.0}, {"lat": 38.8987445, "type": "electric_scooter", "is_disabled": 0, "rental_uris": {"android": "https://dc.lft.to/lastmile_qr_scan", "ios": "https://dc.lft.to/lastmile_qr_scan"}, "is_reserved": 0, "bike_id": "a0875dfe0d7d9f2a165bd64117716f7a", "name": "a0875dfe0d7d9f2a165bd64117716f7a", "fusion_lon": 0.0, "lon": -77.02180833333334, "fusion_lat": 0.0}, {"lat": 38.90851466666667, "type": "electric_scooter", "is_disabled": 0, "rental_uris": {"android": "https://dc.lft.to/lastmile_qr_scan", "ios": "https://dc.lft.to/lastmile_qr_scan"}, "is_reserved": 0, "bike_id": "bc4741299d1fdc2f140ec3e7464b4545", "name": "bc4741299d1fdc2f140ec3e7464b4545", "fusion_lon": 0.0, "lon": -77.06079466666667, "fusion_lat": 0.0}, {"lat": 38.864338833333335, "type": "electric_scooter", "is_disabled": 0, "rental_uris": {"android": "https://dc.lft.to/lastmile_qr_scan", "ios": "https://dc.lft.to/lastmile_qr_scan"}, "is_reserved": 0, "bike_id": "1925e5de153ff00dd954e0dd3b172194", "name": "1925e5de153ff00dd954e0dd3b172194", "fusion_lon": 0.0, "lon": -76.98993933333334, "fusion_lat": 0.0}, {"lat": 38.921712666666664, "type": "electric_scooter", "is_disabled": 0, "rental_uris": {"android": "https://dc.lft.to/lastmile_qr_scan", "ios": "https://dc.lft.to/lastmile_qr_scan"}, "is_reserved": 0, "bike_id": "9aff99dd4d970a6f20e04f9aebd2bc80", "name": "9aff99dd4d970a6f20e04f9aebd2bc80", "fusion_lon": 0.0, "lon": -77.0382675, "fusion_lat": 0.0}, {"lat": 38.8551365, "type": "electric_bike", "is_disabled": 0, "rental_uris": {"android": "https://dc.lft.to/lastmile_qr_scan", "ios": "https://dc.lft.to/lastmile_qr_scan"}, "is_reserved": 0, "bike_id": "cb1ba9919adde5ff9dfcff8e0b82c8fc", "name": "cb1ba9919adde5ff9dfcff8e0b82c8fc", "fusion_lon": 0.0, "lon": -76.984333, "fusion_lat": 0.0}, {"lat": 38.993991666666666, "type": "electric_bike", "is_disabled": 0, "rental_uris": {"android": "https://dc.lft.to/lastmile_qr_scan", "ios": "https://dc.lft.to/lastmile_qr_scan"}, "is_reserved": 0, "bike_id": "99920829960c1ecb0025c7fb55d414c1", "name": "99920829960c1ecb0025c7fb55d414c1", "fusion_lon": 0.0, "lon": -77.02410216666667, "fusion_lat": 0.0}, {"lat": 38.898733, "type": "electric_scooter", "is_disabled": 0, "rental_uris": {"android": "https://dc.lft.to/lastmile_qr_scan", "ios": "https://dc.lft.to/lastmile_qr_scan"}, "is_reserved": 0, "bike_id": "f37131f9c2a5ad276e577f932be405da", "name": "f37131f9c2a5ad276e577f932be405da", "fusion_lon": 0.0, "lon": -77.0336785, "fusion_lat": 0.0}, {"lat": 38.909728333333334, "type": "electric_scooter", "is_disabled": 0, "rental_uris": {"android": "https://dc.lft.to/lastmile_qr_scan", "ios": "https://dc.lft.to/lastmile_qr_scan"}, "is_reserved": 0, "bike_id": "6428f78eae3f7f87c535b6ea1f227350", "name": "6428f78eae3f7f87c535b6ea1f227350", "fusion_lon": 0.0, "lon": -77.03213716666667, "fusion_lat": 0.0}, {"lat": 38.863314333333335, "type": "electric_bike", "is_disabled": 0, "rental_uris": {"android": "https://dc.lft.to/lastmile_qr_scan", "ios": "https://dc.lft.to/lastmile_qr_scan"}, "is_reserved": 0, "bike_id": "f9e94f4e7205acd87b6bc4d07f64e5e3", "name": "f9e94f4e7205acd87b6bc4d07f64e5e3", "fusion_lon": 0.0, "lon": -76.9871715, "fusion_lat": 0.0}, {"lat": 38.89368733333333, "type": "electric_scooter", "is_disabled": 0, "rental_uris": {"android": "https://dc.lft.to/lastmile_qr_scan", "ios": "https://dc.lft.to/lastmile_qr_scan"}, "is_reserved": 0, "bike_id": "dfe78e379274b9c489faf3ecd2dddbf6", "name": "dfe78e379274b9c489faf3ecd2dddbf6", "fusion_lon": 0.0, "lon": -77.04789166666667, "fusion_lat": 0.0}, {"lat": 38.8814355, "type": "electric_scooter", "is_disabled": 0, "rental_uris": {"android": "https://dc.lft.to/lastmile_qr_scan", "ios": "https://dc.lft.to/lastmile_qr_scan"}, "is_reserved": 0, "bike_id": "1d5571915901ed8e789a49edc8f4a647", "name": "1d5571915901ed8e789a49edc8f4a647", "fusion_lon": 0.0, "lon": -76.9916045, "fusion_lat": 0.0}, {"lat": 38.88768966666667, "type": "electric_scooter", "is_disabled": 0, "rental_uris": {"android": "https://dc.lft.to/lastmile_qr_scan", "ios": "https://dc.lft.to/lastmile_qr_scan"}, "is_reserved": 0, "bike_id": "ab1a5ec29a7ed9c8dc146dd9b14c8c23", "name": "ab1a5ec29a7ed9c8dc146dd9b14c8c23", "fusion_lon": 0.0, "lon": -77.0154735, "fusion_lat": 0.0}, {"lat": 38.9045485, "type": "electric_scooter", "is_disabled": 0, "rental_uris": {"android": "https://dc.lft.to/lastmile_qr_scan", "ios": "https://dc.lft.to/lastmile_qr_scan"}, "is_reserved": 0, "bike_id": "040d00b64b5d98e135ffb4c0e0583bce", "name": "040d00b64b5d98e135ffb4c0e0583bce", "fusion_lon": 0.0, "lon": -77.02958433333333, "fusion_lat": 0.0}, {"lat": 38.879592333333335, "type": "electric_scooter", "is_disabled": 0, "rental_uris": {"android": "https://dc.lft.to/lastmile_qr_scan", "ios": "https://dc.lft.to/lastmile_qr_scan"}, "is_reserved": 0, "bike_id": "cefa8be6988cdc5115ecef984df69a0a", "name": "cefa8be6988cdc5115ecef984df69a0a", "fusion_lon": 0.0, "lon": -76.987456, "fusion_lat": 0.0}, {"lat": 38.925841, "type": "electric_scooter", "is_disabled": 0, "rental_uris": {"android": "https://dc.lft.to/lastmile_qr_scan", "ios": "https://dc.lft.to/lastmile_qr_scan"}, "is_reserved": 0, "bike_id": "219e2f2bd914c4155d52b6c42da239b5", "name": "219e2f2bd914c4155d52b6c42da239b5", "fusion_lon": 0.0, "lon": -77.03214033333333, "fusion_lat": 0.0}, {"lat": 38.869946, "type": "electric_scooter", "is_disabled": 0, "rental_uris": {"android": "https://dc.lft.to/lastmile_qr_scan", "ios": "https://dc.lft.to/lastmile_qr_scan"}, "is_reserved": 0, "bike_id": "cec18d5aa6b627ff2068683d88223946", "name": "cec18d5aa6b627ff2068683d88223946", "fusion_lon": 0.0, "lon": -77.01052283333334, "fusion_lat": 0.0}, {"lat": 38.900350833333334, "type": "electric_scooter", "is_disabled": 0, "rental_uris": {"android": "https://dc.lft.to/lastmile_qr_scan", "ios": "https://dc.lft.to/lastmile_qr_scan"}, "is_reserved": 0, "bike_id": "ea2d938402170d721bb4b35e488b0212", "name": "ea2d938402170d721bb4b35e488b0212", "fusion_lon": 0.0, "lon": -77.0116135, "fusion_lat": 0.0}, {"lat": 38.85649183333334, "type": "electric_bike", "is_disabled": 0, "rental_uris": {"android": "https://dc.lft.to/lastmile_qr_scan", "ios": "https://dc.lft.to/lastmile_qr_scan"}, "is_reserved": 0, "bike_id": "1b4fe2842f695df10fa54fc50e70938a", "name": "1b4fe2842f695df10fa54fc50e70938a", "fusion_lon": 0.0, "lon": -77.08523733333334, "fusion_lat": 0.0}, {"lat": 38.886156, "type": "electric_scooter", "is_disabled": 0, "rental_uris": {"android": "https://dc.lft.to/lastmile_qr_scan", "ios": "https://dc.lft.to/lastmile_qr_scan"}, "is_reserved": 0, "bike_id": "274adc621f18f50ac3e65c58867048e0", "name": "274adc621f18f50ac3e65c58867048e0", "fusion_lon": 0.0, "lon": -77.00569416666667, "fusion_lat": 0.0}, {"lat": 38.862471666666664, "type": "electric_scooter", "is_disabled": 0, "rental_uris": {"android": "https://dc.lft.to/lastmile_qr_scan", "ios": "https://dc.lft.to/lastmile_qr_scan"}, "is_reserved": 0, "bike_id": "a4196b74a7d562946104c8229d9e20b8", "name": "a4196b74a7d562946104c8229d9e20b8", "fusion_lon": 0.0, "lon": -76.99533816666667, "fusion_lat": 0.0}, {"lat": 38.9352385, "type": "electric_scooter", "is_disabled": 0, "rental_uris": {"android": "https://dc.lft.to/lastmile_qr_scan", "ios": "https://dc.lft.to/lastmile_qr_scan"}, "is_reserved": 0, "bike_id": "f14be4e4f5c797c9e0dca583f02ae014", "name": "f14be4e4f5c797c9e0dca583f02ae014", "fusion_lon": 0.0, "lon": -77.0325745, "fusion_lat": 0.0}, {"lat": 38.911944166666665, "type": "electric_scooter", "is_disabled": 0, "rental_uris": {"android": "https://dc.lft.to/lastmile_qr_scan", "ios": "https://dc.lft.to/lastmile_qr_scan"}, "is_reserved": 0, "bike_id": "c6c3a6ef670ecbe2a01085e9e574d03c", "name": "c6c3a6ef670ecbe2a01085e9e574d03c", "fusion_lon": 0.0, "lon": -77.04167083333333, "fusion_lat": 0.0}, {"lat": 38.896674, "type": "electric_scooter", "is_disabled": 0, "rental_uris": {"android": "https://dc.lft.to/lastmile_qr_scan", "ios": "https://dc.lft.to/lastmile_qr_scan"}, "is_reserved": 0, "bike_id": "82dd698074efabf17eb3cb06e098d1fb", "name": "82dd698074efabf17eb3cb06e098d1fb", "fusion_lon": 0.0, "lon": -77.05103683333333, "fusion_lat": 0.0}, {"lat": 38.956382166666664, "type": "electric_scooter", "is_disabled": 0, "rental_uris": {"android": "https://dc.lft.to/lastmile_qr_scan", "ios": "https://dc.lft.to/lastmile_qr_scan"}, "is_reserved": 0, "bike_id": "68b8f0abdd103be03c6b93c6b4664c8b", "name": "68b8f0abdd103be03c6b93c6b4664c8b", "fusion_lon": 0.0, "lon": -77.09098833333333, "fusion_lat": 0.0}, {"lat": 38.89458616666667, "type": "electric_scooter", "is_disabled": 0, "rental_uris": {"android": "https://dc.lft.to/lastmile_qr_scan", "ios": "https://dc.lft.to/lastmile_qr_scan"}, "is_reserved": 0, "bike_id": "b43c1c867d01b16bd2c7210da04c45e7", "name": "b43c1c867d01b16bd2c7210da04c45e7", "fusion_lon": 0.0, "lon": -76.94816366666667, "fusion_lat": 0.0}, {"lat": 38.886567, "type": "electric_scooter", "is_disabled": 0, "rental_uris": {"android": "https://dc.lft.to/lastmile_qr_scan", "ios": "https://dc.lft.to/lastmile_qr_scan"}, "is_reserved": 0, "bike_id": "a8129291f372d1efa97760c08c7141ae", "name": "a8129291f372d1efa97760c08c7141ae", "fusion_lon": 0.0, "lon": -77.03388566666666, "fusion_lat": 0.0}, {"lat": 38.844307, "type": "electric_scooter", "is_disabled": 0, "rental_uris": {"android": "https://dc.lft.to/lastmile_qr_scan", "ios": "https://dc.lft.to/lastmile_qr_scan"}, "is_reserved": 0, "bike_id": "337819b18c55db3449e9c52b939df017", "name": "337819b18c55db3449e9c52b939df017", "fusion_lon": 0.0, "lon": -76.99777533333334, "fusion_lat": 0.0}, {"lat": 38.89869866666667, "type": "electric_scooter", "is_disabled": 0, "rental_uris": {"android": "https://dc.lft.to/lastmile_qr_scan", "ios": "https://dc.lft.to/lastmile_qr_scan"}, "is_reserved": 0, "bike_id": "b09080f4361fcf4d55857cd98b11c254", "name": "b09080f4361fcf4d55857cd98b11c254", "fusion_lon": 0.0, "lon": -77.04014566666666, "fusion_lat": 0.0}, {"lat": 38.90251333333333, "type": "electric_scooter", "is_disabled": 0, "rental_uris": {"android": "https://dc.lft.to/lastmile_qr_scan", "ios": "https://dc.lft.to/lastmile_qr_scan"}, "is_reserved": 0, "bike_id": "064bf944ae46b24efc61a0de09c156d2", "name": "064bf944ae46b24efc61a0de09c156d2", "fusion_lon": 0.0, "lon": -77.04533083333334, "fusion_lat": 0.0}, {"lat": 38.901974, "type": "electric_scooter", "is_disabled": 0, "rental_uris": {"android": "https://dc.lft.to/lastmile_qr_scan", "ios": "https://dc.lft.to/lastmile_qr_scan"}, "is_reserved": 0, "bike_id": "9a8b82342c883bb3d3d5165f88cec57d", "name": "9a8b82342c883bb3d3d5165f88cec57d", "fusion_lon": 0.0, "lon": -77.06119916666667, "fusion_lat": 0.0}, {"lat": 38.89610716666667, "type": "electric_scooter", "is_disabled": 0, "rental_uris": {"android": "https://dc.lft.to/lastmile_qr_scan", "ios": "https://dc.lft.to/lastmile_qr_scan"}, "is_reserved": 0, "bike_id": "0b64c7e3e2c1999cb193e2671e39c764", "name": "0b64c7e3e2c1999cb193e2671e39c764", "fusion_lon": 0.0, "lon": -77.0108505, "fusion_lat": 0.0}, {"lat": 38.919785833333336, "type": "electric_scooter", "is_disabled": 0, "rental_uris": {"android": "https://dc.lft.to/lastmile_qr_scan", "ios": "https://dc.lft.to/lastmile_qr_scan"}, "is_reserved": 0, "bike_id": "db652e9e6769d716fbf6bc39ec81dfb2", "name": "db652e9e6769d716fbf6bc39ec81dfb2", "fusion_lon": 0.0, "lon": -77.02183416666666, "fusion_lat": 0.0}, {"lat": 38.857887166666664, "type": "electric_bike", "is_disabled": 0, "rental_uris": {"android": "https://dc.lft.to/lastmile_qr_scan", "ios": "https://dc.lft.to/lastmile_qr_scan"}, "is_reserved": 0, "bike_id": "1434948d51bf82e88484859df3128990", "name": "1434948d51bf82e88484859df3128990", "fusion_lon": 0.0, "lon": -77.09962066666667, "fusion_lat": 0.0}, {"lat": 38.91337266666667, "type": "electric_scooter", "is_disabled": 0, "rental_uris": {"android": "https://dc.lft.to/lastmile_qr_scan", "ios": "https://dc.lft.to/lastmile_qr_scan"}, "is_reserved": 0, "bike_id": "dab5cd8b1176085f5f0919b6340c1d76", "name": "dab5cd8b1176085f5f0919b6340c1d76", "fusion_lon": 0.0, "lon": -77.032444, "fusion_lat": 0.0}, {"lat": 38.926535333333334, "type": "electric_scooter", "is_disabled": 0, "rental_uris": {"android": "https://dc.lft.to/lastmile_qr_scan", "ios": "https://dc.lft.to/lastmile_qr_scan"}, "is_reserved": 0, "bike_id": "0efeb3f393013bcf447d05a93d345853", "name": "0efeb3f393013bcf447d05a93d345853", "fusion_lon": 0.0, "lon": -77.037136, "fusion_lat": 0.0}, {"lat": 38.91417283333333, "type": "electric_scooter", "is_disabled": 0, "rental_uris": {"android": "https://dc.lft.to/lastmile_qr_scan", "ios": "https://dc.lft.to/lastmile_qr_scan"}, "is_reserved": 0, "bike_id": "796b4411a324337df355449d27494792", "name": "796b4411a324337df355449d27494792", "fusion_lon": 0.0, "lon": -77.02546, "fusion_lat": 0.0}, {"lat": 38.882842, "type": "electric_scooter", "is_disabled": 0, "rental_uris": {"android": "https://dc.lft.to/lastmile_qr_scan", "ios": "https://dc.lft.to/lastmile_qr_scan"}, "is_reserved": 0, "bike_id": "1ee1602b6a020e2bf0754140ca09d005", "name": "1ee1602b6a020e2bf0754140ca09d005", "fusion_lon": 0.0, "lon": -76.995021, "fusion_lat": 0.0}, {"lat": 38.87716866666667, "type": "electric_scooter", "is_disabled": 0, "rental_uris": {"android": "https://dc.lft.to/lastmile_qr_scan", "ios": "https://dc.lft.to/lastmile_qr_scan"}, "is_reserved": 0, "bike_id": "9796c1ce1e341c0e876e3b073a405711", "name": "9796c1ce1e341c0e876e3b073a405711", "fusion_lon": 0.0, "lon": -77.016577, "fusion_lat": 0.0}, {"lat": 38.884505833333336, "type": "electric_scooter", "is_disabled": 0, "rental_uris": {"android": "https://dc.lft.to/lastmile_qr_scan", "ios": "https://dc.lft.to/lastmile_qr_scan"}, "is_reserved": 0, "bike_id": "d6f77e0ee961e4407eed38bce75ea862", "name": "d6f77e0ee961e4407eed38bce75ea862", "fusion_lon": 0.0, "lon": -76.95095983333333, "fusion_lat": 0.0}, {"lat": 38.911762, "type": "electric_scooter", "is_disabled": 0, "rental_uris": {"android": "https://dc.lft.to/lastmile_qr_scan", "ios": "https://dc.lft.to/lastmile_qr_scan"}, "is_reserved": 0, "bike_id": "6b91f578bc81b38814e5c9658c5c7128", "name": "6b91f578bc81b38814e5c9658c5c7128", "fusion_lon": 0.0, "lon": -77.00246433333334, "fusion_lat": 0.0}, {"lat": 38.903565666666665, "type": "electric_scooter", "is_disabled": 0, "rental_uris": {"android": "https://dc.lft.to/lastmile_qr_scan", "ios": "https://dc.lft.to/lastmile_qr_scan"}, "is_reserved": 0, "bike_id": "aca969ad33b8dceefd9e5f38d04226d9", "name": "aca969ad33b8dceefd9e5f38d04226d9", "fusion_lon": 0.0, "lon": -77.03431533333334, "fusion_lat": 0.0}, {"lat": 38.91392466666667, "type": "electric_scooter", "is_disabled": 0, "rental_uris": {"android": "https://dc.lft.to/lastmile_qr_scan", "ios": "https://dc.lft.to/lastmile_qr_scan"}, "is_reserved": 0, "bike_id": "ae9da617d287ccd30f16984ab17d22c8", "name": "ae9da617d287ccd30f16984ab17d22c8", "fusion_lon": 0.0, "lon": -77.03209316666667, "fusion_lat": 0.0}, {"lat": 38.8929365, "type": "electric_bike", "is_disabled": 0, "rental_uris": {"android": "https://dc.lft.to/lastmile_qr_scan", "ios": "https://dc.lft.to/lastmile_qr_scan"}, "is_reserved": 0, "bike_id": "472737e685dd955d6af5d0c7539b4cfb", "name": "472737e685dd955d6af5d0c7539b4cfb", "fusion_lon": 0.0, "lon": -76.97616316666667, "fusion_lat": 0.0}, {"lat": 38.93565916666667, "type": "electric_scooter", "is_disabled": 0, "rental_uris": {"android": "https://dc.lft.to/lastmile_qr_scan", "ios": "https://dc.lft.to/lastmile_qr_scan"}, "is_reserved": 0, "bike_id": "80061bbe39714491db5842005e09581c", "name": "80061bbe39714491db5842005e09581c", "fusion_lon": 0.0, "lon": -77.024949, "fusion_lat": 0.0}, {"lat": 38.934109, "type": "electric_scooter", "is_disabled": 0, "rental_uris": {"android": "https://dc.lft.to/lastmile_qr_scan", "ios": "https://dc.lft.to/lastmile_qr_scan"}, "is_reserved": 0, "bike_id": "9def5373dd39e2ad5c8ac2cb040c6a80", "name": "9def5373dd39e2ad5c8ac2cb040c6a80", "fusion_lon": 0.0, "lon": -77.042659, "fusion_lat": 0.0}, {"lat": 38.871741666666665, "type": "electric_scooter", "is_disabled": 0, "rental_uris": {"android": "https://dc.lft.to/lastmile_qr_scan", "ios": "https://dc.lft.to/lastmile_qr_scan"}, "is_reserved": 0, "bike_id": "25012d61faee20332efcf972f8735e25", "name": "25012d61faee20332efcf972f8735e25", "fusion_lon": 0.0, "lon": -77.006255, "fusion_lat": 0.0}, {"lat": 38.915237166666664, "type": "electric_scooter", "is_disabled": 0, "rental_uris": {"android": "https://dc.lft.to/lastmile_qr_scan", "ios": "https://dc.lft.to/lastmile_qr_scan"}, "is_reserved": 0, "bike_id": "621476c69c477014de57ff95b0a398b3", "name": "621476c69c477014de57ff95b0a398b3", "fusion_lon": 0.0, "lon": -76.98336866666666, "fusion_lat": 0.0}, {"lat": 38.9208915, "type": "electric_scooter", "is_disabled": 0, "rental_uris": {"android": "https://dc.lft.to/lastmile_qr_scan", "ios": "https://dc.lft.to/lastmile_qr_scan"}, "is_reserved": 0, "bike_id": "e57caf49fbbe1ba096c8a6f19ba08fb5", "name": "e57caf49fbbe1ba096c8a6f19ba08fb5", "fusion_lon": 0.0, "lon": -77.02591183333334, "fusion_lat": 0.0}, {"lat": 38.90787666666667, "type": "electric_scooter", "is_disabled": 0, "rental_uris": {"android": "https://dc.lft.to/lastmile_qr_scan", "ios": "https://dc.lft.to/lastmile_qr_scan"}, "is_reserved": 0, "bike_id": "7ca9401780b8a296986aec4837ff0b6b", "name": "7ca9401780b8a296986aec4837ff0b6b", "fusion_lon": 0.0, "lon": -77.0498105, "fusion_lat": 0.0}, {"lat": 38.919815, "type": "electric_scooter", "is_disabled": 0, "rental_uris": {"android": "https://dc.lft.to/lastmile_qr_scan", "ios": "https://dc.lft.to/lastmile_qr_scan"}, "is_reserved": 0, "bike_id": "d88b29fc5b3bf389861735ed177fdc3e", "name": "d88b29fc5b3bf389861735ed177fdc3e", "fusion_lon": 0.0, "lon": -77.04172716666666, "fusion_lat": 0.0}, {"lat": 38.90683666666666, "type": "electric_bike", "is_disabled": 0, "rental_uris": {"android": "https://dc.lft.to/lastmile_qr_scan", "ios": "https://dc.lft.to/lastmile_qr_scan"}, "is_reserved": 0, "bike_id": "dfb7df5a2285280c28875b636812d40e", "name": "dfb7df5a2285280c28875b636812d40e", "fusion_lon": 0.0, "lon": -76.95193533333334, "fusion_lat": 0.0}, {"lat": 38.9560775, "type": "electric_scooter", "is_disabled": 0, "rental_uris": {"android": "https://dc.lft.to/lastmile_qr_scan", "ios": "https://dc.lft.to/lastmile_qr_scan"}, "is_reserved": 0, "bike_id": "c29f1c8bcfee64cce9ebaaebf6f733ab", "name": "c29f1c8bcfee64cce9ebaaebf6f733ab", "fusion_lon": 0.0, "lon": -77.02787983333333, "fusion_lat": 0.0}, {"lat": 38.897344333333336, "type": "electric_scooter", "is_disabled": 0, "rental_uris": {"android": "https://dc.lft.to/lastmile_qr_scan", "ios": "https://dc.lft.to/lastmile_qr_scan"}, "is_reserved": 0, "bike_id": "179a3cacf4b6651d6287f9d6823d3066", "name": "179a3cacf4b6651d6287f9d6823d3066", "fusion_lon": 0.0, "lon": -77.00370216666667, "fusion_lat": 0.0}, {"lat": 38.866559333333335, "type": "electric_scooter", "is_disabled": 0, "rental_uris": {"android": "https://dc.lft.to/lastmile_qr_scan", "ios": "https://dc.lft.to/lastmile_qr_scan"}, "is_reserved": 0, "bike_id": "e0878ff3df02d91040663aa1c4c66b21", "name": "e0878ff3df02d91040663aa1c4c66b21", "fusion_lon": 0.0, "lon": -76.98884683333333, "fusion_lat": 0.0}, {"lat": 38.876527, "type": "electric_scooter", "is_disabled": 0, "rental_uris": {"android": "https://dc.lft.to/lastmile_qr_scan", "ios": "https://dc.lft.to/lastmile_qr_scan"}, "is_reserved": 0, "bike_id": "a5e619eed73c65d792b027ad89168003", "name": "a5e619eed73c65d792b027ad89168003", "fusion_lon": 0.0, "lon": -77.00808333333333, "fusion_lat": 0.0}, {"lat": 39.038829, "type": "electric_bike", "is_disabled": 0, "rental_uris": {"android": "https://dc.lft.to/lastmile_qr_scan", "ios": "https://dc.lft.to/lastmile_qr_scan"}, "is_reserved": 0, "bike_id": "d00f2f7f68d4bfe0323f7837cfba39ba", "name": "d00f2f7f68d4bfe0323f7837cfba39ba", "fusion_lon": 0.0, "lon": -77.10910433333333, "fusion_lat": 0.0}, {"lat": 38.86208383333334, "type": "electric_scooter", "is_disabled": 0, "rental_uris": {"android": "https://dc.lft.to/lastmile_qr_scan", "ios": "https://dc.lft.to/lastmile_qr_scan"}, "is_reserved": 0, "bike_id": "aa12dc3af07a17bcfe49b0a812e85099", "name": "aa12dc3af07a17bcfe49b0a812e85099", "fusion_lon": 0.0, "lon": -76.99465083333334, "fusion_lat": 0.0}, {"lat": 38.89212666666667, "type": "electric_bike", "is_disabled": 0, "rental_uris": {"android": "https://dc.lft.to/lastmile_qr_scan", "ios": "https://dc.lft.to/lastmile_qr_scan"}, "is_reserved": 0, "bike_id": "f1341dcb6c38b2961bf039b7628901fc", "name": "f1341dcb6c38b2961bf039b7628901fc", "fusion_lon": 0.0, "lon": -76.98554366666667, "fusion_lat": 0.0}, {"lat": 38.9395415, "type": "electric_scooter", "is_disabled": 0, "rental_uris": {"android": "https://dc.lft.to/lastmile_qr_scan", "ios": "https://dc.lft.to/lastmile_qr_scan"}, "is_reserved": 0, "bike_id": "b62984c991d53df97bd442eef72061a9", "name": "b62984c991d53df97bd442eef72061a9", "fusion_lon": 0.0, "lon": -77.02779233333334, "fusion_lat": 0.0}, {"lat": 38.919549333333336, "type": "electric_bike", "is_disabled": 0, "rental_uris": {"android": "https://dc.lft.to/lastmile_qr_scan", "ios": "https://dc.lft.to/lastmile_qr_scan"}, "is_reserved": 0, "bike_id": "f8b492a1b7f08c505061b529917f3207", "name": "f8b492a1b7f08c505061b529917f3207", "fusion_lon": 0.0, "lon": -76.95799083333333, "fusion_lat": 0.0}, {"lat": 38.917177333333335, "type": "electric_bike", "is_disabled": 0, "rental_uris": {"android": "https://dc.lft.to/lastmile_qr_scan", "ios": "https://dc.lft.to/lastmile_qr_scan"}, "is_reserved": 0, "bike_id": "a2125a65fd45962c275a4d8579d8bf28", "name": "a2125a65fd45962c275a4d8579d8bf28", "fusion_lon": 0.0, "lon": -77.22113933333333, "fusion_lat": 0.0}, {"lat": 38.9198835, "type": "electric_scooter", "is_disabled": 0, "rental_uris": {"android": "https://dc.lft.to/lastmile_qr_scan", "ios": "https://dc.lft.to/lastmile_qr_scan"}, "is_reserved": 0, "bike_id": "60317a158888baf5c071b65f4b72ca42", "name": "60317a158888baf5c071b65f4b72ca42", "fusion_lon": 0.0, "lon": -76.97316383333333, "fusion_lat": 0.0}, {"lat": 38.916897, "type": "electric_scooter", "is_disabled": 0, "rental_uris": {"android": "https://dc.lft.to/lastmile_qr_scan", "ios": "https://dc.lft.to/lastmile_qr_scan"}, "is_reserved": 0, "bike_id": "978795c9667042be30801521a6e392e3", "name": "978795c9667042be30801521a6e392e3", "fusion_lon": 0.0, "lon": -77.03393266666667, "fusion_lat": 0.0}, {"lat": 38.895350666666666, "type": "electric_scooter", "is_disabled": 0, "rental_uris": {"android": "https://dc.lft.to/lastmile_qr_scan", "ios": "https://dc.lft.to/lastmile_qr_scan"}, "is_reserved": 0, "bike_id": "b60b2add7b613176e41f4e7d38e07f24", "name": "b60b2add7b613176e41f4e7d38e07f24", "fusion_lon": 0.0, "lon": -77.00342283333333, "fusion_lat": 0.0}, {"lat": 38.901733166666666, "type": "electric_scooter", "is_disabled": 0, "rental_uris": {"android": "https://dc.lft.to/lastmile_qr_scan", "ios": "https://dc.lft.to/lastmile_qr_scan"}, "is_reserved": 0, "bike_id": "9cfa981fda0f82c58f7971ef5aae50b2", "name": "9cfa981fda0f82c58f7971ef5aae50b2", "fusion_lon": 0.0, "lon": -77.024945, "fusion_lat": 0.0}, {"lat": 38.867084166666665, "type": "electric_scooter", "is_disabled": 0, "rental_uris": {"android": "https://dc.lft.to/lastmile_qr_scan", "ios": "https://dc.lft.to/lastmile_qr_scan"}, "is_reserved": 0, "bike_id": "b2eaab8f5fe3570b9e2265ffbd7addee", "name": "b2eaab8f5fe3570b9e2265ffbd7addee", "fusion_lon": 0.0, "lon": -76.98732883333334, "fusion_lat": 0.0}, {"lat": 39.003761, "type": "electric_bike", "is_disabled": 0, "rental_uris": {"android": "https://dc.lft.to/lastmile_qr_scan", "ios": "https://dc.lft.to/lastmile_qr_scan"}, "is_reserved": 0, "bike_id": "5213b57cb76143e98f7d96358cc5bbe7", "name": "5213b57cb76143e98f7d96358cc5bbe7", "fusion_lon": 0.0, "lon": -77.01287933333333, "fusion_lat": 0.0}, {"lat": 38.90259066666667, "type": "electric_scooter", "is_disabled": 0, "rental_uris": {"android": "https://dc.lft.to/lastmile_qr_scan", "ios": "https://dc.lft.to/lastmile_qr_scan"}, "is_reserved": 0, "bike_id": "13915b0dcc169c42aa1d25215ec47627", "name": "13915b0dcc169c42aa1d25215ec47627", "fusion_lon": 0.0, "lon": -77.02151666666667, "fusion_lat": 0.0}, {"lat": 38.92297933333333, "type": "electric_scooter", "is_disabled": 0, "rental_uris": {"android": "https://dc.lft.to/lastmile_qr_scan", "ios": "https://dc.lft.to/lastmile_qr_scan"}, "is_reserved": 0, "bike_id": "83caddb1a9871d775e4546d6cc4f4fed", "name": "83caddb1a9871d775e4546d6cc4f4fed", "fusion_lon": 0.0, "lon": -77.0420285, "fusion_lat": 0.0}, {"lat": 38.89879233333333, "type": "electric_scooter", "is_disabled": 0, "rental_uris": {"android": "https://dc.lft.to/lastmile_qr_scan", "ios": "https://dc.lft.to/lastmile_qr_scan"}, "is_reserved": 0, "bike_id": "34f5734d073e68ef1504db246bab0081", "name": "34f5734d073e68ef1504db246bab0081", "fusion_lon": 0.0, "lon": -77.041721, "fusion_lat": 0.0}, {"lat": 38.91060816666667, "type": "electric_bike", "is_disabled": 0, "rental_uris": {"android": "https://dc.lft.to/lastmile_qr_scan", "ios": "https://dc.lft.to/lastmile_qr_scan"}, "is_reserved": 0, "bike_id": "f4156dd34d77845a76cc373c347193e4", "name": "f4156dd34d77845a76cc373c347193e4", "fusion_lon": 0.0, "lon": -77.055127, "fusion_lat": 0.0}, {"lat": 38.905840833333336, "type": "electric_scooter", "is_disabled": 0, "rental_uris": {"android": "https://dc.lft.to/lastmile_qr_scan", "ios": "https://dc.lft.to/lastmile_qr_scan"}, "is_reserved": 0, "bike_id": "3c312e7a6ee50b0c09681f2799f60e20", "name": "3c312e7a6ee50b0c09681f2799f60e20", "fusion_lon": 0.0, "lon": -77.02387283333333, "fusion_lat": 0.0}, {"lat": 38.918113166666664, "type": "electric_scooter", "is_disabled": 0, "rental_uris": {"android": "https://dc.lft.to/lastmile_qr_scan", "ios": "https://dc.lft.to/lastmile_qr_scan"}, "is_reserved": 0, "bike_id": "f6a525e499da23668899a8cb50eba80f", "name": "f6a525e499da23668899a8cb50eba80f", "fusion_lon": 0.0, "lon": -77.0317465, "fusion_lat": 0.0}, {"lat": 38.910424666666664, "type": "electric_scooter", "is_disabled": 0, "rental_uris": {"android": "https://dc.lft.to/lastmile_qr_scan", "ios": "https://dc.lft.to/lastmile_qr_scan"}, "is_reserved": 0, "bike_id": "da8a669b6a09819fe1660b9c72c5b72e", "name": "da8a669b6a09819fe1660b9c72c5b72e", "fusion_lon": 0.0, "lon": -77.04347533333333, "fusion_lat": 0.0}, {"lat": 38.921662833333336, "type": "electric_scooter", "is_disabled": 0, "rental_uris": {"android": "https://dc.lft.to/lastmile_qr_scan", "ios": "https://dc.lft.to/lastmile_qr_scan"}, "is_reserved": 0, "bike_id": "a19ebe43902c9e0560daea143934f75e", "name": "a19ebe43902c9e0560daea143934f75e", "fusion_lon": 0.0, "lon": -76.99401333333333, "fusion_lat": 0.0}, {"lat": 38.895112166666664, "type": "electric_scooter", "is_disabled": 0, "rental_uris": {"android": "https://dc.lft.to/lastmile_qr_scan", "ios": "https://dc.lft.to/lastmile_qr_scan"}, "is_reserved": 0, "bike_id": "1eebce4bd46e639e192778f5d22f105e", "name": "1eebce4bd46e639e192778f5d22f105e", "fusion_lon": 0.0, "lon": -76.94886983333333, "fusion_lat": 0.0}, {"lat": 38.89478733333333, "type": "electric_scooter", "is_disabled": 0, "rental_uris": {"android": "https://dc.lft.to/lastmile_qr_scan", "ios": "https://dc.lft.to/lastmile_qr_scan"}, "is_reserved": 0, "bike_id": "8e6b2b172c4b86962d31f8bf4feca41c", "name": "8e6b2b172c4b86962d31f8bf4feca41c", "fusion_lon": 0.0, "lon": -77.0202025, "fusion_lat": 0.0}, {"lat": 38.90279133333333, "type": "electric_scooter", "is_disabled": 0, "rental_uris": {"android": "https://dc.lft.to/lastmile_qr_scan", "ios": "https://dc.lft.to/lastmile_qr_scan"}, "is_reserved": 0, "bike_id": "a55c8539fc18ba36b1d020e142489ffd", "name": "a55c8539fc18ba36b1d020e142489ffd", "fusion_lon": 0.0, "lon": -77.021353, "fusion_lat": 0.0}, {"lat": 38.900297333333334, "type": "electric_scooter", "is_disabled": 0, "rental_uris": {"android": "https://dc.lft.to/lastmile_qr_scan", "ios": "https://dc.lft.to/lastmile_qr_scan"}, "is_reserved": 0, "bike_id": "815cb80b9ce7ddc9ea11724402a7c97a", "name": "815cb80b9ce7ddc9ea11724402a7c97a", "fusion_lon": 0.0, "lon": -77.02003983333333, "fusion_lat": 0.0}, {"lat": 38.923100833333336, "type": "electric_scooter", "is_disabled": 0, "rental_uris": {"android": "https://dc.lft.to/lastmile_qr_scan", "ios": "https://dc.lft.to/lastmile_qr_scan"}, "is_reserved": 0, "bike_id": "e075a3c3b7057ae0714794a7b47d72dc", "name": "e075a3c3b7057ae0714794a7b47d72dc", "fusion_lon": 0.0, "lon": -77.03913183333333, "fusion_lat": 0.0}, {"lat": 38.90555533333333, "type": "electric_scooter", "is_disabled": 0, "rental_uris": {"android": "https://dc.lft.to/lastmile_qr_scan", "ios": "https://dc.lft.to/lastmile_qr_scan"}, "is_reserved": 0, "bike_id": "50a517dc8148212e1b879e48ec84ca80", "name": "50a517dc8148212e1b879e48ec84ca80", "fusion_lon": 0.0, "lon": -77.0070035, "fusion_lat": 0.0}, {"lat": 38.94201416666667, "type": "electric_scooter", "is_disabled": 0, "rental_uris": {"android": "https://dc.lft.to/lastmile_qr_scan", "ios": "https://dc.lft.to/lastmile_qr_scan"}, "is_reserved": 0, "bike_id": "db8e2c744580507c85fdd848c4d9dc32", "name": "db8e2c744580507c85fdd848c4d9dc32", "fusion_lon": 0.0, "lon": -77.018282, "fusion_lat": 0.0}, {"lat": 38.908729, "type": "electric_scooter", "is_disabled": 0, "rental_uris": {"android": "https://dc.lft.to/lastmile_qr_scan", "ios": "https://dc.lft.to/lastmile_qr_scan"}, "is_reserved": 0, "bike_id": "b49c96461d6a2cd0a65e3f1e61bd909b", "name": "b49c96461d6a2cd0a65e3f1e61bd909b", "fusion_lon": 0.0, "lon": -77.03185483333333, "fusion_lat": 0.0}, {"lat": 38.900332666666664, "type": "electric_scooter", "is_disabled": 0, "rental_uris": {"android": "https://dc.lft.to/lastmile_qr_scan", "ios": "https://dc.lft.to/lastmile_qr_scan"}, "is_reserved": 0, "bike_id": "189d40ef0b9b3a8be0b5ba6453d7ed85", "name": "189d40ef0b9b3a8be0b5ba6453d7ed85", "fusion_lon": 0.0, "lon": -76.998447, "fusion_lat": 0.0}, {"lat": 38.903719333333335, "type": "electric_scooter", "is_disabled": 0, "rental_uris": {"android": "https://dc.lft.to/lastmile_qr_scan", "ios": "https://dc.lft.to/lastmile_qr_scan"}, "is_reserved": 0, "bike_id": "c8e21896c6fb000d85c90898ec48c192", "name": "c8e21896c6fb000d85c90898ec48c192", "fusion_lon": 0.0, "lon": -77.03016, "fusion_lat": 0.0}, {"lat": 38.86910366666667, "type": "electric_scooter", "is_disabled": 0, "rental_uris": {"android": "https://dc.lft.to/lastmile_qr_scan", "ios": "https://dc.lft.to/lastmile_qr_scan"}, "is_reserved": 0, "bike_id": "402971e8f439e5d82508f38e5993418b", "name": "402971e8f439e5d82508f38e5993418b", "fusion_lon": 0.0, "lon": -77.01373516666666, "fusion_lat": 0.0}, {"lat": 38.92008766666667, "type": "electric_scooter", "is_disabled": 0, "rental_uris": {"android": "https://dc.lft.to/lastmile_qr_scan", "ios": "https://dc.lft.to/lastmile_qr_scan"}, "is_reserved": 0, "bike_id": "b89ebbe56b933bdbd90fba9a3ee6833f", "name": "b89ebbe56b933bdbd90fba9a3ee6833f", "fusion_lon": 0.0, "lon": -77.03131016666667, "fusion_lat": 0.0}, {"lat": 38.92963, "type": "electric_scooter", "is_disabled": 0, "rental_uris": {"android": "https://dc.lft.to/lastmile_qr_scan", "ios": "https://dc.lft.to/lastmile_qr_scan"}, "is_reserved": 0, "bike_id": "4325166cd4dabd35d243b6a5d35326ec", "name": "4325166cd4dabd35d243b6a5d35326ec", "fusion_lon": 0.0, "lon": -77.04197233333333, "fusion_lat": 0.0}, {"lat": 38.90727716666667, "type": "electric_scooter", "is_disabled": 0, "rental_uris": {"android": "https://dc.lft.to/lastmile_qr_scan", "ios": "https://dc.lft.to/lastmile_qr_scan"}, "is_reserved": 0, "bike_id": "8f2cd1aa0b08f08591fa3714f86c38cd", "name": "8f2cd1aa0b08f08591fa3714f86c38cd", "fusion_lon": 0.0, "lon": -77.043449, "fusion_lat": 0.0}, {"lat": 38.9149685, "type": "electric_scooter", "is_disabled": 0, "rental_uris": {"android": "https://dc.lft.to/lastmile_qr_scan", "ios": "https://dc.lft.to/lastmile_qr_scan"}, "is_reserved": 0, "bike_id": "3c53fc73b0e24d2d548ae31d9894882e", "name": "3c53fc73b0e24d2d548ae31d9894882e", "fusion_lon": 0.0, "lon": -77.01857, "fusion_lat": 0.0}, {"lat": 38.94620883333333, "type": "electric_scooter", "is_disabled": 0, "rental_uris": {"android": "https://dc.lft.to/lastmile_qr_scan", "ios": "https://dc.lft.to/lastmile_qr_scan"}, "is_reserved": 0, "bike_id": "1fe0b5254ea04a3fbdb9d59ef9bb329f", "name": "1fe0b5254ea04a3fbdb9d59ef9bb329f", "fusion_lon": 0.0, "lon": -77.0362315, "fusion_lat": 0.0}, {"lat": 38.866986833333335, "type": "electric_scooter", "is_disabled": 0, "rental_uris": {"android": "https://dc.lft.to/lastmile_qr_scan", "ios": "https://dc.lft.to/lastmile_qr_scan"}, "is_reserved": 0, "bike_id": "8e593c29a2acc63f4644b206bf5240fd", "name": "8e593c29a2acc63f4644b206bf5240fd", "fusion_lon": 0.0, "lon": -76.9871145, "fusion_lat": 0.0}, {"lat": 38.945908833333334, "type": "electric_bike", "is_disabled": 0, "rental_uris": {"android": "https://dc.lft.to/lastmile_qr_scan", "ios": "https://dc.lft.to/lastmile_qr_scan"}, "is_reserved": 0, "bike_id": "5666409e8d18f9e1ae0783c34f31a674", "name": "5666409e8d18f9e1ae0783c34f31a674", "fusion_lon": 0.0, "lon": -77.34404266666667, "fusion_lat": 0.0}, {"lat": 38.892211333333336, "type": "electric_scooter", "is_disabled": 0, "rental_uris": {"android": "https://dc.lft.to/lastmile_qr_scan", "ios": "https://dc.lft.to/lastmile_qr_scan"}, "is_reserved": 0, "bike_id": "d711965e585a8e45c1779051d25ded7e", "name": "d711965e585a8e45c1779051d25ded7e", "fusion_lon": 0.0, "lon": -77.027919, "fusion_lat": 0.0}, {"lat": 38.900523166666666, "type": "electric_scooter", "is_disabled": 0, "rental_uris": {"android": "https://dc.lft.to/lastmile_qr_scan", "ios": "https://dc.lft.to/lastmile_qr_scan"}, "is_reserved": 0, "bike_id": "c6f16f75af46f0c3fe8920bacf1b77f0", "name": "c6f16f75af46f0c3fe8920bacf1b77f0", "fusion_lon": 0.0, "lon": -77.04481466666667, "fusion_lat": 0.0}, {"lat": 38.868108666666664, "type": "electric_scooter", "is_disabled": 0, "rental_uris": {"android": "https://dc.lft.to/lastmile_qr_scan", "ios": "https://dc.lft.to/lastmile_qr_scan"}, "is_reserved": 0, "bike_id": "6e64bb59a5e8ee0ed651222186dc537a", "name": "6e64bb59a5e8ee0ed651222186dc537a", "fusion_lon": 0.0, "lon": -77.01173666666666, "fusion_lat": 0.0}, {"lat": 38.866716, "type": "electric_scooter", "is_disabled": 0, "rental_uris": {"android": "https://dc.lft.to/lastmile_qr_scan", "ios": "https://dc.lft.to/lastmile_qr_scan"}, "is_reserved": 0, "bike_id": "39be18ff6f7aa2ac48c22b4ed34ee3d9", "name": "39be18ff6f7aa2ac48c22b4ed34ee3d9", "fusion_lon": 0.0, "lon": -76.9888525, "fusion_lat": 0.0}, {"lat": 38.9171105, "type": "electric_scooter", "is_disabled": 0, "rental_uris": {"android": "https://dc.lft.to/lastmile_qr_scan", "ios": "https://dc.lft.to/lastmile_qr_scan"}, "is_reserved": 0, "bike_id": "e4db2d091d7a2b439d39a800230d221e", "name": "e4db2d091d7a2b439d39a800230d221e", "fusion_lon": 0.0, "lon": -77.0347055, "fusion_lat": 0.0}, {"lat": 38.93013916666666, "type": "electric_scooter", "is_disabled": 0, "rental_uris": {"android": "https://dc.lft.to/lastmile_qr_scan", "ios": "https://dc.lft.to/lastmile_qr_scan"}, "is_reserved": 0, "bike_id": "b1252bd35eca34696f10e9b28cd20163", "name": "b1252bd35eca34696f10e9b28cd20163", "fusion_lon": 0.0, "lon": -77.06191016666666, "fusion_lat": 0.0}, {"lat": 38.92821216666667, "type": "electric_scooter", "is_disabled": 0, "rental_uris": {"android": "https://dc.lft.to/lastmile_qr_scan", "ios": "https://dc.lft.to/lastmile_qr_scan"}, "is_reserved": 0, "bike_id": "f85af740a1c764bc96ba21a386478aee", "name": "f85af740a1c764bc96ba21a386478aee", "fusion_lon": 0.0, "lon": -77.0214205, "fusion_lat": 0.0}, {"lat": 38.893894, "type": "electric_scooter", "is_disabled": 0, "rental_uris": {"android": "https://dc.lft.to/lastmile_qr_scan", "ios": "https://dc.lft.to/lastmile_qr_scan"}, "is_reserved": 0, "bike_id": "cf4915a6bf2cd5f661424c2f3d0d83f7", "name": "cf4915a6bf2cd5f661424c2f3d0d83f7", "fusion_lon": 0.0, "lon": -76.94988916666667, "fusion_lat": 0.0}, {"lat": 39.054571833333334, "type": "electric_bike", "is_disabled": 0, "rental_uris": {"android": "https://dc.lft.to/lastmile_qr_scan", "ios": "https://dc.lft.to/lastmile_qr_scan"}, "is_reserved": 0, "bike_id": "c851e6b4f5c9770b1eb72dd8781a3298", "name": "c851e6b4f5c9770b1eb72dd8781a3298", "fusion_lon": 0.0, "lon": -77.14324083333334, "fusion_lat": 0.0}, {"lat": 38.89221033333333, "type": "electric_scooter", "is_disabled": 0, "rental_uris": {"android": "https://dc.lft.to/lastmile_qr_scan", "ios": "https://dc.lft.to/lastmile_qr_scan"}, "is_reserved": 0, "bike_id": "42fdef7890f8b10914cde0c3ea0572b0", "name": "42fdef7890f8b10914cde0c3ea0572b0", "fusion_lon": 0.0, "lon": -77.0418905, "fusion_lat": 0.0}, {"lat": 38.898286666666664, "type": "electric_scooter", "is_disabled": 0, "rental_uris": {"android": "https://dc.lft.to/lastmile_qr_scan", "ios": "https://dc.lft.to/lastmile_qr_scan"}, "is_reserved": 0, "bike_id": "102ee0dc8635290701573e0c6e4bb4de", "name": "102ee0dc8635290701573e0c6e4bb4de", "fusion_lon": 0.0, "lon": -77.00740633333334, "fusion_lat": 0.0}, {"lat": 38.89780433333333, "type": "electric_scooter", "is_disabled": 0, "rental_uris": {"android": "https://dc.lft.to/lastmile_qr_scan", "ios": "https://dc.lft.to/lastmile_qr_scan"}, "is_reserved": 0, "bike_id": "9d97c591ef86f343ba86c918295766c1", "name": "9d97c591ef86f343ba86c918295766c1", "fusion_lon": 0.0, "lon": -77.05031216666667, "fusion_lat": 0.0}, {"lat": 38.896831666666664, "type": "electric_scooter", "is_disabled": 0, "rental_uris": {"android": "https://dc.lft.to/lastmile_qr_scan", "ios": "https://dc.lft.to/lastmile_qr_scan"}, "is_reserved": 0, "bike_id": "fe63915ed12c229ea19c47ade2325146", "name": "fe63915ed12c229ea19c47ade2325146", "fusion_lon": 0.0, "lon": -76.93530033333333, "fusion_lat": 0.0}, {"lat": 38.90027083333333, "type": "electric_scooter", "is_disabled": 0, "rental_uris": {"android": "https://dc.lft.to/lastmile_qr_scan", "ios": "https://dc.lft.to/lastmile_qr_scan"}, "is_reserved": 0, "bike_id": "810d6f801afb5d2bb1227882aff43dc7", "name": "810d6f801afb5d2bb1227882aff43dc7", "fusion_lon": 0.0, "lon": -77.03366633333333, "fusion_lat": 0.0}, {"lat": 38.924126, "type": "electric_scooter", "is_disabled": 0, "rental_uris": {"android": "https://dc.lft.to/lastmile_qr_scan", "ios": "https://dc.lft.to/lastmile_qr_scan"}, "is_reserved": 0, "bike_id": "2dd45c3d7f4ddc3b3e10134bbe09e9e4", "name": "2dd45c3d7f4ddc3b3e10134bbe09e9e4", "fusion_lon": 0.0, "lon": -77.0201275, "fusion_lat": 0.0}, {"lat": 38.89790766666667, "type": "electric_scooter", "is_disabled": 0, "rental_uris": {"android": "https://dc.lft.to/lastmile_qr_scan", "ios": "https://dc.lft.to/lastmile_qr_scan"}, "is_reserved": 0, "bike_id": "12c75c1dd3efe2ca1b210404eda14a33", "name": "12c75c1dd3efe2ca1b210404eda14a33", "fusion_lon": 0.0, "lon": -77.03951216666667, "fusion_lat": 0.0}, {"lat": 38.91738333333333, "type": "electric_scooter", "is_disabled": 0, "rental_uris": {"android": "https://dc.lft.to/lastmile_qr_scan", "ios": "https://dc.lft.to/lastmile_qr_scan"}, "is_reserved": 0, "bike_id": "ffc9892f3accc2be2b3b9f8748999f7a", "name": "ffc9892f3accc2be2b3b9f8748999f7a", "fusion_lon": 0.0, "lon": -77.03640116666666, "fusion_lat": 0.0}, {"lat": 38.90187516666667, "type": "electric_bike", "is_disabled": 0, "rental_uris": {"android": "https://dc.lft.to/lastmile_qr_scan", "ios": "https://dc.lft.to/lastmile_qr_scan"}, "is_reserved": 0, "bike_id": "06cd3d94359000c6b4db9edc9a820e07", "name": "06cd3d94359000c6b4db9edc9a820e07", "fusion_lon": 0.0, "lon": -77.03923566666667, "fusion_lat": 0.0}, {"lat": 38.88492683333333, "type": "electric_scooter", "is_disabled": 0, "rental_uris": {"android": "https://dc.lft.to/lastmile_qr_scan", "ios": "https://dc.lft.to/lastmile_qr_scan"}, "is_reserved": 0, "bike_id": "45bbab731986d4e4be6fdbfc6930357e", "name": "45bbab731986d4e4be6fdbfc6930357e", "fusion_lon": 0.0, "lon": -77.00711683333333, "fusion_lat": 0.0}, {"lat": 38.9207665, "type": "electric_scooter", "is_disabled": 0, "rental_uris": {"android": "https://dc.lft.to/lastmile_qr_scan", "ios": "https://dc.lft.to/lastmile_qr_scan"}, "is_reserved": 0, "bike_id": "2c63cfd6bb76d4cca0d5ba77e400c96c", "name": "2c63cfd6bb76d4cca0d5ba77e400c96c", "fusion_lon": 0.0, "lon": -77.02389116666667, "fusion_lat": 0.0}, {"lat": 38.9154285, "type": "electric_scooter", "is_disabled": 0, "rental_uris": {"android": "https://dc.lft.to/lastmile_qr_scan", "ios": "https://dc.lft.to/lastmile_qr_scan"}, "is_reserved": 0, "bike_id": "5e8d1a69fc8d88daf76ffc837aca25b1", "name": "5e8d1a69fc8d88daf76ffc837aca25b1", "fusion_lon": 0.0, "lon": -77.02199733333333, "fusion_lat": 0.0}, {"lat": 38.918104, "type": "electric_scooter", "is_disabled": 0, "rental_uris": {"android": "https://dc.lft.to/lastmile_qr_scan", "ios": "https://dc.lft.to/lastmile_qr_scan"}, "is_reserved": 0, "bike_id": "7bb14409a0d75659d42ddae7d52a15ec", "name": "7bb14409a0d75659d42ddae7d52a15ec", "fusion_lon": 0.0, "lon": -77.041572, "fusion_lat": 0.0}, {"lat": 38.9085275, "type": "electric_scooter", "is_disabled": 0, "rental_uris": {"android": "https://dc.lft.to/lastmile_qr_scan", "ios": "https://dc.lft.to/lastmile_qr_scan"}, "is_reserved": 0, "bike_id": "84c51cf302194b31cc7f3d3df2369e4a", "name": "84c51cf302194b31cc7f3d3df2369e4a", "fusion_lon": 0.0, "lon": -76.99800466666667, "fusion_lat": 0.0}, {"lat": 38.9260385, "type": "electric_scooter", "is_disabled": 0, "rental_uris": {"android": "https://dc.lft.to/lastmile_qr_scan", "ios": "https://dc.lft.to/lastmile_qr_scan"}, "is_reserved": 0, "bike_id": "05e1743964dabae0da3b17b9583beff6", "name": "05e1743964dabae0da3b17b9583beff6", "fusion_lon": 0.0, "lon": -77.02156466666666, "fusion_lat": 0.0}, {"lat": 38.90048683333333, "type": "electric_scooter", "is_disabled": 0, "rental_uris": {"android": "https://dc.lft.to/lastmile_qr_scan", "ios": "https://dc.lft.to/lastmile_qr_scan"}, "is_reserved": 0, "bike_id": "9ab134ff5340828246e1b6891327af5b", "name": "9ab134ff5340828246e1b6891327af5b", "fusion_lon": 0.0, "lon": -77.0075065, "fusion_lat": 0.0}, {"lat": 38.877795, "type": "electric_scooter", "is_disabled": 0, "rental_uris": {"android": "https://dc.lft.to/lastmile_qr_scan", "ios": "https://dc.lft.to/lastmile_qr_scan"}, "is_reserved": 0, "bike_id": "a56ef7726afd6da5c479d06c3ac50c1b", "name": "a56ef7726afd6da5c479d06c3ac50c1b", "fusion_lon": 0.0, "lon": -77.01437883333334, "fusion_lat": 0.0}, {"lat": 38.848741833333335, "type": "electric_scooter", "is_disabled": 0, "rental_uris": {"android": "https://dc.lft.to/lastmile_qr_scan", "ios": "https://dc.lft.to/lastmile_qr_scan"}, "is_reserved": 0, "bike_id": "c6aa365c0c378ab6ee96003631be6804", "name": "c6aa365c0c378ab6ee96003631be6804", "fusion_lon": 0.0, "lon": -77.005174, "fusion_lat": 0.0}, {"lat": 38.927124166666665, "type": "electric_scooter", "is_disabled": 0, "rental_uris": {"android": "https://dc.lft.to/lastmile_qr_scan", "ios": "https://dc.lft.to/lastmile_qr_scan"}, "is_reserved": 0, "bike_id": "bba12c4bbce4645c2f5a443f2a5cc32e", "name": "bba12c4bbce4645c2f5a443f2a5cc32e", "fusion_lon": 0.0, "lon": -77.04197666666667, "fusion_lat": 0.0}, {"lat": 38.87085283333333, "type": "electric_bike", "is_disabled": 0, "rental_uris": {"android": "https://dc.lft.to/lastmile_qr_scan", "ios": "https://dc.lft.to/lastmile_qr_scan"}, "is_reserved": 0, "bike_id": "2a22e2f5d259df1406d6434ac424abf8", "name": "2a22e2f5d259df1406d6434ac424abf8", "fusion_lon": 0.0, "lon": -77.01205716666666, "fusion_lat": 0.0}, {"lat": 38.90134883333333, "type": "electric_scooter", "is_disabled": 0, "rental_uris": {"android": "https://dc.lft.to/lastmile_qr_scan", "ios": "https://dc.lft.to/lastmile_qr_scan"}, "is_reserved": 0, "bike_id": "6de44b813660d4caa5391135b4516e3b", "name": "6de44b813660d4caa5391135b4516e3b", "fusion_lon": 0.0, "lon": -77.04365266666667, "fusion_lat": 0.0}, {"lat": 38.884955, "type": "electric_scooter", "is_disabled": 0, "rental_uris": {"android": "https://dc.lft.to/lastmile_qr_scan", "ios": "https://dc.lft.to/lastmile_qr_scan"}, "is_reserved": 0, "bike_id": "4593ecb564fde598d87f34ed07fc7520", "name": "4593ecb564fde598d87f34ed07fc7520", "fusion_lon": 0.0, "lon": -77.0208005, "fusion_lat": 0.0}, {"lat": 38.9754115, "type": "electric_bike", "is_disabled": 0, "rental_uris": {"android": "https://dc.lft.to/lastmile_qr_scan", "ios": "https://dc.lft.to/lastmile_qr_scan"}, "is_reserved": 0, "bike_id": "48f1bdcda615d84193ad6ef23bd35803", "name": "48f1bdcda615d84193ad6ef23bd35803", "fusion_lon": 0.0, "lon": -76.99530316666667, "fusion_lat": 0.0}, {"lat": 38.905656, "type": "electric_scooter", "is_disabled": 0, "rental_uris": {"android": "https://dc.lft.to/lastmile_qr_scan", "ios": "https://dc.lft.to/lastmile_qr_scan"}, "is_reserved": 0, "bike_id": "ebf8d332556bfcec4a22a2764a643ce8", "name": "ebf8d332556bfcec4a22a2764a643ce8", "fusion_lon": 0.0, "lon": -77.02210583333333, "fusion_lat": 0.0}, {"lat": 38.955195333333336, "type": "electric_bike", "is_disabled": 0, "rental_uris": {"android": "https://dc.lft.to/lastmile_qr_scan", "ios": "https://dc.lft.to/lastmile_qr_scan"}, "is_reserved": 0, "bike_id": "bf015183f5bcd688ddfa2ed2ee84cc45", "name": "bf015183f5bcd688ddfa2ed2ee84cc45", "fusion_lon": 0.0, "lon": -76.99984016666667, "fusion_lat": 0.0}, {"lat": 38.91694966666667, "type": "electric_scooter", "is_disabled": 0, "rental_uris": {"android": "https://dc.lft.to/lastmile_qr_scan", "ios": "https://dc.lft.to/lastmile_qr_scan"}, "is_reserved": 0, "bike_id": "ee730c71f4392845fccf2289b0fb882c", "name": "ee730c71f4392845fccf2289b0fb882c", "fusion_lon": 0.0, "lon": -77.02986883333334, "fusion_lat": 0.0}, {"lat": 38.90951533333333, "type": "electric_scooter", "is_disabled": 0, "rental_uris": {"android": "https://dc.lft.to/lastmile_qr_scan", "ios": "https://dc.lft.to/lastmile_qr_scan"}, "is_reserved": 0, "bike_id": "6a7573721e82fad908f2f06345d05fef", "name": "6a7573721e82fad908f2f06345d05fef", "fusion_lon": 0.0, "lon": -77.02710866666666, "fusion_lat": 0.0}, {"lat": 38.936617, "type": "electric_scooter", "is_disabled": 0, "rental_uris": {"android": "https://dc.lft.to/lastmile_qr_scan", "ios": "https://dc.lft.to/lastmile_qr_scan"}, "is_reserved": 0, "bike_id": "3fe4ee2211fce81b25bd9e88370313f7", "name": "3fe4ee2211fce81b25bd9e88370313f7", "fusion_lon": 0.0, "lon": -77.036325, "fusion_lat": 0.0}, {"lat": 38.909066833333334, "type": "electric_scooter", "is_disabled": 0, "rental_uris": {"android": "https://dc.lft.to/lastmile_qr_scan", "ios": "https://dc.lft.to/lastmile_qr_scan"}, "is_reserved": 0, "bike_id": "49913ca725c5aebca39228511eaed830", "name": "49913ca725c5aebca39228511eaed830", "fusion_lon": 0.0, "lon": -77.03401016666666, "fusion_lat": 0.0}, {"lat": 38.8957675, "type": "electric_scooter", "is_disabled": 0, "rental_uris": {"android": "https://dc.lft.to/lastmile_qr_scan", "ios": "https://dc.lft.to/lastmile_qr_scan"}, "is_reserved": 0, "bike_id": "9ac1935e876fe40c08590e52d37b7181", "name": "9ac1935e876fe40c08590e52d37b7181", "fusion_lon": 0.0, "lon": -77.02305066666666, "fusion_lat": 0.0}, {"lat": 38.903910333333336, "type": "electric_scooter", "is_disabled": 0, "rental_uris": {"android": "https://dc.lft.to/lastmile_qr_scan", "ios": "https://dc.lft.to/lastmile_qr_scan"}, "is_reserved": 0, "bike_id": "14c4d1870c17b79e34ba471d1a7fa277", "name": "14c4d1870c17b79e34ba471d1a7fa277", "fusion_lon": 0.0, "lon": -77.02801633333333, "fusion_lat": 0.0}, {"lat": 38.90121283333333, "type": "electric_scooter", "is_disabled": 0, "rental_uris": {"android": "https://dc.lft.to/lastmile_qr_scan", "ios": "https://dc.lft.to/lastmile_qr_scan"}, "is_reserved": 0, "bike_id": "a20508653b208610bbc2ed018214a96b", "name": "a20508653b208610bbc2ed018214a96b", "fusion_lon": 0.0, "lon": -77.041543, "fusion_lat": 0.0}, {"lat": 38.88738516666667, "type": "electric_scooter", "is_disabled": 0, "rental_uris": {"android": "https://dc.lft.to/lastmile_qr_scan", "ios": "https://dc.lft.to/lastmile_qr_scan"}, "is_reserved": 0, "bike_id": "df2189c766cca0b888852f09f9ff852e", "name": "df2189c766cca0b888852f09f9ff852e", "fusion_lon": 0.0, "lon": -77.01535083333333, "fusion_lat": 0.0}, {"lat": 38.915906666666665, "type": "electric_bike", "is_disabled": 0, "rental_uris": {"android": "https://dc.lft.to/lastmile_qr_scan", "ios": "https://dc.lft.to/lastmile_qr_scan"}, "is_reserved": 0, "bike_id": "55ca608d561825f350a6fcc801975896", "name": "55ca608d561825f350a6fcc801975896", "fusion_lon": 0.0, "lon": -76.97147866666667, "fusion_lat": 0.0}, {"lat": 38.89537466666667, "type": "electric_scooter", "is_disabled": 0, "rental_uris": {"android": "https://dc.lft.to/lastmile_qr_scan", "ios": "https://dc.lft.to/lastmile_qr_scan"}, "is_reserved": 0, "bike_id": "80cfef9932c043b7900edf99fcb029e0", "name": "80cfef9932c043b7900edf99fcb029e0", "fusion_lon": 0.0, "lon": -77.01625666666666, "fusion_lat": 0.0}, {"lat": 38.902654, "type": "electric_scooter", "is_disabled": 0, "rental_uris": {"android": "https://dc.lft.to/lastmile_qr_scan", "ios": "https://dc.lft.to/lastmile_qr_scan"}, "is_reserved": 0, "bike_id": "f45b02a8177c279de40793635cc09118", "name": "f45b02a8177c279de40793635cc09118", "fusion_lon": 0.0, "lon": -77.030019, "fusion_lat": 0.0}, {"lat": 38.904637666666666, "type": "electric_scooter", "is_disabled": 0, "rental_uris": {"android": "https://dc.lft.to/lastmile_qr_scan", "ios": "https://dc.lft.to/lastmile_qr_scan"}, "is_reserved": 0, "bike_id": "89eff03fbfb8a68697f16635d1f0dad7", "name": "89eff03fbfb8a68697f16635d1f0dad7", "fusion_lon": 0.0, "lon": -77.02818433333333, "fusion_lat": 0.0}, {"lat": 38.89834316666666, "type": "electric_scooter", "is_disabled": 0, "rental_uris": {"android": "https://dc.lft.to/lastmile_qr_scan", "ios": "https://dc.lft.to/lastmile_qr_scan"}, "is_reserved": 0, "bike_id": "64964830dffec23c66c0be4743b31607", "name": "64964830dffec23c66c0be4743b31607", "fusion_lon": 0.0, "lon": -76.94632116666666, "fusion_lat": 0.0}, {"lat": 38.930076, "type": "electric_scooter", "is_disabled": 0, "rental_uris": {"android": "https://dc.lft.to/lastmile_qr_scan", "ios": "https://dc.lft.to/lastmile_qr_scan"}, "is_reserved": 0, "bike_id": "796465bd997e01a9610463b3b292d859", "name": "796465bd997e01a9610463b3b292d859", "fusion_lon": 0.0, "lon": -77.02202366666667, "fusion_lat": 0.0}, {"lat": 38.86907133333333, "type": "electric_bike", "is_disabled": 0, "rental_uris": {"android": "https://dc.lft.to/lastmile_qr_scan", "ios": "https://dc.lft.to/lastmile_qr_scan"}, "is_reserved": 0, "bike_id": "f5db215d5288002097aa0117ebdd067b", "name": "f5db215d5288002097aa0117ebdd067b", "fusion_lon": 0.0, "lon": -77.13182383333333, "fusion_lat": 0.0}, {"lat": 38.91996066666667, "type": "electric_bike", "is_disabled": 0, "rental_uris": {"android": "https://dc.lft.to/lastmile_qr_scan", "ios": "https://dc.lft.to/lastmile_qr_scan"}, "is_reserved": 0, "bike_id": "be0c0591b7baa86663da03177831b68f", "name": "be0c0591b7baa86663da03177831b68f", "fusion_lon": 0.0, "lon": -76.9731435, "fusion_lat": 0.0}, {"lat": 38.89948733333333, "type": "electric_scooter", "is_disabled": 0, "rental_uris": {"android": "https://dc.lft.to/lastmile_qr_scan", "ios": "https://dc.lft.to/lastmile_qr_scan"}, "is_reserved": 0, "bike_id": "b010245b26fbd2f1b9c16dfbca1901a4", "name": "b010245b26fbd2f1b9c16dfbca1901a4", "fusion_lon": 0.0, "lon": -77.02957483333333, "fusion_lat": 0.0}, {"lat": 38.921586833333336, "type": "electric_scooter", "is_disabled": 0, "rental_uris": {"android": "https://dc.lft.to/lastmile_qr_scan", "ios": "https://dc.lft.to/lastmile_qr_scan"}, "is_reserved": 0, "bike_id": "0a9daae31b6a2ede0c2eb3bba8d83072", "name": "0a9daae31b6a2ede0c2eb3bba8d83072", "fusion_lon": 0.0, "lon": -77.04693683333333, "fusion_lat": 0.0}, {"lat": 38.907278166666664, "type": "electric_scooter", "is_disabled": 0, "rental_uris": {"android": "https://dc.lft.to/lastmile_qr_scan", "ios": "https://dc.lft.to/lastmile_qr_scan"}, "is_reserved": 0, "bike_id": "4f4b19e36670f16219856efff7f8102d", "name": "4f4b19e36670f16219856efff7f8102d", "fusion_lon": 0.0, "lon": -77.04331866666666, "fusion_lat": 0.0}, {"lat": 38.876351666666665, "type": "electric_scooter", "is_disabled": 0, "rental_uris": {"android": "https://dc.lft.to/lastmile_qr_scan", "ios": "https://dc.lft.to/lastmile_qr_scan"}, "is_reserved": 0, "bike_id": "8bddfd7980cb0cd8946eddc033ffa1cd", "name": "8bddfd7980cb0cd8946eddc033ffa1cd", "fusion_lon": 0.0, "lon": -77.00538566666667, "fusion_lat": 0.0}, {"lat": 38.90480316666667, "type": "electric_scooter", "is_disabled": 0, "rental_uris": {"android": "https://dc.lft.to/lastmile_qr_scan", "ios": "https://dc.lft.to/lastmile_qr_scan"}, "is_reserved": 0, "bike_id": "65f31469f40495d6ea0beaf9645eedee", "name": "65f31469f40495d6ea0beaf9645eedee", "fusion_lon": 0.0, "lon": -77.03554766666667, "fusion_lat": 0.0}, {"lat": 38.897443333333335, "type": "electric_scooter", "is_disabled": 0, "rental_uris": {"android": "https://dc.lft.to/lastmile_qr_scan", "ios": "https://dc.lft.to/lastmile_qr_scan"}, "is_reserved": 0, "bike_id": "21bd66179cf0927ea3e0859b53fd0bd9", "name": "21bd66179cf0927ea3e0859b53fd0bd9", "fusion_lon": 0.0, "lon": -77.021122, "fusion_lat": 0.0}, {"lat": 38.88590383333333, "type": "electric_scooter", "is_disabled": 0, "rental_uris": {"android": "https://dc.lft.to/lastmile_qr_scan", "ios": "https://dc.lft.to/lastmile_qr_scan"}, "is_reserved": 0, "bike_id": "ee76b02a18d0e22219e0e028f7c08516", "name": "ee76b02a18d0e22219e0e028f7c08516", "fusion_lon": 0.0, "lon": -77.0316305, "fusion_lat": 0.0}, {"lat": 38.88489533333333, "type": "electric_scooter", "is_disabled": 0, "rental_uris": {"android": "https://dc.lft.to/lastmile_qr_scan", "ios": "https://dc.lft.to/lastmile_qr_scan"}, "is_reserved": 0, "bike_id": "f20e71eefa615fbc072463a3dc3e69c5", "name": "f20e71eefa615fbc072463a3dc3e69c5", "fusion_lon": 0.0, "lon": -77.00708066666667, "fusion_lat": 0.0}, {"lat": 38.94578166666667, "type": "electric_bike", "is_disabled": 0, "rental_uris": {"android": "https://dc.lft.to/lastmile_qr_scan", "ios": "https://dc.lft.to/lastmile_qr_scan"}, "is_reserved": 0, "bike_id": "6488322e2dd54919ecee9c2fdd8b2de5", "name": "6488322e2dd54919ecee9c2fdd8b2de5", "fusion_lon": 0.0, "lon": -76.987757, "fusion_lat": 0.0}, {"lat": 38.9006315, "type": "electric_scooter", "is_disabled": 0, "rental_uris": {"android": "https://dc.lft.to/lastmile_qr_scan", "ios": "https://dc.lft.to/lastmile_qr_scan"}, "is_reserved": 0, "bike_id": "8f726142adb8396b755c482f907ddbe9", "name": "8f726142adb8396b755c482f907ddbe9", "fusion_lon": 0.0, "lon": -77.0488995, "fusion_lat": 0.0}, {"lat": 38.931725666666665, "type": "electric_scooter", "is_disabled": 0, "rental_uris": {"android": "https://dc.lft.to/lastmile_qr_scan", "ios": "https://dc.lft.to/lastmile_qr_scan"}, "is_reserved": 0, "bike_id": "fe4c707956e2a85fe9691cc9f888dd66", "name": "fe4c707956e2a85fe9691cc9f888dd66", "fusion_lon": 0.0, "lon": -77.03637266666667, "fusion_lat": 0.0}, {"lat": 38.846184666666666, "type": "electric_scooter", "is_disabled": 0, "rental_uris": {"android": "https://dc.lft.to/lastmile_qr_scan", "ios": "https://dc.lft.to/lastmile_qr_scan"}, "is_reserved": 0, "bike_id": "882061c9f49404a34a47b34b99a49c74", "name": "882061c9f49404a34a47b34b99a49c74", "fusion_lon": 0.0, "lon": -76.99632016666666, "fusion_lat": 0.0}, {"lat": 38.8879815, "type": "electric_scooter", "is_disabled": 0, "rental_uris": {"android": "https://dc.lft.to/lastmile_qr_scan", "ios": "https://dc.lft.to/lastmile_qr_scan"}, "is_reserved": 0, "bike_id": "37faf1d805bf252d3a4f9073f1f27ab5", "name": "37faf1d805bf252d3a4f9073f1f27ab5", "fusion_lon": 0.0, "lon": -76.9335985, "fusion_lat": 0.0}, {"lat": 38.936675, "type": "electric_bike", "is_disabled": 0, "rental_uris": {"android": "https://dc.lft.to/lastmile_qr_scan", "ios": "https://dc.lft.to/lastmile_qr_scan"}, "is_reserved": 0, "bike_id": "cc6520c83042cded325663772c3f0d18", "name": "cc6520c83042cded325663772c3f0d18", "fusion_lon": 0.0, "lon": -76.95492966666667, "fusion_lat": 0.0}, {"lat": 38.915759333333334, "type": "electric_scooter", "is_disabled": 0, "rental_uris": {"android": "https://dc.lft.to/lastmile_qr_scan", "ios": "https://dc.lft.to/lastmile_qr_scan"}, "is_reserved": 0, "bike_id": "1e107a21cc2667d3529afe9d06b9c0c1", "name": "1e107a21cc2667d3529afe9d06b9c0c1", "fusion_lon": 0.0, "lon": -77.05002283333333, "fusion_lat": 0.0}, {"lat": 38.92613216666667, "type": "electric_scooter", "is_disabled": 0, "rental_uris": {"android": "https://dc.lft.to/lastmile_qr_scan", "ios": "https://dc.lft.to/lastmile_qr_scan"}, "is_reserved": 0, "bike_id": "199dc45437e59db8632d9d5cc3c16d29", "name": "199dc45437e59db8632d9d5cc3c16d29", "fusion_lon": 0.0, "lon": -77.02160516666666, "fusion_lat": 0.0}, {"lat": 38.936035833333335, "type": "electric_scooter", "is_disabled": 0, "rental_uris": {"android": "https://dc.lft.to/lastmile_qr_scan", "ios": "https://dc.lft.to/lastmile_qr_scan"}, "is_reserved": 0, "bike_id": "297fd50a58b34ffbe0dfef1dfa4dffc6", "name": "297fd50a58b34ffbe0dfef1dfa4dffc6", "fusion_lon": 0.0, "lon": -77.05864983333333, "fusion_lat": 0.0}, {"lat": 38.895542166666665, "type": "electric_scooter", "is_disabled": 0, "rental_uris": {"android": "https://dc.lft.to/lastmile_qr_scan", "ios": "https://dc.lft.to/lastmile_qr_scan"}, "is_reserved": 0, "bike_id": "fcbbb78e1b736aa0fe918d2393b96256", "name": "fcbbb78e1b736aa0fe918d2393b96256", "fusion_lon": 0.0, "lon": -77.0467015, "fusion_lat": 0.0}, {"lat": 38.8684845, "type": "electric_bike", "is_disabled": 0, "rental_uris": {"android": "https://dc.lft.to/lastmile_qr_scan", "ios": "https://dc.lft.to/lastmile_qr_scan"}, "is_reserved": 0, "bike_id": "5a44c3a2faa6542ec81c80ae73b96d87", "name": "5a44c3a2faa6542ec81c80ae73b96d87", "fusion_lon": 0.0, "lon": -77.097251, "fusion_lat": 0.0}, {"lat": 38.869424333333335, "type": "electric_scooter", "is_disabled": 0, "rental_uris": {"android": "https://dc.lft.to/lastmile_qr_scan", "ios": "https://dc.lft.to/lastmile_qr_scan"}, "is_reserved": 0, "bike_id": "5b3da9b5160da6cc6900124c7926d8ad", "name": "5b3da9b5160da6cc6900124c7926d8ad", "fusion_lon": 0.0, "lon": -76.96960733333333, "fusion_lat": 0.0}, {"lat": 39.01734283333333, "type": "electric_bike", "is_disabled": 0, "rental_uris": {"android": "https://dc.lft.to/lastmile_qr_scan", "ios": "https://dc.lft.to/lastmile_qr_scan"}, "is_reserved": 0, "bike_id": "20da7a73931da6302b90874a3afb31fe", "name": "20da7a73931da6302b90874a3afb31fe", "fusion_lon": 0.0, "lon": -77.06381516666667, "fusion_lat": 0.0}, {"lat": 38.96306416666667, "type": "electric_bike", "is_disabled": 0, "rental_uris": {"android": "https://dc.lft.to/lastmile_qr_scan", "ios": "https://dc.lft.to/lastmile_qr_scan"}, "is_reserved": 0, "bike_id": "583c697c3758e49afcffb0f57548924b", "name": "583c697c3758e49afcffb0f57548924b", "fusion_lon": 0.0, "lon": -77.0576025, "fusion_lat": 0.0}, {"lat": 38.86674433333334, "type": "electric_scooter", "is_disabled": 0, "rental_uris": {"android": "https://dc.lft.to/lastmile_qr_scan", "ios": "https://dc.lft.to/lastmile_qr_scan"}, "is_reserved": 0, "bike_id": "5b5927ede0089e9d898745cf76e0c93d", "name": "5b5927ede0089e9d898745cf76e0c93d", "fusion_lon": 0.0, "lon": -76.98882783333333, "fusion_lat": 0.0}, {"lat": 38.9015245, "type": "electric_scooter", "is_disabled": 0, "rental_uris": {"android": "https://dc.lft.to/lastmile_qr_scan", "ios": "https://dc.lft.to/lastmile_qr_scan"}, "is_reserved": 0, "bike_id": "4a252abec253bbd4db15fdcf2a5965d4", "name": "4a252abec253bbd4db15fdcf2a5965d4", "fusion_lon": 0.0, "lon": -77.03050533333334, "fusion_lat": 0.0}, {"lat": 38.91858633333333, "type": "electric_bike", "is_disabled": 0, "rental_uris": {"android": "https://dc.lft.to/lastmile_qr_scan", "ios": "https://dc.lft.to/lastmile_qr_scan"}, "is_reserved": 0, "bike_id": "0b4e138de5b7d00df61233e95c6855f5", "name": "0b4e138de5b7d00df61233e95c6855f5", "fusion_lon": 0.0, "lon": -76.9608965, "fusion_lat": 0.0}, {"lat": 38.882473166666664, "type": "electric_scooter", "is_disabled": 0, "rental_uris": {"android": "https://dc.lft.to/lastmile_qr_scan", "ios": "https://dc.lft.to/lastmile_qr_scan"}, "is_reserved": 0, "bike_id": "41664ed3d3fba7597ca6742ef7c01157", "name": "41664ed3d3fba7597ca6742ef7c01157", "fusion_lon": 0.0, "lon": -77.00349283333334, "fusion_lat": 0.0}, {"lat": 38.879266333333334, "type": "electric_scooter", "is_disabled": 0, "rental_uris": {"android": "https://dc.lft.to/lastmile_qr_scan", "ios": "https://dc.lft.to/lastmile_qr_scan"}, "is_reserved": 0, "bike_id": "88839f3198681b49595a13c7159e3006", "name": "88839f3198681b49595a13c7159e3006", "fusion_lon": 0.0, "lon": -76.999319, "fusion_lat": 0.0}, {"lat": 38.891974, "type": "electric_scooter", "is_disabled": 0, "rental_uris": {"android": "https://dc.lft.to/lastmile_qr_scan", "ios": "https://dc.lft.to/lastmile_qr_scan"}, "is_reserved": 0, "bike_id": "cb5cf8c306f93cde19362a18db3fbb9d", "name": "cb5cf8c306f93cde19362a18db3fbb9d", "fusion_lon": 0.0, "lon": -77.00293, "fusion_lat": 0.0}, {"lat": 38.83353133333333, "type": "electric_bike", "is_disabled": 0, "rental_uris": {"android": "https://dc.lft.to/lastmile_qr_scan", "ios": "https://dc.lft.to/lastmile_qr_scan"}, "is_reserved": 0, "bike_id": "8c0005a7b1544cbdbb18cc4d80bb098d", "name": "8c0005a7b1544cbdbb18cc4d80bb098d", "fusion_lon": 0.0, "lon": -76.96558166666667, "fusion_lat": 0.0}, {"lat": 38.950580333333335, "type": "electric_bike", "is_disabled": 0, "rental_uris": {"android": "https://dc.lft.to/lastmile_qr_scan", "ios": "https://dc.lft.to/lastmile_qr_scan"}, "is_reserved": 0, "bike_id": "faece6e0b6cc6e2049955dd02362c401", "name": "faece6e0b6cc6e2049955dd02362c401", "fusion_lon": 0.0, "lon": -76.96736283333334, "fusion_lat": 0.0}, {"lat": 38.922499333333334, "type": "electric_scooter", "is_disabled": 0, "rental_uris": {"android": "https://dc.lft.to/lastmile_qr_scan", "ios": "https://dc.lft.to/lastmile_qr_scan"}, "is_reserved": 0, "bike_id": "7715e08630e2fea52cebe3f2255c6c6b", "name": "7715e08630e2fea52cebe3f2255c6c6b", "fusion_lon": 0.0, "lon": -77.03085883333334, "fusion_lat": 0.0}, {"lat": 38.91186066666667, "type": "electric_scooter", "is_disabled": 0, "rental_uris": {"android": "https://dc.lft.to/lastmile_qr_scan", "ios": "https://dc.lft.to/lastmile_qr_scan"}, "is_reserved": 0, "bike_id": "a19c8283466310c5f951a89af00d1b47", "name": "a19c8283466310c5f951a89af00d1b47", "fusion_lon": 0.0, "lon": -77.03135383333333, "fusion_lat": 0.0}, {"lat": 38.90490533333333, "type": "electric_scooter", "is_disabled": 0, "rental_uris": {"android": "https://dc.lft.to/lastmile_qr_scan", "ios": "https://dc.lft.to/lastmile_qr_scan"}, "is_reserved": 0, "bike_id": "f9234ca696a460e580a30dc98a62a393", "name": "f9234ca696a460e580a30dc98a62a393", "fusion_lon": 0.0, "lon": -77.0294145, "fusion_lat": 0.0}, {"lat": 38.9248275, "type": "electric_scooter", "is_disabled": 0, "rental_uris": {"android": "https://dc.lft.to/lastmile_qr_scan", "ios": "https://dc.lft.to/lastmile_qr_scan"}, "is_reserved": 0, "bike_id": "1a600b09772d2dec892f59f77e419a77", "name": "1a600b09772d2dec892f59f77e419a77", "fusion_lon": 0.0, "lon": -77.02723833333333, "fusion_lat": 0.0}, {"lat": 38.902340833333334, "type": "electric_scooter", "is_disabled": 0, "rental_uris": {"android": "https://dc.lft.to/lastmile_qr_scan", "ios": "https://dc.lft.to/lastmile_qr_scan"}, "is_reserved": 0, "bike_id": "24f2d42d5bc8f35be087aaecb984b7b8", "name": "24f2d42d5bc8f35be087aaecb984b7b8", "fusion_lon": 0.0, "lon": -77.02934316666666, "fusion_lat": 0.0}, {"lat": 38.886395666666665, "type": "electric_scooter", "is_disabled": 0, "rental_uris": {"android": "https://dc.lft.to/lastmile_qr_scan", "ios": "https://dc.lft.to/lastmile_qr_scan"}, "is_reserved": 0, "bike_id": "ed89d1653fd5adf19c8b08952d664869", "name": "ed89d1653fd5adf19c8b08952d664869", "fusion_lon": 0.0, "lon": -77.02252883333334, "fusion_lat": 0.0}, {"lat": 38.922407166666666, "type": "electric_scooter", "is_disabled": 0, "rental_uris": {"android": "https://dc.lft.to/lastmile_qr_scan", "ios": "https://dc.lft.to/lastmile_qr_scan"}, "is_reserved": 0, "bike_id": "a728522c7a8d272ad3b8a08c8d6d8c98", "name": "a728522c7a8d272ad3b8a08c8d6d8c98", "fusion_lon": 0.0, "lon": -77.0285, "fusion_lat": 0.0}, {"lat": 38.899164999999996, "type": "electric_scooter", "is_disabled": 0, "rental_uris": {"android": "https://dc.lft.to/lastmile_qr_scan", "ios": "https://dc.lft.to/lastmile_qr_scan"}, "is_reserved": 0, "bike_id": "20392c44449239df1ae6e4745f0a3f45", "name": "20392c44449239df1ae6e4745f0a3f45", "fusion_lon": 0.0, "lon": -76.93361616666667, "fusion_lat": 0.0}, {"lat": 38.876269, "type": "electric_scooter", "is_disabled": 0, "rental_uris": {"android": "https://dc.lft.to/lastmile_qr_scan", "ios": "https://dc.lft.to/lastmile_qr_scan"}, "is_reserved": 0, "bike_id": "9ead96f8dc6f6e6a469427b89fd7afbe", "name": "9ead96f8dc6f6e6a469427b89fd7afbe", "fusion_lon": 0.0, "lon": -76.96524166666667, "fusion_lat": 0.0}, {"lat": 38.86506333333333, "type": "electric_scooter", "is_disabled": 0, "rental_uris": {"android": "https://dc.lft.to/lastmile_qr_scan", "ios": "https://dc.lft.to/lastmile_qr_scan"}, "is_reserved": 0, "bike_id": "bfc23ca5cbcf18e6ea28a3373190ae92", "name": "bfc23ca5cbcf18e6ea28a3373190ae92", "fusion_lon": 0.0, "lon": -76.99000933333333, "fusion_lat": 0.0}, {"lat": 38.91740883333333, "type": "electric_scooter", "is_disabled": 0, "rental_uris": {"android": "https://dc.lft.to/lastmile_qr_scan", "ios": "https://dc.lft.to/lastmile_qr_scan"}, "is_reserved": 0, "bike_id": "1b0e9e330e6bf3a9c41c11b720627615", "name": "1b0e9e330e6bf3a9c41c11b720627615", "fusion_lon": 0.0, "lon": -77.03656966666667, "fusion_lat": 0.0}, {"lat": 38.89259233333333, "type": "electric_scooter", "is_disabled": 0, "rental_uris": {"android": "https://dc.lft.to/lastmile_qr_scan", "ios": "https://dc.lft.to/lastmile_qr_scan"}, "is_reserved": 0, "bike_id": "c7cc058fe3b98a76c6cbc5f91de459b3", "name": "c7cc058fe3b98a76c6cbc5f91de459b3", "fusion_lon": 0.0, "lon": -76.94158516666667, "fusion_lat": 0.0}, {"lat": 38.895546333333336, "type": "electric_scooter", "is_disabled": 0, "rental_uris": {"android": "https://dc.lft.to/lastmile_qr_scan", "ios": "https://dc.lft.to/lastmile_qr_scan"}, "is_reserved": 0, "bike_id": "b13d9b55156f29e0425d32103fdb1add", "name": "b13d9b55156f29e0425d32103fdb1add", "fusion_lon": 0.0, "lon": -77.00918883333334, "fusion_lat": 0.0}, {"lat": 38.939630333333334, "type": "electric_scooter", "is_disabled": 0, "rental_uris": {"android": "https://dc.lft.to/lastmile_qr_scan", "ios": "https://dc.lft.to/lastmile_qr_scan"}, "is_reserved": 0, "bike_id": "ecd0362166c2392b5e302b7089ba68a2", "name": "ecd0362166c2392b5e302b7089ba68a2", "fusion_lon": 0.0, "lon": -77.0277455, "fusion_lat": 0.0}, {"lat": 38.889685, "type": "electric_bike", "is_disabled": 0, "rental_uris": {"android": "https://dc.lft.to/lastmile_qr_scan", "ios": "https://dc.lft.to/lastmile_qr_scan"}, "is_reserved": 0, "bike_id": "96a08b5692f5528d2991e5c469823d16", "name": "96a08b5692f5528d2991e5c469823d16", "fusion_lon": 0.0, "lon": -76.9486385, "fusion_lat": 0.0}, {"lat": 38.90235116666667, "type": "electric_scooter", "is_disabled": 0, "rental_uris": {"android": "https://dc.lft.to/lastmile_qr_scan", "ios": "https://dc.lft.to/lastmile_qr_scan"}, "is_reserved": 0, "bike_id": "11eb66918623efb734fb589db2026582", "name": "11eb66918623efb734fb589db2026582", "fusion_lon": 0.0, "lon": -77.04349533333334, "fusion_lat": 0.0}, {"lat": 38.892278166666664, "type": "electric_scooter", "is_disabled": 0, "rental_uris": {"android": "https://dc.lft.to/lastmile_qr_scan", "ios": "https://dc.lft.to/lastmile_qr_scan"}, "is_reserved": 0, "bike_id": "d4c1bacb5153d941c95d02b0876d67b7", "name": "d4c1bacb5153d941c95d02b0876d67b7", "fusion_lon": 0.0, "lon": -77.03972666666667, "fusion_lat": 0.0}, {"lat": 38.90773633333333, "type": "electric_scooter", "is_disabled": 0, "rental_uris": {"android": "https://dc.lft.to/lastmile_qr_scan", "ios": "https://dc.lft.to/lastmile_qr_scan"}, "is_reserved": 0, "bike_id": "268d2d7dba2055d1378966c1109ddb89", "name": "268d2d7dba2055d1378966c1109ddb89", "fusion_lon": 0.0, "lon": -77.0324645, "fusion_lat": 0.0}, {"lat": 38.84834466666667, "type": "electric_scooter", "is_disabled": 0, "rental_uris": {"android": "https://dc.lft.to/lastmile_qr_scan", "ios": "https://dc.lft.to/lastmile_qr_scan"}, "is_reserved": 0, "bike_id": "043ebf0cdcb76b604433e49c09386679", "name": "043ebf0cdcb76b604433e49c09386679", "fusion_lon": 0.0, "lon": -76.98283116666667, "fusion_lat": 0.0}, {"lat": 38.929041, "type": "electric_scooter", "is_disabled": 0, "rental_uris": {"android": "https://dc.lft.to/lastmile_qr_scan", "ios": "https://dc.lft.to/lastmile_qr_scan"}, "is_reserved": 0, "bike_id": "148a4792fe7c651dc50de0faf0d6bfc7", "name": "148a4792fe7c651dc50de0faf0d6bfc7", "fusion_lon": 0.0, "lon": -77.01641, "fusion_lat": 0.0}, {"lat": 38.887455833333334, "type": "electric_scooter", "is_disabled": 0, "rental_uris": {"android": "https://dc.lft.to/lastmile_qr_scan", "ios": "https://dc.lft.to/lastmile_qr_scan"}, "is_reserved": 0, "bike_id": "c803e19c2f743da0088859cb43716579", "name": "c803e19c2f743da0088859cb43716579", "fusion_lon": 0.0, "lon": -77.02858216666667, "fusion_lat": 0.0}, {"lat": 38.90730516666667, "type": "electric_scooter", "is_disabled": 0, "rental_uris": {"android": "https://dc.lft.to/lastmile_qr_scan", "ios": "https://dc.lft.to/lastmile_qr_scan"}, "is_reserved": 0, "bike_id": "8f303077c6b879f5ddf7090c70b385b6", "name": "8f303077c6b879f5ddf7090c70b385b6", "fusion_lon": 0.0, "lon": -77.023676, "fusion_lat": 0.0}, {"lat": 38.88746283333333, "type": "electric_scooter", "is_disabled": 0, "rental_uris": {"android": "https://dc.lft.to/lastmile_qr_scan", "ios": "https://dc.lft.to/lastmile_qr_scan"}, "is_reserved": 0, "bike_id": "23d17889f7eae54f9201fee2a9dbbbce", "name": "23d17889f7eae54f9201fee2a9dbbbce", "fusion_lon": 0.0, "lon": -77.02223916666667, "fusion_lat": 0.0}, {"lat": 38.88819633333333, "type": "electric_bike", "is_disabled": 0, "rental_uris": {"android": "https://dc.lft.to/lastmile_qr_scan", "ios": "https://dc.lft.to/lastmile_qr_scan"}, "is_reserved": 0, "bike_id": "50a565e53713c24e56870af375624522", "name": "50a565e53713c24e56870af375624522", "fusion_lon": 0.0, "lon": -77.127398, "fusion_lat": 0.0}, {"lat": 38.9758, "type": "electric_bike", "is_disabled": 0, "rental_uris": {"android": "https://dc.lft.to/lastmile_qr_scan", "ios": "https://dc.lft.to/lastmile_qr_scan"}, "is_reserved": 0, "bike_id": "0acab2b7e5c89c085c66ac8ee1d23d27", "name": "0acab2b7e5c89c085c66ac8ee1d23d27", "fusion_lon": 0.0, "lon": -76.96383016666667, "fusion_lat": 0.0}, {"lat": 38.99228216666667, "type": "electric_bike", "is_disabled": 0, "rental_uris": {"android": "https://dc.lft.to/lastmile_qr_scan", "ios": "https://dc.lft.to/lastmile_qr_scan"}, "is_reserved": 0, "bike_id": "ecad49e25db9519c0b174da71ea6262b", "name": "ecad49e25db9519c0b174da71ea6262b", "fusion_lon": 0.0, "lon": -76.87784983333333, "fusion_lat": 0.0}, {"lat": 38.879091833333334, "type": "electric_bike", "is_disabled": 0, "rental_uris": {"android": "https://dc.lft.to/lastmile_qr_scan", "ios": "https://dc.lft.to/lastmile_qr_scan"}, "is_reserved": 0, "bike_id": "0a25e71f5b48f7290a3d09044e2223ec", "name": "0a25e71f5b48f7290a3d09044e2223ec", "fusion_lon": 0.0, "lon": -77.10744816666667, "fusion_lat": 0.0}, {"lat": 38.930209833333336, "type": "electric_scooter", "is_disabled": 0, "rental_uris": {"android": "https://dc.lft.to/lastmile_qr_scan", "ios": "https://dc.lft.to/lastmile_qr_scan"}, "is_reserved": 0, "bike_id": "38f07d00ccbd6c2ede91004e6d73e248", "name": "38f07d00ccbd6c2ede91004e6d73e248", "fusion_lon": 0.0, "lon": -77.03800166666667, "fusion_lat": 0.0}, {"lat": 38.85433183333333, "type": "electric_bike", "is_disabled": 0, "rental_uris": {"android": "https://dc.lft.to/lastmile_qr_scan", "ios": "https://dc.lft.to/lastmile_qr_scan"}, "is_reserved": 0, "bike_id": "4815861503278fa329584c6c823f2a2d", "name": "4815861503278fa329584c6c823f2a2d", "fusion_lon": 0.0, "lon": -76.9097185, "fusion_lat": 0.0}, {"lat": 38.90530783333333, "type": "electric_scooter", "is_disabled": 0, "rental_uris": {"android": "https://dc.lft.to/lastmile_qr_scan", "ios": "https://dc.lft.to/lastmile_qr_scan"}, "is_reserved": 0, "bike_id": "3a3f3c9dfd7ea5cf2047c665b6ec08af", "name": "3a3f3c9dfd7ea5cf2047c665b6ec08af", "fusion_lon": 0.0, "lon": -77.050508, "fusion_lat": 0.0}, {"lat": 38.932347166666666, "type": "electric_scooter", "is_disabled": 0, "rental_uris": {"android": "https://dc.lft.to/lastmile_qr_scan", "ios": "https://dc.lft.to/lastmile_qr_scan"}, "is_reserved": 0, "bike_id": "b1accc9cff0804cd37485fce846bfdf3", "name": "b1accc9cff0804cd37485fce846bfdf3", "fusion_lon": 0.0, "lon": -77.038542, "fusion_lat": 0.0}, {"lat": 38.899786, "type": "electric_scooter", "is_disabled": 0, "rental_uris": {"android": "https://dc.lft.to/lastmile_qr_scan", "ios": "https://dc.lft.to/lastmile_qr_scan"}, "is_reserved": 0, "bike_id": "d70e19ab1aa7eb4dd227932600e5ce58", "name": "d70e19ab1aa7eb4dd227932600e5ce58", "fusion_lon": 0.0, "lon": -77.041823, "fusion_lat": 0.0}, {"lat": 38.89016083333333, "type": "electric_scooter", "is_disabled": 0, "rental_uris": {"android": "https://dc.lft.to/lastmile_qr_scan", "ios": "https://dc.lft.to/lastmile_qr_scan"}, "is_reserved": 0, "bike_id": "491f87975bdc37b01a97901dee42901d", "name": "491f87975bdc37b01a97901dee42901d", "fusion_lon": 0.0, "lon": -76.9373785, "fusion_lat": 0.0}, {"lat": 38.927321666666664, "type": "electric_scooter", "is_disabled": 0, "rental_uris": {"android": "https://dc.lft.to/lastmile_qr_scan", "ios": "https://dc.lft.to/lastmile_qr_scan"}, "is_reserved": 0, "bike_id": "e1d65d468eb69a3f4ae1f91135b3f722", "name": "e1d65d468eb69a3f4ae1f91135b3f722", "fusion_lon": 0.0, "lon": -77.02240416666666, "fusion_lat": 0.0}, {"lat": 38.907311, "type": "electric_scooter", "is_disabled": 0, "rental_uris": {"android": "https://dc.lft.to/lastmile_qr_scan", "ios": "https://dc.lft.to/lastmile_qr_scan"}, "is_reserved": 0, "bike_id": "34353d260a19643c80dd15d73ba68c5e", "name": "34353d260a19643c80dd15d73ba68c5e", "fusion_lon": 0.0, "lon": -77.04346766666667, "fusion_lat": 0.0}, {"lat": 38.928541333333335, "type": "electric_scooter", "is_disabled": 0, "rental_uris": {"android": "https://dc.lft.to/lastmile_qr_scan", "ios": "https://dc.lft.to/lastmile_qr_scan"}, "is_reserved": 0, "bike_id": "465812e8874080246ec6a8251e3b6b36", "name": "465812e8874080246ec6a8251e3b6b36", "fusion_lon": 0.0, "lon": -77.01424166666666, "fusion_lat": 0.0}, {"lat": 38.89388816666667, "type": "electric_scooter", "is_disabled": 0, "rental_uris": {"android": "https://dc.lft.to/lastmile_qr_scan", "ios": "https://dc.lft.to/lastmile_qr_scan"}, "is_reserved": 0, "bike_id": "4b8b518fcef7aa128cec38ea1a78dc7d", "name": "4b8b518fcef7aa128cec38ea1a78dc7d", "fusion_lon": 0.0, "lon": -76.9499505, "fusion_lat": 0.0}, {"lat": 38.918408, "type": "electric_scooter", "is_disabled": 0, "rental_uris": {"android": "https://dc.lft.to/lastmile_qr_scan", "ios": "https://dc.lft.to/lastmile_qr_scan"}, "is_reserved": 0, "bike_id": "f1cabeed36d152ae6314e13e6a7b2f6b", "name": "f1cabeed36d152ae6314e13e6a7b2f6b", "fusion_lon": 0.0, "lon": -77.025341, "fusion_lat": 0.0}, {"lat": 38.861586, "type": "electric_scooter", "is_disabled": 0, "rental_uris": {"android": "https://dc.lft.to/lastmile_qr_scan", "ios": "https://dc.lft.to/lastmile_qr_scan"}, "is_reserved": 0, "bike_id": "355be992369d5f51726968d40fc7a423", "name": "355be992369d5f51726968d40fc7a423", "fusion_lon": 0.0, "lon": -76.98575516666666, "fusion_lat": 0.0}, {"lat": 38.87696, "type": "electric_scooter", "is_disabled": 0, "rental_uris": {"android": "https://dc.lft.to/lastmile_qr_scan", "ios": "https://dc.lft.to/lastmile_qr_scan"}, "is_reserved": 0, "bike_id": "39b6a65e9fca9657e9d08c1ce9ded20c", "name": "39b6a65e9fca9657e9d08c1ce9ded20c", "fusion_lon": 0.0, "lon": -77.01785, "fusion_lat": 0.0}, {"lat": 38.876958333333334, "type": "electric_scooter", "is_disabled": 0, "rental_uris": {"android": "https://dc.lft.to/lastmile_qr_scan", "ios": "https://dc.lft.to/lastmile_qr_scan"}, "is_reserved": 0, "bike_id": "381311ce9c5051aef573420c695b5ed8", "name": "381311ce9c5051aef573420c695b5ed8", "fusion_lon": 0.0, "lon": -77.01782016666667, "fusion_lat": 0.0}, {"lat": 38.842837333333335, "type": "electric_scooter", "is_disabled": 0, "rental_uris": {"android": "https://dc.lft.to/lastmile_qr_scan", "ios": "https://dc.lft.to/lastmile_qr_scan"}, "is_reserved": 0, "bike_id": "68d70e21434be479f0967a34628d324b", "name": "68d70e21434be479f0967a34628d324b", "fusion_lon": 0.0, "lon": -76.9995635, "fusion_lat": 0.0}, {"lat": 38.88608933333333, "type": "electric_scooter", "is_disabled": 0, "rental_uris": {"android": "https://dc.lft.to/lastmile_qr_scan", "ios": "https://dc.lft.to/lastmile_qr_scan"}, "is_reserved": 0, "bike_id": "67dfdf7c92d24408921ae016513b6c5c", "name": "67dfdf7c92d24408921ae016513b6c5c", "fusion_lon": 0.0, "lon": -76.99505766666667, "fusion_lat": 0.0}, {"lat": 38.905422, "type": "electric_scooter", "is_disabled": 0, "rental_uris": {"android": "https://dc.lft.to/lastmile_qr_scan", "ios": "https://dc.lft.to/lastmile_qr_scan"}, "is_reserved": 0, "bike_id": "3dff220cbc74051ef45e81b042daca12", "name": "3dff220cbc74051ef45e81b042daca12", "fusion_lon": 0.0, "lon": -77.0408765, "fusion_lat": 0.0}, {"lat": 38.88153283333333, "type": "electric_bike", "is_disabled": 0, "rental_uris": {"android": "https://dc.lft.to/lastmile_qr_scan", "ios": "https://dc.lft.to/lastmile_qr_scan"}, "is_reserved": 0, "bike_id": "8cc7f7fa1dc9fd3001854f6f5571fdae", "name": "8cc7f7fa1dc9fd3001854f6f5571fdae", "fusion_lon": 0.0, "lon": -77.11495383333333, "fusion_lat": 0.0}, {"lat": 38.90134883333333, "type": "electric_scooter", "is_disabled": 0, "rental_uris": {"android": "https://dc.lft.to/lastmile_qr_scan", "ios": "https://dc.lft.to/lastmile_qr_scan"}, "is_reserved": 0, "bike_id": "a369c84615fe9099e79da210e7e08f59", "name": "a369c84615fe9099e79da210e7e08f59", "fusion_lon": 0.0, "lon": -77.04382766666667, "fusion_lat": 0.0}, {"lat": 38.91631666666667, "type": "electric_scooter", "is_disabled": 0, "rental_uris": {"android": "https://dc.lft.to/lastmile_qr_scan", "ios": "https://dc.lft.to/lastmile_qr_scan"}, "is_reserved": 0, "bike_id": "5638972b3129a623d2b4f65d64c0e167", "name": "5638972b3129a623d2b4f65d64c0e167", "fusion_lon": 0.0, "lon": -77.03135516666667, "fusion_lat": 0.0}, {"lat": 38.93504883333333, "type": "electric_bike", "is_disabled": 0, "rental_uris": {"android": "https://dc.lft.to/lastmile_qr_scan", "ios": "https://dc.lft.to/lastmile_qr_scan"}, "is_reserved": 0, "bike_id": "63fa4c2d4cc8352ca5fafb606c560e04", "name": "63fa4c2d4cc8352ca5fafb606c560e04", "fusion_lon": 0.0, "lon": -76.9496495, "fusion_lat": 0.0}, {"lat": 38.902417166666666, "type": "electric_scooter", "is_disabled": 0, "rental_uris": {"android": "https://dc.lft.to/lastmile_qr_scan", "ios": "https://dc.lft.to/lastmile_qr_scan"}, "is_reserved": 0, "bike_id": "44544ff0139bd817b929886f6db0b859", "name": "44544ff0139bd817b929886f6db0b859", "fusion_lon": 0.0, "lon": -76.98965916666667, "fusion_lat": 0.0}, {"lat": 38.912932166666664, "type": "electric_scooter", "is_disabled": 0, "rental_uris": {"android": "https://dc.lft.to/lastmile_qr_scan", "ios": "https://dc.lft.to/lastmile_qr_scan"}, "is_reserved": 0, "bike_id": "ddfce97342b0fc3feb924fe145fb560d", "name": "ddfce97342b0fc3feb924fe145fb560d", "fusion_lon": 0.0, "lon": -77.02717166666666, "fusion_lat": 0.0}, {"lat": 38.907976833333336, "type": "electric_scooter", "is_disabled": 0, "rental_uris": {"android": "https://dc.lft.to/lastmile_qr_scan", "ios": "https://dc.lft.to/lastmile_qr_scan"}, "is_reserved": 0, "bike_id": "70010a80e005e43ab529abf9ccaa8bd4", "name": "70010a80e005e43ab529abf9ccaa8bd4", "fusion_lon": 0.0, "lon": -77.04098916666666, "fusion_lat": 0.0}, {"lat": 38.95086333333333, "type": "electric_bike", "is_disabled": 0, "rental_uris": {"android": "https://dc.lft.to/lastmile_qr_scan", "ios": "https://dc.lft.to/lastmile_qr_scan"}, "is_reserved": 0, "bike_id": "fdcd7bdbc1af76aa26b825585100a0c8", "name": "fdcd7bdbc1af76aa26b825585100a0c8", "fusion_lon": 0.0, "lon": -76.96554516666667, "fusion_lat": 0.0}, {"lat": 38.90572933333333, "type": "electric_scooter", "is_disabled": 0, "rental_uris": {"android": "https://dc.lft.to/lastmile_qr_scan", "ios": "https://dc.lft.to/lastmile_qr_scan"}, "is_reserved": 0, "bike_id": "90757df53b1302466d001fc600929f80", "name": "90757df53b1302466d001fc600929f80", "fusion_lon": 0.0, "lon": -77.04501766666667, "fusion_lat": 0.0}, {"lat": 38.901366333333335, "type": "electric_scooter", "is_disabled": 0, "rental_uris": {"android": "https://dc.lft.to/lastmile_qr_scan", "ios": "https://dc.lft.to/lastmile_qr_scan"}, "is_reserved": 0, "bike_id": "817f05dbe99b8d41d85372e6836206a5", "name": "817f05dbe99b8d41d85372e6836206a5", "fusion_lon": 0.0, "lon": -77.032446, "fusion_lat": 0.0}, {"lat": 38.87627783333333, "type": "electric_scooter", "is_disabled": 0, "rental_uris": {"android": "https://dc.lft.to/lastmile_qr_scan", "ios": "https://dc.lft.to/lastmile_qr_scan"}, "is_reserved": 0, "bike_id": "f2f9775db0b9a26fa05c6b0f7307adc2", "name": "f2f9775db0b9a26fa05c6b0f7307adc2", "fusion_lon": 0.0, "lon": -76.96525016666666, "fusion_lat": 0.0}, {"lat": 38.924696, "type": "electric_scooter", "is_disabled": 0, "rental_uris": {"android": "https://dc.lft.to/lastmile_qr_scan", "ios": "https://dc.lft.to/lastmile_qr_scan"}, "is_reserved": 0, "bike_id": "60b255b629378b1b98a27cc8a1cba175", "name": "60b255b629378b1b98a27cc8a1cba175", "fusion_lon": 0.0, "lon": -77.03062883333334, "fusion_lat": 0.0}, {"lat": 38.90842583333333, "type": "electric_scooter", "is_disabled": 0, "rental_uris": {"android": "https://dc.lft.to/lastmile_qr_scan", "ios": "https://dc.lft.to/lastmile_qr_scan"}, "is_reserved": 0, "bike_id": "949efb3ae3daff2f468422aed6fc0e93", "name": "949efb3ae3daff2f468422aed6fc0e93", "fusion_lon": 0.0, "lon": -76.9970625, "fusion_lat": 0.0}, {"lat": 38.90690083333333, "type": "electric_bike", "is_disabled": 0, "rental_uris": {"android": "https://dc.lft.to/lastmile_qr_scan", "ios": "https://dc.lft.to/lastmile_qr_scan"}, "is_reserved": 0, "bike_id": "5192262e00b0fe8b6a11d77ca70d5a6a", "name": "5192262e00b0fe8b6a11d77ca70d5a6a", "fusion_lon": 0.0, "lon": -76.95191783333334, "fusion_lat": 0.0}, {"lat": 38.91512066666667, "type": "electric_scooter", "is_disabled": 0, "rental_uris": {"android": "https://dc.lft.to/lastmile_qr_scan", "ios": "https://dc.lft.to/lastmile_qr_scan"}, "is_reserved": 0, "bike_id": "7ed05aa8fa8ac42c8dac70be937f9530", "name": "7ed05aa8fa8ac42c8dac70be937f9530", "fusion_lon": 0.0, "lon": -77.04609033333334, "fusion_lat": 0.0}, {"lat": 38.910985333333336, "type": "electric_scooter", "is_disabled": 0, "rental_uris": {"android": "https://dc.lft.to/lastmile_qr_scan", "ios": "https://dc.lft.to/lastmile_qr_scan"}, "is_reserved": 0, "bike_id": "0a2d79dcf8472aa8876541dd6c00b252", "name": "0a2d79dcf8472aa8876541dd6c00b252", "fusion_lon": 0.0, "lon": -77.0317965, "fusion_lat": 0.0}, {"lat": 38.88572583333333, "type": "electric_scooter", "is_disabled": 0, "rental_uris": {"android": "https://dc.lft.to/lastmile_qr_scan", "ios": "https://dc.lft.to/lastmile_qr_scan"}, "is_reserved": 0, "bike_id": "31588d0f2f401fe5cff5d38174521313", "name": "31588d0f2f401fe5cff5d38174521313", "fusion_lon": 0.0, "lon": -77.01544166666666, "fusion_lat": 0.0}, {"lat": 38.9211225, "type": "electric_scooter", "is_disabled": 0, "rental_uris": {"android": "https://dc.lft.to/lastmile_qr_scan", "ios": "https://dc.lft.to/lastmile_qr_scan"}, "is_reserved": 0, "bike_id": "c77f33eb827e5fda872f8ff741e794b7", "name": "c77f33eb827e5fda872f8ff741e794b7", "fusion_lon": 0.0, "lon": -77.04212633333333, "fusion_lat": 0.0}, {"lat": 38.914167, "type": "electric_scooter", "is_disabled": 0, "rental_uris": {"android": "https://dc.lft.to/lastmile_qr_scan", "ios": "https://dc.lft.to/lastmile_qr_scan"}, "is_reserved": 0, "bike_id": "13ce9a2c5cc0e7672c8ed8096ebe8f51", "name": "13ce9a2c5cc0e7672c8ed8096ebe8f51", "fusion_lon": 0.0, "lon": -77.04175683333334, "fusion_lat": 0.0}, {"lat": 38.92742283333333, "type": "electric_scooter", "is_disabled": 0, "rental_uris": {"android": "https://dc.lft.to/lastmile_qr_scan", "ios": "https://dc.lft.to/lastmile_qr_scan"}, "is_reserved": 0, "bike_id": "ae254e9ad40d1c8d6e0164ffb0175f15", "name": "ae254e9ad40d1c8d6e0164ffb0175f15", "fusion_lon": 0.0, "lon": -77.01203433333333, "fusion_lat": 0.0}, {"lat": 38.896817666666664, "type": "electric_bike", "is_disabled": 0, "rental_uris": {"android": "https://dc.lft.to/lastmile_qr_scan", "ios": "https://dc.lft.to/lastmile_qr_scan"}, "is_reserved": 0, "bike_id": "725d406680d7b41c84c4fff0a438e298", "name": "725d406680d7b41c84c4fff0a438e298", "fusion_lon": 0.0, "lon": -76.940707, "fusion_lat": 0.0}, {"lat": 38.95780166666667, "type": "electric_bike", "is_disabled": 0, "rental_uris": {"android": "https://dc.lft.to/lastmile_qr_scan", "ios": "https://dc.lft.to/lastmile_qr_scan"}, "is_reserved": 0, "bike_id": "c397a86cb5508851ac2758991d6315dd", "name": "c397a86cb5508851ac2758991d6315dd", "fusion_lon": 0.0, "lon": -76.94091283333333, "fusion_lat": 0.0}, {"lat": 38.844299, "type": "electric_scooter", "is_disabled": 0, "rental_uris": {"android": "https://dc.lft.to/lastmile_qr_scan", "ios": "https://dc.lft.to/lastmile_qr_scan"}, "is_reserved": 0, "bike_id": "825402e4d5995ea71729ead3d49b5e45", "name": "825402e4d5995ea71729ead3d49b5e45", "fusion_lon": 0.0, "lon": -76.99776783333333, "fusion_lat": 0.0}, {"lat": 38.91011783333333, "type": "electric_scooter", "is_disabled": 0, "rental_uris": {"android": "https://dc.lft.to/lastmile_qr_scan", "ios": "https://dc.lft.to/lastmile_qr_scan"}, "is_reserved": 0, "bike_id": "589ab8554b8f7546f4ae68212a295270", "name": "589ab8554b8f7546f4ae68212a295270", "fusion_lon": 0.0, "lon": -76.99386766666667, "fusion_lat": 0.0}, {"lat": 38.89366716666667, "type": "electric_scooter", "is_disabled": 0, "rental_uris": {"android": "https://dc.lft.to/lastmile_qr_scan", "ios": "https://dc.lft.to/lastmile_qr_scan"}, "is_reserved": 0, "bike_id": "8dae599f267af28f511399ce08f4afe4", "name": "8dae599f267af28f511399ce08f4afe4", "fusion_lon": 0.0, "lon": -76.940238, "fusion_lat": 0.0}, {"lat": 38.93348916666667, "type": "electric_scooter", "is_disabled": 0, "rental_uris": {"android": "https://dc.lft.to/lastmile_qr_scan", "ios": "https://dc.lft.to/lastmile_qr_scan"}, "is_reserved": 0, "bike_id": "c10db0de394c48e2734b6d21dccb2edf", "name": "c10db0de394c48e2734b6d21dccb2edf", "fusion_lon": 0.0, "lon": -77.033634, "fusion_lat": 0.0}, {"lat": 38.90534516666666, "type": "electric_scooter", "is_disabled": 0, "rental_uris": {"android": "https://dc.lft.to/lastmile_qr_scan", "ios": "https://dc.lft.to/lastmile_qr_scan"}, "is_reserved": 0, "bike_id": "3e53f188299bc838efcc6f4856ecceb9", "name": "3e53f188299bc838efcc6f4856ecceb9", "fusion_lon": 0.0, "lon": -77.0570355, "fusion_lat": 0.0}, {"lat": 38.9375855, "type": "electric_scooter", "is_disabled": 0, "rental_uris": {"android": "https://dc.lft.to/lastmile_qr_scan", "ios": "https://dc.lft.to/lastmile_qr_scan"}, "is_reserved": 0, "bike_id": "19f91922732445aa3e163c32e14eb3cc", "name": "19f91922732445aa3e163c32e14eb3cc", "fusion_lon": 0.0, "lon": -77.02495383333333, "fusion_lat": 0.0}, {"lat": 38.908720333333335, "type": "electric_scooter", "is_disabled": 0, "rental_uris": {"android": "https://dc.lft.to/lastmile_qr_scan", "ios": "https://dc.lft.to/lastmile_qr_scan"}, "is_reserved": 0, "bike_id": "8f951d2441f3ad78875125c033fd57fc", "name": "8f951d2441f3ad78875125c033fd57fc", "fusion_lon": 0.0, "lon": -77.02686966666667, "fusion_lat": 0.0}, {"lat": 38.89230833333333, "type": "electric_scooter", "is_disabled": 0, "rental_uris": {"android": "https://dc.lft.to/lastmile_qr_scan", "ios": "https://dc.lft.to/lastmile_qr_scan"}, "is_reserved": 0, "bike_id": "8d749ddac8ea1d25a89f6e684e630e49", "name": "8d749ddac8ea1d25a89f6e684e630e49", "fusion_lon": 0.0, "lon": -77.05001683333333, "fusion_lat": 0.0}, {"lat": 38.9258285, "type": "electric_scooter", "is_disabled": 0, "rental_uris": {"android": "https://dc.lft.to/lastmile_qr_scan", "ios": "https://dc.lft.to/lastmile_qr_scan"}, "is_reserved": 0, "bike_id": "66223287cad27906567ab122d2c33fdc", "name": "66223287cad27906567ab122d2c33fdc", "fusion_lon": 0.0, "lon": -77.03211583333334, "fusion_lat": 0.0}, {"lat": 38.90736166666667, "type": "electric_scooter", "is_disabled": 0, "rental_uris": {"android": "https://dc.lft.to/lastmile_qr_scan", "ios": "https://dc.lft.to/lastmile_qr_scan"}, "is_reserved": 0, "bike_id": "f3e5c7d122f01318e70e04ddb15dda31", "name": "f3e5c7d122f01318e70e04ddb15dda31", "fusion_lon": 0.0, "lon": -77.00779283333334, "fusion_lat": 0.0}, {"lat": 38.921107666666664, "type": "electric_scooter", "is_disabled": 0, "rental_uris": {"android": "https://dc.lft.to/lastmile_qr_scan", "ios": "https://dc.lft.to/lastmile_qr_scan"}, "is_reserved": 0, "bike_id": "f051ca63bed2fc782a2294a1e0f5dc6d", "name": "f051ca63bed2fc782a2294a1e0f5dc6d", "fusion_lon": 0.0, "lon": -77.04392283333334, "fusion_lat": 0.0}, {"lat": 38.9244165, "type": "electric_scooter", "is_disabled": 0, "rental_uris": {"android": "https://dc.lft.to/lastmile_qr_scan", "ios": "https://dc.lft.to/lastmile_qr_scan"}, "is_reserved": 0, "bike_id": "2518b5428d3ccd466a2d7ca348b5f63f", "name": "2518b5428d3ccd466a2d7ca348b5f63f", "fusion_lon": 0.0, "lon": -77.0260685, "fusion_lat": 0.0}, {"lat": 38.89654066666667, "type": "electric_scooter", "is_disabled": 0, "rental_uris": {"android": "https://dc.lft.to/lastmile_qr_scan", "ios": "https://dc.lft.to/lastmile_qr_scan"}, "is_reserved": 0, "bike_id": "a57b993a245b9532006ecd9ad16fb3a2", "name": "a57b993a245b9532006ecd9ad16fb3a2", "fusion_lon": 0.0, "lon": -77.050215, "fusion_lat": 0.0}, {"lat": 38.906494, "type": "electric_scooter", "is_disabled": 0, "rental_uris": {"android": "https://dc.lft.to/lastmile_qr_scan", "ios": "https://dc.lft.to/lastmile_qr_scan"}, "is_reserved": 0, "bike_id": "a867b8bc8e34f54794b962200bae4334", "name": "a867b8bc8e34f54794b962200bae4334", "fusion_lon": 0.0, "lon": -77.03883383333333, "fusion_lat": 0.0}, {"lat": 38.9012255, "type": "electric_scooter", "is_disabled": 0, "rental_uris": {"android": "https://dc.lft.to/lastmile_qr_scan", "ios": "https://dc.lft.to/lastmile_qr_scan"}, "is_reserved": 0, "bike_id": "04ffd804acc0322d626c5501f8ed319c", "name": "04ffd804acc0322d626c5501f8ed319c", "fusion_lon": 0.0, "lon": -77.03148316666666, "fusion_lat": 0.0}, {"lat": 38.96734633333333, "type": "electric_scooter", "is_disabled": 0, "rental_uris": {"android": "https://dc.lft.to/lastmile_qr_scan", "ios": "https://dc.lft.to/lastmile_qr_scan"}, "is_reserved": 0, "bike_id": "f1298f36d1844264af356cbd0e098033", "name": "f1298f36d1844264af356cbd0e098033", "fusion_lon": 0.0, "lon": -77.02760316666667, "fusion_lat": 0.0}, {"lat": 38.897394, "type": "electric_scooter", "is_disabled": 0, "rental_uris": {"android": "https://dc.lft.to/lastmile_qr_scan", "ios": "https://dc.lft.to/lastmile_qr_scan"}, "is_reserved": 0, "bike_id": "316f1dca19e58bbcf26e6478e12467fd", "name": "316f1dca19e58bbcf26e6478e12467fd", "fusion_lon": 0.0, "lon": -77.046983, "fusion_lat": 0.0}, {"lat": 38.90463533333333, "type": "electric_scooter", "is_disabled": 0, "rental_uris": {"android": "https://dc.lft.to/lastmile_qr_scan", "ios": "https://dc.lft.to/lastmile_qr_scan"}, "is_reserved": 0, "bike_id": "c1f22549a26c5874fe676fd5c71fcaf6", "name": "c1f22549a26c5874fe676fd5c71fcaf6", "fusion_lon": 0.0, "lon": -77.0260715, "fusion_lat": 0.0}, {"lat": 38.916870833333334, "type": "electric_scooter", "is_disabled": 0, "rental_uris": {"android": "https://dc.lft.to/lastmile_qr_scan", "ios": "https://dc.lft.to/lastmile_qr_scan"}, "is_reserved": 0, "bike_id": "dc7a8749ed4b64b40023a3d54193020d", "name": "dc7a8749ed4b64b40023a3d54193020d", "fusion_lon": 0.0, "lon": -77.03198633333334, "fusion_lat": 0.0}, {"lat": 39.024968, "type": "electric_bike", "is_disabled": 0, "rental_uris": {"android": "https://dc.lft.to/lastmile_qr_scan", "ios": "https://dc.lft.to/lastmile_qr_scan"}, "is_reserved": 0, "bike_id": "ff931151a6a25c7b73758cd11b8d474e", "name": "ff931151a6a25c7b73758cd11b8d474e", "fusion_lon": 0.0, "lon": -77.12566433333333, "fusion_lat": 0.0}, {"lat": 38.92637033333333, "type": "electric_scooter", "is_disabled": 0, "rental_uris": {"android": "https://dc.lft.to/lastmile_qr_scan", "ios": "https://dc.lft.to/lastmile_qr_scan"}, "is_reserved": 0, "bike_id": "0df592fd04be00b44b6928fbb6ffb7fa", "name": "0df592fd04be00b44b6928fbb6ffb7fa", "fusion_lon": 0.0, "lon": -77.0351, "fusion_lat": 0.0}, {"lat": 38.91623416666667, "type": "electric_scooter", "is_disabled": 0, "rental_uris": {"android": "https://dc.lft.to/lastmile_qr_scan", "ios": "https://dc.lft.to/lastmile_qr_scan"}, "is_reserved": 0, "bike_id": "9f4410c0f6f5af8dd51e6a566375cefb", "name": "9f4410c0f6f5af8dd51e6a566375cefb", "fusion_lon": 0.0, "lon": -77.0315495, "fusion_lat": 0.0}, {"lat": 38.8900925, "type": "electric_scooter", "is_disabled": 0, "rental_uris": {"android": "https://dc.lft.to/lastmile_qr_scan", "ios": "https://dc.lft.to/lastmile_qr_scan"}, "is_reserved": 0, "bike_id": "279e2b506e44b588559c18354324aa68", "name": "279e2b506e44b588559c18354324aa68", "fusion_lon": 0.0, "lon": -76.93837216666667, "fusion_lat": 0.0}, {"lat": 38.93086133333333, "type": "electric_scooter", "is_disabled": 0, "rental_uris": {"android": "https://dc.lft.to/lastmile_qr_scan", "ios": "https://dc.lft.to/lastmile_qr_scan"}, "is_reserved": 0, "bike_id": "8271eb0cbab7e33e3e05ad4b2b80f15c", "name": "8271eb0cbab7e33e3e05ad4b2b80f15c", "fusion_lon": 0.0, "lon": -77.03622, "fusion_lat": 0.0}, {"lat": 38.896069, "type": "electric_scooter", "is_disabled": 0, "rental_uris": {"android": "https://dc.lft.to/lastmile_qr_scan", "ios": "https://dc.lft.to/lastmile_qr_scan"}, "is_reserved": 0, "bike_id": "737e608c5f3cf7cf8d71e88bce07ec69", "name": "737e608c5f3cf7cf8d71e88bce07ec69", "fusion_lon": 0.0, "lon": -77.046358, "fusion_lat": 0.0}, {"lat": 38.930559, "type": "electric_scooter", "is_disabled": 0, "rental_uris": {"android": "https://dc.lft.to/lastmile_qr_scan", "ios": "https://dc.lft.to/lastmile_qr_scan"}, "is_reserved": 0, "bike_id": "add223f442fe6f395896a2ad5cc721fd", "name": "add223f442fe6f395896a2ad5cc721fd", "fusion_lon": 0.0, "lon": -77.02961883333333, "fusion_lat": 0.0}, {"lat": 38.93927683333333, "type": "electric_scooter", "is_disabled": 0, "rental_uris": {"android": "https://dc.lft.to/lastmile_qr_scan", "ios": "https://dc.lft.to/lastmile_qr_scan"}, "is_reserved": 0, "bike_id": "5bd43a02617a4527ba37abbce2fa1889", "name": "5bd43a02617a4527ba37abbce2fa1889", "fusion_lon": 0.0, "lon": -77.07475833333334, "fusion_lat": 0.0}, {"lat": 38.91696183333333, "type": "electric_scooter", "is_disabled": 0, "rental_uris": {"android": "https://dc.lft.to/lastmile_qr_scan", "ios": "https://dc.lft.to/lastmile_qr_scan"}, "is_reserved": 0, "bike_id": "0c639eb2b88c05bed98b0d085a398ff2", "name": "0c639eb2b88c05bed98b0d085a398ff2", "fusion_lon": 0.0, "lon": -77.027322, "fusion_lat": 0.0}, {"lat": 38.90592433333333, "type": "electric_scooter", "is_disabled": 0, "rental_uris": {"android": "https://dc.lft.to/lastmile_qr_scan", "ios": "https://dc.lft.to/lastmile_qr_scan"}, "is_reserved": 0, "bike_id": "2223273f808cc633cc4d9ec1649ae759", "name": "2223273f808cc633cc4d9ec1649ae759", "fusion_lon": 0.0, "lon": -77.04878616666667, "fusion_lat": 0.0}, {"lat": 38.91855566666667, "type": "electric_scooter", "is_disabled": 0, "rental_uris": {"android": "https://dc.lft.to/lastmile_qr_scan", "ios": "https://dc.lft.to/lastmile_qr_scan"}, "is_reserved": 0, "bike_id": "2cc61ecffa961c8e7558a5a14125b90f", "name": "2cc61ecffa961c8e7558a5a14125b90f", "fusion_lon": 0.0, "lon": -77.03204633333333, "fusion_lat": 0.0}, {"lat": 38.943128333333334, "type": "electric_scooter", "is_disabled": 0, "rental_uris": {"android": "https://dc.lft.to/lastmile_qr_scan", "ios": "https://dc.lft.to/lastmile_qr_scan"}, "is_reserved": 0, "bike_id": "f806507b491ada587129ce20fc6b1886", "name": "f806507b491ada587129ce20fc6b1886", "fusion_lon": 0.0, "lon": -77.06168683333334, "fusion_lat": 0.0},