{"data": {"bikes": [{"type": "electric_scooter", "name": "49139659be7f26a0fe3c74cc406e5853", "fusion_lon": 0.0, "is_reserved": 0, "lon": -76.98515416666666, "fusion_lat": 0.0, "is_disabled": 0, "bike_id": "49139659be7f26a0fe3c74cc406e5853", "lat": 38.88085133333333, "rental_uris": {"ios": "https://dc.lft.to/lastmile_qr_scan", "android": "https://dc.lft.to/lastmile_qr_scan"}}, {"type": "electric_scooter", "name": "7a694e71ab3cdc1b563d236442163519", "fusion_lon": 0.0, "is_reserved": 0, "lon": -77.024847, "fusion_lat": 0.0, "is_disabled": 0, "bike_id": "7a694e71ab3cdc1b563d236442163519", "lat": 38.938663, "rental_uris": {"ios": "https://dc.lft.to/lastmile_qr_scan", "android": "https://dc.lft.to/lastmile_qr_scan"}}, {"type": "electric_scooter", "name": "688f62b9c304d141daa79a04f40d8c4c", "fusion_lon": 0.0, "is_reserved": 0, "lon": -77.04875033333333, "fusion_lat": 0.0, "is_disabled": 0, "bike_id": "688f62b9c304d141daa79a04f40d8c4c", "lat": 38.89324933333333, "rental_uris": {"ios": "https://dc.lft.to/lastmile_qr_scan", "android": "https://dc.lft.to/lastmile_qr_scan"}}, {"type": "electric_scooter", "name": "2a803ef1f9d7a53f7e44dbf37855939c", "fusion_lon": 0.0, "is_reserved": 0, "lon": -77.041409, "fusion_lat": 0.0, "is_disabled": 0, "bike_id": "2a803ef1f9d7a53f7e44dbf37855939c", "lat": 38.92655933333333, "rental_uris": {"ios": "https://dc.lft.to/lastmile_qr_scan", "android": "https://dc.lft.to/lastmile_qr_scan"}}, {"type": "electric_scooter", "name": "ac448b640b8e8af60831605031534d23", "fusion_lon": 0.0, "is_reserved": 0, "lon": -77.045177, "fusion_lat": 0.0, "is_disabled": 0, "bike_id": "ac448b640b8e8af60831605031534d23", "lat": 38.90555366666667, "rental_uris": {"ios": "https://dc.lft.to/lastmile_qr_scan", "android": "https://dc.lft.to/lastmile_qr_scan"}}, {"type": "electric_scooter", "name": "bb5d77bd709e4e90c0b700a7ad491bda", "fusion_lon": 0.0, "is_reserved": 0, "lon": -76.927066, "fusion_lat": 0.0, "is_disabled": 0, "bike_id": "bb5d77bd709e4e90c0b700a7ad491bda", "lat": 38.88206183333333, "rental_uris": {"ios": "https://dc.lft.to/lastmile_qr_scan", "android": "https://dc.lft.to/lastmile_qr_scan"}}, {"type": "electric_scooter", "name": "7a0c5c0732818447aacbb35b78aec1f3", "fusion_lon": 0.0, "is_reserved": 0, "lon": -77.02697566666667, "fusion_lat": 0.0, "is_disabled": 0, "bike_id": "7a0c5c0732818447aacbb35b78aec1f3", "lat": 38.9181915, "rental_uris": {"ios": "https://dc.lft.to/lastmile_qr_scan", "android": "https://dc.lft.to/lastmile_qr_scan"}}, {"type": "electric_bike", "name": "c476d883522cd64f838fcdd5a60f2484", "fusion_lon": 0.0, "is_reserved": 0, "lon": -77.10839116666666, "fusion_lat": 0.0, "is_disabled": 0, "bike_id": "c476d883522cd64f838fcdd5a60f2484", "lat": 38.8120235, "rental_uris": {"ios": "https://dc.lft.to/lastmile_qr_scan", "android": "https://dc.lft.to/lastmile_qr_scan"}}, {"type": "electric_scooter", "name": "9bcaf9531488a5a92750b705ffbe2e3b", "fusion_lon": 0.0, "is_reserved": 0, "lon": -76.99468966666667, "fusion_lat": 0.0, "is_disabled": 0, "bike_id": "9bcaf9531488a5a92750b705ffbe2e3b", "lat": 38.86211516666667, "rental_uris": {"ios": "https://dc.lft.to/lastmile_qr_scan", "android": "https://dc.lft.to/lastmile_qr_scan"}}, {"type": "electric_scooter", "name": "54e7c5260852308729aefec540a3f02a", "fusion_lon": 0.0, "is_reserved": 0, "lon": -77.00795916666667, "fusion_lat": 0.0, "is_disabled": 0, "bike_id": "54e7c5260852308729aefec540a3f02a", "lat": 38.89717666666667, "rental_uris": {"ios": "https://dc.lft.to/lastmile_qr_scan", "android": "https://dc.lft.to/lastmile_qr_scan"}}, {"type": "electric_scooter", "name": "8f1417d518c707438f6ce095a7ad78ea", "fusion_lon": 0.0, "is_reserved": 0, "lon": -77.04443, "fusion_lat": 0.0, "is_disabled": 0, "bike_id": "8f1417d518c707438f6ce095a7ad78ea", "lat": 38.91005583333333, "rental_uris": {"ios": "https://dc.lft.to/lastmile_qr_scan", "android": "https://dc.lft.to/lastmile_qr_scan"}}, {"type": "electric_scooter", "name": "dfbafda05d76a5055d610bb3c8ba1f32", "fusion_lon": 0.0, "is_reserved": 0, "lon": -77.02196316666667, "fusion_lat": 0.0, "is_disabled": 0, "bike_id": "dfbafda05d76a5055d610bb3c8ba1f32", "lat": 38.896273, "rental_uris": {"ios": "https://dc.lft.to/lastmile_qr_scan", "android": "https://dc.lft.to/lastmile_qr_scan"}}, {"type": "electric_scooter", "name": "2851d6caa1b6e0dabf90e2d1fcb0b7e3", "fusion_lon": 0.0, "is_reserved": 0, "lon": -77.040269, "fusion_lat": 0.0, "is_disabled": 0, "bike_id": "2851d6caa1b6e0dabf90e2d1fcb0b7e3", "lat": 38.901302666666666, "rental_uris": {"ios": "https://dc.lft.to/lastmile_qr_scan", "android": "https://dc.lft.to/lastmile_qr_scan"}}, {"type": "electric_scooter", "name": "93d7a559767d6b8b8f94eb1ce8e5eb3b", "fusion_lon": 0.0, "is_reserved": 0, "lon": -77.02497116666666, "fusion_lat": 0.0, "is_disabled": 0, "bike_id": "93d7a559767d6b8b8f94eb1ce8e5eb3b", "lat": 38.942179, "rental_uris": {"ios": "https://dc.lft.to/lastmile_qr_scan", "android": "https://dc.lft.to/lastmile_qr_scan"}}, {"type": "electric_scooter", "name": "753baba6e13a7e4c19eb36ee17764e20", "fusion_lon": 0.0, "is_reserved": 0, "lon": -77.02721116666666, "fusion_lat": 0.0, "is_disabled": 0, "bike_id": "753baba6e13a7e4c19eb36ee17764e20", "lat": 38.9408305, "rental_uris": {"ios": "https://dc.lft.to/lastmile_qr_scan", "android": "https://dc.lft.to/lastmile_qr_scan"}}, {"type": "electric_scooter", "name": "0eb4039648bd4378e9dffd45ec45f2ae", "fusion_lon": 0.0, "is_reserved": 0, "lon": -76.990586, "fusion_lat": 0.0, "is_disabled": 0, "bike_id": "0eb4039648bd4378e9dffd45ec45f2ae", "lat": 38.86369283333333, "rental_uris": {"ios": "https://dc.lft.to/lastmile_qr_scan", "android": "https://dc.lft.to/lastmile_qr_scan"}}, {"type": "electric_scooter", "name": "8a61debbe2c216e6fa86ee376b354209", "fusion_lon": 0.0, "is_reserved": 0, "lon": -76.99028683333333, "fusion_lat": 0.0, "is_disabled": 0, "bike_id": "8a61debbe2c216e6fa86ee376b354209", "lat": 38.88876, "rental_uris": {"ios": "https://dc.lft.to/lastmile_qr_scan", "android": "https://dc.lft.to/lastmile_qr_scan"}}, {"type": "electric_scooter", "name": "49e904a821b78a4901c35aaeb977fee1", "fusion_lon": 0.0, "is_reserved": 0, "lon": -77.02953233333334, "fusion_lat": 0.0, "is_disabled": 0, "bike_id": "49e904a821b78a4901c35aaeb977fee1", "lat": 38.9142325, "rental_uris": {"ios": "https://dc.lft.to/lastmile_qr_scan", "android": "https://dc.lft.to/lastmile_qr_scan"}}, {"type": "electric_scooter", "name": "b879ff5afd8c27f9c7bbd2be8de9a501", "fusion_lon": 0.0, "is_reserved": 0, "lon": -76.977382, "fusion_lat": 0.0, "is_disabled": 0, "bike_id": "b879ff5afd8c27f9c7bbd2be8de9a501", "lat": 38.871634666666665, "rental_uris": {"ios": "https://dc.lft.to/lastmile_qr_scan", "android": "https://dc.lft.to/lastmile_qr_scan"}}, {"type": "electric_scooter", "name": "2297dcd74fa194fde03bad9775a906a8", "fusion_lon": 0.0, "is_reserved": 0, "lon": -77.03853333333333, "fusion_lat": 0.0, "is_disabled": 0, "bike_id": "2297dcd74fa194fde03bad9775a906a8", "lat": 38.90658716666667, "rental_uris": {"ios": "https://dc.lft.to/lastmile_qr_scan", "android": "https://dc.lft.to/lastmile_qr_scan"}}, {"type": "electric_scooter", "name": "672ec4586e34c395c432f99db32155de", "fusion_lon": 0.0, "is_reserved": 0, "lon": -77.05066416666666, "fusion_lat": 0.0, "is_disabled": 0, "bike_id": "672ec4586e34c395c432f99db32155de", "lat": 38.9009475, "rental_uris": {"ios": "https://dc.lft.to/lastmile_qr_scan", "android": "https://dc.lft.to/lastmile_qr_scan"}}, {"type": "electric_scooter", "name": "1afba31a58270d66880e7353e32fd06b", "fusion_lon": 0.0, "is_reserved": 0, "lon": -77.03173583333333, "fusion_lat": 0.0, "is_disabled": 0, "bike_id": "1afba31a58270d66880e7353e32fd06b", "lat": 38.91004066666667, "rental_uris": {"ios": "https://dc.lft.to/lastmile_qr_scan", "android": "https://dc.lft.to/lastmile_qr_scan"}}, {"type": "electric_bike", "name": "325e5a7d13c070b6fafd4f754a5a05b6", "fusion_lon": 0.0, "is_reserved": 0, "lon": -77.22302683333334, "fusion_lat": 0.0, "is_disabled": 0, "bike_id": "325e5a7d13c070b6fafd4f754a5a05b6", "lat": 38.9131355, "rental_uris": {"ios": "https://dc.lft.to/lastmile_qr_scan", "android": "https://dc.lft.to/lastmile_qr_scan"}}, {"type": "electric_scooter", "name": "a41bd6a769e73bb9e3355dbefc9b69f2", "fusion_lon": 0.0, "is_reserved": 0, "lon": -77.03833883333333, "fusion_lat": 0.0, "is_disabled": 0, "bike_id": "a41bd6a769e73bb9e3355dbefc9b69f2", "lat": 38.90624966666667, "rental_uris": {"ios": "https://dc.lft.to/lastmile_qr_scan", "android": "https://dc.lft.to/lastmile_qr_scan"}}, {"type": "electric_scooter", "name": "e72da7996fc6a8eb723e23c84b037c5d", "fusion_lon": 0.0, "is_reserved": 0, "lon": -77.03468033333333, "fusion_lat": 0.0, "is_disabled": 0, "bike_id": "e72da7996fc6a8eb723e23c84b037c5d", "lat": 38.90836633333333, "rental_uris": {"ios": "https://dc.lft.to/lastmile_qr_scan", "android": "https://dc.lft.to/lastmile_qr_scan"}}, {"type": "electric_scooter", "name": "677965979d74146942b27bab4388c87b", "fusion_lon": 0.0, "is_reserved": 0, "lon": -77.046708, "fusion_lat": 0.0, "is_disabled": 0, "bike_id": "677965979d74146942b27bab4388c87b", "lat": 38.9170815, "rental_uris": {"ios": "https://dc.lft.to/lastmile_qr_scan", "android": "https://dc.lft.to/lastmile_qr_scan"}}, {"type": "electric_scooter", "name": "b0563c993de535d5cec58cf62555cdd8", "fusion_lon": 0.0, "is_reserved": 0, "lon": -77.04350166666667, "fusion_lat": 0.0, "is_disabled": 0, "bike_id": "b0563c993de535d5cec58cf62555cdd8", "lat": 38.9218535, "rental_uris": {"ios": "https://dc.lft.to/lastmile_qr_scan", "android": "https://dc.lft.to/lastmile_qr_scan"}}, {"type": "electric_scooter", "name": "7eea4ae7f7c0a3e9fcf6e4cbcb3be905", "fusion_lon": 0.0, "is_reserved": 0, "lon": -77.06310766666667, "fusion_lat": 0.0, "is_disabled": 0, "bike_id": "7eea4ae7f7c0a3e9fcf6e4cbcb3be905", "lat": 38.930216333333334, "rental_uris": {"ios": "https://dc.lft.to/lastmile_qr_scan", "android": "https://dc.lft.to/lastmile_qr_scan"}}, {"type": "electric_scooter", "name": "5b6c434c53903721708b5edb67fe9bbd", "fusion_lon": 0.0, "is_reserved": 0, "lon": -76.973305, "fusion_lat": 0.0, "is_disabled": 0, "bike_id": "5b6c434c53903721708b5edb67fe9bbd", "lat": 38.904106666666664, "rental_uris": {"ios": "https://dc.lft.to/lastmile_qr_scan", "android": "https://dc.lft.to/lastmile_qr_scan"}}, {"type": "electric_scooter", "name": "cb61e4359b9fb6ae38936015f0683267", "fusion_lon": 0.0, "is_reserved": 0, "lon": -77.02856816666667, "fusion_lat": 0.0, "is_disabled": 0, "bike_id": "cb61e4359b9fb6ae38936015f0683267", "lat": 38.89377983333333, "rental_uris": {"ios": "https://dc.lft.to/lastmile_qr_scan", "android": "https://dc.lft.to/lastmile_qr_scan"}}, {"type": "electric_scooter", "name": "e5c3f280950a180624c8b6a9be82751c", "fusion_lon": 0.0, "is_reserved": 0, "lon": -77.00562583333334, "fusion_lat": 0.0, "is_disabled": 0, "bike_id": "e5c3f280950a180624c8b6a9be82751c", "lat": 38.88506566666667, "rental_uris": {"ios": "https://dc.lft.to/lastmile_qr_scan", "android": "https://dc.lft.to/lastmile_qr_scan"}}, {"type": "electric_scooter", "name": "d5ebe83120edcfa5a41cc259c89e3d0f", "fusion_lon": 0.0, "is_reserved": 0, "lon": -77.0186225, "fusion_lat": 0.0, "is_disabled": 0, "bike_id": "d5ebe83120edcfa5a41cc259c89e3d0f", "lat": 38.8742635, "rental_uris": {"ios": "https://dc.lft.to/lastmile_qr_scan", "android": "https://dc.lft.to/lastmile_qr_scan"}}, {"type": "electric_scooter", "name": "6eb9c3516a2940b3d335d35a37c16c87", "fusion_lon": 0.0, "is_reserved": 0, "lon": -77.04631466666666, "fusion_lat": 0.0, "is_disabled": 0, "bike_id": "6eb9c3516a2940b3d335d35a37c16c87", "lat": 38.90628066666667, "rental_uris": {"ios": "https://dc.lft.to/lastmile_qr_scan", "android": "https://dc.lft.to/lastmile_qr_scan"}}, {"type": "electric_bike", "name": "932f9c14eb31277608430834ae28adb2", "fusion_lon": 0.0, "is_reserved": 0, "lon": -77.05145333333333, "fusion_lat": 0.0, "is_disabled": 0, "bike_id": "932f9c14eb31277608430834ae28adb2", "lat": 39.0505055, "rental_uris": {"ios": "https://dc.lft.to/lastmile_qr_scan", "android": "https://dc.lft.to/lastmile_qr_scan"}}, {"type": "electric_scooter", "name": "7bc1c81073f46e8157a7e560503dbbb9", "fusion_lon": 0.0, "is_reserved": 0, "lon": -77.03184466666667, "fusion_lat": 0.0, "is_disabled": 0, "bike_id": "7bc1c81073f46e8157a7e560503dbbb9", "lat": 38.911707166666666, "rental_uris": {"ios": "https://dc.lft.to/lastmile_qr_scan", "android": "https://dc.lft.to/lastmile_qr_scan"}}, {"type": "electric_scooter", "name": "e5c6f8de19a33cb332a38774779ffd09", "fusion_lon": 0.0, "is_reserved": 0, "lon": -77.044791, "fusion_lat": 0.0, "is_disabled": 0, "bike_id": "e5c6f8de19a33cb332a38774779ffd09", "lat": 38.912185, "rental_uris": {"ios": "https://dc.lft.to/lastmile_qr_scan", "android": "https://dc.lft.to/lastmile_qr_scan"}}, {"type": "electric_bike", "name": "2a25c73ed7d114fff52dace5d77b9fe0", "fusion_lon": 0.0, "is_reserved": 0, "lon": -76.946186, "fusion_lat": 0.0, "is_disabled": 0, "bike_id": "2a25c73ed7d114fff52dace5d77b9fe0", "lat": 38.8323785, "rental_uris": {"ios": "https://dc.lft.to/lastmile_qr_scan", "android": "https://dc.lft.to/lastmile_qr_scan"}}, {"type": "electric_scooter", "name": "e51222976acdb36e9e0181c70e512156", "fusion_lon": 0.0, "is_reserved": 0, "lon": -77.031004, "fusion_lat": 0.0, "is_disabled": 0, "bike_id": "e51222976acdb36e9e0181c70e512156", "lat": 38.917111166666665, "rental_uris": {"ios": "https://dc.lft.to/lastmile_qr_scan", "android": "https://dc.lft.to/lastmile_qr_scan"}}, {"type": "electric_scooter", "name": "1a434b2375da2941969e2f45c1ff150c", "fusion_lon": 0.0, "is_reserved": 0, "lon": -77.02177233333333, "fusion_lat": 0.0, "is_disabled": 0, "bike_id": "1a434b2375da2941969e2f45c1ff150c", "lat": 38.92859516666667, "rental_uris": {"ios": "https://dc.lft.to/lastmile_qr_scan", "android": "https://dc.lft.to/lastmile_qr_scan"}}, {"type": "electric_scooter", "name": "55df4f3a0f4c22587ff7cfa096e3ec44", "fusion_lon": 0.0, "is_reserved": 0, "lon": -77.00751283333334, "fusion_lat": 0.0, "is_disabled": 0, "bike_id": "55df4f3a0f4c22587ff7cfa096e3ec44", "lat": 38.89731333333334, "rental_uris": {"ios": "https://dc.lft.to/lastmile_qr_scan", "android": "https://dc.lft.to/lastmile_qr_scan"}}, {"type": "electric_scooter", "name": "afc49056aa5c73a63bc8718bd87cc2ca", "fusion_lon": 0.0, "is_reserved": 0, "lon": -77.0007885, "fusion_lat": 0.0, "is_disabled": 0, "bike_id": "afc49056aa5c73a63bc8718bd87cc2ca", "lat": 38.876257, "rental_uris": {"ios": "https://dc.lft.to/lastmile_qr_scan", "android": "https://dc.lft.to/lastmile_qr_scan"}}, {"type": "electric_bike", "name": "e7ec096584ce366357c1d2fbf91d4f64", "fusion_lon": 0.0, "is_reserved": 0, "lon": -76.97555216666666, "fusion_lat": 0.0, "is_disabled": 0, "bike_id": "e7ec096584ce366357c1d2fbf91d4f64", "lat": 38.8404665, "rental_uris": {"ios": "https://dc.lft.to/lastmile_qr_scan", "android": "https://dc.lft.to/lastmile_qr_scan"}}, {"type": "electric_bike", "name": "7ef969786035b43246fc69d99e1e6260", "fusion_lon": 0.0, "is_reserved": 0, "lon": -76.97338516666667, "fusion_lat": 0.0, "is_disabled": 0, "bike_id": "7ef969786035b43246fc69d99e1e6260", "lat": 38.8651305, "rental_uris": {"ios": "https://dc.lft.to/lastmile_qr_scan", "android": "https://dc.lft.to/lastmile_qr_scan"}}, {"type": "electric_bike", "name": "d454ab4b2fb4f179e42667d0e3783ff8", "fusion_lon": 0.0, "is_reserved": 0, "lon": -77.08304466666667, "fusion_lat": 0.0, "is_disabled": 0, "bike_id": "d454ab4b2fb4f179e42667d0e3783ff8", "lat": 38.854395333333336, "rental_uris": {"ios": "https://dc.lft.to/lastmile_qr_scan", "android": "https://dc.lft.to/lastmile_qr_scan"}}, {"type": "electric_scooter", "name": "c50b05aae176a31893d12e51a43c297c", "fusion_lon": 0.0, "is_reserved": 0, "lon": -77.03993516666667, "fusion_lat": 0.0, "is_disabled": 0, "bike_id": "c50b05aae176a31893d12e51a43c297c", "lat": 38.90636216666667, "rental_uris": {"ios": "https://dc.lft.to/lastmile_qr_scan", "android": "https://dc.lft.to/lastmile_qr_scan"}}, {"type": "electric_scooter", "name": "2b693c5a4a2d91d4d500337a417f50b9", "fusion_lon": 0.0, "is_reserved": 0, "lon": -77.05061533333334, "fusion_lat": 0.0, "is_disabled": 0, "bike_id": "2b693c5a4a2d91d4d500337a417f50b9", "lat": 38.92417983333333, "rental_uris": {"ios": "https://dc.lft.to/lastmile_qr_scan", "android": "https://dc.lft.to/lastmile_qr_scan"}}, {"type": "electric_bike", "name": "f1cd9ca6b8eb0f44054474d1837d0f03", "fusion_lon": 0.0, "is_reserved": 0, "lon": -77.02821, "fusion_lat": 0.0, "is_disabled": 0, "bike_id": "f1cd9ca6b8eb0f44054474d1837d0f03", "lat": 38.913604666666664, "rental_uris": {"ios": "https://dc.lft.to/lastmile_qr_scan", "android": "https://dc.lft.to/lastmile_qr_scan"}}, {"type": "electric_scooter", "name": "65c8d412d6023f87db963c55df89c729", "fusion_lon": 0.0, "is_reserved": 0, "lon": -77.02380833333333, "fusion_lat": 0.0, "is_disabled": 0, "bike_id": "65c8d412d6023f87db963c55df89c729", "lat": 38.88742766666667, "rental_uris": {"ios": "https://dc.lft.to/lastmile_qr_scan", "android": "https://dc.lft.to/lastmile_qr_scan"}}, {"type": "electric_scooter", "name": "85936a4889e91bfdc0e236f96364b8fb", "fusion_lon": 0.0, "is_reserved": 0, "lon": -77.02181083333333, "fusion_lat": 0.0, "is_disabled": 0, "bike_id": "85936a4889e91bfdc0e236f96364b8fb", "lat": 38.91497533333333, "rental_uris": {"ios": "https://dc.lft.to/lastmile_qr_scan", "android": "https://dc.lft.to/lastmile_qr_scan"}}, {"type": "electric_scooter", "name": "9b844fa14b31d9d2efe0d3deec466297", "fusion_lon": 0.0, "is_reserved": 0, "lon": -77.01041083333334, "fusion_lat": 0.0, "is_disabled": 0, "bike_id": "9b844fa14b31d9d2efe0d3deec466297", "lat": 38.906656, "rental_uris": {"ios": "https://dc.lft.to/lastmile_qr_scan", "android": "https://dc.lft.to/lastmile_qr_scan"}}, {"type": "electric_scooter", "name": "88513b54d0b38e9d419f77e5db1d8094", "fusion_lon": 0.0, "is_reserved": 0, "lon": -77.04830066666666, "fusion_lat": 0.0, "is_disabled": 0, "bike_id": "88513b54d0b38e9d419f77e5db1d8094", "lat": 38.91893866666667, "rental_uris": {"ios": "https://dc.lft.to/lastmile_qr_scan", "android": "https://dc.lft.to/lastmile_qr_scan"}}, {"type": "electric_bike", "name": "4e328bb14ff3becbbda1fcafb456ceb5", "fusion_lon": 0.0, "is_reserved": 0, "lon": -77.00710066666667, "fusion_lat": 0.0, "is_disabled": 0, "bike_id": "4e328bb14ff3becbbda1fcafb456ceb5", "lat": 38.946043, "rental_uris": {"ios": "https://dc.lft.to/lastmile_qr_scan", "android": "https://dc.lft.to/lastmile_qr_scan"}}, {"type": "electric_bike", "name": "da75c0d23a5df2fcfe7622632769e2eb", "fusion_lon": 0.0, "is_reserved": 0, "lon": -77.08396433333333, "fusion_lat": 0.0, "is_disabled": 0, "bike_id": "da75c0d23a5df2fcfe7622632769e2eb", "lat": 38.9289365, "rental_uris": {"ios": "https://dc.lft.to/lastmile_qr_scan", "android": "https://dc.lft.to/lastmile_qr_scan"}}, {"type": "electric_bike", "name": "c8e5f5bc9aa1a0d2a736c12f60462c86", "fusion_lon": 0.0, "is_reserved": 0, "lon": -76.97675316666667, "fusion_lat": 0.0, "is_disabled": 0, "bike_id": "c8e5f5bc9aa1a0d2a736c12f60462c86", "lat": 38.952471333333335, "rental_uris": {"ios": "https://dc.lft.to/lastmile_qr_scan", "android": "https://dc.lft.to/lastmile_qr_scan"}}, {"type": "electric_scooter", "name": "a08aabc2e52ecf56449309fad9d1e1bc", "fusion_lon": 0.0, "is_reserved": 0, "lon": -77.015158, "fusion_lat": 0.0, "is_disabled": 0, "bike_id": "a08aabc2e52ecf56449309fad9d1e1bc", "lat": 38.96776583333333, "rental_uris": {"ios": "https://dc.lft.to/lastmile_qr_scan", "android": "https://dc.lft.to/lastmile_qr_scan"}}, {"type": "electric_scooter", "name": "2c6a7842a53c31ee1773813debe79351", "fusion_lon": 0.0, "is_reserved": 0, "lon": -77.04801116666667, "fusion_lat": 0.0, "is_disabled": 0, "bike_id": "2c6a7842a53c31ee1773813debe79351", "lat": 38.89221583333333, "rental_uris": {"ios": "https://dc.lft.to/lastmile_qr_scan", "android": "https://dc.lft.to/lastmile_qr_scan"}}, {"type": "electric_bike", "name": "4bdd93c117b7d2d4e15fc303f5419740", "fusion_lon": 0.0, "is_reserved": 0, "lon": -77.0617115, "fusion_lat": 0.0, "is_disabled": 0, "bike_id": "4bdd93c117b7d2d4e15fc303f5419740", "lat": 38.807118333333335, "rental_uris": {"ios": "https://dc.lft.to/lastmile_qr_scan", "android": "https://dc.lft.to/lastmile_qr_scan"}}, {"type": "electric_scooter", "name": "c1946f5be80447f8ee3b48e2e1d7ed87", "fusion_lon": 0.0, "is_reserved": 0, "lon": -76.95580616666666, "fusion_lat": 0.0, "is_disabled": 0, "bike_id": "c1946f5be80447f8ee3b48e2e1d7ed87", "lat": 38.886239833333335, "rental_uris": {"ios": "https://dc.lft.to/lastmile_qr_scan", "android": "https://dc.lft.to/lastmile_qr_scan"}}, {"type": "electric_scooter", "name": "639c09c2697791a8c5a6b3c2b56bf72c", "fusion_lon": 0.0, "is_reserved": 0, "lon": -76.99041766666667, "fusion_lat": 0.0, "is_disabled": 0, "bike_id": "639c09c2697791a8c5a6b3c2b56bf72c", "lat": 38.86393533333333, "rental_uris": {"ios": "https://dc.lft.to/lastmile_qr_scan", "android": "https://dc.lft.to/lastmile_qr_scan"}}, {"type": "electric_bike", "name": "e1c04fdf78510fb146cd7f45b62207d0", "fusion_lon": 0.0, "is_reserved": 0, "lon": -77.09469283333334, "fusion_lat": 0.0, "is_disabled": 0, "bike_id": "e1c04fdf78510fb146cd7f45b62207d0", "lat": 38.807607, "rental_uris": {"ios": "https://dc.lft.to/lastmile_qr_scan", "android": "https://dc.lft.to/lastmile_qr_scan"}}, {"type": "electric_scooter", "name": "b04499f8ff5794c0b370e3050a3cf8fd", "fusion_lon": 0.0, "is_reserved": 0, "lon": -77.04658566666667, "fusion_lat": 0.0, "is_disabled": 0, "bike_id": "b04499f8ff5794c0b370e3050a3cf8fd", "lat": 38.89761383333333, "rental_uris": {"ios": "https://dc.lft.to/lastmile_qr_scan", "android": "https://dc.lft.to/lastmile_qr_scan"}}, {"type": "electric_scooter", "name": "1a8eecadb65fbc6ca620aca87bfe8ddc", "fusion_lon": 0.0, "is_reserved": 0, "lon": -77.02827, "fusion_lat": 0.0, "is_disabled": 0, "bike_id": "1a8eecadb65fbc6ca620aca87bfe8ddc", "lat": 38.887347, "rental_uris": {"ios": "https://dc.lft.to/lastmile_qr_scan", "android": "https://dc.lft.to/lastmile_qr_scan"}}, {"type": "electric_scooter", "name": "27916beede1a5020b5a11bf473ab4ad4", "fusion_lon": 0.0, "is_reserved": 0, "lon": -77.0383305, "fusion_lat": 0.0, "is_disabled": 0, "bike_id": "27916beede1a5020b5a11bf473ab4ad4", "lat": 38.91192266666667, "rental_uris": {"ios": "https://dc.lft.to/lastmile_qr_scan", "android": "https://dc.lft.to/lastmile_qr_scan"}}, {"type": "electric_scooter", "name": "600396fc8ce98e51ea4bfad3cf327be5", "fusion_lon": 0.0, "is_reserved": 0, "lon": -77.0319055, "fusion_lat": 0.0, "is_disabled": 0, "bike_id": "600396fc8ce98e51ea4bfad3cf327be5", "lat": 38.884643, "rental_uris": {"ios": "https://dc.lft.to/lastmile_qr_scan", "android": "https://dc.lft.to/lastmile_qr_scan"}}, {"type": "electric_scooter", "name": "871e43edc27b891d8fe8c841c8c4ff69", "fusion_lon": 0.0, "is_reserved": 0, "lon": -77.01290716666666, "fusion_lat": 0.0, "is_disabled": 0, "bike_id": "871e43edc27b891d8fe8c841c8c4ff69", "lat": 38.900796, "rental_uris": {"ios": "https://dc.lft.to/lastmile_qr_scan", "android": "https://dc.lft.to/lastmile_qr_scan"}}, {"type": "electric_scooter", "name": "e31a4b8e13e5fe60f8dbfd4c25e43a97", "fusion_lon": 0.0, "is_reserved": 0, "lon": -76.975459, "fusion_lat": 0.0, "is_disabled": 0, "bike_id": "e31a4b8e13e5fe60f8dbfd4c25e43a97", "lat": 38.9032525, "rental_uris": {"ios": "https://dc.lft.to/lastmile_qr_scan", "android": "https://dc.lft.to/lastmile_qr_scan"}}, {"type": "electric_scooter", "name": "97bd07a39e763e53030df30f8f6f31a8", "fusion_lon": 0.0, "is_reserved": 0, "lon": -76.98590516666667, "fusion_lat": 0.0, "is_disabled": 0, "bike_id": "97bd07a39e763e53030df30f8f6f31a8", "lat": 38.86704133333333, "rental_uris": {"ios": "https://dc.lft.to/lastmile_qr_scan", "android": "https://dc.lft.to/lastmile_qr_scan"}}, {"type": "electric_scooter", "name": "caecf11fa627d1fb0544cc0056a871fa", "fusion_lon": 0.0, "is_reserved": 0, "lon": -77.04354666666667, "fusion_lat": 0.0, "is_disabled": 0, "bike_id": "caecf11fa627d1fb0544cc0056a871fa", "lat": 38.90118066666667, "rental_uris": {"ios": "https://dc.lft.to/lastmile_qr_scan", "android": "https://dc.lft.to/lastmile_qr_scan"}}, {"type": "electric_scooter", "name": "6cbd179854e3caa85a5a7504cad4d81f", "fusion_lon": 0.0, "is_reserved": 0, "lon": -77.01415516666667, "fusion_lat": 0.0, "is_disabled": 0, "bike_id": "6cbd179854e3caa85a5a7504cad4d81f", "lat": 38.928405166666664, "rental_uris": {"ios": "https://dc.lft.to/lastmile_qr_scan", "android": "https://dc.lft.to/lastmile_qr_scan"}}, {"type": "electric_scooter", "name": "60774af0c89e1da4adb777e4ef4c672e", "fusion_lon": 0.0, "is_reserved": 0, "lon": -76.98167483333333, "fusion_lat": 0.0, "is_disabled": 0, "bike_id": "60774af0c89e1da4adb777e4ef4c672e", "lat": 38.898498833333335, "rental_uris": {"ios": "https://dc.lft.to/lastmile_qr_scan", "android": "https://dc.lft.to/lastmile_qr_scan"}}, {"type": "electric_scooter", "name": "913bb889685a4a07f3aba45d5308481c", "fusion_lon": 0.0, "is_reserved": 0, "lon": -77.03661116666666, "fusion_lat": 0.0, "is_disabled": 0, "bike_id": "913bb889685a4a07f3aba45d5308481c", "lat": 38.922334666666664, "rental_uris": {"ios": "https://dc.lft.to/lastmile_qr_scan", "android": "https://dc.lft.to/lastmile_qr_scan"}}, {"type": "electric_scooter", "name": "1441eb3091dd482d3235266e2a322a68", "fusion_lon": 0.0, "is_reserved": 0, "lon": -77.01676766666667, "fusion_lat": 0.0, "is_disabled": 0, "bike_id": "1441eb3091dd482d3235266e2a322a68", "lat": 38.920758666666664, "rental_uris": {"ios": "https://dc.lft.to/lastmile_qr_scan", "android": "https://dc.lft.to/lastmile_qr_scan"}}, {"type": "electric_scooter", "name": "1014501ee164d586fe6d03dc698d01f4", "fusion_lon": 0.0, "is_reserved": 0, "lon": -77.03132316666667, "fusion_lat": 0.0, "is_disabled": 0, "bike_id": "1014501ee164d586fe6d03dc698d01f4", "lat": 38.892345, "rental_uris": {"ios": "https://dc.lft.to/lastmile_qr_scan", "android": "https://dc.lft.to/lastmile_qr_scan"}}, {"type": "electric_scooter", "name": "30b3f798abc540c158b39eb83645e99b", "fusion_lon": 0.0, "is_reserved": 0, "lon": -77.02278283333334, "fusion_lat": 0.0, "is_disabled": 0, "bike_id": "30b3f798abc540c158b39eb83645e99b", "lat": 38.926586666666665, "rental_uris": {"ios": "https://dc.lft.to/lastmile_qr_scan", "android": "https://dc.lft.to/lastmile_qr_scan"}}, {"type": "electric_scooter", "name": "9a27f361cc23253df5df00b442c088cc", "fusion_lon": 0.0, "is_reserved": 0, "lon": -76.98539216666667, "fusion_lat": 0.0, "is_disabled": 0, "bike_id": "9a27f361cc23253df5df00b442c088cc", "lat": 38.90885333333333, "rental_uris": {"ios": "https://dc.lft.to/lastmile_qr_scan", "android": "https://dc.lft.to/lastmile_qr_scan"}}, {"type": "electric_scooter", "name": "72ea7be877b4b33041a4ee8383d888ab", "fusion_lon": 0.0, "is_reserved": 0, "lon": -77.02730033333333, "fusion_lat": 0.0, "is_disabled": 0, "bike_id": "72ea7be877b4b33041a4ee8383d888ab", "lat": 38.887493, "rental_uris": {"ios": "https://dc.lft.to/lastmile_qr_scan", "android": "https://dc.lft.to/lastmile_qr_scan"}}, {"type": "electric_scooter", "name": "b1fde930ea933c6a41ee53e91b5106c9", "fusion_lon": 0.0, "is_reserved": 0, "lon": -77.02989183333334, "fusion_lat": 0.0, "is_disabled": 0, "bike_id": "b1fde930ea933c6a41ee53e91b5106c9", "lat": 38.920444833333335, "rental_uris": {"ios": "https://dc.lft.to/lastmile_qr_scan", "android": "https://dc.lft.to/lastmile_qr_scan"}}, {"type": "electric_scooter", "name": "2d5c3c8f54f462d9fe598999001fe8cc", "fusion_lon": 0.0, "is_reserved": 0, "lon": -77.04173033333333, "fusion_lat": 0.0, "is_disabled": 0, "bike_id": "2d5c3c8f54f462d9fe598999001fe8cc", "lat": 38.917053833333334, "rental_uris": {"ios": "https://dc.lft.to/lastmile_qr_scan", "android": "https://dc.lft.to/lastmile_qr_scan"}}, {"type": "electric_scooter", "name": "6a85071e1fa4c3b462877fec88f4970d", "fusion_lon": 0.0, "is_reserved": 0, "lon": -76.95475066666667, "fusion_lat": 0.0, "is_disabled": 0, "bike_id": "6a85071e1fa4c3b462877fec88f4970d", "lat": 38.886821166666664, "rental_uris": {"ios": "https://dc.lft.to/lastmile_qr_scan", "android": "https://dc.lft.to/lastmile_qr_scan"}}, {"type": "electric_scooter", "name": "d5bd6266af88cbae385d7dce8bb8ef97", "fusion_lon": 0.0, "is_reserved": 0, "lon": -76.98508716666667, "fusion_lat": 0.0, "is_disabled": 0, "bike_id": "d5bd6266af88cbae385d7dce8bb8ef97", "lat": 38.90348933333333, "rental_uris": {"ios": "https://dc.lft.to/lastmile_qr_scan", "android": "https://dc.lft.to/lastmile_qr_scan"}}, {"type": "electric_scooter", "name": "d0db92d91d7d3472b97150426f80c1a3", "fusion_lon": 0.0, "is_reserved": 0, "lon": -77.02208333333333, "fusion_lat": 0.0, "is_disabled": 0, "bike_id": "d0db92d91d7d3472b97150426f80c1a3", "lat": 38.915558, "rental_uris": {"ios": "https://dc.lft.to/lastmile_qr_scan", "android": "https://dc.lft.to/lastmile_qr_scan"}}, {"type": "electric_scooter", "name": "26368964555e7a0a976d06dddc8da6b3", "fusion_lon": 0.0, "is_reserved": 0, "lon": -77.05256166666666, "fusion_lat": 0.0, "is_disabled": 0, "bike_id": "26368964555e7a0a976d06dddc8da6b3", "lat": 38.925129166666665, "rental_uris": {"ios": "https://dc.lft.to/lastmile_qr_scan", "android": "https://dc.lft.to/lastmile_qr_scan"}}, {"type": "electric_scooter", "name": "280c687fb9b1cfbb6c5996ad38682bc2", "fusion_lon": 0.0, "is_reserved": 0, "lon": -77.01008033333333, "fusion_lat": 0.0, "is_disabled": 0, "bike_id": "280c687fb9b1cfbb6c5996ad38682bc2", "lat": 38.90714583333333, "rental_uris": {"ios": "https://dc.lft.to/lastmile_qr_scan", "android": "https://dc.lft.to/lastmile_qr_scan"}}, {"type": "electric_scooter", "name": "7017152e9aecb8926f1ee5d994f04aba", "fusion_lon": 0.0, "is_reserved": 0, "lon": -77.03444966666666, "fusion_lat": 0.0, "is_disabled": 0, "bike_id": "7017152e9aecb8926f1ee5d994f04aba", "lat": 38.91811583333333, "rental_uris": {"ios": "https://dc.lft.to/lastmile_qr_scan", "android": "https://dc.lft.to/lastmile_qr_scan"}}, {"type": "electric_bike", "name": "a840824cec0d22e916aa42a8584ace3b", "fusion_lon": 0.0, "is_reserved": 0, "lon": -76.90736183333334, "fusion_lat": 0.0, "is_disabled": 0, "bike_id": "a840824cec0d22e916aa42a8584ace3b", "lat": 38.896361, "rental_uris": {"ios": "https://dc.lft.to/lastmile_qr_scan", "android": "https://dc.lft.to/lastmile_qr_scan"}}, {"type": "electric_scooter", "name": "af5384ca4cf4692f1d74e730cf2a67fb", "fusion_lon": 0.0, "is_reserved": 0, "lon": -77.02915183333333, "fusion_lat": 0.0, "is_disabled": 0, "bike_id": "af5384ca4cf4692f1d74e730cf2a67fb", "lat": 38.900273166666665, "rental_uris": {"ios": "https://dc.lft.to/lastmile_qr_scan", "android": "https://dc.lft.to/lastmile_qr_scan"}}, {"type": "electric_scooter", "name": "46e07b7f755b642b49e7c82cc3643a2c", "fusion_lon": 0.0, "is_reserved": 0, "lon": -77.0457385, "fusion_lat": 0.0, "is_disabled": 0, "bike_id": "46e07b7f755b642b49e7c82cc3643a2c", "lat": 38.921396666666666, "rental_uris": {"ios": "https://dc.lft.to/lastmile_qr_scan", "android": "https://dc.lft.to/lastmile_qr_scan"}}, {"type": "electric_scooter", "name": "751739d9924966e5bdd08dc7011285a0", "fusion_lon": 0.0, "is_reserved": 0, "lon": -77.05577916666667, "fusion_lat": 0.0, "is_disabled": 0, "bike_id": "751739d9924966e5bdd08dc7011285a0", "lat": 38.897335, "rental_uris": {"ios": "https://dc.lft.to/lastmile_qr_scan", "android": "https://dc.lft.to/lastmile_qr_scan"}}, {"type": "electric_scooter", "name": "8aa1010c5a57b4b9991c4a1021143c8c", "fusion_lon": 0.0, "is_reserved": 0, "lon": -76.98274933333333, "fusion_lat": 0.0, "is_disabled": 0, "bike_id": "8aa1010c5a57b4b9991c4a1021143c8c", "lat": 38.885344333333336, "rental_uris": {"ios": "https://dc.lft.to/lastmile_qr_scan", "android": "https://dc.lft.to/lastmile_qr_scan"}}, {"type": "electric_scooter", "name": "0ab9493966b92a88954a1c27a88961da", "fusion_lon": 0.0, "is_reserved": 0, "lon": -77.02804066666667, "fusion_lat": 0.0, "is_disabled": 0, "bike_id": "0ab9493966b92a88954a1c27a88961da", "lat": 38.907359666666665, "rental_uris": {"ios": "https://dc.lft.to/lastmile_qr_scan", "android": "https://dc.lft.to/lastmile_qr_scan"}}, {"type": "electric_scooter", "name": "d5bc7bf7e033b19bd422c4ef49ef1d7c", "fusion_lon": 0.0, "is_reserved": 0, "lon": -77.04677833333334, "fusion_lat": 0.0, "is_disabled": 0, "bike_id": "d5bc7bf7e033b19bd422c4ef49ef1d7c", "lat": 38.895114, "rental_uris": {"ios": "https://dc.lft.to/lastmile_qr_scan", "android": "https://dc.lft.to/lastmile_qr_scan"}}, {"type": "electric_scooter", "name": "57f2a6c976a57b0778e235bf2a0435e8", "fusion_lon": 0.0, "is_reserved": 0, "lon": -77.01991466666666, "fusion_lat": 0.0, "is_disabled": 0, "bike_id": "57f2a6c976a57b0778e235bf2a0435e8", "lat": 38.919105, "rental_uris": {"ios": "https://dc.lft.to/lastmile_qr_scan", "android": "https://dc.lft.to/lastmile_qr_scan"}}, {"type": "electric_scooter", "name": "d8550bacec79a842d72ad5cce042f285", "fusion_lon": 0.0, "is_reserved": 0, "lon": -76.97485233333333, "fusion_lat": 0.0, "is_disabled": 0, "bike_id": "d8550bacec79a842d72ad5cce042f285", "lat": 38.903553333333335, "rental_uris": {"ios": "https://dc.lft.to/lastmile_qr_scan", "android": "https://dc.lft.to/lastmile_qr_scan"}}, {"type": "electric_scooter", "name": "65262d87995151a5d37ac9da743affa5", "fusion_lon": 0.0, "is_reserved": 0, "lon": -76.927428, "fusion_lat": 0.0, "is_disabled": 0, "bike_id": "65262d87995151a5d37ac9da743affa5", "lat": 38.9006545, "rental_uris": {"ios": "https://dc.lft.to/lastmile_qr_scan", "android": "https://dc.lft.to/lastmile_qr_scan"}}, {"type": "electric_scooter", "name": "1803a0bbf04323743d8a580b16ea37a7", "fusion_lon": 0.0, "is_reserved": 0, "lon": -77.02502433333333, "fusion_lat": 0.0, "is_disabled": 0, "bike_id": "1803a0bbf04323743d8a580b16ea37a7", "lat": 38.942022, "rental_uris": {"ios": "https://dc.lft.to/lastmile_qr_scan", "android": "https://dc.lft.to/lastmile_qr_scan"}}, {"type": "electric_scooter", "name": "108a2b60205bcd7f7e9bc78891c97f2f", "fusion_lon": 0.0, "is_reserved": 0, "lon": -77.015003, "fusion_lat": 0.0, "is_disabled": 0, "bike_id": "108a2b60205bcd7f7e9bc78891c97f2f", "lat": 38.926700333333336, "rental_uris": {"ios": "https://dc.lft.to/lastmile_qr_scan", "android": "https://dc.lft.to/lastmile_qr_scan"}}, {"type": "electric_scooter", "name": "0b94b84aa887766b57b811d9cbc141e3", "fusion_lon": 0.0, "is_reserved": 0, "lon": -77.03498833333333, "fusion_lat": 0.0, "is_disabled": 0, "bike_id": "0b94b84aa887766b57b811d9cbc141e3", "lat": 38.945007, "rental_uris": {"ios": "https://dc.lft.to/lastmile_qr_scan", "android": "https://dc.lft.to/lastmile_qr_scan"}}, {"type": "electric_scooter", "name": "c5aee91defa8f8e3fda900b1ade2d1aa", "fusion_lon": 0.0, "is_reserved": 0, "lon": -77.03067966666667, "fusion_lat": 0.0, "is_disabled": 0, "bike_id": "c5aee91defa8f8e3fda900b1ade2d1aa", "lat": 38.9225655, "rental_uris": {"ios": "https://dc.lft.to/lastmile_qr_scan", "android": "https://dc.lft.to/lastmile_qr_scan"}}, {"type": "electric_bike", "name": "83ac635ea539fb9613641313b5051c52", "fusion_lon": 0.0, "is_reserved": 0, "lon": -77.069316, "fusion_lat": 0.0, "is_disabled": 0, "bike_id": "83ac635ea539fb9613641313b5051c52", "lat": 38.961021833333334, "rental_uris": {"ios": "https://dc.lft.to/lastmile_qr_scan", "android": "https://dc.lft.to/lastmile_qr_scan"}}, {"type": "electric_bike", "name": "d91235dffa0d20489af9aff07dc0257f", "fusion_lon": 0.0, "is_reserved": 0, "lon": -77.06939316666667, "fusion_lat": 0.0, "is_disabled": 0, "bike_id": "d91235dffa0d20489af9aff07dc0257f", "lat": 38.95546316666667, "rental_uris": {"ios": "https://dc.lft.to/lastmile_qr_scan", "android": "https://dc.lft.to/lastmile_qr_scan"}}, {"type": "electric_scooter", "name": "2f311b2bb87a824f2adc34a9280cad6b", "fusion_lon": 0.0, "is_reserved": 0, "lon": -77.02403683333333, "fusion_lat": 0.0, "is_disabled": 0, "bike_id": "2f311b2bb87a824f2adc34a9280cad6b", "lat": 38.90614133333333, "rental_uris": {"ios": "https://dc.lft.to/lastmile_qr_scan", "android": "https://dc.lft.to/lastmile_qr_scan"}}, {"type": "electric_scooter", "name": "c0b45a5f7046caf27cf0615a60f15fe1", "fusion_lon": 0.0, "is_reserved": 0, "lon": -76.93026566666667, "fusion_lat": 0.0, "is_disabled": 0, "bike_id": "c0b45a5f7046caf27cf0615a60f15fe1", "lat": 38.900859833333335, "rental_uris": {"ios": "https://dc.lft.to/lastmile_qr_scan", "android": "https://dc.lft.to/lastmile_qr_scan"}}, {"type": "electric_scooter", "name": "0ecedba5412f7b219ef8761aa5f5813a", "fusion_lon": 0.0, "is_reserved": 0, "lon": -77.00881833333334, "fusion_lat": 0.0, "is_disabled": 0, "bike_id": "0ecedba5412f7b219ef8761aa5f5813a", "lat": 38.88504666666667, "rental_uris": {"ios": "https://dc.lft.to/lastmile_qr_scan", "android": "https://dc.lft.to/lastmile_qr_scan"}}, {"type": "electric_scooter", "name": "2cf48040562a4e33ce1f675d35d08a6f", "fusion_lon": 0.0, "is_reserved": 0, "lon": -77.04749733333334, "fusion_lat": 0.0, "is_disabled": 0, "bike_id": "2cf48040562a4e33ce1f675d35d08a6f", "lat": 38.900845833333335, "rental_uris": {"ios": "https://dc.lft.to/lastmile_qr_scan", "android": "https://dc.lft.to/lastmile_qr_scan"}}, {"type": "electric_scooter", "name": "4ea22304c091267f62801d3916f0b143", "fusion_lon": 0.0, "is_reserved": 0, "lon": -77.03854283333334, "fusion_lat": 0.0, "is_disabled": 0, "bike_id": "4ea22304c091267f62801d3916f0b143", "lat": 38.904857666666665, "rental_uris": {"ios": "https://dc.lft.to/lastmile_qr_scan", "android": "https://dc.lft.to/lastmile_qr_scan"}}, {"type": "electric_scooter", "name": "4dafbeb2e71d64d68070ce5c0dabe962", "fusion_lon": 0.0, "is_reserved": 0, "lon": -77.04492966666666, "fusion_lat": 0.0, "is_disabled": 0, "bike_id": "4dafbeb2e71d64d68070ce5c0dabe962", "lat": 38.90723783333333, "rental_uris": {"ios": "https://dc.lft.to/lastmile_qr_scan", "android": "https://dc.lft.to/lastmile_qr_scan"}}, {"type": "electric_scooter", "name": "3347a7fb752918b3522e4fd317a39509", "fusion_lon": 0.0, "is_reserved": 0, "lon": -76.99490583333333, "fusion_lat": 0.0, "is_disabled": 0, "bike_id": "3347a7fb752918b3522e4fd317a39509", "lat": 38.835836, "rental_uris": {"ios": "https://dc.lft.to/lastmile_qr_scan", "android": "https://dc.lft.to/lastmile_qr_scan"}}, {"type": "electric_scooter", "name": "601ac8df0c2d9e1d47990ce954d4d5c8", "fusion_lon": 0.0, "is_reserved": 0, "lon": -77.029687, "fusion_lat": 0.0, "is_disabled": 0, "bike_id": "601ac8df0c2d9e1d47990ce954d4d5c8", "lat": 38.917246666666664, "rental_uris": {"ios": "https://dc.lft.to/lastmile_qr_scan", "android": "https://dc.lft.to/lastmile_qr_scan"}}, {"type": "electric_scooter", "name": "a75f9c0bdc2fa45333b04025615a3fac", "fusion_lon": 0.0, "is_reserved": 0, "lon": -77.02395633333333, "fusion_lat": 0.0, "is_disabled": 0, "bike_id": "a75f9c0bdc2fa45333b04025615a3fac", "lat": 38.9207685, "rental_uris": {"ios": "https://dc.lft.to/lastmile_qr_scan", "android": "https://dc.lft.to/lastmile_qr_scan"}}, {"type": "electric_scooter", "name": "9fa2eac5bc9288f9898f398dc691887d", "fusion_lon": 0.0, "is_reserved": 0, "lon": -77.03290383333334, "fusion_lat": 0.0, "is_disabled": 0, "bike_id": "9fa2eac5bc9288f9898f398dc691887d", "lat": 38.93788983333334, "rental_uris": {"ios": "https://dc.lft.to/lastmile_qr_scan", "android": "https://dc.lft.to/lastmile_qr_scan"}}, {"type": "electric_scooter", "name": "72ecf311ce1fad2bed3a7714b371a9ec", "fusion_lon": 0.0, "is_reserved": 0, "lon": -77.02613016666666, "fusion_lat": 0.0, "is_disabled": 0, "bike_id": "72ecf311ce1fad2bed3a7714b371a9ec", "lat": 38.8960165, "rental_uris": {"ios": "https://dc.lft.to/lastmile_qr_scan", "android": "https://dc.lft.to/lastmile_qr_scan"}}, {"type": "electric_scooter", "name": "0bf19fd83bb967f03e651bf74c5bc899", "fusion_lon": 0.0, "is_reserved": 0, "lon": -77.02555316666667, "fusion_lat": 0.0, "is_disabled": 0, "bike_id": "0bf19fd83bb967f03e651bf74c5bc899", "lat": 38.915550333333336, "rental_uris": {"ios": "https://dc.lft.to/lastmile_qr_scan", "android": "https://dc.lft.to/lastmile_qr_scan"}}, {"type": "electric_scooter", "name": "a1b9f9ca6ad7a9d64ce3aa53f03eff7c", "fusion_lon": 0.0, "is_reserved": 0, "lon": -77.0314255, "fusion_lat": 0.0, "is_disabled": 0, "bike_id": "a1b9f9ca6ad7a9d64ce3aa53f03eff7c", "lat": 38.9063555, "rental_uris": {"ios": "https://dc.lft.to/lastmile_qr_scan", "android": "https://dc.lft.to/lastmile_qr_scan"}}, {"type": "electric_scooter", "name": "2c447de23d99570fec8544999f4a41b1", "fusion_lon": 0.0, "is_reserved": 0, "lon": -77.0470185, "fusion_lat": 0.0, "is_disabled": 0, "bike_id": "2c447de23d99570fec8544999f4a41b1", "lat": 38.902813, "rental_uris": {"ios": "https://dc.lft.to/lastmile_qr_scan", "android": "https://dc.lft.to/lastmile_qr_scan"}}, {"type": "electric_bike", "name": "b1d43bd88d1fa8ea65a5047ab0f98420", "fusion_lon": 0.0, "is_reserved": 0, "lon": -77.054798, "fusion_lat": 0.0, "is_disabled": 0, "bike_id": "b1d43bd88d1fa8ea65a5047ab0f98420", "lat": 38.800143, "rental_uris": {"ios": "https://dc.lft.to/lastmile_qr_scan", "android": "https://dc.lft.to/lastmile_qr_scan"}}, {"type": "electric_scooter", "name": "accfc3097e780d5eea30072e2015e8ae", "fusion_lon": 0.0, "is_reserved": 0, "lon": -77.03586816666666, "fusion_lat": 0.0, "is_disabled": 0, "bike_id": "accfc3097e780d5eea30072e2015e8ae", "lat": 38.93677733333333, "rental_uris": {"ios": "https://dc.lft.to/lastmile_qr_scan", "android": "https://dc.lft.to/lastmile_qr_scan"}}, {"type": "electric_scooter", "name": "facf750d6c7d1e90d10f3532aa36120b", "fusion_lon": 0.0, "is_reserved": 0, "lon": -77.02967583333333, "fusion_lat": 0.0, "is_disabled": 0, "bike_id": "facf750d6c7d1e90d10f3532aa36120b", "lat": 38.916577333333336, "rental_uris": {"ios": "https://dc.lft.to/lastmile_qr_scan", "android": "https://dc.lft.to/lastmile_qr_scan"}}, {"type": "electric_bike", "name": "83be731f700ac035ddbe91b79f10e7e2", "fusion_lon": 0.0, "is_reserved": 0, "lon": -77.10775633333333, "fusion_lat": 0.0, "is_disabled": 0, "bike_id": "83be731f700ac035ddbe91b79f10e7e2", "lat": 38.8790905, "rental_uris": {"ios": "https://dc.lft.to/lastmile_qr_scan", "android": "https://dc.lft.to/lastmile_qr_scan"}}, {"type": "electric_scooter", "name": "4b200be63a48dd1f326f13e927635c07", "fusion_lon": 0.0, "is_reserved": 0, "lon": -77.03452583333333, "fusion_lat": 0.0, "is_disabled": 0, "bike_id": "4b200be63a48dd1f326f13e927635c07", "lat": 38.91795416666667, "rental_uris": {"ios": "https://dc.lft.to/lastmile_qr_scan", "android": "https://dc.lft.to/lastmile_qr_scan"}}, {"type": "electric_scooter", "name": "ad5d659e6f2554712df9cc95608c952f", "fusion_lon": 0.0, "is_reserved": 0, "lon": -77.03888733333334, "fusion_lat": 0.0, "is_disabled": 0, "bike_id": "ad5d659e6f2554712df9cc95608c952f", "lat": 38.92015416666667, "rental_uris": {"ios": "https://dc.lft.to/lastmile_qr_scan", "android": "https://dc.lft.to/lastmile_qr_scan"}}, {"type": "electric_scooter", "name": "5355e905ed821f8c7ce464c0f9222b63", "fusion_lon": 0.0, "is_reserved": 0, "lon": -77.02015283333333, "fusion_lat": 0.0, "is_disabled": 0, "bike_id": "5355e905ed821f8c7ce464c0f9222b63", "lat": 38.89263316666667, "rental_uris": {"ios": "https://dc.lft.to/lastmile_qr_scan", "android": "https://dc.lft.to/lastmile_qr_scan"}}, {"type": "electric_scooter", "name": "cdc901150f5b77abe754c6db6e56dfd6", "fusion_lon": 0.0, "is_reserved": 0, "lon": -77.022065, "fusion_lat": 0.0, "is_disabled": 0, "bike_id": "cdc901150f5b77abe754c6db6e56dfd6", "lat": 38.8872865, "rental_uris": {"ios": "https://dc.lft.to/lastmile_qr_scan", "android": "https://dc.lft.to/lastmile_qr_scan"}}, {"type": "electric_scooter", "name": "2904ead69b45a4b5fb44f613934b03cc", "fusion_lon": 0.0, "is_reserved": 0, "lon": -77.02979366666666, "fusion_lat": 0.0, "is_disabled": 0, "bike_id": "2904ead69b45a4b5fb44f613934b03cc", "lat": 38.92050866666666, "rental_uris": {"ios": "https://dc.lft.to/lastmile_qr_scan", "android": "https://dc.lft.to/lastmile_qr_scan"}}, {"type": "electric_scooter", "name": "e1f41f09e571b531022ad0b88a7449e2", "fusion_lon": 0.0, "is_reserved": 0, "lon": -77.03856433333333, "fusion_lat": 0.0, "is_disabled": 0, "bike_id": "e1f41f09e571b531022ad0b88a7449e2", "lat": 38.918093, "rental_uris": {"ios": "https://dc.lft.to/lastmile_qr_scan", "android": "https://dc.lft.to/lastmile_qr_scan"}}, {"type": "electric_scooter", "name": "fd15a64620aa9d1994c5ef46620bc141", "fusion_lon": 0.0, "is_reserved": 0, "lon": -77.03726483333334, "fusion_lat": 0.0, "is_disabled": 0, "bike_id": "fd15a64620aa9d1994c5ef46620bc141", "lat": 38.91128333333333, "rental_uris": {"ios": "https://dc.lft.to/lastmile_qr_scan", "android": "https://dc.lft.to/lastmile_qr_scan"}}, {"type": "electric_bike", "name": "8125f75cd24c188ff59ed351954aee6b", "fusion_lon": 0.0, "is_reserved": 0, "lon": -77.13326666666667, "fusion_lat": 0.0, "is_disabled": 0, "bike_id": "8125f75cd24c188ff59ed351954aee6b", "lat": 38.87051316666667, "rental_uris": {"ios": "https://dc.lft.to/lastmile_qr_scan", "android": "https://dc.lft.to/lastmile_qr_scan"}}, {"type": "electric_scooter", "name": "47086e04bc3dce144437f6d6cde1fc3b", "fusion_lon": 0.0, "is_reserved": 0, "lon": -77.022278, "fusion_lat": 0.0, "is_disabled": 0, "bike_id": "47086e04bc3dce144437f6d6cde1fc3b", "lat": 38.95685233333333, "rental_uris": {"ios": "https://dc.lft.to/lastmile_qr_scan", "android": "https://dc.lft.to/lastmile_qr_scan"}}, {"type": "electric_scooter", "name": "bb34dad22e4b536edcaa55e15c0880ae", "fusion_lon": 0.0, "is_reserved": 0, "lon": -77.04250833333333, "fusion_lat": 0.0, "is_disabled": 0, "bike_id": "bb34dad22e4b536edcaa55e15c0880ae", "lat": 38.92367766666667, "rental_uris": {"ios": "https://dc.lft.to/lastmile_qr_scan", "android": "https://dc.lft.to/lastmile_qr_scan"}}, {"type": "electric_scooter", "name": "4c000974ceaa35d3823c245e57d54767", "fusion_lon": 0.0, "is_reserved": 0, "lon": -77.02723283333333, "fusion_lat": 0.0, "is_disabled": 0, "bike_id": "4c000974ceaa35d3823c245e57d54767", "lat": 38.95182783333333, "rental_uris": {"ios": "https://dc.lft.to/lastmile_qr_scan", "android": "https://dc.lft.to/lastmile_qr_scan"}}, {"type": "electric_bike", "name": "d4d22cf2f932856dbc368f99bdf91e09", "fusion_lon": 0.0, "is_reserved": 0, "lon": -77.0264865, "fusion_lat": 0.0, "is_disabled": 0, "bike_id": "d4d22cf2f932856dbc368f99bdf91e09", "lat": 38.9944055, "rental_uris": {"ios": "https://dc.lft.to/lastmile_qr_scan", "android": "https://dc.lft.to/lastmile_qr_scan"}}, {"type": "electric_scooter", "name": "a714ff1be55f53bb67e7caaad426a274", "fusion_lon": 0.0, "is_reserved": 0, "lon": -77.02691116666666, "fusion_lat": 0.0, "is_disabled": 0, "bike_id": "a714ff1be55f53bb67e7caaad426a274", "lat": 38.91684, "rental_uris": {"ios": "https://dc.lft.to/lastmile_qr_scan", "android": "https://dc.lft.to/lastmile_qr_scan"}}, {"type": "electric_scooter", "name": "02ddbbd165e7b5a9cb633339f8f5c9cc", "fusion_lon": 0.0, "is_reserved": 0, "lon": -77.03856816666666, "fusion_lat": 0.0, "is_disabled": 0, "bike_id": "02ddbbd165e7b5a9cb633339f8f5c9cc", "lat": 38.917154333333336, "rental_uris": {"ios": "https://dc.lft.to/lastmile_qr_scan", "android": "https://dc.lft.to/lastmile_qr_scan"}}, {"type": "electric_scooter", "name": "e209814fe3ae15c6e3e70902f6f95ec3", "fusion_lon": 0.0, "is_reserved": 0, "lon": -77.050903, "fusion_lat": 0.0, "is_disabled": 0, "bike_id": "e209814fe3ae15c6e3e70902f6f95ec3", "lat": 38.923484333333334, "rental_uris": {"ios": "https://dc.lft.to/lastmile_qr_scan", "android": "https://dc.lft.to/lastmile_qr_scan"}}, {"type": "electric_scooter", "name": "949dd35b060360ac8a80f8392f48a269", "fusion_lon": 0.0, "is_reserved": 0, "lon": -77.00287766666666, "fusion_lat": 0.0, "is_disabled": 0, "bike_id": "949dd35b060360ac8a80f8392f48a269", "lat": 38.9056975, "rental_uris": {"ios": "https://dc.lft.to/lastmile_qr_scan", "android": "https://dc.lft.to/lastmile_qr_scan"}}, {"type": "electric_scooter", "name": "ea0f016fdae15924473586932007b128", "fusion_lon": 0.0, "is_reserved": 0, "lon": -77.05227516666666, "fusion_lat": 0.0, "is_disabled": 0, "bike_id": "ea0f016fdae15924473586932007b128", "lat": 38.924709666666665, "rental_uris": {"ios": "https://dc.lft.to/lastmile_qr_scan", "android": "https://dc.lft.to/lastmile_qr_scan"}}, {"type": "electric_scooter", "name": "051ffc4bb5234b743824701db0a4d47f", "fusion_lon": 0.0, "is_reserved": 0, "lon": -76.98490966666667, "fusion_lat": 0.0, "is_disabled": 0, "bike_id": "051ffc4bb5234b743824701db0a4d47f", "lat": 38.904392666666666, "rental_uris": {"ios": "https://dc.lft.to/lastmile_qr_scan", "android": "https://dc.lft.to/lastmile_qr_scan"}}, {"type": "electric_scooter", "name": "0ad1307611b3d6580292b1fd0d4c1803", "fusion_lon": 0.0, "is_reserved": 0, "lon": -77.03172333333333, "fusion_lat": 0.0, "is_disabled": 0, "bike_id": "0ad1307611b3d6580292b1fd0d4c1803", "lat": 38.91626616666667, "rental_uris": {"ios": "https://dc.lft.to/lastmile_qr_scan", "android": "https://dc.lft.to/lastmile_qr_scan"}}, {"type": "electric_scooter", "name": "9b6066a802487252d4fb5af011f19b00", "fusion_lon": 0.0, "is_reserved": 0, "lon": -77.00576083333333, "fusion_lat": 0.0, "is_disabled": 0, "bike_id": "9b6066a802487252d4fb5af011f19b00", "lat": 38.905630333333335, "rental_uris": {"ios": "https://dc.lft.to/lastmile_qr_scan", "android": "https://dc.lft.to/lastmile_qr_scan"}}, {"type": "electric_scooter", "name": "a20df261d9cd9cb13d0339dfc66179fd", "fusion_lon": 0.0, "is_reserved": 0, "lon": -76.98063533333334, "fusion_lat": 0.0, "is_disabled": 0, "bike_id": "a20df261d9cd9cb13d0339dfc66179fd", "lat": 38.900187333333335, "rental_uris": {"ios": "https://dc.lft.to/lastmile_qr_scan", "android": "https://dc.lft.to/lastmile_qr_scan"}}, {"type": "electric_scooter", "name": "ec626dfa783df2c944bf051aec3f1635", "fusion_lon": 0.0, "is_reserved": 0, "lon": -76.99928433333334, "fusion_lat": 0.0, "is_disabled": 0, "bike_id": "ec626dfa783df2c944bf051aec3f1635", "lat": 38.84315016666667, "rental_uris": {"ios": "https://dc.lft.to/lastmile_qr_scan", "android": "https://dc.lft.to/lastmile_qr_scan"}}, {"type": "electric_scooter", "name": "214177275f833f46782c8a997dbf8f06", "fusion_lon": 0.0, "is_reserved": 0, "lon": -77.03637066666667, "fusion_lat": 0.0, "is_disabled": 0, "bike_id": "214177275f833f46782c8a997dbf8f06", "lat": 38.90255916666667, "rental_uris": {"ios": "https://dc.lft.to/lastmile_qr_scan", "android": "https://dc.lft.to/lastmile_qr_scan"}}, {"type": "electric_scooter", "name": "0044b869fd857daf976846aa161f3b22", "fusion_lon": 0.0, "is_reserved": 0, "lon": -77.029888, "fusion_lat": 0.0, "is_disabled": 0, "bike_id": "0044b869fd857daf976846aa161f3b22", "lat": 38.89623566666667, "rental_uris": {"ios": "https://dc.lft.to/lastmile_qr_scan", "android": "https://dc.lft.to/lastmile_qr_scan"}}, {"type": "electric_bike", "name": "11f135687f463447bbd82e249cc7ea4b", "fusion_lon": 0.0, "is_reserved": 0, "lon": -77.0112785, "fusion_lat": 0.0, "is_disabled": 0, "bike_id": "11f135687f463447bbd82e249cc7ea4b", "lat": 38.880417333333334, "rental_uris": {"ios": "https://dc.lft.to/lastmile_qr_scan", "android": "https://dc.lft.to/lastmile_qr_scan"}}, {"type": "electric_scooter", "name": "a64e0799dac962cd56be41652a704eca", "fusion_lon": 0.0, "is_reserved": 0, "lon": -77.02380183333334, "fusion_lat": 0.0, "is_disabled": 0, "bike_id": "a64e0799dac962cd56be41652a704eca", "lat": 38.91290083333333, "rental_uris": {"ios": "https://dc.lft.to/lastmile_qr_scan", "android": "https://dc.lft.to/lastmile_qr_scan"}}, {"type": "electric_scooter", "name": "fa154351d9fcdf6d2917d6096d226866", "fusion_lon": 0.0, "is_reserved": 0, "lon": -77.03679966666667, "fusion_lat": 0.0, "is_disabled": 0, "bike_id": "fa154351d9fcdf6d2917d6096d226866", "lat": 38.92328966666667, "rental_uris": {"ios": "https://dc.lft.to/lastmile_qr_scan", "android": "https://dc.lft.to/lastmile_qr_scan"}}, {"type": "electric_scooter", "name": "39beae99cb7e4212a1e139384313c59e", "fusion_lon": 0.0, "is_reserved": 0, "lon": -77.0056375, "fusion_lat": 0.0, "is_disabled": 0, "bike_id": "39beae99cb7e4212a1e139384313c59e", "lat": 38.87445366666667, "rental_uris": {"ios": "https://dc.lft.to/lastmile_qr_scan", "android": "https://dc.lft.to/lastmile_qr_scan"}}, {"type": "electric_bike", "name": "e10c996d5f57c4dfeef8b580d3b3e488", "fusion_lon": 0.0, "is_reserved": 0, "lon": -77.0109585, "fusion_lat": 0.0, "is_disabled": 0, "bike_id": "e10c996d5f57c4dfeef8b580d3b3e488", "lat": 38.92122766666667, "rental_uris": {"ios": "https://dc.lft.to/lastmile_qr_scan", "android": "https://dc.lft.to/lastmile_qr_scan"}}, {"type": "electric_scooter", "name": "5cc2fedb5e5e3ac41c44ceee837728c2", "fusion_lon": 0.0, "is_reserved": 0, "lon": -77.02438083333334, "fusion_lat": 0.0, "is_disabled": 0, "bike_id": "5cc2fedb5e5e3ac41c44ceee837728c2", "lat": 38.92651033333333, "rental_uris": {"ios": "https://dc.lft.to/lastmile_qr_scan", "android": "https://dc.lft.to/lastmile_qr_scan"}}, {"type": "electric_scooter", "name": "f063af1b1e3167ca32c280c57dc82fef", "fusion_lon": 0.0, "is_reserved": 0, "lon": -77.03286133333333, "fusion_lat": 0.0, "is_disabled": 0, "bike_id": "f063af1b1e3167ca32c280c57dc82fef", "lat": 38.9027265, "rental_uris": {"ios": "https://dc.lft.to/lastmile_qr_scan", "android": "https://dc.lft.to/lastmile_qr_scan"}}, {"type": "electric_scooter", "name": "6778ade7e9a677fdf3b3fe028545a5f6", "fusion_lon": 0.0, "is_reserved": 0, "lon": -77.04596416666666, "fusion_lat": 0.0, "is_disabled": 0, "bike_id": "6778ade7e9a677fdf3b3fe028545a5f6", "lat": 38.90356716666667, "rental_uris": {"ios": "https://dc.lft.to/lastmile_qr_scan", "android": "https://dc.lft.to/lastmile_qr_scan"}}, {"type": "electric_scooter", "name": "5562419033e3ed8c673c6d729fbb5314", "fusion_lon": 0.0, "is_reserved": 0, "lon": -77.071478, "fusion_lat": 0.0, "is_disabled": 0, "bike_id": "5562419033e3ed8c673c6d729fbb5314", "lat": 38.90776916666667, "rental_uris": {"ios": "https://dc.lft.to/lastmile_qr_scan", "android": "https://dc.lft.to/lastmile_qr_scan"}}, {"type": "electric_scooter", "name": "89d746bb29702aafbb456c46af7f3e83", "fusion_lon": 0.0, "is_reserved": 0, "lon": -76.99622883333333, "fusion_lat": 0.0, "is_disabled": 0, "bike_id": "89d746bb29702aafbb456c46af7f3e83", "lat": 38.900099, "rental_uris": {"ios": "https://dc.lft.to/lastmile_qr_scan", "android": "https://dc.lft.to/lastmile_qr_scan"}}, {"type": "electric_scooter", "name": "961d710b10cdb7de9c8944bdfa2aa9de", "fusion_lon": 0.0, "is_reserved": 0, "lon": -77.04684316666666, "fusion_lat": 0.0, "is_disabled": 0, "bike_id": "961d710b10cdb7de9c8944bdfa2aa9de", "lat": 38.90577033333334, "rental_uris": {"ios": "https://dc.lft.to/lastmile_qr_scan", "android": "https://dc.lft.to/lastmile_qr_scan"}}, {"type": "electric_scooter", "name": "b3137414a69694d8fe22ba6773af4321", "fusion_lon": 0.0, "is_reserved": 0, "lon": -77.0032935, "fusion_lat": 0.0, "is_disabled": 0, "bike_id": "b3137414a69694d8fe22ba6773af4321", "lat": 38.89357116666667, "rental_uris": {"ios": "https://dc.lft.to/lastmile_qr_scan", "android": "https://dc.lft.to/lastmile_qr_scan"}}, {"type": "electric_scooter", "name": "dd45cc1fb8e883c3d4ca99c0c9d9ed9a", "fusion_lon": 0.0, "is_reserved": 0, "lon": -77.03471966666666, "fusion_lat": 0.0, "is_disabled": 0, "bike_id": "dd45cc1fb8e883c3d4ca99c0c9d9ed9a", "lat": 38.91707733333333, "rental_uris": {"ios": "https://dc.lft.to/lastmile_qr_scan", "android": "https://dc.lft.to/lastmile_qr_scan"}}, {"type": "electric_scooter", "name": "5fb3d9536702dc93f4a81b3e021efee5", "fusion_lon": 0.0, "is_reserved": 0, "lon": -77.039918, "fusion_lat": 0.0, "is_disabled": 0, "bike_id": "5fb3d9536702dc93f4a81b3e021efee5", "lat": 38.924582, "rental_uris": {"ios": "https://dc.lft.to/lastmile_qr_scan", "android": "https://dc.lft.to/lastmile_qr_scan"}}, {"type": "electric_scooter", "name": "c92f5e5d9422fddb5eeed4e4556829d7", "fusion_lon": 0.0, "is_reserved": 0, "lon": -77.05793983333334, "fusion_lat": 0.0, "is_disabled": 0, "bike_id": "c92f5e5d9422fddb5eeed4e4556829d7", "lat": 38.93484133333333, "rental_uris": {"ios": "https://dc.lft.to/lastmile_qr_scan", "android": "https://dc.lft.to/lastmile_qr_scan"}}, {"type": "electric_scooter", "name": "b12edcf7b85f607b6945a201a8b2da47", "fusion_lon": 0.0, "is_reserved": 0, "lon": -77.0318885, "fusion_lat": 0.0, "is_disabled": 0, "bike_id": "b12edcf7b85f607b6945a201a8b2da47", "lat": 38.893605666666666, "rental_uris": {"ios": "https://dc.lft.to/lastmile_qr_scan", "android": "https://dc.lft.to/lastmile_qr_scan"}}, {"type": "electric_scooter", "name": "3c3d86be43d0e2f1477239917539cff3", "fusion_lon": 0.0, "is_reserved": 0, "lon": -77.01944883333333, "fusion_lat": 0.0, "is_disabled": 0, "bike_id": "3c3d86be43d0e2f1477239917539cff3", "lat": 38.92424183333333, "rental_uris": {"ios": "https://dc.lft.to/lastmile_qr_scan", "android": "https://dc.lft.to/lastmile_qr_scan"}}, {"type": "electric_scooter", "name": "4ce98170059c813a63872a36900666ba", "fusion_lon": 0.0, "is_reserved": 0, "lon": -77.03205866666667, "fusion_lat": 0.0, "is_disabled": 0, "bike_id": "4ce98170059c813a63872a36900666ba", "lat": 38.928955, "rental_uris": {"ios": "https://dc.lft.to/lastmile_qr_scan", "android": "https://dc.lft.to/lastmile_qr_scan"}}, {"type": "electric_scooter", "name": "3a4a82113e38a69978e0021b0f0f1af1", "fusion_lon": 0.0, "is_reserved": 0, "lon": -76.984226, "fusion_lat": 0.0, "is_disabled": 0, "bike_id": "3a4a82113e38a69978e0021b0f0f1af1", "lat": 38.8606245, "rental_uris": {"ios": "https://dc.lft.to/lastmile_qr_scan", "android": "https://dc.lft.to/lastmile_qr_scan"}}, {"type": "electric_scooter", "name": "fc8a3161cd97275102f0e7db709b77c6", "fusion_lon": 0.0, "is_reserved": 0, "lon": -77.0247935, "fusion_lat": 0.0, "is_disabled": 0, "bike_id": "fc8a3161cd97275102f0e7db709b77c6", "lat": 38.897010333333334, "rental_uris": {"ios": "https://dc.lft.to/lastmile_qr_scan", "android": "https://dc.lft.to/lastmile_qr_scan"}}, {"type": "electric_bike", "name": "450a39f45f0fd5e472011bae71e1271c", "fusion_lon": 0.0, "is_reserved": 0, "lon": -76.981067, "fusion_lat": 0.0, "is_disabled": 0, "bike_id": "450a39f45f0fd5e472011bae71e1271c", "lat": 38.877319666666665, "rental_uris": {"ios": "https://dc.lft.to/lastmile_qr_scan", "android": "https://dc.lft.to/lastmile_qr_scan"}}, {"type": "electric_scooter", "name": "4a68d149cdbae96ff83813ea14689a41", "fusion_lon": 0.0, "is_reserved": 0, "lon": -76.99017716666667, "fusion_lat": 0.0, "is_disabled": 0, "bike_id": "4a68d149cdbae96ff83813ea14689a41", "lat": 38.86518316666667, "rental_uris": {"ios": "https://dc.lft.to/lastmile_qr_scan", "android": "https://dc.lft.to/lastmile_qr_scan"}}, {"type": "electric_scooter", "name": "7e3240f23e1f1ffd4cb8d95462811211", "fusion_lon": 0.0, "is_reserved": 0, "lon": -77.03379033333333, "fusion_lat": 0.0, "is_disabled": 0, "bike_id": "7e3240f23e1f1ffd4cb8d95462811211", "lat": 38.92530683333333, "rental_uris": {"ios": "https://dc.lft.to/lastmile_qr_scan", "android": "https://dc.lft.to/lastmile_qr_scan"}}, {"type": "electric_scooter", "name": "99f0b68a6c454afe6e69617625ac402a", "fusion_lon": 0.0, "is_reserved": 0, "lon": -76.93397533333334, "fusion_lat": 0.0, "is_disabled": 0, "bike_id": "99f0b68a6c454afe6e69617625ac402a", "lat": 38.898945833333336, "rental_uris": {"ios": "https://dc.lft.to/lastmile_qr_scan", "android": "https://dc.lft.to/lastmile_qr_scan"}}, {"type": "electric_scooter", "name": "903b179d91f1c51e17289407f861bee6", "fusion_lon": 0.0, "is_reserved": 0, "lon": -77.015635, "fusion_lat": 0.0, "is_disabled": 0, "bike_id": "903b179d91f1c51e17289407f861bee6", "lat": 38.89175683333333, "rental_uris": {"ios": "https://dc.lft.to/lastmile_qr_scan", "android": "https://dc.lft.to/lastmile_qr_scan"}}, {"type": "electric_scooter", "name": "8a4e88d82501a21a1e02a61735bb5114", "fusion_lon": 0.0, "is_reserved": 0, "lon": -77.04601566666666, "fusion_lat": 0.0, "is_disabled": 0, "bike_id": "8a4e88d82501a21a1e02a61735bb5114", "lat": 38.9026345, "rental_uris": {"ios": "https://dc.lft.to/lastmile_qr_scan", "android": "https://dc.lft.to/lastmile_qr_scan"}}, {"type": "electric_scooter", "name": "3ccb51f2dd67649329da136efd2eb075", "fusion_lon": 0.0, "is_reserved": 0, "lon": -76.930285, "fusion_lat": 0.0, "is_disabled": 0, "bike_id": "3ccb51f2dd67649329da136efd2eb075", "lat": 38.90013533333333, "rental_uris": {"ios": "https://dc.lft.to/lastmile_qr_scan", "android": "https://dc.lft.to/lastmile_qr_scan"}}, {"type": "electric_scooter", "name": "e4f41a1f1d14b8ddd80c0e3e95795289", "fusion_lon": 0.0, "is_reserved": 0, "lon": -77.02943333333333, "fusion_lat": 0.0, "is_disabled": 0, "bike_id": "e4f41a1f1d14b8ddd80c0e3e95795289", "lat": 38.896104666666666, "rental_uris": {"ios": "https://dc.lft.to/lastmile_qr_scan", "android": "https://dc.lft.to/lastmile_qr_scan"}}, {"type": "electric_scooter", "name": "cd21fbac0cc3d0b9099bb7870d8a6313", "fusion_lon": 0.0, "is_reserved": 0, "lon": -76.98592716666667, "fusion_lat": 0.0, "is_disabled": 0, "bike_id": "cd21fbac0cc3d0b9099bb7870d8a6313", "lat": 38.86700916666667, "rental_uris": {"ios": "https://dc.lft.to/lastmile_qr_scan", "android": "https://dc.lft.to/lastmile_qr_scan"}}, {"type": "electric_scooter", "name": "e6bd986c4aabde8d9839e1529ab2d473", "fusion_lon": 0.0, "is_reserved": 0, "lon": -77.06056016666666, "fusion_lat": 0.0, "is_disabled": 0, "bike_id": "e6bd986c4aabde8d9839e1529ab2d473", "lat": 38.9392895, "rental_uris": {"ios": "https://dc.lft.to/lastmile_qr_scan", "android": "https://dc.lft.to/lastmile_qr_scan"}}, {"type": "electric_scooter", "name": "32d974444923be3f834f9ed0159dc225", "fusion_lon": 0.0, "is_reserved": 0, "lon": -77.04336533333333, "fusion_lat": 0.0, "is_disabled": 0, "bike_id": "32d974444923be3f834f9ed0159dc225", "lat": 38.900378333333336, "rental_uris": {"ios": "https://dc.lft.to/lastmile_qr_scan", "android": "https://dc.lft.to/lastmile_qr_scan"}}, {"type": "electric_scooter", "name": "b20912a59060014533c9a2af6fecd6a0", "fusion_lon": 0.0, "is_reserved": 0, "lon": -77.03298716666667, "fusion_lat": 0.0, "is_disabled": 0, "bike_id": "b20912a59060014533c9a2af6fecd6a0", "lat": 38.92750766666666, "rental_uris": {"ios": "https://dc.lft.to/lastmile_qr_scan", "android": "https://dc.lft.to/lastmile_qr_scan"}}, {"type": "electric_scooter", "name": "978f19c83ec28b799e40171fee143202", "fusion_lon": 0.0, "is_reserved": 0, "lon": -77.03806333333333, "fusion_lat": 0.0, "is_disabled": 0, "bike_id": "978f19c83ec28b799e40171fee143202", "lat": 38.931051333333336, "rental_uris": {"ios": "https://dc.lft.to/lastmile_qr_scan", "android": "https://dc.lft.to/lastmile_qr_scan"}}, {"type": "electric_scooter", "name": "b289373796f9cb7c61e6fb2bc9480e23", "fusion_lon": 0.0, "is_reserved": 0, "lon": -76.97217783333333, "fusion_lat": 0.0, "is_disabled": 0, "bike_id": "b289373796f9cb7c61e6fb2bc9480e23", "lat": 38.92538733333333, "rental_uris": {"ios": "https://dc.lft.to/lastmile_qr_scan", "android": "https://dc.lft.to/lastmile_qr_scan"}}, {"type": "electric_scooter", "name": "8e3b062e38eaa626fc30b280c8409762", "fusion_lon": 0.0, "is_reserved": 0, "lon": -77.05317183333334, "fusion_lat": 0.0, "is_disabled": 0, "bike_id": "8e3b062e38eaa626fc30b280c8409762", "lat": 38.915584333333335, "rental_uris": {"ios": "https://dc.lft.to/lastmile_qr_scan", "android": "https://dc.lft.to/lastmile_qr_scan"}}, {"type": "electric_scooter", "name": "2b383db0ec9a8267348907a15d0813c0", "fusion_lon": 0.0, "is_reserved": 0, "lon": -77.03467233333333, "fusion_lat": 0.0, "is_disabled": 0, "bike_id": "2b383db0ec9a8267348907a15d0813c0", "lat": 38.905621333333336, "rental_uris": {"ios": "https://dc.lft.to/lastmile_qr_scan", "android": "https://dc.lft.to/lastmile_qr_scan"}}, {"type": "electric_bike", "name": "493147fce06723a19217688a1e0bc0dc", "fusion_lon": 0.0, "is_reserved": 0, "lon": -76.97328183333333, "fusion_lat": 0.0, "is_disabled": 0, "bike_id": "493147fce06723a19217688a1e0bc0dc", "lat": 38.904759166666665, "rental_uris": {"ios": "https://dc.lft.to/lastmile_qr_scan", "android": "https://dc.lft.to/lastmile_qr_scan"}}, {"type": "electric_scooter", "name": "d2959a1ad535c6e064b92be5816a8e91", "fusion_lon": 0.0, "is_reserved": 0, "lon": -77.0241015, "fusion_lat": 0.0, "is_disabled": 0, "bike_id": "d2959a1ad535c6e064b92be5816a8e91", "lat": 38.926069166666665, "rental_uris": {"ios": "https://dc.lft.to/lastmile_qr_scan", "android": "https://dc.lft.to/lastmile_qr_scan"}}, {"type": "electric_scooter", "name": "12a41642372d8d7c9c6d275c5ea2ec17", "fusion_lon": 0.0, "is_reserved": 0, "lon": -77.043202, "fusion_lat": 0.0, "is_disabled": 0, "bike_id": "12a41642372d8d7c9c6d275c5ea2ec17", "lat": 38.908751, "rental_uris": {"ios": "https://dc.lft.to/lastmile_qr_scan", "android": "https://dc.lft.to/lastmile_qr_scan"}}, {"type": "electric_scooter", "name": "2c242f40fa20153f4d200f8abe254615", "fusion_lon": 0.0, "is_reserved": 0, "lon": -77.03213383333333, "fusion_lat": 0.0, "is_disabled": 0, "bike_id": "2c242f40fa20153f4d200f8abe254615", "lat": 38.9180115, "rental_uris": {"ios": "https://dc.lft.to/lastmile_qr_scan", "android": "https://dc.lft.to/lastmile_qr_scan"}}, {"type": "electric_scooter", "name": "7d9ac8b12d8be6d9724ce8b5037640bc", "fusion_lon": 0.0, "is_reserved": 0, "lon": -77.04042716666666, "fusion_lat": 0.0, "is_disabled": 0, "bike_id": "7d9ac8b12d8be6d9724ce8b5037640bc", "lat": 38.90367466666667, "rental_uris": {"ios": "https://dc.lft.to/lastmile_qr_scan", "android": "https://dc.lft.to/lastmile_qr_scan"}}, {"type": "electric_scooter", "name": "b6fe6d84e7000231a646a6695f398d05", "fusion_lon": 0.0, "is_reserved": 0, "lon": -77.0320765, "fusion_lat": 0.0, "is_disabled": 0, "bike_id": "b6fe6d84e7000231a646a6695f398d05", "lat": 38.92172266666667, "rental_uris": {"ios": "https://dc.lft.to/lastmile_qr_scan", "android": "https://dc.lft.to/lastmile_qr_scan"}}, {"type": "electric_scooter", "name": "123e09db69151987ef32dea84b10d2ed", "fusion_lon": 0.0, "is_reserved": 0, "lon": -77.03332583333334, "fusion_lat": 0.0, "is_disabled": 0, "bike_id": "123e09db69151987ef32dea84b10d2ed", "lat": 38.921088166666664, "rental_uris": {"ios": "https://dc.lft.to/lastmile_qr_scan", "android": "https://dc.lft.to/lastmile_qr_scan"}}, {"type": "electric_scooter", "name": "1d9ba23490a54bdc0f75bf75d27e5b59", "fusion_lon": 0.0, "is_reserved": 0, "lon": -77.05075116666667, "fusion_lat": 0.0, "is_disabled": 0, "bike_id": "1d9ba23490a54bdc0f75bf75d27e5b59", "lat": 38.923575666666665, "rental_uris": {"ios": "https://dc.lft.to/lastmile_qr_scan", "android": "https://dc.lft.to/lastmile_qr_scan"}}, {"type": "electric_scooter", "name": "3aec1f72a1ece1b7801843ad2809eb3b", "fusion_lon": 0.0, "is_reserved": 0, "lon": -77.013031, "fusion_lat": 0.0, "is_disabled": 0, "bike_id": "3aec1f72a1ece1b7801843ad2809eb3b", "lat": 38.930014666666665, "rental_uris": {"ios": "https://dc.lft.to/lastmile_qr_scan", "android": "https://dc.lft.to/lastmile_qr_scan"}}, {"type": "electric_scooter", "name": "86277d96520bb2e10f6ee7ad72d26d66", "fusion_lon": 0.0, "is_reserved": 0, "lon": -77.03845266666667, "fusion_lat": 0.0, "is_disabled": 0, "bike_id": "86277d96520bb2e10f6ee7ad72d26d66", "lat": 38.90249983333333, "rental_uris": {"ios": "https://dc.lft.to/lastmile_qr_scan", "android": "https://dc.lft.to/lastmile_qr_scan"}}, {"type": "electric_scooter", "name": "1b8a9252db18628e6f2d49914e765c19", "fusion_lon": 0.0, "is_reserved": 0, "lon": -77.0437235, "fusion_lat": 0.0, "is_disabled": 0, "bike_id": "1b8a9252db18628e6f2d49914e765c19", "lat": 38.89226, "rental_uris": {"ios": "https://dc.lft.to/lastmile_qr_scan", "android": "https://dc.lft.to/lastmile_qr_scan"}}, {"type": "electric_scooter", "name": "ee27b3d59e1d5b1c2be242b965bb1187", "fusion_lon": 0.0, "is_reserved": 0, "lon": -77.02687483333334, "fusion_lat": 0.0, "is_disabled": 0, "bike_id": "ee27b3d59e1d5b1c2be242b965bb1187", "lat": 38.900945666666665, "rental_uris": {"ios": "https://dc.lft.to/lastmile_qr_scan", "android": "https://dc.lft.to/lastmile_qr_scan"}}, {"type": "electric_scooter", "name": "f43cf6d9f613c29fd968da6cf4f56efc", "fusion_lon": 0.0, "is_reserved": 0, "lon": -77.00543466666667, "fusion_lat": 0.0, "is_disabled": 0, "bike_id": "f43cf6d9f613c29fd968da6cf4f56efc", "lat": 38.874581, "rental_uris": {"ios": "https://dc.lft.to/lastmile_qr_scan", "android": "https://dc.lft.to/lastmile_qr_scan"}}, {"type": "electric_scooter", "name": "ce3c02e835617cfc05e9ad0e4b65488a", "fusion_lon": 0.0, "is_reserved": 0, "lon": -76.97304066666666, "fusion_lat": 0.0, "is_disabled": 0, "bike_id": "ce3c02e835617cfc05e9ad0e4b65488a", "lat": 38.919893, "rental_uris": {"ios": "https://dc.lft.to/lastmile_qr_scan", "android": "https://dc.lft.to/lastmile_qr_scan"}}, {"type": "electric_scooter", "name": "b156e251d603455db73621cf4ab5d4fc", "fusion_lon": 0.0, "is_reserved": 0, "lon": -77.03217683333334, "fusion_lat": 0.0, "is_disabled": 0, "bike_id": "b156e251d603455db73621cf4ab5d4fc", "lat": 38.9200845, "rental_uris": {"ios": "https://dc.lft.to/lastmile_qr_scan", "android": "https://dc.lft.to/lastmile_qr_scan"}}, {"type": "electric_scooter", "name": "6709cdfdd31aef5428c186e03996f9cf", "fusion_lon": 0.0, "is_reserved": 0, "lon": -77.03822116666667, "fusion_lat": 0.0, "is_disabled": 0, "bike_id": "6709cdfdd31aef5428c186e03996f9cf", "lat": 38.90790116666667, "rental_uris": {"ios": "https://dc.lft.to/lastmile_qr_scan", "android": "https://dc.lft.to/lastmile_qr_scan"}}, {"type": "electric_scooter", "name": "bf9fb29253438f7fc85c157706a68322", "fusion_lon": 0.0, "is_reserved": 0, "lon": -77.04280883333334, "fusion_lat": 0.0, "is_disabled": 0, "bike_id": "bf9fb29253438f7fc85c157706a68322", "lat": 38.922881, "rental_uris": {"ios": "https://dc.lft.to/lastmile_qr_scan", "android": "https://dc.lft.to/lastmile_qr_scan"}}, {"type": "electric_scooter", "name": "2232972c4d3cc385f2b51d8de975a8ce", "fusion_lon": 0.0, "is_reserved": 0, "lon": -77.02181066666667, "fusion_lat": 0.0, "is_disabled": 0, "bike_id": "2232972c4d3cc385f2b51d8de975a8ce", "lat": 38.90717266666667, "rental_uris": {"ios": "https://dc.lft.to/lastmile_qr_scan", "android": "https://dc.lft.to/lastmile_qr_scan"}}, {"type": "electric_scooter", "name": "2cdd1f3a7d7a759762b6ab5d0b780943", "fusion_lon": 0.0, "is_reserved": 0, "lon": -77.047883, "fusion_lat": 0.0, "is_disabled": 0, "bike_id": "2cdd1f3a7d7a759762b6ab5d0b780943", "lat": 38.893840833333336, "rental_uris": {"ios": "https://dc.lft.to/lastmile_qr_scan", "android": "https://dc.lft.to/lastmile_qr_scan"}}, {"type": "electric_scooter", "name": "d5119289ce96b5f4b3a5bd704cad2736", "fusion_lon": 0.0, "is_reserved": 0, "lon": -77.00797266666666, "fusion_lat": 0.0, "is_disabled": 0, "bike_id": "d5119289ce96b5f4b3a5bd704cad2736", "lat": 38.89718283333333, "rental_uris": {"ios": "https://dc.lft.to/lastmile_qr_scan", "android": "https://dc.lft.to/lastmile_qr_scan"}}, {"type": "electric_scooter", "name": "ad14d119e659f8c2d0c1e3204b647d53", "fusion_lon": 0.0, "is_reserved": 0, "lon": -77.05251866666667, "fusion_lat": 0.0, "is_disabled": 0, "bike_id": "ad14d119e659f8c2d0c1e3204b647d53", "lat": 38.9251175, "rental_uris": {"ios": "https://dc.lft.to/lastmile_qr_scan", "android": "https://dc.lft.to/lastmile_qr_scan"}}, {"type": "electric_scooter", "name": "54438e0dd197809be5e99708a99447d9", "fusion_lon": 0.0, "is_reserved": 0, "lon": -77.04496133333333, "fusion_lat": 0.0, "is_disabled": 0, "bike_id": "54438e0dd197809be5e99708a99447d9", "lat": 38.9223615, "rental_uris": {"ios": "https://dc.lft.to/lastmile_qr_scan", "android": "https://dc.lft.to/lastmile_qr_scan"}}, {"type": "electric_scooter", "name": "4aa98469bb127d7bae11f1adcf5d7b5c", "fusion_lon": 0.0, "is_reserved": 0, "lon": -77.03449566666667, "fusion_lat": 0.0, "is_disabled": 0, "bike_id": "4aa98469bb127d7bae11f1adcf5d7b5c", "lat": 38.91797116666667, "rental_uris": {"ios": "https://dc.lft.to/lastmile_qr_scan", "android": "https://dc.lft.to/lastmile_qr_scan"}}, {"type": "electric_scooter", "name": "0a1b49e60e6f98b01febcee0090f2857", "fusion_lon": 0.0, "is_reserved": 0, "lon": -76.98441783333334, "fusion_lat": 0.0, "is_disabled": 0, "bike_id": "0a1b49e60e6f98b01febcee0090f2857", "lat": 38.931089666666665, "rental_uris": {"ios": "https://dc.lft.to/lastmile_qr_scan", "android": "https://dc.lft.to/lastmile_qr_scan"}}, {"type": "electric_scooter", "name": "d03aa9f8668455069ffb733c068cd99f", "fusion_lon": 0.0, "is_reserved": 0, "lon": -77.0298325, "fusion_lat": 0.0, "is_disabled": 0, "bike_id": "d03aa9f8668455069ffb733c068cd99f", "lat": 38.89619366666667, "rental_uris": {"ios": "https://dc.lft.to/lastmile_qr_scan", "android": "https://dc.lft.to/lastmile_qr_scan"}}, {"type": "electric_scooter", "name": "d894b5571dd5a113ee58a671641066fc", "fusion_lon": 0.0, "is_reserved": 0, "lon": -77.018255, "fusion_lat": 0.0, "is_disabled": 0, "bike_id": "d894b5571dd5a113ee58a671641066fc", "lat": 38.92272666666667, "rental_uris": {"ios": "https://dc.lft.to/lastmile_qr_scan", "android": "https://dc.lft.to/lastmile_qr_scan"}}, {"type": "electric_bike", "name": "33273efe2e5e364b24ec71a3782e9aeb", "fusion_lon": 0.0, "is_reserved": 0, "lon": -76.9761785, "fusion_lat": 0.0, "is_disabled": 0, "bike_id": "33273efe2e5e364b24ec71a3782e9aeb", "lat": 38.892927666666665, "rental_uris": {"ios": "https://dc.lft.to/lastmile_qr_scan", "android": "https://dc.lft.to/lastmile_qr_scan"}}, {"type": "electric_scooter", "name": "f820a34eeb791e19428691d5526585ad", "fusion_lon": 0.0, "is_reserved": 0, "lon": -77.03313666666666, "fusion_lat": 0.0, "is_disabled": 0, "bike_id": "f820a34eeb791e19428691d5526585ad", "lat": 38.901420333333334, "rental_uris": {"ios": "https://dc.lft.to/lastmile_qr_scan", "android": "https://dc.lft.to/lastmile_qr_scan"}}, {"type": "electric_scooter", "name": "b1bf1395d4af646bea7033ed1d19efba", "fusion_lon": 0.0, "is_reserved": 0, "lon": -77.02304833333334, "fusion_lat": 0.0, "is_disabled": 0, "bike_id": "b1bf1395d4af646bea7033ed1d19efba", "lat": 38.925151, "rental_uris": {"ios": "https://dc.lft.to/lastmile_qr_scan", "android": "https://dc.lft.to/lastmile_qr_scan"}}, {"type": "electric_scooter", "name": "4023bfd78ee9b56e42f8ef2d9abc85cc", "fusion_lon": 0.0, "is_reserved": 0, "lon": -77.033077, "fusion_lat": 0.0, "is_disabled": 0, "bike_id": "4023bfd78ee9b56e42f8ef2d9abc85cc", "lat": 38.897485333333336, "rental_uris": {"ios": "https://dc.lft.to/lastmile_qr_scan", "android": "https://dc.lft.to/lastmile_qr_scan"}}, {"type": "electric_scooter", "name": "bb813e76a088a2c09ffb92dbd0615931", "fusion_lon": 0.0, "is_reserved": 0, "lon": -77.00710033333333, "fusion_lat": 0.0, "is_disabled": 0, "bike_id": "bb813e76a088a2c09ffb92dbd0615931", "lat": 38.88493616666667, "rental_uris": {"ios": "https://dc.lft.to/lastmile_qr_scan", "android": "https://dc.lft.to/lastmile_qr_scan"}}, {"type": "electric_scooter", "name": "68b9d62eb83e22317a91a2a12b28999f", "fusion_lon": 0.0, "is_reserved": 0, "lon": -77.03255616666667, "fusion_lat": 0.0, "is_disabled": 0, "bike_id": "68b9d62eb83e22317a91a2a12b28999f", "lat": 38.91814166666666, "rental_uris": {"ios": "https://dc.lft.to/lastmile_qr_scan", "android": "https://dc.lft.to/lastmile_qr_scan"}}, {"type": "electric_scooter", "name": "a65a027a77c1a0166655894e8891c722", "fusion_lon": 0.0, "is_reserved": 0, "lon": -77.03208083333334, "fusion_lat": 0.0, "is_disabled": 0, "bike_id": "a65a027a77c1a0166655894e8891c722", "lat": 38.91554383333333, "rental_uris": {"ios": "https://dc.lft.to/lastmile_qr_scan", "android": "https://dc.lft.to/lastmile_qr_scan"}}, {"type": "electric_scooter", "name": "99f992b6fa253f6e572a4847561f3020", "fusion_lon": 0.0, "is_reserved": 0, "lon": -77.02337433333334, "fusion_lat": 0.0, "is_disabled": 0, "bike_id": "99f992b6fa253f6e572a4847561f3020", "lat": 38.89224933333333, "rental_uris": {"ios": "https://dc.lft.to/lastmile_qr_scan", "android": "https://dc.lft.to/lastmile_qr_scan"}}, {"type": "electric_scooter", "name": "801e529041c8cf9e26174d0ffdae0b17", "fusion_lon": 0.0, "is_reserved": 0, "lon": -76.989225, "fusion_lat": 0.0, "is_disabled": 0, "bike_id": "801e529041c8cf9e26174d0ffdae0b17", "lat": 38.87081466666667, "rental_uris": {"ios": "https://dc.lft.to/lastmile_qr_scan", "android": "https://dc.lft.to/lastmile_qr_scan"}}, {"type": "electric_scooter", "name": "402dd9863c7ec19426b84e33d8e9a19b", "fusion_lon": 0.0, "is_reserved": 0, "lon": -77.00591216666666, "fusion_lat": 0.0, "is_disabled": 0, "bike_id": "402dd9863c7ec19426b84e33d8e9a19b", "lat": 38.88264383333333, "rental_uris": {"ios": "https://dc.lft.to/lastmile_qr_scan", "android": "https://dc.lft.to/lastmile_qr_scan"}}, {"type": "electric_scooter", "name": "36af0b069d5dd183d5c7810cfe109519", "fusion_lon": 0.0, "is_reserved": 0, "lon": -77.03560766666666, "fusion_lat": 0.0, "is_disabled": 0, "bike_id": "36af0b069d5dd183d5c7810cfe109519", "lat": 38.926910666666664, "rental_uris": {"ios": "https://dc.lft.to/lastmile_qr_scan", "android": "https://dc.lft.to/lastmile_qr_scan"}}, {"type": "electric_scooter", "name": "37c99d0f0b86c7d765320e7852832bf5", "fusion_lon": 0.0, "is_reserved": 0, "lon": -77.01980516666667, "fusion_lat": 0.0, "is_disabled": 0, "bike_id": "37c99d0f0b86c7d765320e7852832bf5", "lat": 38.9452205, "rental_uris": {"ios": "https://dc.lft.to/lastmile_qr_scan", "android": "https://dc.lft.to/lastmile_qr_scan"}}, {"type": "electric_scooter", "name": "0c5b13bdb13a7b1bf968741630bb6ebf", "fusion_lon": 0.0, "is_reserved": 0, "lon": -77.02201683333334, "fusion_lat": 0.0, "is_disabled": 0, "bike_id": "0c5b13bdb13a7b1bf968741630bb6ebf", "lat": 38.91010816666667, "rental_uris": {"ios": "https://dc.lft.to/lastmile_qr_scan", "android": "https://dc.lft.to/lastmile_qr_scan"}}, {"type": "electric_scooter", "name": "12820c7154d82e200f2b1e755625db45", "fusion_lon": 0.0, "is_reserved": 0, "lon": -77.03119733333334, "fusion_lat": 0.0, "is_disabled": 0, "bike_id": "12820c7154d82e200f2b1e755625db45", "lat": 38.92306633333333, "rental_uris": {"ios": "https://dc.lft.to/lastmile_qr_scan", "android": "https://dc.lft.to/lastmile_qr_scan"}}, {"type": "electric_scooter", "name": "1d61503c294e8f36d10974414c180a2f", "fusion_lon": 0.0, "is_reserved": 0, "lon": -77.03920183333334, "fusion_lat": 0.0, "is_disabled": 0, "bike_id": "1d61503c294e8f36d10974414c180a2f", "lat": 38.906404333333334, "rental_uris": {"ios": "https://dc.lft.to/lastmile_qr_scan", "android": "https://dc.lft.to/lastmile_qr_scan"}}, {"type": "electric_bike", "name": "51235742ea999e69c1da3e774e60eabe", "fusion_lon": 0.0, "is_reserved": 0, "lon": -77.03610433333333, "fusion_lat": 0.0, "is_disabled": 0, "bike_id": "51235742ea999e69c1da3e774e60eabe", "lat": 38.922974333333336, "rental_uris": {"ios": "https://dc.lft.to/lastmile_qr_scan", "android": "https://dc.lft.to/lastmile_qr_scan"}}, {"type": "electric_scooter", "name": "79378e7eff400ebfbc79f834d54bdcbe", "fusion_lon": 0.0, "is_reserved": 0, "lon": -77.039344, "fusion_lat": 0.0, "is_disabled": 0, "bike_id": "79378e7eff400ebfbc79f834d54bdcbe", "lat": 38.90363883333333, "rental_uris": {"ios": "https://dc.lft.to/lastmile_qr_scan", "android": "https://dc.lft.to/lastmile_qr_scan"}}, {"type": "electric_scooter", "name": "dd44839f38cc9930a1073ba3c139ce5a", "fusion_lon": 0.0, "is_reserved": 0, "lon": -77.04319383333333, "fusion_lat": 0.0, "is_disabled": 0, "bike_id": "dd44839f38cc9930a1073ba3c139ce5a", "lat": 38.9039375, "rental_uris": {"ios": "https://dc.lft.to/lastmile_qr_scan", "android": "https://dc.lft.to/lastmile_qr_scan"}}, {"type": "electric_scooter", "name": "89eacf26d38200aa836354f7c8416953", "fusion_lon": 0.0, "is_reserved": 0, "lon": -77.03670966666667, "fusion_lat": 0.0, "is_disabled": 0, "bike_id": "89eacf26d38200aa836354f7c8416953", "lat": 38.923221166666664, "rental_uris": {"ios": "https://dc.lft.to/lastmile_qr_scan", "android": "https://dc.lft.to/lastmile_qr_scan"}}, {"type": "electric_scooter", "name": "28f39acc5d592b12b466bcbfbecdf53e", "fusion_lon": 0.0, "is_reserved": 0, "lon": -77.033272, "fusion_lat": 0.0, "is_disabled": 0, "bike_id": "28f39acc5d592b12b466bcbfbecdf53e", "lat": 38.90864766666667, "rental_uris": {"ios": "https://dc.lft.to/lastmile_qr_scan", "android": "https://dc.lft.to/lastmile_qr_scan"}}, {"type": "electric_scooter", "name": "aace9a1c3bf97621309907d55cfc8290", "fusion_lon": 0.0, "is_reserved": 0, "lon": -77.056581, "fusion_lat": 0.0, "is_disabled": 0, "bike_id": "aace9a1c3bf97621309907d55cfc8290", "lat": 38.89546466666667, "rental_uris": {"ios": "https://dc.lft.to/lastmile_qr_scan", "android": "https://dc.lft.to/lastmile_qr_scan"}}, {"type": "electric_scooter", "name": "351a7e66e92539c38d1c0ecbf46c8fa0", "fusion_lon": 0.0, "is_reserved": 0, "lon": -77.02107216666667, "fusion_lat": 0.0, "is_disabled": 0, "bike_id": "351a7e66e92539c38d1c0ecbf46c8fa0", "lat": 38.911136, "rental_uris": {"ios": "https://dc.lft.to/lastmile_qr_scan", "android": "https://dc.lft.to/lastmile_qr_scan"}}, {"type": "electric_scooter", "name": "2e86b22984d8a9d52aef3909511aaaf9", "fusion_lon": 0.0, "is_reserved": 0, "lon": -77.04185183333334, "fusion_lat": 0.0, "is_disabled": 0, "bike_id": "2e86b22984d8a9d52aef3909511aaaf9", "lat": 38.9058095, "rental_uris": {"ios": "https://dc.lft.to/lastmile_qr_scan", "android": "https://dc.lft.to/lastmile_qr_scan"}}, {"type": "electric_bike", "name": "192ca5aaabf003ac78f0054161876a34", "fusion_lon": 0.0, "is_reserved": 0, "lon": -77.02975766666667, "fusion_lat": 0.0, "is_disabled": 0, "bike_id": "192ca5aaabf003ac78f0054161876a34", "lat": 38.93700233333333, "rental_uris": {"ios": "https://dc.lft.to/lastmile_qr_scan", "android": "https://dc.lft.to/lastmile_qr_scan"}}, {"type": "electric_bike", "name": "7625dabbd6ec90b27bdc4b187e91c152", "fusion_lon": 0.0, "is_reserved": 0, "lon": -77.040236, "fusion_lat": 0.0, "is_disabled": 0, "bike_id": "7625dabbd6ec90b27bdc4b187e91c152", "lat": 38.90841483333333, "rental_uris": {"ios": "https://dc.lft.to/lastmile_qr_scan", "android": "https://dc.lft.to/lastmile_qr_scan"}}, {"type": "electric_scooter", "name": "ab6a91c4d563d5ba88b70de3fefb0ab5", "fusion_lon": 0.0, "is_reserved": 0, "lon": -77.07414016666667, "fusion_lat": 0.0, "is_disabled": 0, "bike_id": "ab6a91c4d563d5ba88b70de3fefb0ab5", "lat": 38.908354, "rental_uris": {"ios": "https://dc.lft.to/lastmile_qr_scan", "android": "https://dc.lft.to/lastmile_qr_scan"}}, {"type": "electric_bike", "name": "94dd3b3e32f1ffd3b653c79d36b4061b", "fusion_lon": 0.0, "is_reserved": 0, "lon": -77.12362433333334, "fusion_lat": 0.0, "is_disabled": 0, "bike_id": "94dd3b3e32f1ffd3b653c79d36b4061b", "lat": 38.829496, "rental_uris": {"ios": "https://dc.lft.to/lastmile_qr_scan", "android": "https://dc.lft.to/lastmile_qr_scan"}}, {"type": "electric_scooter", "name": "60312dd3062115a0292a935eab91f41b", "fusion_lon": 0.0, "is_reserved": 0, "lon": -77.03817066666667, "fusion_lat": 0.0, "is_disabled": 0, "bike_id": "60312dd3062115a0292a935eab91f41b", "lat": 38.936100333333336, "rental_uris": {"ios": "https://dc.lft.to/lastmile_qr_scan", "android": "https://dc.lft.to/lastmile_qr_scan"}}, {"type": "electric_bike", "name": "953b8af85b29b7fd31e233f7c458f25d", "fusion_lon": 0.0, "is_reserved": 0, "lon": -77.0264665, "fusion_lat": 0.0, "is_disabled": 0, "bike_id": "953b8af85b29b7fd31e233f7c458f25d", "lat": 38.98228266666667, "rental_uris": {"ios": "https://dc.lft.to/lastmile_qr_scan", "android": "https://dc.lft.to/lastmile_qr_scan"}}, {"type": "electric_scooter", "name": "7361fc7c25e4628ac0cf760eecdd8101", "fusion_lon": 0.0, "is_reserved": 0, "lon": -76.98942366666667, "fusion_lat": 0.0, "is_disabled": 0, "bike_id": "7361fc7c25e4628ac0cf760eecdd8101", "lat": 38.920488166666665, "rental_uris": {"ios": "https://dc.lft.to/lastmile_qr_scan", "android": "https://dc.lft.to/lastmile_qr_scan"}}, {"type": "electric_scooter", "name": "293b7efacf9d9cfcf35a5685d06e01ba", "fusion_lon": 0.0, "is_reserved": 0, "lon": -76.99485566666667, "fusion_lat": 0.0, "is_disabled": 0, "bike_id": "293b7efacf9d9cfcf35a5685d06e01ba", "lat": 38.8621895, "rental_uris": {"ios": "https://dc.lft.to/lastmile_qr_scan", "android": "https://dc.lft.to/lastmile_qr_scan"}}, {"type": "electric_scooter", "name": "0647ec1daf15e9807803d9221e6c94bf", "fusion_lon": 0.0, "is_reserved": 0, "lon": -77.0413075, "fusion_lat": 0.0, "is_disabled": 0, "bike_id": "0647ec1daf15e9807803d9221e6c94bf", "lat": 38.92367683333333, "rental_uris": {"ios": "https://dc.lft.to/lastmile_qr_scan", "android": "https://dc.lft.to/lastmile_qr_scan"}}, {"type": "electric_scooter", "name": "45315bdbc00af0830d2f32cd37baa55e", "fusion_lon": 0.0, "is_reserved": 0, "lon": -77.02277433333333, "fusion_lat": 0.0, "is_disabled": 0, "bike_id": "45315bdbc00af0830d2f32cd37baa55e", "lat": 38.917828, "rental_uris": {"ios": "https://dc.lft.to/lastmile_qr_scan", "android": "https://dc.lft.to/lastmile_qr_scan"}}, {"type": "electric_scooter", "name": "624fa78420a7ec6d8571a2f719cee169", "fusion_lon": 0.0, "is_reserved": 0, "lon": -77.03937516666667, "fusion_lat": 0.0, "is_disabled": 0, "bike_id": "624fa78420a7ec6d8571a2f719cee169", "lat": 38.900081166666666, "rental_uris": {"ios": "https://dc.lft.to/lastmile_qr_scan", "android": "https://dc.lft.to/lastmile_qr_scan"}}, {"type": "electric_scooter", "name": "1111a4f26681012a85294ae8f440a7ba", "fusion_lon": 0.0, "is_reserved": 0, "lon": -77.03182883333334, "fusion_lat": 0.0, "is_disabled": 0, "bike_id": "1111a4f26681012a85294ae8f440a7ba", "lat": 38.914545, "rental_uris": {"ios": "https://dc.lft.to/lastmile_qr_scan", "android": "https://dc.lft.to/lastmile_qr_scan"}}, {"type": "electric_scooter", "name": "af1e0f94f8907e5cb9722c35b2628841", "fusion_lon": 0.0, "is_reserved": 0, "lon": -77.04005766666667, "fusion_lat": 0.0, "is_disabled": 0, "bike_id": "af1e0f94f8907e5cb9722c35b2628841", "lat": 38.910065333333336, "rental_uris": {"ios": "https://dc.lft.to/lastmile_qr_scan", "android": "https://dc.lft.to/lastmile_qr_scan"}}, {"type": "electric_scooter", "name": "62ec22bc52617d9111af8ce11d08d795", "fusion_lon": 0.0, "is_reserved": 0, "lon": -77.05918366666667, "fusion_lat": 0.0, "is_disabled": 0, "bike_id": "62ec22bc52617d9111af8ce11d08d795", "lat": 38.902727666666664, "rental_uris": {"ios": "https://dc.lft.to/lastmile_qr_scan", "android": "https://dc.lft.to/lastmile_qr_scan"}}, {"type": "electric_scooter", "name": "277f68d20fa8bc35954cfa6d33773b8e", "fusion_lon": 0.0, "is_reserved": 0, "lon": -77.02090366666667, "fusion_lat": 0.0, "is_disabled": 0, "bike_id": "277f68d20fa8bc35954cfa6d33773b8e", "lat": 38.92154766666667, "rental_uris": {"ios": "https://dc.lft.to/lastmile_qr_scan", "android": "https://dc.lft.to/lastmile_qr_scan"}}, {"type": "electric_scooter", "name": "f708c21bfd0d804390a83a8a1c62dd84", "fusion_lon": 0.0, "is_reserved": 0, "lon": -77.04336033333334, "fusion_lat": 0.0, "is_disabled": 0, "bike_id": "f708c21bfd0d804390a83a8a1c62dd84", "lat": 38.92153283333333, "rental_uris": {"ios": "https://dc.lft.to/lastmile_qr_scan", "android": "https://dc.lft.to/lastmile_qr_scan"}}, {"type": "electric_scooter", "name": "5c14a4a04a88c490e53b9fda7546ea3b", "fusion_lon": 0.0, "is_reserved": 0, "lon": -77.02146033333334, "fusion_lat": 0.0, "is_disabled": 0, "bike_id": "5c14a4a04a88c490e53b9fda7546ea3b", "lat": 38.924437, "rental_uris": {"ios": "https://dc.lft.to/lastmile_qr_scan", "android": "https://dc.lft.to/lastmile_qr_scan"}}, {"type": "electric_scooter", "name": "148111b2170c3e5b11063f62116efb0d", "fusion_lon": 0.0, "is_reserved": 0, "lon": -77.03658616666667, "fusion_lat": 0.0, "is_disabled": 0, "bike_id": "148111b2170c3e5b11063f62116efb0d", "lat": 38.921263833333335, "rental_uris": {"ios": "https://dc.lft.to/lastmile_qr_scan", "android": "https://dc.lft.to/lastmile_qr_scan"}}, {"type": "electric_scooter", "name": "0ec2732b640ba9e58fc9cd154aee5b80", "fusion_lon": 0.0, "is_reserved": 0, "lon": -77.07163016666667, "fusion_lat": 0.0, "is_disabled": 0, "bike_id": "0ec2732b640ba9e58fc9cd154aee5b80", "lat": 38.90874683333333, "rental_uris": {"ios": "https://dc.lft.to/lastmile_qr_scan", "android": "https://dc.lft.to/lastmile_qr_scan"}}, {"type": "electric_scooter", "name": "b7eee1ea871404ccc18068328dfd89e1", "fusion_lon": 0.0, "is_reserved": 0, "lon": -76.995112, "fusion_lat": 0.0, "is_disabled": 0, "bike_id": "b7eee1ea871404ccc18068328dfd89e1", "lat": 38.862573833333336, "rental_uris": {"ios": "https://dc.lft.to/lastmile_qr_scan", "android": "https://dc.lft.to/lastmile_qr_scan"}}, {"type": "electric_scooter", "name": "939243339e56db4c53af29bff02ea0b8", "fusion_lon": 0.0, "is_reserved": 0, "lon": -77.0317995, "fusion_lat": 0.0, "is_disabled": 0, "bike_id": "939243339e56db4c53af29bff02ea0b8", "lat": 38.90904483333333, "rental_uris": {"ios": "https://dc.lft.to/lastmile_qr_scan", "android": "https://dc.lft.to/lastmile_qr_scan"}}, {"type": "electric_bike", "name": "1a33acd7d12d0586e5525d7e5a8f07f2", "fusion_lon": 0.0, "is_reserved": 0, "lon": -76.96237266666667, "fusion_lat": 0.0, "is_disabled": 0, "bike_id": "1a33acd7d12d0586e5525d7e5a8f07f2", "lat": 38.88056483333333, "rental_uris": {"ios": "https://dc.lft.to/lastmile_qr_scan", "android": "https://dc.lft.to/lastmile_qr_scan"}}, {"type": "electric_bike", "name": "6f17879f668209e53a20bace970ede7a", "fusion_lon": 0.0, "is_reserved": 0, "lon": -77.0229175, "fusion_lat": 0.0, "is_disabled": 0, "bike_id": "6f17879f668209e53a20bace970ede7a", "lat": 38.9614215, "rental_uris": {"ios": "https://dc.lft.to/lastmile_qr_scan", "android": "https://dc.lft.to/lastmile_qr_scan"}}, {"type": "electric_bike", "name": "0e073e72db13f24ba5b27b6e1696afcb", "fusion_lon": 0.0, "is_reserved": 0, "lon": -77.233184, "fusion_lat": 0.0, "is_disabled": 0, "bike_id": "0e073e72db13f24ba5b27b6e1696afcb", "lat": 38.87279616666667, "rental_uris": {"ios": "https://dc.lft.to/lastmile_qr_scan", "android": "https://dc.lft.to/lastmile_qr_scan"}}, {"type": "electric_scooter", "name": "7dec8bb3e0520198f3ed873fb4623f68", "fusion_lon": 0.0, "is_reserved": 0, "lon": -76.99470366666667, "fusion_lat": 0.0, "is_disabled": 0, "bike_id": "7dec8bb3e0520198f3ed873fb4623f68", "lat": 38.862122166666666, "rental_uris": {"ios": "https://dc.lft.to/lastmile_qr_scan", "android": "https://dc.lft.to/lastmile_qr_scan"}}, {"type": "electric_scooter", "name": "2c4732ea4862899e922ebf7ed7a7271b", "fusion_lon": 0.0, "is_reserved": 0, "lon": -77.02145033333333, "fusion_lat": 0.0, "is_disabled": 0, "bike_id": "2c4732ea4862899e922ebf7ed7a7271b", "lat": 38.923934833333334, "rental_uris": {"ios": "https://dc.lft.to/lastmile_qr_scan", "android": "https://dc.lft.to/lastmile_qr_scan"}}, {"type": "electric_scooter", "name": "076fe190ddc63d183f8a1ef47f844930", "fusion_lon": 0.0, "is_reserved": 0, "lon": -77.0282025, "fusion_lat": 0.0, "is_disabled": 0, "bike_id": "076fe190ddc63d183f8a1ef47f844930", "lat": 38.88727983333333, "rental_uris": {"ios": "https://dc.lft.to/lastmile_qr_scan", "android": "https://dc.lft.to/lastmile_qr_scan"}}, {"type": "electric_scooter", "name": "95fe44d9138bd4495c4ef91896acede2", "fusion_lon": 0.0, "is_reserved": 0, "lon": -77.0568845, "fusion_lat": 0.0, "is_disabled": 0, "bike_id": "95fe44d9138bd4495c4ef91896acede2", "lat": 38.9060685, "rental_uris": {"ios": "https://dc.lft.to/lastmile_qr_scan", "android": "https://dc.lft.to/lastmile_qr_scan"}}, {"type": "electric_scooter", "name": "d24d055729aaad9274315294b3c524d0", "fusion_lon": 0.0, "is_reserved": 0, "lon": -77.005664, "fusion_lat": 0.0, "is_disabled": 0, "bike_id": "d24d055729aaad9274315294b3c524d0", "lat": 38.885154666666665, "rental_uris": {"ios": "https://dc.lft.to/lastmile_qr_scan", "android": "https://dc.lft.to/lastmile_qr_scan"}}, {"type": "electric_scooter", "name": "f9b7ba19f179591c28778b2369212d69", "fusion_lon": 0.0, "is_reserved": 0, "lon": -77.0274315, "fusion_lat": 0.0, "is_disabled": 0, "bike_id": "f9b7ba19f179591c28778b2369212d69", "lat": 38.92315466666667, "rental_uris": {"ios": "https://dc.lft.to/lastmile_qr_scan", "android": "https://dc.lft.to/lastmile_qr_scan"}}, {"type": "electric_scooter", "name": "96c05299a40a27d53b66dab969d63db2", "fusion_lon": 0.0, "is_reserved": 0, "lon": -77.02515433333333, "fusion_lat": 0.0, "is_disabled": 0, "bike_id": "96c05299a40a27d53b66dab969d63db2", "lat": 38.942053333333334, "rental_uris": {"ios": "https://dc.lft.to/lastmile_qr_scan", "android": "https://dc.lft.to/lastmile_qr_scan"}}, {"type": "electric_scooter", "name": "b379d2542210728e0b867b3891299407", "fusion_lon": 0.0, "is_reserved": 0, "lon": -76.98593883333334, "fusion_lat": 0.0, "is_disabled": 0, "bike_id": "b379d2542210728e0b867b3891299407", "lat": 38.8670415, "rental_uris": {"ios": "https://dc.lft.to/lastmile_qr_scan", "android": "https://dc.lft.to/lastmile_qr_scan"}}, {"type": "electric_scooter", "name": "3c3b8b66cc9f9da2ab577d731328fee6", "fusion_lon": 0.0, "is_reserved": 0, "lon": -77.048784, "fusion_lat": 0.0, "is_disabled": 0, "bike_id": "3c3b8b66cc9f9da2ab577d731328fee6", "lat": 38.89323316666667, "rental_uris": {"ios": "https://dc.lft.to/lastmile_qr_scan", "android": "https://dc.lft.to/lastmile_qr_scan"}}, {"type": "electric_scooter", "name": "b3dda618b333beb66b7fa9efde12c9a1", "fusion_lon": 0.0, "is_reserved": 0, "lon": -77.0383275, "fusion_lat": 0.0, "is_disabled": 0, "bike_id": "b3dda618b333beb66b7fa9efde12c9a1", "lat": 38.90377266666667, "rental_uris": {"ios": "https://dc.lft.to/lastmile_qr_scan", "android": "https://dc.lft.to/lastmile_qr_scan"}}, {"type": "electric_scooter", "name": "81406efcc9ea83c0125a181a28e803a5", "fusion_lon": 0.0, "is_reserved": 0, "lon": -77.03138883333334, "fusion_lat": 0.0, "is_disabled": 0, "bike_id": "81406efcc9ea83c0125a181a28e803a5", "lat": 38.905393333333336, "rental_uris": {"ios": "https://dc.lft.to/lastmile_qr_scan", "android": "https://dc.lft.to/lastmile_qr_scan"}}, {"type": "electric_bike", "name": "6a501e8d0f80b29f2c563149e887cb80", "fusion_lon": 0.0, "is_reserved": 0, "lon": -77.22792233333334, "fusion_lat": 0.0, "is_disabled": 0, "bike_id": "6a501e8d0f80b29f2c563149e887cb80", "lat": 38.9100995, "rental_uris": {"ios": "https://dc.lft.to/lastmile_qr_scan", "android": "https://dc.lft.to/lastmile_qr_scan"}}, {"type": "electric_scooter", "name": "43dc6c360a5dab317ad3574ff7ed2498", "fusion_lon": 0.0, "is_reserved": 0, "lon": -77.03989583333333, "fusion_lat": 0.0, "is_disabled": 0, "bike_id": "43dc6c360a5dab317ad3574ff7ed2498", "lat": 38.934075666666665, "rental_uris": {"ios": "https://dc.lft.to/lastmile_qr_scan", "android": "https://dc.lft.to/lastmile_qr_scan"}}, {"type": "electric_scooter", "name": "63a6722feed555e21686702e9897898c", "fusion_lon": 0.0, "is_reserved": 0, "lon": -77.0499945, "fusion_lat": 0.0, "is_disabled": 0, "bike_id": "63a6722feed555e21686702e9897898c", "lat": 38.8923305, "rental_uris": {"ios": "https://dc.lft.to/lastmile_qr_scan", "android": "https://dc.lft.to/lastmile_qr_scan"}}, {"type": "electric_scooter", "name": "95190c1a9e57ebe145d3de5f794b9bda", "fusion_lon": 0.0, "is_reserved": 0, "lon": -76.9950835, "fusion_lat": 0.0, "is_disabled": 0, "bike_id": "95190c1a9e57ebe145d3de5f794b9bda", "lat": 38.886034, "rental_uris": {"ios": "https://dc.lft.to/lastmile_qr_scan", "android": "https://dc.lft.to/lastmile_qr_scan"}}, {"type": "electric_scooter", "name": "845ee55e117876bbf033848de9375ea9", "fusion_lon": 0.0, "is_reserved": 0, "lon": -77.04202366666667, "fusion_lat": 0.0, "is_disabled": 0, "bike_id": "845ee55e117876bbf033848de9375ea9", "lat": 38.90678316666666, "rental_uris": {"ios": "https://dc.lft.to/lastmile_qr_scan", "android": "https://dc.lft.to/lastmile_qr_scan"}}, {"type": "electric_scooter", "name": "4b66bc48c6df77bd97bfeecf0eb4467b", "fusion_lon": 0.0, "is_reserved": 0, "lon": -77.03191183333334, "fusion_lat": 0.0, "is_disabled": 0, "bike_id": "4b66bc48c6df77bd97bfeecf0eb4467b", "lat": 38.913288666666666, "rental_uris": {"ios": "https://dc.lft.to/lastmile_qr_scan", "android": "https://dc.lft.to/lastmile_qr_scan"}}, {"type": "electric_scooter", "name": "d58dcbfed71f7fb7084d80e79001c955", "fusion_lon": 0.0, "is_reserved": 0, "lon": -77.044704, "fusion_lat": 0.0, "is_disabled": 0, "bike_id": "d58dcbfed71f7fb7084d80e79001c955", "lat": 38.896168833333334, "rental_uris": {"ios": "https://dc.lft.to/lastmile_qr_scan", "android": "https://dc.lft.to/lastmile_qr_scan"}}, {"type": "electric_scooter", "name": "c1b984366c0ac0c57988b733ad30bce4", "fusion_lon": 0.0, "is_reserved": 0, "lon": -77.03412066666667, "fusion_lat": 0.0, "is_disabled": 0, "bike_id": "c1b984366c0ac0c57988b733ad30bce4", "lat": 38.919251333333335, "rental_uris": {"ios": "https://dc.lft.to/lastmile_qr_scan", "android": "https://dc.lft.to/lastmile_qr_scan"}}, {"type": "electric_bike", "name": "fc4574f105fd9a69c13af7c268bd8a21", "fusion_lon": 0.0, "is_reserved": 0, "lon": -77.185631, "fusion_lat": 0.0, "is_disabled": 0, "bike_id": "fc4574f105fd9a69c13af7c268bd8a21", "lat": 38.929679166666666, "rental_uris": {"ios": "https://dc.lft.to/lastmile_qr_scan", "android": "https://dc.lft.to/lastmile_qr_scan"}}, {"type": "electric_scooter", "name": "9bf31a10b56b04335cea62f4af6870cd", "fusion_lon": 0.0, "is_reserved": 0, "lon": -77.03433966666667, "fusion_lat": 0.0, "is_disabled": 0, "bike_id": "9bf31a10b56b04335cea62f4af6870cd", "lat": 38.933272, "rental_uris": {"ios": "https://dc.lft.to/lastmile_qr_scan", "android": "https://dc.lft.to/lastmile_qr_scan"}}, {"type": "electric_bike", "name": "457302434c546dc8a697f46e0148a7e6", "fusion_lon": 0.0, "is_reserved": 0, "lon": -77.0464925, "fusion_lat": 0.0, "is_disabled": 0, "bike_id": "457302434c546dc8a697f46e0148a7e6", "lat": 39.055031666666665, "rental_uris": {"ios": "https://dc.lft.to/lastmile_qr_scan", "android": "https://dc.lft.to/lastmile_qr_scan"}}, {"type": "electric_scooter", "name": "ff746c3d8204862a8d7b2c60339fe238", "fusion_lon": 0.0, "is_reserved": 0, "lon": -77.02403, "fusion_lat": 0.0, "is_disabled": 0, "bike_id": "ff746c3d8204862a8d7b2c60339fe238", "lat": 38.91985733333333, "rental_uris": {"ios": "https://dc.lft.to/lastmile_qr_scan", "android": "https://dc.lft.to/lastmile_qr_scan"}}, {"type": "electric_scooter", "name": "cd2015e159cb6b4a96ba229e64bc5a84", "fusion_lon": 0.0, "is_reserved": 0, "lon": -77.05795616666667, "fusion_lat": 0.0, "is_disabled": 0, "bike_id": "cd2015e159cb6b4a96ba229e64bc5a84", "lat": 38.90277433333333, "rental_uris": {"ios": "https://dc.lft.to/lastmile_qr_scan", "android": "https://dc.lft.to/lastmile_qr_scan"}}, {"type": "electric_scooter", "name": "af903a3ea74097e607721b962d42c202", "fusion_lon": 0.0, "is_reserved": 0, "lon": -77.0450475, "fusion_lat": 0.0, "is_disabled": 0, "bike_id": "af903a3ea74097e607721b962d42c202", "lat": 38.91006683333333, "rental_uris": {"ios": "https://dc.lft.to/lastmile_qr_scan", "android": "https://dc.lft.to/lastmile_qr_scan"}}, {"type": "electric_bike", "name": "2754a1491df5ac71e9962ce3c3c04541", "fusion_lon": 0.0, "is_reserved": 0, "lon": -76.966174, "fusion_lat": 0.0, "is_disabled": 0, "bike_id": "2754a1491df5ac71e9962ce3c3c04541", "lat": 38.9422535, "rental_uris": {"ios": "https://dc.lft.to/lastmile_qr_scan", "android": "https://dc.lft.to/lastmile_qr_scan"}}, {"type": "electric_scooter", "name": "d4a296b2ad8d01f20dc96c95801c073b", "fusion_lon": 0.0, "is_reserved": 0, "lon": -77.03704083333334, "fusion_lat": 0.0, "is_disabled": 0, "bike_id": "d4a296b2ad8d01f20dc96c95801c073b", "lat": 38.914099, "rental_uris": {"ios": "https://dc.lft.to/lastmile_qr_scan", "android": "https://dc.lft.to/lastmile_qr_scan"}}, {"type": "electric_scooter", "name": "9ac50bc6afaedcaa4f44a803cd5253d8", "fusion_lon": 0.0, "is_reserved": 0, "lon": -77.03209483333333, "fusion_lat": 0.0, "is_disabled": 0, "bike_id": "9ac50bc6afaedcaa4f44a803cd5253d8", "lat": 38.9217045, "rental_uris": {"ios": "https://dc.lft.to/lastmile_qr_scan", "android": "https://dc.lft.to/lastmile_qr_scan"}}, {"type": "electric_scooter", "name": "bfd1263b77d0c1c4dbf4f123bee2ec6c", "fusion_lon": 0.0, "is_reserved": 0, "lon": -76.98346083333334, "fusion_lat": 0.0, "is_disabled": 0, "bike_id": "bfd1263b77d0c1c4dbf4f123bee2ec6c", "lat": 38.84995283333333, "rental_uris": {"ios": "https://dc.lft.to/lastmile_qr_scan", "android": "https://dc.lft.to/lastmile_qr_scan"}}, {"type": "electric_scooter", "name": "e6bcb3419352abd006f32d9433efbb37", "fusion_lon": 0.0, "is_reserved": 0, "lon": -77.028914, "fusion_lat": 0.0, "is_disabled": 0, "bike_id": "e6bcb3419352abd006f32d9433efbb37", "lat": 38.917098333333335, "rental_uris": {"ios": "https://dc.lft.to/lastmile_qr_scan", "android": "https://dc.lft.to/lastmile_qr_scan"}}, {"type": "electric_scooter", "name": "8d665042e218a1da9520963fc63812ab", "fusion_lon": 0.0, "is_reserved": 0, "lon": -76.99854866666666, "fusion_lat": 0.0, "is_disabled": 0, "bike_id": "8d665042e218a1da9520963fc63812ab", "lat": 38.90884483333333, "rental_uris": {"ios": "https://dc.lft.to/lastmile_qr_scan", "android": "https://dc.lft.to/lastmile_qr_scan"}},