{"data": {"bikes": [{"bike_id": "a12aad369d5f2dcd56e02f3dd7349f97", "is_reserved": 0, "fusion_lon": 0.0, "lat": 38.90447916666667, "is_disabled": 0, "name": "a12aad369d5f2dcd56e02f3dd7349f97", "fusion_lat": 0.0, "rental_uris": {"ios": "https://dc.lft.to/lastmile_qr_scan", "android": "https://dc.lft.to/lastmile_qr_scan"}, "lon": -76.9848495, "type": "electric_scooter"}, {"bike_id": "f5ae4f3edab80fde30033d16af99b77b", "is_reserved": 0, "fusion_lon": 0.0, "lat": 38.89911033333333, "is_disabled": 0, "name": "f5ae4f3edab80fde30033d16af99b77b", "fusion_lat": 0.0, "rental_uris": {"ios": "https://dc.lft.to/lastmile_qr_scan", "android": "https://dc.lft.to/lastmile_qr_scan"}, "lon": -77.00373833333333, "type": "electric_scooter"}, {"bike_id": "dc68bec2d25e368898c4eb13f8a862c6", "is_reserved": 0, "fusion_lon": 0.0, "lat": 38.903667666666664, "is_disabled": 0, "name": "dc68bec2d25e368898c4eb13f8a862c6", "fusion_lat": 0.0, "rental_uris": {"ios": "https://dc.lft.to/lastmile_qr_scan", "android": "https://dc.lft.to/lastmile_qr_scan"}, "lon": -77.01774066666667, "type": "electric_scooter"}, {"bike_id": "ee364b02cf9110ed6c436d7a28bcd56f", "is_reserved": 0, "fusion_lon": 0.0, "lat": 38.90671916666667, "is_disabled": 0, "name": "ee364b02cf9110ed6c436d7a28bcd56f", "fusion_lat": 0.0, "rental_uris": {"ios": "https://dc.lft.to/lastmile_qr_scan", "android": "https://dc.lft.to/lastmile_qr_scan"}, "lon": -77.0351615, "type": "electric_scooter"}, {"bike_id": "b1a95464c9c845b4e7aff2c158ce1ecb", "is_reserved": 0, "fusion_lon": 0.0, "lat": 38.88547666666667, "is_disabled": 0, "name": "b1a95464c9c845b4e7aff2c158ce1ecb", "fusion_lat": 0.0, "rental_uris": {"ios": "https://dc.lft.to/lastmile_qr_scan", "android": "https://dc.lft.to/lastmile_qr_scan"}, "lon": -77.02952833333333, "type": "electric_scooter"}, {"bike_id": "faf0cfd02c92ac6a205eeefd8341125f", "is_reserved": 0, "fusion_lon": 0.0, "lat": 38.90409233333333, "is_disabled": 0, "name": "faf0cfd02c92ac6a205eeefd8341125f", "fusion_lat": 0.0, "rental_uris": {"ios": "https://dc.lft.to/lastmile_qr_scan", "android": "https://dc.lft.to/lastmile_qr_scan"}, "lon": -76.97327266666667, "type": "electric_scooter"}, {"bike_id": "c84fe6a05697c3fa4b2cc13a5f8013a6", "is_reserved": 0, "fusion_lon": 0.0, "lat": 38.924756, "is_disabled": 0, "name": "c84fe6a05697c3fa4b2cc13a5f8013a6", "fusion_lat": 0.0, "rental_uris": {"ios": "https://dc.lft.to/lastmile_qr_scan", "android": "https://dc.lft.to/lastmile_qr_scan"}, "lon": -77.02837116666667, "type": "electric_scooter"}, {"bike_id": "fffe5ce8fa714533584f7bac9a825675", "is_reserved": 0, "fusion_lon": 0.0, "lat": 38.903751166666666, "is_disabled": 0, "name": "fffe5ce8fa714533584f7bac9a825675", "fusion_lat": 0.0, "rental_uris": {"ios": "https://dc.lft.to/lastmile_qr_scan", "android": "https://dc.lft.to/lastmile_qr_scan"}, "lon": -77.04215983333333, "type": "electric_scooter"}, {"bike_id": "602f7b69c9ac37f5e7eda21993f21190", "is_reserved": 0, "fusion_lon": 0.0, "lat": 38.912543166666666, "is_disabled": 0, "name": "602f7b69c9ac37f5e7eda21993f21190", "fusion_lat": 0.0, "rental_uris": {"ios": "https://dc.lft.to/lastmile_qr_scan", "android": "https://dc.lft.to/lastmile_qr_scan"}, "lon": -77.02495233333333, "type": "electric_bike"}, {"bike_id": "f5d1f39a9b7a1ec1219accdc4f1711ff", "is_reserved": 0, "fusion_lon": 0.0, "lat": 38.931324000000004, "is_disabled": 0, "name": "f5d1f39a9b7a1ec1219accdc4f1711ff", "fusion_lat": 0.0, "rental_uris": {"ios": "https://dc.lft.to/lastmile_qr_scan", "android": "https://dc.lft.to/lastmile_qr_scan"}, "lon": -77.03875633333334, "type": "electric_scooter"}, {"bike_id": "4150ea3b019827513379cd9f73b46928", "is_reserved": 0, "fusion_lon": 0.0, "lat": 38.9201815, "is_disabled": 0, "name": "4150ea3b019827513379cd9f73b46928", "fusion_lat": 0.0, "rental_uris": {"ios": "https://dc.lft.to/lastmile_qr_scan", "android": "https://dc.lft.to/lastmile_qr_scan"}, "lon": -77.03863583333333, "type": "electric_scooter"}, {"bike_id": "ecba9cc01157b817c0ae7624db05b03c", "is_reserved": 0, "fusion_lon": 0.0, "lat": 38.940148666666666, "is_disabled": 0, "name": "ecba9cc01157b817c0ae7624db05b03c", "fusion_lat": 0.0, "rental_uris": {"ios": "https://dc.lft.to/lastmile_qr_scan", "android": "https://dc.lft.to/lastmile_qr_scan"}, "lon": -77.07171133333334, "type": "electric_scooter"}, {"bike_id": "982e00c45146711853e2e6fed11e040b", "is_reserved": 0, "fusion_lon": 0.0, "lat": 38.9055705, "is_disabled": 0, "name": "982e00c45146711853e2e6fed11e040b", "fusion_lat": 0.0, "rental_uris": {"ios": "https://dc.lft.to/lastmile_qr_scan", "android": "https://dc.lft.to/lastmile_qr_scan"}, "lon": -77.03997283333334, "type": "electric_scooter"}, {"bike_id": "a9da35738e0aea4239f3ad978339e45b", "is_reserved": 0, "fusion_lon": 0.0, "lat": 38.900835666666666, "is_disabled": 0, "name": "a9da35738e0aea4239f3ad978339e45b", "fusion_lat": 0.0, "rental_uris": {"ios": "https://dc.lft.to/lastmile_qr_scan", "android": "https://dc.lft.to/lastmile_qr_scan"}, "lon": -77.0478625, "type": "electric_scooter"}, {"bike_id": "dcf8db5e8ceb842ae0421a637bd6b7c4", "is_reserved": 0, "fusion_lon": 0.0, "lat": 38.92857716666666, "is_disabled": 0, "name": "dcf8db5e8ceb842ae0421a637bd6b7c4", "fusion_lat": 0.0, "rental_uris": {"ios": "https://dc.lft.to/lastmile_qr_scan", "android": "https://dc.lft.to/lastmile_qr_scan"}, "lon": -77.03425483333334, "type": "electric_scooter"}, {"bike_id": "e8498e8d37ba3efb7f1cd9e098cdcc90", "is_reserved": 0, "fusion_lon": 0.0, "lat": 38.90296933333333, "is_disabled": 0, "name": "e8498e8d37ba3efb7f1cd9e098cdcc90", "fusion_lat": 0.0, "rental_uris": {"ios": "https://dc.lft.to/lastmile_qr_scan", "android": "https://dc.lft.to/lastmile_qr_scan"}, "lon": -76.94439033333333, "type": "electric_bike"}, {"bike_id": "87bd143de34f22d513e8b9604a49e892", "is_reserved": 0, "fusion_lon": 0.0, "lat": 38.83798183333333, "is_disabled": 0, "name": "87bd143de34f22d513e8b9604a49e892", "fusion_lat": 0.0, "rental_uris": {"ios": "https://dc.lft.to/lastmile_qr_scan", "android": "https://dc.lft.to/lastmile_qr_scan"}, "lon": -76.99834783333333, "type": "electric_bike"}, {"bike_id": "0f4e8445ba56ddd55e53ac2045e4f47b", "is_reserved": 0, "fusion_lon": 0.0, "lat": 38.901532833333334, "is_disabled": 0, "name": "0f4e8445ba56ddd55e53ac2045e4f47b", "fusion_lat": 0.0, "rental_uris": {"ios": "https://dc.lft.to/lastmile_qr_scan", "android": "https://dc.lft.to/lastmile_qr_scan"}, "lon": -76.9752685, "type": "electric_scooter"}, {"bike_id": "4b4530a302b6892f255801ecaacd263b", "is_reserved": 0, "fusion_lon": 0.0, "lat": 38.9011795, "is_disabled": 0, "name": "4b4530a302b6892f255801ecaacd263b", "fusion_lat": 0.0, "rental_uris": {"ios": "https://dc.lft.to/lastmile_qr_scan", "android": "https://dc.lft.to/lastmile_qr_scan"}, "lon": -77.04982966666667, "type": "electric_scooter"}, {"bike_id": "99e7aa28c43ff4338716a5262f2c5180", "is_reserved": 0, "fusion_lon": 0.0, "lat": 38.93343016666667, "is_disabled": 0, "name": "99e7aa28c43ff4338716a5262f2c5180", "fusion_lat": 0.0, "rental_uris": {"ios": "https://dc.lft.to/lastmile_qr_scan", "android": "https://dc.lft.to/lastmile_qr_scan"}, "lon": -77.03280883333333, "type": "electric_scooter"}, {"bike_id": "0f1bed4b58897fabedc2426527f46183", "is_reserved": 0, "fusion_lon": 0.0, "lat": 38.96623916666667, "is_disabled": 0, "name": "0f1bed4b58897fabedc2426527f46183", "fusion_lat": 0.0, "rental_uris": {"ios": "https://dc.lft.to/lastmile_qr_scan", "android": "https://dc.lft.to/lastmile_qr_scan"}, "lon": -76.97667833333334, "type": "electric_bike"}, {"bike_id": "608a3c216f9d48aefaf08f8f599fe8d9", "is_reserved": 0, "fusion_lon": 0.0, "lat": 38.909608666666664, "is_disabled": 0, "name": "608a3c216f9d48aefaf08f8f599fe8d9", "fusion_lat": 0.0, "rental_uris": {"ios": "https://dc.lft.to/lastmile_qr_scan", "android": "https://dc.lft.to/lastmile_qr_scan"}, "lon": -77.03268483333333, "type": "electric_scooter"}, {"bike_id": "ac6f2b06dce52cdfc3bfb6e2540861ce", "is_reserved": 0, "fusion_lon": 0.0, "lat": 38.939853166666666, "is_disabled": 0, "name": "ac6f2b06dce52cdfc3bfb6e2540861ce", "fusion_lat": 0.0, "rental_uris": {"ios": "https://dc.lft.to/lastmile_qr_scan", "android": "https://dc.lft.to/lastmile_qr_scan"}, "lon": -77.0288865, "type": "electric_scooter"}, {"bike_id": "1a4846e052edcd737014946f587904f7", "is_reserved": 0, "fusion_lon": 0.0, "lat": 38.93063166666666, "is_disabled": 0, "name": "1a4846e052edcd737014946f587904f7", "fusion_lat": 0.0, "rental_uris": {"ios": "https://dc.lft.to/lastmile_qr_scan", "android": "https://dc.lft.to/lastmile_qr_scan"}, "lon": -77.0381325, "type": "electric_scooter"}, {"bike_id": "01257d54f39b8b322f811482561d7c4d", "is_reserved": 0, "fusion_lon": 0.0, "lat": 38.91665883333334, "is_disabled": 0, "name": "01257d54f39b8b322f811482561d7c4d", "fusion_lat": 0.0, "rental_uris": {"ios": "https://dc.lft.to/lastmile_qr_scan", "android": "https://dc.lft.to/lastmile_qr_scan"}, "lon": -77.02312433333333, "type": "electric_scooter"}, {"bike_id": "d4dc40c8c9afb8d7c07f42a31cea42d7", "is_reserved": 0, "fusion_lon": 0.0, "lat": 38.8669955, "is_disabled": 0, "name": "d4dc40c8c9afb8d7c07f42a31cea42d7", "fusion_lat": 0.0, "rental_uris": {"ios": "https://dc.lft.to/lastmile_qr_scan", "android": "https://dc.lft.to/lastmile_qr_scan"}, "lon": -76.98711666666667, "type": "electric_scooter"}, {"bike_id": "2986efebd1391deccb52ec00c7616598", "is_reserved": 0, "fusion_lon": 0.0, "lat": 38.999439333333335, "is_disabled": 0, "name": "2986efebd1391deccb52ec00c7616598", "fusion_lat": 0.0, "rental_uris": {"ios": "https://dc.lft.to/lastmile_qr_scan", "android": "https://dc.lft.to/lastmile_qr_scan"}, "lon": -77.017675, "type": "electric_bike"}, {"bike_id": "a784d59ed16a20285f7475c21a427284", "is_reserved": 0, "fusion_lon": 0.0, "lat": 38.92041916666667, "is_disabled": 0, "name": "a784d59ed16a20285f7475c21a427284", "fusion_lat": 0.0, "rental_uris": {"ios": "https://dc.lft.to/lastmile_qr_scan", "android": "https://dc.lft.to/lastmile_qr_scan"}, "lon": -77.0333875, "type": "electric_scooter"}, {"bike_id": "c2716f95345fb6dcbfac1ef358f85740", "is_reserved": 0, "fusion_lon": 0.0, "lat": 38.90283316666667, "is_disabled": 0, "name": "c2716f95345fb6dcbfac1ef358f85740", "fusion_lat": 0.0, "rental_uris": {"ios": "https://dc.lft.to/lastmile_qr_scan", "android": "https://dc.lft.to/lastmile_qr_scan"}, "lon": -77.03854633333333, "type": "electric_scooter"}, {"bike_id": "a21cf20bfefaab135521092800e1390a", "is_reserved": 0, "fusion_lon": 0.0, "lat": 38.899849833333334, "is_disabled": 0, "name": "a21cf20bfefaab135521092800e1390a", "fusion_lat": 0.0, "rental_uris": {"ios": "https://dc.lft.to/lastmile_qr_scan", "android": "https://dc.lft.to/lastmile_qr_scan"}, "lon": -77.0320395, "type": "electric_scooter"}, {"bike_id": "413bb95d3e19e35f04ed9fd4994a6ef2", "is_reserved": 0, "fusion_lon": 0.0, "lat": 38.907734166666664, "is_disabled": 0, "name": "413bb95d3e19e35f04ed9fd4994a6ef2", "fusion_lat": 0.0, "rental_uris": {"ios": "https://dc.lft.to/lastmile_qr_scan", "android": "https://dc.lft.to/lastmile_qr_scan"}, "lon": -77.0691275, "type": "electric_scooter"}, {"bike_id": "871c069b82b067420da9a7a25725c203", "is_reserved": 0, "fusion_lon": 0.0, "lat": 38.929258, "is_disabled": 0, "name": "871c069b82b067420da9a7a25725c203", "fusion_lat": 0.0, "rental_uris": {"ios": "https://dc.lft.to/lastmile_qr_scan", "android": "https://dc.lft.to/lastmile_qr_scan"}, "lon": -77.02007216666667, "type": "electric_scooter"}, {"bike_id": "ab0ed6f37261ad385879732b62d697cd", "is_reserved": 0, "fusion_lon": 0.0, "lat": 38.895587666666664, "is_disabled": 0, "name": "ab0ed6f37261ad385879732b62d697cd", "fusion_lat": 0.0, "rental_uris": {"ios": "https://dc.lft.to/lastmile_qr_scan", "android": "https://dc.lft.to/lastmile_qr_scan"}, "lon": -76.95028716666667, "type": "electric_scooter"}, {"bike_id": "939f88c637902a348cf2c17cf076ec5b", "is_reserved": 0, "fusion_lon": 0.0, "lat": 38.939850666666665, "is_disabled": 0, "name": "939f88c637902a348cf2c17cf076ec5b", "fusion_lat": 0.0, "rental_uris": {"ios": "https://dc.lft.to/lastmile_qr_scan", "android": "https://dc.lft.to/lastmile_qr_scan"}, "lon": -77.0288965, "type": "electric_scooter"}, {"bike_id": "17555b764b4d45588d464f4fb04fd87a", "is_reserved": 0, "fusion_lon": 0.0, "lat": 38.862129, "is_disabled": 0, "name": "17555b764b4d45588d464f4fb04fd87a", "fusion_lat": 0.0, "rental_uris": {"ios": "https://dc.lft.to/lastmile_qr_scan", "android": "https://dc.lft.to/lastmile_qr_scan"}, "lon": -76.99469016666667, "type": "electric_scooter"}, {"bike_id": "a4d9ef592b5390ec970c1f3a58e27c21", "is_reserved": 0, "fusion_lon": 0.0, "lat": 38.92553016666667, "is_disabled": 0, "name": "a4d9ef592b5390ec970c1f3a58e27c21", "fusion_lat": 0.0, "rental_uris": {"ios": "https://dc.lft.to/lastmile_qr_scan", "android": "https://dc.lft.to/lastmile_qr_scan"}, "lon": -77.0227255, "type": "electric_scooter"}, {"bike_id": "ef32a462d12ab4bbf124b58d037a4341", "is_reserved": 0, "fusion_lon": 0.0, "lat": 38.907881833333334, "is_disabled": 0, "name": "ef32a462d12ab4bbf124b58d037a4341", "fusion_lat": 0.0, "rental_uris": {"ios": "https://dc.lft.to/lastmile_qr_scan", "android": "https://dc.lft.to/lastmile_qr_scan"}, "lon": -77.04265016666666, "type": "electric_scooter"}, {"bike_id": "e1afbc57a280c06fb9ba0df5b4900e82", "is_reserved": 0, "fusion_lon": 0.0, "lat": 38.813081, "is_disabled": 0, "name": "e1afbc57a280c06fb9ba0df5b4900e82", "fusion_lat": 0.0, "rental_uris": {"ios": "https://dc.lft.to/lastmile_qr_scan", "android": "https://dc.lft.to/lastmile_qr_scan"}, "lon": -77.05086766666666, "type": "electric_bike"}, {"bike_id": "c98cc2478252bea3b34be19f85d7c193", "is_reserved": 0, "fusion_lon": 0.0, "lat": 38.902657833333336, "is_disabled": 0, "name": "c98cc2478252bea3b34be19f85d7c193", "fusion_lat": 0.0, "rental_uris": {"ios": "https://dc.lft.to/lastmile_qr_scan", "android": "https://dc.lft.to/lastmile_qr_scan"}, "lon": -77.03328366666666, "type": "electric_scooter"}, {"bike_id": "98a6191f2ed9edef020187e9ce5b27a8", "is_reserved": 0, "fusion_lon": 0.0, "lat": 38.879808833333335, "is_disabled": 0, "name": "98a6191f2ed9edef020187e9ce5b27a8", "fusion_lat": 0.0, "rental_uris": {"ios": "https://dc.lft.to/lastmile_qr_scan", "android": "https://dc.lft.to/lastmile_qr_scan"}, "lon": -77.0239505, "type": "electric_scooter"}, {"bike_id": "561ca982c0f527721b21641127ae5dc0", "is_reserved": 0, "fusion_lon": 0.0, "lat": 38.9218205, "is_disabled": 0, "name": "561ca982c0f527721b21641127ae5dc0", "fusion_lat": 0.0, "rental_uris": {"ios": "https://dc.lft.to/lastmile_qr_scan", "android": "https://dc.lft.to/lastmile_qr_scan"}, "lon": -77.02532716666667, "type": "electric_scooter"}, {"bike_id": "284ac4753e5a8c78859bf55f89bcb606", "is_reserved": 0, "fusion_lon": 0.0, "lat": 38.91808233333333, "is_disabled": 0, "name": "284ac4753e5a8c78859bf55f89bcb606", "fusion_lat": 0.0, "rental_uris": {"ios": "https://dc.lft.to/lastmile_qr_scan", "android": "https://dc.lft.to/lastmile_qr_scan"}, "lon": -77.03300816666666, "type": "electric_scooter"}, {"bike_id": "dfdd3fc3edd598d91c4adf4f0e5770bd", "is_reserved": 0, "fusion_lon": 0.0, "lat": 38.936651, "is_disabled": 0, "name": "dfdd3fc3edd598d91c4adf4f0e5770bd", "fusion_lat": 0.0, "rental_uris": {"ios": "https://dc.lft.to/lastmile_qr_scan", "android": "https://dc.lft.to/lastmile_qr_scan"}, "lon": -77.05932566666667, "type": "electric_scooter"}, {"bike_id": "c673011c25dfaa5d02e12d751bc5ec02", "is_reserved": 0, "fusion_lon": 0.0, "lat": 38.91332366666666, "is_disabled": 0, "name": "c673011c25dfaa5d02e12d751bc5ec02", "fusion_lat": 0.0, "rental_uris": {"ios": "https://dc.lft.to/lastmile_qr_scan", "android": "https://dc.lft.to/lastmile_qr_scan"}, "lon": -77.03259883333334, "type": "electric_scooter"}, {"bike_id": "a303ec0b65cb51d388883f6055bdf3f0", "is_reserved": 0, "fusion_lon": 0.0, "lat": 38.911237166666666, "is_disabled": 0, "name": "a303ec0b65cb51d388883f6055bdf3f0", "fusion_lat": 0.0, "rental_uris": {"ios": "https://dc.lft.to/lastmile_qr_scan", "android": "https://dc.lft.to/lastmile_qr_scan"}, "lon": -77.00246116666666, "type": "electric_scooter"}, {"bike_id": "7249db96b136d7b91fc8033387b36688", "is_reserved": 0, "fusion_lon": 0.0, "lat": 38.905278333333335, "is_disabled": 0, "name": "7249db96b136d7b91fc8033387b36688", "fusion_lat": 0.0, "rental_uris": {"ios": "https://dc.lft.to/lastmile_qr_scan", "android": "https://dc.lft.to/lastmile_qr_scan"}, "lon": -77.0587785, "type": "electric_scooter"}, {"bike_id": "8f3ba2af6c53434e0a2aac0a2d41734e", "is_reserved": 0, "fusion_lon": 0.0, "lat": 38.9232705, "is_disabled": 0, "name": "8f3ba2af6c53434e0a2aac0a2d41734e", "fusion_lat": 0.0, "rental_uris": {"ios": "https://dc.lft.to/lastmile_qr_scan", "android": "https://dc.lft.to/lastmile_qr_scan"}, "lon": -77.04022583333334, "type": "electric_scooter"}, {"bike_id": "e1cac2098e6236c0284b8b69a14dc24c", "is_reserved": 0, "fusion_lon": 0.0, "lat": 38.930867666666664, "is_disabled": 0, "name": "e1cac2098e6236c0284b8b69a14dc24c", "fusion_lat": 0.0, "rental_uris": {"ios": "https://dc.lft.to/lastmile_qr_scan", "android": "https://dc.lft.to/lastmile_qr_scan"}, "lon": -77.0235895, "type": "electric_bike"}, {"bike_id": "662918c40b79205a323b81f1f4053a1e", "is_reserved": 0, "fusion_lon": 0.0, "lat": 38.92104, "is_disabled": 0, "name": "662918c40b79205a323b81f1f4053a1e", "fusion_lat": 0.0, "rental_uris": {"ios": "https://dc.lft.to/lastmile_qr_scan", "android": "https://dc.lft.to/lastmile_qr_scan"}, "lon": -76.99382666666666, "type": "electric_scooter"}, {"bike_id": "31728f0993825e97d552dd3784f4b5c7", "is_reserved": 0, "fusion_lon": 0.0, "lat": 38.85435966666667, "is_disabled": 0, "name": "31728f0993825e97d552dd3784f4b5c7", "fusion_lat": 0.0, "rental_uris": {"ios": "https://dc.lft.to/lastmile_qr_scan", "android": "https://dc.lft.to/lastmile_qr_scan"}, "lon": -77.11703583333333, "type": "electric_bike"}, {"bike_id": "aa7c3254e434356d7e5bdb1d29907119", "is_reserved": 0, "fusion_lon": 0.0, "lat": 38.90797333333333, "is_disabled": 0, "name": "aa7c3254e434356d7e5bdb1d29907119", "fusion_lat": 0.0, "rental_uris": {"ios": "https://dc.lft.to/lastmile_qr_scan", "android": "https://dc.lft.to/lastmile_qr_scan"}, "lon": -76.99699583333333, "type": "electric_scooter"}, {"bike_id": "6da2224041598cc58c35f9dfad981f9a", "is_reserved": 0, "fusion_lon": 0.0, "lat": 38.89950866666667, "is_disabled": 0, "name": "6da2224041598cc58c35f9dfad981f9a", "fusion_lat": 0.0, "rental_uris": {"ios": "https://dc.lft.to/lastmile_qr_scan", "android": "https://dc.lft.to/lastmile_qr_scan"}, "lon": -77.05060833333333, "type": "electric_scooter"}, {"bike_id": "782e91a8afb8c1c54c6831dab04ee05e", "is_reserved": 0, "fusion_lon": 0.0, "lat": 38.895292, "is_disabled": 0, "name": "782e91a8afb8c1c54c6831dab04ee05e", "fusion_lat": 0.0, "rental_uris": {"ios": "https://dc.lft.to/lastmile_qr_scan", "android": "https://dc.lft.to/lastmile_qr_scan"}, "lon": -77.01603533333333, "type": "electric_scooter"}, {"bike_id": "a6b79b657be86134350e9d5ef3ad84d6", "is_reserved": 0, "fusion_lon": 0.0, "lat": 38.935070333333336, "is_disabled": 0, "name": "a6b79b657be86134350e9d5ef3ad84d6", "fusion_lat": 0.0, "rental_uris": {"ios": "https://dc.lft.to/lastmile_qr_scan", "android": "https://dc.lft.to/lastmile_qr_scan"}, "lon": -77.028456, "type": "electric_scooter"}, {"bike_id": "d5ae58458154cf8441898eacf91e120f", "is_reserved": 0, "fusion_lon": 0.0, "lat": 38.921251, "is_disabled": 0, "name": "d5ae58458154cf8441898eacf91e120f", "fusion_lat": 0.0, "rental_uris": {"ios": "https://dc.lft.to/lastmile_qr_scan", "android": "https://dc.lft.to/lastmile_qr_scan"}, "lon": -77.01018383333333, "type": "electric_scooter"}, {"bike_id": "0e6c53afbef9e26ff35fe8cddfbc7ba9", "is_reserved": 0, "fusion_lon": 0.0, "lat": 38.885136333333335, "is_disabled": 0, "name": "0e6c53afbef9e26ff35fe8cddfbc7ba9", "fusion_lat": 0.0, "rental_uris": {"ios": "https://dc.lft.to/lastmile_qr_scan", "android": "https://dc.lft.to/lastmile_qr_scan"}, "lon": -77.02104, "type": "electric_scooter"}, {"bike_id": "b7b29450d8bbd6b6f6a6ef9b80fba90d", "is_reserved": 0, "fusion_lon": 0.0, "lat": 38.89870616666666, "is_disabled": 0, "name": "b7b29450d8bbd6b6f6a6ef9b80fba90d", "fusion_lat": 0.0, "rental_uris": {"ios": "https://dc.lft.to/lastmile_qr_scan", "android": "https://dc.lft.to/lastmile_qr_scan"}, "lon": -77.02134116666667, "type": "electric_bike"}, {"bike_id": "3aab7b647f1bafa0905332282bfcae17", "is_reserved": 0, "fusion_lon": 0.0, "lat": 38.89735866666667, "is_disabled": 0, "name": "3aab7b647f1bafa0905332282bfcae17", "fusion_lat": 0.0, "rental_uris": {"ios": "https://dc.lft.to/lastmile_qr_scan", "android": "https://dc.lft.to/lastmile_qr_scan"}, "lon": -77.0266715, "type": "electric_scooter"}, {"bike_id": "45a2189099c72441237b8a41dcd30174", "is_reserved": 0, "fusion_lon": 0.0, "lat": 38.9418, "is_disabled": 0, "name": "45a2189099c72441237b8a41dcd30174", "fusion_lat": 0.0, "rental_uris": {"ios": "https://dc.lft.to/lastmile_qr_scan", "android": "https://dc.lft.to/lastmile_qr_scan"}, "lon": -77.03090666666667, "type": "electric_scooter"}, {"bike_id": "f10f64e56d9595b164112f23545290b5", "is_reserved": 0, "fusion_lon": 0.0, "lat": 38.92143016666667, "is_disabled": 0, "name": "f10f64e56d9595b164112f23545290b5", "fusion_lat": 0.0, "rental_uris": {"ios": "https://dc.lft.to/lastmile_qr_scan", "android": "https://dc.lft.to/lastmile_qr_scan"}, "lon": -77.03179166666666, "type": "electric_scooter"}, {"bike_id": "eda907f1c69b46ae9074f551a259bb5b", "is_reserved": 0, "fusion_lon": 0.0, "lat": 38.910482333333334, "is_disabled": 0, "name": "eda907f1c69b46ae9074f551a259bb5b", "fusion_lat": 0.0, "rental_uris": {"ios": "https://dc.lft.to/lastmile_qr_scan", "android": "https://dc.lft.to/lastmile_qr_scan"}, "lon": -77.02802966666667, "type": "electric_scooter"}, {"bike_id": "b22cea443ccfa4ab42b896f518a1ea42", "is_reserved": 0, "fusion_lon": 0.0, "lat": 38.906183666666664, "is_disabled": 0, "name": "b22cea443ccfa4ab42b896f518a1ea42", "fusion_lat": 0.0, "rental_uris": {"ios": "https://dc.lft.to/lastmile_qr_scan", "android": "https://dc.lft.to/lastmile_qr_scan"}, "lon": -77.05133633333334, "type": "electric_scooter"}, {"bike_id": "c7c81c329f0c8612bca897c94b86409a", "is_reserved": 0, "fusion_lon": 0.0, "lat": 38.88504283333333, "is_disabled": 0, "name": "c7c81c329f0c8612bca897c94b86409a", "fusion_lat": 0.0, "rental_uris": {"ios": "https://dc.lft.to/lastmile_qr_scan", "android": "https://dc.lft.to/lastmile_qr_scan"}, "lon": -77.0056465, "type": "electric_scooter"}, {"bike_id": "fcc85726c55c962251ef4d73ff38b536", "is_reserved": 0, "fusion_lon": 0.0, "lat": 38.92379066666667, "is_disabled": 0, "name": "fcc85726c55c962251ef4d73ff38b536", "fusion_lat": 0.0, "rental_uris": {"ios": "https://dc.lft.to/lastmile_qr_scan", "android": "https://dc.lft.to/lastmile_qr_scan"}, "lon": -77.05175183333333, "type": "electric_scooter"}, {"bike_id": "00e8d2797f16d257a0d7ed9ce8e5175c", "is_reserved": 0, "fusion_lon": 0.0, "lat": 38.916445, "is_disabled": 0, "name": "00e8d2797f16d257a0d7ed9ce8e5175c", "fusion_lat": 0.0, "rental_uris": {"ios": "https://dc.lft.to/lastmile_qr_scan", "android": "https://dc.lft.to/lastmile_qr_scan"}, "lon": -77.0418485, "type": "electric_scooter"}, {"bike_id": "02af0badf542d8273d33d229411f3f96", "is_reserved": 0, "fusion_lon": 0.0, "lat": 38.911489333333336, "is_disabled": 0, "name": "02af0badf542d8273d33d229411f3f96", "fusion_lat": 0.0, "rental_uris": {"ios": "https://dc.lft.to/lastmile_qr_scan", "android": "https://dc.lft.to/lastmile_qr_scan"}, "lon": -77.00296, "type": "electric_bike"}, {"bike_id": "5fd08f11f8da2ca970a1ed0f7143e4bc", "is_reserved": 0, "fusion_lon": 0.0, "lat": 38.90301216666667, "is_disabled": 0, "name": "5fd08f11f8da2ca970a1ed0f7143e4bc", "fusion_lat": 0.0, "rental_uris": {"ios": "https://dc.lft.to/lastmile_qr_scan", "android": "https://dc.lft.to/lastmile_qr_scan"}, "lon": -77.060073, "type": "electric_scooter"}, {"bike_id": "d497b997f5a52e3bf0929019d0154bb6", "is_reserved": 0, "fusion_lon": 0.0, "lat": 38.87335616666667, "is_disabled": 0, "name": "d497b997f5a52e3bf0929019d0154bb6", "fusion_lat": 0.0, "rental_uris": {"ios": "https://dc.lft.to/lastmile_qr_scan", "android": "https://dc.lft.to/lastmile_qr_scan"}, "lon": -76.96783066666667, "type": "electric_scooter"}, {"bike_id": "5529ff6f5a52abfb2ae75963315b3380", "is_reserved": 0, "fusion_lon": 0.0, "lat": 38.879244, "is_disabled": 0, "name": "5529ff6f5a52abfb2ae75963315b3380", "fusion_lat": 0.0, "rental_uris": {"ios": "https://dc.lft.to/lastmile_qr_scan", "android": "https://dc.lft.to/lastmile_qr_scan"}, "lon": -77.0134375, "type": "electric_scooter"}, {"bike_id": "c16f81e4dfe3ec922099e546b734c4a8", "is_reserved": 0, "fusion_lon": 0.0, "lat": 38.939647666666666, "is_disabled": 0, "name": "c16f81e4dfe3ec922099e546b734c4a8", "fusion_lat": 0.0, "rental_uris": {"ios": "https://dc.lft.to/lastmile_qr_scan", "android": "https://dc.lft.to/lastmile_qr_scan"}, "lon": -77.05320816666666, "type": "electric_scooter"}, {"bike_id": "49a04eed9c0318f99f77e2a58fc73786", "is_reserved": 0, "fusion_lon": 0.0, "lat": 38.935834166666666, "is_disabled": 0, "name": "49a04eed9c0318f99f77e2a58fc73786", "fusion_lat": 0.0, "rental_uris": {"ios": "https://dc.lft.to/lastmile_qr_scan", "android": "https://dc.lft.to/lastmile_qr_scan"}, "lon": -77.0328245, "type": "electric_scooter"}, {"bike_id": "d34c5c28e65cb2de7038a0b53ec45720", "is_reserved": 0, "fusion_lon": 0.0, "lat": 38.90960716666667, "is_disabled": 0, "name": "d34c5c28e65cb2de7038a0b53ec45720", "fusion_lat": 0.0, "rental_uris": {"ios": "https://dc.lft.to/lastmile_qr_scan", "android": "https://dc.lft.to/lastmile_qr_scan"}, "lon": -77.0347425, "type": "electric_scooter"}, {"bike_id": "28c0edca9b0813e2260f0f8dd0e9b80f", "is_reserved": 0, "fusion_lon": 0.0, "lat": 38.912583166666664, "is_disabled": 0, "name": "28c0edca9b0813e2260f0f8dd0e9b80f", "fusion_lat": 0.0, "rental_uris": {"ios": "https://dc.lft.to/lastmile_qr_scan", "android": "https://dc.lft.to/lastmile_qr_scan"}, "lon": -77.04442166666666, "type": "electric_scooter"}, {"bike_id": "e53858afab36ac5fbcc544bcc2284d48", "is_reserved": 0, "fusion_lon": 0.0, "lat": 38.91666033333333, "is_disabled": 0, "name": "e53858afab36ac5fbcc544bcc2284d48", "fusion_lat": 0.0, "rental_uris": {"ios": "https://dc.lft.to/lastmile_qr_scan", "android": "https://dc.lft.to/lastmile_qr_scan"}, "lon": -77.00509016666666, "type": "electric_scooter"}, {"bike_id": "8261e63e297f821ff1a387f3206535b9", "is_reserved": 0, "fusion_lon": 0.0, "lat": 38.9036995, "is_disabled": 0, "name": "8261e63e297f821ff1a387f3206535b9", "fusion_lat": 0.0, "rental_uris": {"ios": "https://dc.lft.to/lastmile_qr_scan", "android": "https://dc.lft.to/lastmile_qr_scan"}, "lon": -77.03003616666666, "type": "electric_scooter"}, {"bike_id": "18dd7287e2f1b84ef08938bf167c6bcf", "is_reserved": 0, "fusion_lon": 0.0, "lat": 38.902446833333336, "is_disabled": 0, "name": "18dd7287e2f1b84ef08938bf167c6bcf", "fusion_lat": 0.0, "rental_uris": {"ios": "https://dc.lft.to/lastmile_qr_scan", "android": "https://dc.lft.to/lastmile_qr_scan"}, "lon": -77.04357633333333, "type": "electric_scooter"}, {"bike_id": "8bdc944d86780f78cbbab7c752cf6d45", "is_reserved": 0, "fusion_lon": 0.0, "lat": 38.8971685, "is_disabled": 0, "name": "8bdc944d86780f78cbbab7c752cf6d45", "fusion_lat": 0.0, "rental_uris": {"ios": "https://dc.lft.to/lastmile_qr_scan", "android": "https://dc.lft.to/lastmile_qr_scan"}, "lon": -77.02723966666667, "type": "electric_scooter"}, {"bike_id": "e9d89303ef1a6818bd4b7e1903d283c6", "is_reserved": 0, "fusion_lon": 0.0, "lat": 38.8813735, "is_disabled": 0, "name": "e9d89303ef1a6818bd4b7e1903d283c6", "fusion_lat": 0.0, "rental_uris": {"ios": "https://dc.lft.to/lastmile_qr_scan", "android": "https://dc.lft.to/lastmile_qr_scan"}, "lon": -76.99613733333334, "type": "electric_scooter"}, {"bike_id": "8421f132895d13ea8467896756cf4ed4", "is_reserved": 0, "fusion_lon": 0.0, "lat": 38.92823966666667, "is_disabled": 0, "name": "8421f132895d13ea8467896756cf4ed4", "fusion_lat": 0.0, "rental_uris": {"ios": "https://dc.lft.to/lastmile_qr_scan", "android": "https://dc.lft.to/lastmile_qr_scan"}, "lon": -77.02257516666667, "type": "electric_scooter"}, {"bike_id": "4932c60e5f2d2d1270eec24798711c69", "is_reserved": 0, "fusion_lon": 0.0, "lat": 38.918544, "is_disabled": 0, "name": "4932c60e5f2d2d1270eec24798711c69", "fusion_lat": 0.0, "rental_uris": {"ios": "https://dc.lft.to/lastmile_qr_scan", "android": "https://dc.lft.to/lastmile_qr_scan"}, "lon": -77.02298033333334, "type": "electric_scooter"}, {"bike_id": "e1cfd442c400e081c734c43cbaa7bc68", "is_reserved": 0, "fusion_lon": 0.0, "lat": 38.90373966666667, "is_disabled": 0, "name": "e1cfd442c400e081c734c43cbaa7bc68", "fusion_lat": 0.0, "rental_uris": {"ios": "https://dc.lft.to/lastmile_qr_scan", "android": "https://dc.lft.to/lastmile_qr_scan"}, "lon": -77.04206583333334, "type": "electric_scooter"}, {"bike_id": "7c8109a8e52e37fdbf12696a9c073b11", "is_reserved": 0, "fusion_lon": 0.0, "lat": 38.884965333333334, "is_disabled": 0, "name": "7c8109a8e52e37fdbf12696a9c073b11", "fusion_lat": 0.0, "rental_uris": {"ios": "https://dc.lft.to/lastmile_qr_scan", "android": "https://dc.lft.to/lastmile_qr_scan"}, "lon": -77.00728883333333, "type": "electric_scooter"}, {"bike_id": "2cfe41ef48eab1faede8d42e11723123", "is_reserved": 0, "fusion_lon": 0.0, "lat": 38.900794, "is_disabled": 0, "name": "2cfe41ef48eab1faede8d42e11723123", "fusion_lat": 0.0, "rental_uris": {"ios": "https://dc.lft.to/lastmile_qr_scan", "android": "https://dc.lft.to/lastmile_qr_scan"}, "lon": -77.05021716666667, "type": "electric_bike"}, {"bike_id": "c4bd4f77c01653c6961bd54691a47626", "is_reserved": 0, "fusion_lon": 0.0, "lat": 38.902689333333335, "is_disabled": 0, "name": "c4bd4f77c01653c6961bd54691a47626", "fusion_lat": 0.0, "rental_uris": {"ios": "https://dc.lft.to/lastmile_qr_scan", "android": "https://dc.lft.to/lastmile_qr_scan"}, "lon": -77.02983833333333, "type": "electric_scooter"}, {"bike_id": "5d3fdcab6e0feee1377447327a367e26", "is_reserved": 0, "fusion_lon": 0.0, "lat": 38.91365116666667, "is_disabled": 0, "name": "5d3fdcab6e0feee1377447327a367e26", "fusion_lat": 0.0, "rental_uris": {"ios": "https://dc.lft.to/lastmile_qr_scan", "android": "https://dc.lft.to/lastmile_qr_scan"}, "lon": -77.04662733333333, "type": "electric_scooter"}, {"bike_id": "b9455d3bcccd5b374868565c02633241", "is_reserved": 0, "fusion_lon": 0.0, "lat": 38.9056975, "is_disabled": 0, "name": "b9455d3bcccd5b374868565c02633241", "fusion_lat": 0.0, "rental_uris": {"ios": "https://dc.lft.to/lastmile_qr_scan", "android": "https://dc.lft.to/lastmile_qr_scan"}, "lon": -77.03631483333334, "type": "electric_scooter"}, {"bike_id": "851b6abb10eda9ec03ffcb85a41f3d0c", "is_reserved": 0, "fusion_lon": 0.0, "lat": 38.906826833333334, "is_disabled": 0, "name": "851b6abb10eda9ec03ffcb85a41f3d0c", "fusion_lat": 0.0, "rental_uris": {"ios": "https://dc.lft.to/lastmile_qr_scan", "android": "https://dc.lft.to/lastmile_qr_scan"}, "lon": -77.0089875, "type": "electric_scooter"}, {"bike_id": "4e38b1f480aee636f19960bc13a38e50", "is_reserved": 0, "fusion_lon": 0.0, "lat": 38.93587216666667, "is_disabled": 0, "name": "4e38b1f480aee636f19960bc13a38e50", "fusion_lat": 0.0, "rental_uris": {"ios": "https://dc.lft.to/lastmile_qr_scan", "android": "https://dc.lft.to/lastmile_qr_scan"}, "lon": -77.0583905, "type": "electric_bike"}, {"bike_id": "7b365242f356fd9f4833339e2384f6f6", "is_reserved": 0, "fusion_lon": 0.0, "lat": 38.93208583333333, "is_disabled": 0, "name": "7b365242f356fd9f4833339e2384f6f6", "fusion_lat": 0.0, "rental_uris": {"ios": "https://dc.lft.to/lastmile_qr_scan", "android": "https://dc.lft.to/lastmile_qr_scan"}, "lon": -77.0273515, "type": "electric_scooter"}, {"bike_id": "c68a50e9a322d6b08ce62597bfa65163", "is_reserved": 0, "fusion_lon": 0.0, "lat": 38.959647, "is_disabled": 0, "name": "c68a50e9a322d6b08ce62597bfa65163", "fusion_lat": 0.0, "rental_uris": {"ios": "https://dc.lft.to/lastmile_qr_scan", "android": "https://dc.lft.to/lastmile_qr_scan"}, "lon": -77.10091166666666, "type": "electric_bike"}, {"bike_id": "649e5b6af0ec104b9ac15e16b9df88c9", "is_reserved": 0, "fusion_lon": 0.0, "lat": 38.91201383333333, "is_disabled": 0, "name": "649e5b6af0ec104b9ac15e16b9df88c9", "fusion_lat": 0.0, "rental_uris": {"ios": "https://dc.lft.to/lastmile_qr_scan", "android": "https://dc.lft.to/lastmile_qr_scan"}, "lon": -77.073077, "type": "electric_scooter"}, {"bike_id": "ad4979b56d880649c4df88d4d69c5496", "is_reserved": 0, "fusion_lon": 0.0, "lat": 38.929492833333335, "is_disabled": 0, "name": "ad4979b56d880649c4df88d4d69c5496", "fusion_lat": 0.0, "rental_uris": {"ios": "https://dc.lft.to/lastmile_qr_scan", "android": "https://dc.lft.to/lastmile_qr_scan"}, "lon": -77.04403566666667, "type": "electric_scooter"}, {"bike_id": "99e14d40294681d7ee361110f8b2ef20", "is_reserved": 0, "fusion_lon": 0.0, "lat": 38.91715583333333, "is_disabled": 0, "name": "99e14d40294681d7ee361110f8b2ef20", "fusion_lat": 0.0, "rental_uris": {"ios": "https://dc.lft.to/lastmile_qr_scan", "android": "https://dc.lft.to/lastmile_qr_scan"}, "lon": -77.01214066666667, "type": "electric_scooter"}, {"bike_id": "d2ae8aea6cd85c3e18054f7068e385b1", "is_reserved": 0, "fusion_lon": 0.0, "lat": 38.80224233333333, "is_disabled": 0, "name": "d2ae8aea6cd85c3e18054f7068e385b1", "fusion_lat": 0.0, "rental_uris": {"ios": "https://dc.lft.to/lastmile_qr_scan", "android": "https://dc.lft.to/lastmile_qr_scan"}, "lon": -77.07914216666667, "type": "electric_bike"}, {"bike_id": "5d2311c17090e117913cc9e5b0117208", "is_reserved": 0, "fusion_lon": 0.0, "lat": 38.93200933333333, "is_disabled": 0, "name": "5d2311c17090e117913cc9e5b0117208", "fusion_lat": 0.0, "rental_uris": {"ios": "https://dc.lft.to/lastmile_qr_scan", "android": "https://dc.lft.to/lastmile_qr_scan"}, "lon": -77.03869216666666, "type": "electric_scooter"}, {"bike_id": "5fd4574978308c88fb62c021e7ffe439", "is_reserved": 0, "fusion_lon": 0.0, "lat": 38.906369166666664, "is_disabled": 0, "name": "5fd4574978308c88fb62c021e7ffe439", "fusion_lat": 0.0, "rental_uris": {"ios": "https://dc.lft.to/lastmile_qr_scan", "android": "https://dc.lft.to/lastmile_qr_scan"}, "lon": -77.03892816666666, "type": "electric_scooter"}, {"bike_id": "97a94991dc1af8a882d38340e014e135", "is_reserved": 0, "fusion_lon": 0.0, "lat": 38.906871833333334, "is_disabled": 0, "name": "97a94991dc1af8a882d38340e014e135", "fusion_lat": 0.0, "rental_uris": {"ios": "https://dc.lft.to/lastmile_qr_scan", "android": "https://dc.lft.to/lastmile_qr_scan"}, "lon": -76.95185066666667, "type": "electric_bike"}, {"bike_id": "156acbbc7a7a2634ab04f34f27ad4cb3", "is_reserved": 0, "fusion_lon": 0.0, "lat": 38.94413816666667, "is_disabled": 0, "name": "156acbbc7a7a2634ab04f34f27ad4cb3", "fusion_lat": 0.0, "rental_uris": {"ios": "https://dc.lft.to/lastmile_qr_scan", "android": "https://dc.lft.to/lastmile_qr_scan"}, "lon": -77.05517016666667, "type": "electric_scooter"}, {"bike_id": "40636f082f40014f5c567e8e59c88900", "is_reserved": 0, "fusion_lon": 0.0, "lat": 38.901370166666666, "is_disabled": 0, "name": "40636f082f40014f5c567e8e59c88900", "fusion_lat": 0.0, "rental_uris": {"ios": "https://dc.lft.to/lastmile_qr_scan", "android": "https://dc.lft.to/lastmile_qr_scan"}, "lon": -77.03343883333334, "type": "electric_scooter"}, {"bike_id": "9098178350bc1992154eabc458f4c4aa", "is_reserved": 0, "fusion_lon": 0.0, "lat": 38.89736, "is_disabled": 0, "name": "9098178350bc1992154eabc458f4c4aa", "fusion_lat": 0.0, "rental_uris": {"ios": "https://dc.lft.to/lastmile_qr_scan", "android": "https://dc.lft.to/lastmile_qr_scan"}, "lon": -77.0557095, "type": "electric_scooter"}, {"bike_id": "6108e3316c4cb1eb51c51980c58279c2", "is_reserved": 0, "fusion_lon": 0.0, "lat": 38.88750116666667, "is_disabled": 0, "name": "6108e3316c4cb1eb51c51980c58279c2", "fusion_lat": 0.0, "rental_uris": {"ios": "https://dc.lft.to/lastmile_qr_scan", "android": "https://dc.lft.to/lastmile_qr_scan"}, "lon": -77.02973616666667, "type": "electric_scooter"}, {"bike_id": "c057ad2e8c1b7897805bbd1329a6a93a", "is_reserved": 0, "fusion_lon": 0.0, "lat": 38.94973816666667, "is_disabled": 0, "name": "c057ad2e8c1b7897805bbd1329a6a93a", "fusion_lat": 0.0, "rental_uris": {"ios": "https://dc.lft.to/lastmile_qr_scan", "android": "https://dc.lft.to/lastmile_qr_scan"}, "lon": -76.97284716666667, "type": "electric_bike"}, {"bike_id": "3adb76a6089805b78b8e32b5abcf6512", "is_reserved": 0, "fusion_lon": 0.0, "lat": 38.903796, "is_disabled": 0, "name": "3adb76a6089805b78b8e32b5abcf6512", "fusion_lat": 0.0, "rental_uris": {"ios": "https://dc.lft.to/lastmile_qr_scan", "android": "https://dc.lft.to/lastmile_qr_scan"}, "lon": -77.044836, "type": "electric_scooter"}, {"bike_id": "94d5990bb36afe3494ffb8d281c9c9e4", "is_reserved": 0, "fusion_lon": 0.0, "lat": 38.934395333333335, "is_disabled": 0, "name": "94d5990bb36afe3494ffb8d281c9c9e4", "fusion_lat": 0.0, "rental_uris": {"ios": "https://dc.lft.to/lastmile_qr_scan", "android": "https://dc.lft.to/lastmile_qr_scan"}, "lon": -77.07241566666667, "type": "electric_scooter"}, {"bike_id": "78735be70a09f9cb1d0ef3f0f482f50f", "is_reserved": 0, "fusion_lon": 0.0, "lat": 38.91959, "is_disabled": 0, "name": "78735be70a09f9cb1d0ef3f0f482f50f", "fusion_lat": 0.0, "rental_uris": {"ios": "https://dc.lft.to/lastmile_qr_scan", "android": "https://dc.lft.to/lastmile_qr_scan"}, "lon": -77.03207133333333, "type": "electric_scooter"}, {"bike_id": "01b6bf0dc08544304a6d6c020d52f1f5", "is_reserved": 0, "fusion_lon": 0.0, "lat": 38.890134333333336, "is_disabled": 0, "name": "01b6bf0dc08544304a6d6c020d52f1f5", "fusion_lat": 0.0, "rental_uris": {"ios": "https://dc.lft.to/lastmile_qr_scan", "android": "https://dc.lft.to/lastmile_qr_scan"}, "lon": -76.937306, "type": "electric_scooter"}, {"bike_id": "f34d2be687dc98b787c236233baff755", "is_reserved": 0, "fusion_lon": 0.0, "lat": 38.89692, "is_disabled": 0, "name": "f34d2be687dc98b787c236233baff755", "fusion_lat": 0.0, "rental_uris": {"ios": "https://dc.lft.to/lastmile_qr_scan", "android": "https://dc.lft.to/lastmile_qr_scan"}, "lon": -76.9961625, "type": "electric_scooter"}, {"bike_id": "2b43537d5bfa9ed922d93238746c4038", "is_reserved": 0, "fusion_lon": 0.0, "lat": 38.9007475, "is_disabled": 0, "name": "2b43537d5bfa9ed922d93238746c4038", "fusion_lat": 0.0, "rental_uris": {"ios": "https://dc.lft.to/lastmile_qr_scan", "android": "https://dc.lft.to/lastmile_qr_scan"}, "lon": -76.93878333333333, "type": "electric_scooter"}, {"bike_id": "5066c8735b51af42df655bb054fb5c16", "is_reserved": 0, "fusion_lon": 0.0, "lat": 38.901184666666666, "is_disabled": 0, "name": "5066c8735b51af42df655bb054fb5c16", "fusion_lat": 0.0, "rental_uris": {"ios": "https://dc.lft.to/lastmile_qr_scan", "android": "https://dc.lft.to/lastmile_qr_scan"}, "lon": -77.04988616666667, "type": "electric_scooter"}, {"bike_id": "2077870e4e6a24f6f58243d915a4e027", "is_reserved": 0, "fusion_lon": 0.0, "lat": 38.860124666666664, "is_disabled": 0, "name": "2077870e4e6a24f6f58243d915a4e027", "fusion_lat": 0.0, "rental_uris": {"ios": "https://dc.lft.to/lastmile_qr_scan", "android": "https://dc.lft.to/lastmile_qr_scan"}, "lon": -77.057733, "type": "electric_bike"}, {"bike_id": "f1cca0eaa8cd821ded010e4f6f52658d", "is_reserved": 0, "fusion_lon": 0.0, "lat": 38.89605433333333, "is_disabled": 0, "name": "f1cca0eaa8cd821ded010e4f6f52658d", "fusion_lat": 0.0, "rental_uris": {"ios": "https://dc.lft.to/lastmile_qr_scan", "android": "https://dc.lft.to/lastmile_qr_scan"}, "lon": -77.0284905, "type": "electric_scooter"}, {"bike_id": "7385a28058c996bd2399e0c3eb43bd27", "is_reserved": 0, "fusion_lon": 0.0, "lat": 38.891962166666666, "is_disabled": 0, "name": "7385a28058c996bd2399e0c3eb43bd27", "fusion_lat": 0.0, "rental_uris": {"ios": "https://dc.lft.to/lastmile_qr_scan", "android": "https://dc.lft.to/lastmile_qr_scan"}, "lon": -77.02980416666666, "type": "electric_scooter"}, {"bike_id": "81a882f1cbe17ae9a246250ad81671fb", "is_reserved": 0, "fusion_lon": 0.0, "lat": 38.908492, "is_disabled": 0, "name": "81a882f1cbe17ae9a246250ad81671fb", "fusion_lat": 0.0, "rental_uris": {"ios": "https://dc.lft.to/lastmile_qr_scan", "android": "https://dc.lft.to/lastmile_qr_scan"}, "lon": -77.04406966666667, "type": "electric_scooter"}, {"bike_id": "5fe60de1bfab2d8510ab2897250e62d7", "is_reserved": 0, "fusion_lon": 0.0, "lat": 38.898243, "is_disabled": 0, "name": "5fe60de1bfab2d8510ab2897250e62d7", "fusion_lat": 0.0, "rental_uris": {"ios": "https://dc.lft.to/lastmile_qr_scan", "android": "https://dc.lft.to/lastmile_qr_scan"}, "lon": -77.03311816666667, "type": "electric_scooter"}, {"bike_id": "55e9dd8b4e33335fb705fbd3977a1177", "is_reserved": 0, "fusion_lon": 0.0, "lat": 38.9289535, "is_disabled": 0, "name": "55e9dd8b4e33335fb705fbd3977a1177", "fusion_lat": 0.0, "rental_uris": {"ios": "https://dc.lft.to/lastmile_qr_scan", "android": "https://dc.lft.to/lastmile_qr_scan"}, "lon": -77.03175233333333, "type": "electric_scooter"}, {"bike_id": "e5d6fb7843bb543a5d19e9018006103a", "is_reserved": 0, "fusion_lon": 0.0, "lat": 38.90268616666667, "is_disabled": 0, "name": "e5d6fb7843bb543a5d19e9018006103a", "fusion_lat": 0.0, "rental_uris": {"ios": "https://dc.lft.to/lastmile_qr_scan", "android": "https://dc.lft.to/lastmile_qr_scan"}, "lon": -77.05916383333333, "type": "electric_scooter"}, {"bike_id": "774bcd8f4d8c76c4660756a722e0b9f4", "is_reserved": 0, "fusion_lon": 0.0, "lat": 38.9168475, "is_disabled": 0, "name": "774bcd8f4d8c76c4660756a722e0b9f4", "fusion_lat": 0.0, "rental_uris": {"ios": "https://dc.lft.to/lastmile_qr_scan", "android": "https://dc.lft.to/lastmile_qr_scan"}, "lon": -77.02969266666666, "type": "electric_scooter"}, {"bike_id": "babcff139116aeee4cb5812fc25adc14", "is_reserved": 0, "fusion_lon": 0.0, "lat": 38.869082666666664, "is_disabled": 0, "name": "babcff139116aeee4cb5812fc25adc14", "fusion_lat": 0.0, "rental_uris": {"ios": "https://dc.lft.to/lastmile_qr_scan", "android": "https://dc.lft.to/lastmile_qr_scan"}, "lon": -77.13177016666667, "type": "electric_bike"}, {"bike_id": "440a890371fabdf2ea674e66564a1015", "is_reserved": 0, "fusion_lon": 0.0, "lat": 38.896257166666665, "is_disabled": 0, "name": "440a890371fabdf2ea674e66564a1015", "fusion_lat": 0.0, "rental_uris": {"ios": "https://dc.lft.to/lastmile_qr_scan", "android": "https://dc.lft.to/lastmile_qr_scan"}, "lon": -76.99849283333333, "type": "electric_scooter"}, {"bike_id": "aaa5561ff0dde79471d5e04c143ab3d7", "is_reserved": 0, "fusion_lon": 0.0, "lat": 38.90484216666667, "is_disabled": 0, "name": "aaa5561ff0dde79471d5e04c143ab3d7", "fusion_lat": 0.0, "rental_uris": {"ios": "https://dc.lft.to/lastmile_qr_scan", "android": "https://dc.lft.to/lastmile_qr_scan"}, "lon": -77.04343483333334, "type": "electric_scooter"}, {"bike_id": "35f1db4a0f29e8ad2ce7e1d9f1c79261", "is_reserved": 0, "fusion_lon": 0.0, "lat": 38.90664366666667, "is_disabled": 0, "name": "35f1db4a0f29e8ad2ce7e1d9f1c79261", "fusion_lat": 0.0, "rental_uris": {"ios": "https://dc.lft.to/lastmile_qr_scan", "android": "https://dc.lft.to/lastmile_qr_scan"}, "lon": -77.03863083333333, "type": "electric_scooter"}, {"bike_id": "8a16155ffa9fc74f56b2aa07b76c176c", "is_reserved": 0, "fusion_lon": 0.0, "lat": 38.9069415, "is_disabled": 0, "name": "8a16155ffa9fc74f56b2aa07b76c176c", "fusion_lat": 0.0, "rental_uris": {"ios": "https://dc.lft.to/lastmile_qr_scan", "android": "https://dc.lft.to/lastmile_qr_scan"}, "lon": -77.013432, "type": "electric_scooter"}, {"bike_id": "9a3783294c0598f1a7807dd6a0319dda", "is_reserved": 0, "fusion_lon": 0.0, "lat": 38.926402, "is_disabled": 0, "name": "9a3783294c0598f1a7807dd6a0319dda", "fusion_lat": 0.0, "rental_uris": {"ios": "https://dc.lft.to/lastmile_qr_scan", "android": "https://dc.lft.to/lastmile_qr_scan"}, "lon": -77.03840516666666, "type": "electric_scooter"}, {"bike_id": "1b77e8417cbdffa70227a4a9c263dfab", "is_reserved": 0, "fusion_lon": 0.0, "lat": 38.90730283333333, "is_disabled": 0, "name": "1b77e8417cbdffa70227a4a9c263dfab", "fusion_lat": 0.0, "rental_uris": {"ios": "https://dc.lft.to/lastmile_qr_scan", "android": "https://dc.lft.to/lastmile_qr_scan"}, "lon": -77.04343916666667, "type": "electric_scooter"}, {"bike_id": "af6266b480309c7a564d57aeb96a8703", "is_reserved": 0, "fusion_lon": 0.0, "lat": 38.932568333333336, "is_disabled": 0, "name": "af6266b480309c7a564d57aeb96a8703", "fusion_lat": 0.0, "rental_uris": {"ios": "https://dc.lft.to/lastmile_qr_scan", "android": "https://dc.lft.to/lastmile_qr_scan"}, "lon": -77.03274116666667, "type": "electric_scooter"}, {"bike_id": "ca9a4caf7618454df3136c04456d3f05", "is_reserved": 0, "fusion_lon": 0.0, "lat": 38.90641516666667, "is_disabled": 0, "name": "ca9a4caf7618454df3136c04456d3f05", "fusion_lat": 0.0, "rental_uris": {"ios": "https://dc.lft.to/lastmile_qr_scan", "android": "https://dc.lft.to/lastmile_qr_scan"}, "lon": -77.01140216666667, "type": "electric_scooter"}, {"bike_id": "c81da3168799295169fffc7f9afde612", "is_reserved": 0, "fusion_lon": 0.0, "lat": 38.893877833333335, "is_disabled": 0, "name": "c81da3168799295169fffc7f9afde612", "fusion_lat": 0.0, "rental_uris": {"ios": "https://dc.lft.to/lastmile_qr_scan", "android": "https://dc.lft.to/lastmile_qr_scan"}, "lon": -77.02250933333333, "type": "electric_bike"}, {"bike_id": "8ff2b69ee9af788dee63b08e53e994b3", "is_reserved": 0, "fusion_lon": 0.0, "lat": 38.9224515, "is_disabled": 0, "name": "8ff2b69ee9af788dee63b08e53e994b3", "fusion_lat": 0.0, "rental_uris": {"ios": "https://dc.lft.to/lastmile_qr_scan", "android": "https://dc.lft.to/lastmile_qr_scan"}, "lon": -77.010037, "type": "electric_scooter"}, {"bike_id": "6aa62adba7eed7efbc213dc817f22dd8", "is_reserved": 0, "fusion_lon": 0.0, "lat": 38.918045666666664, "is_disabled": 0, "name": "6aa62adba7eed7efbc213dc817f22dd8", "fusion_lat": 0.0, "rental_uris": {"ios": "https://dc.lft.to/lastmile_qr_scan", "android": "https://dc.lft.to/lastmile_qr_scan"}, "lon": -77.03180033333334, "type": "electric_scooter"}, {"bike_id": "9443589c15d5c89773141355a464999a", "is_reserved": 0, "fusion_lon": 0.0, "lat": 38.922479833333334, "is_disabled": 0, "name": "9443589c15d5c89773141355a464999a", "fusion_lat": 0.0, "rental_uris": {"ios": "https://dc.lft.to/lastmile_qr_scan", "android": "https://dc.lft.to/lastmile_qr_scan"}, "lon": -77.03064016666667, "type": "electric_scooter"}, {"bike_id": "8dbb4c1ddb241a44e6b976b14b0cec0e", "is_reserved": 0, "fusion_lon": 0.0, "lat": 38.896063833333336, "is_disabled": 0, "name": "8dbb4c1ddb241a44e6b976b14b0cec0e", "fusion_lat": 0.0, "rental_uris": {"ios": "https://dc.lft.to/lastmile_qr_scan", "android": "https://dc.lft.to/lastmile_qr_scan"}, "lon": -77.042346, "type": "electric_scooter"}, {"bike_id": "ca1c7f694c416312a10f01bc36222fa1", "is_reserved": 0, "fusion_lon": 0.0, "lat": 39.038831, "is_disabled": 0, "name": "ca1c7f694c416312a10f01bc36222fa1", "fusion_lat": 0.0, "rental_uris": {"ios": "https://dc.lft.to/lastmile_qr_scan", "android": "https://dc.lft.to/lastmile_qr_scan"}, "lon": -76.99039216666667, "type": "electric_bike"}, {"bike_id": "e29c41c47b6a5162c95bbe3ba4a1ee2e", "is_reserved": 0, "fusion_lon": 0.0, "lat": 38.90833266666667, "is_disabled": 0, "name": "e29c41c47b6a5162c95bbe3ba4a1ee2e", "fusion_lat": 0.0, "rental_uris": {"ios": "https://dc.lft.to/lastmile_qr_scan", "android": "https://dc.lft.to/lastmile_qr_scan"}, "lon": -77.04348333333333, "type": "electric_scooter"}, {"bike_id": "cef0bffbbfcf15793d25fd7cd629d5fc", "is_reserved": 0, "fusion_lon": 0.0, "lat": 38.89226466666667, "is_disabled": 0, "name": "cef0bffbbfcf15793d25fd7cd629d5fc", "fusion_lat": 0.0, "rental_uris": {"ios": "https://dc.lft.to/lastmile_qr_scan", "android": "https://dc.lft.to/lastmile_qr_scan"}, "lon": -77.02443233333334, "type": "electric_scooter"}, {"bike_id": "fdd2de4760740aa279b83d46993ce72b", "is_reserved": 0, "fusion_lon": 0.0, "lat": 38.939524, "is_disabled": 0, "name": "fdd2de4760740aa279b83d46993ce72b", "fusion_lat": 0.0, "rental_uris": {"ios": "https://dc.lft.to/lastmile_qr_scan", "android": "https://dc.lft.to/lastmile_qr_scan"}, "lon": -77.0724355, "type": "electric_scooter"}, {"bike_id": "30b56a00c28a1506d5ea05aaa533495f", "is_reserved": 0, "fusion_lon": 0.0, "lat": 38.90614433333333, "is_disabled": 0, "name": "30b56a00c28a1506d5ea05aaa533495f", "fusion_lat": 0.0, "rental_uris": {"ios": "https://dc.lft.to/lastmile_qr_scan", "android": "https://dc.lft.to/lastmile_qr_scan"}, "lon": -77.07487183333333, "type": "electric_scooter"}, {"bike_id": "de6fd27da63236675849dc7743683f06", "is_reserved": 0, "fusion_lon": 0.0, "lat": 38.90413916666667, "is_disabled": 0, "name": "de6fd27da63236675849dc7743683f06", "fusion_lat": 0.0, "rental_uris": {"ios": "https://dc.lft.to/lastmile_qr_scan", "android": "https://dc.lft.to/lastmile_qr_scan"}, "lon": -77.04656133333333, "type": "electric_scooter"}, {"bike_id": "4a12800bf26e48cfec3578620a7f48d0", "is_reserved": 0, "fusion_lon": 0.0, "lat": 38.902363666666666, "is_disabled": 0, "name": "4a12800bf26e48cfec3578620a7f48d0", "fusion_lat": 0.0, "rental_uris": {"ios": "https://dc.lft.to/lastmile_qr_scan", "android": "https://dc.lft.to/lastmile_qr_scan"}, "lon": -77.02975966666666, "type": "electric_scooter"}, {"bike_id": "7d8d5f52f61d0aaecae4075b2edd7099", "is_reserved": 0, "fusion_lon": 0.0, "lat": 38.914379333333336, "is_disabled": 0, "name": "7d8d5f52f61d0aaecae4075b2edd7099", "fusion_lat": 0.0, "rental_uris": {"ios": "https://dc.lft.to/lastmile_qr_scan", "android": "https://dc.lft.to/lastmile_qr_scan"}, "lon": -77.04501766666667, "type": "electric_scooter"}, {"bike_id": "ec957aa6062ccaddcddc6e1190330a30", "is_reserved": 0, "fusion_lon": 0.0, "lat": 38.91667233333333, "is_disabled": 0, "name": "ec957aa6062ccaddcddc6e1190330a30", "fusion_lat": 0.0, "rental_uris": {"ios": "https://dc.lft.to/lastmile_qr_scan", "android": "https://dc.lft.to/lastmile_qr_scan"}, "lon": -77.0320985, "type": "electric_scooter"}, {"bike_id": "2a214933d61dbb3b261e5b0c9faf96db", "is_reserved": 0, "fusion_lon": 0.0, "lat": 38.909764833333334, "is_disabled": 0, "name": "2a214933d61dbb3b261e5b0c9faf96db", "fusion_lat": 0.0, "rental_uris": {"ios": "https://dc.lft.to/lastmile_qr_scan", "android": "https://dc.lft.to/lastmile_qr_scan"}, "lon": -77.02301416666667, "type": "electric_scooter"}, {"bike_id": "91aeb32fc423c8663a74e2c683183ce2", "is_reserved": 0, "fusion_lon": 0.0, "lat": 38.89470266666667, "is_disabled": 0, "name": "91aeb32fc423c8663a74e2c683183ce2", "fusion_lat": 0.0, "rental_uris": {"ios": "https://dc.lft.to/lastmile_qr_scan", "android": "https://dc.lft.to/lastmile_qr_scan"}, "lon": -77.02754016666667, "type": "electric_scooter"}, {"bike_id": "4852d087353793b61a4412acffaceab2", "is_reserved": 0, "fusion_lon": 0.0, "lat": 38.85535766666667, "is_disabled": 0, "name": "4852d087353793b61a4412acffaceab2", "fusion_lat": 0.0, "rental_uris": {"ios": "https://dc.lft.to/lastmile_qr_scan", "android": "https://dc.lft.to/lastmile_qr_scan"}, "lon": -77.1132755, "type": "electric_bike"}, {"bike_id": "8a7fa9acfeb965c3d6500b1f3d69fbfd", "is_reserved": 0, "fusion_lon": 0.0, "lat": 38.916909, "is_disabled": 0, "name": "8a7fa9acfeb965c3d6500b1f3d69fbfd", "fusion_lat": 0.0, "rental_uris": {"ios": "https://dc.lft.to/lastmile_qr_scan", "android": "https://dc.lft.to/lastmile_qr_scan"}, "lon": -77.02902816666666, "type": "electric_scooter"}, {"bike_id": "46ed55c39dfb35eedda1a64550d25970", "is_reserved": 0, "fusion_lon": 0.0, "lat": 38.9256505, "is_disabled": 0, "name": "46ed55c39dfb35eedda1a64550d25970", "fusion_lat": 0.0, "rental_uris": {"ios": "https://dc.lft.to/lastmile_qr_scan", "android": "https://dc.lft.to/lastmile_qr_scan"}, "lon": -77.03912216666667, "type": "electric_scooter"}, {"bike_id": "e749134d7c7adab4a9a05830f616fd35", "is_reserved": 0, "fusion_lon": 0.0, "lat": 38.91010133333333, "is_disabled": 0, "name": "e749134d7c7adab4a9a05830f616fd35", "fusion_lat": 0.0, "rental_uris": {"ios": "https://dc.lft.to/lastmile_qr_scan", "android": "https://dc.lft.to/lastmile_qr_scan"}, "lon": -76.9939825, "type": "electric_scooter"}, {"bike_id": "ba441c2c6c45c8dbd731efbf259f97aa", "is_reserved": 0, "fusion_lon": 0.0, "lat": 38.90384233333333, "is_disabled": 0, "name": "ba441c2c6c45c8dbd731efbf259f97aa", "fusion_lat": 0.0, "rental_uris": {"ios": "https://dc.lft.to/lastmile_qr_scan", "android": "https://dc.lft.to/lastmile_qr_scan"}, "lon": -77.0316165, "type": "electric_scooter"}, {"bike_id": "46214922341f71b5b987a3baefe209e3", "is_reserved": 0, "fusion_lon": 0.0, "lat": 38.91711183333334, "is_disabled": 0, "name": "46214922341f71b5b987a3baefe209e3", "fusion_lat": 0.0, "rental_uris": {"ios": "https://dc.lft.to/lastmile_qr_scan", "android": "https://dc.lft.to/lastmile_qr_scan"}, "lon": -77.03108066666667, "type": "electric_scooter"}, {"bike_id": "4612da19392f483149dcad854b711e6d", "is_reserved": 0, "fusion_lon": 0.0, "lat": 38.896722, "is_disabled": 0, "name": "4612da19392f483149dcad854b711e6d", "fusion_lat": 0.0, "rental_uris": {"ios": "https://dc.lft.to/lastmile_qr_scan", "android": "https://dc.lft.to/lastmile_qr_scan"}, "lon": -77.029675, "type": "electric_scooter"}, {"bike_id": "359dff0e4b909a1cba25d46c3311d123", "is_reserved": 0, "fusion_lon": 0.0, "lat": 38.89836416666667, "is_disabled": 0, "name": "359dff0e4b909a1cba25d46c3311d123", "fusion_lat": 0.0, "rental_uris": {"ios": "https://dc.lft.to/lastmile_qr_scan", "android": "https://dc.lft.to/lastmile_qr_scan"}, "lon": -77.029396, "type": "electric_scooter"}, {"bike_id": "42ad9776ef89c69aee2479197bff450a", "is_reserved": 0, "fusion_lon": 0.0, "lat": 38.8832, "is_disabled": 0, "name": "42ad9776ef89c69aee2479197bff450a", "fusion_lat": 0.0, "rental_uris": {"ios": "https://dc.lft.to/lastmile_qr_scan", "android": "https://dc.lft.to/lastmile_qr_scan"}, "lon": -77.01759016666666, "type": "electric_scooter"}, {"bike_id": "9913cc1132485014030c53b89dbbe4da", "is_reserved": 0, "fusion_lon": 0.0, "lat": 38.919462833333334, "is_disabled": 0, "name": "9913cc1132485014030c53b89dbbe4da", "fusion_lat": 0.0, "rental_uris": {"ios": "https://dc.lft.to/lastmile_qr_scan", "android": "https://dc.lft.to/lastmile_qr_scan"}, "lon": -77.0135155, "type": "electric_scooter"}, {"bike_id": "b647571e701985059e5fa07043d32647", "is_reserved": 0, "fusion_lon": 0.0, "lat": 38.916017, "is_disabled": 0, "name": "b647571e701985059e5fa07043d32647", "fusion_lat": 0.0, "rental_uris": {"ios": "https://dc.lft.to/lastmile_qr_scan", "android": "https://dc.lft.to/lastmile_qr_scan"}, "lon": -76.9838225, "type": "electric_scooter"}, {"bike_id": "a14a467409e4453a5868f2b973a1299d", "is_reserved": 0, "fusion_lon": 0.0, "lat": 38.936946166666665, "is_disabled": 0, "name": "a14a467409e4453a5868f2b973a1299d", "fusion_lat": 0.0, "rental_uris": {"ios": "https://dc.lft.to/lastmile_qr_scan", "android": "https://dc.lft.to/lastmile_qr_scan"}, "lon": -77.06025466666667, "type": "electric_scooter"}, {"bike_id": "b03b7cc09f456ceb54d3fe84d920d888", "is_reserved": 0, "fusion_lon": 0.0, "lat": 38.9129055, "is_disabled": 0, "name": "b03b7cc09f456ceb54d3fe84d920d888", "fusion_lat": 0.0, "rental_uris": {"ios": "https://dc.lft.to/lastmile_qr_scan", "android": "https://dc.lft.to/lastmile_qr_scan"}, "lon": -77.03843016666667, "type": "electric_scooter"}, {"bike_id": "480c1f99b1b67ce267810a25e0c14a79", "is_reserved": 0, "fusion_lon": 0.0, "lat": 38.900299833333335, "is_disabled": 0, "name": "480c1f99b1b67ce267810a25e0c14a79", "fusion_lat": 0.0, "rental_uris": {"ios": "https://dc.lft.to/lastmile_qr_scan", "android": "https://dc.lft.to/lastmile_qr_scan"}, "lon": -76.98756233333333, "type": "electric_scooter"}, {"bike_id": "0ba3ee96c4e5c8814342c4c223dd32de", "is_reserved": 0, "fusion_lon": 0.0, "lat": 38.904876, "is_disabled": 0, "name": "0ba3ee96c4e5c8814342c4c223dd32de", "fusion_lat": 0.0, "rental_uris": {"ios": "https://dc.lft.to/lastmile_qr_scan", "android": "https://dc.lft.to/lastmile_qr_scan"}, "lon": -77.06011116666667, "type": "electric_scooter"}, {"bike_id": "6212c11473a7a5db5c834ef65a1981f6", "is_reserved": 0, "fusion_lon": 0.0, "lat": 38.9014025, "is_disabled": 0, "name": "6212c11473a7a5db5c834ef65a1981f6", "fusion_lat": 0.0, "rental_uris": {"ios": "https://dc.lft.to/lastmile_qr_scan", "android": "https://dc.lft.to/lastmile_qr_scan"}, "lon": -76.99793233333334, "type": "electric_scooter"}, {"bike_id": "a84ec546d93bb12e6552572dd06f0d36", "is_reserved": 0, "fusion_lon": 0.0, "lat": 38.92117066666667, "is_disabled": 0, "name": "a84ec546d93bb12e6552572dd06f0d36", "fusion_lat": 0.0, "rental_uris": {"ios": "https://dc.lft.to/lastmile_qr_scan", "android": "https://dc.lft.to/lastmile_qr_scan"}, "lon": -77.04198033333333, "type": "electric_scooter"}, {"bike_id": "cbf1eaaf241a660b887cfe5c7174e364", "is_reserved": 0, "fusion_lon": 0.0, "lat": 39.03046, "is_disabled": 0, "name": "cbf1eaaf241a660b887cfe5c7174e364", "fusion_lat": 0.0, "rental_uris": {"ios": "https://dc.lft.to/lastmile_qr_scan", "android": "https://dc.lft.to/lastmile_qr_scan"}, "lon": -77.09474716666666, "type": "electric_bike"}, {"bike_id": "d0aa8daf8d80483acc440ae36f9a5df8", "is_reserved": 0, "fusion_lon": 0.0, "lat": 38.931141833333335, "is_disabled": 0, "name": "d0aa8daf8d80483acc440ae36f9a5df8", "fusion_lat": 0.0, "rental_uris": {"ios": "https://dc.lft.to/lastmile_qr_scan", "android": "https://dc.lft.to/lastmile_qr_scan"}, "lon": -77.03842, "type": "electric_scooter"}, {"bike_id": "a38a36aa66300a8539192b5416da8e9b", "is_reserved": 0, "fusion_lon": 0.0, "lat": 38.916444, "is_disabled": 0, "name": "a38a36aa66300a8539192b5416da8e9b", "fusion_lat": 0.0, "rental_uris": {"ios": "https://dc.lft.to/lastmile_qr_scan", "android": "https://dc.lft.to/lastmile_qr_scan"}, "lon": -77.03216783333333, "type": "electric_scooter"}, {"bike_id": "66df5d0e51129a4cb99b40888541d26a", "is_reserved": 0, "fusion_lon": 0.0, "lat": 38.97100866666667, "is_disabled": 0, "name": "66df5d0e51129a4cb99b40888541d26a", "fusion_lat": 0.0, "rental_uris": {"ios": "https://dc.lft.to/lastmile_qr_scan", "android": "https://dc.lft.to/lastmile_qr_scan"}, "lon": -76.936151, "type": "electric_bike"}, {"bike_id": "c89465a3278ce0d2c2efe49f9db4944e", "is_reserved": 0, "fusion_lon": 0.0, "lat": 38.839359333333334, "is_disabled": 0, "name": "c89465a3278ce0d2c2efe49f9db4944e", "fusion_lat": 0.0, "rental_uris": {"ios": "https://dc.lft.to/lastmile_qr_scan", "android": "https://dc.lft.to/lastmile_qr_scan"}, "lon": -77.07906433333333, "type": "electric_bike"}, {"bike_id": "40f0f9d16ccdb28cfcf94f0b77edfa56", "is_reserved": 0, "fusion_lon": 0.0, "lat": 38.90833683333334, "is_disabled": 0, "name": "40f0f9d16ccdb28cfcf94f0b77edfa56", "fusion_lat": 0.0, "rental_uris": {"ios": "https://dc.lft.to/lastmile_qr_scan", "android": "https://dc.lft.to/lastmile_qr_scan"}, "lon": -77.0434325, "type": "electric_scooter"}, {"bike_id": "b43342fe8b2d48d9ac46607a3e748f4f", "is_reserved": 0, "fusion_lon": 0.0, "lat": 38.914114, "is_disabled": 0, "name": "b43342fe8b2d48d9ac46607a3e748f4f", "fusion_lat": 0.0, "rental_uris": {"ios": "https://dc.lft.to/lastmile_qr_scan", "android": "https://dc.lft.to/lastmile_qr_scan"}, "lon": -77.02083266666666, "type": "electric_scooter"}, {"bike_id": "5b6b46405ad6d84ac287683f949057bc", "is_reserved": 0, "fusion_lon": 0.0, "lat": 38.842825833333336, "is_disabled": 0, "name": "5b6b46405ad6d84ac287683f949057bc", "fusion_lat": 0.0, "rental_uris": {"ios": "https://dc.lft.to/lastmile_qr_scan", "android": "https://dc.lft.to/lastmile_qr_scan"}, "lon": -76.98840133333333, "type": "electric_bike"}, {"bike_id": "9f19686003af31af7e02847029e7366f", "is_reserved": 0, "fusion_lon": 0.0, "lat": 38.89825316666666, "is_disabled": 0, "name": "9f19686003af31af7e02847029e7366f", "fusion_lat": 0.0, "rental_uris": {"ios": "https://dc.lft.to/lastmile_qr_scan", "android": "https://dc.lft.to/lastmile_qr_scan"}, "lon": -77.03321566666666, "type": "electric_scooter"}, {"bike_id": "77e64025b923263f60a2d18a5e488c81", "is_reserved": 0, "fusion_lon": 0.0, "lat": 38.8849395, "is_disabled": 0, "name": "77e64025b923263f60a2d18a5e488c81", "fusion_lat": 0.0, "rental_uris": {"ios": "https://dc.lft.to/lastmile_qr_scan", "android": "https://dc.lft.to/lastmile_qr_scan"}, "lon": -77.00728383333333, "type": "electric_scooter"}, {"bike_id": "6c5ebe23b7b501132b74bebd442003ae", "is_reserved": 0, "fusion_lon": 0.0, "lat": 38.9059305, "is_disabled": 0, "name": "6c5ebe23b7b501132b74bebd442003ae", "fusion_lat": 0.0, "rental_uris": {"ios": "https://dc.lft.to/lastmile_qr_scan", "android": "https://dc.lft.to/lastmile_qr_scan"}, "lon": -77.016113, "type": "electric_scooter"}, {"bike_id": "ba8d0b5f696ce51cc332480d53072542", "is_reserved": 0, "fusion_lon": 0.0, "lat": 38.90322916666667, "is_disabled": 0, "name": "ba8d0b5f696ce51cc332480d53072542", "fusion_lat": 0.0, "rental_uris": {"ios": "https://dc.lft.to/lastmile_qr_scan", "android": "https://dc.lft.to/lastmile_qr_scan"}, "lon": -77.0332055, "type": "electric_scooter"}, {"bike_id": "938170370600dc011e6330c5827c4ba0", "is_reserved": 0, "fusion_lon": 0.0, "lat": 38.9, "is_disabled": 0, "name": "938170370600dc011e6330c5827c4ba0", "fusion_lat": 0.0, "rental_uris": {"ios": "https://dc.lft.to/lastmile_qr_scan", "android": "https://dc.lft.to/lastmile_qr_scan"}, "lon": -77.011606, "type": "electric_scooter"}, {"bike_id": "a3765318d7feaf396ff269e45928d224", "is_reserved": 0, "fusion_lon": 0.0, "lat": 38.920013, "is_disabled": 0, "name": "a3765318d7feaf396ff269e45928d224", "fusion_lat": 0.0, "rental_uris": {"ios": "https://dc.lft.to/lastmile_qr_scan", "android": "https://dc.lft.to/lastmile_qr_scan"}, "lon": -77.0347285, "type": "electric_scooter"}, {"bike_id": "82ef111a2bfc0c03481da02b644de8a2", "is_reserved": 0, "fusion_lon": 0.0, "lat": 38.901356666666665, "is_disabled": 0, "name": "82ef111a2bfc0c03481da02b644de8a2", "fusion_lat": 0.0, "rental_uris": {"ios": "https://dc.lft.to/lastmile_qr_scan", "android": "https://dc.lft.to/lastmile_qr_scan"}, "lon": -77.029227, "type": "electric_scooter"}, {"bike_id": "a9668c4b77c29199dda3284608e8f597", "is_reserved": 0, "fusion_lon": 0.0, "lat": 38.9376435, "is_disabled": 0, "name": "a9668c4b77c29199dda3284608e8f597", "fusion_lat": 0.0, "rental_uris": {"ios": "https://dc.lft.to/lastmile_qr_scan", "android": "https://dc.lft.to/lastmile_qr_scan"}, "lon": -77.02261316666667, "type": "electric_scooter"}, {"bike_id": "c41cc313c21f0a9c517230dba4518464", "is_reserved": 0, "fusion_lon": 0.0, "lat": 38.839835666666666, "is_disabled": 0, "name": "c41cc313c21f0a9c517230dba4518464", "fusion_lat": 0.0, "rental_uris": {"ios": "https://dc.lft.to/lastmile_qr_scan", "android": "https://dc.lft.to/lastmile_qr_scan"}, "lon": -77.00567266666667, "type": "electric_bike"}, {"bike_id": "08db769515d931a3a02552b72d13eeab", "is_reserved": 0, "fusion_lon": 0.0, "lat": 38.914213833333335, "is_disabled": 0, "name": "08db769515d931a3a02552b72d13eeab", "fusion_lat": 0.0, "rental_uris": {"ios": "https://dc.lft.to/lastmile_qr_scan", "android": "https://dc.lft.to/lastmile_qr_scan"}, "lon": -77.03811833333333, "type": "electric_scooter"}, {"bike_id": "830b492b0cf2c5ae5428493142afb25f", "is_reserved": 0, "fusion_lon": 0.0, "lat": 38.900579, "is_disabled": 0, "name": "830b492b0cf2c5ae5428493142afb25f", "fusion_lat": 0.0, "rental_uris": {"ios": "https://dc.lft.to/lastmile_qr_scan", "android": "https://dc.lft.to/lastmile_qr_scan"}, "lon": -77.05125416666667, "type": "electric_scooter"}, {"bike_id": "8e7b04ab484aaab2263ad117dfed0ab0", "is_reserved": 0, "fusion_lon": 0.0, "lat": 38.93079733333333, "is_disabled": 0, "name": "8e7b04ab484aaab2263ad117dfed0ab0", "fusion_lat": 0.0, "rental_uris": {"ios": "https://dc.lft.to/lastmile_qr_scan", "android": "https://dc.lft.to/lastmile_qr_scan"}, "lon": -77.02799366666666, "type": "electric_scooter"}, {"bike_id": "7246d51d9f93fac064181398ed9b816a", "is_reserved": 0, "fusion_lon": 0.0, "lat": 38.90073183333333, "is_disabled": 0, "name": "7246d51d9f93fac064181398ed9b816a", "fusion_lat": 0.0, "rental_uris": {"ios": "https://dc.lft.to/lastmile_qr_scan", "android": "https://dc.lft.to/lastmile_qr_scan"}, "lon": -77.05027816666667, "type": "electric_scooter"}, {"bike_id": "3b2b4c2cb7388ca590428aa59f4ad77c", "is_reserved": 0, "fusion_lon": 0.0, "lat": 38.86660333333333, "is_disabled": 0, "name": "3b2b4c2cb7388ca590428aa59f4ad77c", "fusion_lat": 0.0, "rental_uris": {"ios": "https://dc.lft.to/lastmile_qr_scan", "android": "https://dc.lft.to/lastmile_qr_scan"}, "lon": -76.99012366666666, "type": "electric_scooter"}, {"bike_id": "d6adad12a24a1d252eb5eb1928d9b013", "is_reserved": 0, "fusion_lon": 0.0, "lat": 38.9055715, "is_disabled": 0, "name": "d6adad12a24a1d252eb5eb1928d9b013", "fusion_lat": 0.0, "rental_uris": {"ios": "https://dc.lft.to/lastmile_qr_scan", "android": "https://dc.lft.to/lastmile_qr_scan"}, "lon": -77.0485185, "type": "electric_scooter"}, {"bike_id": "78194a3b4083c9079679513832c6160f", "is_reserved": 0, "fusion_lon": 0.0, "lat": 38.89823783333333, "is_disabled": 0, "name": "78194a3b4083c9079679513832c6160f", "fusion_lat": 0.0, "rental_uris": {"ios": "https://dc.lft.to/lastmile_qr_scan", "android": "https://dc.lft.to/lastmile_qr_scan"}, "lon": -76.94651883333333, "type": "electric_scooter"}, {"bike_id": "8720528eec581bd2dfb2fa8c8cea05b6", "is_reserved": 0, "fusion_lon": 0.0, "lat": 38.89823483333333, "is_disabled": 0, "name": "8720528eec581bd2dfb2fa8c8cea05b6", "fusion_lat": 0.0, "rental_uris": {"ios": "https://dc.lft.to/lastmile_qr_scan", "android": "https://dc.lft.to/lastmile_qr_scan"}, "lon": -76.94652783333333, "type": "electric_scooter"}, {"bike_id": "adf88f52a7334d6e982cd0b9f79413b7", "is_reserved": 0, "fusion_lon": 0.0, "lat": 38.902480833333335, "is_disabled": 0, "name": "adf88f52a7334d6e982cd0b9f79413b7", "fusion_lat": 0.0, "rental_uris": {"ios": "https://dc.lft.to/lastmile_qr_scan", "android": "https://dc.lft.to/lastmile_qr_scan"}, "lon": -77.03676433333334, "type": "electric_bike"}, {"bike_id": "18ddfa59a4b076fdb18e315f06238ff4", "is_reserved": 0, "fusion_lon": 0.0, "lat": 38.93173483333333, "is_disabled": 0, "name": "18ddfa59a4b076fdb18e315f06238ff4", "fusion_lat": 0.0, "rental_uris": {"ios": "https://dc.lft.to/lastmile_qr_scan", "android": "https://dc.lft.to/lastmile_qr_scan"}, "lon": -77.0562815, "type": "electric_scooter"}, {"bike_id": "8ccb4080f4b2e8def57dfba24448f093", "is_reserved": 0, "fusion_lon": 0.0, "lat": 38.88773883333333, "is_disabled": 0, "name": "8ccb4080f4b2e8def57dfba24448f093", "fusion_lat": 0.0, "rental_uris": {"ios": "https://dc.lft.to/lastmile_qr_scan", "android": "https://dc.lft.to/lastmile_qr_scan"}, "lon": -76.932633, "type": "electric_scooter"}, {"bike_id": "0c0bf85937d885535fa28d0c595974fc", "is_reserved": 0, "fusion_lon": 0.0, "lat": 38.897702833333334, "is_disabled": 0, "name": "0c0bf85937d885535fa28d0c595974fc", "fusion_lat": 0.0, "rental_uris": {"ios": "https://dc.lft.to/lastmile_qr_scan", "android": "https://dc.lft.to/lastmile_qr_scan"}, "lon": -77.05448866666667, "type": "electric_scooter"}, {"bike_id": "6af206b286d198014310d5b32f2abeca", "is_reserved": 0, "fusion_lon": 0.0, "lat": 38.902187833333336, "is_disabled": 0, "name": "6af206b286d198014310d5b32f2abeca", "fusion_lat": 0.0, "rental_uris": {"ios": "https://dc.lft.to/lastmile_qr_scan", "android": "https://dc.lft.to/lastmile_qr_scan"}, "lon": -77.06060783333334, "type": "electric_scooter"}, {"bike_id": "d9718d756742e46f4f7cd4e042558bbc", "is_reserved": 0, "fusion_lon": 0.0, "lat": 38.89093583333333, "is_disabled": 0, "name": "d9718d756742e46f4f7cd4e042558bbc", "fusion_lat": 0.0, "rental_uris": {"ios": "https://dc.lft.to/lastmile_qr_scan", "android": "https://dc.lft.to/lastmile_qr_scan"}, "lon": -76.94392, "type": "electric_scooter"}, {"bike_id": "05addb6267b1ca2e7e1f5fbd45406bab", "is_reserved": 0, "fusion_lon": 0.0, "lat": 38.8967075, "is_disabled": 0, "name": "05addb6267b1ca2e7e1f5fbd45406bab", "fusion_lat": 0.0, "rental_uris": {"ios": "https://dc.lft.to/lastmile_qr_scan", "android": "https://dc.lft.to/lastmile_qr_scan"}, "lon": -77.02606416666667, "type": "electric_scooter"}, {"bike_id": "7e37ef75ed9e40c977111103001ea83e", "is_reserved": 0, "fusion_lon": 0.0, "lat": 38.923632, "is_disabled": 0, "name": "7e37ef75ed9e40c977111103001ea83e", "fusion_lat": 0.0, "rental_uris": {"ios": "https://dc.lft.to/lastmile_qr_scan", "android": "https://dc.lft.to/lastmile_qr_scan"}, "lon": -77.01912783333333, "type": "electric_scooter"}, {"bike_id": "6ed21c4919816d7007fcdc09b8498246", "is_reserved": 0, "fusion_lon": 0.0, "lat": 38.902776333333335, "is_disabled": 0, "name": "6ed21c4919816d7007fcdc09b8498246", "fusion_lat": 0.0, "rental_uris": {"ios": "https://dc.lft.to/lastmile_qr_scan", "android": "https://dc.lft.to/lastmile_qr_scan"}, "lon": -77.0385325, "type": "electric_scooter"}, {"bike_id": "7b6ae26c526f3286b0834053cc26ce41", "is_reserved": 0, "fusion_lon": 0.0, "lat": 38.92398683333333, "is_disabled": 0, "name": "7b6ae26c526f3286b0834053cc26ce41", "fusion_lat": 0.0, "rental_uris": {"ios": "https://dc.lft.to/lastmile_qr_scan", "android": "https://dc.lft.to/lastmile_qr_scan"}, "lon": -77.04059266666667, "type": "electric_scooter"}, {"bike_id": "bbd0920dd7132d426271ee265b7a87be", "is_reserved": 0, "fusion_lon": 0.0, "lat": 38.89833766666667, "is_disabled": 0, "name": "bbd0920dd7132d426271ee265b7a87be", "fusion_lat": 0.0, "rental_uris": {"ios": "https://dc.lft.to/lastmile_qr_scan", "android": "https://dc.lft.to/lastmile_qr_scan"}, "lon": -76.94652016666667, "type": "electric_scooter"}, {"bike_id": "2d9419aa68f0820e2f4a5b4a2da6819d", "is_reserved": 0, "fusion_lon": 0.0, "lat": 38.92252416666667, "is_disabled": 0, "name": "2d9419aa68f0820e2f4a5b4a2da6819d", "fusion_lat": 0.0, "rental_uris": {"ios": "https://dc.lft.to/lastmile_qr_scan", "android": "https://dc.lft.to/lastmile_qr_scan"}, "lon": -77.03455233333334, "type": "electric_scooter"}, {"bike_id": "7a8b891bf0ffa0c2353b76bb3247bd30", "is_reserved": 0, "fusion_lon": 0.0, "lat": 38.90860383333333, "is_disabled": 0, "name": "7a8b891bf0ffa0c2353b76bb3247bd30", "fusion_lat": 0.0, "rental_uris": {"ios": "https://dc.lft.to/lastmile_qr_scan", "android": "https://dc.lft.to/lastmile_qr_scan"}, "lon": -77.0273035, "type": "electric_scooter"}, {"bike_id": "a2be127f4f7b159e5539558a1bca9263", "is_reserved": 0, "fusion_lon": 0.0, "lat": 38.95555233333333, "is_disabled": 0, "name": "a2be127f4f7b159e5539558a1bca9263", "fusion_lat": 0.0, "rental_uris": {"ios": "https://dc.lft.to/lastmile_qr_scan", "android": "https://dc.lft.to/lastmile_qr_scan"}, "lon": -76.94017, "type": "electric_bike"}, {"bike_id": "cbf3272f9c9292bc2b94c7f1f359b403", "is_reserved": 0, "fusion_lon": 0.0, "lat": 38.902821333333335, "is_disabled": 0, "name": "cbf3272f9c9292bc2b94c7f1f359b403", "fusion_lat": 0.0, "rental_uris": {"ios": "https://dc.lft.to/lastmile_qr_scan", "android": "https://dc.lft.to/lastmile_qr_scan"}, "lon": -77.03674466666666, "type": "electric_scooter"}, {"bike_id": "08cc42fdac1cef3012f080aeef040b11", "is_reserved": 0, "fusion_lon": 0.0, "lat": 38.88006716666666, "is_disabled": 0, "name": "08cc42fdac1cef3012f080aeef040b11", "fusion_lat": 0.0, "rental_uris": {"ios": "https://dc.lft.to/lastmile_qr_scan", "android": "https://dc.lft.to/lastmile_qr_scan"}, "lon": -76.9159415, "type": "electric_bike"}, {"bike_id": "9a41d2cef391acacb9c9072c182b41a2", "is_reserved": 0, "fusion_lon": 0.0, "lat": 38.933400166666665, "is_disabled": 0, "name": "9a41d2cef391acacb9c9072c182b41a2", "fusion_lat": 0.0, "rental_uris": {"ios": "https://dc.lft.to/lastmile_qr_scan", "android": "https://dc.lft.to/lastmile_qr_scan"}, "lon": -77.042007, "type": "electric_bike"}, {"bike_id": "5722c9eb7ec78c5c369048111a9be1d9", "is_reserved": 0, "fusion_lon": 0.0, "lat": 38.922376666666665, "is_disabled": 0, "name": "5722c9eb7ec78c5c369048111a9be1d9", "fusion_lat": 0.0, "rental_uris": {"ios": "https://dc.lft.to/lastmile_qr_scan", "android": "https://dc.lft.to/lastmile_qr_scan"}, "lon": -77.0411595, "type": "electric_scooter"}, {"bike_id": "7016e329a5d83a090fbe879cc3f85b55", "is_reserved": 0, "fusion_lon": 0.0, "lat": 38.91988966666667, "is_disabled": 0, "name": "7016e329a5d83a090fbe879cc3f85b55", "fusion_lat": 0.0, "rental_uris": {"ios": "https://dc.lft.to/lastmile_qr_scan", "android": "https://dc.lft.to/lastmile_qr_scan"}, "lon": -77.04178116666667, "type": "electric_scooter"}, {"bike_id": "16caf67aa7a233cf2ba0cc6dbc38b827", "is_reserved": 0, "fusion_lon": 0.0, "lat": 38.91859383333333, "is_disabled": 0, "name": "16caf67aa7a233cf2ba0cc6dbc38b827", "fusion_lat": 0.0, "rental_uris": {"ios": "https://dc.lft.to/lastmile_qr_scan", "android": "https://dc.lft.to/lastmile_qr_scan"}, "lon": -76.96088516666667, "type": "electric_bike"}, {"bike_id": "a022c18d89149b675745a5cee280e732", "is_reserved": 0, "fusion_lon": 0.0, "lat": 38.92320483333334, "is_disabled": 0, "name": "a022c18d89149b675745a5cee280e732", "fusion_lat": 0.0, "rental_uris": {"ios": "https://dc.lft.to/lastmile_qr_scan", "android": "https://dc.lft.to/lastmile_qr_scan"}, "lon": -77.04486, "type": "electric_scooter"}, {"bike_id": "704953d39c8b5383a23492b918586e3b", "is_reserved": 0, "fusion_lon": 0.0, "lat": 38.90891116666667, "is_disabled": 0, "name": "704953d39c8b5383a23492b918586e3b", "fusion_lat": 0.0, "rental_uris": {"ios": "https://dc.lft.to/lastmile_qr_scan", "android": "https://dc.lft.to/lastmile_qr_scan"}, "lon": -77.08627016666667, "type": "electric_scooter"}, {"bike_id": "6a0078d48f4e30078cb5aec68dc117be", "is_reserved": 0, "fusion_lon": 0.0, "lat": 38.890252833333335, "is_disabled": 0, "name": "6a0078d48f4e30078cb5aec68dc117be", "fusion_lat": 0.0, "rental_uris": {"ios": "https://dc.lft.to/lastmile_qr_scan", "android": "https://dc.lft.to/lastmile_qr_scan"}, "lon": -76.9368535, "type": "electric_scooter"}, {"bike_id": "5827953a26b88c2d52897d8142df5434", "is_reserved": 0, "fusion_lon": 0.0, "lat": 38.897904833333335, "is_disabled": 0, "name": "5827953a26b88c2d52897d8142df5434", "fusion_lat": 0.0, "rental_uris": {"ios": "https://dc.lft.to/lastmile_qr_scan", "android": "https://dc.lft.to/lastmile_qr_scan"}, "lon": -77.00761216666666, "type": "electric_bike"}, {"bike_id": "fb3ff217ae48bf7244099403b1caf6ba", "is_reserved": 0, "fusion_lon": 0.0, "lat": 38.8244775, "is_disabled": 0, "name": "fb3ff217ae48bf7244099403b1caf6ba", "fusion_lat": 0.0, "rental_uris": {"ios": "https://dc.lft.to/lastmile_qr_scan", "android": "https://dc.lft.to/lastmile_qr_scan"}, "lon": -77.07041116666667, "type": "electric_bike"}, {"bike_id": "fb54f6d10f1f7cdf77c1e287fffbc129", "is_reserved": 0, "fusion_lon": 0.0, "lat": 38.892439833333334, "is_disabled": 0, "name": "fb54f6d10f1f7cdf77c1e287fffbc129", "fusion_lat": 0.0, "rental_uris": {"ios": "https://dc.lft.to/lastmile_qr_scan", "android": "https://dc.lft.to/lastmile_qr_scan"}, "lon": -77.03214733333333, "type": "electric_scooter"}, {"bike_id": "aae85bff6a374ba6c0c8428ecf8d084c", "is_reserved": 0, "fusion_lon": 0.0, "lat": 38.90667066666666, "is_disabled": 0, "name": "aae85bff6a374ba6c0c8428ecf8d084c", "fusion_lat": 0.0, "rental_uris": {"ios": "https://dc.lft.to/lastmile_qr_scan", "android": "https://dc.lft.to/lastmile_qr_scan"}, "lon": -76.99961216666667, "type": "electric_bike"}, {"bike_id": "18f0118e68ad1be62eb6930534330f3f", "is_reserved": 0, "fusion_lon": 0.0, "lat": 38.90360616666667, "is_disabled": 0, "name": "18f0118e68ad1be62eb6930534330f3f", "fusion_lat": 0.0, "rental_uris": {"ios": "https://dc.lft.to/lastmile_qr_scan", "android": "https://dc.lft.to/lastmile_qr_scan"}, "lon": -77.03918583333333, "type": "electric_scooter"}, {"bike_id": "091ece9a82cc120ba3c6668d5014aa9d", "is_reserved": 0, "fusion_lon": 0.0, "lat": 38.8977345, "is_disabled": 0, "name": "091ece9a82cc120ba3c6668d5014aa9d", "fusion_lat": 0.0, "rental_uris": {"ios": "https://dc.lft.to/lastmile_qr_scan", "android": "https://dc.lft.to/lastmile_qr_scan"}, "lon": -76.9772545, "type": "electric_scooter"}, {"bike_id": "9c4d4be6d3996f06183ea2d13b814d41", "is_reserved": 0, "fusion_lon": 0.0, "lat": 38.9201665, "is_disabled": 0, "name": "9c4d4be6d3996f06183ea2d13b814d41", "fusion_lat": 0.0, "rental_uris": {"ios": "https://dc.lft.to/lastmile_qr_scan", "android": "https://dc.lft.to/lastmile_qr_scan"}, "lon": -77.03122666666667, "type": "electric_scooter"}, {"bike_id": "044e9953ad5d5b369f1083991cc275b1", "is_reserved": 0, "fusion_lon": 0.0, "lat": 38.89358, "is_disabled": 0, "name": "044e9953ad5d5b369f1083991cc275b1", "fusion_lat": 0.0, "rental_uris": {"ios": "https://dc.lft.to/lastmile_qr_scan", "android": "https://dc.lft.to/lastmile_qr_scan"}, "lon": -76.9851375, "type": "electric_bike"}, {"bike_id": "0c37c7dcfc46695ef682d124f90e3072", "is_reserved": 0, "fusion_lon": 0.0, "lat": 38.899599333333335, "is_disabled": 0, "name": "0c37c7dcfc46695ef682d124f90e3072", "fusion_lat": 0.0, "rental_uris": {"ios": "https://dc.lft.to/lastmile_qr_scan", "android": "https://dc.lft.to/lastmile_qr_scan"}, "lon": -77.0336455, "type": "electric_scooter"}, {"bike_id": "4ec24cffa2a596811196748153d3be5d", "is_reserved": 0, "fusion_lon": 0.0, "lat": 38.89879066666666, "is_disabled": 0, "name": "4ec24cffa2a596811196748153d3be5d", "fusion_lat": 0.0, "rental_uris": {"ios": "https://dc.lft.to/lastmile_qr_scan", "android": "https://dc.lft.to/lastmile_qr_scan"}, "lon": -76.93159116666666, "type": "electric_scooter"}, {"bike_id": "72b6fb90c9e55fc064726991d94fbf05", "is_reserved": 0, "fusion_lon": 0.0, "lat": 38.933322833333335, "is_disabled": 0, "name": "72b6fb90c9e55fc064726991d94fbf05", "fusion_lat": 0.0, "rental_uris": {"ios": "https://dc.lft.to/lastmile_qr_scan", "android": "https://dc.lft.to/lastmile_qr_scan"}, "lon": -77.03268533333333, "type": "electric_scooter"}, {"bike_id": "829c9edfbf4ff43cfd3736b9eeea94f3", "is_reserved": 0, "fusion_lon": 0.0, "lat": 38.8637335, "is_disabled": 0, "name": "829c9edfbf4ff43cfd3736b9eeea94f3", "fusion_lat": 0.0, "rental_uris": {"ios": "https://dc.lft.to/lastmile_qr_scan", "android": "https://dc.lft.to/lastmile_qr_scan"}, "lon": -76.99057216666667, "type": "electric_scooter"}, {"bike_id": "f5f11c5b4c452553bee5e5b418bfc70b", "is_reserved": 0, "fusion_lon": 0.0, "lat": 38.876271, "is_disabled": 0, "name": "f5f11c5b4c452553bee5e5b418bfc70b", "fusion_lat": 0.0, "rental_uris": {"ios": "https://dc.lft.to/lastmile_qr_scan", "android": "https://dc.lft.to/lastmile_qr_scan"}, "lon": -77.000477, "type": "electric_scooter"}, {"bike_id": "197c3c4b5dd58bcdd374ac1d33389520", "is_reserved": 0, "fusion_lon": 0.0, "lat": 38.933771, "is_disabled": 0, "name": "197c3c4b5dd58bcdd374ac1d33389520", "fusion_lat": 0.0, "rental_uris": {"ios": "https://dc.lft.to/lastmile_qr_scan", "android": "https://dc.lft.to/lastmile_qr_scan"}, "lon": -77.03469733333333, "type": "electric_scooter"}, {"bike_id": "37c795c6dc17f34f0ee803a2fa275e5c", "is_reserved": 0, "fusion_lon": 0.0, "lat": 38.92853233333334, "is_disabled": 0, "name": "37c795c6dc17f34f0ee803a2fa275e5c", "fusion_lat": 0.0, "rental_uris": {"ios": "https://dc.lft.to/lastmile_qr_scan", "android": "https://dc.lft.to/lastmile_qr_scan"}, "lon": -77.037351, "type": "electric_scooter"}, {"bike_id": "58dba441e8072593db11b2385f35c36e", "is_reserved": 0, "fusion_lon": 0.0, "lat": 38.917230833333335, "is_disabled": 0, "name": "58dba441e8072593db11b2385f35c36e", "fusion_lat": 0.0, "rental_uris": {"ios": "https://dc.lft.to/lastmile_qr_scan", "android": "https://dc.lft.to/lastmile_qr_scan"}, "lon": -77.0683315, "type": "electric_scooter"}, {"bike_id": "96c317cb8f4df26e5c45538aaaf494a0", "is_reserved": 0, "fusion_lon": 0.0, "lat": 38.948299166666665, "is_disabled": 0, "name": "96c317cb8f4df26e5c45538aaaf494a0", "fusion_lat": 0.0, "rental_uris": {"ios": "https://dc.lft.to/lastmile_qr_scan", "android": "https://dc.lft.to/lastmile_qr_scan"}, "lon": -77.03901583333334, "type": "electric_bike"}, {"bike_id": "fe254b2e40496887c82d5911e7717cc8", "is_reserved": 0, "fusion_lon": 0.0, "lat": 38.89463816666667, "is_disabled": 0, "name": "fe254b2e40496887c82d5911e7717cc8", "fusion_lat": 0.0, "rental_uris": {"ios": "https://dc.lft.to/lastmile_qr_scan", "android": "https://dc.lft.to/lastmile_qr_scan"}, "lon": -77.03076883333334, "type": "electric_scooter"}, {"bike_id": "7bbc02704531202a3830a3b26b7bd24c", "is_reserved": 0, "fusion_lon": 0.0, "lat": 38.939061, "is_disabled": 0, "name": "7bbc02704531202a3830a3b26b7bd24c", "fusion_lat": 0.0, "rental_uris": {"ios": "https://dc.lft.to/lastmile_qr_scan", "android": "https://dc.lft.to/lastmile_qr_scan"}, "lon": -77.07727416666667, "type": "electric_scooter"}, {"bike_id": "f69ec02f6fd2574be58649e846b3183e", "is_reserved": 0, "fusion_lon": 0.0, "lat": 38.90599816666667, "is_disabled": 0, "name": "f69ec02f6fd2574be58649e846b3183e", "fusion_lat": 0.0, "rental_uris": {"ios": "https://dc.lft.to/lastmile_qr_scan", "android": "https://dc.lft.to/lastmile_qr_scan"}, "lon": -77.04038716666666, "type": "electric_scooter"}, {"bike_id": "ad10ef4896bb8daebdec81469ea710a1", "is_reserved": 0, "fusion_lon": 0.0, "lat": 38.93290733333333, "is_disabled": 0, "name": "ad10ef4896bb8daebdec81469ea710a1", "fusion_lat": 0.0, "rental_uris": {"ios": "https://dc.lft.to/lastmile_qr_scan", "android": "https://dc.lft.to/lastmile_qr_scan"}, "lon": -77.03984983333334, "type": "electric_scooter"}, {"bike_id": "a4fabb1f1d2749b0b667b133915b2666", "is_reserved": 0, "fusion_lon": 0.0, "lat": 38.92765583333333, "is_disabled": 0, "name": "a4fabb1f1d2749b0b667b133915b2666", "fusion_lat": 0.0, "rental_uris": {"ios": "https://dc.lft.to/lastmile_qr_scan", "android": "https://dc.lft.to/lastmile_qr_scan"}, "lon": -77.07304383333333, "type": "electric_scooter"}, {"bike_id": "9498a38488852e823b424d83b848b492", "is_reserved": 0, "fusion_lon": 0.0, "lat": 38.8924015, "is_disabled": 0, "name": "9498a38488852e823b424d83b848b492", "fusion_lat": 0.0, "rental_uris": {"ios": "https://dc.lft.to/lastmile_qr_scan", "android": "https://dc.lft.to/lastmile_qr_scan"}, "lon": -77.01541983333334, "type": "electric_scooter"}, {"bike_id": "83db370f259f5604ec9c9b0006da4c9b", "is_reserved": 0, "fusion_lon": 0.0, "lat": 38.876327833333335, "is_disabled": 0, "name": "83db370f259f5604ec9c9b0006da4c9b", "fusion_lat": 0.0, "rental_uris": {"ios": "https://dc.lft.to/lastmile_qr_scan", "android": "https://dc.lft.to/lastmile_qr_scan"}, "lon": -76.96527316666666, "type": "electric_scooter"}, {"bike_id": "10868676b7f7965552dafa6938ac84a3", "is_reserved": 0, "fusion_lon": 0.0, "lat": 38.89526166666667, "is_disabled": 0, "name": "10868676b7f7965552dafa6938ac84a3", "fusion_lat": 0.0, "rental_uris": {"ios": "https://dc.lft.to/lastmile_qr_scan", "android": "https://dc.lft.to/lastmile_qr_scan"}, "lon": -77.00339866666667, "type": "electric_scooter"}, {"bike_id": "57385c279134479bc00c0d248e14f4ff", "is_reserved": 0, "fusion_lon": 0.0, "lat": 38.838137, "is_disabled": 0, "name": "57385c279134479bc00c0d248e14f4ff", "fusion_lat": 0.0, "rental_uris": {"ios": "https://dc.lft.to/lastmile_qr_scan", "android": "https://dc.lft.to/lastmile_qr_scan"}, "lon": -77.0952455, "type": "electric_bike"}, {"bike_id": "00b20da8bb01794b11c17ea20da617c3", "is_reserved": 0, "fusion_lon": 0.0, "lat": 38.897416, "is_disabled": 0, "name": "00b20da8bb01794b11c17ea20da617c3", "fusion_lat": 0.0, "rental_uris": {"ios": "https://dc.lft.to/lastmile_qr_scan", "android": "https://dc.lft.to/lastmile_qr_scan"}, "lon": -76.9384445, "type": "electric_scooter"}, {"bike_id": "340b794eb64be6fc39e5fbb3c22ff587", "is_reserved": 0, "fusion_lon": 0.0, "lat": 38.896083833333336, "is_disabled": 0, "name": "340b794eb64be6fc39e5fbb3c22ff587", "fusion_lat": 0.0, "rental_uris": {"ios": "https://dc.lft.to/lastmile_qr_scan", "android": "https://dc.lft.to/lastmile_qr_scan"}, "lon": -77.04449033333333, "type": "electric_scooter"}, {"bike_id": "61479371eace93ba0ed6269989b338a1", "is_reserved": 0, "fusion_lon": 0.0, "lat": 38.90493433333333, "is_disabled": 0, "name": "61479371eace93ba0ed6269989b338a1", "fusion_lat": 0.0, "rental_uris": {"ios": "https://dc.lft.to/lastmile_qr_scan", "android": "https://dc.lft.to/lastmile_qr_scan"}, "lon": -77.02807133333333, "type": "electric_scooter"}, {"bike_id": "fb8231714997f04c1c26c6a8c991d9b6", "is_reserved": 0, "fusion_lon": 0.0, "lat": 38.886909833333334, "is_disabled": 0, "name": "fb8231714997f04c1c26c6a8c991d9b6", "fusion_lat": 0.0, "rental_uris": {"ios": "https://dc.lft.to/lastmile_qr_scan", "android": "https://dc.lft.to/lastmile_qr_scan"}, "lon": -76.9576085, "type": "electric_scooter"}, {"bike_id": "bfff67c85f10a22cab638e7679cf7226", "is_reserved": 0, "fusion_lon": 0.0, "lat": 38.838280833333336, "is_disabled": 0, "name": "bfff67c85f10a22cab638e7679cf7226", "fusion_lat": 0.0, "rental_uris": {"ios": "https://dc.lft.to/lastmile_qr_scan", "android": "https://dc.lft.to/lastmile_qr_scan"}, "lon": -76.99681416666667, "type": "electric_bike"}, {"bike_id": "ee02d504a3967596ad3fbc77f6941cd8", "is_reserved": 0, "fusion_lon": 0.0, "lat": 38.90730933333333, "is_disabled": 0, "name": "ee02d504a3967596ad3fbc77f6941cd8", "fusion_lat": 0.0, "rental_uris": {"ios": "https://dc.lft.to/lastmile_qr_scan", "android": "https://dc.lft.to/lastmile_qr_scan"}, "lon": -77.00114916666666, "type": "electric_bike"}, {"bike_id": "7513f88bb7cbf9c087d117c8fe2cbbc4", "is_reserved": 0, "fusion_lon": 0.0, "lat": 38.86526533333333, "is_disabled": 0, "name": "7513f88bb7cbf9c087d117c8fe2cbbc4", "fusion_lat": 0.0, "rental_uris": {"ios": "https://dc.lft.to/lastmile_qr_scan", "android": "https://dc.lft.to/lastmile_qr_scan"}, "lon": -76.99033833333333, "type": "electric_scooter"}, {"bike_id": "944337cd2a88fee60c3895e717fb867b", "is_reserved": 0, "fusion_lon": 0.0, "lat": 38.9287605, "is_disabled": 0, "name": "944337cd2a88fee60c3895e717fb867b", "fusion_lat": 0.0, "rental_uris": {"ios": "https://dc.lft.to/lastmile_qr_scan", "android": "https://dc.lft.to/lastmile_qr_scan"}, "lon": -77.01368333333333, "type": "electric_scooter"}, {"bike_id": "c8b31a6c17e6c6ea0b36b6ec9770c40d", "is_reserved": 0, "fusion_lon": 0.0, "lat": 38.91709216666667, "is_disabled": 0, "name": "c8b31a6c17e6c6ea0b36b6ec9770c40d", "fusion_lat": 0.0, "rental_uris": {"ios": "https://dc.lft.to/lastmile_qr_scan", "android": "https://dc.lft.to/lastmile_qr_scan"}, "lon": -77.02543266666666, "type": "electric_scooter"}, {"bike_id": "5728c2eb18d24a0facce891b542cc5a9", "is_reserved": 0, "fusion_lon": 0.0, "lat": 38.935720333333336, "is_disabled": 0, "name": "5728c2eb18d24a0facce891b542cc5a9", "fusion_lat": 0.0, "rental_uris": {"ios": "https://dc.lft.to/lastmile_qr_scan", "android": "https://dc.lft.to/lastmile_qr_scan"}, "lon": -77.03727716666667, "type": "electric_scooter"}, {"bike_id": "1c05526e20e14d809541f95bc48f730f", "is_reserved": 0, "fusion_lon": 0.0, "lat": 38.884950833333335, "is_disabled": 0, "name": "1c05526e20e14d809541f95bc48f730f", "fusion_lat": 0.0, "rental_uris": {"ios": "https://dc.lft.to/lastmile_qr_scan", "android": "https://dc.lft.to/lastmile_qr_scan"}, "lon": -77.00727316666666, "type": "electric_scooter"}, {"bike_id": "60362f41bbd522d167572abed584b057", "is_reserved": 0, "fusion_lon": 0.0, "lat": 38.89364316666666, "is_disabled": 0, "name": "60362f41bbd522d167572abed584b057", "fusion_lat": 0.0, "rental_uris": {"ios": "https://dc.lft.to/lastmile_qr_scan", "android": "https://dc.lft.to/lastmile_qr_scan"}, "lon": -77.0285285, "type": "electric_scooter"}, {"bike_id": "e07dc75c6c476a0cb41970f2eaee31b2", "is_reserved": 0, "fusion_lon": 0.0, "lat": 38.930833166666666, "is_disabled": 0, "name": "e07dc75c6c476a0cb41970f2eaee31b2", "fusion_lat": 0.0, "rental_uris": {"ios": "https://dc.lft.to/lastmile_qr_scan", "android": "https://dc.lft.to/lastmile_qr_scan"}, "lon": -77.02796216666667, "type": "electric_scooter"}, {"bike_id": "a14b27b1335fc8b28411acfb7230a82c", "is_reserved": 0, "fusion_lon": 0.0, "lat": 38.92409966666666, "is_disabled": 0, "name": "a14b27b1335fc8b28411acfb7230a82c", "fusion_lat": 0.0, "rental_uris": {"ios": "https://dc.lft.to/lastmile_qr_scan", "android": "https://dc.lft.to/lastmile_qr_scan"}, "lon": -77.01945983333333, "type": "electric_scooter"}, {"bike_id": "54e10bd656458bdcbb6873bb5536d22f", "is_reserved": 0, "fusion_lon": 0.0, "lat": 38.9300275, "is_disabled": 0, "name": "54e10bd656458bdcbb6873bb5536d22f", "fusion_lat": 0.0, "rental_uris": {"ios": "https://dc.lft.to/lastmile_qr_scan", "android": "https://dc.lft.to/lastmile_qr_scan"}, "lon": -77.05538533333333, "type": "electric_scooter"}, {"bike_id": "fdb4f297adff078fb182ea07d85494f0", "is_reserved": 0, "fusion_lon": 0.0, "lat": 38.887522833333335, "is_disabled": 0, "name": "fdb4f297adff078fb182ea07d85494f0", "fusion_lat": 0.0, "rental_uris": {"ios": "https://dc.lft.to/lastmile_qr_scan", "android": "https://dc.lft.to/lastmile_qr_scan"}, "lon": -77.03129666666666, "type": "electric_scooter"}, {"bike_id": "4eb92c95bf7d2853b4e2e9ea1e69182f", "is_reserved": 0, "fusion_lon": 0.0, "lat": 38.956439, "is_disabled": 0, "name": "4eb92c95bf7d2853b4e2e9ea1e69182f", "fusion_lat": 0.0, "rental_uris": {"ios": "https://dc.lft.to/lastmile_qr_scan", "android": "https://dc.lft.to/lastmile_qr_scan"}, "lon": -76.9979155, "type": "electric_scooter"}, {"bike_id": "ddf81d28d80d11cfcfce06d3933b44be", "is_reserved": 0, "fusion_lon": 0.0, "lat": 38.887457, "is_disabled": 0, "name": "ddf81d28d80d11cfcfce06d3933b44be", "fusion_lat": 0.0, "rental_uris": {"ios": "https://dc.lft.to/lastmile_qr_scan", "android": "https://dc.lft.to/lastmile_qr_scan"}, "lon": -77.020195, "type": "electric_scooter"}, {"bike_id": "79db52498f5be29561961191d0acffac", "is_reserved": 0, "fusion_lon": 0.0, "lat": 38.88337083333333, "is_disabled": 0, "name": "79db52498f5be29561961191d0acffac", "fusion_lat": 0.0, "rental_uris": {"ios": "https://dc.lft.to/lastmile_qr_scan", "android": "https://dc.lft.to/lastmile_qr_scan"}, "lon": -76.99341083333333, "type": "electric_scooter"}, {"bike_id": "9039d80b2784be4429fd9e7c309274c1", "is_reserved": 0, "fusion_lon": 0.0, "lat": 38.89714583333333, "is_disabled": 0, "name": "9039d80b2784be4429fd9e7c309274c1", "fusion_lat": 0.0, "rental_uris": {"ios": "https://dc.lft.to/lastmile_qr_scan", "android": "https://dc.lft.to/lastmile_qr_scan"}, "lon": -77.02679433333333, "type": "electric_scooter"}, {"bike_id": "9c56bb22ab6aa96924978811c2736959", "is_reserved": 0, "fusion_lon": 0.0, "lat": 38.887065, "is_disabled": 0, "name": "9c56bb22ab6aa96924978811c2736959", "fusion_lat": 0.0, "rental_uris": {"ios": "https://dc.lft.to/lastmile_qr_scan", "android": "https://dc.lft.to/lastmile_qr_scan"}, "lon": -77.0014695, "type": "electric_scooter"}, {"bike_id": "6737764c6570c772147b0f1d48a165d2", "is_reserved": 0, "fusion_lon": 0.0, "lat": 38.884335166666666, "is_disabled": 0, "name": "6737764c6570c772147b0f1d48a165d2", "fusion_lat": 0.0, "rental_uris": {"ios": "https://dc.lft.to/lastmile_qr_scan", "android": "https://dc.lft.to/lastmile_qr_scan"}, "lon": -76.995885, "type": "electric_scooter"}, {"bike_id": "42486e0ed3be2450d0cee6da875db87c", "is_reserved": 0, "fusion_lon": 0.0, "lat": 39.03058683333333, "is_disabled": 0, "name": "42486e0ed3be2450d0cee6da875db87c", "fusion_lat": 0.0, "rental_uris": {"ios": "https://dc.lft.to/lastmile_qr_scan", "android": "https://dc.lft.to/lastmile_qr_scan"}, "lon": -77.094777, "type": "electric_bike"}, {"bike_id": "ed73428fe9c1fbd15b56f1fba5e11a0a", "is_reserved": 0, "fusion_lon": 0.0, "lat": 38.89196333333334, "is_disabled": 0, "name": "ed73428fe9c1fbd15b56f1fba5e11a0a", "fusion_lat": 0.0, "rental_uris": {"ios": "https://dc.lft.to/lastmile_qr_scan", "android": "https://dc.lft.to/lastmile_qr_scan"}, "lon": -77.01548733333334, "type": "electric_scooter"}, {"bike_id": "49737c163bb2c3e87e55924fed152256", "is_reserved": 0, "fusion_lon": 0.0, "lat": 38.928483666666665, "is_disabled": 0, "name": "49737c163bb2c3e87e55924fed152256", "fusion_lat": 0.0, "rental_uris": {"ios": "https://dc.lft.to/lastmile_qr_scan", "android": "https://dc.lft.to/lastmile_qr_scan"}, "lon": -77.05428, "type": "electric_scooter"}, {"bike_id": "5fbb4f3efae6c4df293a26ce61e83d36", "is_reserved": 0, "fusion_lon": 0.0, "lat": 38.89562766666667, "is_disabled": 0, "name": "5fbb4f3efae6c4df293a26ce61e83d36", "fusion_lat": 0.0, "rental_uris": {"ios": "https://dc.lft.to/lastmile_qr_scan", "android": "https://dc.lft.to/lastmile_qr_scan"}, "lon": -77.02563033333334, "type": "electric_scooter"}, {"bike_id": "27a89762ae8674cea5e5b0ed85f35474", "is_reserved": 0, "fusion_lon": 0.0, "lat": 38.880016, "is_disabled": 0, "name": "27a89762ae8674cea5e5b0ed85f35474", "fusion_lat": 0.0, "rental_uris": {"ios": "https://dc.lft.to/lastmile_qr_scan", "android": "https://dc.lft.to/lastmile_qr_scan"}, "lon": -76.98541316666666, "type": "electric_scooter"}, {"bike_id": "e9b3d491e779b4d3b1839b4bc634d663", "is_reserved": 0, "fusion_lon": 0.0, "lat": 38.902503833333334, "is_disabled": 0, "name": "e9b3d491e779b4d3b1839b4bc634d663", "fusion_lat": 0.0, "rental_uris": {"ios": "https://dc.lft.to/lastmile_qr_scan", "android": "https://dc.lft.to/lastmile_qr_scan"}, "lon": -77.03330783333334, "type": "electric_scooter"}, {"bike_id": "8676cd92aba33e35d23e30e8d7c59ed1", "is_reserved": 0, "fusion_lon": 0.0, "lat": 38.91929233333333, "is_disabled": 0, "name": "8676cd92aba33e35d23e30e8d7c59ed1", "fusion_lat": 0.0, "rental_uris": {"ios": "https://dc.lft.to/lastmile_qr_scan", "android": "https://dc.lft.to/lastmile_qr_scan"}, "lon": -77.00061483333333, "type": "electric_scooter"}, {"bike_id": "1c4964cd146040c1c668af02c54c46d2", "is_reserved": 0, "fusion_lon": 0.0, "lat": 38.93170416666667, "is_disabled": 0, "name": "1c4964cd146040c1c668af02c54c46d2", "fusion_lat": 0.0, "rental_uris": {"ios": "https://dc.lft.to/lastmile_qr_scan", "android": "https://dc.lft.to/lastmile_qr_scan"}, "lon": -76.99603583333334, "type": "electric_scooter"}, {"bike_id": "a8ced2fffdd55a691dbac2027ce280bf", "is_reserved": 0, "fusion_lon": 0.0, "lat": 38.908352, "is_disabled": 0, "name": "a8ced2fffdd55a691dbac2027ce280bf", "fusion_lat": 0.0, "rental_uris": {"ios": "https://dc.lft.to/lastmile_qr_scan", "android": "https://dc.lft.to/lastmile_qr_scan"}, "lon": -76.99697366666666, "type": "electric_scooter"}, {"bike_id": "ecb5cdade62f011bad083f52f6f376f2", "is_reserved": 0, "fusion_lon": 0.0, "lat": 38.920543333333335, "is_disabled": 0, "name": "ecb5cdade62f011bad083f52f6f376f2", "fusion_lat": 0.0, "rental_uris": {"ios": "https://dc.lft.to/lastmile_qr_scan", "android": "https://dc.lft.to/lastmile_qr_scan"}, "lon": -77.04197433333333, "type": "electric_scooter"}, {"bike_id": "b5c443888349a0be3a267d4b08025097", "is_reserved": 0, "fusion_lon": 0.0, "lat": 38.895355333333335, "is_disabled": 0, "name": "b5c443888349a0be3a267d4b08025097", "fusion_lat": 0.0, "rental_uris": {"ios": "https://dc.lft.to/lastmile_qr_scan", "android": "https://dc.lft.to/lastmile_qr_scan"}, "lon": -77.033527, "type": "electric_scooter"}, {"bike_id": "14559f383a03c752dc2f48f4549f2d2b", "is_reserved": 0, "fusion_lon": 0.0, "lat": 38.91919083333333, "is_disabled": 0, "name": "14559f383a03c752dc2f48f4549f2d2b", "fusion_lat": 0.0, "rental_uris": {"ios": "https://dc.lft.to/lastmile_qr_scan", "android": "https://dc.lft.to/lastmile_qr_scan"}, "lon": -77.0261765, "type": "electric_scooter"}, {"bike_id": "41ad6184e0b470942b61a41574019e75", "is_reserved": 0, "fusion_lon": 0.0, "lat": 38.924521, "is_disabled": 0, "name": "41ad6184e0b470942b61a41574019e75", "fusion_lat": 0.0, "rental_uris": {"ios": "https://dc.lft.to/lastmile_qr_scan", "android": "https://dc.lft.to/lastmile_qr_scan"}, "lon": -77.02029883333333, "type": "electric_scooter"}, {"bike_id": "c5708c820a6cd4c32449d29be6da73f0", "is_reserved": 0, "fusion_lon": 0.0, "lat": 38.86415383333333, "is_disabled": 0, "name": "c5708c820a6cd4c32449d29be6da73f0", "fusion_lat": 0.0, "rental_uris": {"ios": "https://dc.lft.to/lastmile_qr_scan", "android": "https://dc.lft.to/lastmile_qr_scan"}, "lon": -76.974418, "type": "electric_scooter"}, {"bike_id": "ffeeb5999c03ae251bd007a5126af851", "is_reserved": 0, "fusion_lon": 0.0, "lat": 38.92446316666667, "is_disabled": 0, "name": "ffeeb5999c03ae251bd007a5126af851", "fusion_lat": 0.0, "rental_uris": {"ios": "https://dc.lft.to/lastmile_qr_scan", "android": "https://dc.lft.to/lastmile_qr_scan"}, "lon": -77.0337215, "type": "electric_scooter"}, {"bike_id": "f7db957242e8db5588e61dc015c47cf8", "is_reserved": 0, "fusion_lon": 0.0, "lat": 38.90652033333333, "is_disabled": 0, "name": "f7db957242e8db5588e61dc015c47cf8", "fusion_lat": 0.0, "rental_uris": {"ios": "https://dc.lft.to/lastmile_qr_scan", "android": "https://dc.lft.to/lastmile_qr_scan"}, "lon": -77.03812666666667, "type": "electric_scooter"}, {"bike_id": "0db09ba3d5abc12aa756180f1813db8b", "is_reserved": 0, "fusion_lon": 0.0, "lat": 38.93204216666667, "is_disabled": 0, "name": "0db09ba3d5abc12aa756180f1813db8b", "fusion_lat": 0.0, "rental_uris": {"ios": "https://dc.lft.to/lastmile_qr_scan", "android": "https://dc.lft.to/lastmile_qr_scan"}, "lon": -77.03854516666667, "type": "electric_scooter"}, {"bike_id": "26f2a2937d09700a3ef242543b835661", "is_reserved": 0, "fusion_lon": 0.0, "lat": 38.97234616666667, "is_disabled": 0, "name": "26f2a2937d09700a3ef242543b835661", "fusion_lat": 0.0, "rental_uris": {"ios": "https://dc.lft.to/lastmile_qr_scan", "android": "https://dc.lft.to/lastmile_qr_scan"}, "lon": -77.02714216666666, "type": "electric_scooter"}, {"bike_id": "261d931d37ffd7dbab14646d1b88e5f6", "is_reserved": 0, "fusion_lon": 0.0, "lat": 38.89403733333333, "is_disabled": 0, "name": "261d931d37ffd7dbab14646d1b88e5f6", "fusion_lat": 0.0, "rental_uris": {"ios": "https://dc.lft.to/lastmile_qr_scan", "android": "https://dc.lft.to/lastmile_qr_scan"}, "lon": -76.947992, "type": "electric_scooter"}, {"bike_id": "3fd0c10b21fad42e810b12ca6fee71bf", "is_reserved": 0, "fusion_lon": 0.0, "lat": 38.907937, "is_disabled": 0, "name": "3fd0c10b21fad42e810b12ca6fee71bf", "fusion_lat": 0.0, "rental_uris": {"ios": "https://dc.lft.to/lastmile_qr_scan", "android": "https://dc.lft.to/lastmile_qr_scan"}, "lon": -77.0486895, "type": "electric_scooter"}, {"bike_id": "5ecac85051b32bdead17e5825a059f93", "is_reserved": 0, "fusion_lon": 0.0, "lat": 38.900026, "is_disabled": 0, "name": "5ecac85051b32bdead17e5825a059f93", "fusion_lat": 0.0, "rental_uris": {"ios": "https://dc.lft.to/lastmile_qr_scan", "android": "https://dc.lft.to/lastmile_qr_scan"}, "lon": -76.994864, "type": "electric_scooter"}, {"bike_id": "1e180ca184b72875b8d82aef9aedc358", "is_reserved": 0, "fusion_lon": 0.0, "lat": 38.919462, "is_disabled": 0, "name": "1e180ca184b72875b8d82aef9aedc358", "fusion_lat": 0.0, "rental_uris": {"ios": "https://dc.lft.to/lastmile_qr_scan", "android": "https://dc.lft.to/lastmile_qr_scan"}, "lon": -77.03206966666667, "type": "electric_scooter"}, {"bike_id": "82fc0d19a97bf75d39af550c46d4d56b", "is_reserved": 0, "fusion_lon": 0.0, "lat": 38.90962583333334, "is_disabled": 0, "name": "82fc0d19a97bf75d39af550c46d4d56b", "fusion_lat": 0.0, "rental_uris": {"ios": "https://dc.lft.to/lastmile_qr_scan", "android": "https://dc.lft.to/lastmile_qr_scan"}, "lon": -77.03363366666666, "type": "electric_scooter"}, {"bike_id": "b4efa50e70f49b5f88e202d5f8713479", "is_reserved": 0, "fusion_lon": 0.0, "lat": 38.899588333333334, "is_disabled": 0, "name": "b4efa50e70f49b5f88e202d5f8713479", "fusion_lat": 0.0, "rental_uris": {"ios": "https://dc.lft.to/lastmile_qr_scan", "android": "https://dc.lft.to/lastmile_qr_scan"}, "lon": -76.9867275, "type": "electric_bike"}, {"bike_id": "29d2736e77996b5b3119484cac3ea790", "is_reserved": 0, "fusion_lon": 0.0, "lat": 38.914036333333335, "is_disabled": 0, "name": "29d2736e77996b5b3119484cac3ea790", "fusion_lat": 0.0, "rental_uris": {"ios": "https://dc.lft.to/lastmile_qr_scan", "android": "https://dc.lft.to/lastmile_qr_scan"}, "lon": -77.0456935, "type": "electric_scooter"}, {"bike_id": "0117176a233a06c04beaf9722180c397", "is_reserved": 0, "fusion_lon": 0.0, "lat": 38.9581605, "is_disabled": 0, "name": "0117176a233a06c04beaf9722180c397", "fusion_lat": 0.0, "rental_uris": {"ios": "https://dc.lft.to/lastmile_qr_scan", "android": "https://dc.lft.to/lastmile_qr_scan"}, "lon": -77.01379783333333, "type": "electric_bike"}, {"bike_id": "19330e95011b1483f97678d767b8d5fd", "is_reserved": 0, "fusion_lon": 0.0, "lat": 38.863604, "is_disabled": 0, "name": "19330e95011b1483f97678d767b8d5fd", "fusion_lat": 0.0, "rental_uris": {"ios": "https://dc.lft.to/lastmile_qr_scan", "android": "https://dc.lft.to/lastmile_qr_scan"}, "lon": -76.99064566666667, "type": "electric_scooter"},