{"data": {"bikes": [{"name": "be3668b68528810aff5e19c2c9c04f5e", "fusion_lon": 0.0, "lat": 38.906547, "is_reserved": 0, "type": "electric_scooter", "bike_id": "be3668b68528810aff5e19c2c9c04f5e", "is_disabled": 0, "rental_uris": {"android": "https://dc.lft.to/lastmile_qr_scan", "ios": "https://dc.lft.to/lastmile_qr_scan"}, "lon": -77.02496033333334, "fusion_lat": 0.0}, {"name": "a02cb292b1ffe6f83775d76d859a1a05", "fusion_lon": 0.0, "lat": 38.89222266666667, "is_reserved": 0, "type": "electric_scooter", "bike_id": "a02cb292b1ffe6f83775d76d859a1a05", "is_disabled": 0, "rental_uris": {"android": "https://dc.lft.to/lastmile_qr_scan", "ios": "https://dc.lft.to/lastmile_qr_scan"}, "lon": -77.04372183333334, "fusion_lat": 0.0}, {"name": "25f19ed8a33835ece8f143c7a3a6c573", "fusion_lon": 0.0, "lat": 38.895185833333336, "is_reserved": 0, "type": "electric_scooter", "bike_id": "25f19ed8a33835ece8f143c7a3a6c573", "is_disabled": 0, "rental_uris": {"android": "https://dc.lft.to/lastmile_qr_scan", "ios": "https://dc.lft.to/lastmile_qr_scan"}, "lon": -76.98815333333333, "fusion_lat": 0.0}, {"name": "ce649a7e060fc8e2f7535e49fe84f40f", "fusion_lon": 0.0, "lat": 38.91483383333333, "is_reserved": 0, "type": "electric_scooter", "bike_id": "ce649a7e060fc8e2f7535e49fe84f40f", "is_disabled": 0, "rental_uris": {"android": "https://dc.lft.to/lastmile_qr_scan", "ios": "https://dc.lft.to/lastmile_qr_scan"}, "lon": -76.985775, "fusion_lat": 0.0}, {"name": "66a94d1b2d720326a4d8e72a8f3814c8", "fusion_lon": 0.0, "lat": 38.9251095, "is_reserved": 0, "type": "electric_scooter", "bike_id": "66a94d1b2d720326a4d8e72a8f3814c8", "is_disabled": 0, "rental_uris": {"android": "https://dc.lft.to/lastmile_qr_scan", "ios": "https://dc.lft.to/lastmile_qr_scan"}, "lon": -77.02359916666667, "fusion_lat": 0.0}, {"name": "15ac852f9f4a48fbe3b4bc35e6c9f795", "fusion_lon": 0.0, "lat": 38.917696666666664, "is_reserved": 0, "type": "electric_scooter", "bike_id": "15ac852f9f4a48fbe3b4bc35e6c9f795", "is_disabled": 0, "rental_uris": {"android": "https://dc.lft.to/lastmile_qr_scan", "ios": "https://dc.lft.to/lastmile_qr_scan"}, "lon": -77.032105, "fusion_lat": 0.0}, {"name": "542938069157ff7c3a23da808e427927", "fusion_lon": 0.0, "lat": 38.923601833333336, "is_reserved": 0, "type": "electric_scooter", "bike_id": "542938069157ff7c3a23da808e427927", "is_disabled": 0, "rental_uris": {"android": "https://dc.lft.to/lastmile_qr_scan", "ios": "https://dc.lft.to/lastmile_qr_scan"}, "lon": -77.05075066666667, "fusion_lat": 0.0}, {"name": "0343678bb39e9861a75db55905bfd533", "fusion_lon": 0.0, "lat": 38.902429833333336, "is_reserved": 0, "type": "electric_scooter", "bike_id": "0343678bb39e9861a75db55905bfd533", "is_disabled": 0, "rental_uris": {"android": "https://dc.lft.to/lastmile_qr_scan", "ios": "https://dc.lft.to/lastmile_qr_scan"}, "lon": -76.97406633333334, "fusion_lat": 0.0}, {"name": "35a6a9de173f3135bc407be319a33baa", "fusion_lon": 0.0, "lat": 38.9210975, "is_reserved": 0, "type": "electric_scooter", "bike_id": "35a6a9de173f3135bc407be319a33baa", "is_disabled": 0, "rental_uris": {"android": "https://dc.lft.to/lastmile_qr_scan", "ios": "https://dc.lft.to/lastmile_qr_scan"}, "lon": -77.0333405, "fusion_lat": 0.0}, {"name": "52c9f88a1a875cb51746ba641faafc59", "fusion_lon": 0.0, "lat": 38.919904833333334, "is_reserved": 0, "type": "electric_scooter", "bike_id": "52c9f88a1a875cb51746ba641faafc59", "is_disabled": 0, "rental_uris": {"android": "https://dc.lft.to/lastmile_qr_scan", "ios": "https://dc.lft.to/lastmile_qr_scan"}, "lon": -76.9730265, "fusion_lat": 0.0}, {"name": "8e08750ab3b4f1f9a2c202567dd4efc1", "fusion_lon": 0.0, "lat": 38.925020833333335, "is_reserved": 0, "type": "electric_scooter", "bike_id": "8e08750ab3b4f1f9a2c202567dd4efc1", "is_disabled": 0, "rental_uris": {"android": "https://dc.lft.to/lastmile_qr_scan", "ios": "https://dc.lft.to/lastmile_qr_scan"}, "lon": -77.00885833333334, "fusion_lat": 0.0}, {"name": "127cbaa9c172856a91f59282a149a107", "fusion_lon": 0.0, "lat": 38.9077675, "is_reserved": 0, "type": "electric_scooter", "bike_id": "127cbaa9c172856a91f59282a149a107", "is_disabled": 0, "rental_uris": {"android": "https://dc.lft.to/lastmile_qr_scan", "ios": "https://dc.lft.to/lastmile_qr_scan"}, "lon": -77.0382645, "fusion_lat": 0.0}, {"name": "1b7aa3a6d70bbf087c6438c4a66262e3", "fusion_lon": 0.0, "lat": 38.862407833333336, "is_reserved": 0, "type": "electric_scooter", "bike_id": "1b7aa3a6d70bbf087c6438c4a66262e3", "is_disabled": 0, "rental_uris": {"android": "https://dc.lft.to/lastmile_qr_scan", "ios": "https://dc.lft.to/lastmile_qr_scan"}, "lon": -76.99494583333333, "fusion_lat": 0.0}, {"name": "8c4c06668e447ab5bb6dab0e30782b9d", "fusion_lon": 0.0, "lat": 38.8746115, "is_reserved": 0, "type": "electric_scooter", "bike_id": "8c4c06668e447ab5bb6dab0e30782b9d", "is_disabled": 0, "rental_uris": {"android": "https://dc.lft.to/lastmile_qr_scan", "ios": "https://dc.lft.to/lastmile_qr_scan"}, "lon": -77.00544283333333, "fusion_lat": 0.0}, {"name": "7b63f81384873f66f4a5564ba4be41e2", "fusion_lon": 0.0, "lat": 38.93537116666667, "is_reserved": 0, "type": "electric_scooter", "bike_id": "7b63f81384873f66f4a5564ba4be41e2", "is_disabled": 0, "rental_uris": {"android": "https://dc.lft.to/lastmile_qr_scan", "ios": "https://dc.lft.to/lastmile_qr_scan"}, "lon": -77.05441783333333, "fusion_lat": 0.0}, {"name": "b549c271f0331288cf6cb5e455733cea", "fusion_lon": 0.0, "lat": 38.924318, "is_reserved": 0, "type": "electric_bike", "bike_id": "b549c271f0331288cf6cb5e455733cea", "is_disabled": 0, "rental_uris": {"android": "https://dc.lft.to/lastmile_qr_scan", "ios": "https://dc.lft.to/lastmile_qr_scan"}, "lon": -76.99651, "fusion_lat": 0.0}, {"name": "d846cdc50bcad2dceeb3e92eee15fd2d", "fusion_lon": 0.0, "lat": 38.92506133333333, "is_reserved": 0, "type": "electric_scooter", "bike_id": "d846cdc50bcad2dceeb3e92eee15fd2d", "is_disabled": 0, "rental_uris": {"android": "https://dc.lft.to/lastmile_qr_scan", "ios": "https://dc.lft.to/lastmile_qr_scan"}, "lon": -77.0233035, "fusion_lat": 0.0}, {"name": "673d889f7a82e2213bad8286c5044582", "fusion_lon": 0.0, "lat": 38.863467166666666, "is_reserved": 0, "type": "electric_scooter", "bike_id": "673d889f7a82e2213bad8286c5044582", "is_disabled": 0, "rental_uris": {"android": "https://dc.lft.to/lastmile_qr_scan", "ios": "https://dc.lft.to/lastmile_qr_scan"}, "lon": -76.98704683333334, "fusion_lat": 0.0}, {"name": "4261d8f80d9e07d0d8b2cb6b8319e79b", "fusion_lon": 0.0, "lat": 38.91761733333333, "is_reserved": 0, "type": "electric_scooter", "bike_id": "4261d8f80d9e07d0d8b2cb6b8319e79b", "is_disabled": 0, "rental_uris": {"android": "https://dc.lft.to/lastmile_qr_scan", "ios": "https://dc.lft.to/lastmile_qr_scan"}, "lon": -77.02287966666667, "fusion_lat": 0.0}, {"name": "74a68310d7b48a72899187150de42e4b", "fusion_lon": 0.0, "lat": 38.90961183333334, "is_reserved": 0, "type": "electric_scooter", "bike_id": "74a68310d7b48a72899187150de42e4b", "is_disabled": 0, "rental_uris": {"android": "https://dc.lft.to/lastmile_qr_scan", "ios": "https://dc.lft.to/lastmile_qr_scan"}, "lon": -77.03988283333334, "fusion_lat": 0.0}, {"name": "dca51d61850db772c2e362e9f0582878", "fusion_lon": 0.0, "lat": 38.92002516666667, "is_reserved": 0, "type": "electric_scooter", "bike_id": "dca51d61850db772c2e362e9f0582878", "is_disabled": 0, "rental_uris": {"android": "https://dc.lft.to/lastmile_qr_scan", "ios": "https://dc.lft.to/lastmile_qr_scan"}, "lon": -77.032985, "fusion_lat": 0.0}, {"name": "5d907ba1adde8a003a706642c696be7b", "fusion_lon": 0.0, "lat": 38.8922835, "is_reserved": 0, "type": "electric_scooter", "bike_id": "5d907ba1adde8a003a706642c696be7b", "is_disabled": 0, "rental_uris": {"android": "https://dc.lft.to/lastmile_qr_scan", "ios": "https://dc.lft.to/lastmile_qr_scan"}, "lon": -77.031359, "fusion_lat": 0.0}, {"name": "710d216074c42006b3071b7627914f99", "fusion_lon": 0.0, "lat": 38.91705, "is_reserved": 0, "type": "electric_scooter", "bike_id": "710d216074c42006b3071b7627914f99", "is_disabled": 0, "rental_uris": {"android": "https://dc.lft.to/lastmile_qr_scan", "ios": "https://dc.lft.to/lastmile_qr_scan"}, "lon": -77.02451316666667, "fusion_lat": 0.0}, {"name": "9b0fbbb55685a756e29895508ab2e9af", "fusion_lon": 0.0, "lat": 38.920765833333334, "is_reserved": 0, "type": "electric_scooter", "bike_id": "9b0fbbb55685a756e29895508ab2e9af", "is_disabled": 0, "rental_uris": {"android": "https://dc.lft.to/lastmile_qr_scan", "ios": "https://dc.lft.to/lastmile_qr_scan"}, "lon": -77.016797, "fusion_lat": 0.0}, {"name": "7bc832b048040f044101c3c7494e093e", "fusion_lon": 0.0, "lat": 38.91549766666667, "is_reserved": 0, "type": "electric_scooter", "bike_id": "7bc832b048040f044101c3c7494e093e", "is_disabled": 0, "rental_uris": {"android": "https://dc.lft.to/lastmile_qr_scan", "ios": "https://dc.lft.to/lastmile_qr_scan"}, "lon": -77.03844983333333, "fusion_lat": 0.0}, {"name": "533f0de42888c6a8940110bd94d7fe46", "fusion_lon": 0.0, "lat": 38.92507, "is_reserved": 0, "type": "electric_scooter", "bike_id": "533f0de42888c6a8940110bd94d7fe46", "is_disabled": 0, "rental_uris": {"android": "https://dc.lft.to/lastmile_qr_scan", "ios": "https://dc.lft.to/lastmile_qr_scan"}, "lon": -77.021668, "fusion_lat": 0.0}, {"name": "59215fcc0d177c77d98d35cddb38bf8d", "fusion_lon": 0.0, "lat": 38.87636883333333, "is_reserved": 0, "type": "electric_scooter", "bike_id": "59215fcc0d177c77d98d35cddb38bf8d", "is_disabled": 0, "rental_uris": {"android": "https://dc.lft.to/lastmile_qr_scan", "ios": "https://dc.lft.to/lastmile_qr_scan"}, "lon": -77.00454133333334, "fusion_lat": 0.0}, {"name": "90c855849ccaab3b4a6094111bc5203e", "fusion_lon": 0.0, "lat": 38.903417, "is_reserved": 0, "type": "electric_scooter", "bike_id": "90c855849ccaab3b4a6094111bc5203e", "is_disabled": 0, "rental_uris": {"android": "https://dc.lft.to/lastmile_qr_scan", "ios": "https://dc.lft.to/lastmile_qr_scan"}, "lon": -76.98506366666666, "fusion_lat": 0.0}, {"name": "6a506919957438edc385bb20120afbc0", "fusion_lon": 0.0, "lat": 38.886867333333335, "is_reserved": 0, "type": "electric_scooter", "bike_id": "6a506919957438edc385bb20120afbc0", "is_disabled": 0, "rental_uris": {"android": "https://dc.lft.to/lastmile_qr_scan", "ios": "https://dc.lft.to/lastmile_qr_scan"}, "lon": -76.95458333333333, "fusion_lat": 0.0}, {"name": "e6648628649f188c872f2f403e1eae44", "fusion_lon": 0.0, "lat": 38.925035666666666, "is_reserved": 0, "type": "electric_scooter", "bike_id": "e6648628649f188c872f2f403e1eae44", "is_disabled": 0, "rental_uris": {"android": "https://dc.lft.to/lastmile_qr_scan", "ios": "https://dc.lft.to/lastmile_qr_scan"}, "lon": -77.02358083333333, "fusion_lat": 0.0}, {"name": "b6cfbcb24332c69a9580785763e7ea4f", "fusion_lon": 0.0, "lat": 38.934873333333336, "is_reserved": 0, "type": "electric_scooter", "bike_id": "b6cfbcb24332c69a9580785763e7ea4f", "is_disabled": 0, "rental_uris": {"android": "https://dc.lft.to/lastmile_qr_scan", "ios": "https://dc.lft.to/lastmile_qr_scan"}, "lon": -77.0360075, "fusion_lat": 0.0}, {"name": "34817756d34e540ace123ed406db94b5", "fusion_lon": 0.0, "lat": 38.914714000000004, "is_reserved": 0, "type": "electric_scooter", "bike_id": "34817756d34e540ace123ed406db94b5", "is_disabled": 0, "rental_uris": {"android": "https://dc.lft.to/lastmile_qr_scan", "ios": "https://dc.lft.to/lastmile_qr_scan"}, "lon": -77.03185133333334, "fusion_lat": 0.0}, {"name": "6a7fb28060b5cfa0a7fb102f2f1e064d", "fusion_lon": 0.0, "lat": 38.890889666666666, "is_reserved": 0, "type": "electric_scooter", "bike_id": "6a7fb28060b5cfa0a7fb102f2f1e064d", "is_disabled": 0, "rental_uris": {"android": "https://dc.lft.to/lastmile_qr_scan", "ios": "https://dc.lft.to/lastmile_qr_scan"}, "lon": -76.9985265, "fusion_lat": 0.0}, {"name": "099105a50a9261d5d9d7e7895fce362a", "fusion_lon": 0.0, "lat": 38.92607983333333, "is_reserved": 0, "type": "electric_bike", "bike_id": "099105a50a9261d5d9d7e7895fce362a", "is_disabled": 0, "rental_uris": {"android": "https://dc.lft.to/lastmile_qr_scan", "ios": "https://dc.lft.to/lastmile_qr_scan"}, "lon": -77.0395145, "fusion_lat": 0.0}, {"name": "e42dbcabffb29ef02e6fdcd763b89789", "fusion_lon": 0.0, "lat": 38.87718433333333, "is_reserved": 0, "type": "electric_scooter", "bike_id": "e42dbcabffb29ef02e6fdcd763b89789", "is_disabled": 0, "rental_uris": {"android": "https://dc.lft.to/lastmile_qr_scan", "ios": "https://dc.lft.to/lastmile_qr_scan"}, "lon": -77.01739666666667, "fusion_lat": 0.0}, {"name": "8b7d34c5560fe0b3a40aedfb85514f70", "fusion_lon": 0.0, "lat": 38.89614133333333, "is_reserved": 0, "type": "electric_scooter", "bike_id": "8b7d34c5560fe0b3a40aedfb85514f70", "is_disabled": 0, "rental_uris": {"android": "https://dc.lft.to/lastmile_qr_scan", "ios": "https://dc.lft.to/lastmile_qr_scan"}, "lon": -76.98164883333334, "fusion_lat": 0.0}, {"name": "47b14ed3b090b39e9b1220715fcc708e", "fusion_lon": 0.0, "lat": 38.90777466666667, "is_reserved": 0, "type": "electric_scooter", "bike_id": "47b14ed3b090b39e9b1220715fcc708e", "is_disabled": 0, "rental_uris": {"android": "https://dc.lft.to/lastmile_qr_scan", "ios": "https://dc.lft.to/lastmile_qr_scan"}, "lon": -77.03827416666667, "fusion_lat": 0.0}, {"name": "a26823383d4ef94fbd2835c6e301d82f", "fusion_lon": 0.0, "lat": 38.9033645, "is_reserved": 0, "type": "electric_scooter", "bike_id": "a26823383d4ef94fbd2835c6e301d82f", "is_disabled": 0, "rental_uris": {"android": "https://dc.lft.to/lastmile_qr_scan", "ios": "https://dc.lft.to/lastmile_qr_scan"}, "lon": -77.0111195, "fusion_lat": 0.0}, {"name": "5415403b789f2f87b8e4ee2e1a2f2cfe", "fusion_lon": 0.0, "lat": 38.883939833333336, "is_reserved": 0, "type": "electric_scooter", "bike_id": "5415403b789f2f87b8e4ee2e1a2f2cfe", "is_disabled": 0, "rental_uris": {"android": "https://dc.lft.to/lastmile_qr_scan", "ios": "https://dc.lft.to/lastmile_qr_scan"}, "lon": -76.95445166666667, "fusion_lat": 0.0}, {"name": "2c8f6f70c84174f7e3fe0ad1c9b98548", "fusion_lon": 0.0, "lat": 38.9086685, "is_reserved": 0, "type": "electric_scooter", "bike_id": "2c8f6f70c84174f7e3fe0ad1c9b98548", "is_disabled": 0, "rental_uris": {"android": "https://dc.lft.to/lastmile_qr_scan", "ios": "https://dc.lft.to/lastmile_qr_scan"}, "lon": -76.99955616666666, "fusion_lat": 0.0}, {"name": "05d9407a7f7e4ce5a02c97ebdd0edec0", "fusion_lon": 0.0, "lat": 38.90724733333333, "is_reserved": 0, "type": "electric_scooter", "bike_id": "05d9407a7f7e4ce5a02c97ebdd0edec0", "is_disabled": 0, "rental_uris": {"android": "https://dc.lft.to/lastmile_qr_scan", "ios": "https://dc.lft.to/lastmile_qr_scan"}, "lon": -76.998154, "fusion_lat": 0.0}, {"name": "f4a5cfb5877fe5f757bd8aa4d6a4b84c", "fusion_lon": 0.0, "lat": 38.90957916666667, "is_reserved": 0, "type": "electric_scooter", "bike_id": "f4a5cfb5877fe5f757bd8aa4d6a4b84c", "is_disabled": 0, "rental_uris": {"android": "https://dc.lft.to/lastmile_qr_scan", "ios": "https://dc.lft.to/lastmile_qr_scan"}, "lon": -77.02311183333333, "fusion_lat": 0.0}, {"name": "56ee8f4a5af33288c41936d6f2b32506", "fusion_lon": 0.0, "lat": 38.918167833333335, "is_reserved": 0, "type": "electric_scooter", "bike_id": "56ee8f4a5af33288c41936d6f2b32506", "is_disabled": 0, "rental_uris": {"android": "https://dc.lft.to/lastmile_qr_scan", "ios": "https://dc.lft.to/lastmile_qr_scan"}, "lon": -77.036668, "fusion_lat": 0.0}, {"name": "0e7f1e5565f2f9e71a453be8bc24f09e", "fusion_lon": 0.0, "lat": 38.90563616666667, "is_reserved": 0, "type": "electric_scooter", "bike_id": "0e7f1e5565f2f9e71a453be8bc24f09e", "is_disabled": 0, "rental_uris": {"android": "https://dc.lft.to/lastmile_qr_scan", "ios": "https://dc.lft.to/lastmile_qr_scan"}, "lon": -77.03459066666667, "fusion_lat": 0.0}, {"name": "2f98147b9a4574c7dd820f8d2235fc89", "fusion_lon": 0.0, "lat": 38.90650633333333, "is_reserved": 0, "type": "electric_scooter", "bike_id": "2f98147b9a4574c7dd820f8d2235fc89", "is_disabled": 0, "rental_uris": {"android": "https://dc.lft.to/lastmile_qr_scan", "ios": "https://dc.lft.to/lastmile_qr_scan"}, "lon": -77.04868716666667, "fusion_lat": 0.0}, {"name": "b81acdd8205144104a86af30a9407831", "fusion_lon": 0.0, "lat": 38.88475433333333, "is_reserved": 0, "type": "electric_scooter", "bike_id": "b81acdd8205144104a86af30a9407831", "is_disabled": 0, "rental_uris": {"android": "https://dc.lft.to/lastmile_qr_scan", "ios": "https://dc.lft.to/lastmile_qr_scan"}, "lon": -77.026549, "fusion_lat": 0.0}, {"name": "04e6ccc70793387e9a0f00f8efffd838", "fusion_lon": 0.0, "lat": 38.95182666666667, "is_reserved": 0, "type": "electric_scooter", "bike_id": "04e6ccc70793387e9a0f00f8efffd838", "is_disabled": 0, "rental_uris": {"android": "https://dc.lft.to/lastmile_qr_scan", "ios": "https://dc.lft.to/lastmile_qr_scan"}, "lon": -77.02611866666666, "fusion_lat": 0.0}, {"name": "e26644e7d2f40fcb57737c6a09a3c018", "fusion_lon": 0.0, "lat": 38.912673166666664, "is_reserved": 0, "type": "electric_scooter", "bike_id": "e26644e7d2f40fcb57737c6a09a3c018", "is_disabled": 0, "rental_uris": {"android": "https://dc.lft.to/lastmile_qr_scan", "ios": "https://dc.lft.to/lastmile_qr_scan"}, "lon": -77.01848466666667, "fusion_lat": 0.0}, {"name": "27b1d033dc0ad18c9daa8ad51de10b9d", "fusion_lon": 0.0, "lat": 38.918789, "is_reserved": 0, "type": "electric_scooter", "bike_id": "27b1d033dc0ad18c9daa8ad51de10b9d", "is_disabled": 0, "rental_uris": {"android": "https://dc.lft.to/lastmile_qr_scan", "ios": "https://dc.lft.to/lastmile_qr_scan"}, "lon": -77.02952266666667, "fusion_lat": 0.0}, {"name": "58abec91dbf12c9a7df082ff2ab7b7e2", "fusion_lon": 0.0, "lat": 38.9256055, "is_reserved": 0, "type": "electric_scooter", "bike_id": "58abec91dbf12c9a7df082ff2ab7b7e2", "is_disabled": 0, "rental_uris": {"android": "https://dc.lft.to/lastmile_qr_scan", "ios": "https://dc.lft.to/lastmile_qr_scan"}, "lon": -77.03818066666666, "fusion_lat": 0.0}, {"name": "c6ef980dd2c254a0dda8c7f9dc1d8975", "fusion_lon": 0.0, "lat": 38.88991583333333, "is_reserved": 0, "type": "electric_scooter", "bike_id": "c6ef980dd2c254a0dda8c7f9dc1d8975", "is_disabled": 0, "rental_uris": {"android": "https://dc.lft.to/lastmile_qr_scan", "ios": "https://dc.lft.to/lastmile_qr_scan"}, "lon": -76.931094, "fusion_lat": 0.0}, {"name": "f7172be8fa7b4056d8f9216b1421c777", "fusion_lon": 0.0, "lat": 38.9243545, "is_reserved": 0, "type": "electric_scooter", "bike_id": "f7172be8fa7b4056d8f9216b1421c777", "is_disabled": 0, "rental_uris": {"android": "https://dc.lft.to/lastmile_qr_scan", "ios": "https://dc.lft.to/lastmile_qr_scan"}, "lon": -77.04251383333333, "fusion_lat": 0.0}, {"name": "5835658177b94c81d4059d546c309c8a", "fusion_lon": 0.0, "lat": 38.918190833333334, "is_reserved": 0, "type": "electric_scooter", "bike_id": "5835658177b94c81d4059d546c309c8a", "is_disabled": 0, "rental_uris": {"android": "https://dc.lft.to/lastmile_qr_scan", "ios": "https://dc.lft.to/lastmile_qr_scan"}, "lon": -77.0270355, "fusion_lat": 0.0}, {"name": "29630d2a7697fb41d1c99ea0c22bd565", "fusion_lon": 0.0, "lat": 38.897322833333334, "is_reserved": 0, "type": "electric_scooter", "bike_id": "29630d2a7697fb41d1c99ea0c22bd565", "is_disabled": 0, "rental_uris": {"android": "https://dc.lft.to/lastmile_qr_scan", "ios": "https://dc.lft.to/lastmile_qr_scan"}, "lon": -77.05525533333333, "fusion_lat": 0.0}, {"name": "fc1e735fec91e2ec20c6ce25c358ab8f", "fusion_lon": 0.0, "lat": 38.91333216666666, "is_reserved": 0, "type": "electric_scooter", "bike_id": "fc1e735fec91e2ec20c6ce25c358ab8f", "is_disabled": 0, "rental_uris": {"android": "https://dc.lft.to/lastmile_qr_scan", "ios": "https://dc.lft.to/lastmile_qr_scan"}, "lon": -77.0316625, "fusion_lat": 0.0}, {"name": "653b4560b67ed09e671f19111773966c", "fusion_lon": 0.0, "lat": 38.88863216666667, "is_reserved": 0, "type": "electric_scooter", "bike_id": "653b4560b67ed09e671f19111773966c", "is_disabled": 0, "rental_uris": {"android": "https://dc.lft.to/lastmile_qr_scan", "ios": "https://dc.lft.to/lastmile_qr_scan"}, "lon": -76.9999695, "fusion_lat": 0.0}, {"name": "152814aa08a64e700e654dea542b7540", "fusion_lon": 0.0, "lat": 38.92214216666667, "is_reserved": 0, "type": "electric_scooter", "bike_id": "152814aa08a64e700e654dea542b7540", "is_disabled": 0, "rental_uris": {"android": "https://dc.lft.to/lastmile_qr_scan", "ios": "https://dc.lft.to/lastmile_qr_scan"}, "lon": -77.03284816666667, "fusion_lat": 0.0}, {"name": "c170b7242c176bf8a5bfeb5ecff8aeef", "fusion_lon": 0.0, "lat": 38.9489925, "is_reserved": 0, "type": "electric_scooter", "bike_id": "c170b7242c176bf8a5bfeb5ecff8aeef", "is_disabled": 0, "rental_uris": {"android": "https://dc.lft.to/lastmile_qr_scan", "ios": "https://dc.lft.to/lastmile_qr_scan"}, "lon": -77.00650866666666, "fusion_lat": 0.0}, {"name": "57a7a695b7fe0b51d33aa9d7123887d2", "fusion_lon": 0.0, "lat": 38.92140366666667, "is_reserved": 0, "type": "electric_scooter", "bike_id": "57a7a695b7fe0b51d33aa9d7123887d2", "is_disabled": 0, "rental_uris": {"android": "https://dc.lft.to/lastmile_qr_scan", "ios": "https://dc.lft.to/lastmile_qr_scan"}, "lon": -77.03662383333334, "fusion_lat": 0.0}, {"name": "e2d707883eedea624a652e1ed6ed198d", "fusion_lon": 0.0, "lat": 38.92135283333333, "is_reserved": 0, "type": "electric_scooter", "bike_id": "e2d707883eedea624a652e1ed6ed198d", "is_disabled": 0, "rental_uris": {"android": "https://dc.lft.to/lastmile_qr_scan", "ios": "https://dc.lft.to/lastmile_qr_scan"}, "lon": -77.0412775, "fusion_lat": 0.0}, {"name": "3fcee6ac3631242a4d3edd1d76923ac5", "fusion_lon": 0.0, "lat": 38.9452775, "is_reserved": 0, "type": "electric_scooter", "bike_id": "3fcee6ac3631242a4d3edd1d76923ac5", "is_disabled": 0, "rental_uris": {"android": "https://dc.lft.to/lastmile_qr_scan", "ios": "https://dc.lft.to/lastmile_qr_scan"}, "lon": -77.02086683333333, "fusion_lat": 0.0}, {"name": "778474bc622eb147aa332fbfc7d3192a", "fusion_lon": 0.0, "lat": 38.90765616666667, "is_reserved": 0, "type": "electric_scooter", "bike_id": "778474bc622eb147aa332fbfc7d3192a", "is_disabled": 0, "rental_uris": {"android": "https://dc.lft.to/lastmile_qr_scan", "ios": "https://dc.lft.to/lastmile_qr_scan"}, "lon": -77.00135466666667, "fusion_lat": 0.0}, {"name": "5e137e1ee0b426c1425323fd0bd3e414", "fusion_lon": 0.0, "lat": 38.915498, "is_reserved": 0, "type": "electric_scooter", "bike_id": "5e137e1ee0b426c1425323fd0bd3e414", "is_disabled": 0, "rental_uris": {"android": "https://dc.lft.to/lastmile_qr_scan", "ios": "https://dc.lft.to/lastmile_qr_scan"}, "lon": -77.0385475, "fusion_lat": 0.0}, {"name": "920fc1fc6072e9c03211d94dfa170144", "fusion_lon": 0.0, "lat": 38.918335166666665, "is_reserved": 0, "type": "electric_scooter", "bike_id": "920fc1fc6072e9c03211d94dfa170144", "is_disabled": 0, "rental_uris": {"android": "https://dc.lft.to/lastmile_qr_scan", "ios": "https://dc.lft.to/lastmile_qr_scan"}, "lon": -77.023029, "fusion_lat": 0.0}, {"name": "4f05da10c3e08b99d7a4ea924fcc048b", "fusion_lon": 0.0, "lat": 38.91797233333333, "is_reserved": 0, "type": "electric_scooter", "bike_id": "4f05da10c3e08b99d7a4ea924fcc048b", "is_disabled": 0, "rental_uris": {"android": "https://dc.lft.to/lastmile_qr_scan", "ios": "https://dc.lft.to/lastmile_qr_scan"}, "lon": -77.03433166666667, "fusion_lat": 0.0}, {"name": "807e26c008d7331b630cd9d94b3df8f0", "fusion_lon": 0.0, "lat": 38.855272166666666, "is_reserved": 0, "type": "electric_bike", "bike_id": "807e26c008d7331b630cd9d94b3df8f0", "is_disabled": 0, "rental_uris": {"android": "https://dc.lft.to/lastmile_qr_scan", "ios": "https://dc.lft.to/lastmile_qr_scan"}, "lon": -77.12023983333333, "fusion_lat": 0.0}, {"name": "7390418803baf4af757c75b34ba60781", "fusion_lon": 0.0, "lat": 38.91664933333333, "is_reserved": 0, "type": "electric_scooter", "bike_id": "7390418803baf4af757c75b34ba60781", "is_disabled": 0, "rental_uris": {"android": "https://dc.lft.to/lastmile_qr_scan", "ios": "https://dc.lft.to/lastmile_qr_scan"}, "lon": -77.0297115, "fusion_lat": 0.0}, {"name": "d7ca3bb13db5e831da9fa2892b2b4684", "fusion_lon": 0.0, "lat": 38.9286525, "is_reserved": 0, "type": "electric_scooter", "bike_id": "d7ca3bb13db5e831da9fa2892b2b4684", "is_disabled": 0, "rental_uris": {"android": "https://dc.lft.to/lastmile_qr_scan", "ios": "https://dc.lft.to/lastmile_qr_scan"}, "lon": -77.02727, "fusion_lat": 0.0}, {"name": "52fb78e6901542b6710da8fc00d098b3", "fusion_lon": 0.0, "lat": 38.905668166666665, "is_reserved": 0, "type": "electric_scooter", "bike_id": "52fb78e6901542b6710da8fc00d098b3", "is_disabled": 0, "rental_uris": {"android": "https://dc.lft.to/lastmile_qr_scan", "ios": "https://dc.lft.to/lastmile_qr_scan"}, "lon": -77.0056685, "fusion_lat": 0.0}, {"name": "b8f4c90cfcc9b8a683fc18de9583b931", "fusion_lon": 0.0, "lat": 38.929614, "is_reserved": 0, "type": "electric_scooter", "bike_id": "b8f4c90cfcc9b8a683fc18de9583b931", "is_disabled": 0, "rental_uris": {"android": "https://dc.lft.to/lastmile_qr_scan", "ios": "https://dc.lft.to/lastmile_qr_scan"}, "lon": -77.03288266666667, "fusion_lat": 0.0}, {"name": "34bb45589a76162d463b6263d8162bab", "fusion_lon": 0.0, "lat": 38.9932785, "is_reserved": 0, "type": "electric_bike", "bike_id": "34bb45589a76162d463b6263d8162bab", "is_disabled": 0, "rental_uris": {"android": "https://dc.lft.to/lastmile_qr_scan", "ios": "https://dc.lft.to/lastmile_qr_scan"}, "lon": -76.94615033333334, "fusion_lat": 0.0}, {"name": "558536171e683002630e260d02967ad0", "fusion_lon": 0.0, "lat": 38.919103, "is_reserved": 0, "type": "electric_scooter", "bike_id": "558536171e683002630e260d02967ad0", "is_disabled": 0, "rental_uris": {"android": "https://dc.lft.to/lastmile_qr_scan", "ios": "https://dc.lft.to/lastmile_qr_scan"}, "lon": -77.04458183333334, "fusion_lat": 0.0}, {"name": "447ffde49e7532a90f828e2fb8d9a819", "fusion_lon": 0.0, "lat": 38.939300333333335, "is_reserved": 0, "type": "electric_scooter", "bike_id": "447ffde49e7532a90f828e2fb8d9a819", "is_disabled": 0, "rental_uris": {"android": "https://dc.lft.to/lastmile_qr_scan", "ios": "https://dc.lft.to/lastmile_qr_scan"}, "lon": -77.02499133333333, "fusion_lat": 0.0}, {"name": "6429a7c4e95476211d4c7a76943dcc51", "fusion_lon": 0.0, "lat": 38.901752333333334, "is_reserved": 0, "type": "electric_scooter", "bike_id": "6429a7c4e95476211d4c7a76943dcc51", "is_disabled": 0, "rental_uris": {"android": "https://dc.lft.to/lastmile_qr_scan", "ios": "https://dc.lft.to/lastmile_qr_scan"}, "lon": -77.02192716666667, "fusion_lat": 0.0}, {"name": "390a1aabd3d46fa80804bd4c9daa5c51", "fusion_lon": 0.0, "lat": 38.8860865, "is_reserved": 0, "type": "electric_scooter", "bike_id": "390a1aabd3d46fa80804bd4c9daa5c51", "is_disabled": 0, "rental_uris": {"android": "https://dc.lft.to/lastmile_qr_scan", "ios": "https://dc.lft.to/lastmile_qr_scan"}, "lon": -76.99514166666667, "fusion_lat": 0.0}, {"name": "c3d9e0a5807003da8259918bf3110a6d", "fusion_lon": 0.0, "lat": 38.908609, "is_reserved": 0, "type": "electric_scooter", "bike_id": "c3d9e0a5807003da8259918bf3110a6d", "is_disabled": 0, "rental_uris": {"android": "https://dc.lft.to/lastmile_qr_scan", "ios": "https://dc.lft.to/lastmile_qr_scan"}, "lon": -77.02420616666667, "fusion_lat": 0.0}, {"name": "9438521f59d2fe33b08f26724dfab089", "fusion_lon": 0.0, "lat": 38.924609333333336, "is_reserved": 0, "type": "electric_scooter", "bike_id": "9438521f59d2fe33b08f26724dfab089", "is_disabled": 0, "rental_uris": {"android": "https://dc.lft.to/lastmile_qr_scan", "ios": "https://dc.lft.to/lastmile_qr_scan"}, "lon": -77.040093, "fusion_lat": 0.0}, {"name": "b73c80b041a5bb48995ab82b89409bff", "fusion_lon": 0.0, "lat": 38.959435666666664, "is_reserved": 0, "type": "electric_scooter", "bike_id": "b73c80b041a5bb48995ab82b89409bff", "is_disabled": 0, "rental_uris": {"android": "https://dc.lft.to/lastmile_qr_scan", "ios": "https://dc.lft.to/lastmile_qr_scan"}, "lon": -77.030491, "fusion_lat": 0.0}, {"name": "8ba50a0360e7fc65bc64527fb84ce46b", "fusion_lon": 0.0, "lat": 38.95655583333333, "is_reserved": 0, "type": "electric_bike", "bike_id": "8ba50a0360e7fc65bc64527fb84ce46b", "is_disabled": 0, "rental_uris": {"android": "https://dc.lft.to/lastmile_qr_scan", "ios": "https://dc.lft.to/lastmile_qr_scan"}, "lon": -77.0128155, "fusion_lat": 0.0}, {"name": "3660cd5fe85e4d04248ec3db59fc574e", "fusion_lon": 0.0, "lat": 38.90792533333333, "is_reserved": 0, "type": "electric_scooter", "bike_id": "3660cd5fe85e4d04248ec3db59fc574e", "is_disabled": 0, "rental_uris": {"android": "https://dc.lft.to/lastmile_qr_scan", "ios": "https://dc.lft.to/lastmile_qr_scan"}, "lon": -77.002004, "fusion_lat": 0.0}, {"name": "d23d44ca8542f108f8423ae725a652dd", "fusion_lon": 0.0, "lat": 38.88026033333333, "is_reserved": 0, "type": "electric_scooter", "bike_id": "d23d44ca8542f108f8423ae725a652dd", "is_disabled": 0, "rental_uris": {"android": "https://dc.lft.to/lastmile_qr_scan", "ios": "https://dc.lft.to/lastmile_qr_scan"}, "lon": -76.93112733333334, "fusion_lat": 0.0}, {"name": "5f5d8c77072c28d42af23220a6f4df80", "fusion_lon": 0.0, "lat": 38.90082816666666, "is_reserved": 0, "type": "electric_scooter", "bike_id": "5f5d8c77072c28d42af23220a6f4df80", "is_disabled": 0, "rental_uris": {"android": "https://dc.lft.to/lastmile_qr_scan", "ios": "https://dc.lft.to/lastmile_qr_scan"}, "lon": -76.930198, "fusion_lat": 0.0}, {"name": "40b3bd702910e4dc4a7e812490b9ea7e", "fusion_lon": 0.0, "lat": 38.926563, "is_reserved": 0, "type": "electric_scooter", "bike_id": "40b3bd702910e4dc4a7e812490b9ea7e", "is_disabled": 0, "rental_uris": {"android": "https://dc.lft.to/lastmile_qr_scan", "ios": "https://dc.lft.to/lastmile_qr_scan"}, "lon": -77.03706983333333, "fusion_lat": 0.0}, {"name": "ec83d3b2b985f3ba0fce79794d739de1", "fusion_lon": 0.0, "lat": 38.929831166666666, "is_reserved": 0, "type": "electric_scooter", "bike_id": "ec83d3b2b985f3ba0fce79794d739de1", "is_disabled": 0, "rental_uris": {"android": "https://dc.lft.to/lastmile_qr_scan", "ios": "https://dc.lft.to/lastmile_qr_scan"}, "lon": -77.0132515, "fusion_lat": 0.0}, {"name": "d2b44b6438c1c12e65dad126d32d2724", "fusion_lon": 0.0, "lat": 38.91819916666667, "is_reserved": 0, "type": "electric_scooter", "bike_id": "d2b44b6438c1c12e65dad126d32d2724", "is_disabled": 0, "rental_uris": {"android": "https://dc.lft.to/lastmile_qr_scan", "ios": "https://dc.lft.to/lastmile_qr_scan"}, "lon": -77.036659, "fusion_lat": 0.0}, {"name": "a29bdbe85ca2f065841840db07750c32", "fusion_lon": 0.0, "lat": 38.898583, "is_reserved": 0, "type": "electric_scooter", "bike_id": "a29bdbe85ca2f065841840db07750c32", "is_disabled": 0, "rental_uris": {"android": "https://dc.lft.to/lastmile_qr_scan", "ios": "https://dc.lft.to/lastmile_qr_scan"}, "lon": -76.927484, "fusion_lat": 0.0}, {"name": "de48f3a3214b2894d85cc7f3dfc64cfa", "fusion_lon": 0.0, "lat": 38.9048615, "is_reserved": 0, "type": "electric_scooter", "bike_id": "de48f3a3214b2894d85cc7f3dfc64cfa", "is_disabled": 0, "rental_uris": {"android": "https://dc.lft.to/lastmile_qr_scan", "ios": "https://dc.lft.to/lastmile_qr_scan"}, "lon": -77.02971166666667, "fusion_lat": 0.0}, {"name": "8745325e5997eada0a5e5b700109827e", "fusion_lon": 0.0, "lat": 38.85540016666667, "is_reserved": 0, "type": "electric_scooter", "bike_id": "8745325e5997eada0a5e5b700109827e", "is_disabled": 0, "rental_uris": {"android": "https://dc.lft.to/lastmile_qr_scan", "ios": "https://dc.lft.to/lastmile_qr_scan"}, "lon": -76.98416116666667, "fusion_lat": 0.0}, {"name": "98a6b16c66a384952c295d2c0a396732", "fusion_lon": 0.0, "lat": 38.9311175, "is_reserved": 0, "type": "electric_scooter", "bike_id": "98a6b16c66a384952c295d2c0a396732", "is_disabled": 0, "rental_uris": {"android": "https://dc.lft.to/lastmile_qr_scan", "ios": "https://dc.lft.to/lastmile_qr_scan"}, "lon": -77.02097, "fusion_lat": 0.0}, {"name": "dccd6281bf0510ee678300a552b07da9", "fusion_lon": 0.0, "lat": 38.910146833333336, "is_reserved": 0, "type": "electric_scooter", "bike_id": "dccd6281bf0510ee678300a552b07da9", "is_disabled": 0, "rental_uris": {"android": "https://dc.lft.to/lastmile_qr_scan", "ios": "https://dc.lft.to/lastmile_qr_scan"}, "lon": -77.02216066666666, "fusion_lat": 0.0}, {"name": "df972269bcb8d9697ca625eb40e00274", "fusion_lon": 0.0, "lat": 38.8966725, "is_reserved": 0, "type": "electric_scooter", "bike_id": "df972269bcb8d9697ca625eb40e00274", "is_disabled": 0, "rental_uris": {"android": "https://dc.lft.to/lastmile_qr_scan", "ios": "https://dc.lft.to/lastmile_qr_scan"}, "lon": -76.9881125, "fusion_lat": 0.0}, {"name": "d47519e86750533b33d42133a0926000", "fusion_lon": 0.0, "lat": 38.92896266666666, "is_reserved": 0, "type": "electric_scooter", "bike_id": "d47519e86750533b33d42133a0926000", "is_disabled": 0, "rental_uris": {"android": "https://dc.lft.to/lastmile_qr_scan", "ios": "https://dc.lft.to/lastmile_qr_scan"}, "lon": -77.027485, "fusion_lat": 0.0}, {"name": "b020b2925734dec0e806838492b100d9", "fusion_lon": 0.0, "lat": 38.91975333333333, "is_reserved": 0, "type": "electric_scooter", "bike_id": "b020b2925734dec0e806838492b100d9", "is_disabled": 0, "rental_uris": {"android": "https://dc.lft.to/lastmile_qr_scan", "ios": "https://dc.lft.to/lastmile_qr_scan"}, "lon": -77.0421535, "fusion_lat": 0.0}, {"name": "30239e1f0d05ca0b2bf62c716133fc65", "fusion_lon": 0.0, "lat": 38.91772233333333, "is_reserved": 0, "type": "electric_scooter", "bike_id": "30239e1f0d05ca0b2bf62c716133fc65", "is_disabled": 0, "rental_uris": {"android": "https://dc.lft.to/lastmile_qr_scan", "ios": "https://dc.lft.to/lastmile_qr_scan"}, "lon": -77.0405855, "fusion_lat": 0.0}, {"name": "e524e0bf3fc25b72f9ae76c6c0cfd458", "fusion_lon": 0.0, "lat": 38.921972, "is_reserved": 0, "type": "electric_bike", "bike_id": "e524e0bf3fc25b72f9ae76c6c0cfd458", "is_disabled": 0, "rental_uris": {"android": "https://dc.lft.to/lastmile_qr_scan", "ios": "https://dc.lft.to/lastmile_qr_scan"}, "lon": -77.02403866666667, "fusion_lat": 0.0}, {"name": "e9dc7239cd57b82f85d1d10659cdebfc", "fusion_lon": 0.0, "lat": 38.87080616666667, "is_reserved": 0, "type": "electric_scooter", "bike_id": "e9dc7239cd57b82f85d1d10659cdebfc", "is_disabled": 0, "rental_uris": {"android": "https://dc.lft.to/lastmile_qr_scan", "ios": "https://dc.lft.to/lastmile_qr_scan"}, "lon": -76.98891483333334, "fusion_lat": 0.0}, {"name": "d219b339b56d859787897b0ec9f7ec91", "fusion_lon": 0.0, "lat": 38.90333716666667, "is_reserved": 0, "type": "electric_scooter", "bike_id": "d219b339b56d859787897b0ec9f7ec91", "is_disabled": 0, "rental_uris": {"android": "https://dc.lft.to/lastmile_qr_scan", "ios": "https://dc.lft.to/lastmile_qr_scan"}, "lon": -76.97588, "fusion_lat": 0.0}, {"name": "c9427e85f1965eb3f5af999e9aefd526", "fusion_lon": 0.0, "lat": 38.9203165, "is_reserved": 0, "type": "electric_scooter", "bike_id": "c9427e85f1965eb3f5af999e9aefd526", "is_disabled": 0, "rental_uris": {"android": "https://dc.lft.to/lastmile_qr_scan", "ios": "https://dc.lft.to/lastmile_qr_scan"}, "lon": -77.02588566666667, "fusion_lat": 0.0}, {"name": "bdc0d20fc656045f8420c623d3d4b207", "fusion_lon": 0.0, "lat": 38.8980135, "is_reserved": 0, "type": "electric_scooter", "bike_id": "bdc0d20fc656045f8420c623d3d4b207", "is_disabled": 0, "rental_uris": {"android": "https://dc.lft.to/lastmile_qr_scan", "ios": "https://dc.lft.to/lastmile_qr_scan"}, "lon": -77.05470916666667, "fusion_lat": 0.0}, {"name": "574708beb76f5c5e9c48529c022e76dc", "fusion_lon": 0.0, "lat": 38.90675783333333, "is_reserved": 0, "type": "electric_scooter", "bike_id": "574708beb76f5c5e9c48529c022e76dc", "is_disabled": 0, "rental_uris": {"android": "https://dc.lft.to/lastmile_qr_scan", "ios": "https://dc.lft.to/lastmile_qr_scan"}, "lon": -77.07180016666666, "fusion_lat": 0.0}, {"name": "bb87e68bf574ead42c3e5df3cbd77867", "fusion_lon": 0.0, "lat": 38.922357, "is_reserved": 0, "type": "electric_scooter", "bike_id": "bb87e68bf574ead42c3e5df3cbd77867", "is_disabled": 0, "rental_uris": {"android": "https://dc.lft.to/lastmile_qr_scan", "ios": "https://dc.lft.to/lastmile_qr_scan"}, "lon": -77.03902566666666, "fusion_lat": 0.0}, {"name": "dbf4ba6a010130502c038432224efced", "fusion_lon": 0.0, "lat": 38.928263333333334, "is_reserved": 0, "type": "electric_scooter", "bike_id": "dbf4ba6a010130502c038432224efced", "is_disabled": 0, "rental_uris": {"android": "https://dc.lft.to/lastmile_qr_scan", "ios": "https://dc.lft.to/lastmile_qr_scan"}, "lon": -77.02618083333333, "fusion_lat": 0.0}, {"name": "24aac5c076fe4e768f2c142b671631ef", "fusion_lon": 0.0, "lat": 38.9230765, "is_reserved": 0, "type": "electric_scooter", "bike_id": "24aac5c076fe4e768f2c142b671631ef", "is_disabled": 0, "rental_uris": {"android": "https://dc.lft.to/lastmile_qr_scan", "ios": "https://dc.lft.to/lastmile_qr_scan"}, "lon": -77.03116716666666, "fusion_lat": 0.0}, {"name": "617064fc1149bf551b5d1c30785d77e2", "fusion_lon": 0.0, "lat": 38.92701183333333, "is_reserved": 0, "type": "electric_scooter", "bike_id": "617064fc1149bf551b5d1c30785d77e2", "is_disabled": 0, "rental_uris": {"android": "https://dc.lft.to/lastmile_qr_scan", "ios": "https://dc.lft.to/lastmile_qr_scan"}, "lon": -77.020692, "fusion_lat": 0.0}, {"name": "23aa2f38172a77b54cd9d2011f0b3964", "fusion_lon": 0.0, "lat": 38.94519733333333, "is_reserved": 0, "type": "electric_scooter", "bike_id": "23aa2f38172a77b54cd9d2011f0b3964", "is_disabled": 0, "rental_uris": {"android": "https://dc.lft.to/lastmile_qr_scan", "ios": "https://dc.lft.to/lastmile_qr_scan"}, "lon": -77.01978966666667, "fusion_lat": 0.0}, {"name": "4cdd56ec4863ca342caa8d6bd34dc533", "fusion_lon": 0.0, "lat": 38.918608666666664, "is_reserved": 0, "type": "electric_scooter", "bike_id": "4cdd56ec4863ca342caa8d6bd34dc533", "is_disabled": 0, "rental_uris": {"android": "https://dc.lft.to/lastmile_qr_scan", "ios": "https://dc.lft.to/lastmile_qr_scan"}, "lon": -77.04169033333334, "fusion_lat": 0.0}, {"name": "8c054c100c527f3f7d6d0a2b38261039", "fusion_lon": 0.0, "lat": 38.89963766666666, "is_reserved": 0, "type": "electric_scooter", "bike_id": "8c054c100c527f3f7d6d0a2b38261039", "is_disabled": 0, "rental_uris": {"android": "https://dc.lft.to/lastmile_qr_scan", "ios": "https://dc.lft.to/lastmile_qr_scan"}, "lon": -77.01627716666667, "fusion_lat": 0.0}, {"name": "fe4a7a23a56d2c45d5dd67de58d86e7b", "fusion_lon": 0.0, "lat": 38.933165833333334, "is_reserved": 0, "type": "electric_bike", "bike_id": "fe4a7a23a56d2c45d5dd67de58d86e7b", "is_disabled": 0, "rental_uris": {"android": "https://dc.lft.to/lastmile_qr_scan", "ios": "https://dc.lft.to/lastmile_qr_scan"}, "lon": -77.03212316666666, "fusion_lat": 0.0}, {"name": "7c686034b9cda68f8aa15fd821c6a90b", "fusion_lon": 0.0, "lat": 38.92045616666667, "is_reserved": 0, "type": "electric_scooter", "bike_id": "7c686034b9cda68f8aa15fd821c6a90b", "is_disabled": 0, "rental_uris": {"android": "https://dc.lft.to/lastmile_qr_scan", "ios": "https://dc.lft.to/lastmile_qr_scan"}, "lon": -76.989462, "fusion_lat": 0.0}, {"name": "bb250d1d9a22633607d2681d36ed2eab", "fusion_lon": 0.0, "lat": 38.90406683333333, "is_reserved": 0, "type": "electric_scooter", "bike_id": "bb250d1d9a22633607d2681d36ed2eab", "is_disabled": 0, "rental_uris": {"android": "https://dc.lft.to/lastmile_qr_scan", "ios": "https://dc.lft.to/lastmile_qr_scan"}, "lon": -77.04892716666667, "fusion_lat": 0.0}, {"name": "8d7e1daf2ddf5c576b9736076592d759", "fusion_lon": 0.0, "lat": 38.91816516666667, "is_reserved": 0, "type": "electric_scooter", "bike_id": "8d7e1daf2ddf5c576b9736076592d759", "is_disabled": 0, "rental_uris": {"android": "https://dc.lft.to/lastmile_qr_scan", "ios": "https://dc.lft.to/lastmile_qr_scan"}, "lon": -77.04002966666667, "fusion_lat": 0.0}, {"name": "780d723669dea7e35b981d979ac5ddfa", "fusion_lon": 0.0, "lat": 38.923712333333334, "is_reserved": 0, "type": "electric_scooter", "bike_id": "780d723669dea7e35b981d979ac5ddfa", "is_disabled": 0, "rental_uris": {"android": "https://dc.lft.to/lastmile_qr_scan", "ios": "https://dc.lft.to/lastmile_qr_scan"}, "lon": -77.04129383333333, "fusion_lat": 0.0}, {"name": "c545941e3c3d43a08c7e405c51bef3c8", "fusion_lon": 0.0, "lat": 38.90818216666667, "is_reserved": 0, "type": "electric_scooter", "bike_id": "c545941e3c3d43a08c7e405c51bef3c8", "is_disabled": 0, "rental_uris": {"android": "https://dc.lft.to/lastmile_qr_scan", "ios": "https://dc.lft.to/lastmile_qr_scan"}, "lon": -77.08428583333334, "fusion_lat": 0.0}, {"name": "500ff2f09151d307d6ffc875ec08536e", "fusion_lon": 0.0, "lat": 38.90761766666667, "is_reserved": 0, "type": "electric_scooter", "bike_id": "500ff2f09151d307d6ffc875ec08536e", "is_disabled": 0, "rental_uris": {"android": "https://dc.lft.to/lastmile_qr_scan", "ios": "https://dc.lft.to/lastmile_qr_scan"}, "lon": -77.01227333333334, "fusion_lat": 0.0}, {"name": "a5a291cd32de56b6da471a15330308a4", "fusion_lon": 0.0, "lat": 38.8591735, "is_reserved": 0, "type": "electric_scooter", "bike_id": "a5a291cd32de56b6da471a15330308a4", "is_disabled": 0, "rental_uris": {"android": "https://dc.lft.to/lastmile_qr_scan", "ios": "https://dc.lft.to/lastmile_qr_scan"}, "lon": -76.98979733333333, "fusion_lat": 0.0}, {"name": "acc5c0525c545bb970d1df459008ada4", "fusion_lon": 0.0, "lat": 38.92121433333333, "is_reserved": 0, "type": "electric_scooter", "bike_id": "acc5c0525c545bb970d1df459008ada4", "is_disabled": 0, "rental_uris": {"android": "https://dc.lft.to/lastmile_qr_scan", "ios": "https://dc.lft.to/lastmile_qr_scan"}, "lon": -77.03660333333333, "fusion_lat": 0.0}, {"name": "c403444d3bbd34597b8f18c876de22cd", "fusion_lon": 0.0, "lat": 38.926933166666664, "is_reserved": 0, "type": "electric_scooter", "bike_id": "c403444d3bbd34597b8f18c876de22cd", "is_disabled": 0, "rental_uris": {"android": "https://dc.lft.to/lastmile_qr_scan", "ios": "https://dc.lft.to/lastmile_qr_scan"}, "lon": -77.021291, "fusion_lat": 0.0}, {"name": "67c976425fd62a0ba0d88641f60d0a71", "fusion_lon": 0.0, "lat": 38.909911, "is_reserved": 0, "type": "electric_scooter", "bike_id": "67c976425fd62a0ba0d88641f60d0a71", "is_disabled": 0, "rental_uris": {"android": "https://dc.lft.to/lastmile_qr_scan", "ios": "https://dc.lft.to/lastmile_qr_scan"}, "lon": -77.04006316666667, "fusion_lat": 0.0}, {"name": "27fb6e255f744e5a8281695eae6280e1", "fusion_lon": 0.0, "lat": 38.9215715, "is_reserved": 0, "type": "electric_scooter", "bike_id": "27fb6e255f744e5a8281695eae6280e1", "is_disabled": 0, "rental_uris": {"android": "https://dc.lft.to/lastmile_qr_scan", "ios": "https://dc.lft.to/lastmile_qr_scan"}, "lon": -77.04342366666667, "fusion_lat": 0.0}, {"name": "a5f6af7a79dbab64fd3e086da7aeb302", "fusion_lon": 0.0, "lat": 38.829561166666664, "is_reserved": 0, "type": "electric_bike", "bike_id": "a5f6af7a79dbab64fd3e086da7aeb302", "is_disabled": 0, "rental_uris": {"android": "https://dc.lft.to/lastmile_qr_scan", "ios": "https://dc.lft.to/lastmile_qr_scan"}, "lon": -77.12354266666667, "fusion_lat": 0.0}, {"name": "7253b8bc2e075eea7c77c070497256a7", "fusion_lon": 0.0, "lat": 38.92458966666667, "is_reserved": 0, "type": "electric_scooter", "bike_id": "7253b8bc2e075eea7c77c070497256a7", "is_disabled": 0, "rental_uris": {"android": "https://dc.lft.to/lastmile_qr_scan", "ios": "https://dc.lft.to/lastmile_qr_scan"}, "lon": -77.0396645, "fusion_lat": 0.0}, {"name": "efb148706236d0a2d92f68c0f5b03c1c", "fusion_lon": 0.0, "lat": 38.924604333333335, "is_reserved": 0, "type": "electric_scooter", "bike_id": "efb148706236d0a2d92f68c0f5b03c1c", "is_disabled": 0, "rental_uris": {"android": "https://dc.lft.to/lastmile_qr_scan", "ios": "https://dc.lft.to/lastmile_qr_scan"}, "lon": -77.02715783333333, "fusion_lat": 0.0}, {"name": "e9fe1c1ad3506ff05440a9f6a1f9f117", "fusion_lon": 0.0, "lat": 38.87548016666667, "is_reserved": 0, "type": "electric_scooter", "bike_id": "e9fe1c1ad3506ff05440a9f6a1f9f117", "is_disabled": 0, "rental_uris": {"android": "https://dc.lft.to/lastmile_qr_scan", "ios": "https://dc.lft.to/lastmile_qr_scan"}, "lon": -77.0056385, "fusion_lat": 0.0}, {"name": "a8045c95bf6c4521b52884d2ea93b264", "fusion_lon": 0.0, "lat": 38.884028666666666, "is_reserved": 0, "type": "electric_scooter", "bike_id": "a8045c95bf6c4521b52884d2ea93b264", "is_disabled": 0, "rental_uris": {"android": "https://dc.lft.to/lastmile_qr_scan", "ios": "https://dc.lft.to/lastmile_qr_scan"}, "lon": -76.9539425, "fusion_lat": 0.0}, {"name": "ae7cc0e53d5be9026afa4e684f62e064", "fusion_lon": 0.0, "lat": 38.90838883333333, "is_reserved": 0, "type": "electric_bike", "bike_id": "ae7cc0e53d5be9026afa4e684f62e064", "is_disabled": 0, "rental_uris": {"android": "https://dc.lft.to/lastmile_qr_scan", "ios": "https://dc.lft.to/lastmile_qr_scan"}, "lon": -76.9330335, "fusion_lat": 0.0}, {"name": "3f185266f5ac94fb7c226cde14b69266", "fusion_lon": 0.0, "lat": 38.91989566666667, "is_reserved": 0, "type": "electric_scooter", "bike_id": "3f185266f5ac94fb7c226cde14b69266", "is_disabled": 0, "rental_uris": {"android": "https://dc.lft.to/lastmile_qr_scan", "ios": "https://dc.lft.to/lastmile_qr_scan"}, "lon": -77.041599, "fusion_lat": 0.0}, {"name": "8fb8e786bbc34288925e9b81626a6a6a", "fusion_lon": 0.0, "lat": 38.940439166666664, "is_reserved": 0, "type": "electric_scooter", "bike_id": "8fb8e786bbc34288925e9b81626a6a6a", "is_disabled": 0, "rental_uris": {"android": "https://dc.lft.to/lastmile_qr_scan", "ios": "https://dc.lft.to/lastmile_qr_scan"}, "lon": -77.02896716666666, "fusion_lat": 0.0}, {"name": "fb7ceeccbe835e19b3ea72adfd3028ef", "fusion_lon": 0.0, "lat": 38.838277, "is_reserved": 0, "type": "electric_bike", "bike_id": "fb7ceeccbe835e19b3ea72adfd3028ef", "is_disabled": 0, "rental_uris": {"android": "https://dc.lft.to/lastmile_qr_scan", "ios": "https://dc.lft.to/lastmile_qr_scan"}, "lon": -77.07909233333334, "fusion_lat": 0.0}, {"name": "41f8d64e46a385e4661b6e61a69a56b6", "fusion_lon": 0.0, "lat": 38.91067, "is_reserved": 0, "type": "electric_scooter", "bike_id": "41f8d64e46a385e4661b6e61a69a56b6", "is_disabled": 0, "rental_uris": {"android": "https://dc.lft.to/lastmile_qr_scan", "ios": "https://dc.lft.to/lastmile_qr_scan"}, "lon": -77.03838133333333, "fusion_lat": 0.0}, {"name": "4662b69a11c35635f376be934201b242", "fusion_lon": 0.0, "lat": 38.886589, "is_reserved": 0, "type": "electric_scooter", "bike_id": "4662b69a11c35635f376be934201b242", "is_disabled": 0, "rental_uris": {"android": "https://dc.lft.to/lastmile_qr_scan", "ios": "https://dc.lft.to/lastmile_qr_scan"}, "lon": -76.99987716666666, "fusion_lat": 0.0}, {"name": "092bac87be52b03c2e3b6663986785f0", "fusion_lon": 0.0, "lat": 38.92968166666667, "is_reserved": 0, "type": "electric_scooter", "bike_id": "092bac87be52b03c2e3b6663986785f0", "is_disabled": 0, "rental_uris": {"android": "https://dc.lft.to/lastmile_qr_scan", "ios": "https://dc.lft.to/lastmile_qr_scan"}, "lon": -77.0312315, "fusion_lat": 0.0}, {"name": "7955f3f7b3df70589b2aac57dd0fdd4b", "fusion_lon": 0.0, "lat": 38.98139416666667, "is_reserved": 0, "type": "electric_scooter", "bike_id": "7955f3f7b3df70589b2aac57dd0fdd4b", "is_disabled": 0, "rental_uris": {"android": "https://dc.lft.to/lastmile_qr_scan", "ios": "https://dc.lft.to/lastmile_qr_scan"}, "lon": -77.02230233333333, "fusion_lat": 0.0}, {"name": "a2335af506cf33a46172a774d99cfa2e", "fusion_lon": 0.0, "lat": 38.8952125, "is_reserved": 0, "type": "electric_scooter", "bike_id": "a2335af506cf33a46172a774d99cfa2e", "is_disabled": 0, "rental_uris": {"android": "https://dc.lft.to/lastmile_qr_scan", "ios": "https://dc.lft.to/lastmile_qr_scan"}, "lon": -77.0286495, "fusion_lat": 0.0}, {"name": "72b0af4f7802d25ac14e655123199b70", "fusion_lon": 0.0, "lat": 38.9224345, "is_reserved": 0, "type": "electric_scooter", "bike_id": "72b0af4f7802d25ac14e655123199b70", "is_disabled": 0, "rental_uris": {"android": "https://dc.lft.to/lastmile_qr_scan", "ios": "https://dc.lft.to/lastmile_qr_scan"}, "lon": -77.01825166666667, "fusion_lat": 0.0}, {"name": "eef14d732077b021857994de5ad80fe0", "fusion_lon": 0.0, "lat": 38.912705, "is_reserved": 0, "type": "electric_scooter", "bike_id": "eef14d732077b021857994de5ad80fe0", "is_disabled": 0, "rental_uris": {"android": "https://dc.lft.to/lastmile_qr_scan", "ios": "https://dc.lft.to/lastmile_qr_scan"}, "lon": -77.02228666666667, "fusion_lat": 0.0}, {"name": "8168b39e66cab57ca0b649137bf018fc", "fusion_lon": 0.0, "lat": 38.907169333333336, "is_reserved": 0, "type": "electric_scooter", "bike_id": "8168b39e66cab57ca0b649137bf018fc", "is_disabled": 0, "rental_uris": {"android": "https://dc.lft.to/lastmile_qr_scan", "ios": "https://dc.lft.to/lastmile_qr_scan"}, "lon": -77.01825516666666, "fusion_lat": 0.0}, {"name": "a070bc90ad1fa3a240b75dba275d4191", "fusion_lon": 0.0, "lat": 38.914693666666665, "is_reserved": 0, "type": "electric_scooter", "bike_id": "a070bc90ad1fa3a240b75dba275d4191", "is_disabled": 0, "rental_uris": {"android": "https://dc.lft.to/lastmile_qr_scan", "ios": "https://dc.lft.to/lastmile_qr_scan"}, "lon": -77.04504666666666, "fusion_lat": 0.0}, {"name": "5c51d5d43a31c2d384f183e0cc9711e5", "fusion_lon": 0.0, "lat": 38.914921666666665, "is_reserved": 0, "type": "electric_scooter", "bike_id": "5c51d5d43a31c2d384f183e0cc9711e5", "is_disabled": 0, "rental_uris": {"android": "https://dc.lft.to/lastmile_qr_scan", "ios": "https://dc.lft.to/lastmile_qr_scan"}, "lon": -77.06738616666667, "fusion_lat": 0.0}, {"name": "596a5a61d4f6008fd265844e2e2f956b", "fusion_lon": 0.0, "lat": 38.92528133333333, "is_reserved": 0, "type": "electric_scooter", "bike_id": "596a5a61d4f6008fd265844e2e2f956b", "is_disabled": 0, "rental_uris": {"android": "https://dc.lft.to/lastmile_qr_scan", "ios": "https://dc.lft.to/lastmile_qr_scan"}, "lon": -77.07690333333333, "fusion_lat": 0.0}, {"name": "9697d2ddeeb69fc78ff0eaa87fceefd0", "fusion_lon": 0.0, "lat": 38.88749383333333, "is_reserved": 0, "type": "electric_scooter", "bike_id": "9697d2ddeeb69fc78ff0eaa87fceefd0", "is_disabled": 0, "rental_uris": {"android": "https://dc.lft.to/lastmile_qr_scan", "ios": "https://dc.lft.to/lastmile_qr_scan"}, "lon": -77.02724716666667, "fusion_lat": 0.0}, {"name": "6a84eb93c4a4288d8b002f46f2f09469", "fusion_lon": 0.0, "lat": 38.91556033333333, "is_reserved": 0, "type": "electric_scooter", "bike_id": "6a84eb93c4a4288d8b002f46f2f09469", "is_disabled": 0, "rental_uris": {"android": "https://dc.lft.to/lastmile_qr_scan", "ios": "https://dc.lft.to/lastmile_qr_scan"}, "lon": -77.0244005, "fusion_lat": 0.0}, {"name": "6e3dc3e9b0914d1684218851eb8a4736", "fusion_lon": 0.0, "lat": 38.91712616666667, "is_reserved": 0, "type": "electric_scooter", "bike_id": "6e3dc3e9b0914d1684218851eb8a4736", "is_disabled": 0, "rental_uris": {"android": "https://dc.lft.to/lastmile_qr_scan", "ios": "https://dc.lft.to/lastmile_qr_scan"}, "lon": -77.01217916666667, "fusion_lat": 0.0}, {"name": "12f4cfc8ab5de6240be54ccd2f33495a", "fusion_lon": 0.0, "lat": 38.8972675, "is_reserved": 0, "type": "electric_scooter", "bike_id": "12f4cfc8ab5de6240be54ccd2f33495a", "is_disabled": 0, "rental_uris": {"android": "https://dc.lft.to/lastmile_qr_scan", "ios": "https://dc.lft.to/lastmile_qr_scan"}, "lon": -77.007831, "fusion_lat": 0.0}, {"name": "a6292ca2521f8978f636c8665ac96a2d", "fusion_lon": 0.0, "lat": 38.91983833333333, "is_reserved": 0, "type": "electric_scooter", "bike_id": "a6292ca2521f8978f636c8665ac96a2d", "is_disabled": 0, "rental_uris": {"android": "https://dc.lft.to/lastmile_qr_scan", "ios": "https://dc.lft.to/lastmile_qr_scan"}, "lon": -77.0238785, "fusion_lat": 0.0}, {"name": "c2bbb7b26b5ea1bbafc1e6a41341f2be", "fusion_lon": 0.0, "lat": 38.92159216666667, "is_reserved": 0, "type": "electric_scooter", "bike_id": "c2bbb7b26b5ea1bbafc1e6a41341f2be", "is_disabled": 0, "rental_uris": {"android": "https://dc.lft.to/lastmile_qr_scan", "ios": "https://dc.lft.to/lastmile_qr_scan"}, "lon": -77.03515833333333, "fusion_lat": 0.0}, {"name": "4485e5705f95c7356fcb8ded5e735142", "fusion_lon": 0.0, "lat": 38.8652025, "is_reserved": 0, "type": "electric_bike", "bike_id": "4485e5705f95c7356fcb8ded5e735142", "is_disabled": 0, "rental_uris": {"android": "https://dc.lft.to/lastmile_qr_scan", "ios": "https://dc.lft.to/lastmile_qr_scan"}, "lon": -76.97338333333333, "fusion_lat": 0.0}, {"name": "848de26ca2ca87e7ddbffd286d2e2296", "fusion_lon": 0.0, "lat": 38.911436333333334, "is_reserved": 0, "type": "electric_scooter", "bike_id": "848de26ca2ca87e7ddbffd286d2e2296", "is_disabled": 0, "rental_uris": {"android": "https://dc.lft.to/lastmile_qr_scan", "ios": "https://dc.lft.to/lastmile_qr_scan"}, "lon": -77.02390983333333, "fusion_lat": 0.0}, {"name": "f9ad62c2c0fb80614414a8597de27f56", "fusion_lon": 0.0, "lat": 38.91373766666667, "is_reserved": 0, "type": "electric_scooter", "bike_id": "f9ad62c2c0fb80614414a8597de27f56", "is_disabled": 0, "rental_uris": {"android": "https://dc.lft.to/lastmile_qr_scan", "ios": "https://dc.lft.to/lastmile_qr_scan"}, "lon": -77.0141795, "fusion_lat": 0.0}, {"name": "ef8a0c4a3ce9beb8364e5ec7b8b6c649", "fusion_lon": 0.0, "lat": 38.906841166666666, "is_reserved": 0, "type": "electric_scooter", "bike_id": "ef8a0c4a3ce9beb8364e5ec7b8b6c649", "is_disabled": 0, "rental_uris": {"android": "https://dc.lft.to/lastmile_qr_scan", "ios": "https://dc.lft.to/lastmile_qr_scan"}, "lon": -77.03520433333334, "fusion_lat": 0.0}, {"name": "acb15535f1ad3b3e13bac781df163c52", "fusion_lon": 0.0, "lat": 38.9039525, "is_reserved": 0, "type": "electric_scooter", "bike_id": "acb15535f1ad3b3e13bac781df163c52", "is_disabled": 0, "rental_uris": {"android": "https://dc.lft.to/lastmile_qr_scan", "ios": "https://dc.lft.to/lastmile_qr_scan"}, "lon": -77.02934316666666, "fusion_lat": 0.0}, {"name": "34e228930a38bfaefdde8ee95f3c7dc7", "fusion_lon": 0.0, "lat": 38.89853983333333, "is_reserved": 0, "type": "electric_scooter", "bike_id": "34e228930a38bfaefdde8ee95f3c7dc7", "is_disabled": 0, "rental_uris": {"android": "https://dc.lft.to/lastmile_qr_scan", "ios": "https://dc.lft.to/lastmile_qr_scan"}, "lon": -76.99030166666667, "fusion_lat": 0.0}, {"name": "7a5cfeb47b15566931b03554d63c2eff", "fusion_lon": 0.0, "lat": 38.919837, "is_reserved": 0, "type": "electric_scooter", "bike_id": "7a5cfeb47b15566931b03554d63c2eff", "is_disabled": 0, "rental_uris": {"android": "https://dc.lft.to/lastmile_qr_scan", "ios": "https://dc.lft.to/lastmile_qr_scan"}, "lon": -77.02380583333333, "fusion_lat": 0.0}, {"name": "90ef3940981912cd4a6976db5168a023", "fusion_lon": 0.0, "lat": 38.926776333333336, "is_reserved": 0, "type": "electric_scooter", "bike_id": "90ef3940981912cd4a6976db5168a023", "is_disabled": 0, "rental_uris": {"android": "https://dc.lft.to/lastmile_qr_scan", "ios": "https://dc.lft.to/lastmile_qr_scan"}, "lon": -76.99557683333333, "fusion_lat": 0.0}, {"name": "b7c1275e5a983280dafbd0e6f4da3643", "fusion_lon": 0.0, "lat": 38.91740733333334, "is_reserved": 0, "type": "electric_scooter", "bike_id": "b7c1275e5a983280dafbd0e6f4da3643", "is_disabled": 0, "rental_uris": {"android": "https://dc.lft.to/lastmile_qr_scan", "ios": "https://dc.lft.to/lastmile_qr_scan"}, "lon": -77.03639816666667, "fusion_lat": 0.0}, {"name": "0c9adce28f46181075dcba7efd65fcb4", "fusion_lon": 0.0, "lat": 38.90180266666667, "is_reserved": 0, "type": "electric_scooter", "bike_id": "0c9adce28f46181075dcba7efd65fcb4", "is_disabled": 0, "rental_uris": {"android": "https://dc.lft.to/lastmile_qr_scan", "ios": "https://dc.lft.to/lastmile_qr_scan"}, "lon": -76.98299866666666, "fusion_lat": 0.0}, {"name": "8f2e1cd46bbbbc50a2dfb3f0d6a48e5b", "fusion_lon": 0.0, "lat": 38.922431, "is_reserved": 0, "type": "electric_scooter", "bike_id": "8f2e1cd46bbbbc50a2dfb3f0d6a48e5b", "is_disabled": 0, "rental_uris": {"android": "https://dc.lft.to/lastmile_qr_scan", "ios": "https://dc.lft.to/lastmile_qr_scan"}, "lon": -77.02980016666666, "fusion_lat": 0.0}, {"name": "9f613024d8e49a9363f65b8344629db1", "fusion_lon": 0.0, "lat": 38.902143, "is_reserved": 0, "type": "electric_scooter", "bike_id": "9f613024d8e49a9363f65b8344629db1", "is_disabled": 0, "rental_uris": {"android": "https://dc.lft.to/lastmile_qr_scan", "ios": "https://dc.lft.to/lastmile_qr_scan"}, "lon": -77.02436016666667, "fusion_lat": 0.0}, {"name": "90da8b0d279793ee4a21893b9c6dac51", "fusion_lon": 0.0, "lat": 38.952338833333336, "is_reserved": 0, "type": "electric_scooter", "bike_id": "90da8b0d279793ee4a21893b9c6dac51", "is_disabled": 0, "rental_uris": {"android": "https://dc.lft.to/lastmile_qr_scan", "ios": "https://dc.lft.to/lastmile_qr_scan"}, "lon": -77.01432633333333, "fusion_lat": 0.0}, {"name": "a51465acab650b3ed11f5da358d12da3", "fusion_lon": 0.0, "lat": 38.930299, "is_reserved": 0, "type": "electric_scooter", "bike_id": "a51465acab650b3ed11f5da358d12da3", "is_disabled": 0, "rental_uris": {"android": "https://dc.lft.to/lastmile_qr_scan", "ios": "https://dc.lft.to/lastmile_qr_scan"}, "lon": -77.0129795, "fusion_lat": 0.0}, {"name": "43848425898e635c715d277d1a0b0588", "fusion_lon": 0.0, "lat": 38.90029033333333, "is_reserved": 0, "type": "electric_scooter", "bike_id": "43848425898e635c715d277d1a0b0588", "is_disabled": 0, "rental_uris": {"android": "https://dc.lft.to/lastmile_qr_scan", "ios": "https://dc.lft.to/lastmile_qr_scan"}, "lon": -77.01189683333334, "fusion_lat": 0.0}, {"name": "0c0fbffc14f75852c6bbef7faa841d04", "fusion_lon": 0.0, "lat": 38.92071283333333, "is_reserved": 0, "type": "electric_scooter", "bike_id": "0c0fbffc14f75852c6bbef7faa841d04", "is_disabled": 0, "rental_uris": {"android": "https://dc.lft.to/lastmile_qr_scan", "ios": "https://dc.lft.to/lastmile_qr_scan"}, "lon": -77.02413883333334, "fusion_lat": 0.0}, {"name": "09f0ef1a42ab56aae517a635084932f0", "fusion_lon": 0.0, "lat": 38.91484833333333, "is_reserved": 0, "type": "electric_scooter", "bike_id": "09f0ef1a42ab56aae517a635084932f0", "is_disabled": 0, "rental_uris": {"android": "https://dc.lft.to/lastmile_qr_scan", "ios": "https://dc.lft.to/lastmile_qr_scan"}, "lon": -77.02546516666666, "fusion_lat": 0.0}, {"name": "bd6470912fc297e5198c7897c4340e49", "fusion_lon": 0.0, "lat": 38.90615366666667, "is_reserved": 0, "type": "electric_scooter", "bike_id": "bd6470912fc297e5198c7897c4340e49", "is_disabled": 0, "rental_uris": {"android": "https://dc.lft.to/lastmile_qr_scan", "ios": "https://dc.lft.to/lastmile_qr_scan"}, "lon": -77.03397216666667, "fusion_lat": 0.0}, {"name": "4bb59fdeb857c8a030c347917528e831", "fusion_lon": 0.0, "lat": 38.92664516666667, "is_reserved": 0, "type": "electric_scooter", "bike_id": "4bb59fdeb857c8a030c347917528e831", "is_disabled": 0, "rental_uris": {"android": "https://dc.lft.to/lastmile_qr_scan", "ios": "https://dc.lft.to/lastmile_qr_scan"}, "lon": -77.03048633333333, "fusion_lat": 0.0}, {"name": "494c6e8221f8b6a836d9d8e4ec013dbb", "fusion_lon": 0.0, "lat": 38.930771666666665, "is_reserved": 0, "type": "electric_scooter", "bike_id": "494c6e8221f8b6a836d9d8e4ec013dbb", "is_disabled": 0, "rental_uris": {"android": "https://dc.lft.to/lastmile_qr_scan", "ios": "https://dc.lft.to/lastmile_qr_scan"}, "lon": -77.02161933333333, "fusion_lat": 0.0}, {"name": "accf7abe7cbaef241790018fd72ab7c6", "fusion_lon": 0.0, "lat": 38.887205333333334, "is_reserved": 0, "type": "electric_scooter", "bike_id": "accf7abe7cbaef241790018fd72ab7c6", "is_disabled": 0, "rental_uris": {"android": "https://dc.lft.to/lastmile_qr_scan", "ios": "https://dc.lft.to/lastmile_qr_scan"}, "lon": -77.01761116666667, "fusion_lat": 0.0}, {"name": "667eb804f1e136c65d58b1ec1d8c6e0b", "fusion_lon": 0.0, "lat": 38.8763915, "is_reserved": 0, "type": "electric_scooter", "bike_id": "667eb804f1e136c65d58b1ec1d8c6e0b", "is_disabled": 0, "rental_uris": {"android": "https://dc.lft.to/lastmile_qr_scan", "ios": "https://dc.lft.to/lastmile_qr_scan"}, "lon": -77.00563633333333, "fusion_lat": 0.0}, {"name": "5d28e9c5b69cfbd709a39d02955603ab", "fusion_lon": 0.0, "lat": 38.919314666666665, "is_reserved": 0, "type": "electric_scooter", "bike_id": "5d28e9c5b69cfbd709a39d02955603ab", "is_disabled": 0, "rental_uris": {"android": "https://dc.lft.to/lastmile_qr_scan", "ios": "https://dc.lft.to/lastmile_qr_scan"}, "lon": -77.025106, "fusion_lat": 0.0}, {"name": "21dc83b0e2b5cfa271d2e66f280c385f", "fusion_lon": 0.0, "lat": 38.908373166666664, "is_reserved": 0, "type": "electric_scooter", "bike_id": "21dc83b0e2b5cfa271d2e66f280c385f", "is_disabled": 0, "rental_uris": {"android": "https://dc.lft.to/lastmile_qr_scan", "ios": "https://dc.lft.to/lastmile_qr_scan"}, "lon": -77.0095475, "fusion_lat": 0.0}, {"name": "a665bd25ea35a7d84855a52ac2b6b082", "fusion_lon": 0.0, "lat": 38.95707766666666, "is_reserved": 0, "type": "electric_scooter", "bike_id": "a665bd25ea35a7d84855a52ac2b6b082", "is_disabled": 0, "rental_uris": {"android": "https://dc.lft.to/lastmile_qr_scan", "ios": "https://dc.lft.to/lastmile_qr_scan"}, "lon": -77.02398333333333, "fusion_lat": 0.0}, {"name": "32467179a77cfd848fa34b28f231a920", "fusion_lon": 0.0, "lat": 38.866985, "is_reserved": 0, "type": "electric_scooter", "bike_id": "32467179a77cfd848fa34b28f231a920", "is_disabled": 0, "rental_uris": {"android": "https://dc.lft.to/lastmile_qr_scan", "ios": "https://dc.lft.to/lastmile_qr_scan"}, "lon": -76.98712566666667, "fusion_lat": 0.0}, {"name": "31b315b31f2a688f321d5751d8199f06", "fusion_lon": 0.0, "lat": 38.904020333333335, "is_reserved": 0, "type": "electric_scooter", "bike_id": "31b315b31f2a688f321d5751d8199f06", "is_disabled": 0, "rental_uris": {"android": "https://dc.lft.to/lastmile_qr_scan", "ios": "https://dc.lft.to/lastmile_qr_scan"}, "lon": -77.0248525, "fusion_lat": 0.0}, {"name": "966f92ba59e65b1943e97f4f1426f9fb", "fusion_lon": 0.0, "lat": 38.901832, "is_reserved": 0, "type": "electric_scooter", "bike_id": "966f92ba59e65b1943e97f4f1426f9fb", "is_disabled": 0, "rental_uris": {"android": "https://dc.lft.to/lastmile_qr_scan", "ios": "https://dc.lft.to/lastmile_qr_scan"}, "lon": -77.05112516666667, "fusion_lat": 0.0}, {"name": "b4b768f7506594deab1f58713d7dc865", "fusion_lon": 0.0, "lat": 38.8793555, "is_reserved": 0, "type": "electric_scooter", "bike_id": "b4b768f7506594deab1f58713d7dc865", "is_disabled": 0, "rental_uris": {"android": "https://dc.lft.to/lastmile_qr_scan", "ios": "https://dc.lft.to/lastmile_qr_scan"}, "lon": -77.008962, "fusion_lat": 0.0}, {"name": "f8b18662ddf5072cf05e783d33581ced", "fusion_lon": 0.0, "lat": 38.944357833333335, "is_reserved": 0, "type": "electric_scooter", "bike_id": "f8b18662ddf5072cf05e783d33581ced", "is_disabled": 0, "rental_uris": {"android": "https://dc.lft.to/lastmile_qr_scan", "ios": "https://dc.lft.to/lastmile_qr_scan"}, "lon": -77.0635175, "fusion_lat": 0.0}, {"name": "2e0d5eecfc9a34e011e65df20a3a6ddd", "fusion_lon": 0.0, "lat": 38.910916, "is_reserved": 0, "type": "electric_scooter", "bike_id": "2e0d5eecfc9a34e011e65df20a3a6ddd", "is_disabled": 0, "rental_uris": {"android": "https://dc.lft.to/lastmile_qr_scan", "ios": "https://dc.lft.to/lastmile_qr_scan"}, "lon": -77.04481983333334, "fusion_lat": 0.0}, {"name": "38b38d8545a6d015c510fbdf6dfde417", "fusion_lon": 0.0, "lat": 38.936146666666666, "is_reserved": 0, "type": "electric_scooter", "bike_id": "38b38d8545a6d015c510fbdf6dfde417", "is_disabled": 0, "rental_uris": {"android": "https://dc.lft.to/lastmile_qr_scan", "ios": "https://dc.lft.to/lastmile_qr_scan"}, "lon": -77.06754916666667, "fusion_lat": 0.0}, {"name": "b816d8b470ab88bf670a4c51fd8a2416", "fusion_lon": 0.0, "lat": 38.89758783333333, "is_reserved": 0, "type": "electric_scooter", "bike_id": "b816d8b470ab88bf670a4c51fd8a2416", "is_disabled": 0, "rental_uris": {"android": "https://dc.lft.to/lastmile_qr_scan", "ios": "https://dc.lft.to/lastmile_qr_scan"}, "lon": -77.04399816666667, "fusion_lat": 0.0}, {"name": "f014125474f4dae466ccfbf9919593a5", "fusion_lon": 0.0, "lat": 38.9174815, "is_reserved": 0, "type": "electric_scooter", "bike_id": "f014125474f4dae466ccfbf9919593a5", "is_disabled": 0, "rental_uris": {"android": "https://dc.lft.to/lastmile_qr_scan", "ios": "https://dc.lft.to/lastmile_qr_scan"}, "lon": -77.034561, "fusion_lat": 0.0}, {"name": "998f49f304dbbf586aeb24a845492c72", "fusion_lon": 0.0, "lat": 38.872989833333335, "is_reserved": 0, "type": "electric_bike", "bike_id": "998f49f304dbbf586aeb24a845492c72", "is_disabled": 0, "rental_uris": {"android": "https://dc.lft.to/lastmile_qr_scan", "ios": "https://dc.lft.to/lastmile_qr_scan"}, "lon": -77.13921633333334, "fusion_lat": 0.0}, {"name": "19ce6d6b0dc759b3909423048b6e7ab0", "fusion_lon": 0.0, "lat": 38.89222183333333, "is_reserved": 0, "type": "electric_scooter", "bike_id": "19ce6d6b0dc759b3909423048b6e7ab0", "is_disabled": 0, "rental_uris": {"android": "https://dc.lft.to/lastmile_qr_scan", "ios": "https://dc.lft.to/lastmile_qr_scan"}, "lon": -77.04807266666667, "fusion_lat": 0.0}, {"name": "8abe117e1342ab98d687a18dd2a94cce", "fusion_lon": 0.0, "lat": 38.941982333333335, "is_reserved": 0, "type": "electric_scooter", "bike_id": "8abe117e1342ab98d687a18dd2a94cce", "is_disabled": 0, "rental_uris": {"android": "https://dc.lft.to/lastmile_qr_scan", "ios": "https://dc.lft.to/lastmile_qr_scan"}, "lon": -77.02515416666667, "fusion_lat": 0.0}, {"name": "c00a6e4989252cff69a23dc17460402d", "fusion_lon": 0.0, "lat": 38.91769816666667, "is_reserved": 0, "type": "electric_scooter", "bike_id": "c00a6e4989252cff69a23dc17460402d", "is_disabled": 0, "rental_uris": {"android": "https://dc.lft.to/lastmile_qr_scan", "ios": "https://dc.lft.to/lastmile_qr_scan"}, "lon": -77.03645783333333, "fusion_lat": 0.0}, {"name": "fbca2c6b43c274cb5d4f55f52e5a7e47", "fusion_lon": 0.0, "lat": 38.91270016666667, "is_reserved": 0, "type": "electric_scooter", "bike_id": "fbca2c6b43c274cb5d4f55f52e5a7e47", "is_disabled": 0, "rental_uris": {"android": "https://dc.lft.to/lastmile_qr_scan", "ios": "https://dc.lft.to/lastmile_qr_scan"}, "lon": -77.02694516666666, "fusion_lat": 0.0}, {"name": "43857dfc52e99185965ac0e5bc5be1c4", "fusion_lon": 0.0, "lat": 38.92767683333334, "is_reserved": 0, "type": "electric_scooter", "bike_id": "43857dfc52e99185965ac0e5bc5be1c4", "is_disabled": 0, "rental_uris": {"android": "https://dc.lft.to/lastmile_qr_scan", "ios": "https://dc.lft.to/lastmile_qr_scan"}, "lon": -77.027057, "fusion_lat": 0.0}, {"name": "2aef8e0be53985007178fa6e8085c6f2", "fusion_lon": 0.0, "lat": 38.900120666666666, "is_reserved": 0, "type": "electric_scooter", "bike_id": "2aef8e0be53985007178fa6e8085c6f2", "is_disabled": 0, "rental_uris": {"android": "https://dc.lft.to/lastmile_qr_scan", "ios": "https://dc.lft.to/lastmile_qr_scan"}, "lon": -77.00683983333333, "fusion_lat": 0.0}, {"name": "622b3eae83ec5d530ea607129be05df7", "fusion_lon": 0.0, "lat": 38.86509683333333, "is_reserved": 0, "type": "electric_bike", "bike_id": "622b3eae83ec5d530ea607129be05df7", "is_disabled": 0, "rental_uris": {"android": "https://dc.lft.to/lastmile_qr_scan", "ios": "https://dc.lft.to/lastmile_qr_scan"}, "lon": -76.9733925, "fusion_lat": 0.0}, {"name": "a7e51b9f7cf8265cb106174b835a518d", "fusion_lon": 0.0, "lat": 38.91413683333333, "is_reserved": 0, "type": "electric_scooter", "bike_id": "a7e51b9f7cf8265cb106174b835a518d", "is_disabled": 0, "rental_uris": {"android": "https://dc.lft.to/lastmile_qr_scan", "ios": "https://dc.lft.to/lastmile_qr_scan"}, "lon": -77.0307025, "fusion_lat": 0.0}, {"name": "80348bde5af4cda4a06abcfbb8ca109e", "fusion_lon": 0.0, "lat": 38.924184, "is_reserved": 0, "type": "electric_scooter", "bike_id": "80348bde5af4cda4a06abcfbb8ca109e", "is_disabled": 0, "rental_uris": {"android": "https://dc.lft.to/lastmile_qr_scan", "ios": "https://dc.lft.to/lastmile_qr_scan"}, "lon": -77.05061783333333, "fusion_lat": 0.0}, {"name": "4630650731e7f06a19a92c72bd125ad6", "fusion_lon": 0.0, "lat": 38.9135315, "is_reserved": 0, "type": "electric_bike", "bike_id": "4630650731e7f06a19a92c72bd125ad6", "is_disabled": 0, "rental_uris": {"android": "https://dc.lft.to/lastmile_qr_scan", "ios": "https://dc.lft.to/lastmile_qr_scan"}, "lon": -77.02817733333333, "fusion_lat": 0.0}, {"name": "97a2378cbb6eb0a8c9a0122b7f1b3110", "fusion_lon": 0.0, "lat": 38.918321166666665, "is_reserved": 0, "type": "electric_scooter", "bike_id": "97a2378cbb6eb0a8c9a0122b7f1b3110", "is_disabled": 0, "rental_uris": {"android": "https://dc.lft.to/lastmile_qr_scan", "ios": "https://dc.lft.to/lastmile_qr_scan"}, "lon": -77.03190333333333, "fusion_lat": 0.0}, {"name": "74234222286db6dab2ef1ffc233ffcef", "fusion_lon": 0.0, "lat": 38.875895166666666, "is_reserved": 0, "type": "electric_scooter", "bike_id": "74234222286db6dab2ef1ffc233ffcef", "is_disabled": 0, "rental_uris": {"android": "https://dc.lft.to/lastmile_qr_scan", "ios": "https://dc.lft.to/lastmile_qr_scan"}, "lon": -77.0008655, "fusion_lat": 0.0}, {"name": "f711881015e4b643e28e6ac1d63af910", "fusion_lon": 0.0, "lat": 38.9110545, "is_reserved": 0, "type": "electric_scooter", "bike_id": "f711881015e4b643e28e6ac1d63af910", "is_disabled": 0, "rental_uris": {"android": "https://dc.lft.to/lastmile_qr_scan", "ios": "https://dc.lft.to/lastmile_qr_scan"}, "lon": -77.042026, "fusion_lat": 0.0}, {"name": "e18872f1035ed32c37f52338cedef717", "fusion_lon": 0.0, "lat": 38.8543815, "is_reserved": 0, "type": "electric_bike", "bike_id": "e18872f1035ed32c37f52338cedef717", "is_disabled": 0, "rental_uris": {"android": "https://dc.lft.to/lastmile_qr_scan", "ios": "https://dc.lft.to/lastmile_qr_scan"}, "lon": -77.08308233333334, "fusion_lat": 0.0}, {"name": "26633a0ece8dd082356e68389a7f1ab2", "fusion_lon": 0.0, "lat": 38.92865883333333, "is_reserved": 0, "type": "electric_scooter", "bike_id": "26633a0ece8dd082356e68389a7f1ab2", "is_disabled": 0, "rental_uris": {"android": "https://dc.lft.to/lastmile_qr_scan", "ios": "https://dc.lft.to/lastmile_qr_scan"}, "lon": -77.0217165, "fusion_lat": 0.0}, {"name": "494e139974062d15edff671935a513ed", "fusion_lon": 0.0, "lat": 38.901453333333336, "is_reserved": 0, "type": "electric_scooter", "bike_id": "494e139974062d15edff671935a513ed", "is_disabled": 0, "rental_uris": {"android": "https://dc.lft.to/lastmile_qr_scan", "ios": "https://dc.lft.to/lastmile_qr_scan"}, "lon": -77.04416216666667, "fusion_lat": 0.0}, {"name": "bb0f6a1ea10ba443f5f79573e158c275", "fusion_lon": 0.0, "lat": 38.90307, "is_reserved": 0, "type": "electric_scooter", "bike_id": "bb0f6a1ea10ba443f5f79573e158c275", "is_disabled": 0, "rental_uris": {"android": "https://dc.lft.to/lastmile_qr_scan", "ios": "https://dc.lft.to/lastmile_qr_scan"}, "lon": -77.02222533333334, "fusion_lat": 0.0}, {"name": "8013ddbd468572892b8fb6dc82c0b699", "fusion_lon": 0.0, "lat": 38.94996, "is_reserved": 0, "type": "electric_scooter", "bike_id": "8013ddbd468572892b8fb6dc82c0b699", "is_disabled": 0, "rental_uris": {"android": "https://dc.lft.to/lastmile_qr_scan", "ios": "https://dc.lft.to/lastmile_qr_scan"}, "lon": -77.03329233333334, "fusion_lat": 0.0}, {"name": "79efce50942de4fe729fb7f46f9ba075", "fusion_lon": 0.0, "lat": 38.932634666666665, "is_reserved": 0, "type": "electric_scooter", "bike_id": "79efce50942de4fe729fb7f46f9ba075", "is_disabled": 0, "rental_uris": {"android": "https://dc.lft.to/lastmile_qr_scan", "ios": "https://dc.lft.to/lastmile_qr_scan"}, "lon": -77.02064966666667, "fusion_lat": 0.0}, {"name": "e1d52c670fd23f08e9f93bb919e6dede", "fusion_lon": 0.0, "lat": 38.9223775, "is_reserved": 0, "type": "electric_scooter", "bike_id": "e1d52c670fd23f08e9f93bb919e6dede", "is_disabled": 0, "rental_uris": {"android": "https://dc.lft.to/lastmile_qr_scan", "ios": "https://dc.lft.to/lastmile_qr_scan"}, "lon": -77.0211905, "fusion_lat": 0.0}, {"name": "932646e6e1c0337179f298a4187e9593", "fusion_lon": 0.0, "lat": 38.901844833333335, "is_reserved": 0, "type": "electric_scooter", "bike_id": "932646e6e1c0337179f298a4187e9593", "is_disabled": 0, "rental_uris": {"android": "https://dc.lft.to/lastmile_qr_scan", "ios": "https://dc.lft.to/lastmile_qr_scan"}, "lon": -76.98818966666667, "fusion_lat": 0.0}, {"name": "c91f8535e235906c87a1dd807c499c62", "fusion_lon": 0.0, "lat": 38.866406166666664, "is_reserved": 0, "type": "electric_scooter", "bike_id": "c91f8535e235906c87a1dd807c499c62", "is_disabled": 0, "rental_uris": {"android": "https://dc.lft.to/lastmile_qr_scan", "ios": "https://dc.lft.to/lastmile_qr_scan"}, "lon": -76.9826255, "fusion_lat": 0.0}, {"name": "4105993251aaea9abc999322e9803b8a", "fusion_lon": 0.0, "lat": 38.92874716666667, "is_reserved": 0, "type": "electric_scooter", "bike_id": "4105993251aaea9abc999322e9803b8a", "is_disabled": 0, "rental_uris": {"android": "https://dc.lft.to/lastmile_qr_scan", "ios": "https://dc.lft.to/lastmile_qr_scan"}, "lon": -77.03289116666667, "fusion_lat": 0.0}, {"name": "e1698de42420a6356179732255ee4bb9", "fusion_lon": 0.0, "lat": 38.903933, "is_reserved": 0, "type": "electric_scooter", "bike_id": "e1698de42420a6356179732255ee4bb9", "is_disabled": 0, "rental_uris": {"android": "https://dc.lft.to/lastmile_qr_scan", "ios": "https://dc.lft.to/lastmile_qr_scan"}, "lon": -77.04364516666666, "fusion_lat": 0.0}, {"name": "278dbad78a6ebf7ad00fad8a9b318820", "fusion_lon": 0.0, "lat": 38.90578466666667, "is_reserved": 0, "type": "electric_scooter", "bike_id": "278dbad78a6ebf7ad00fad8a9b318820", "is_disabled": 0, "rental_uris": {"android": "https://dc.lft.to/lastmile_qr_scan", "ios": "https://dc.lft.to/lastmile_qr_scan"}, "lon": -77.04123, "fusion_lat": 0.0}, {"name": "79aac12222c896dece8ed0bfe0ea0fc6", "fusion_lon": 0.0, "lat": 38.91637716666666, "is_reserved": 0, "type": "electric_scooter", "bike_id": "79aac12222c896dece8ed0bfe0ea0fc6", "is_disabled": 0, "rental_uris": {"android": "https://dc.lft.to/lastmile_qr_scan", "ios": "https://dc.lft.to/lastmile_qr_scan"}, "lon": -77.022917, "fusion_lat": 0.0}, {"name": "0d6cc10e0658bab0e7ae52450af97130", "fusion_lon": 0.0, "lat": 38.934349166666664, "is_reserved": 0, "type": "electric_scooter", "bike_id": "0d6cc10e0658bab0e7ae52450af97130", "is_disabled": 0, "rental_uris": {"android": "https://dc.lft.to/lastmile_qr_scan", "ios": "https://dc.lft.to/lastmile_qr_scan"}, "lon": -77.0454445, "fusion_lat": 0.0}, {"name": "259bbc2e2fe19bc0460bdedf4898da5a", "fusion_lon": 0.0, "lat": 38.9420445, "is_reserved": 0, "type": "electric_scooter", "bike_id": "259bbc2e2fe19bc0460bdedf4898da5a", "is_disabled": 0, "rental_uris": {"android": "https://dc.lft.to/lastmile_qr_scan", "ios": "https://dc.lft.to/lastmile_qr_scan"}, "lon": -77.02514983333333, "fusion_lat": 0.0}, {"name": "2606c369b210dbcadae25a98baecb026", "fusion_lon": 0.0, "lat": 38.888188666666665, "is_reserved": 0, "type": "electric_scooter", "bike_id": "2606c369b210dbcadae25a98baecb026", "is_disabled": 0, "rental_uris": {"android": "https://dc.lft.to/lastmile_qr_scan", "ios": "https://dc.lft.to/lastmile_qr_scan"}, "lon": -77.014918, "fusion_lat": 0.0}, {"name": "877e6b98b5651cc200f8486e90fbb7ea", "fusion_lon": 0.0, "lat": 38.91911116666667, "is_reserved": 0, "type": "electric_scooter", "bike_id": "877e6b98b5651cc200f8486e90fbb7ea", "is_disabled": 0, "rental_uris": {"android": "https://dc.lft.to/lastmile_qr_scan", "ios": "https://dc.lft.to/lastmile_qr_scan"}, "lon": -77.02494066666667, "fusion_lat": 0.0}, {"name": "a99e44e1bc7861c1016dee4ce1f625e3", "fusion_lon": 0.0, "lat": 38.903507, "is_reserved": 0, "type": "electric_scooter", "bike_id": "a99e44e1bc7861c1016dee4ce1f625e3", "is_disabled": 0, "rental_uris": {"android": "https://dc.lft.to/lastmile_qr_scan", "ios": "https://dc.lft.to/lastmile_qr_scan"}, "lon": -77.05012916666666, "fusion_lat": 0.0}, {"name": "bdc214131e0a127758d2e08c310c4f53", "fusion_lon": 0.0, "lat": 38.9529895, "is_reserved": 0, "type": "electric_bike", "bike_id": "bdc214131e0a127758d2e08c310c4f53", "is_disabled": 0, "rental_uris": {"android": "https://dc.lft.to/lastmile_qr_scan", "ios": "https://dc.lft.to/lastmile_qr_scan"}, "lon": -77.0239685, "fusion_lat": 0.0}, {"name": "f51fade7911772451b4fe517d80953fe", "fusion_lon": 0.0, "lat": 38.89784683333333, "is_reserved": 0, "type": "electric_scooter", "bike_id": "f51fade7911772451b4fe517d80953fe", "is_disabled": 0, "rental_uris": {"android": "https://dc.lft.to/lastmile_qr_scan", "ios": "https://dc.lft.to/lastmile_qr_scan"}, "lon": -77.00908983333333, "fusion_lat": 0.0}, {"name": "889c574a2c0bc9a68b414326c3bde07e", "fusion_lon": 0.0, "lat": 38.91768616666667, "is_reserved": 0, "type": "electric_scooter", "bike_id": "889c574a2c0bc9a68b414326c3bde07e", "is_disabled": 0, "rental_uris": {"android": "https://dc.lft.to/lastmile_qr_scan", "ios": "https://dc.lft.to/lastmile_qr_scan"}, "lon": -77.04053833333333, "fusion_lat": 0.0}, {"name": "b772cfc777cdca1911576feb3e2d6caa", "fusion_lon": 0.0, "lat": 38.91553483333333, "is_reserved": 0, "type": "electric_scooter", "bike_id": "b772cfc777cdca1911576feb3e2d6caa", "is_disabled": 0, "rental_uris": {"android": "https://dc.lft.to/lastmile_qr_scan", "ios": "https://dc.lft.to/lastmile_qr_scan"}, "lon": -77.04179816666667, "fusion_lat": 0.0}, {"name": "5ad4d42732f1789e2181f02f483f9d51", "fusion_lon": 0.0, "lat": 38.922291, "is_reserved": 0, "type": "electric_scooter", "bike_id": "5ad4d42732f1789e2181f02f483f9d51", "is_disabled": 0, "rental_uris": {"android": "https://dc.lft.to/lastmile_qr_scan", "ios": "https://dc.lft.to/lastmile_qr_scan"}, "lon": -77.04494516666666, "fusion_lat": 0.0}, {"name": "5efbfe322ea7980514b680cd3c31d0f0", "fusion_lon": 0.0, "lat": 38.92511016666667, "is_reserved": 0, "type": "electric_scooter", "bike_id": "5efbfe322ea7980514b680cd3c31d0f0", "is_disabled": 0, "rental_uris": {"android": "https://dc.lft.to/lastmile_qr_scan", "ios": "https://dc.lft.to/lastmile_qr_scan"}, "lon": -77.02353133333334, "fusion_lat": 0.0}, {"name": "a79405364e349eb191af533acef62387", "fusion_lon": 0.0, "lat": 38.91704333333333, "is_reserved": 0, "type": "electric_scooter", "bike_id": "a79405364e349eb191af533acef62387", "is_disabled": 0, "rental_uris": {"android": "https://dc.lft.to/lastmile_qr_scan", "ios": "https://dc.lft.to/lastmile_qr_scan"}, "lon": -77.04255566666667, "fusion_lat": 0.0}, {"name": "f96fe36215b8e552847d4bed4f01cec4", "fusion_lon": 0.0, "lat": 38.903225166666665, "is_reserved": 0, "type": "electric_scooter", "bike_id": "f96fe36215b8e552847d4bed4f01cec4", "is_disabled": 0, "rental_uris": {"android": "https://dc.lft.to/lastmile_qr_scan", "ios": "https://dc.lft.to/lastmile_qr_scan"}, "lon": -76.98152066666667, "fusion_lat": 0.0}, {"name": "abf831f9607a5615fb6b703a0a4e4aa8", "fusion_lon": 0.0, "lat": 38.9245565, "is_reserved": 0, "type": "electric_scooter", "bike_id": "abf831f9607a5615fb6b703a0a4e4aa8", "is_disabled": 0, "rental_uris": {"android": "https://dc.lft.to/lastmile_qr_scan", "ios": "https://dc.lft.to/lastmile_qr_scan"}, "lon": -77.04111883333333, "fusion_lat": 0.0}, {"name": "e889323fafcde49bae1d4ee54f74a99e", "fusion_lon": 0.0, "lat": 38.878826333333336, "is_reserved": 0, "type": "electric_bike", "bike_id": "e889323fafcde49bae1d4ee54f74a99e", "is_disabled": 0, "rental_uris": {"android": "https://dc.lft.to/lastmile_qr_scan", "ios": "https://dc.lft.to/lastmile_qr_scan"}, "lon": -77.09613783333333, "fusion_lat": 0.0}, {"name": "5d57561e9462e723975ba956ad30bbf7", "fusion_lon": 0.0, "lat": 38.927543166666666, "is_reserved": 0, "type": "electric_scooter", "bike_id": "5d57561e9462e723975ba956ad30bbf7", "is_disabled": 0, "rental_uris": {"android": "https://dc.lft.to/lastmile_qr_scan", "ios": "https://dc.lft.to/lastmile_qr_scan"}, "lon": -77.023012, "fusion_lat": 0.0}, {"name": "5189ba2e79898ad98e7cda345c8217c5", "fusion_lon": 0.0, "lat": 38.900602, "is_reserved": 0, "type": "electric_scooter", "bike_id": "5189ba2e79898ad98e7cda345c8217c5", "is_disabled": 0, "rental_uris": {"android": "https://dc.lft.to/lastmile_qr_scan", "ios": "https://dc.lft.to/lastmile_qr_scan"}, "lon": -76.99015916666667, "fusion_lat": 0.0}, {"name": "6813ac20dcead8ba1dad8c993c7935e4", "fusion_lon": 0.0, "lat": 38.911404833333336, "is_reserved": 0, "type": "electric_bike", "bike_id": "6813ac20dcead8ba1dad8c993c7935e4", "is_disabled": 0, "rental_uris": {"android": "https://dc.lft.to/lastmile_qr_scan", "ios": "https://dc.lft.to/lastmile_qr_scan"}, "lon": -77.06576866666667, "fusion_lat": 0.0}, {"name": "0ca3cdf6ed694c470691daa51beb10a4", "fusion_lon": 0.0, "lat": 38.957348333333336, "is_reserved": 0, "type": "electric_scooter", "bike_id": "0ca3cdf6ed694c470691daa51beb10a4", "is_disabled": 0, "rental_uris": {"android": "https://dc.lft.to/lastmile_qr_scan", "ios": "https://dc.lft.to/lastmile_qr_scan"}, "lon": -77.02424683333334, "fusion_lat": 0.0}, {"name": "5f57b9fbb1886e6bed624215a1b891b6", "fusion_lon": 0.0, "lat": 38.951364166666664, "is_reserved": 0, "type": "electric_scooter", "bike_id": "5f57b9fbb1886e6bed624215a1b891b6", "is_disabled": 0, "rental_uris": {"android": "https://dc.lft.to/lastmile_qr_scan", "ios": "https://dc.lft.to/lastmile_qr_scan"}, "lon": -77.0272635, "fusion_lat": 0.0}, {"name": "f691cfaa089fe513f4531317d6fbd103", "fusion_lon": 0.0, "lat": 38.876489166666666, "is_reserved": 0, "type": "electric_scooter", "bike_id": "f691cfaa089fe513f4531317d6fbd103", "is_disabled": 0, "rental_uris": {"android": "https://dc.lft.to/lastmile_qr_scan", "ios": "https://dc.lft.to/lastmile_qr_scan"}, "lon": -76.9650855, "fusion_lat": 0.0}, {"name": "4816cbda7ff289e5fc707e9ccbea84ec", "fusion_lon": 0.0, "lat": 38.914098833333334, "is_reserved": 0, "type": "electric_scooter", "bike_id": "4816cbda7ff289e5fc707e9ccbea84ec", "is_disabled": 0, "rental_uris": {"android": "https://dc.lft.to/lastmile_qr_scan", "ios": "https://dc.lft.to/lastmile_qr_scan"}, "lon": -77.0417825, "fusion_lat": 0.0}, {"name": "ad21c35b651b4fd732f6b9262e34e48d", "fusion_lon": 0.0, "lat": 38.919482333333335, "is_reserved": 0, "type": "electric_scooter", "bike_id": "ad21c35b651b4fd732f6b9262e34e48d", "is_disabled": 0, "rental_uris": {"android": "https://dc.lft.to/lastmile_qr_scan", "ios": "https://dc.lft.to/lastmile_qr_scan"}, "lon": -77.0288645, "fusion_lat": 0.0}, {"name": "094c8e8bd84079115c75b2b220aba421", "fusion_lon": 0.0, "lat": 38.95834633333333, "is_reserved": 0, "type": "electric_scooter", "bike_id": "094c8e8bd84079115c75b2b220aba421", "is_disabled": 0, "rental_uris": {"android": "https://dc.lft.to/lastmile_qr_scan", "ios": "https://dc.lft.to/lastmile_qr_scan"}, "lon": -77.01512266666667, "fusion_lat": 0.0}, {"name": "3fd5114db7915d47e47eeb2b6f7705ac", "fusion_lon": 0.0, "lat": 38.8922005, "is_reserved": 0, "type": "electric_scooter", "bike_id": "3fd5114db7915d47e47eeb2b6f7705ac", "is_disabled": 0, "rental_uris": {"android": "https://dc.lft.to/lastmile_qr_scan", "ios": "https://dc.lft.to/lastmile_qr_scan"}, "lon": -77.0430665, "fusion_lat": 0.0}, {"name": "eba7763544f5f23d37adc1606be5b40f", "fusion_lon": 0.0, "lat": 38.898474, "is_reserved": 0, "type": "electric_scooter", "bike_id": "eba7763544f5f23d37adc1606be5b40f", "is_disabled": 0, "rental_uris": {"android": "https://dc.lft.to/lastmile_qr_scan", "ios": "https://dc.lft.to/lastmile_qr_scan"}, "lon": -76.99031866666667, "fusion_lat": 0.0}, {"name": "2a3e294500cef7b3480ce9425a29bf63", "fusion_lon": 0.0, "lat": 39.042307, "is_reserved": 0, "type": "electric_bike", "bike_id": "2a3e294500cef7b3480ce9425a29bf63", "is_disabled": 0, "rental_uris": {"android": "https://dc.lft.to/lastmile_qr_scan", "ios": "https://dc.lft.to/lastmile_qr_scan"}, "lon": -77.03079116666666, "fusion_lat": 0.0}, {"name": "0ac47d136256dd4805d7a593806f4c25", "fusion_lon": 0.0, "lat": 38.90032033333333, "is_reserved": 0, "type": "electric_scooter", "bike_id": "0ac47d136256dd4805d7a593806f4c25", "is_disabled": 0, "rental_uris": {"android": "https://dc.lft.to/lastmile_qr_scan", "ios": "https://dc.lft.to/lastmile_qr_scan"}, "lon": -76.99525583333333, "fusion_lat": 0.0}, {"name": "9d2a44d507f6be8a46bde44aa637e9c6", "fusion_lon": 0.0, "lat": 38.93492066666666, "is_reserved": 0, "type": "electric_scooter", "bike_id": "9d2a44d507f6be8a46bde44aa637e9c6", "is_disabled": 0, "rental_uris": {"android": "https://dc.lft.to/lastmile_qr_scan", "ios": "https://dc.lft.to/lastmile_qr_scan"}, "lon": -77.034033, "fusion_lat": 0.0}, {"name": "12570895c640ea4e592f7a16b3888f95", "fusion_lon": 0.0, "lat": 38.95506066666667, "is_reserved": 0, "type": "electric_bike", "bike_id": "12570895c640ea4e592f7a16b3888f95", "is_disabled": 0, "rental_uris": {"android": "https://dc.lft.to/lastmile_qr_scan", "ios": "https://dc.lft.to/lastmile_qr_scan"}, "lon": -76.993561, "fusion_lat": 0.0}, {"name": "a329f40cc9977c7a9d910e4f4ae9bef3", "fusion_lon": 0.0, "lat": 38.92450766666666, "is_reserved": 0, "type": "electric_scooter", "bike_id": "a329f40cc9977c7a9d910e4f4ae9bef3", "is_disabled": 0, "rental_uris": {"android": "https://dc.lft.to/lastmile_qr_scan", "ios": "https://dc.lft.to/lastmile_qr_scan"}, "lon": -77.02263516666666, "fusion_lat": 0.0}, {"name": "a79f77a1e94c020a4ce28ed15ad70405", "fusion_lon": 0.0, "lat": 38.869793666666666, "is_reserved": 0, "type": "electric_scooter", "bike_id": "a79f77a1e94c020a4ce28ed15ad70405", "is_disabled": 0, "rental_uris": {"android": "https://dc.lft.to/lastmile_qr_scan", "ios": "https://dc.lft.to/lastmile_qr_scan"}, "lon": -77.01230883333334, "fusion_lat": 0.0}, {"name": "8fec1076ec167d7ecb9d2fbc6e3eeee2", "fusion_lon": 0.0, "lat": 38.92771716666667, "is_reserved": 0, "type": "electric_scooter", "bike_id": "8fec1076ec167d7ecb9d2fbc6e3eeee2", "is_disabled": 0, "rental_uris": {"android": "https://dc.lft.to/lastmile_qr_scan", "ios": "https://dc.lft.to/lastmile_qr_scan"}, "lon": -77.03060816666667, "fusion_lat": 0.0}, {"name": "307783c508b29ea9557b383d300a2096", "fusion_lon": 0.0, "lat": 38.898878333333336, "is_reserved": 0, "type": "electric_scooter", "bike_id": "307783c508b29ea9557b383d300a2096", "is_disabled": 0, "rental_uris": {"android": "https://dc.lft.to/lastmile_qr_scan", "ios": "https://dc.lft.to/lastmile_qr_scan"}, "lon": -76.9771165, "fusion_lat": 0.0}, {"name": "d8942ab723cfcac71ef5c46b7b40baa3", "fusion_lon": 0.0, "lat": 38.8934105, "is_reserved": 0, "type": "electric_scooter", "bike_id": "d8942ab723cfcac71ef5c46b7b40baa3", "is_disabled": 0, "rental_uris": {"android": "https://dc.lft.to/lastmile_qr_scan", "ios": "https://dc.lft.to/lastmile_qr_scan"}, "lon": -77.01716016666667, "fusion_lat": 0.0}, {"name": "2ccc5c1f4827136f690fadefcafa01bb", "fusion_lon": 0.0, "lat": 38.95532166666667, "is_reserved": 0, "type": "electric_scooter", "bike_id": "2ccc5c1f4827136f690fadefcafa01bb", "is_disabled": 0, "rental_uris": {"android": "https://dc.lft.to/lastmile_qr_scan", "ios": "https://dc.lft.to/lastmile_qr_scan"}, "lon": -77.02776233333333, "fusion_lat": 0.0}, {"name": "2ac707ceb88094749da17abbfa77f42b", "fusion_lon": 0.0, "lat": 38.93016866666667, "is_reserved": 0, "type": "electric_scooter", "bike_id": "2ac707ceb88094749da17abbfa77f42b", "is_disabled": 0, "rental_uris": {"android": "https://dc.lft.to/lastmile_qr_scan", "ios": "https://dc.lft.to/lastmile_qr_scan"}, "lon": -77.0608875, "fusion_lat": 0.0}, {"name": "40bce7d40032923170a716b1e3fc77ae", "fusion_lon": 0.0, "lat": 38.924217666666664, "is_reserved": 0, "type": "electric_scooter", "bike_id": "40bce7d40032923170a716b1e3fc77ae", "is_disabled": 0, "rental_uris": {"android": "https://dc.lft.to/lastmile_qr_scan", "ios": "https://dc.lft.to/lastmile_qr_scan"}, "lon": -77.03542066666667, "fusion_lat": 0.0}, {"name": "464baf92247c483c456300217ab9aaa5", "fusion_lon": 0.0, "lat": 38.838090333333334, "is_reserved": 0, "type": "electric_bike", "bike_id": "464baf92247c483c456300217ab9aaa5", "is_disabled": 0, "rental_uris": {"android": "https://dc.lft.to/lastmile_qr_scan", "ios": "https://dc.lft.to/lastmile_qr_scan"}, "lon": -77.0951985, "fusion_lat": 0.0}, {"name": "2d002ab20490e9025c27530053d86df3", "fusion_lon": 0.0, "lat": 38.908102, "is_reserved": 0, "type": "electric_scooter", "bike_id": "2d002ab20490e9025c27530053d86df3", "is_disabled": 0, "rental_uris": {"android": "https://dc.lft.to/lastmile_qr_scan", "ios": "https://dc.lft.to/lastmile_qr_scan"}, "lon": -77.03633316666667, "fusion_lat": 0.0}, {"name": "335000cc307fee226a0d7af6e3113f83", "fusion_lon": 0.0, "lat": 38.91937333333333, "is_reserved": 0, "type": "electric_scooter", "bike_id": "335000cc307fee226a0d7af6e3113f83", "is_disabled": 0, "rental_uris": {"android": "https://dc.lft.to/lastmile_qr_scan", "ios": "https://dc.lft.to/lastmile_qr_scan"}, "lon": -77.02478516666666, "fusion_lat": 0.0}, {"name": "f5765c68c7e83c7e68be3ecbe8107a6b", "fusion_lon": 0.0, "lat": 38.951797, "is_reserved": 0, "type": "electric_scooter", "bike_id": "f5765c68c7e83c7e68be3ecbe8107a6b", "is_disabled": 0, "rental_uris": {"android": "https://dc.lft.to/lastmile_qr_scan", "ios": "https://dc.lft.to/lastmile_qr_scan"}, "lon": -77.0272965, "fusion_lat": 0.0}, {"name": "ce74f1b73c5c65448e56beefb5145b85", "fusion_lon": 0.0, "lat": 38.8717945, "is_reserved": 0, "type": "electric_scooter", "bike_id": "ce74f1b73c5c65448e56beefb5145b85", "is_disabled": 0, "rental_uris": {"android": "https://dc.lft.to/lastmile_qr_scan", "ios": "https://dc.lft.to/lastmile_qr_scan"}, "lon": -77.00615083333334, "fusion_lat": 0.0}, {"name": "9fc59b9fd3de154e626fe995a69a73aa", "fusion_lon": 0.0, "lat": 38.85776633333333, "is_reserved": 0, "type": "electric_bike", "bike_id": "9fc59b9fd3de154e626fe995a69a73aa", "is_disabled": 0, "rental_uris": {"android": "https://dc.lft.to/lastmile_qr_scan", "ios": "https://dc.lft.to/lastmile_qr_scan"}, "lon": -76.9875945, "fusion_lat": 0.0}, {"name": "e6db7f4ca354aa7e0f1f7d023ebac75f", "fusion_lon": 0.0, "lat": 38.90221233333333, "is_reserved": 0, "type": "electric_scooter", "bike_id": "e6db7f4ca354aa7e0f1f7d023ebac75f", "is_disabled": 0, "rental_uris": {"android": "https://dc.lft.to/lastmile_qr_scan", "ios": "https://dc.lft.to/lastmile_qr_scan"}, "lon": -77.0215465, "fusion_lat": 0.0}, {"name": "0ef9ada567b6353b7e8c8b6b3e52dbc8", "fusion_lon": 0.0, "lat": 38.881279666666664, "is_reserved": 0, "type": "electric_scooter", "bike_id": "0ef9ada567b6353b7e8c8b6b3e52dbc8", "is_disabled": 0, "rental_uris": {"android": "https://dc.lft.to/lastmile_qr_scan", "ios": "https://dc.lft.to/lastmile_qr_scan"}, "lon": -77.01331716666667, "fusion_lat": 0.0}, {"name": "b522638a1928ec5d0cf09cf321b59e9c", "fusion_lon": 0.0, "lat": 38.870556666666666, "is_reserved": 0, "type": "electric_scooter", "bike_id": "b522638a1928ec5d0cf09cf321b59e9c", "is_disabled": 0, "rental_uris": {"android": "https://dc.lft.to/lastmile_qr_scan", "ios": "https://dc.lft.to/lastmile_qr_scan"}, "lon": -76.980826, "fusion_lat": 0.0}, {"name": "abdce642ed8ad8153767f1a096dc8017", "fusion_lon": 0.0, "lat": 38.90077266666667, "is_reserved": 0, "type": "electric_scooter", "bike_id": "abdce642ed8ad8153767f1a096dc8017", "is_disabled": 0, "rental_uris": {"android": "https://dc.lft.to/lastmile_qr_scan", "ios": "https://dc.lft.to/lastmile_qr_scan"}, "lon": -77.03096133333334, "fusion_lat": 0.0}, {"name": "af376efcef1e1fdcf4e77c08dfa423e1", "fusion_lon": 0.0, "lat": 38.87888933333333, "is_reserved": 0, "type": "electric_scooter", "bike_id": "af376efcef1e1fdcf4e77c08dfa423e1", "is_disabled": 0, "rental_uris": {"android": "https://dc.lft.to/lastmile_qr_scan", "ios": "https://dc.lft.to/lastmile_qr_scan"}, "lon": -77.02297, "fusion_lat": 0.0}, {"name": "a8a2c953889b5b78d452522879404522", "fusion_lon": 0.0, "lat": 38.913210666666664, "is_reserved": 0, "type": "electric_scooter", "bike_id": "a8a2c953889b5b78d452522879404522", "is_disabled": 0, "rental_uris": {"android": "https://dc.lft.to/lastmile_qr_scan", "ios": "https://dc.lft.to/lastmile_qr_scan"}, "lon": -76.98496066666667, "fusion_lat": 0.0}, {"name": "9a89134fdd06585478de4104bf791c5b", "fusion_lon": 0.0, "lat": 38.837889833333335, "is_reserved": 0, "type": "electric_bike", "bike_id": "9a89134fdd06585478de4104bf791c5b", "is_disabled": 0, "rental_uris": {"android": "https://dc.lft.to/lastmile_qr_scan", "ios": "https://dc.lft.to/lastmile_qr_scan"}, "lon": -76.99747333333333, "fusion_lat": 0.0}, {"name": "b98ad35566833079be09a47ced677546", "fusion_lon": 0.0, "lat": 38.92447833333333, "is_reserved": 0, "type": "electric_bike", "bike_id": "b98ad35566833079be09a47ced677546", "is_disabled": 0, "rental_uris": {"android": "https://dc.lft.to/lastmile_qr_scan", "ios": "https://dc.lft.to/lastmile_qr_scan"}, "lon": -77.22564416666667, "fusion_lat": 0.0}, {"name": "68b0da2cc2057b74077b6cdc4c8252bd", "fusion_lon": 0.0, "lat": 38.8744945, "is_reserved": 0, "type": "electric_scooter", "bike_id": "68b0da2cc2057b74077b6cdc4c8252bd", "is_disabled": 0, "rental_uris": {"android": "https://dc.lft.to/lastmile_qr_scan", "ios": "https://dc.lft.to/lastmile_qr_scan"}, "lon": -77.002716, "fusion_lat": 0.0}, {"name": "3918b08d82c33413731118faf9975658", "fusion_lon": 0.0, "lat": 38.898783, "is_reserved": 0, "type": "electric_scooter", "bike_id": "3918b08d82c33413731118faf9975658", "is_disabled": 0, "rental_uris": {"android": "https://dc.lft.to/lastmile_qr_scan", "ios": "https://dc.lft.to/lastmile_qr_scan"}, "lon": -76.93189933333333, "fusion_lat": 0.0}, {"name": "fdacd53fbcee1323df8cefa4e057091e", "fusion_lon": 0.0, "lat": 38.92089683333333, "is_reserved": 0, "type": "electric_scooter", "bike_id": "fdacd53fbcee1323df8cefa4e057091e", "is_disabled": 0, "rental_uris": {"android": "https://dc.lft.to/lastmile_qr_scan", "ios": "https://dc.lft.to/lastmile_qr_scan"}, "lon": -77.02414483333334, "fusion_lat": 0.0}, {"name": "ba096cd5ac7d497b183380e8a7c3bd3f", "fusion_lon": 0.0, "lat": 38.912615333333335, "is_reserved": 0, "type": "electric_scooter", "bike_id": "ba096cd5ac7d497b183380e8a7c3bd3f", "is_disabled": 0, "rental_uris": {"android": "https://dc.lft.to/lastmile_qr_scan", "ios": "https://dc.lft.to/lastmile_qr_scan"}, "lon": -77.03799016666666, "fusion_lat": 0.0}, {"name": "98d7ba2e5c69856903e01a82f3d16bed", "fusion_lon": 0.0, "lat": 38.915373, "is_reserved": 0, "type": "electric_scooter", "bike_id": "98d7ba2e5c69856903e01a82f3d16bed", "is_disabled": 0, "rental_uris": {"android": "https://dc.lft.to/lastmile_qr_scan", "ios": "https://dc.lft.to/lastmile_qr_scan"}, "lon": -76.97011916666666, "fusion_lat": 0.0}, {"name": "70bd223e384f1a51510ba7983591b50f", "fusion_lon": 0.0, "lat": 38.910128666666665, "is_reserved": 0, "type": "electric_scooter", "bike_id": "70bd223e384f1a51510ba7983591b50f", "is_disabled": 0, "rental_uris": {"android": "https://dc.lft.to/lastmile_qr_scan", "ios": "https://dc.lft.to/lastmile_qr_scan"}, "lon": -77.00919216666667, "fusion_lat": 0.0}, {"name": "8e510b0278f720f75375754608276bc9", "fusion_lon": 0.0, "lat": 38.906683, "is_reserved": 0, "type": "electric_scooter", "bike_id": "8e510b0278f720f75375754608276bc9", "is_disabled": 0, "rental_uris": {"android": "https://dc.lft.to/lastmile_qr_scan", "ios": "https://dc.lft.to/lastmile_qr_scan"}, "lon": -77.071156, "fusion_lat": 0.0}, {"name": "e0834bf15ceea4084fe907990340ef88", "fusion_lon": 0.0, "lat": 38.90373366666667, "is_reserved": 0, "type": "electric_scooter", "bike_id": "e0834bf15ceea4084fe907990340ef88", "is_disabled": 0, "rental_uris": {"android": "https://dc.lft.to/lastmile_qr_scan", "ios": "https://dc.lft.to/lastmile_qr_scan"}, "lon": -76.99711183333334, "fusion_lat": 0.0}, {"name": "6b67e3945e1128ff2db4e0a8234ee1ee", "fusion_lon": 0.0, "lat": 38.92163266666667, "is_reserved": 0, "type": "electric_scooter", "bike_id": "6b67e3945e1128ff2db4e0a8234ee1ee", "is_disabled": 0, "rental_uris": {"android": "https://dc.lft.to/lastmile_qr_scan", "ios": "https://dc.lft.to/lastmile_qr_scan"}, "lon": -77.03263233333334, "fusion_lat": 0.0}, {"name": "e4bca11ed17faebbf521776dd5002dd0", "fusion_lon": 0.0, "lat": 38.90892983333333, "is_reserved": 0, "type": "electric_scooter", "bike_id": "e4bca11ed17faebbf521776dd5002dd0", "is_disabled": 0, "rental_uris": {"android": "https://dc.lft.to/lastmile_qr_scan", "ios": "https://dc.lft.to/lastmile_qr_scan"}, "lon": -77.03875566666666, "fusion_lat": 0.0}, {"name": "06a0a66a5898a4dedaead8ddf5af8fa7", "fusion_lon": 0.0, "lat": 38.900342333333334, "is_reserved": 0, "type": "electric_scooter", "bike_id": "06a0a66a5898a4dedaead8ddf5af8fa7", "is_disabled": 0, "rental_uris": {"android": "https://dc.lft.to/lastmile_qr_scan", "ios": "https://dc.lft.to/lastmile_qr_scan"}, "lon": -76.997195, "fusion_lat": 0.0}, {"name": "b4495416b7478cd3610c9abf4eef0fbb", "fusion_lon": 0.0, "lat": 38.8935865, "is_reserved": 0, "type": "electric_scooter", "bike_id": "b4495416b7478cd3610c9abf4eef0fbb", "is_disabled": 0, "rental_uris": {"android": "https://dc.lft.to/lastmile_qr_scan", "ios": "https://dc.lft.to/lastmile_qr_scan"}, "lon": -76.94932683333333, "fusion_lat": 0.0}, {"name": "abf470336c6dd0ca67b1fe76e23b8947", "fusion_lon": 0.0, "lat": 38.921186666666664, "is_reserved": 0, "type": "electric_scooter", "bike_id": "abf470336c6dd0ca67b1fe76e23b8947", "is_disabled": 0, "rental_uris": {"android": "https://dc.lft.to/lastmile_qr_scan", "ios": "https://dc.lft.to/lastmile_qr_scan"}, "lon": -77.03657433333333, "fusion_lat": 0.0}, {"name": "a9c7a919ccd32693f62ebead95db68a8", "fusion_lon": 0.0, "lat": 38.8605975, "is_reserved": 0, "type": "electric_scooter", "bike_id": "a9c7a919ccd32693f62ebead95db68a8", "is_disabled": 0, "rental_uris": {"android": "https://dc.lft.to/lastmile_qr_scan", "ios": "https://dc.lft.to/lastmile_qr_scan"}, "lon": -76.98507266666667, "fusion_lat": 0.0}, {"name": "48cd31729ad4286d891cf46ff0fa3add", "fusion_lon": 0.0, "lat": 38.900072333333334, "is_reserved": 0, "type": "electric_scooter", "bike_id": "48cd31729ad4286d891cf46ff0fa3add", "is_disabled": 0, "rental_uris": {"android": "https://dc.lft.to/lastmile_qr_scan", "ios": "https://dc.lft.to/lastmile_qr_scan"}, "lon": -76.99618, "fusion_lat": 0.0}, {"name": "b58aae7aeaff33346b23d57dd38f8bd4", "fusion_lon": 0.0, "lat": 39.043185, "is_reserved": 0, "type": "electric_bike", "bike_id": "b58aae7aeaff33346b23d57dd38f8bd4", "is_disabled": 0, "rental_uris": {"android": "https://dc.lft.to/lastmile_qr_scan", "ios": "https://dc.lft.to/lastmile_qr_scan"}, "lon": -77.051592, "fusion_lat": 0.0}, {"name": "3667bd039e0a4e538624b0aa5205d243", "fusion_lon": 0.0, "lat": 38.9198395, "is_reserved": 0, "type": "electric_scooter", "bike_id": "3667bd039e0a4e538624b0aa5205d243", "is_disabled": 0, "rental_uris": {"android": "https://dc.lft.to/lastmile_qr_scan", "ios": "https://dc.lft.to/lastmile_qr_scan"}, "lon": -77.04171066666666, "fusion_lat": 0.0}, {"name": "1bdafea488129a6231145379961d2865", "fusion_lon": 0.0, "lat": 38.917199833333335, "is_reserved": 0, "type": "electric_scooter", "bike_id": "1bdafea488129a6231145379961d2865", "is_disabled": 0, "rental_uris": {"android": "https://dc.lft.to/lastmile_qr_scan", "ios": "https://dc.lft.to/lastmile_qr_scan"}, "lon": -77.03857316666667, "fusion_lat": 0.0}, {"name": "0383be79ebf00bb9292e51f5605a5210", "fusion_lon": 0.0, "lat": 38.908646166666664, "is_reserved": 0, "type": "electric_scooter", "bike_id": "0383be79ebf00bb9292e51f5605a5210", "is_disabled": 0, "rental_uris": {"android": "https://dc.lft.to/lastmile_qr_scan", "ios": "https://dc.lft.to/lastmile_qr_scan"}, "lon": -77.02414166666667, "fusion_lat": 0.0}, {"name": "9aadd9047fb00f16c72cf115d3048d5f", "fusion_lon": 0.0, "lat": 38.89216666666667, "is_reserved": 0, "type": "electric_scooter", "bike_id": "9aadd9047fb00f16c72cf115d3048d5f", "is_disabled": 0, "rental_uris": {"android": "https://dc.lft.to/lastmile_qr_scan", "ios": "https://dc.lft.to/lastmile_qr_scan"}, "lon": -77.04683066666666, "fusion_lat": 0.0}, {"name": "d3621ee5fbdfa24a5141cf9319171837", "fusion_lon": 0.0, "lat": 38.9220995, "is_reserved": 0, "type": "electric_scooter", "bike_id": "d3621ee5fbdfa24a5141cf9319171837", "is_disabled": 0, "rental_uris": {"android": "https://dc.lft.to/lastmile_qr_scan", "ios": "https://dc.lft.to/lastmile_qr_scan"}, "lon": -77.03660716666667, "fusion_lat": 0.0}, {"name": "f2a1428d5eac892714ae6eb2c29f6632", "fusion_lon": 0.0, "lat": 38.88498883333333, "is_reserved": 0, "type": "electric_scooter", "bike_id": "f2a1428d5eac892714ae6eb2c29f6632", "is_disabled": 0, "rental_uris": {"android": "https://dc.lft.to/lastmile_qr_scan", "ios": "https://dc.lft.to/lastmile_qr_scan"}, "lon": -77.00879433333333, "fusion_lat": 0.0}, {"name": "e1d78fb54cf075741c5fc5a4f31eefcb", "fusion_lon": 0.0, "lat": 38.9610085, "is_reserved": 0, "type": "electric_bike", "bike_id": "e1d78fb54cf075741c5fc5a4f31eefcb", "is_disabled": 0, "rental_uris": {"android": "https://dc.lft.to/lastmile_qr_scan", "ios": "https://dc.lft.to/lastmile_qr_scan"}, "lon": -77.0693915, "fusion_lat": 0.0}, {"name": "787f1015777eda9457c3b4653abdc690", "fusion_lon": 0.0, "lat": 38.942898166666666, "is_reserved": 0, "type": "electric_scooter", "bike_id": "787f1015777eda9457c3b4653abdc690", "is_disabled": 0, "rental_uris": {"android": "https://dc.lft.to/lastmile_qr_scan", "ios": "https://dc.lft.to/lastmile_qr_scan"}, "lon": -77.02170583333333, "fusion_lat": 0.0},