{"data": {"bikes": [{"rental_uris": {"ios": "https://dc.lft.to/lastmile_qr_scan", "android": "https://dc.lft.to/lastmile_qr_scan"}, "type": "electric_scooter", "name": "628cd36b8c8444bfb1473c1e999e471f", "is_reserved": 0, "lon": -77.02806483333333, "is_disabled": 0, "fusion_lat": 0.0, "lat": 38.9074075, "bike_id": "628cd36b8c8444bfb1473c1e999e471f", "fusion_lon": 0.0}, {"rental_uris": {"ios": "https://dc.lft.to/lastmile_qr_scan", "android": "https://dc.lft.to/lastmile_qr_scan"}, "type": "electric_scooter", "name": "b3af9b6ce6370d5be6bee4d84e457cc2", "is_reserved": 0, "lon": -77.040182, "is_disabled": 0, "fusion_lat": 0.0, "lat": 38.91799066666667, "bike_id": "b3af9b6ce6370d5be6bee4d84e457cc2", "fusion_lon": 0.0}, {"rental_uris": {"ios": "https://dc.lft.to/lastmile_qr_scan", "android": "https://dc.lft.to/lastmile_qr_scan"}, "type": "electric_scooter", "name": "1ebaaef6fff92d570e9df9a13ed67791", "is_reserved": 0, "lon": -77.01916433333334, "is_disabled": 0, "fusion_lat": 0.0, "lat": 38.89729366666667, "bike_id": "1ebaaef6fff92d570e9df9a13ed67791", "fusion_lon": 0.0}, {"rental_uris": {"ios": "https://dc.lft.to/lastmile_qr_scan", "android": "https://dc.lft.to/lastmile_qr_scan"}, "type": "electric_scooter", "name": "97ecfc51345ce17294793a403fbf1050", "is_reserved": 0, "lon": -77.02533583333333, "is_disabled": 0, "fusion_lat": 0.0, "lat": 38.945394666666665, "bike_id": "97ecfc51345ce17294793a403fbf1050", "fusion_lon": 0.0}, {"rental_uris": {"ios": "https://dc.lft.to/lastmile_qr_scan", "android": "https://dc.lft.to/lastmile_qr_scan"}, "type": "electric_scooter", "name": "12c5d361ee3a9582ded48f1d6e7f3a77", "is_reserved": 0, "lon": -77.00661116666667, "is_disabled": 0, "fusion_lat": 0.0, "lat": 38.901140166666664, "bike_id": "12c5d361ee3a9582ded48f1d6e7f3a77", "fusion_lon": 0.0}, {"rental_uris": {"ios": "https://dc.lft.to/lastmile_qr_scan", "android": "https://dc.lft.to/lastmile_qr_scan"}, "type": "electric_scooter", "name": "3fbb548a313c2e888a0d7b16818ac5ab", "is_reserved": 0, "lon": -77.0054115, "is_disabled": 0, "fusion_lat": 0.0, "lat": 38.90038366666667, "bike_id": "3fbb548a313c2e888a0d7b16818ac5ab", "fusion_lon": 0.0}, {"rental_uris": {"ios": "https://dc.lft.to/lastmile_qr_scan", "android": "https://dc.lft.to/lastmile_qr_scan"}, "type": "electric_scooter", "name": "8d0b34d3237aae71f3f8c442e4da41f7", "is_reserved": 0, "lon": -77.03845933333334, "is_disabled": 0, "fusion_lat": 0.0, "lat": 38.9110175, "bike_id": "8d0b34d3237aae71f3f8c442e4da41f7", "fusion_lon": 0.0}, {"rental_uris": {"ios": "https://dc.lft.to/lastmile_qr_scan", "android": "https://dc.lft.to/lastmile_qr_scan"}, "type": "electric_scooter", "name": "a0a7c158ea3ef62cc60c533d3716cfc5", "is_reserved": 0, "lon": -77.03152433333334, "is_disabled": 0, "fusion_lat": 0.0, "lat": 38.887532666666665, "bike_id": "a0a7c158ea3ef62cc60c533d3716cfc5", "fusion_lon": 0.0}, {"rental_uris": {"ios": "https://dc.lft.to/lastmile_qr_scan", "android": "https://dc.lft.to/lastmile_qr_scan"}, "type": "electric_scooter", "name": "57dc993497f9883c78d2758c42edcac2", "is_reserved": 0, "lon": -77.028043, "is_disabled": 0, "fusion_lat": 0.0, "lat": 38.907394833333335, "bike_id": "57dc993497f9883c78d2758c42edcac2", "fusion_lon": 0.0}, {"rental_uris": {"ios": "https://dc.lft.to/lastmile_qr_scan", "android": "https://dc.lft.to/lastmile_qr_scan"}, "type": "electric_scooter", "name": "cf02f6415eace41538c3f69bad76401f", "is_reserved": 0, "lon": -77.02447, "is_disabled": 0, "fusion_lat": 0.0, "lat": 38.92051216666667, "bike_id": "cf02f6415eace41538c3f69bad76401f", "fusion_lon": 0.0}, {"rental_uris": {"ios": "https://dc.lft.to/lastmile_qr_scan", "android": "https://dc.lft.to/lastmile_qr_scan"}, "type": "electric_scooter", "name": "c3ab2d904213eaaf0231d349b2fa3f9e", "is_reserved": 0, "lon": -77.055084, "is_disabled": 0, "fusion_lat": 0.0, "lat": 38.929900333333336, "bike_id": "c3ab2d904213eaaf0231d349b2fa3f9e", "fusion_lon": 0.0}, {"rental_uris": {"ios": "https://dc.lft.to/lastmile_qr_scan", "android": "https://dc.lft.to/lastmile_qr_scan"}, "type": "electric_scooter", "name": "6be078c317a3e7e46e040d46f1e7ba50", "is_reserved": 0, "lon": -77.0219305, "is_disabled": 0, "fusion_lat": 0.0, "lat": 38.911274, "bike_id": "6be078c317a3e7e46e040d46f1e7ba50", "fusion_lon": 0.0}, {"rental_uris": {"ios": "https://dc.lft.to/lastmile_qr_scan", "android": "https://dc.lft.to/lastmile_qr_scan"}, "type": "electric_scooter", "name": "793468dacc5e9026ad94dfac1ceb4d6f", "is_reserved": 0, "lon": -77.01979216666666, "is_disabled": 0, "fusion_lat": 0.0, "lat": 38.89301483333333, "bike_id": "793468dacc5e9026ad94dfac1ceb4d6f", "fusion_lon": 0.0}, {"rental_uris": {"ios": "https://dc.lft.to/lastmile_qr_scan", "android": "https://dc.lft.to/lastmile_qr_scan"}, "type": "electric_scooter", "name": "e9114f41d1885e6c78269c8f9619cdc2", "is_reserved": 0, "lon": -77.02063616666666, "is_disabled": 0, "fusion_lat": 0.0, "lat": 38.89706733333333, "bike_id": "e9114f41d1885e6c78269c8f9619cdc2", "fusion_lon": 0.0}, {"rental_uris": {"ios": "https://dc.lft.to/lastmile_qr_scan", "android": "https://dc.lft.to/lastmile_qr_scan"}, "type": "electric_bike", "name": "2044f28a61b0677729b5aad56e422d54", "is_reserved": 0, "lon": -76.980565, "is_disabled": 0, "fusion_lat": 0.0, "lat": 38.972508, "bike_id": "2044f28a61b0677729b5aad56e422d54", "fusion_lon": 0.0}, {"rental_uris": {"ios": "https://dc.lft.to/lastmile_qr_scan", "android": "https://dc.lft.to/lastmile_qr_scan"}, "type": "electric_scooter", "name": "bf6d5286c16740d554c24ca115619ed0", "is_reserved": 0, "lon": -77.039714, "is_disabled": 0, "fusion_lat": 0.0, "lat": 38.90141833333333, "bike_id": "bf6d5286c16740d554c24ca115619ed0", "fusion_lon": 0.0}, {"rental_uris": {"ios": "https://dc.lft.to/lastmile_qr_scan", "android": "https://dc.lft.to/lastmile_qr_scan"}, "type": "electric_scooter", "name": "19325012c2e1ee2a3c2fd8bd93a3acc9", "is_reserved": 0, "lon": -77.02407316666667, "is_disabled": 0, "fusion_lat": 0.0, "lat": 38.945076666666665, "bike_id": "19325012c2e1ee2a3c2fd8bd93a3acc9", "fusion_lon": 0.0}, {"rental_uris": {"ios": "https://dc.lft.to/lastmile_qr_scan", "android": "https://dc.lft.to/lastmile_qr_scan"}, "type": "electric_scooter", "name": "3869fa7be89d2bed904bd41efb015d07", "is_reserved": 0, "lon": -76.99532433333333, "is_disabled": 0, "fusion_lat": 0.0, "lat": 38.862699166666665, "bike_id": "3869fa7be89d2bed904bd41efb015d07", "fusion_lon": 0.0}, {"rental_uris": {"ios": "https://dc.lft.to/lastmile_qr_scan", "android": "https://dc.lft.to/lastmile_qr_scan"}, "type": "electric_scooter", "name": "86b07b14bcd510d73b6ef1b9d59b12ca", "is_reserved": 0, "lon": -77.07524316666667, "is_disabled": 0, "fusion_lat": 0.0, "lat": 38.93946283333333, "bike_id": "86b07b14bcd510d73b6ef1b9d59b12ca", "fusion_lon": 0.0}, {"rental_uris": {"ios": "https://dc.lft.to/lastmile_qr_scan", "android": "https://dc.lft.to/lastmile_qr_scan"}, "type": "electric_scooter", "name": "0a1c7b46c6ab03d81dbded3fc83008cc", "is_reserved": 0, "lon": -77.02498683333333, "is_disabled": 0, "fusion_lat": 0.0, "lat": 38.88029016666667, "bike_id": "0a1c7b46c6ab03d81dbded3fc83008cc", "fusion_lon": 0.0}, {"rental_uris": {"ios": "https://dc.lft.to/lastmile_qr_scan", "android": "https://dc.lft.to/lastmile_qr_scan"}, "type": "electric_scooter", "name": "6a751f2f3275fc7e3bc8d7b5b01ee597", "is_reserved": 0, "lon": -77.03836883333334, "is_disabled": 0, "fusion_lat": 0.0, "lat": 38.91186916666667, "bike_id": "6a751f2f3275fc7e3bc8d7b5b01ee597", "fusion_lon": 0.0}, {"rental_uris": {"ios": "https://dc.lft.to/lastmile_qr_scan", "android": "https://dc.lft.to/lastmile_qr_scan"}, "type": "electric_scooter", "name": "a01a92b8ab62c550cb75b28bebf9bc71", "is_reserved": 0, "lon": -77.0033625, "is_disabled": 0, "fusion_lat": 0.0, "lat": 38.8960365, "bike_id": "a01a92b8ab62c550cb75b28bebf9bc71", "fusion_lon": 0.0}, {"rental_uris": {"ios": "https://dc.lft.to/lastmile_qr_scan", "android": "https://dc.lft.to/lastmile_qr_scan"}, "type": "electric_scooter", "name": "d808d08298722072181a04c75ee998be", "is_reserved": 0, "lon": -77.07055116666666, "is_disabled": 0, "fusion_lat": 0.0, "lat": 38.89907816666667, "bike_id": "d808d08298722072181a04c75ee998be", "fusion_lon": 0.0}, {"rental_uris": {"ios": "https://dc.lft.to/lastmile_qr_scan", "android": "https://dc.lft.to/lastmile_qr_scan"}, "type": "electric_scooter", "name": "553727986e3c4fcc7715bc97f60cb7e2", "is_reserved": 0, "lon": -77.00685083333333, "is_disabled": 0, "fusion_lat": 0.0, "lat": 38.88427183333334, "bike_id": "553727986e3c4fcc7715bc97f60cb7e2", "fusion_lon": 0.0}, {"rental_uris": {"ios": "https://dc.lft.to/lastmile_qr_scan", "android": "https://dc.lft.to/lastmile_qr_scan"}, "type": "electric_scooter", "name": "005e6380d08d2ca1fcc839f025f7c86b", "is_reserved": 0, "lon": -77.02815183333334, "is_disabled": 0, "fusion_lat": 0.0, "lat": 38.92318783333333, "bike_id": "005e6380d08d2ca1fcc839f025f7c86b", "fusion_lon": 0.0}, {"rental_uris": {"ios": "https://dc.lft.to/lastmile_qr_scan", "android": "https://dc.lft.to/lastmile_qr_scan"}, "type": "electric_scooter", "name": "08c8425dae80f36a9b5385efbe48e646", "is_reserved": 0, "lon": -77.0379305, "is_disabled": 0, "fusion_lat": 0.0, "lat": 38.91540633333334, "bike_id": "08c8425dae80f36a9b5385efbe48e646", "fusion_lon": 0.0}, {"rental_uris": {"ios": "https://dc.lft.to/lastmile_qr_scan", "android": "https://dc.lft.to/lastmile_qr_scan"}, "type": "electric_bike", "name": "97fd68e9202f60f59e16ae246d84830f", "is_reserved": 0, "lon": -77.03460583333333, "is_disabled": 0, "fusion_lat": 0.0, "lat": 38.902289333333336, "bike_id": "97fd68e9202f60f59e16ae246d84830f", "fusion_lon": 0.0}, {"rental_uris": {"ios": "https://dc.lft.to/lastmile_qr_scan", "android": "https://dc.lft.to/lastmile_qr_scan"}, "type": "electric_scooter", "name": "0fe44165274b352c1361c0fa3e27ef2e", "is_reserved": 0, "lon": -77.02713483333333, "is_disabled": 0, "fusion_lat": 0.0, "lat": 38.9059705, "bike_id": "0fe44165274b352c1361c0fa3e27ef2e", "fusion_lon": 0.0}, {"rental_uris": {"ios": "https://dc.lft.to/lastmile_qr_scan", "android": "https://dc.lft.to/lastmile_qr_scan"}, "type": "electric_scooter", "name": "f64b7d4c5bb2baa20871735f1f214462", "is_reserved": 0, "lon": -77.033827, "is_disabled": 0, "fusion_lat": 0.0, "lat": 38.920395666666664, "bike_id": "f64b7d4c5bb2baa20871735f1f214462", "fusion_lon": 0.0}, {"rental_uris": {"ios": "https://dc.lft.to/lastmile_qr_scan", "android": "https://dc.lft.to/lastmile_qr_scan"}, "type": "electric_scooter", "name": "ee9417b1ae04b53a3141ef747b50c091", "is_reserved": 0, "lon": -77.03220383333333, "is_disabled": 0, "fusion_lat": 0.0, "lat": 38.892205833333335, "bike_id": "ee9417b1ae04b53a3141ef747b50c091", "fusion_lon": 0.0}, {"rental_uris": {"ios": "https://dc.lft.to/lastmile_qr_scan", "android": "https://dc.lft.to/lastmile_qr_scan"}, "type": "electric_scooter", "name": "d21b2b8d3685f97147e34d776231cc27", "is_reserved": 0, "lon": -77.04484183333334, "is_disabled": 0, "fusion_lat": 0.0, "lat": 38.913367, "bike_id": "d21b2b8d3685f97147e34d776231cc27", "fusion_lon": 0.0}, {"rental_uris": {"ios": "https://dc.lft.to/lastmile_qr_scan", "android": "https://dc.lft.to/lastmile_qr_scan"}, "type": "electric_scooter", "name": "064a82c0db1d451d3c8ce2bf6d3fd13b", "is_reserved": 0, "lon": -77.03029266666667, "is_disabled": 0, "fusion_lat": 0.0, "lat": 38.8982735, "bike_id": "064a82c0db1d451d3c8ce2bf6d3fd13b", "fusion_lon": 0.0}, {"rental_uris": {"ios": "https://dc.lft.to/lastmile_qr_scan", "android": "https://dc.lft.to/lastmile_qr_scan"}, "type": "electric_scooter", "name": "e318c9dcf920a515dc1dc2a700e6376e", "is_reserved": 0, "lon": -77.041192, "is_disabled": 0, "fusion_lat": 0.0, "lat": 38.93107166666667, "bike_id": "e318c9dcf920a515dc1dc2a700e6376e", "fusion_lon": 0.0}, {"rental_uris": {"ios": "https://dc.lft.to/lastmile_qr_scan", "android": "https://dc.lft.to/lastmile_qr_scan"}, "type": "electric_scooter", "name": "2f1456fb7f545c480b09e3ff7f2f831b", "is_reserved": 0, "lon": -77.03912816666667, "is_disabled": 0, "fusion_lat": 0.0, "lat": 38.903486666666666, "bike_id": "2f1456fb7f545c480b09e3ff7f2f831b", "fusion_lon": 0.0}, {"rental_uris": {"ios": "https://dc.lft.to/lastmile_qr_scan", "android": "https://dc.lft.to/lastmile_qr_scan"}, "type": "electric_scooter", "name": "73a35cc02e0e2c6fec5552af2804c4c2", "is_reserved": 0, "lon": -76.98584366666667, "is_disabled": 0, "fusion_lat": 0.0, "lat": 38.854437833333336, "bike_id": "73a35cc02e0e2c6fec5552af2804c4c2", "fusion_lon": 0.0}, {"rental_uris": {"ios": "https://dc.lft.to/lastmile_qr_scan", "android": "https://dc.lft.to/lastmile_qr_scan"}, "type": "electric_scooter", "name": "5148a11d5903b36d5117ad901dd9a793", "is_reserved": 0, "lon": -77.02177516666667, "is_disabled": 0, "fusion_lat": 0.0, "lat": 38.89955283333333, "bike_id": "5148a11d5903b36d5117ad901dd9a793", "fusion_lon": 0.0}, {"rental_uris": {"ios": "https://dc.lft.to/lastmile_qr_scan", "android": "https://dc.lft.to/lastmile_qr_scan"}, "type": "electric_scooter", "name": "e9339884cc24020ce2298bd951c6081a", "is_reserved": 0, "lon": -77.0307655, "is_disabled": 0, "fusion_lat": 0.0, "lat": 38.93877583333333, "bike_id": "e9339884cc24020ce2298bd951c6081a", "fusion_lon": 0.0}, {"rental_uris": {"ios": "https://dc.lft.to/lastmile_qr_scan", "android": "https://dc.lft.to/lastmile_qr_scan"}, "type": "electric_scooter", "name": "154cfe490bebbd3fb3c1b041bb1fcc69", "is_reserved": 0, "lon": -77.03310333333333, "is_disabled": 0, "fusion_lat": 0.0, "lat": 38.90030616666667, "bike_id": "154cfe490bebbd3fb3c1b041bb1fcc69", "fusion_lon": 0.0}, {"rental_uris": {"ios": "https://dc.lft.to/lastmile_qr_scan", "android": "https://dc.lft.to/lastmile_qr_scan"}, "type": "electric_scooter", "name": "cd6701545548bf2ac1a04cd2d472a348", "is_reserved": 0, "lon": -77.03173783333334, "is_disabled": 0, "fusion_lat": 0.0, "lat": 38.8922395, "bike_id": "cd6701545548bf2ac1a04cd2d472a348", "fusion_lon": 0.0}, {"rental_uris": {"ios": "https://dc.lft.to/lastmile_qr_scan", "android": "https://dc.lft.to/lastmile_qr_scan"}, "type": "electric_scooter", "name": "c4349bb3a3ec826612687c3618b90c36", "is_reserved": 0, "lon": -77.04059783333334, "is_disabled": 0, "fusion_lat": 0.0, "lat": 38.917503833333335, "bike_id": "c4349bb3a3ec826612687c3618b90c36", "fusion_lon": 0.0}, {"rental_uris": {"ios": "https://dc.lft.to/lastmile_qr_scan", "android": "https://dc.lft.to/lastmile_qr_scan"}, "type": "electric_bike", "name": "29e9bb0c205fdebf193253d36ec96d28", "is_reserved": 0, "lon": -76.95820166666667, "is_disabled": 0, "fusion_lat": 0.0, "lat": 38.919970166666666, "bike_id": "29e9bb0c205fdebf193253d36ec96d28", "fusion_lon": 0.0}, {"rental_uris": {"ios": "https://dc.lft.to/lastmile_qr_scan", "android": "https://dc.lft.to/lastmile_qr_scan"}, "type": "electric_scooter", "name": "bb20bbe0e7fcce8a0fc18c8c49b00e8c", "is_reserved": 0, "lon": -77.04134766666667, "is_disabled": 0, "fusion_lat": 0.0, "lat": 38.92336916666667, "bike_id": "bb20bbe0e7fcce8a0fc18c8c49b00e8c", "fusion_lon": 0.0}, {"rental_uris": {"ios": "https://dc.lft.to/lastmile_qr_scan", "android": "https://dc.lft.to/lastmile_qr_scan"}, "type": "electric_scooter", "name": "01495e78c0451e85c3b5c88219d30c84", "is_reserved": 0, "lon": -77.021246, "is_disabled": 0, "fusion_lat": 0.0, "lat": 38.924153, "bike_id": "01495e78c0451e85c3b5c88219d30c84", "fusion_lon": 0.0}, {"rental_uris": {"ios": "https://dc.lft.to/lastmile_qr_scan", "android": "https://dc.lft.to/lastmile_qr_scan"}, "type": "electric_scooter", "name": "c940bcae6293522dfbfa59cb936c2305", "is_reserved": 0, "lon": -77.0216515, "is_disabled": 0, "fusion_lat": 0.0, "lat": 38.89465466666667, "bike_id": "c940bcae6293522dfbfa59cb936c2305", "fusion_lon": 0.0}, {"rental_uris": {"ios": "https://dc.lft.to/lastmile_qr_scan", "android": "https://dc.lft.to/lastmile_qr_scan"}, "type": "electric_scooter", "name": "b9175ec7a737cd1d54d78958d0b0561c", "is_reserved": 0, "lon": -77.03872716666666, "is_disabled": 0, "fusion_lat": 0.0, "lat": 38.91881983333333, "bike_id": "b9175ec7a737cd1d54d78958d0b0561c", "fusion_lon": 0.0}, {"rental_uris": {"ios": "https://dc.lft.to/lastmile_qr_scan", "android": "https://dc.lft.to/lastmile_qr_scan"}, "type": "electric_scooter", "name": "9d92eb1576c1d78f6e37fdd3a0262526", "is_reserved": 0, "lon": -76.94856116666666, "is_disabled": 0, "fusion_lat": 0.0, "lat": 38.883011, "bike_id": "9d92eb1576c1d78f6e37fdd3a0262526", "fusion_lon": 0.0}, {"rental_uris": {"ios": "https://dc.lft.to/lastmile_qr_scan", "android": "https://dc.lft.to/lastmile_qr_scan"}, "type": "electric_scooter", "name": "297dae09bef29d0b965fdbac9ee185ef", "is_reserved": 0, "lon": -77.02073216666666, "is_disabled": 0, "fusion_lat": 0.0, "lat": 38.923989666666664, "bike_id": "297dae09bef29d0b965fdbac9ee185ef", "fusion_lon": 0.0}, {"rental_uris": {"ios": "https://dc.lft.to/lastmile_qr_scan", "android": "https://dc.lft.to/lastmile_qr_scan"}, "type": "electric_scooter", "name": "def784fd06d8890d7661b54b63034b99", "is_reserved": 0, "lon": -76.98100116666667, "is_disabled": 0, "fusion_lat": 0.0, "lat": 38.9039845, "bike_id": "def784fd06d8890d7661b54b63034b99", "fusion_lon": 0.0}, {"rental_uris": {"ios": "https://dc.lft.to/lastmile_qr_scan", "android": "https://dc.lft.to/lastmile_qr_scan"}, "type": "electric_scooter", "name": "d595f5f2a7bf7b1da757ba910b67fb09", "is_reserved": 0, "lon": -77.00353433333333, "is_disabled": 0, "fusion_lat": 0.0, "lat": 38.8927525, "bike_id": "d595f5f2a7bf7b1da757ba910b67fb09", "fusion_lon": 0.0}, {"rental_uris": {"ios": "https://dc.lft.to/lastmile_qr_scan", "android": "https://dc.lft.to/lastmile_qr_scan"}, "type": "electric_scooter", "name": "dc009cc27240c55c2e03df4cb63c6518", "is_reserved": 0, "lon": -77.0191035, "is_disabled": 0, "fusion_lat": 0.0, "lat": 38.8948745, "bike_id": "dc009cc27240c55c2e03df4cb63c6518", "fusion_lon": 0.0}, {"rental_uris": {"ios": "https://dc.lft.to/lastmile_qr_scan", "android": "https://dc.lft.to/lastmile_qr_scan"}, "type": "electric_scooter", "name": "3efad522d12cdcf359d27d6dd91b4cda", "is_reserved": 0, "lon": -77.02123083333333, "is_disabled": 0, "fusion_lat": 0.0, "lat": 38.923829166666664, "bike_id": "3efad522d12cdcf359d27d6dd91b4cda", "fusion_lon": 0.0}, {"rental_uris": {"ios": "https://dc.lft.to/lastmile_qr_scan", "android": "https://dc.lft.to/lastmile_qr_scan"}, "type": "electric_scooter", "name": "0b4ae3e2707d279cb90d09476e3cfd27", "is_reserved": 0, "lon": -77.03851483333334, "is_disabled": 0, "fusion_lat": 0.0, "lat": 38.91550683333333, "bike_id": "0b4ae3e2707d279cb90d09476e3cfd27", "fusion_lon": 0.0}, {"rental_uris": {"ios": "https://dc.lft.to/lastmile_qr_scan", "android": "https://dc.lft.to/lastmile_qr_scan"}, "type": "electric_scooter", "name": "f5e4dd4b2870c4310d79b6f0f2875125", "is_reserved": 0, "lon": -76.99970483333334, "is_disabled": 0, "fusion_lat": 0.0, "lat": 38.88656816666666, "bike_id": "f5e4dd4b2870c4310d79b6f0f2875125", "fusion_lon": 0.0}, {"rental_uris": {"ios": "https://dc.lft.to/lastmile_qr_scan", "android": "https://dc.lft.to/lastmile_qr_scan"}, "type": "electric_scooter", "name": "e6fd83f0616ff1143e4eb95059d87676", "is_reserved": 0, "lon": -77.031774, "is_disabled": 0, "fusion_lat": 0.0, "lat": 38.892222, "bike_id": "e6fd83f0616ff1143e4eb95059d87676", "fusion_lon": 0.0}, {"rental_uris": {"ios": "https://dc.lft.to/lastmile_qr_scan", "android": "https://dc.lft.to/lastmile_qr_scan"}, "type": "electric_scooter", "name": "83a4d8472dc42556fe6719ba022bb71f", "is_reserved": 0, "lon": -77.02669566666667, "is_disabled": 0, "fusion_lat": 0.0, "lat": 38.984327, "bike_id": "83a4d8472dc42556fe6719ba022bb71f", "fusion_lon": 0.0}, {"rental_uris": {"ios": "https://dc.lft.to/lastmile_qr_scan", "android": "https://dc.lft.to/lastmile_qr_scan"}, "type": "electric_scooter", "name": "86ac9221aa64038f44a0dc6c20f23b60", "is_reserved": 0, "lon": -77.03084216666667, "is_disabled": 0, "fusion_lat": 0.0, "lat": 38.935229666666665, "bike_id": "86ac9221aa64038f44a0dc6c20f23b60", "fusion_lon": 0.0}, {"rental_uris": {"ios": "https://dc.lft.to/lastmile_qr_scan", "android": "https://dc.lft.to/lastmile_qr_scan"}, "type": "electric_scooter", "name": "6573dc577b8cbb99fc7843120a14e483", "is_reserved": 0, "lon": -77.03207516666667, "is_disabled": 0, "fusion_lat": 0.0, "lat": 38.908964833333336, "bike_id": "6573dc577b8cbb99fc7843120a14e483", "fusion_lon": 0.0}, {"rental_uris": {"ios": "https://dc.lft.to/lastmile_qr_scan", "android": "https://dc.lft.to/lastmile_qr_scan"}, "type": "electric_scooter", "name": "1b051c2c118dc6c04c3e372fc512636c", "is_reserved": 0, "lon": -77.0382725, "is_disabled": 0, "fusion_lat": 0.0, "lat": 38.912576, "bike_id": "1b051c2c118dc6c04c3e372fc512636c", "fusion_lon": 0.0}, {"rental_uris": {"ios": "https://dc.lft.to/lastmile_qr_scan", "android": "https://dc.lft.to/lastmile_qr_scan"}, "type": "electric_scooter", "name": "905460d31f50a4c8ae0ca6f4d6aeb242", "is_reserved": 0, "lon": -77.02347666666667, "is_disabled": 0, "fusion_lat": 0.0, "lat": 38.892241, "bike_id": "905460d31f50a4c8ae0ca6f4d6aeb242", "fusion_lon": 0.0}, {"rental_uris": {"ios": "https://dc.lft.to/lastmile_qr_scan", "android": "https://dc.lft.to/lastmile_qr_scan"}, "type": "electric_scooter", "name": "e8eb379d25d72ab7dddda45d967dd52f", "is_reserved": 0, "lon": -77.02503583333333, "is_disabled": 0, "fusion_lat": 0.0, "lat": 38.9421205, "bike_id": "e8eb379d25d72ab7dddda45d967dd52f", "fusion_lon": 0.0}, {"rental_uris": {"ios": "https://dc.lft.to/lastmile_qr_scan", "android": "https://dc.lft.to/lastmile_qr_scan"}, "type": "electric_scooter", "name": "b6997a40b5d1ef7a49103a68ed9189cd", "is_reserved": 0, "lon": -77.00338983333333, "is_disabled": 0, "fusion_lat": 0.0, "lat": 38.89612566666667, "bike_id": "b6997a40b5d1ef7a49103a68ed9189cd", "fusion_lon": 0.0}, {"rental_uris": {"ios": "https://dc.lft.to/lastmile_qr_scan", "android": "https://dc.lft.to/lastmile_qr_scan"}, "type": "electric_scooter", "name": "81dcdcec9d844cb5f31ca33b56d95db2", "is_reserved": 0, "lon": -77.0257885, "is_disabled": 0, "fusion_lat": 0.0, "lat": 38.925332166666664, "bike_id": "81dcdcec9d844cb5f31ca33b56d95db2", "fusion_lon": 0.0}, {"rental_uris": {"ios": "https://dc.lft.to/lastmile_qr_scan", "android": "https://dc.lft.to/lastmile_qr_scan"}, "type": "electric_scooter", "name": "25298b4008757b8897563ccac0fbab1f", "is_reserved": 0, "lon": -77.033226, "is_disabled": 0, "fusion_lat": 0.0, "lat": 38.88765166666666, "bike_id": "25298b4008757b8897563ccac0fbab1f", "fusion_lon": 0.0}, {"rental_uris": {"ios": "https://dc.lft.to/lastmile_qr_scan", "android": "https://dc.lft.to/lastmile_qr_scan"}, "type": "electric_scooter", "name": "e855b1243ef72af4b5521d51168ab8cd", "is_reserved": 0, "lon": -77.02401033333334, "is_disabled": 0, "fusion_lat": 0.0, "lat": 38.90575066666667, "bike_id": "e855b1243ef72af4b5521d51168ab8cd", "fusion_lon": 0.0}, {"rental_uris": {"ios": "https://dc.lft.to/lastmile_qr_scan", "android": "https://dc.lft.to/lastmile_qr_scan"}, "type": "electric_bike", "name": "1e81475c834a2ffd0653a75c6e262285", "is_reserved": 0, "lon": -76.9777755, "is_disabled": 0, "fusion_lat": 0.0, "lat": 38.85718133333334, "bike_id": "1e81475c834a2ffd0653a75c6e262285", "fusion_lon": 0.0}, {"rental_uris": {"ios": "https://dc.lft.to/lastmile_qr_scan", "android": "https://dc.lft.to/lastmile_qr_scan"}, "type": "electric_scooter", "name": "5cfd276521d6ff1ba4dcd2108dd843cd", "is_reserved": 0, "lon": -77.0240895, "is_disabled": 0, "fusion_lat": 0.0, "lat": 38.89229266666667, "bike_id": "5cfd276521d6ff1ba4dcd2108dd843cd", "fusion_lon": 0.0}, {"rental_uris": {"ios": "https://dc.lft.to/lastmile_qr_scan", "android": "https://dc.lft.to/lastmile_qr_scan"}, "type": "electric_bike", "name": "e052d578f617b6ad2535425d54f2368f", "is_reserved": 0, "lon": -77.128404, "is_disabled": 0, "fusion_lat": 0.0, "lat": 38.80051783333333, "bike_id": "e052d578f617b6ad2535425d54f2368f", "fusion_lon": 0.0}, {"rental_uris": {"ios": "https://dc.lft.to/lastmile_qr_scan", "android": "https://dc.lft.to/lastmile_qr_scan"}, "type": "electric_scooter", "name": "8c2870cd714ef97908223d6ac9864836", "is_reserved": 0, "lon": -76.9951235, "is_disabled": 0, "fusion_lat": 0.0, "lat": 38.909761333333336, "bike_id": "8c2870cd714ef97908223d6ac9864836", "fusion_lon": 0.0}, {"rental_uris": {"ios": "https://dc.lft.to/lastmile_qr_scan", "android": "https://dc.lft.to/lastmile_qr_scan"}, "type": "electric_scooter", "name": "4cd4e3bc9ac1a36bbd3b0952ef702e3c", "is_reserved": 0, "lon": -76.95295933333334, "is_disabled": 0, "fusion_lat": 0.0, "lat": 38.885254333333336, "bike_id": "4cd4e3bc9ac1a36bbd3b0952ef702e3c", "fusion_lon": 0.0}, {"rental_uris": {"ios": "https://dc.lft.to/lastmile_qr_scan", "android": "https://dc.lft.to/lastmile_qr_scan"}, "type": "electric_scooter", "name": "8ea77d8153f985483ffe18da4d0aeb1e", "is_reserved": 0, "lon": -77.02551516666666, "is_disabled": 0, "fusion_lat": 0.0, "lat": 38.95178383333333, "bike_id": "8ea77d8153f985483ffe18da4d0aeb1e", "fusion_lon": 0.0}, {"rental_uris": {"ios": "https://dc.lft.to/lastmile_qr_scan", "android": "https://dc.lft.to/lastmile_qr_scan"}, "type": "electric_scooter", "name": "34dc59a94de79d65cf6966e9f2339cde", "is_reserved": 0, "lon": -77.004688, "is_disabled": 0, "fusion_lat": 0.0, "lat": 38.88513916666667, "bike_id": "34dc59a94de79d65cf6966e9f2339cde", "fusion_lon": 0.0}, {"rental_uris": {"ios": "https://dc.lft.to/lastmile_qr_scan", "android": "https://dc.lft.to/lastmile_qr_scan"}, "type": "electric_scooter", "name": "6ea645c3264343245bf17b279a44ea64", "is_reserved": 0, "lon": -76.94062516666666, "is_disabled": 0, "fusion_lat": 0.0, "lat": 38.885848333333335, "bike_id": "6ea645c3264343245bf17b279a44ea64", "fusion_lon": 0.0}, {"rental_uris": {"ios": "https://dc.lft.to/lastmile_qr_scan", "android": "https://dc.lft.to/lastmile_qr_scan"}, "type": "electric_scooter", "name": "e66b8b35ca557c9f00b4c82374e7adea", "is_reserved": 0, "lon": -77.03461816666666, "is_disabled": 0, "fusion_lat": 0.0, "lat": 38.90232683333333, "bike_id": "e66b8b35ca557c9f00b4c82374e7adea", "fusion_lon": 0.0}, {"rental_uris": {"ios": "https://dc.lft.to/lastmile_qr_scan", "android": "https://dc.lft.to/lastmile_qr_scan"}, "type": "electric_scooter", "name": "e6993193b94c6113fc3f0f5407f613fb", "is_reserved": 0, "lon": -77.032494, "is_disabled": 0, "fusion_lat": 0.0, "lat": 38.91989483333333, "bike_id": "e6993193b94c6113fc3f0f5407f613fb", "fusion_lon": 0.0}, {"rental_uris": {"ios": "https://dc.lft.to/lastmile_qr_scan", "android": "https://dc.lft.to/lastmile_qr_scan"}, "type": "electric_scooter", "name": "a2f5bd65ff5d101bfed9173464f4e0bf", "is_reserved": 0, "lon": -77.02097833333333, "is_disabled": 0, "fusion_lat": 0.0, "lat": 38.88741566666667, "bike_id": "a2f5bd65ff5d101bfed9173464f4e0bf", "fusion_lon": 0.0}, {"rental_uris": {"ios": "https://dc.lft.to/lastmile_qr_scan", "android": "https://dc.lft.to/lastmile_qr_scan"}, "type": "electric_scooter", "name": "ccc5219597ef9e9bca9d197d21a93b44", "is_reserved": 0, "lon": -76.99150266666666, "is_disabled": 0, "fusion_lat": 0.0, "lat": 38.9004325, "bike_id": "ccc5219597ef9e9bca9d197d21a93b44", "fusion_lon": 0.0}, {"rental_uris": {"ios": "https://dc.lft.to/lastmile_qr_scan", "android": "https://dc.lft.to/lastmile_qr_scan"}, "type": "electric_bike", "name": "ffe6493cc4eee690b74c28517f23a049", "is_reserved": 0, "lon": -77.01901033333333, "is_disabled": 0, "fusion_lat": 0.0, "lat": 38.9766845, "bike_id": "ffe6493cc4eee690b74c28517f23a049", "fusion_lon": 0.0}, {"rental_uris": {"ios": "https://dc.lft.to/lastmile_qr_scan", "android": "https://dc.lft.to/lastmile_qr_scan"}, "type": "electric_scooter", "name": "80e059525befb6f4323f271a335df451", "is_reserved": 0, "lon": -77.031903, "is_disabled": 0, "fusion_lat": 0.0, "lat": 38.90836383333333, "bike_id": "80e059525befb6f4323f271a335df451", "fusion_lon": 0.0}, {"rental_uris": {"ios": "https://dc.lft.to/lastmile_qr_scan", "android": "https://dc.lft.to/lastmile_qr_scan"}, "type": "electric_scooter", "name": "6446c281b96128069fc31491e8027483", "is_reserved": 0, "lon": -77.0362095, "is_disabled": 0, "fusion_lat": 0.0, "lat": 38.94290866666667, "bike_id": "6446c281b96128069fc31491e8027483", "fusion_lon": 0.0}, {"rental_uris": {"ios": "https://dc.lft.to/lastmile_qr_scan", "android": "https://dc.lft.to/lastmile_qr_scan"}, "type": "electric_scooter", "name": "64061e2378205300997ff795b8dd15f7", "is_reserved": 0, "lon": -77.02981016666666, "is_disabled": 0, "fusion_lat": 0.0, "lat": 38.91709, "bike_id": "64061e2378205300997ff795b8dd15f7", "fusion_lon": 0.0}, {"rental_uris": {"ios": "https://dc.lft.to/lastmile_qr_scan", "android": "https://dc.lft.to/lastmile_qr_scan"}, "type": "electric_scooter", "name": "1045904037e4f39c0cd5dcb8cb8844f6", "is_reserved": 0, "lon": -77.02104516666667, "is_disabled": 0, "fusion_lat": 0.0, "lat": 38.966745833333334, "bike_id": "1045904037e4f39c0cd5dcb8cb8844f6", "fusion_lon": 0.0}, {"rental_uris": {"ios": "https://dc.lft.to/lastmile_qr_scan", "android": "https://dc.lft.to/lastmile_qr_scan"}, "type": "electric_scooter", "name": "7a7472f542c33b2e22722e77ea628fc1", "is_reserved": 0, "lon": -76.9903765, "is_disabled": 0, "fusion_lat": 0.0, "lat": 38.88881416666667, "bike_id": "7a7472f542c33b2e22722e77ea628fc1", "fusion_lon": 0.0}, {"rental_uris": {"ios": "https://dc.lft.to/lastmile_qr_scan", "android": "https://dc.lft.to/lastmile_qr_scan"}, "type": "electric_scooter", "name": "a15cf9f7667fc2f14200fae71097b485", "is_reserved": 0, "lon": -77.04175483333333, "is_disabled": 0, "fusion_lat": 0.0, "lat": 38.91846233333333, "bike_id": "a15cf9f7667fc2f14200fae71097b485", "fusion_lon": 0.0}, {"rental_uris": {"ios": "https://dc.lft.to/lastmile_qr_scan", "android": "https://dc.lft.to/lastmile_qr_scan"}, "type": "electric_scooter", "name": "0d57695b9cb5542199092920c0352bbc", "is_reserved": 0, "lon": -76.98806566666667, "is_disabled": 0, "fusion_lat": 0.0, "lat": 38.900189166666664, "bike_id": "0d57695b9cb5542199092920c0352bbc", "fusion_lon": 0.0}, {"rental_uris": {"ios": "https://dc.lft.to/lastmile_qr_scan", "android": "https://dc.lft.to/lastmile_qr_scan"}, "type": "electric_bike", "name": "1f2fd2829f9872737476ee6b8c6f39f7", "is_reserved": 0, "lon": -77.02071116666667, "is_disabled": 0, "fusion_lat": 0.0, "lat": 38.964420833333335, "bike_id": "1f2fd2829f9872737476ee6b8c6f39f7", "fusion_lon": 0.0}, {"rental_uris": {"ios": "https://dc.lft.to/lastmile_qr_scan", "android": "https://dc.lft.to/lastmile_qr_scan"}, "type": "electric_scooter", "name": "bf118de9fbbf88e2bcc5e4ac63258c49", "is_reserved": 0, "lon": -76.98535, "is_disabled": 0, "fusion_lat": 0.0, "lat": 38.91456016666667, "bike_id": "bf118de9fbbf88e2bcc5e4ac63258c49", "fusion_lon": 0.0}, {"rental_uris": {"ios": "https://dc.lft.to/lastmile_qr_scan", "android": "https://dc.lft.to/lastmile_qr_scan"}, "type": "electric_scooter", "name": "a6de7c3375713cdfd669c1fb23c57a06", "is_reserved": 0, "lon": -77.0385725, "is_disabled": 0, "fusion_lat": 0.0, "lat": 38.911107, "bike_id": "a6de7c3375713cdfd669c1fb23c57a06", "fusion_lon": 0.0}, {"rental_uris": {"ios": "https://dc.lft.to/lastmile_qr_scan", "android": "https://dc.lft.to/lastmile_qr_scan"}, "type": "electric_scooter", "name": "5a0f2aa6a50b63ee30068382ec6b05e3", "is_reserved": 0, "lon": -77.0074775, "is_disabled": 0, "fusion_lat": 0.0, "lat": 38.9111895, "bike_id": "5a0f2aa6a50b63ee30068382ec6b05e3", "fusion_lon": 0.0}, {"rental_uris": {"ios": "https://dc.lft.to/lastmile_qr_scan", "android": "https://dc.lft.to/lastmile_qr_scan"}, "type": "electric_scooter", "name": "6707b5f3b3ca8373d5c550b68be45d9c", "is_reserved": 0, "lon": -77.02338883333333, "is_disabled": 0, "fusion_lat": 0.0, "lat": 38.917627833333334, "bike_id": "6707b5f3b3ca8373d5c550b68be45d9c", "fusion_lon": 0.0}, {"rental_uris": {"ios": "https://dc.lft.to/lastmile_qr_scan", "android": "https://dc.lft.to/lastmile_qr_scan"}, "type": "electric_bike", "name": "484470af310d53b5f2cd66635647599c", "is_reserved": 0, "lon": -76.993675, "is_disabled": 0, "fusion_lat": 0.0, "lat": 38.927313166666664, "bike_id": "484470af310d53b5f2cd66635647599c", "fusion_lon": 0.0}, {"rental_uris": {"ios": "https://dc.lft.to/lastmile_qr_scan", "android": "https://dc.lft.to/lastmile_qr_scan"}, "type": "electric_scooter", "name": "cd5df2afeb27fa2bc301f60ba88a8dd9", "is_reserved": 0, "lon": -77.02400233333333, "is_disabled": 0, "fusion_lat": 0.0, "lat": 38.905779333333335, "bike_id": "cd5df2afeb27fa2bc301f60ba88a8dd9", "fusion_lon": 0.0}, {"rental_uris": {"ios": "https://dc.lft.to/lastmile_qr_scan", "android": "https://dc.lft.to/lastmile_qr_scan"}, "type": "electric_scooter", "name": "9ff0fd2b2d9b2bbd8ce6d9520f0f0b5a", "is_reserved": 0, "lon": -77.02694716666667, "is_disabled": 0, "fusion_lat": 0.0, "lat": 38.902459666666665, "bike_id": "9ff0fd2b2d9b2bbd8ce6d9520f0f0b5a", "fusion_lon": 0.0}, {"rental_uris": {"ios": "https://dc.lft.to/lastmile_qr_scan", "android": "https://dc.lft.to/lastmile_qr_scan"}, "type": "electric_scooter", "name": "3b280dcbc5eedf79e3c41dc67f34a4e3", "is_reserved": 0, "lon": -77.03828133333333, "is_disabled": 0, "fusion_lat": 0.0, "lat": 38.91042683333333, "bike_id": "3b280dcbc5eedf79e3c41dc67f34a4e3", "fusion_lon": 0.0}, {"rental_uris": {"ios": "https://dc.lft.to/lastmile_qr_scan", "android": "https://dc.lft.to/lastmile_qr_scan"}, "type": "electric_scooter", "name": "625802811d1c808f90ceb256c9468b32", "is_reserved": 0, "lon": -76.9959365, "is_disabled": 0, "fusion_lat": 0.0, "lat": 38.9003, "bike_id": "625802811d1c808f90ceb256c9468b32", "fusion_lon": 0.0}, {"rental_uris": {"ios": "https://dc.lft.to/lastmile_qr_scan", "android": "https://dc.lft.to/lastmile_qr_scan"}, "type": "electric_scooter", "name": "d2082207dffe06e747b8b2a94bb0ed23", "is_reserved": 0, "lon": -77.0294325, "is_disabled": 0, "fusion_lat": 0.0, "lat": 38.9171065, "bike_id": "d2082207dffe06e747b8b2a94bb0ed23", "fusion_lon": 0.0}, {"rental_uris": {"ios": "https://dc.lft.to/lastmile_qr_scan", "android": "https://dc.lft.to/lastmile_qr_scan"}, "type": "electric_scooter", "name": "849a96481771239942c5e9ce148bca2e", "is_reserved": 0, "lon": -77.04506583333334, "is_disabled": 0, "fusion_lat": 0.0, "lat": 38.90965816666667, "bike_id": "849a96481771239942c5e9ce148bca2e", "fusion_lon": 0.0}, {"rental_uris": {"ios": "https://dc.lft.to/lastmile_qr_scan", "android": "https://dc.lft.to/lastmile_qr_scan"}, "type": "electric_scooter", "name": "e39d0cf28b3c9139991c7222b29b32cc", "is_reserved": 0, "lon": -77.03708966666666, "is_disabled": 0, "fusion_lat": 0.0, "lat": 38.926530666666665, "bike_id": "e39d0cf28b3c9139991c7222b29b32cc", "fusion_lon": 0.0}, {"rental_uris": {"ios": "https://dc.lft.to/lastmile_qr_scan", "android": "https://dc.lft.to/lastmile_qr_scan"}, "type": "electric_scooter", "name": "7e972bcbb748b554ab2678610003dbda", "is_reserved": 0, "lon": -77.0357615, "is_disabled": 0, "fusion_lat": 0.0, "lat": 38.91784466666667, "bike_id": "7e972bcbb748b554ab2678610003dbda", "fusion_lon": 0.0}, {"rental_uris": {"ios": "https://dc.lft.to/lastmile_qr_scan", "android": "https://dc.lft.to/lastmile_qr_scan"}, "type": "electric_bike", "name": "6ccc845f18f9d81520872b9f8e63b706", "is_reserved": 0, "lon": -77.12653183333333, "is_disabled": 0, "fusion_lat": 0.0, "lat": 38.81913333333333, "bike_id": "6ccc845f18f9d81520872b9f8e63b706", "fusion_lon": 0.0}, {"rental_uris": {"ios": "https://dc.lft.to/lastmile_qr_scan", "android": "https://dc.lft.to/lastmile_qr_scan"}, "type": "electric_scooter", "name": "3cb08dee2ed770ff65334d027fcdeac7", "is_reserved": 0, "lon": -77.0325445, "is_disabled": 0, "fusion_lat": 0.0, "lat": 38.92765983333334, "bike_id": "3cb08dee2ed770ff65334d027fcdeac7", "fusion_lon": 0.0}, {"rental_uris": {"ios": "https://dc.lft.to/lastmile_qr_scan", "android": "https://dc.lft.to/lastmile_qr_scan"}, "type": "electric_bike", "name": "d0a7a99e5880fc42092355b41096855f", "is_reserved": 0, "lon": -77.08529816666666, "is_disabled": 0, "fusion_lat": 0.0, "lat": 38.8565065, "bike_id": "d0a7a99e5880fc42092355b41096855f", "fusion_lon": 0.0}, {"rental_uris": {"ios": "https://dc.lft.to/lastmile_qr_scan", "android": "https://dc.lft.to/lastmile_qr_scan"}, "type": "electric_scooter", "name": "71ce5c12cf8161557c7ea4f3a6b17bea", "is_reserved": 0, "lon": -77.04172733333333, "is_disabled": 0, "fusion_lat": 0.0, "lat": 38.901364666666666, "bike_id": "71ce5c12cf8161557c7ea4f3a6b17bea", "fusion_lon": 0.0}, {"rental_uris": {"ios": "https://dc.lft.to/lastmile_qr_scan", "android": "https://dc.lft.to/lastmile_qr_scan"}, "type": "electric_scooter", "name": "0043a576abdd9e7c47a8286a7a40e076", "is_reserved": 0, "lon": -77.04866716666666, "is_disabled": 0, "fusion_lat": 0.0, "lat": 38.89221933333334, "bike_id": "0043a576abdd9e7c47a8286a7a40e076", "fusion_lon": 0.0}, {"rental_uris": {"ios": "https://dc.lft.to/lastmile_qr_scan", "android": "https://dc.lft.to/lastmile_qr_scan"}, "type": "electric_scooter", "name": "47ff81fb34ffdac6893ec581bb4018ba", "is_reserved": 0, "lon": -77.02145533333334, "is_disabled": 0, "fusion_lat": 0.0, "lat": 38.90301133333333, "bike_id": "47ff81fb34ffdac6893ec581bb4018ba", "fusion_lon": 0.0}, {"rental_uris": {"ios": "https://dc.lft.to/lastmile_qr_scan", "android": "https://dc.lft.to/lastmile_qr_scan"}, "type": "electric_scooter", "name": "3d058f0556170941854db9a5c1fa2843", "is_reserved": 0, "lon": -77.04504183333333, "is_disabled": 0, "fusion_lat": 0.0, "lat": 38.90507783333334, "bike_id": "3d058f0556170941854db9a5c1fa2843", "fusion_lon": 0.0}, {"rental_uris": {"ios": "https://dc.lft.to/lastmile_qr_scan", "android": "https://dc.lft.to/lastmile_qr_scan"}, "type": "electric_scooter", "name": "a6b1cf5c96bce4f9aaca2f2d43a2c900", "is_reserved": 0, "lon": -77.090292, "is_disabled": 0, "fusion_lat": 0.0, "lat": 38.955970666666666, "bike_id": "a6b1cf5c96bce4f9aaca2f2d43a2c900", "fusion_lon": 0.0}, {"rental_uris": {"ios": "https://dc.lft.to/lastmile_qr_scan", "android": "https://dc.lft.to/lastmile_qr_scan"}, "type": "electric_scooter", "name": "ba3d3467ba39439750e439f409356a14", "is_reserved": 0, "lon": -77.03416733333333, "is_disabled": 0, "fusion_lat": 0.0, "lat": 38.9219325, "bike_id": "ba3d3467ba39439750e439f409356a14", "fusion_lon": 0.0}, {"rental_uris": {"ios": "https://dc.lft.to/lastmile_qr_scan", "android": "https://dc.lft.to/lastmile_qr_scan"}, "type": "electric_scooter", "name": "79965f628fef4045bdb6dff1b4386d74", "is_reserved": 0, "lon": -76.96973616666666, "is_disabled": 0, "fusion_lat": 0.0, "lat": 38.86146133333333, "bike_id": "79965f628fef4045bdb6dff1b4386d74", "fusion_lon": 0.0}, {"rental_uris": {"ios": "https://dc.lft.to/lastmile_qr_scan", "android": "https://dc.lft.to/lastmile_qr_scan"}, "type": "electric_scooter", "name": "e8f220e2f155d7ec51d1089971c37a5a", "is_reserved": 0, "lon": -77.005933, "is_disabled": 0, "fusion_lat": 0.0, "lat": 38.875658333333334, "bike_id": "e8f220e2f155d7ec51d1089971c37a5a", "fusion_lon": 0.0}, {"rental_uris": {"ios": "https://dc.lft.to/lastmile_qr_scan", "android": "https://dc.lft.to/lastmile_qr_scan"}, "type": "electric_scooter", "name": "c2d99cbbfee9ff7f3d6d060a164e5634", "is_reserved": 0, "lon": -77.03880983333333, "is_disabled": 0, "fusion_lat": 0.0, "lat": 38.903501, "bike_id": "c2d99cbbfee9ff7f3d6d060a164e5634", "fusion_lon": 0.0}, {"rental_uris": {"ios": "https://dc.lft.to/lastmile_qr_scan", "android": "https://dc.lft.to/lastmile_qr_scan"}, "type": "electric_scooter", "name": "1946ae04267ca7fe685e0f16fbd024c7", "is_reserved": 0, "lon": -77.05386833333333, "is_disabled": 0, "fusion_lat": 0.0, "lat": 38.923444833333335, "bike_id": "1946ae04267ca7fe685e0f16fbd024c7", "fusion_lon": 0.0}, {"rental_uris": {"ios": "https://dc.lft.to/lastmile_qr_scan", "android": "https://dc.lft.to/lastmile_qr_scan"}, "type": "electric_scooter", "name": "476eaacf9bc6255cdc2e7cf89a61a0d5", "is_reserved": 0, "lon": -77.041077, "is_disabled": 0, "fusion_lat": 0.0, "lat": 38.923222833333334, "bike_id": "476eaacf9bc6255cdc2e7cf89a61a0d5", "fusion_lon": 0.0}, {"rental_uris": {"ios": "https://dc.lft.to/lastmile_qr_scan", "android": "https://dc.lft.to/lastmile_qr_scan"}, "type": "electric_scooter", "name": "b5ddd631bc6b0b91aff455e4a373917e", "is_reserved": 0, "lon": -77.03446333333333, "is_disabled": 0, "fusion_lat": 0.0, "lat": 38.9073935, "bike_id": "b5ddd631bc6b0b91aff455e4a373917e", "fusion_lon": 0.0}, {"rental_uris": {"ios": "https://dc.lft.to/lastmile_qr_scan", "android": "https://dc.lft.to/lastmile_qr_scan"}, "type": "electric_scooter", "name": "498e17a9f606996e999ac7af204734f5", "is_reserved": 0, "lon": -77.04082866666667, "is_disabled": 0, "fusion_lat": 0.0, "lat": 38.94787933333333, "bike_id": "498e17a9f606996e999ac7af204734f5", "fusion_lon": 0.0}, {"rental_uris": {"ios": "https://dc.lft.to/lastmile_qr_scan", "android": "https://dc.lft.to/lastmile_qr_scan"}, "type": "electric_scooter", "name": "454441a3f3134c3d1189f86fa8041485", "is_reserved": 0, "lon": -77.04184883333333, "is_disabled": 0, "fusion_lat": 0.0, "lat": 38.892879, "bike_id": "454441a3f3134c3d1189f86fa8041485", "fusion_lon": 0.0}, {"rental_uris": {"ios": "https://dc.lft.to/lastmile_qr_scan", "android": "https://dc.lft.to/lastmile_qr_scan"}, "type": "electric_scooter", "name": "dc7cace96d8acca4dee42be44836e724", "is_reserved": 0, "lon": -77.033669, "is_disabled": 0, "fusion_lat": 0.0, "lat": 38.916415, "bike_id": "dc7cace96d8acca4dee42be44836e724", "fusion_lon": 0.0}, {"rental_uris": {"ios": "https://dc.lft.to/lastmile_qr_scan", "android": "https://dc.lft.to/lastmile_qr_scan"}, "type": "electric_scooter", "name": "c10a3bb4f6e07529e814909c1e17f340", "is_reserved": 0, "lon": -77.05199266666666, "is_disabled": 0, "fusion_lat": 0.0, "lat": 38.90256816666667, "bike_id": "c10a3bb4f6e07529e814909c1e17f340", "fusion_lon": 0.0}, {"rental_uris": {"ios": "https://dc.lft.to/lastmile_qr_scan", "android": "https://dc.lft.to/lastmile_qr_scan"}, "type": "electric_scooter", "name": "d3d14abc1c41a0056f378777c22dbfa2", "is_reserved": 0, "lon": -77.04219566666667, "is_disabled": 0, "fusion_lat": 0.0, "lat": 38.91122, "bike_id": "d3d14abc1c41a0056f378777c22dbfa2", "fusion_lon": 0.0}, {"rental_uris": {"ios": "https://dc.lft.to/lastmile_qr_scan", "android": "https://dc.lft.to/lastmile_qr_scan"}, "type": "electric_scooter", "name": "89cc0e98f7d9561498cc75bc9dccaa7a", "is_reserved": 0, "lon": -77.0450665, "is_disabled": 0, "fusion_lat": 0.0, "lat": 38.8962315, "bike_id": "89cc0e98f7d9561498cc75bc9dccaa7a", "fusion_lon": 0.0}, {"rental_uris": {"ios": "https://dc.lft.to/lastmile_qr_scan", "android": "https://dc.lft.to/lastmile_qr_scan"}, "type": "electric_scooter", "name": "80df929180c4229c4ae2a02c1be53acd", "is_reserved": 0, "lon": -77.0325445, "is_disabled": 0, "fusion_lat": 0.0, "lat": 38.91554416666666, "bike_id": "80df929180c4229c4ae2a02c1be53acd", "fusion_lon": 0.0}, {"rental_uris": {"ios": "https://dc.lft.to/lastmile_qr_scan", "android": "https://dc.lft.to/lastmile_qr_scan"}, "type": "electric_scooter", "name": "e9e2d7ed50ea5777abd6701a28973f89", "is_reserved": 0, "lon": -77.01914433333333, "is_disabled": 0, "fusion_lat": 0.0, "lat": 38.897291, "bike_id": "e9e2d7ed50ea5777abd6701a28973f89", "fusion_lon": 0.0}, {"rental_uris": {"ios": "https://dc.lft.to/lastmile_qr_scan", "android": "https://dc.lft.to/lastmile_qr_scan"}, "type": "electric_scooter", "name": "24712e5100bc0f95a636d20714f71ef6", "is_reserved": 0, "lon": -77.03707166666666, "is_disabled": 0, "fusion_lat": 0.0, "lat": 38.926507, "bike_id": "24712e5100bc0f95a636d20714f71ef6", "fusion_lon": 0.0}, {"rental_uris": {"ios": "https://dc.lft.to/lastmile_qr_scan", "android": "https://dc.lft.to/lastmile_qr_scan"}, "type": "electric_scooter", "name": "57cfcc9a4326ea7fcd328e4decd890ef", "is_reserved": 0, "lon": -76.98032733333334, "is_disabled": 0, "fusion_lat": 0.0, "lat": 38.8999645, "bike_id": "57cfcc9a4326ea7fcd328e4decd890ef", "fusion_lon": 0.0}, {"rental_uris": {"ios": "https://dc.lft.to/lastmile_qr_scan", "android": "https://dc.lft.to/lastmile_qr_scan"}, "type": "electric_scooter", "name": "26aa67b0ce6005afacd8fae47cfd40dd", "is_reserved": 0, "lon": -77.01963616666667, "is_disabled": 0, "fusion_lat": 0.0, "lat": 38.923299666666665, "bike_id": "26aa67b0ce6005afacd8fae47cfd40dd", "fusion_lon": 0.0}, {"rental_uris": {"ios": "https://dc.lft.to/lastmile_qr_scan", "android": "https://dc.lft.to/lastmile_qr_scan"}, "type": "electric_bike", "name": "b68ccace3adb00c30abdf8d8d4a315b5", "is_reserved": 0, "lon": -76.98024416666667, "is_disabled": 0, "fusion_lat": 0.0, "lat": 38.8531115, "bike_id": "b68ccace3adb00c30abdf8d8d4a315b5", "fusion_lon": 0.0}, {"rental_uris": {"ios": "https://dc.lft.to/lastmile_qr_scan", "android": "https://dc.lft.to/lastmile_qr_scan"}, "type": "electric_scooter", "name": "4f00249fd53e2161aae4bdb3002e5758", "is_reserved": 0, "lon": -76.99167116666666, "is_disabled": 0, "fusion_lat": 0.0, "lat": 38.8901365, "bike_id": "4f00249fd53e2161aae4bdb3002e5758", "fusion_lon": 0.0}, {"rental_uris": {"ios": "https://dc.lft.to/lastmile_qr_scan", "android": "https://dc.lft.to/lastmile_qr_scan"}, "type": "electric_scooter", "name": "eca0a2a83fe03dfa35141aa7e56eb8b5", "is_reserved": 0, "lon": -77.04330733333333, "is_disabled": 0, "fusion_lat": 0.0, "lat": 38.90848116666667, "bike_id": "eca0a2a83fe03dfa35141aa7e56eb8b5", "fusion_lon": 0.0}, {"rental_uris": {"ios": "https://dc.lft.to/lastmile_qr_scan", "android": "https://dc.lft.to/lastmile_qr_scan"}, "type": "electric_scooter", "name": "28a7b4114562b56fde86c6d5158fac31", "is_reserved": 0, "lon": -77.053444, "is_disabled": 0, "fusion_lat": 0.0, "lat": 38.9045315, "bike_id": "28a7b4114562b56fde86c6d5158fac31", "fusion_lon": 0.0}, {"rental_uris": {"ios": "https://dc.lft.to/lastmile_qr_scan", "android": "https://dc.lft.to/lastmile_qr_scan"}, "type": "electric_scooter", "name": "a296c8d1dce43545a61bbce4f202c268", "is_reserved": 0, "lon": -77.02831616666667, "is_disabled": 0, "fusion_lat": 0.0, "lat": 38.9247845, "bike_id": "a296c8d1dce43545a61bbce4f202c268", "fusion_lon": 0.0}, {"rental_uris": {"ios": "https://dc.lft.to/lastmile_qr_scan", "android": "https://dc.lft.to/lastmile_qr_scan"}, "type": "electric_scooter", "name": "c7eecbd73ecd37d2710e1f2e4460a0a9", "is_reserved": 0, "lon": -77.03551616666667, "is_disabled": 0, "fusion_lat": 0.0, "lat": 38.90717583333333, "bike_id": "c7eecbd73ecd37d2710e1f2e4460a0a9", "fusion_lon": 0.0}, {"rental_uris": {"ios": "https://dc.lft.to/lastmile_qr_scan", "android": "https://dc.lft.to/lastmile_qr_scan"}, "type": "electric_scooter", "name": "a0f189abfc3b60679434eaa0179a9531", "is_reserved": 0, "lon": -76.98359316666667, "is_disabled": 0, "fusion_lat": 0.0, "lat": 38.914839, "bike_id": "a0f189abfc3b60679434eaa0179a9531", "fusion_lon": 0.0}, {"rental_uris": {"ios": "https://dc.lft.to/lastmile_qr_scan", "android": "https://dc.lft.to/lastmile_qr_scan"}, "type": "electric_scooter", "name": "e3992a7de1411faba036fa3bc03e4e8c", "is_reserved": 0, "lon": -77.04054066666667, "is_disabled": 0, "fusion_lat": 0.0, "lat": 38.93006366666667, "bike_id": "e3992a7de1411faba036fa3bc03e4e8c", "fusion_lon": 0.0}, {"rental_uris": {"ios": "https://dc.lft.to/lastmile_qr_scan", "android": "https://dc.lft.to/lastmile_qr_scan"}, "type": "electric_scooter", "name": "2beb8fb47357ccc27e45524a40797ef4", "is_reserved": 0, "lon": -77.04883116666667, "is_disabled": 0, "fusion_lat": 0.0, "lat": 38.9102765, "bike_id": "2beb8fb47357ccc27e45524a40797ef4", "fusion_lon": 0.0}, {"rental_uris": {"ios": "https://dc.lft.to/lastmile_qr_scan", "android": "https://dc.lft.to/lastmile_qr_scan"}, "type": "electric_scooter", "name": "99fd63fd0de06e24ef9f315de5a9d281", "is_reserved": 0, "lon": -77.01728816666666, "is_disabled": 0, "fusion_lat": 0.0, "lat": 38.94315066666667, "bike_id": "99fd63fd0de06e24ef9f315de5a9d281", "fusion_lon": 0.0}, {"rental_uris": {"ios": "https://dc.lft.to/lastmile_qr_scan", "android": "https://dc.lft.to/lastmile_qr_scan"}, "type": "electric_scooter", "name": "50a06f6ef3725441ce7c94b619e2bb26", "is_reserved": 0, "lon": -77.05220683333333, "is_disabled": 0, "fusion_lat": 0.0, "lat": 38.909741333333336, "bike_id": "50a06f6ef3725441ce7c94b619e2bb26", "fusion_lon": 0.0}, {"rental_uris": {"ios": "https://dc.lft.to/lastmile_qr_scan", "android": "https://dc.lft.to/lastmile_qr_scan"}, "type": "electric_scooter", "name": "692c1566a53772ae7a356b948b37cd22", "is_reserved": 0, "lon": -77.02555233333334, "is_disabled": 0, "fusion_lat": 0.0, "lat": 38.95171666666667, "bike_id": "692c1566a53772ae7a356b948b37cd22", "fusion_lon": 0.0}, {"rental_uris": {"ios": "https://dc.lft.to/lastmile_qr_scan", "android": "https://dc.lft.to/lastmile_qr_scan"}, "type": "electric_scooter", "name": "9ca830be6353f916b849282fc4258649", "is_reserved": 0, "lon": -77.04147383333333, "is_disabled": 0, "fusion_lat": 0.0, "lat": 38.90576983333333, "bike_id": "9ca830be6353f916b849282fc4258649", "fusion_lon": 0.0}, {"rental_uris": {"ios": "https://dc.lft.to/lastmile_qr_scan", "android": "https://dc.lft.to/lastmile_qr_scan"}, "type": "electric_scooter", "name": "f16eecc939de8e696218dc9cd2e8e1c7", "is_reserved": 0, "lon": -77.07906966666667, "is_disabled": 0, "fusion_lat": 0.0, "lat": 38.947803666666665, "bike_id": "f16eecc939de8e696218dc9cd2e8e1c7", "fusion_lon": 0.0}, {"rental_uris": {"ios": "https://dc.lft.to/lastmile_qr_scan", "android": "https://dc.lft.to/lastmile_qr_scan"}, "type": "electric_bike", "name": "9986bcdee3e51e8a45b36a6e6c9ad7bf", "is_reserved": 0, "lon": -77.127338, "is_disabled": 0, "fusion_lat": 0.0, "lat": 38.89565666666667, "bike_id": "9986bcdee3e51e8a45b36a6e6c9ad7bf", "fusion_lon": 0.0}, {"rental_uris": {"ios": "https://dc.lft.to/lastmile_qr_scan", "android": "https://dc.lft.to/lastmile_qr_scan"}, "type": "electric_scooter", "name": "168ed3b3763e535768f45eaccbb52ba6", "is_reserved": 0, "lon": -77.04703966666666, "is_disabled": 0, "fusion_lat": 0.0, "lat": 38.9029135, "bike_id": "168ed3b3763e535768f45eaccbb52ba6", "fusion_lon": 0.0}, {"rental_uris": {"ios": "https://dc.lft.to/lastmile_qr_scan", "android": "https://dc.lft.to/lastmile_qr_scan"}, "type": "electric_bike", "name": "657ac7d5227c38e5445eaebdc72752be", "is_reserved": 0, "lon": -77.07902433333334, "is_disabled": 0, "fusion_lat": 0.0, "lat": 38.83936833333333, "bike_id": "657ac7d5227c38e5445eaebdc72752be", "fusion_lon": 0.0}, {"rental_uris": {"ios": "https://dc.lft.to/lastmile_qr_scan", "android": "https://dc.lft.to/lastmile_qr_scan"}, "type": "electric_scooter", "name": "5a4efc70e03529e501d457171bf92398", "is_reserved": 0, "lon": -76.93734333333333, "is_disabled": 0, "fusion_lat": 0.0, "lat": 38.88883166666667, "bike_id": "5a4efc70e03529e501d457171bf92398", "fusion_lon": 0.0}, {"rental_uris": {"ios": "https://dc.lft.to/lastmile_qr_scan", "android": "https://dc.lft.to/lastmile_qr_scan"}, "type": "electric_scooter", "name": "5e692a7bdf756bbbb743b2e40688e2e3", "is_reserved": 0, "lon": -77.032216, "is_disabled": 0, "fusion_lat": 0.0, "lat": 38.916627, "bike_id": "5e692a7bdf756bbbb743b2e40688e2e3", "fusion_lon": 0.0}, {"rental_uris": {"ios": "https://dc.lft.to/lastmile_qr_scan", "android": "https://dc.lft.to/lastmile_qr_scan"}, "type": "electric_bike", "name": "415f9ce4655cdcc9b4c86674f2d4b7e4", "is_reserved": 0, "lon": -77.01281683333333, "is_disabled": 0, "fusion_lat": 0.0, "lat": 38.951620166666665, "bike_id": "415f9ce4655cdcc9b4c86674f2d4b7e4", "fusion_lon": 0.0}, {"rental_uris": {"ios": "https://dc.lft.to/lastmile_qr_scan", "android": "https://dc.lft.to/lastmile_qr_scan"}, "type": "electric_scooter", "name": "2299ef0df5d7e52cb675195aef86d2ca", "is_reserved": 0, "lon": -77.05828816666667, "is_disabled": 0, "fusion_lat": 0.0, "lat": 38.90529566666667, "bike_id": "2299ef0df5d7e52cb675195aef86d2ca", "fusion_lon": 0.0}, {"rental_uris": {"ios": "https://dc.lft.to/lastmile_qr_scan", "android": "https://dc.lft.to/lastmile_qr_scan"}, "type": "electric_scooter", "name": "ecd1f151871cde117d22be624aa9eb04", "is_reserved": 0, "lon": -77.03800083333333, "is_disabled": 0, "fusion_lat": 0.0, "lat": 38.9104115, "bike_id": "ecd1f151871cde117d22be624aa9eb04", "fusion_lon": 0.0}, {"rental_uris": {"ios": "https://dc.lft.to/lastmile_qr_scan", "android": "https://dc.lft.to/lastmile_qr_scan"}, "type": "electric_scooter", "name": "0bea3d64591375dd9c9eb3b292f11550", "is_reserved": 0, "lon": -77.0347315, "is_disabled": 0, "fusion_lat": 0.0, "lat": 38.90833333333333, "bike_id": "0bea3d64591375dd9c9eb3b292f11550", "fusion_lon": 0.0}, {"rental_uris": {"ios": "https://dc.lft.to/lastmile_qr_scan", "android": "https://dc.lft.to/lastmile_qr_scan"}, "type": "electric_scooter", "name": "e6f5115dbb80de6619e3c35664803a85", "is_reserved": 0, "lon": -77.03715816666667, "is_disabled": 0, "fusion_lat": 0.0, "lat": 38.9264965, "bike_id": "e6f5115dbb80de6619e3c35664803a85", "fusion_lon": 0.0}, {"rental_uris": {"ios": "https://dc.lft.to/lastmile_qr_scan", "android": "https://dc.lft.to/lastmile_qr_scan"}, "type": "electric_scooter", "name": "ae717432757c5748eee041a70a6e998b", "is_reserved": 0, "lon": -77.0161835, "is_disabled": 0, "fusion_lat": 0.0, "lat": 38.8851415, "bike_id": "ae717432757c5748eee041a70a6e998b", "fusion_lon": 0.0}, {"rental_uris": {"ios": "https://dc.lft.to/lastmile_qr_scan", "android": "https://dc.lft.to/lastmile_qr_scan"}, "type": "electric_scooter", "name": "e13f1f1e2976933e23c3d4e2be287043", "is_reserved": 0, "lon": -77.03067366666667, "is_disabled": 0, "fusion_lat": 0.0, "lat": 38.90557, "bike_id": "e13f1f1e2976933e23c3d4e2be287043", "fusion_lon": 0.0}, {"rental_uris": {"ios": "https://dc.lft.to/lastmile_qr_scan", "android": "https://dc.lft.to/lastmile_qr_scan"}, "type": "electric_scooter", "name": "9a445d28deea44cf97a4c89a5fe06b4a", "is_reserved": 0, "lon": -77.041943, "is_disabled": 0, "fusion_lat": 0.0, "lat": 38.9204725, "bike_id": "9a445d28deea44cf97a4c89a5fe06b4a", "fusion_lon": 0.0}, {"rental_uris": {"ios": "https://dc.lft.to/lastmile_qr_scan", "android": "https://dc.lft.to/lastmile_qr_scan"}, "type": "electric_scooter", "name": "3bde952cf1934ab227ae1298a7bb2296", "is_reserved": 0, "lon": -77.04783833333333, "is_disabled": 0, "fusion_lat": 0.0, "lat": 38.897791, "bike_id": "3bde952cf1934ab227ae1298a7bb2296", "fusion_lon": 0.0}, {"rental_uris": {"ios": "https://dc.lft.to/lastmile_qr_scan", "android": "https://dc.lft.to/lastmile_qr_scan"}, "type": "electric_bike", "name": "876459bcc1ba818f7a18be4df0189934", "is_reserved": 0, "lon": -76.93668666666667, "is_disabled": 0, "fusion_lat": 0.0, "lat": 38.8945365, "bike_id": "876459bcc1ba818f7a18be4df0189934", "fusion_lon": 0.0}, {"rental_uris": {"ios": "https://dc.lft.to/lastmile_qr_scan", "android": "https://dc.lft.to/lastmile_qr_scan"}, "type": "electric_scooter", "name": "52ce5763ae913e8591f6a9cc5707d78e", "is_reserved": 0, "lon": -76.98368083333334, "is_disabled": 0, "fusion_lat": 0.0, "lat": 38.8603585, "bike_id": "52ce5763ae913e8591f6a9cc5707d78e", "fusion_lon": 0.0}, {"rental_uris": {"ios": "https://dc.lft.to/lastmile_qr_scan", "android": "https://dc.lft.to/lastmile_qr_scan"}, "type": "electric_scooter", "name": "bd422441be8eb0a3f6c97944ac874071", "is_reserved": 0, "lon": -77.02211316666667, "is_disabled": 0, "fusion_lat": 0.0, "lat": 38.924696833333336, "bike_id": "bd422441be8eb0a3f6c97944ac874071", "fusion_lon": 0.0}, {"rental_uris": {"ios": "https://dc.lft.to/lastmile_qr_scan", "android": "https://dc.lft.to/lastmile_qr_scan"}, "type": "electric_scooter", "name": "41592a86067faa04222e77fcb13e34fd", "is_reserved": 0, "lon": -76.9264715, "is_disabled": 0, "fusion_lat": 0.0, "lat": 38.883806666666665, "bike_id": "41592a86067faa04222e77fcb13e34fd", "fusion_lon": 0.0}, {"rental_uris": {"ios": "https://dc.lft.to/lastmile_qr_scan", "android": "https://dc.lft.to/lastmile_qr_scan"}, "type": "electric_scooter", "name": "c9bac1fe8e18eba5491379562d860495", "is_reserved": 0, "lon": -77.0654645, "is_disabled": 0, "fusion_lat": 0.0, "lat": 38.905161666666665, "bike_id": "c9bac1fe8e18eba5491379562d860495", "fusion_lon": 0.0}, {"rental_uris": {"ios": "https://dc.lft.to/lastmile_qr_scan", "android": "https://dc.lft.to/lastmile_qr_scan"}, "type": "electric_scooter", "name": "2e84446e9d4aa2f8001c059459adb64c", "is_reserved": 0, "lon": -77.02619433333334, "is_disabled": 0, "fusion_lat": 0.0, "lat": 38.9052335, "bike_id": "2e84446e9d4aa2f8001c059459adb64c", "fusion_lon": 0.0}, {"rental_uris": {"ios": "https://dc.lft.to/lastmile_qr_scan", "android": "https://dc.lft.to/lastmile_qr_scan"}, "type": "electric_scooter", "name": "c5d46e29c056d91508ad07826f937344", "is_reserved": 0, "lon": -77.02748866666667, "is_disabled": 0, "fusion_lat": 0.0, "lat": 38.957747, "bike_id": "c5d46e29c056d91508ad07826f937344", "fusion_lon": 0.0}, {"rental_uris": {"ios": "https://dc.lft.to/lastmile_qr_scan", "android": "https://dc.lft.to/lastmile_qr_scan"}, "type": "electric_scooter", "name": "27cb509708d6864977a152640db8668c", "is_reserved": 0, "lon": -77.0502005, "is_disabled": 0, "fusion_lat": 0.0, "lat": 38.91051066666667, "bike_id": "27cb509708d6864977a152640db8668c", "fusion_lon": 0.0}, {"rental_uris": {"ios": "https://dc.lft.to/lastmile_qr_scan", "android": "https://dc.lft.to/lastmile_qr_scan"}, "type": "electric_scooter", "name": "b1b6e7429a88f1e9b725af57be5e4df1", "is_reserved": 0, "lon": -77.00595316666667, "is_disabled": 0, "fusion_lat": 0.0, "lat": 38.87570916666667, "bike_id": "b1b6e7429a88f1e9b725af57be5e4df1", "fusion_lon": 0.0}, {"rental_uris": {"ios": "https://dc.lft.to/lastmile_qr_scan", "android": "https://dc.lft.to/lastmile_qr_scan"}, "type": "electric_scooter", "name": "aadb7f0543131d8d4c70524ed6b05e7f", "is_reserved": 0, "lon": -77.04673433333333, "is_disabled": 0, "fusion_lat": 0.0, "lat": 38.892363833333334, "bike_id": "aadb7f0543131d8d4c70524ed6b05e7f", "fusion_lon": 0.0}, {"rental_uris": {"ios": "https://dc.lft.to/lastmile_qr_scan", "android": "https://dc.lft.to/lastmile_qr_scan"}, "type": "electric_scooter", "name": "5d4c84e0df0d1736000ff003841a127f", "is_reserved": 0, "lon": -77.03960516666666, "is_disabled": 0, "fusion_lat": 0.0, "lat": 38.892401666666665, "bike_id": "5d4c84e0df0d1736000ff003841a127f", "fusion_lon": 0.0}, {"rental_uris": {"ios": "https://dc.lft.to/lastmile_qr_scan", "android": "https://dc.lft.to/lastmile_qr_scan"}, "type": "electric_scooter", "name": "2d3a3a0322b1be7d71e4fa8432ffc823", "is_reserved": 0, "lon": -77.01879266666667, "is_disabled": 0, "fusion_lat": 0.0, "lat": 38.89809183333333, "bike_id": "2d3a3a0322b1be7d71e4fa8432ffc823", "fusion_lon": 0.0}, {"rental_uris": {"ios": "https://dc.lft.to/lastmile_qr_scan", "android": "https://dc.lft.to/lastmile_qr_scan"}, "type": "electric_scooter", "name": "3d9865e2f1934a4c0e607b85d74da247", "is_reserved": 0, "lon": -77.004352, "is_disabled": 0, "fusion_lat": 0.0, "lat": 38.876645, "bike_id": "3d9865e2f1934a4c0e607b85d74da247", "fusion_lon": 0.0}, {"rental_uris": {"ios": "https://dc.lft.to/lastmile_qr_scan", "android": "https://dc.lft.to/lastmile_qr_scan"}, "type": "electric_scooter", "name": "134d4540805c626a7dd4fefd826a7993", "is_reserved": 0, "lon": -77.03290283333334, "is_disabled": 0, "fusion_lat": 0.0, "lat": 38.95629116666667, "bike_id": "134d4540805c626a7dd4fefd826a7993", "fusion_lon": 0.0}, {"rental_uris": {"ios": "https://dc.lft.to/lastmile_qr_scan", "android": "https://dc.lft.to/lastmile_qr_scan"}, "type": "electric_scooter", "name": "3cf843788b1e9ee61a0eba1bed556edf", "is_reserved": 0, "lon": -77.02926933333333, "is_disabled": 0, "fusion_lat": 0.0, "lat": 38.940412333333335, "bike_id": "3cf843788b1e9ee61a0eba1bed556edf", "fusion_lon": 0.0}, {"rental_uris": {"ios": "https://dc.lft.to/lastmile_qr_scan", "android": "https://dc.lft.to/lastmile_qr_scan"}, "type": "electric_scooter", "name": "8ed5eaa5122ff7467583f68caa5eb78f", "is_reserved": 0, "lon": -76.995981, "is_disabled": 0, "fusion_lat": 0.0, "lat": 38.884279666666664, "bike_id": "8ed5eaa5122ff7467583f68caa5eb78f", "fusion_lon": 0.0}, {"rental_uris": {"ios": "https://dc.lft.to/lastmile_qr_scan", "android": "https://dc.lft.to/lastmile_qr_scan"}, "type": "electric_scooter", "name": "7687cbd5d62c4bb66e0496e2311a6723", "is_reserved": 0, "lon": -77.038559, "is_disabled": 0, "fusion_lat": 0.0, "lat": 38.9038475, "bike_id": "7687cbd5d62c4bb66e0496e2311a6723", "fusion_lon": 0.0}, {"rental_uris": {"ios": "https://dc.lft.to/lastmile_qr_scan", "android": "https://dc.lft.to/lastmile_qr_scan"}, "type": "electric_scooter", "name": "364cb6cb97ebece0b90c616a312d503f", "is_reserved": 0, "lon": -76.97048416666667, "is_disabled": 0, "fusion_lat": 0.0, "lat": 38.87320883333334, "bike_id": "364cb6cb97ebece0b90c616a312d503f", "fusion_lon": 0.0}, {"rental_uris": {"ios": "https://dc.lft.to/lastmile_qr_scan", "android": "https://dc.lft.to/lastmile_qr_scan"}, "type": "electric_scooter", "name": "f847c3be33bb6e9b1a7f8ed7f6b5efd1", "is_reserved": 0, "lon": -77.03840116666667, "is_disabled": 0, "fusion_lat": 0.0, "lat": 38.91053466666666, "bike_id": "f847c3be33bb6e9b1a7f8ed7f6b5efd1", "fusion_lon": 0.0}, {"rental_uris": {"ios": "https://dc.lft.to/lastmile_qr_scan", "android": "https://dc.lft.to/lastmile_qr_scan"}, "type": "electric_bike", "name": "86b011025bff3cd7afb04e3c2c1621e7", "is_reserved": 0, "lon": -77.06698216666666, "is_disabled": 0, "fusion_lat": 0.0, "lat": 38.831715, "bike_id": "86b011025bff3cd7afb04e3c2c1621e7", "fusion_lon": 0.0}, {"rental_uris": {"ios": "https://dc.lft.to/lastmile_qr_scan", "android": "https://dc.lft.to/lastmile_qr_scan"}, "type": "electric_scooter", "name": "3178a7eeb8eadfdcd01cf7a499556fa1", "is_reserved": 0, "lon": -77.02794183333333, "is_disabled": 0, "fusion_lat": 0.0, "lat": 38.895596, "bike_id": "3178a7eeb8eadfdcd01cf7a499556fa1", "fusion_lon": 0.0}, {"rental_uris": {"ios": "https://dc.lft.to/lastmile_qr_scan", "android": "https://dc.lft.to/lastmile_qr_scan"}, "type": "electric_bike", "name": "43bb320711234f91386da021ed75138f", "is_reserved": 0, "lon": -77.03021333333334, "is_disabled": 0, "fusion_lat": 0.0, "lat": 38.87843566666667, "bike_id": "43bb320711234f91386da021ed75138f", "fusion_lon": 0.0}, {"rental_uris": {"ios": "https://dc.lft.to/lastmile_qr_scan", "android": "https://dc.lft.to/lastmile_qr_scan"}, "type": "electric_scooter", "name": "018db1a1761a4500e81063c87f513721", "is_reserved": 0, "lon": -77.03238316666666, "is_disabled": 0, "fusion_lat": 0.0, "lat": 38.91564, "bike_id": "018db1a1761a4500e81063c87f513721", "fusion_lon": 0.0}, {"rental_uris": {"ios": "https://dc.lft.to/lastmile_qr_scan", "android": "https://dc.lft.to/lastmile_qr_scan"}, "type": "electric_scooter", "name": "df37ab2abd1091c6b4138a5d5de7998b", "is_reserved": 0, "lon": -77.0004905, "is_disabled": 0, "fusion_lat": 0.0, "lat": 38.87436866666667, "bike_id": "df37ab2abd1091c6b4138a5d5de7998b", "fusion_lon": 0.0}, {"rental_uris": {"ios": "https://dc.lft.to/lastmile_qr_scan", "android": "https://dc.lft.to/lastmile_qr_scan"}, "type": "electric_scooter", "name": "afd443d3ab5d083d3a988666f73babe4", "is_reserved": 0, "lon": -77.04008716666667, "is_disabled": 0, "fusion_lat": 0.0, "lat": 38.924266833333334, "bike_id": "afd443d3ab5d083d3a988666f73babe4", "fusion_lon": 0.0}, {"rental_uris": {"ios": "https://dc.lft.to/lastmile_qr_scan", "android": "https://dc.lft.to/lastmile_qr_scan"}, "type": "electric_scooter", "name": "d84865c6bf2b494116600483e2d1044c", "is_reserved": 0, "lon": -77.0248455, "is_disabled": 0, "fusion_lat": 0.0, "lat": 38.930950333333335, "bike_id": "d84865c6bf2b494116600483e2d1044c", "fusion_lon": 0.0}, {"rental_uris": {"ios": "https://dc.lft.to/lastmile_qr_scan", "android": "https://dc.lft.to/lastmile_qr_scan"}, "type": "electric_scooter", "name": "ce1553194bb2586fbbda0869c3e89bd6", "is_reserved": 0, "lon": -77.04578316666667, "is_disabled": 0, "fusion_lat": 0.0, "lat": 38.909547333333336, "bike_id": "ce1553194bb2586fbbda0869c3e89bd6", "fusion_lon": 0.0}, {"rental_uris": {"ios": "https://dc.lft.to/lastmile_qr_scan", "android": "https://dc.lft.to/lastmile_qr_scan"}, "type": "electric_scooter", "name": "4fef8a2313222d7e32a8cfb90b325d30", "is_reserved": 0, "lon": -77.0500295, "is_disabled": 0, "fusion_lat": 0.0, "lat": 38.89223916666667, "bike_id": "4fef8a2313222d7e32a8cfb90b325d30", "fusion_lon": 0.0}, {"rental_uris": {"ios": "https://dc.lft.to/lastmile_qr_scan", "android": "https://dc.lft.to/lastmile_qr_scan"}, "type": "electric_scooter", "name": "d66aa7f77f640b5b9997d15aff9920af", "is_reserved": 0, "lon": -77.03972383333333, "is_disabled": 0, "fusion_lat": 0.0, "lat": 38.90120916666667, "bike_id": "d66aa7f77f640b5b9997d15aff9920af", "fusion_lon": 0.0}, {"rental_uris": {"ios": "https://dc.lft.to/lastmile_qr_scan", "android": "https://dc.lft.to/lastmile_qr_scan"}, "type": "electric_scooter", "name": "abae769be36332ee8dc49ef0d5ac6c46", "is_reserved": 0, "lon": -77.07009166666667, "is_disabled": 0, "fusion_lat": 0.0, "lat": 38.893491833333336, "bike_id": "abae769be36332ee8dc49ef0d5ac6c46", "fusion_lon": 0.0}, {"rental_uris": {"ios": "https://dc.lft.to/lastmile_qr_scan", "android": "https://dc.lft.to/lastmile_qr_scan"}, "type": "electric_scooter", "name": "79f1e06e0fabd11986ba27f413938a63", "is_reserved": 0, "lon": -77.01315516666666, "is_disabled": 0, "fusion_lat": 0.0, "lat": 38.92028883333333, "bike_id": "79f1e06e0fabd11986ba27f413938a63", "fusion_lon": 0.0}, {"rental_uris": {"ios": "https://dc.lft.to/lastmile_qr_scan", "android": "https://dc.lft.to/lastmile_qr_scan"}, "type": "electric_scooter", "name": "7c443f29f29a1ad108f713b67f13975b", "is_reserved": 0, "lon": -77.0183065, "is_disabled": 0, "fusion_lat": 0.0, "lat": 38.902529333333334, "bike_id": "7c443f29f29a1ad108f713b67f13975b", "fusion_lon": 0.0}, {"rental_uris": {"ios": "https://dc.lft.to/lastmile_qr_scan", "android": "https://dc.lft.to/lastmile_qr_scan"}, "type": "electric_bike", "name": "6ce4c6e0e59a5cf9150e85f5eb378bf1", "is_reserved": 0, "lon": -76.9414795, "is_disabled": 0, "fusion_lat": 0.0, "lat": 38.89015716666667, "bike_id": "6ce4c6e0e59a5cf9150e85f5eb378bf1", "fusion_lon": 0.0}, {"rental_uris": {"ios": "https://dc.lft.to/lastmile_qr_scan", "android": "https://dc.lft.to/lastmile_qr_scan"}, "type": "electric_scooter", "name": "57168c71549b8b8a3d2ca86ccc343bcb", "is_reserved": 0, "lon": -76.9994705, "is_disabled": 0, "fusion_lat": 0.0, "lat": 38.900571, "bike_id": "57168c71549b8b8a3d2ca86ccc343bcb", "fusion_lon": 0.0}, {"rental_uris": {"ios": "https://dc.lft.to/lastmile_qr_scan", "android": "https://dc.lft.to/lastmile_qr_scan"}, "type": "electric_bike", "name": "2b7f91a74d2cea40576a8461243cffa2", "is_reserved": 0, "lon": -77.12934083333333, "is_disabled": 0, "fusion_lat": 0.0, "lat": 38.86578016666667, "bike_id": "2b7f91a74d2cea40576a8461243cffa2", "fusion_lon": 0.0}, {"rental_uris": {"ios": "https://dc.lft.to/lastmile_qr_scan", "android": "https://dc.lft.to/lastmile_qr_scan"}, "type": "electric_scooter", "name": "fb1dbfbb70d314be9ec7545fc7175b5f", "is_reserved": 0, "lon": -76.9955325, "is_disabled": 0, "fusion_lat": 0.0, "lat": 38.86230483333333, "bike_id": "fb1dbfbb70d314be9ec7545fc7175b5f", "fusion_lon": 0.0}, {"rental_uris": {"ios": "https://dc.lft.to/lastmile_qr_scan", "android": "https://dc.lft.to/lastmile_qr_scan"}, "type": "electric_scooter", "name": "964e1d54db86825daf088947fc6f8bdc", "is_reserved": 0, "lon": -76.999232, "is_disabled": 0, "fusion_lat": 0.0, "lat": 38.90056033333333, "bike_id": "964e1d54db86825daf088947fc6f8bdc", "fusion_lon": 0.0}, {"rental_uris": {"ios": "https://dc.lft.to/lastmile_qr_scan", "android": "https://dc.lft.to/lastmile_qr_scan"}, "type": "electric_bike", "name": "734a53afa28b9d3c8460aacdc3aab6e9", "is_reserved": 0, "lon": -76.94531933333333, "is_disabled": 0, "fusion_lat": 0.0, "lat": 38.86759516666667, "bike_id": "734a53afa28b9d3c8460aacdc3aab6e9", "fusion_lon": 0.0}, {"rental_uris": {"ios": "https://dc.lft.to/lastmile_qr_scan", "android": "https://dc.lft.to/lastmile_qr_scan"}, "type": "electric_scooter", "name": "9c5ee4cda6192f2051cc19d68bd2f6dd", "is_reserved": 0, "lon": -76.98741816666667, "is_disabled": 0, "fusion_lat": 0.0, "lat": 38.878433, "bike_id": "9c5ee4cda6192f2051cc19d68bd2f6dd", "fusion_lon": 0.0}, {"rental_uris": {"ios": "https://dc.lft.to/lastmile_qr_scan", "android": "https://dc.lft.to/lastmile_qr_scan"}, "type": "electric_scooter", "name": "4e05aa5a94babbf4f9ece68e6c643bbb", "is_reserved": 0, "lon": -77.0077925, "is_disabled": 0, "fusion_lat": 0.0, "lat": 38.952485333333335, "bike_id": "4e05aa5a94babbf4f9ece68e6c643bbb", "fusion_lon": 0.0}, {"rental_uris": {"ios": "https://dc.lft.to/lastmile_qr_scan", "android": "https://dc.lft.to/lastmile_qr_scan"}, "type": "electric_scooter", "name": "6c1e4e760a7b5e0838362070c68609a8", "is_reserved": 0, "lon": -77.001558, "is_disabled": 0, "fusion_lat": 0.0, "lat": 38.821343666666664, "bike_id": "6c1e4e760a7b5e0838362070c68609a8", "fusion_lon": 0.0}, {"rental_uris": {"ios": "https://dc.lft.to/lastmile_qr_scan", "android": "https://dc.lft.to/lastmile_qr_scan"}, "type": "electric_bike", "name": "93ccf1f88848b6f2cad7b45ed6ac4e03", "is_reserved": 0, "lon": -76.95161283333333, "is_disabled": 0, "fusion_lat": 0.0, "lat": 39.084326, "bike_id": "93ccf1f88848b6f2cad7b45ed6ac4e03", "fusion_lon": 0.0}, {"rental_uris": {"ios": "https://dc.lft.to/lastmile_qr_scan", "android": "https://dc.lft.to/lastmile_qr_scan"}, "type": "electric_scooter", "name": "fd50d4a21df947771c54d0bc205fbe91", "is_reserved": 0, "lon": -77.04179866666666, "is_disabled": 0, "fusion_lat": 0.0, "lat": 38.915549666666664, "bike_id": "fd50d4a21df947771c54d0bc205fbe91", "fusion_lon": 0.0}, {"rental_uris": {"ios": "https://dc.lft.to/lastmile_qr_scan", "android": "https://dc.lft.to/lastmile_qr_scan"}, "type": "electric_scooter", "name": "9d1b19d2ea661836fa4225752a3486f8", "is_reserved": 0, "lon": -76.93040766666667, "is_disabled": 0, "fusion_lat": 0.0, "lat": 38.883780333333334, "bike_id": "9d1b19d2ea661836fa4225752a3486f8", "fusion_lon": 0.0}, {"rental_uris": {"ios": "https://dc.lft.to/lastmile_qr_scan", "android": "https://dc.lft.to/lastmile_qr_scan"}, "type": "electric_scooter", "name": "0933dedbf9cc3170f092a0e7985c390f", "is_reserved": 0, "lon": -77.033457, "is_disabled": 0, "fusion_lat": 0.0, "lat": 38.892437666666666, "bike_id": "0933dedbf9cc3170f092a0e7985c390f", "fusion_lon": 0.0}, {"rental_uris": {"ios": "https://dc.lft.to/lastmile_qr_scan", "android": "https://dc.lft.to/lastmile_qr_scan"}, "type": "electric_scooter", "name": "1930df4247cebcaffdd013c77442e110", "is_reserved": 0, "lon": -77.02015766666666, "is_disabled": 0, "fusion_lat": 0.0, "lat": 38.89220483333333, "bike_id": "1930df4247cebcaffdd013c77442e110", "fusion_lon": 0.0}, {"rental_uris": {"ios": "https://dc.lft.to/lastmile_qr_scan", "android": "https://dc.lft.to/lastmile_qr_scan"}, "type": "electric_scooter", "name": "0673382ec81a07ac14daa8ce32d9d97b", "is_reserved": 0, "lon": -77.03208566666666, "is_disabled": 0, "fusion_lat": 0.0, "lat": 38.8959795, "bike_id": "0673382ec81a07ac14daa8ce32d9d97b", "fusion_lon": 0.0}, {"rental_uris": {"ios": "https://dc.lft.to/lastmile_qr_scan", "android": "https://dc.lft.to/lastmile_qr_scan"}, "type": "electric_scooter", "name": "f78756d009308d977a9c94604dab6d1f", "is_reserved": 0, "lon": -76.94828283333334, "is_disabled": 0, "fusion_lat": 0.0, "lat": 38.885197833333336, "bike_id": "f78756d009308d977a9c94604dab6d1f", "fusion_lon": 0.0}, {"rental_uris": {"ios": "https://dc.lft.to/lastmile_qr_scan", "android": "https://dc.lft.to/lastmile_qr_scan"}, "type": "electric_scooter", "name": "76c94ab9e0369b146f3ad9b842b55f10", "is_reserved": 0, "lon": -77.01080783333333, "is_disabled": 0, "fusion_lat": 0.0, "lat": 38.894114, "bike_id": "76c94ab9e0369b146f3ad9b842b55f10", "fusion_lon": 0.0}, {"rental_uris": {"ios": "https://dc.lft.to/lastmile_qr_scan", "android": "https://dc.lft.to/lastmile_qr_scan"}, "type": "electric_bike", "name": "f70766e0c6afd9688ca93a3251f54e9e", "is_reserved": 0, "lon": -76.97551016666667, "is_disabled": 0, "fusion_lat": 0.0, "lat": 38.90433516666667, "bike_id": "f70766e0c6afd9688ca93a3251f54e9e", "fusion_lon": 0.0}, {"rental_uris": {"ios": "https://dc.lft.to/lastmile_qr_scan", "android": "https://dc.lft.to/lastmile_qr_scan"}, "type": "electric_scooter", "name": "0ee15f6db72298681453cbd75ac221d5", "is_reserved": 0, "lon": -77.027905, "is_disabled": 0, "fusion_lat": 0.0, "lat": 38.89890316666666, "bike_id": "0ee15f6db72298681453cbd75ac221d5", "fusion_lon": 0.0}, {"rental_uris": {"ios": "https://dc.lft.to/lastmile_qr_scan", "android": "https://dc.lft.to/lastmile_qr_scan"}, "type": "electric_scooter", "name": "efde339074a46c3b1a3792b7df1197d6", "is_reserved": 0, "lon": -77.01945716666667, "is_disabled": 0, "fusion_lat": 0.0, "lat": 38.9470015, "bike_id": "efde339074a46c3b1a3792b7df1197d6", "fusion_lon": 0.0}, {"rental_uris": {"ios": "https://dc.lft.to/lastmile_qr_scan", "android": "https://dc.lft.to/lastmile_qr_scan"}, "type": "electric_scooter", "name": "eb591f3c2800297d09438b42c4b5bee9", "is_reserved": 0, "lon": -77.02832266666667, "is_disabled": 0, "fusion_lat": 0.0, "lat": 38.92481133333333, "bike_id": "eb591f3c2800297d09438b42c4b5bee9", "fusion_lon": 0.0}, {"rental_uris": {"ios": "https://dc.lft.to/lastmile_qr_scan", "android": "https://dc.lft.to/lastmile_qr_scan"}, "type": "electric_scooter", "name": "ba52b7233350e3abedd30edbf1390b71", "is_reserved": 0, "lon": -77.0328765, "is_disabled": 0, "fusion_lat": 0.0, "lat": 38.903874333333334, "bike_id": "ba52b7233350e3abedd30edbf1390b71", "fusion_lon": 0.0}, {"rental_uris": {"ios": "https://dc.lft.to/lastmile_qr_scan", "android": "https://dc.lft.to/lastmile_qr_scan"}, "type": "electric_scooter", "name": "bc805294c2479f16d7b498966b455d83", "is_reserved": 0, "lon": -77.002105, "is_disabled": 0, "fusion_lat": 0.0, "lat": 38.8932355, "bike_id": "bc805294c2479f16d7b498966b455d83", "fusion_lon": 0.0}, {"rental_uris": {"ios": "https://dc.lft.to/lastmile_qr_scan", "android": "https://dc.lft.to/lastmile_qr_scan"}, "type": "electric_bike", "name": "4bfd925cedf82375990882b3585e132e", "is_reserved": 0, "lon": -76.96919683333333, "is_disabled": 0, "fusion_lat": 0.0, "lat": 38.8461465, "bike_id": "4bfd925cedf82375990882b3585e132e", "fusion_lon": 0.0}, {"rental_uris": {"ios": "https://dc.lft.to/lastmile_qr_scan", "android": "https://dc.lft.to/lastmile_qr_scan"}, "type": "electric_bike", "name": "593257bac3ffac7b21b2794f6964408b", "is_reserved": 0, "lon": -77.00137416666666, "is_disabled": 0, "fusion_lat": 0.0, "lat": 38.995049, "bike_id": "593257bac3ffac7b21b2794f6964408b", "fusion_lon": 0.0}, {"rental_uris": {"ios": "https://dc.lft.to/lastmile_qr_scan", "android": "https://dc.lft.to/lastmile_qr_scan"}, "type": "electric_scooter", "name": "e9e69c7213c24689a99a89cfa27917d4", "is_reserved": 0, "lon": -76.97936616666667, "is_disabled": 0, "fusion_lat": 0.0, "lat": 38.906604333333334, "bike_id": "e9e69c7213c24689a99a89cfa27917d4", "fusion_lon": 0.0}, {"rental_uris": {"ios": "https://dc.lft.to/lastmile_qr_scan", "android": "https://dc.lft.to/lastmile_qr_scan"}, "type": "electric_scooter", "name": "4c533a33004453266cd28c11e8f8042c", "is_reserved": 0, "lon": -77.0507075, "is_disabled": 0, "fusion_lat": 0.0, "lat": 38.90072033333333, "bike_id": "4c533a33004453266cd28c11e8f8042c", "fusion_lon": 0.0}, {"rental_uris": {"ios": "https://dc.lft.to/lastmile_qr_scan", "android": "https://dc.lft.to/lastmile_qr_scan"}, "type": "electric_scooter", "name": "24211aaa7a9b042e3b32ad8ea6ea3a5d", "is_reserved": 0, "lon": -77.07272216666667, "is_disabled": 0, "fusion_lat": 0.0, "lat": 38.92216666666667, "bike_id": "24211aaa7a9b042e3b32ad8ea6ea3a5d", "fusion_lon": 0.0}, {"rental_uris": {"ios": "https://dc.lft.to/lastmile_qr_scan", "android": "https://dc.lft.to/lastmile_qr_scan"}, "type": "electric_scooter", "name": "c3e628c47c13d072ac2efdc8662786f8", "is_reserved": 0, "lon": -77.051464, "is_disabled": 0, "fusion_lat": 0.0, "lat": 38.90474283333333, "bike_id": "c3e628c47c13d072ac2efdc8662786f8", "fusion_lon": 0.0}, {"rental_uris": {"ios": "https://dc.lft.to/lastmile_qr_scan", "android": "https://dc.lft.to/lastmile_qr_scan"}, "type": "electric_scooter", "name": "31749660adbc085aa993098b0f01ba53", "is_reserved": 0, "lon": -77.0351325, "is_disabled": 0, "fusion_lat": 0.0, "lat": 38.90963683333333, "bike_id": "31749660adbc085aa993098b0f01ba53", "fusion_lon": 0.0}, {"rental_uris": {"ios": "https://dc.lft.to/lastmile_qr_scan", "android": "https://dc.lft.to/lastmile_qr_scan"}, "type": "electric_scooter", "name": "02d8ddd125386498ff3b4756db659dfc", "is_reserved": 0, "lon": -77.00920666666667, "is_disabled": 0, "fusion_lat": 0.0, "lat": 38.8988565, "bike_id": "02d8ddd125386498ff3b4756db659dfc", "fusion_lon": 0.0}, {"rental_uris": {"ios": "https://dc.lft.to/lastmile_qr_scan", "android": "https://dc.lft.to/lastmile_qr_scan"}, "type": "electric_scooter", "name": "4685c4d92dc6c0de14f5a130ecf63de3", "is_reserved": 0, "lon": -77.05216816666666, "is_disabled": 0, "fusion_lat": 0.0, "lat": 38.900172, "bike_id": "4685c4d92dc6c0de14f5a130ecf63de3", "fusion_lon": 0.0}, {"rental_uris": {"ios": "https://dc.lft.to/lastmile_qr_scan", "android": "https://dc.lft.to/lastmile_qr_scan"}, "type": "electric_scooter", "name": "bf548dbae34a08ef9fafe6a12863854d", "is_reserved": 0, "lon": -77.04235216666666, "is_disabled": 0, "fusion_lat": 0.0, "lat": 38.92201333333333, "bike_id": "bf548dbae34a08ef9fafe6a12863854d", "fusion_lon": 0.0}, {"rental_uris": {"ios": "https://dc.lft.to/lastmile_qr_scan", "android": "https://dc.lft.to/lastmile_qr_scan"}, "type": "electric_scooter", "name": "c29f58b52916f8d921b307d719d42fe0", "is_reserved": 0, "lon": -77.03363683333333, "is_disabled": 0, "fusion_lat": 0.0, "lat": 38.9305385, "bike_id": "c29f58b52916f8d921b307d719d42fe0", "fusion_lon": 0.0}, {"rental_uris": {"ios": "https://dc.lft.to/lastmile_qr_scan", "android": "https://dc.lft.to/lastmile_qr_scan"}, "type": "electric_scooter", "name": "1f4727c18b28b4f7b63912dbfa981814", "is_reserved": 0, "lon": -77.05603366666666, "is_disabled": 0, "fusion_lat": 0.0, "lat": 38.894251833333335, "bike_id": "1f4727c18b28b4f7b63912dbfa981814", "fusion_lon": 0.0}, {"rental_uris": {"ios": "https://dc.lft.to/lastmile_qr_scan", "android": "https://dc.lft.to/lastmile_qr_scan"}, "type": "electric_scooter", "name": "7297cda702bb10ebb77430f48a203884", "is_reserved": 0, "lon": -77.02078016666667, "is_disabled": 0, "fusion_lat": 0.0, "lat": 38.9272435, "bike_id": "7297cda702bb10ebb77430f48a203884", "fusion_lon": 0.0}, {"rental_uris": {"ios": "https://dc.lft.to/lastmile_qr_scan", "android": "https://dc.lft.to/lastmile_qr_scan"}, "type": "electric_scooter", "name": "b91cac628c3aaa0205ddf7336a522e24", "is_reserved": 0, "lon": -77.032913, "is_disabled": 0, "fusion_lat": 0.0, "lat": 38.92451366666667, "bike_id": "b91cac628c3aaa0205ddf7336a522e24", "fusion_lon": 0.0}, {"rental_uris": {"ios": "https://dc.lft.to/lastmile_qr_scan", "android": "https://dc.lft.to/lastmile_qr_scan"}, "type": "electric_scooter", "name": "d47439adc84accedbc3188914b44754e", "is_reserved": 0, "lon": -77.02130933333333, "is_disabled": 0, "fusion_lat": 0.0, "lat": 38.91329983333333, "bike_id": "d47439adc84accedbc3188914b44754e", "fusion_lon": 0.0}, {"rental_uris": {"ios": "https://dc.lft.to/lastmile_qr_scan", "android": "https://dc.lft.to/lastmile_qr_scan"}, "type": "electric_scooter", "name": "c7bd59039d277f7c679f79a8ee585950", "is_reserved": 0, "lon": -77.01359, "is_disabled": 0, "fusion_lat": 0.0, "lat": 38.919393, "bike_id": "c7bd59039d277f7c679f79a8ee585950", "fusion_lon": 0.0}, {"rental_uris": {"ios": "https://dc.lft.to/lastmile_qr_scan", "android": "https://dc.lft.to/lastmile_qr_scan"}, "type": "electric_scooter", "name": "4ef17a1d8db60f94becdf59ed2044a58", "is_reserved": 0, "lon": -77.03057916666667, "is_disabled": 0, "fusion_lat": 0.0, "lat": 38.909616166666666, "bike_id": "4ef17a1d8db60f94becdf59ed2044a58", "fusion_lon": 0.0}, {"rental_uris": {"ios": "https://dc.lft.to/lastmile_qr_scan", "android": "https://dc.lft.to/lastmile_qr_scan"}, "type": "electric_scooter", "name": "88e6db46453c75c44b2c935d153f7434", "is_reserved": 0, "lon": -77.03809783333334, "is_disabled": 0, "fusion_lat": 0.0, "lat": 38.914128, "bike_id": "88e6db46453c75c44b2c935d153f7434", "fusion_lon": 0.0}, {"rental_uris": {"ios": "https://dc.lft.to/lastmile_qr_scan", "android": "https://dc.lft.to/lastmile_qr_scan"}, "type": "electric_scooter", "name": "d83f281564ee41730ddf54b7a511a39f", "is_reserved": 0, "lon": -76.99153616666666, "is_disabled": 0, "fusion_lat": 0.0, "lat": 38.900386, "bike_id": "d83f281564ee41730ddf54b7a511a39f", "fusion_lon": 0.0}, {"rental_uris": {"ios": "https://dc.lft.to/lastmile_qr_scan", "android": "https://dc.lft.to/lastmile_qr_scan"}, "type": "electric_scooter", "name": "885133afca26f4894ad87e407b9edb58", "is_reserved": 0, "lon": -77.03451616666666, "is_disabled": 0, "fusion_lat": 0.0, "lat": 38.910218, "bike_id": "885133afca26f4894ad87e407b9edb58", "fusion_lon": 0.0}, {"rental_uris": {"ios": "https://dc.lft.to/lastmile_qr_scan", "android": "https://dc.lft.to/lastmile_qr_scan"}, "type": "electric_scooter", "name": "6f0d48d7491d24758ac55fe4218fcac7", "is_reserved": 0, "lon": -77.00396816666667, "is_disabled": 0, "fusion_lat": 0.0, "lat": 38.90776183333333, "bike_id": "6f0d48d7491d24758ac55fe4218fcac7", "fusion_lon": 0.0}, {"rental_uris": {"ios": "https://dc.lft.to/lastmile_qr_scan", "android": "https://dc.lft.to/lastmile_qr_scan"}, "type": "electric_scooter", "name": "553ad8ed88b9e39bce4b8e5c991ad4c0", "is_reserved": 0, "lon": -77.01015583333333, "is_disabled": 0, "fusion_lat": 0.0, "lat": 38.914059, "bike_id": "553ad8ed88b9e39bce4b8e5c991ad4c0", "fusion_lon": 0.0}, {"rental_uris": {"ios": "https://dc.lft.to/lastmile_qr_scan", "android": "https://dc.lft.to/lastmile_qr_scan"}, "type": "electric_scooter", "name": "74e13a80f68debb49d988f73da99e81a", "is_reserved": 0, "lon": -77.02691966666667, "is_disabled": 0, "fusion_lat": 0.0, "lat": 38.91151716666667, "bike_id": "74e13a80f68debb49d988f73da99e81a", "fusion_lon": 0.0}, {"rental_uris": {"ios": "https://dc.lft.to/lastmile_qr_scan", "android": "https://dc.lft.to/lastmile_qr_scan"}, "type": "electric_scooter", "name": "5fa1c21663f2b3e165269f3b9092e1ce", "is_reserved": 0, "lon": -77.01968066666667, "is_disabled": 0, "fusion_lat": 0.0, "lat": 38.898357, "bike_id": "5fa1c21663f2b3e165269f3b9092e1ce", "fusion_lon": 0.0}, {"rental_uris": {"ios": "https://dc.lft.to/lastmile_qr_scan", "android": "https://dc.lft.to/lastmile_qr_scan"}, "type": "electric_scooter", "name": "b3eebe01d3b41122198c822b750fb4d9", "is_reserved": 0, "lon": -77.029722, "is_disabled": 0, "fusion_lat": 0.0, "lat": 38.892285333333334, "bike_id": "b3eebe01d3b41122198c822b750fb4d9", "fusion_lon": 0.0}, {"rental_uris": {"ios": "https://dc.lft.to/lastmile_qr_scan", "android": "https://dc.lft.to/lastmile_qr_scan"}, "type": "electric_scooter", "name": "cb886e6df67fcfdc047a0d93b78ad969", "is_reserved": 0, "lon": -76.99480966666667, "is_disabled": 0, "fusion_lat": 0.0, "lat": 38.90554133333333, "bike_id": "cb886e6df67fcfdc047a0d93b78ad969", "fusion_lon": 0.0}, {"rental_uris": {"ios": "https://dc.lft.to/lastmile_qr_scan", "android": "https://dc.lft.to/lastmile_qr_scan"}, "type": "electric_scooter", "name": "347c7d85b96c0683b1444b65a867b27c", "is_reserved": 0, "lon": -77.021883, "is_disabled": 0, "fusion_lat": 0.0, "lat": 38.893958, "bike_id": "347c7d85b96c0683b1444b65a867b27c", "fusion_lon": 0.0}, {"rental_uris": {"ios": "https://dc.lft.to/lastmile_qr_scan", "android": "https://dc.lft.to/lastmile_qr_scan"}, "type": "electric_scooter", "name": "0c3aa9c1ba1f2af4a1d15618ae18890f", "is_reserved": 0, "lon": -77.03779183333333, "is_disabled": 0, "fusion_lat": 0.0, "lat": 38.925680666666665, "bike_id": "0c3aa9c1ba1f2af4a1d15618ae18890f", "fusion_lon": 0.0}, {"rental_uris": {"ios": "https://dc.lft.to/lastmile_qr_scan", "android": "https://dc.lft.to/lastmile_qr_scan"}, "type": "electric_scooter", "name": "97eabb8a0e45dbf17bc60da7f372f654", "is_reserved": 0, "lon": -77.0115335, "is_disabled": 0, "fusion_lat": 0.0, "lat": 38.95689766666667, "bike_id": "97eabb8a0e45dbf17bc60da7f372f654", "fusion_lon": 0.0}, {"rental_uris": {"ios": "https://dc.lft.to/lastmile_qr_scan", "android": "https://dc.lft.to/lastmile_qr_scan"}, "type": "electric_scooter", "name": "5b5954c99bbc92f627bc8e923d3d3be5", "is_reserved": 0, "lon": -77.0233895, "is_disabled": 0, "fusion_lat": 0.0, "lat": 38.929717833333335, "bike_id": "5b5954c99bbc92f627bc8e923d3d3be5", "fusion_lon": 0.0}, {"rental_uris": {"ios": "https://dc.lft.to/lastmile_qr_scan", "android": "https://dc.lft.to/lastmile_qr_scan"}, "type": "electric_scooter", "name": "2aa5079bf02a725f61f6be87f7a89a54", "is_reserved": 0, "lon": -76.94194666666667, "is_disabled": 0, "fusion_lat": 0.0, "lat": 38.90227016666667, "bike_id": "2aa5079bf02a725f61f6be87f7a89a54", "fusion_lon": 0.0}, {"rental_uris": {"ios": "https://dc.lft.to/lastmile_qr_scan", "android": "https://dc.lft.to/lastmile_qr_scan"}, "type": "electric_scooter", "name": "e1c5c128307320261ffbd28e2a0b96ab", "is_reserved": 0, "lon": -77.03278033333333, "is_disabled": 0, "fusion_lat": 0.0, "lat": 38.90551516666667, "bike_id": "e1c5c128307320261ffbd28e2a0b96ab", "fusion_lon": 0.0}, {"rental_uris": {"ios": "https://dc.lft.to/lastmile_qr_scan", "android": "https://dc.lft.to/lastmile_qr_scan"}, "type": "electric_scooter", "name": "ff03d6c0abd3bfbb2ae0e890fc6c67b7", "is_reserved": 0, "lon": -77.021524, "is_disabled": 0, "fusion_lat": 0.0, "lat": 38.903038333333335, "bike_id": "ff03d6c0abd3bfbb2ae0e890fc6c67b7", "fusion_lon": 0.0}, {"rental_uris": {"ios": "https://dc.lft.to/lastmile_qr_scan", "android": "https://dc.lft.to/lastmile_qr_scan"}, "type": "electric_scooter", "name": "2c5285f7308c8c5ce7fce5ddad348b59", "is_reserved": 0, "lon": -77.07557016666667, "is_disabled": 0, "fusion_lat": 0.0, "lat": 38.920884, "bike_id": "2c5285f7308c8c5ce7fce5ddad348b59", "fusion_lon": 0.0}, {"rental_uris": {"ios": "https://dc.lft.to/lastmile_qr_scan", "android": "https://dc.lft.to/lastmile_qr_scan"}, "type": "electric_scooter", "name": "4bd22c7682dc3601572c55ba5bfa7b15", "is_reserved": 0, "lon": -77.060107, "is_disabled": 0, "fusion_lat": 0.0, "lat": 38.904054333333335, "bike_id": "4bd22c7682dc3601572c55ba5bfa7b15", "fusion_lon": 0.0}, {"rental_uris": {"ios": "https://dc.lft.to/lastmile_qr_scan", "android": "https://dc.lft.to/lastmile_qr_scan"}, "type": "electric_scooter", "name": "42f1b38c3e533e7c6878ebd231c0d3cb", "is_reserved": 0, "lon": -77.021226, "is_disabled": 0, "fusion_lat": 0.0, "lat": 38.924110666666664, "bike_id": "42f1b38c3e533e7c6878ebd231c0d3cb", "fusion_lon": 0.0}, {"rental_uris": {"ios": "https://dc.lft.to/lastmile_qr_scan", "android": "https://dc.lft.to/lastmile_qr_scan"}, "type": "electric_scooter", "name": "32ad46b2df8a3ea39fc1974dbec40aae", "is_reserved": 0, "lon": -77.00197533333333, "is_disabled": 0, "fusion_lat": 0.0, "lat": 38.90241483333333, "bike_id": "32ad46b2df8a3ea39fc1974dbec40aae", "fusion_lon": 0.0}, {"rental_uris": {"ios": "https://dc.lft.to/lastmile_qr_scan", "android": "https://dc.lft.to/lastmile_qr_scan"}, "type": "electric_scooter", "name": "6456674a8c3624d3c064bbcf04981f27", "is_reserved": 0, "lon": -77.01083833333334, "is_disabled": 0, "fusion_lat": 0.0, "lat": 38.8949355, "bike_id": "6456674a8c3624d3c064bbcf04981f27", "fusion_lon": 0.0}, {"rental_uris": {"ios": "https://dc.lft.to/lastmile_qr_scan", "android": "https://dc.lft.to/lastmile_qr_scan"}, "type": "electric_scooter", "name": "8f0746a72900694ae4ac5fa1014d36f1", "is_reserved": 0, "lon": -77.0692455, "is_disabled": 0, "fusion_lat": 0.0, "lat": 38.91386683333333, "bike_id": "8f0746a72900694ae4ac5fa1014d36f1", "fusion_lon": 0.0}, {"rental_uris": {"ios": "https://dc.lft.to/lastmile_qr_scan", "android": "https://dc.lft.to/lastmile_qr_scan"}, "type": "electric_scooter", "name": "65333d7557dc9cce1b5e28daf433f281", "is_reserved": 0, "lon": -77.03532366666667, "is_disabled": 0, "fusion_lat": 0.0, "lat": 38.9228055, "bike_id": "65333d7557dc9cce1b5e28daf433f281", "fusion_lon": 0.0}, {"rental_uris": {"ios": "https://dc.lft.to/lastmile_qr_scan", "android": "https://dc.lft.to/lastmile_qr_scan"}, "type": "electric_scooter", "name": "5499f823ec7112f75832635da7223647", "is_reserved": 0, "lon": -77.03965066666666, "is_disabled": 0, "fusion_lat": 0.0, "lat": 38.90125783333333, "bike_id": "5499f823ec7112f75832635da7223647", "fusion_lon": 0.0}, {"rental_uris": {"ios": "https://dc.lft.to/lastmile_qr_scan", "android": "https://dc.lft.to/lastmile_qr_scan"}, "type": "electric_scooter", "name": "ebb2b00d562cc51a3a0cc9c0afc014fd", "is_reserved": 0, "lon": -77.048872, "is_disabled": 0, "fusion_lat": 0.0, "lat": 38.918465833333336, "bike_id": "ebb2b00d562cc51a3a0cc9c0afc014fd", "fusion_lon": 0.0}, {"rental_uris": {"ios": "https://dc.lft.to/lastmile_qr_scan", "android": "https://dc.lft.to/lastmile_qr_scan"}, "type": "electric_scooter", "name": "aecca1dcca657c19793c01a59d737f46", "is_reserved": 0, "lon": -77.03596166666667, "is_disabled": 0, "fusion_lat": 0.0, "lat": 38.916997333333335, "bike_id": "aecca1dcca657c19793c01a59d737f46", "fusion_lon": 0.0}, {"rental_uris": {"ios": "https://dc.lft.to/lastmile_qr_scan", "android": "https://dc.lft.to/lastmile_qr_scan"}, "type": "electric_scooter", "name": "92c19e793b0f071c8fad3baff7b4a52d", "is_reserved": 0, "lon": -77.042778, "is_disabled": 0, "fusion_lat": 0.0, "lat": 38.906502, "bike_id": "92c19e793b0f071c8fad3baff7b4a52d", "fusion_lon": 0.0}, {"rental_uris": {"ios": "https://dc.lft.to/lastmile_qr_scan", "android": "https://dc.lft.to/lastmile_qr_scan"}, "type": "electric_scooter", "name": "5ea142cd7d82a37ea212f81feb8561c2", "is_reserved": 0, "lon": -77.06108683333333, "is_disabled": 0, "fusion_lat": 0.0, "lat": 38.905378, "bike_id": "5ea142cd7d82a37ea212f81feb8561c2", "fusion_lon": 0.0}, {"rental_uris": {"ios": "https://dc.lft.to/lastmile_qr_scan", "android": "https://dc.lft.to/lastmile_qr_scan"}, "type": "electric_scooter", "name": "85f87b0501dac713c07726b20732c1d4", "is_reserved": 0, "lon": -77.02319833333334, "is_disabled": 0, "fusion_lat": 0.0, "lat": 38.916207666666665, "bike_id": "85f87b0501dac713c07726b20732c1d4", "fusion_lon": 0.0}, {"rental_uris": {"ios": "https://dc.lft.to/lastmile_qr_scan", "android": "https://dc.lft.to/lastmile_qr_scan"}, "type": "electric_scooter", "name": "7cece440fb8d48f76b82e54f8d895591", "is_reserved": 0, "lon": -77.0219485, "is_disabled": 0, "fusion_lat": 0.0, "lat": 38.899244333333336, "bike_id": "7cece440fb8d48f76b82e54f8d895591", "fusion_lon": 0.0}, {"rental_uris": {"ios": "https://dc.lft.to/lastmile_qr_scan", "android": "https://dc.lft.to/lastmile_qr_scan"}, "type": "electric_scooter", "name": "c837f048f460326376743d12124f50c7", "is_reserved": 0, "lon": -77.02712833333334, "is_disabled": 0, "fusion_lat": 0.0, "lat": 38.91540716666667, "bike_id": "c837f048f460326376743d12124f50c7", "fusion_lon": 0.0}, {"rental_uris": {"ios": "https://dc.lft.to/lastmile_qr_scan", "android": "https://dc.lft.to/lastmile_qr_scan"}, "type": "electric_bike", "name": "40a483103e957a500f355d6f41fc7211", "is_reserved": 0, "lon": -76.9615605, "is_disabled": 0, "fusion_lat": 0.0, "lat": 38.856193, "bike_id": "40a483103e957a500f355d6f41fc7211", "fusion_lon": 0.0}, {"rental_uris": {"ios": "https://dc.lft.to/lastmile_qr_scan", "android": "https://dc.lft.to/lastmile_qr_scan"}, "type": "electric_scooter", "name": "61a0c04c316bf9eab98d80966bdc5964", "is_reserved": 0, "lon": -77.05796333333333, "is_disabled": 0, "fusion_lat": 0.0, "lat": 38.93480366666667, "bike_id": "61a0c04c316bf9eab98d80966bdc5964", "fusion_lon": 0.0}, {"rental_uris": {"ios": "https://dc.lft.to/lastmile_qr_scan", "android": "https://dc.lft.to/lastmile_qr_scan"}, "type": "electric_scooter", "name": "624476646439e1c91f261a747be0a036", "is_reserved": 0, "lon": -77.025812, "is_disabled": 0, "fusion_lat": 0.0, "lat": 38.88708883333334, "bike_id": "624476646439e1c91f261a747be0a036", "fusion_lon": 0.0}, {"rental_uris": {"ios": "https://dc.lft.to/lastmile_qr_scan", "android": "https://dc.lft.to/lastmile_qr_scan"}, "type": "electric_scooter", "name": "3a190f489206aaac23551c23ce05d51e", "is_reserved": 0, "lon": -77.04244616666666, "is_disabled": 0, "fusion_lat": 0.0, "lat": 38.92239283333333, "bike_id": "3a190f489206aaac23551c23ce05d51e", "fusion_lon": 0.0}, {"rental_uris": {"ios": "https://dc.lft.to/lastmile_qr_scan", "android": "https://dc.lft.to/lastmile_qr_scan"}, "type": "electric_bike", "name": "43e9aa0b2f00880dc7b0a834cbc04ee9", "is_reserved": 0, "lon": -77.03307133333334, "is_disabled": 0, "fusion_lat": 0.0, "lat": 38.898677666666664, "bike_id": "43e9aa0b2f00880dc7b0a834cbc04ee9", "fusion_lon": 0.0}, {"rental_uris": {"ios": "https://dc.lft.to/lastmile_qr_scan", "android": "https://dc.lft.to/lastmile_qr_scan"}, "type": "electric_scooter", "name": "96985fd26c6682c110cfb40c8f40d0b7", "is_reserved": 0, "lon": -77.03337816666667, "is_disabled": 0, "fusion_lat": 0.0, "lat": 38.88775, "bike_id": "96985fd26c6682c110cfb40c8f40d0b7", "fusion_lon": 0.0}, {"rental_uris": {"ios": "https://dc.lft.to/lastmile_qr_scan", "android": "https://dc.lft.to/lastmile_qr_scan"}, "type": "electric_scooter", "name": "1b1c2cfeaddcf8eb4f1492b16e37c6e4", "is_reserved": 0, "lon": -77.032368, "is_disabled": 0, "fusion_lat": 0.0, "lat": 38.915625, "bike_id": "1b1c2cfeaddcf8eb4f1492b16e37c6e4", "fusion_lon": 0.0}, {"rental_uris": {"ios": "https://dc.lft.to/lastmile_qr_scan", "android": "https://dc.lft.to/lastmile_qr_scan"}, "type": "electric_scooter", "name": "24b55e2ca55470c27d10718ea386f387", "is_reserved": 0, "lon": -77.03165283333334, "is_disabled": 0, "fusion_lat": 0.0, "lat": 38.901202, "bike_id": "24b55e2ca55470c27d10718ea386f387", "fusion_lon": 0.0}, {"rental_uris": {"ios": "https://dc.lft.to/lastmile_qr_scan", "android": "https://dc.lft.to/lastmile_qr_scan"}, "type": "electric_bike", "name": "8b5417b6fdceb426b60ab30d991d42fe", "is_reserved": 0, "lon": -76.9073895, "is_disabled": 0, "fusion_lat": 0.0, "lat": 38.8961765, "bike_id": "8b5417b6fdceb426b60ab30d991d42fe", "fusion_lon": 0.0}, {"rental_uris": {"ios": "https://dc.lft.to/lastmile_qr_scan", "android": "https://dc.lft.to/lastmile_qr_scan"}, "type": "electric_scooter", "name": "c08a630e432d00a2daa95e7a9b140160", "is_reserved": 0, "lon": -77.04568883333333, "is_disabled": 0, "fusion_lat": 0.0, "lat": 38.914074, "bike_id": "c08a630e432d00a2daa95e7a9b140160", "fusion_lon": 0.0}, {"rental_uris": {"ios": "https://dc.lft.to/lastmile_qr_scan", "android": "https://dc.lft.to/lastmile_qr_scan"}, "type": "electric_scooter", "name": "a4e8148b0f6b588ce60af13275a50275", "is_reserved": 0, "lon": -77.01172666666666, "is_disabled": 0, "fusion_lat": 0.0, "lat": 38.90735983333333, "bike_id": "a4e8148b0f6b588ce60af13275a50275", "fusion_lon": 0.0}, {"rental_uris": {"ios": "https://dc.lft.to/lastmile_qr_scan", "android": "https://dc.lft.to/lastmile_qr_scan"}, "type": "electric_bike", "name": "4f234e9523403a3b3ef89772caff4118", "is_reserved": 0, "lon": -76.99496366666666, "is_disabled": 0, "fusion_lat": 0.0, "lat": 38.8621945, "bike_id": "4f234e9523403a3b3ef89772caff4118", "fusion_lon": 0.0}, {"rental_uris": {"ios": "https://dc.lft.to/lastmile_qr_scan", "android": "https://dc.lft.to/lastmile_qr_scan"}, "type": "electric_scooter", "name": "19ccff1fab4639c775603130f14b286b", "is_reserved": 0, "lon": -77.00728616666666, "is_disabled": 0, "fusion_lat": 0.0, "lat": 38.8987825, "bike_id": "19ccff1fab4639c775603130f14b286b", "fusion_lon": 0.0}, {"rental_uris": {"ios": "https://dc.lft.to/lastmile_qr_scan", "android": "https://dc.lft.to/lastmile_qr_scan"}, "type": "electric_scooter", "name": "ec7278a90d4f4c497b671940f933f9f5", "is_reserved": 0, "lon": -77.03653633333333, "is_disabled": 0, "fusion_lat": 0.0, "lat": 38.95601083333333, "bike_id": "ec7278a90d4f4c497b671940f933f9f5", "fusion_lon": 0.0}, {"rental_uris": {"ios": "https://dc.lft.to/lastmile_qr_scan", "android": "https://dc.lft.to/lastmile_qr_scan"}, "type": "electric_scooter", "name": "414a2cac800f0ed13d30309ce1e27993", "is_reserved": 0, "lon": -77.02217116666667, "is_disabled": 0, "fusion_lat": 0.0, "lat": 38.924661666666665, "bike_id": "414a2cac800f0ed13d30309ce1e27993", "fusion_lon": 0.0}, {"rental_uris": {"ios": "https://dc.lft.to/lastmile_qr_scan", "android": "https://dc.lft.to/lastmile_qr_scan"}, "type": "electric_scooter", "name": "033277d895d3c1413cf533f5161e2032", "is_reserved": 0, "lon": -77.02582116666666, "is_disabled": 0, "fusion_lat": 0.0, "lat": 38.88716466666666, "bike_id": "033277d895d3c1413cf533f5161e2032", "fusion_lon": 0.0}, {"rental_uris": {"ios": "https://dc.lft.to/lastmile_qr_scan", "android": "https://dc.lft.to/lastmile_qr_scan"}, "type": "electric_scooter", "name": "a75381232979daf79a0cb2ce27cbacee", "is_reserved": 0, "lon": -76.9956185, "is_disabled": 0, "fusion_lat": 0.0, "lat": 38.926774, "bike_id": "a75381232979daf79a0cb2ce27cbacee", "fusion_lon": 0.0}, {"rental_uris": {"ios": "https://dc.lft.to/lastmile_qr_scan", "android": "https://dc.lft.to/lastmile_qr_scan"}, "type": "electric_scooter", "name": "fc37cdd78b0a0c108d215d69f14b7a1e", "is_reserved": 0, "lon": -77.0315695, "is_disabled": 0, "fusion_lat": 0.0, "lat": 38.91691133333333, "bike_id": "fc37cdd78b0a0c108d215d69f14b7a1e", "fusion_lon": 0.0}, {"rental_uris": {"ios": "https://dc.lft.to/lastmile_qr_scan", "android": "https://dc.lft.to/lastmile_qr_scan"}, "type": "electric_scooter", "name": "d5eb393874617f811d7fc54a06d980a9", "is_reserved": 0, "lon": -77.0321055, "is_disabled": 0, "fusion_lat": 0.0, "lat": 38.892318, "bike_id": "d5eb393874617f811d7fc54a06d980a9", "fusion_lon": 0.0}, {"rental_uris": {"ios": "https://dc.lft.to/lastmile_qr_scan", "android": "https://dc.lft.to/lastmile_qr_scan"}, "type": "electric_scooter", "name": "db67941fce45fafcc4eb61ff84ba8c05", "is_reserved": 0, "lon": -77.05631833333334, "is_disabled": 0, "fusion_lat": 0.0, "lat": 38.92432483333333, "bike_id": "db67941fce45fafcc4eb61ff84ba8c05", "fusion_lon": 0.0}, {"rental_uris": {"ios": "https://dc.lft.to/lastmile_qr_scan", "android": "https://dc.lft.to/lastmile_qr_scan"}, "type": "electric_scooter", "name": "1d2f6879b86481d770d8a52b63975e40", "is_reserved": 0, "lon": -77.05197183333334, "is_disabled": 0, "fusion_lat": 0.0, "lat": 38.902593333333336, "bike_id": "1d2f6879b86481d770d8a52b63975e40", "fusion_lon": 0.0}, {"rental_uris": {"ios": "https://dc.lft.to/lastmile_qr_scan", "android": "https://dc.lft.to/lastmile_qr_scan"}, "type": "electric_scooter", "name": "b84be64ef0fd4d55d02f24b26ae6af2a", "is_reserved": 0, "lon": -76.99488233333334, "is_disabled": 0, "fusion_lat": 0.0, "lat": 38.862197333333334, "bike_id": "b84be64ef0fd4d55d02f24b26ae6af2a", "fusion_lon": 0.0}, {"rental_uris": {"ios": "https://dc.lft.to/lastmile_qr_scan", "android": "https://dc.lft.to/lastmile_qr_scan"}, "type": "electric_scooter", "name": "fbdc1b6267e4abaeb3765e5022ec3118", "is_reserved": 0, "lon": -77.04190366666667, "is_disabled": 0, "fusion_lat": 0.0, "lat": 38.92202833333333, "bike_id": "fbdc1b6267e4abaeb3765e5022ec3118", "fusion_lon": 0.0}, {"rental_uris": {"ios": "https://dc.lft.to/lastmile_qr_scan", "android": "https://dc.lft.to/lastmile_qr_scan"}, "type": "electric_scooter", "name": "af9491c7ed5f4408dd2d2156bc7f3731", "is_reserved": 0, "lon": -77.04044633333334, "is_disabled": 0, "fusion_lat": 0.0, "lat": 38.91866016666667, "bike_id": "af9491c7ed5f4408dd2d2156bc7f3731", "fusion_lon": 0.0}, {"rental_uris": {"ios": "https://dc.lft.to/lastmile_qr_scan", "android": "https://dc.lft.to/lastmile_qr_scan"}, "type": "electric_scooter", "name": "18f45e6fb01223d0aa9d01f304a8f259", "is_reserved": 0, "lon": -77.058742, "is_disabled": 0, "fusion_lat": 0.0, "lat": 38.942426, "bike_id": "18f45e6fb01223d0aa9d01f304a8f259", "fusion_lon": 0.0}, {"rental_uris": {"ios": "https://dc.lft.to/lastmile_qr_scan", "android": "https://dc.lft.to/lastmile_qr_scan"}, "type": "electric_scooter", "name": "f9c9d0c1d8376c7e3509f0c692519e18", "is_reserved": 0, "lon": -77.05123166666667, "is_disabled": 0, "fusion_lat": 0.0, "lat": 38.92349266666667, "bike_id": "f9c9d0c1d8376c7e3509f0c692519e18", "fusion_lon": 0.0}, {"rental_uris": {"ios": "https://dc.lft.to/lastmile_qr_scan", "android": "https://dc.lft.to/lastmile_qr_scan"}, "type": "electric_scooter", "name": "b6bb2c70755c1b5f1a9e49fa10e9cd10", "is_reserved": 0, "lon": -76.9292025, "is_disabled": 0, "fusion_lat": 0.0, "lat": 38.886557833333335, "bike_id": "b6bb2c70755c1b5f1a9e49fa10e9cd10", "fusion_lon": 0.0}, {"rental_uris": {"ios": "https://dc.lft.to/lastmile_qr_scan", "android": "https://dc.lft.to/lastmile_qr_scan"},