{"data": {"bikes": [{"lon": -77.06336833333333, "fusion_lon": 0.0, "bike_id": "5890254540aa2d8cb762106e4a02a963", "type": "electric_scooter", "name": "5890254540aa2d8cb762106e4a02a963", "rental_uris": {"android": "https://dc.lft.to/lastmile_qr_scan", "ios": "https://dc.lft.to/lastmile_qr_scan"}, "is_disabled": 0, "fusion_lat": 0.0, "lat": 38.921063, "is_reserved": 0}, {"lon": -77.01212033333333, "fusion_lon": 0.0, "bike_id": "969b2d60bbea6b1df22faff65af3df4b", "type": "electric_scooter", "name": "969b2d60bbea6b1df22faff65af3df4b", "rental_uris": {"android": "https://dc.lft.to/lastmile_qr_scan", "ios": "https://dc.lft.to/lastmile_qr_scan"}, "is_disabled": 0, "fusion_lat": 0.0, "lat": 38.874705166666665, "is_reserved": 0}, {"lon": -77.0091965, "fusion_lon": 0.0, "bike_id": "bfe543f607ef114bfd697ce6bcdd8163", "type": "electric_scooter", "name": "bfe543f607ef114bfd697ce6bcdd8163", "rental_uris": {"android": "https://dc.lft.to/lastmile_qr_scan", "ios": "https://dc.lft.to/lastmile_qr_scan"}, "is_disabled": 0, "fusion_lat": 0.0, "lat": 38.9227175, "is_reserved": 0}, {"lon": -77.04709616666666, "fusion_lon": 0.0, "bike_id": "ff73323fb31f26bd3f958fb4dc3b3d04", "type": "electric_scooter", "name": "ff73323fb31f26bd3f958fb4dc3b3d04", "rental_uris": {"android": "https://dc.lft.to/lastmile_qr_scan", "ios": "https://dc.lft.to/lastmile_qr_scan"}, "is_disabled": 0, "fusion_lat": 0.0, "lat": 38.92177133333333, "is_reserved": 0}, {"lon": -77.0335155, "fusion_lon": 0.0, "bike_id": "0e736f052fb79a38c9a9df4044f618a0", "type": "electric_scooter", "name": "0e736f052fb79a38c9a9df4044f618a0", "rental_uris": {"android": "https://dc.lft.to/lastmile_qr_scan", "ios": "https://dc.lft.to/lastmile_qr_scan"}, "is_disabled": 0, "fusion_lat": 0.0, "lat": 38.93873966666666, "is_reserved": 0}, {"lon": -77.022791, "fusion_lon": 0.0, "bike_id": "6a623f27f7ec04dd7db5fe885d47000f", "type": "electric_scooter", "name": "6a623f27f7ec04dd7db5fe885d47000f", "rental_uris": {"android": "https://dc.lft.to/lastmile_qr_scan", "ios": "https://dc.lft.to/lastmile_qr_scan"}, "is_disabled": 0, "fusion_lat": 0.0, "lat": 38.92725016666667, "is_reserved": 0}, {"lon": -77.02406566666667, "fusion_lon": 0.0, "bike_id": "1409efe0cdc985681bf0a09dd52f8b97", "type": "electric_scooter", "name": "1409efe0cdc985681bf0a09dd52f8b97", "rental_uris": {"android": "https://dc.lft.to/lastmile_qr_scan", "ios": "https://dc.lft.to/lastmile_qr_scan"}, "is_disabled": 0, "fusion_lat": 0.0, "lat": 38.905577, "is_reserved": 0}, {"lon": -77.0427455, "fusion_lon": 0.0, "bike_id": "7691f68db308631830380ebe1190eae0", "type": "electric_scooter", "name": "7691f68db308631830380ebe1190eae0", "rental_uris": {"android": "https://dc.lft.to/lastmile_qr_scan", "ios": "https://dc.lft.to/lastmile_qr_scan"}, "is_disabled": 0, "fusion_lat": 0.0, "lat": 38.92560916666667, "is_reserved": 0}, {"lon": -77.02371216666667, "fusion_lon": 0.0, "bike_id": "62a2c70d5e6a0380ced80b543e7a99f3", "type": "electric_scooter", "name": "62a2c70d5e6a0380ced80b543e7a99f3", "rental_uris": {"android": "https://dc.lft.to/lastmile_qr_scan", "ios": "https://dc.lft.to/lastmile_qr_scan"}, "is_disabled": 0, "fusion_lat": 0.0, "lat": 38.90197383333334, "is_reserved": 0}, {"lon": -77.022137, "fusion_lon": 0.0, "bike_id": "e63f62d45f898983b477dcd53775774a", "type": "electric_scooter", "name": "e63f62d45f898983b477dcd53775774a", "rental_uris": {"android": "https://dc.lft.to/lastmile_qr_scan", "ios": "https://dc.lft.to/lastmile_qr_scan"}, "is_disabled": 0, "fusion_lat": 0.0, "lat": 38.89525283333333, "is_reserved": 0}, {"lon": -76.96529533333333, "fusion_lon": 0.0, "bike_id": "188bb9a5c4f0c1e6034f2d07c93d0e3a", "type": "electric_scooter", "name": "188bb9a5c4f0c1e6034f2d07c93d0e3a", "rental_uris": {"android": "https://dc.lft.to/lastmile_qr_scan", "ios": "https://dc.lft.to/lastmile_qr_scan"}, "is_disabled": 0, "fusion_lat": 0.0, "lat": 38.876309666666664, "is_reserved": 0}, {"lon": -77.03314016666667, "fusion_lon": 0.0, "bike_id": "c10574916122ef346144a404a7d2d62a", "type": "electric_scooter", "name": "c10574916122ef346144a404a7d2d62a", "rental_uris": {"android": "https://dc.lft.to/lastmile_qr_scan", "ios": "https://dc.lft.to/lastmile_qr_scan"}, "is_disabled": 0, "fusion_lat": 0.0, "lat": 38.91115283333333, "is_reserved": 0}, {"lon": -76.98544316666667, "fusion_lon": 0.0, "bike_id": "fa8323b60fab8b90c394d326110b7196", "type": "electric_scooter", "name": "fa8323b60fab8b90c394d326110b7196", "rental_uris": {"android": "https://dc.lft.to/lastmile_qr_scan", "ios": "https://dc.lft.to/lastmile_qr_scan"}, "is_disabled": 0, "fusion_lat": 0.0, "lat": 38.88001516666667, "is_reserved": 0}, {"lon": -77.05509916666666, "fusion_lon": 0.0, "bike_id": "19acb1314abd119b7a293a97fb753997", "type": "electric_scooter", "name": "19acb1314abd119b7a293a97fb753997", "rental_uris": {"android": "https://dc.lft.to/lastmile_qr_scan", "ios": "https://dc.lft.to/lastmile_qr_scan"}, "is_disabled": 0, "fusion_lat": 0.0, "lat": 38.929454, "is_reserved": 0}, {"lon": -76.98357433333334, "fusion_lon": 0.0, "bike_id": "4b967f6807d7c5f3cb26bc06efafd50b", "type": "electric_scooter", "name": "4b967f6807d7c5f3cb26bc06efafd50b", "rental_uris": {"android": "https://dc.lft.to/lastmile_qr_scan", "ios": "https://dc.lft.to/lastmile_qr_scan"}, "is_disabled": 0, "fusion_lat": 0.0, "lat": 38.9149095, "is_reserved": 0}, {"lon": -77.04161666666667, "fusion_lon": 0.0, "bike_id": "ad442c31a26b919cd7acf777e84eacc6", "type": "electric_scooter", "name": "ad442c31a26b919cd7acf777e84eacc6", "rental_uris": {"android": "https://dc.lft.to/lastmile_qr_scan", "ios": "https://dc.lft.to/lastmile_qr_scan"}, "is_disabled": 0, "fusion_lat": 0.0, "lat": 38.91956183333333, "is_reserved": 0}, {"lon": -77.017379, "fusion_lon": 0.0, "bike_id": "a065a8a91002b2b399d8832ab6c7ffa4", "type": "electric_scooter", "name": "a065a8a91002b2b399d8832ab6c7ffa4", "rental_uris": {"android": "https://dc.lft.to/lastmile_qr_scan", "ios": "https://dc.lft.to/lastmile_qr_scan"}, "is_disabled": 0, "fusion_lat": 0.0, "lat": 38.916118, "is_reserved": 0}, {"lon": -77.00586966666667, "fusion_lon": 0.0, "bike_id": "ce74f7c328647f55d17e71e848f11f96", "type": "electric_scooter", "name": "ce74f7c328647f55d17e71e848f11f96", "rental_uris": {"android": "https://dc.lft.to/lastmile_qr_scan", "ios": "https://dc.lft.to/lastmile_qr_scan"}, "is_disabled": 0, "fusion_lat": 0.0, "lat": 38.87569883333333, "is_reserved": 0}, {"lon": -77.02396833333333, "fusion_lon": 0.0, "bike_id": "5f960798f9902f4835593470e99c3364", "type": "electric_scooter", "name": "5f960798f9902f4835593470e99c3364", "rental_uris": {"android": "https://dc.lft.to/lastmile_qr_scan", "ios": "https://dc.lft.to/lastmile_qr_scan"}, "is_disabled": 0, "fusion_lat": 0.0, "lat": 38.90526466666667, "is_reserved": 0}, {"lon": -77.0440285, "fusion_lon": 0.0, "bike_id": "75c8c7fdab11d852b2cae21e349b9376", "type": "electric_scooter", "name": "75c8c7fdab11d852b2cae21e349b9376", "rental_uris": {"android": "https://dc.lft.to/lastmile_qr_scan", "ios": "https://dc.lft.to/lastmile_qr_scan"}, "is_disabled": 0, "fusion_lat": 0.0, "lat": 38.91060216666666, "is_reserved": 0}, {"lon": -77.016644, "fusion_lon": 0.0, "bike_id": "8b884215884b88838f46f0d816a4c7fd", "type": "electric_scooter", "name": "8b884215884b88838f46f0d816a4c7fd", "rental_uris": {"android": "https://dc.lft.to/lastmile_qr_scan", "ios": "https://dc.lft.to/lastmile_qr_scan"}, "is_disabled": 0, "fusion_lat": 0.0, "lat": 38.881255833333334, "is_reserved": 0}, {"lon": -77.0363425, "fusion_lon": 0.0, "bike_id": "bf6575db97405b39667b0edc294a59cb", "type": "electric_scooter", "name": "bf6575db97405b39667b0edc294a59cb", "rental_uris": {"android": "https://dc.lft.to/lastmile_qr_scan", "ios": "https://dc.lft.to/lastmile_qr_scan"}, "is_disabled": 0, "fusion_lat": 0.0, "lat": 38.9274625, "is_reserved": 0}, {"lon": -77.03046583333334, "fusion_lon": 0.0, "bike_id": "37e25378bc07b22c505e95194b0be050", "type": "electric_scooter", "name": "37e25378bc07b22c505e95194b0be050", "rental_uris": {"android": "https://dc.lft.to/lastmile_qr_scan", "ios": "https://dc.lft.to/lastmile_qr_scan"}, "is_disabled": 0, "fusion_lat": 0.0, "lat": 38.91622733333333, "is_reserved": 0}, {"lon": -77.0339885, "fusion_lon": 0.0, "bike_id": "6b8ebc9dc01e19b1d8663e366abad22e", "type": "electric_scooter", "name": "6b8ebc9dc01e19b1d8663e366abad22e", "rental_uris": {"android": "https://dc.lft.to/lastmile_qr_scan", "ios": "https://dc.lft.to/lastmile_qr_scan"}, "is_disabled": 0, "fusion_lat": 0.0, "lat": 38.92203133333334, "is_reserved": 0}, {"lon": -77.03188983333334, "fusion_lon": 0.0, "bike_id": "5eb6bf1ce5e04c08d5d0e78cf0e8b585", "type": "electric_scooter", "name": "5eb6bf1ce5e04c08d5d0e78cf0e8b585", "rental_uris": {"android": "https://dc.lft.to/lastmile_qr_scan", "ios": "https://dc.lft.to/lastmile_qr_scan"}, "is_disabled": 0, "fusion_lat": 0.0, "lat": 38.90982983333333, "is_reserved": 0}, {"lon": -76.99603216666667, "fusion_lon": 0.0, "bike_id": "11b7b9e49ebdb76549472caae9ba38d4", "type": "electric_scooter", "name": "11b7b9e49ebdb76549472caae9ba38d4", "rental_uris": {"android": "https://dc.lft.to/lastmile_qr_scan", "ios": "https://dc.lft.to/lastmile_qr_scan"}, "is_disabled": 0, "fusion_lat": 0.0, "lat": 38.85692233333333, "is_reserved": 0}, {"lon": -77.02347783333333, "fusion_lon": 0.0, "bike_id": "081a159363a6f69e824a0b5e0fa252bf", "type": "electric_scooter", "name": "081a159363a6f69e824a0b5e0fa252bf", "rental_uris": {"android": "https://dc.lft.to/lastmile_qr_scan", "ios": "https://dc.lft.to/lastmile_qr_scan"}, "is_disabled": 0, "fusion_lat": 0.0, "lat": 38.893942333333335, "is_reserved": 0}, {"lon": -77.0044435, "fusion_lon": 0.0, "bike_id": "e76bb7e495a60f5250f82779fc18ec7d", "type": "electric_bike", "name": "e76bb7e495a60f5250f82779fc18ec7d", "rental_uris": {"android": "https://dc.lft.to/lastmile_qr_scan", "ios": "https://dc.lft.to/lastmile_qr_scan"}, "is_disabled": 0, "fusion_lat": 0.0, "lat": 38.91191366666666, "is_reserved": 0}, {"lon": -77.00771016666667, "fusion_lon": 0.0, "bike_id": "459b97d279d6591de6aa34d1e8bccda1", "type": "electric_scooter", "name": "459b97d279d6591de6aa34d1e8bccda1", "rental_uris": {"android": "https://dc.lft.to/lastmile_qr_scan", "ios": "https://dc.lft.to/lastmile_qr_scan"}, "is_disabled": 0, "fusion_lat": 0.0, "lat": 38.907126833333336, "is_reserved": 0}, {"lon": -76.98086916666666, "fusion_lon": 0.0, "bike_id": "943e59b9792e49e7fe5eb9d7ff49381e", "type": "electric_scooter", "name": "943e59b9792e49e7fe5eb9d7ff49381e", "rental_uris": {"android": "https://dc.lft.to/lastmile_qr_scan", "ios": "https://dc.lft.to/lastmile_qr_scan"}, "is_disabled": 0, "fusion_lat": 0.0, "lat": 38.922448333333335, "is_reserved": 0}, {"lon": -77.03259616666666, "fusion_lon": 0.0, "bike_id": "29939a48780561f23f64158498798709", "type": "electric_scooter", "name": "29939a48780561f23f64158498798709", "rental_uris": {"android": "https://dc.lft.to/lastmile_qr_scan", "ios": "https://dc.lft.to/lastmile_qr_scan"}, "is_disabled": 0, "fusion_lat": 0.0, "lat": 38.9012195, "is_reserved": 0}, {"lon": -76.99503616666667, "fusion_lon": 0.0, "bike_id": "d4037ae3f9a3d19c08c9a4f5306585e0", "type": "electric_scooter", "name": "d4037ae3f9a3d19c08c9a4f5306585e0", "rental_uris": {"android": "https://dc.lft.to/lastmile_qr_scan", "ios": "https://dc.lft.to/lastmile_qr_scan"}, "is_disabled": 0, "fusion_lat": 0.0, "lat": 38.909799666666665, "is_reserved": 0}, {"lon": -77.033824, "fusion_lon": 0.0, "bike_id": "b6ebbdca52962db6411fda0e9142c716", "type": "electric_scooter", "name": "b6ebbdca52962db6411fda0e9142c716", "rental_uris": {"android": "https://dc.lft.to/lastmile_qr_scan", "ios": "https://dc.lft.to/lastmile_qr_scan"}, "is_disabled": 0, "fusion_lat": 0.0, "lat": 38.92158466666667, "is_reserved": 0}, {"lon": -77.03459633333334, "fusion_lon": 0.0, "bike_id": "340da37188f1f87386f7f337689cd400", "type": "electric_scooter", "name": "340da37188f1f87386f7f337689cd400", "rental_uris": {"android": "https://dc.lft.to/lastmile_qr_scan", "ios": "https://dc.lft.to/lastmile_qr_scan"}, "is_disabled": 0, "fusion_lat": 0.0, "lat": 38.902735, "is_reserved": 0}, {"lon": -77.00760183333334, "fusion_lon": 0.0, "bike_id": "d5df5b96c23ab6c4af4c9efb06157622", "type": "electric_scooter", "name": "d5df5b96c23ab6c4af4c9efb06157622", "rental_uris": {"android": "https://dc.lft.to/lastmile_qr_scan", "ios": "https://dc.lft.to/lastmile_qr_scan"}, "is_disabled": 0, "fusion_lat": 0.0, "lat": 38.87117216666667, "is_reserved": 0}, {"lon": -77.0269885, "fusion_lon": 0.0, "bike_id": "8cf9b96b57664b921b31b11137de7f97", "type": "electric_scooter", "name": "8cf9b96b57664b921b31b11137de7f97", "rental_uris": {"android": "https://dc.lft.to/lastmile_qr_scan", "ios": "https://dc.lft.to/lastmile_qr_scan"}, "is_disabled": 0, "fusion_lat": 0.0, "lat": 38.90847733333333, "is_reserved": 0}, {"lon": -77.01664216666667, "fusion_lon": 0.0, "bike_id": "fa6abf2ce5db45bd9a2dfb9483f4cfc0", "type": "electric_scooter", "name": "fa6abf2ce5db45bd9a2dfb9483f4cfc0", "rental_uris": {"android": "https://dc.lft.to/lastmile_qr_scan", "ios": "https://dc.lft.to/lastmile_qr_scan"}, "is_disabled": 0, "fusion_lat": 0.0, "lat": 38.92045983333333, "is_reserved": 0}, {"lon": -77.023787, "fusion_lon": 0.0, "bike_id": "251646b2a25005642e94d1af99093582", "type": "electric_scooter", "name": "251646b2a25005642e94d1af99093582", "rental_uris": {"android": "https://dc.lft.to/lastmile_qr_scan", "ios": "https://dc.lft.to/lastmile_qr_scan"}, "is_disabled": 0, "fusion_lat": 0.0, "lat": 38.90689583333333, "is_reserved": 0}, {"lon": -76.98205166666666, "fusion_lon": 0.0, "bike_id": "f0068ef4c3c3436b59b7141b48ba9ef7", "type": "electric_bike", "name": "f0068ef4c3c3436b59b7141b48ba9ef7", "rental_uris": {"android": "https://dc.lft.to/lastmile_qr_scan", "ios": "https://dc.lft.to/lastmile_qr_scan"}, "is_disabled": 0, "fusion_lat": 0.0, "lat": 38.98502533333333, "is_reserved": 0}, {"lon": -77.0359825, "fusion_lon": 0.0, "bike_id": "cb285e08c16460824ffbb963c1f32284", "type": "electric_scooter", "name": "cb285e08c16460824ffbb963c1f32284", "rental_uris": {"android": "https://dc.lft.to/lastmile_qr_scan", "ios": "https://dc.lft.to/lastmile_qr_scan"}, "is_disabled": 0, "fusion_lat": 0.0, "lat": 38.931449, "is_reserved": 0}, {"lon": -77.03271733333334, "fusion_lon": 0.0, "bike_id": "d84ebcbd92cf11344f396e0e01cbec15", "type": "electric_scooter", "name": "d84ebcbd92cf11344f396e0e01cbec15", "rental_uris": {"android": "https://dc.lft.to/lastmile_qr_scan", "ios": "https://dc.lft.to/lastmile_qr_scan"}, "is_disabled": 0, "fusion_lat": 0.0, "lat": 38.932598166666665, "is_reserved": 0}, {"lon": -77.0347235, "fusion_lon": 0.0, "bike_id": "be68f1654d0deaf7ed2672f692f7f60b", "type": "electric_scooter", "name": "be68f1654d0deaf7ed2672f692f7f60b", "rental_uris": {"android": "https://dc.lft.to/lastmile_qr_scan", "ios": "https://dc.lft.to/lastmile_qr_scan"}, "is_disabled": 0, "fusion_lat": 0.0, "lat": 38.908369666666665, "is_reserved": 0}, {"lon": -76.96709383333334, "fusion_lon": 0.0, "bike_id": "8cf2ecb4ee6c3ea94a6c622e3ccc390e", "type": "electric_scooter", "name": "8cf2ecb4ee6c3ea94a6c622e3ccc390e", "rental_uris": {"android": "https://dc.lft.to/lastmile_qr_scan", "ios": "https://dc.lft.to/lastmile_qr_scan"}, "is_disabled": 0, "fusion_lat": 0.0, "lat": 38.8603655, "is_reserved": 0}, {"lon": -77.050479, "fusion_lon": 0.0, "bike_id": "c8f1cd85b9af92b4496e6bd787eb851d", "type": "electric_scooter", "name": "c8f1cd85b9af92b4496e6bd787eb851d", "rental_uris": {"android": "https://dc.lft.to/lastmile_qr_scan", "ios": "https://dc.lft.to/lastmile_qr_scan"}, "is_disabled": 0, "fusion_lat": 0.0, "lat": 38.92358133333333, "is_reserved": 0}, {"lon": -77.0364385, "fusion_lon": 0.0, "bike_id": "243e0e612f523cb27c4ecc761e512b03", "type": "electric_scooter", "name": "243e0e612f523cb27c4ecc761e512b03", "rental_uris": {"android": "https://dc.lft.to/lastmile_qr_scan", "ios": "https://dc.lft.to/lastmile_qr_scan"}, "is_disabled": 0, "fusion_lat": 0.0, "lat": 38.918270666666665, "is_reserved": 0}, {"lon": -77.04875766666666, "fusion_lon": 0.0, "bike_id": "7ebad4d8fad6ded75bc2b92972f6e891", "type": "electric_scooter", "name": "7ebad4d8fad6ded75bc2b92972f6e891", "rental_uris": {"android": "https://dc.lft.to/lastmile_qr_scan", "ios": "https://dc.lft.to/lastmile_qr_scan"}, "is_disabled": 0, "fusion_lat": 0.0, "lat": 38.9097375, "is_reserved": 0}, {"lon": -77.09722716666667, "fusion_lon": 0.0, "bike_id": "9cc078237884fd957f6f945e8ca46cc4", "type": "electric_scooter", "name": "9cc078237884fd957f6f945e8ca46cc4", "rental_uris": {"android": "https://dc.lft.to/lastmile_qr_scan", "ios": "https://dc.lft.to/lastmile_qr_scan"}, "is_disabled": 0, "fusion_lat": 0.0, "lat": 38.951, "is_reserved": 0}, {"lon": -77.03601566666667, "fusion_lon": 0.0, "bike_id": "ea3ad9a477c119bbcb1d1b7114cc6bcc", "type": "electric_scooter", "name": "ea3ad9a477c119bbcb1d1b7114cc6bcc", "rental_uris": {"android": "https://dc.lft.to/lastmile_qr_scan", "ios": "https://dc.lft.to/lastmile_qr_scan"}, "is_disabled": 0, "fusion_lat": 0.0, "lat": 38.93148016666667, "is_reserved": 0}, {"lon": -77.01238083333334, "fusion_lon": 0.0, "bike_id": "15593e75fa0bdb273f28e59e9b436785", "type": "electric_scooter", "name": "15593e75fa0bdb273f28e59e9b436785", "rental_uris": {"android": "https://dc.lft.to/lastmile_qr_scan", "ios": "https://dc.lft.to/lastmile_qr_scan"}, "is_disabled": 0, "fusion_lat": 0.0, "lat": 38.90034266666667, "is_reserved": 0}, {"lon": -77.00406416666667, "fusion_lon": 0.0, "bike_id": "dc52e38f38776dc660b8f3dbaa20db5c", "type": "electric_scooter", "name": "dc52e38f38776dc660b8f3dbaa20db5c", "rental_uris": {"android": "https://dc.lft.to/lastmile_qr_scan", "ios": "https://dc.lft.to/lastmile_qr_scan"}, "is_disabled": 0, "fusion_lat": 0.0, "lat": 38.8792525, "is_reserved": 0}, {"lon": -77.0029545, "fusion_lon": 0.0, "bike_id": "08ac1a99760bd63d11d72f1dd755acdd", "type": "electric_scooter", "name": "08ac1a99760bd63d11d72f1dd755acdd", "rental_uris": {"android": "https://dc.lft.to/lastmile_qr_scan", "ios": "https://dc.lft.to/lastmile_qr_scan"}, "is_disabled": 0, "fusion_lat": 0.0, "lat": 38.91817183333333, "is_reserved": 0}, {"lon": -77.00239833333333, "fusion_lon": 0.0, "bike_id": "df0a0c9f302379e373c18b97cff463ea", "type": "electric_scooter", "name": "df0a0c9f302379e373c18b97cff463ea", "rental_uris": {"android": "https://dc.lft.to/lastmile_qr_scan", "ios": "https://dc.lft.to/lastmile_qr_scan"}, "is_disabled": 0, "fusion_lat": 0.0, "lat": 38.874816333333335, "is_reserved": 0}, {"lon": -76.987172, "fusion_lon": 0.0, "bike_id": "918c4da4b2f978c92ce5757270ae5759", "type": "electric_scooter", "name": "918c4da4b2f978c92ce5757270ae5759", "rental_uris": {"android": "https://dc.lft.to/lastmile_qr_scan", "ios": "https://dc.lft.to/lastmile_qr_scan"}, "is_disabled": 0, "fusion_lat": 0.0, "lat": 38.86625816666667, "is_reserved": 0}, {"lon": -77.031753, "fusion_lon": 0.0, "bike_id": "cfb6806c5238aba03033ea148ba017d5", "type": "electric_scooter", "name": "cfb6806c5238aba03033ea148ba017d5", "rental_uris": {"android": "https://dc.lft.to/lastmile_qr_scan", "ios": "https://dc.lft.to/lastmile_qr_scan"}, "is_disabled": 0, "fusion_lat": 0.0, "lat": 38.91604233333333, "is_reserved": 0}, {"lon": -76.99584366666667, "fusion_lon": 0.0, "bike_id": "f120481ad46cf8e23e3e5a2bbed44ce6", "type": "electric_scooter", "name": "f120481ad46cf8e23e3e5a2bbed44ce6", "rental_uris": {"android": "https://dc.lft.to/lastmile_qr_scan", "ios": "https://dc.lft.to/lastmile_qr_scan"}, "is_disabled": 0, "fusion_lat": 0.0, "lat": 38.85179266666667, "is_reserved": 0}, {"lon": -77.021759, "fusion_lon": 0.0, "bike_id": "08ab1247c1705f1cc7fcceb0706da705", "type": "electric_scooter", "name": "08ab1247c1705f1cc7fcceb0706da705", "rental_uris": {"android": "https://dc.lft.to/lastmile_qr_scan", "ios": "https://dc.lft.to/lastmile_qr_scan"}, "is_disabled": 0, "fusion_lat": 0.0, "lat": 38.9057205, "is_reserved": 0}, {"lon": -77.03223833333334, "fusion_lon": 0.0, "bike_id": "081af0f73baabf64fcbbc36e2e0fad33", "type": "electric_scooter", "name": "081af0f73baabf64fcbbc36e2e0fad33", "rental_uris": {"android": "https://dc.lft.to/lastmile_qr_scan", "ios": "https://dc.lft.to/lastmile_qr_scan"}, "is_disabled": 0, "fusion_lat": 0.0, "lat": 38.918438, "is_reserved": 0}, {"lon": -77.02202466666667, "fusion_lon": 0.0, "bike_id": "405718144fca332e8a8d68bb13af74d6", "type": "electric_scooter", "name": "405718144fca332e8a8d68bb13af74d6", "rental_uris": {"android": "https://dc.lft.to/lastmile_qr_scan", "ios": "https://dc.lft.to/lastmile_qr_scan"}, "is_disabled": 0, "fusion_lat": 0.0, "lat": 38.90171316666667, "is_reserved": 0}, {"lon": -77.032165, "fusion_lon": 0.0, "bike_id": "52da46d16642cba385386cddabc69522", "type": "electric_scooter", "name": "52da46d16642cba385386cddabc69522", "rental_uris": {"android": "https://dc.lft.to/lastmile_qr_scan", "ios": "https://dc.lft.to/lastmile_qr_scan"}, "is_disabled": 0, "fusion_lat": 0.0, "lat": 38.9013605, "is_reserved": 0}, {"lon": -77.05047466666667, "fusion_lon": 0.0, "bike_id": "631ffd58458f03a9fbbe96ad01e59a0a", "type": "electric_scooter", "name": "631ffd58458f03a9fbbe96ad01e59a0a", "rental_uris": {"android": "https://dc.lft.to/lastmile_qr_scan", "ios": "https://dc.lft.to/lastmile_qr_scan"}, "is_disabled": 0, "fusion_lat": 0.0, "lat": 38.9235815, "is_reserved": 0}, {"lon": -77.03104783333333, "fusion_lon": 0.0, "bike_id": "7e601a13025e7bc114201677d0a953cd", "type": "electric_scooter", "name": "7e601a13025e7bc114201677d0a953cd", "rental_uris": {"android": "https://dc.lft.to/lastmile_qr_scan", "ios": "https://dc.lft.to/lastmile_qr_scan"}, "is_disabled": 0, "fusion_lat": 0.0, "lat": 38.883237333333334, "is_reserved": 0}, {"lon": -77.02817183333333, "fusion_lon": 0.0, "bike_id": "52ca4033ac5ecd3719f67e870fa3f405", "type": "electric_scooter", "name": "52ca4033ac5ecd3719f67e870fa3f405", "rental_uris": {"android": "https://dc.lft.to/lastmile_qr_scan", "ios": "https://dc.lft.to/lastmile_qr_scan"}, "is_disabled": 0, "fusion_lat": 0.0, "lat": 38.902719, "is_reserved": 0}, {"lon": -77.04512333333334, "fusion_lon": 0.0, "bike_id": "15081d347711e221b440239e48fed746", "type": "electric_scooter", "name": "15081d347711e221b440239e48fed746", "rental_uris": {"android": "https://dc.lft.to/lastmile_qr_scan", "ios": "https://dc.lft.to/lastmile_qr_scan"}, "is_disabled": 0, "fusion_lat": 0.0, "lat": 38.899534833333334, "is_reserved": 0}, {"lon": -77.02909266666667, "fusion_lon": 0.0, "bike_id": "6f4dd4a60a4c0266d2474206b6e76be3", "type": "electric_scooter", "name": "6f4dd4a60a4c0266d2474206b6e76be3", "rental_uris": {"android": "https://dc.lft.to/lastmile_qr_scan", "ios": "https://dc.lft.to/lastmile_qr_scan"}, "is_disabled": 0, "fusion_lat": 0.0, "lat": 38.91703116666667, "is_reserved": 0}, {"lon": -77.04999433333333, "fusion_lon": 0.0, "bike_id": "34b572a9d6dff45c2dbe6dd9d9cf6398", "type": "electric_scooter", "name": "34b572a9d6dff45c2dbe6dd9d9cf6398", "rental_uris": {"android": "https://dc.lft.to/lastmile_qr_scan", "ios": "https://dc.lft.to/lastmile_qr_scan"}, "is_disabled": 0, "fusion_lat": 0.0, "lat": 38.90078116666667, "is_reserved": 0}, {"lon": -77.04258, "fusion_lon": 0.0, "bike_id": "360b56d9e1fe6a9318e4b4f9499727a0", "type": "electric_scooter", "name": "360b56d9e1fe6a9318e4b4f9499727a0", "rental_uris": {"android": "https://dc.lft.to/lastmile_qr_scan", "ios": "https://dc.lft.to/lastmile_qr_scan"}, "is_disabled": 0, "fusion_lat": 0.0, "lat": 38.906340666666665, "is_reserved": 0}, {"lon": -77.0270575, "fusion_lon": 0.0, "bike_id": "b39403f3f556ec6a6244b15f2e353b8a", "type": "electric_scooter", "name": "b39403f3f556ec6a6244b15f2e353b8a", "rental_uris": {"android": "https://dc.lft.to/lastmile_qr_scan", "ios": "https://dc.lft.to/lastmile_qr_scan"}, "is_disabled": 0, "fusion_lat": 0.0, "lat": 38.949821, "is_reserved": 0}, {"lon": -77.04175916666667, "fusion_lon": 0.0, "bike_id": "53847f8be1d34cee9e684ae42383e9ad", "type": "electric_scooter", "name": "53847f8be1d34cee9e684ae42383e9ad", "rental_uris": {"android": "https://dc.lft.to/lastmile_qr_scan", "ios": "https://dc.lft.to/lastmile_qr_scan"}, "is_disabled": 0, "fusion_lat": 0.0, "lat": 38.9151025, "is_reserved": 0}, {"lon": -76.9896245, "fusion_lon": 0.0, "bike_id": "1fd749d409c2bb232a3f07fe6c4e5c6c", "type": "electric_scooter", "name": "1fd749d409c2bb232a3f07fe6c4e5c6c", "rental_uris": {"android": "https://dc.lft.to/lastmile_qr_scan", "ios": "https://dc.lft.to/lastmile_qr_scan"}, "is_disabled": 0, "fusion_lat": 0.0, "lat": 38.85883183333333, "is_reserved": 0}, {"lon": -77.0122045, "fusion_lon": 0.0, "bike_id": "99e6b205e7ce022ff4fdcc4e9ab560c5", "type": "electric_scooter", "name": "99e6b205e7ce022ff4fdcc4e9ab560c5", "rental_uris": {"android": "https://dc.lft.to/lastmile_qr_scan", "ios": "https://dc.lft.to/lastmile_qr_scan"}, "is_disabled": 0, "fusion_lat": 0.0, "lat": 38.91342866666667, "is_reserved": 0}, {"lon": -77.0352695, "fusion_lon": 0.0, "bike_id": "c99c61b7e9069b0c0750b82b364d9a5b", "type": "electric_scooter", "name": "c99c61b7e9069b0c0750b82b364d9a5b", "rental_uris": {"android": "https://dc.lft.to/lastmile_qr_scan", "ios": "https://dc.lft.to/lastmile_qr_scan"}, "is_disabled": 0, "fusion_lat": 0.0, "lat": 38.92538783333333, "is_reserved": 0}, {"lon": -77.043363, "fusion_lon": 0.0, "bike_id": "84566d64ad2e49524b3b5341373fcf73", "type": "electric_scooter", "name": "84566d64ad2e49524b3b5341373fcf73", "rental_uris": {"android": "https://dc.lft.to/lastmile_qr_scan", "ios": "https://dc.lft.to/lastmile_qr_scan"}, "is_disabled": 0, "fusion_lat": 0.0, "lat": 38.90755816666667, "is_reserved": 0}, {"lon": -77.04224983333333, "fusion_lon": 0.0, "bike_id": "cfe83604974a583a034cf7cb84fc3ee8", "type": "electric_scooter", "name": "cfe83604974a583a034cf7cb84fc3ee8", "rental_uris": {"android": "https://dc.lft.to/lastmile_qr_scan", "ios": "https://dc.lft.to/lastmile_qr_scan"}, "is_disabled": 0, "fusion_lat": 0.0, "lat": 38.92621583333333, "is_reserved": 0}, {"lon": -76.9969455, "fusion_lon": 0.0, "bike_id": "fbebf0a8170e4180fce3bf0998e3ae92", "type": "electric_scooter", "name": "fbebf0a8170e4180fce3bf0998e3ae92", "rental_uris": {"android": "https://dc.lft.to/lastmile_qr_scan", "ios": "https://dc.lft.to/lastmile_qr_scan"}, "is_disabled": 0, "fusion_lat": 0.0, "lat": 38.88422166666667, "is_reserved": 0}, {"lon": -77.0262145, "fusion_lon": 0.0, "bike_id": "f3ec79e570c2a7b1726c1d0dd846b4f4", "type": "electric_scooter", "name": "f3ec79e570c2a7b1726c1d0dd846b4f4", "rental_uris": {"android": "https://dc.lft.to/lastmile_qr_scan", "ios": "https://dc.lft.to/lastmile_qr_scan"}, "is_disabled": 0, "fusion_lat": 0.0, "lat": 38.898384666666665, "is_reserved": 0}, {"lon": -77.02793083333333, "fusion_lon": 0.0, "bike_id": "114d8699d922770468ebd1fdb8f481fc", "type": "electric_scooter", "name": "114d8699d922770468ebd1fdb8f481fc", "rental_uris": {"android": "https://dc.lft.to/lastmile_qr_scan", "ios": "https://dc.lft.to/lastmile_qr_scan"}, "is_disabled": 0, "fusion_lat": 0.0, "lat": 38.91713633333333, "is_reserved": 0}, {"lon": -77.031745, "fusion_lon": 0.0, "bike_id": "1b6b78ddaa9f1b56b3c4cd61ead49c19", "type": "electric_scooter", "name": "1b6b78ddaa9f1b56b3c4cd61ead49c19", "rental_uris": {"android": "https://dc.lft.to/lastmile_qr_scan", "ios": "https://dc.lft.to/lastmile_qr_scan"}, "is_disabled": 0, "fusion_lat": 0.0, "lat": 38.9156175, "is_reserved": 0}, {"lon": -77.03193883333333, "fusion_lon": 0.0, "bike_id": "8818f2dcc73245fa9b9960ce32e5a57f", "type": "electric_scooter", "name": "8818f2dcc73245fa9b9960ce32e5a57f", "rental_uris": {"android": "https://dc.lft.to/lastmile_qr_scan", "ios": "https://dc.lft.to/lastmile_qr_scan"}, "is_disabled": 0, "fusion_lat": 0.0, "lat": 38.9043495, "is_reserved": 0}, {"lon": -77.05727016666667, "fusion_lon": 0.0, "bike_id": "4845b9ec7cb29860946c16678a0824ec", "type": "electric_scooter", "name": "4845b9ec7cb29860946c16678a0824ec", "rental_uris": {"android": "https://dc.lft.to/lastmile_qr_scan", "ios": "https://dc.lft.to/lastmile_qr_scan"}, "is_disabled": 0, "fusion_lat": 0.0, "lat": 38.933679, "is_reserved": 0}, {"lon": -77.1068755, "fusion_lon": 0.0, "bike_id": "83ee7b3d1149ba7dc4c5f83b03247ffa", "type": "electric_bike", "name": "83ee7b3d1149ba7dc4c5f83b03247ffa", "rental_uris": {"android": "https://dc.lft.to/lastmile_qr_scan", "ios": "https://dc.lft.to/lastmile_qr_scan"}, "is_disabled": 0, "fusion_lat": 0.0, "lat": 38.864482333333335, "is_reserved": 0}, {"lon": -77.05152216666667, "fusion_lon": 0.0, "bike_id": "efa86b1c0e218457eb45470690843837", "type": "electric_scooter", "name": "efa86b1c0e218457eb45470690843837", "rental_uris": {"android": "https://dc.lft.to/lastmile_qr_scan", "ios": "https://dc.lft.to/lastmile_qr_scan"}, "is_disabled": 0, "fusion_lat": 0.0, "lat": 38.92374783333333, "is_reserved": 0}, {"lon": -77.05589066666667, "fusion_lon": 0.0, "bike_id": "bd6983df2b01ba1ba812f9469a0dd78e", "type": "electric_scooter", "name": "bd6983df2b01ba1ba812f9469a0dd78e", "rental_uris": {"android": "https://dc.lft.to/lastmile_qr_scan", "ios": "https://dc.lft.to/lastmile_qr_scan"}, "is_disabled": 0, "fusion_lat": 0.0, "lat": 38.934308, "is_reserved": 0}, {"lon": -77.00894716666667, "fusion_lon": 0.0, "bike_id": "60bebf0748835108241bd78d799ea70f", "type": "electric_scooter", "name": "60bebf0748835108241bd78d799ea70f", "rental_uris": {"android": "https://dc.lft.to/lastmile_qr_scan", "ios": "https://dc.lft.to/lastmile_qr_scan"}, "is_disabled": 0, "fusion_lat": 0.0, "lat": 38.885000833333336, "is_reserved": 0}, {"lon": -77.05292666666666, "fusion_lon": 0.0, "bike_id": "954e14c273b93b8d36d3af579ec372c2", "type": "electric_scooter", "name": "954e14c273b93b8d36d3af579ec372c2", "rental_uris": {"android": "https://dc.lft.to/lastmile_qr_scan", "ios": "https://dc.lft.to/lastmile_qr_scan"}, "is_disabled": 0, "fusion_lat": 0.0, "lat": 38.90354466666667, "is_reserved": 0}, {"lon": -77.02801316666667, "fusion_lon": 0.0, "bike_id": "1bee9c6b0a61744a2be7f71e3df73d2c", "type": "electric_scooter", "name": "1bee9c6b0a61744a2be7f71e3df73d2c", "rental_uris": {"android": "https://dc.lft.to/lastmile_qr_scan", "ios": "https://dc.lft.to/lastmile_qr_scan"}, "is_disabled": 0, "fusion_lat": 0.0, "lat": 38.9392925, "is_reserved": 0}, {"lon": -77.007382, "fusion_lon": 0.0, "bike_id": "57b18b85f2793d71345a8ef5dd804da6", "type": "electric_scooter", "name": "57b18b85f2793d71345a8ef5dd804da6", "rental_uris": {"android": "https://dc.lft.to/lastmile_qr_scan", "ios": "https://dc.lft.to/lastmile_qr_scan"}, "is_disabled": 0, "fusion_lat": 0.0, "lat": 38.898202, "is_reserved": 0}, {"lon": -76.99662666666667, "fusion_lon": 0.0, "bike_id": "4e1a88f546acce6c8b8359db12c158da", "type": "electric_scooter", "name": "4e1a88f546acce6c8b8359db12c158da", "rental_uris": {"android": "https://dc.lft.to/lastmile_qr_scan", "ios": "https://dc.lft.to/lastmile_qr_scan"}, "is_disabled": 0, "fusion_lat": 0.0, "lat": 38.86006866666666, "is_reserved": 0}, {"lon": -77.02697583333334, "fusion_lon": 0.0, "bike_id": "aeab752999029de7444eb73d4e995fe6", "type": "electric_scooter", "name": "aeab752999029de7444eb73d4e995fe6", "rental_uris": {"android": "https://dc.lft.to/lastmile_qr_scan", "ios": "https://dc.lft.to/lastmile_qr_scan"}, "is_disabled": 0, "fusion_lat": 0.0, "lat": 38.908429166666664, "is_reserved": 0}, {"lon": -77.05045016666666, "fusion_lon": 0.0, "bike_id": "dd87cc6c30df21d1c66926db7c82420d", "type": "electric_scooter", "name": "dd87cc6c30df21d1c66926db7c82420d", "rental_uris": {"android": "https://dc.lft.to/lastmile_qr_scan", "ios": "https://dc.lft.to/lastmile_qr_scan"}, "is_disabled": 0, "fusion_lat": 0.0, "lat": 38.92359483333333, "is_reserved": 0}, {"lon": -77.02608166666667, "fusion_lon": 0.0, "bike_id": "8ab294b5b5aaf587866c034764b3f156", "type": "electric_scooter", "name": "8ab294b5b5aaf587866c034764b3f156", "rental_uris": {"android": "https://dc.lft.to/lastmile_qr_scan", "ios": "https://dc.lft.to/lastmile_qr_scan"}, "is_disabled": 0, "fusion_lat": 0.0, "lat": 38.92848083333333, "is_reserved": 0}, {"lon": -76.93340133333334, "fusion_lon": 0.0, "bike_id": "46d8ec939b554e4a63af1256599cfd3a", "type": "electric_scooter", "name": "46d8ec939b554e4a63af1256599cfd3a", "rental_uris": {"android": "https://dc.lft.to/lastmile_qr_scan", "ios": "https://dc.lft.to/lastmile_qr_scan"}, "is_disabled": 0, "fusion_lat": 0.0, "lat": 38.90866583333333, "is_reserved": 0}, {"lon": -77.005748, "fusion_lon": 0.0, "bike_id": "2fb394f0cabf0a52d84bf70b756356f5", "type": "electric_scooter", "name": "2fb394f0cabf0a52d84bf70b756356f5", "rental_uris": {"android": "https://dc.lft.to/lastmile_qr_scan", "ios": "https://dc.lft.to/lastmile_qr_scan"}, "is_disabled": 0, "fusion_lat": 0.0, "lat": 38.905739, "is_reserved": 0}, {"lon": -77.00085733333333, "fusion_lon": 0.0, "bike_id": "8c9aba0d34a7014eeeb4e7f14dfca34c", "type": "electric_scooter", "name": "8c9aba0d34a7014eeeb4e7f14dfca34c", "rental_uris": {"android": "https://dc.lft.to/lastmile_qr_scan", "ios": "https://dc.lft.to/lastmile_qr_scan"}, "is_disabled": 0, "fusion_lat": 0.0, "lat": 38.875386, "is_reserved": 0}, {"lon": -76.985906, "fusion_lon": 0.0, "bike_id": "feb4ca333b3bf1919570aef037dc6b51", "type": "electric_scooter", "name": "feb4ca333b3bf1919570aef037dc6b51", "rental_uris": {"android": "https://dc.lft.to/lastmile_qr_scan", "ios": "https://dc.lft.to/lastmile_qr_scan"}, "is_disabled": 0, "fusion_lat": 0.0, "lat": 38.883979, "is_reserved": 0}, {"lon": -77.00788, "fusion_lon": 0.0, "bike_id": "7124fb3fe186c3a1102e9643939ec17f", "type": "electric_scooter", "name": "7124fb3fe186c3a1102e9643939ec17f", "rental_uris": {"android": "https://dc.lft.to/lastmile_qr_scan", "ios": "https://dc.lft.to/lastmile_qr_scan"}, "is_disabled": 0, "fusion_lat": 0.0, "lat": 38.905629, "is_reserved": 0}, {"lon": -76.935596, "fusion_lon": 0.0, "bike_id": "c62139440fc711224cdc2f2eda2da3bc", "type": "electric_scooter", "name": "c62139440fc711224cdc2f2eda2da3bc", "rental_uris": {"android": "https://dc.lft.to/lastmile_qr_scan", "ios": "https://dc.lft.to/lastmile_qr_scan"}, "is_disabled": 0, "fusion_lat": 0.0, "lat": 38.882598, "is_reserved": 0}, {"lon": -77.03642133333334, "fusion_lon": 0.0, "bike_id": "5fca8294037673b21b834180efe7df79", "type": "electric_scooter", "name": "5fca8294037673b21b834180efe7df79", "rental_uris": {"android": "https://dc.lft.to/lastmile_qr_scan", "ios": "https://dc.lft.to/lastmile_qr_scan"}, "is_disabled": 0, "fusion_lat": 0.0, "lat": 38.90129683333333, "is_reserved": 0}, {"lon": -77.03679766666667, "fusion_lon": 0.0, "bike_id": "06f0e3161b0794dac822e7a8b63ac96f", "type": "electric_scooter", "name": "06f0e3161b0794dac822e7a8b63ac96f", "rental_uris": {"android": "https://dc.lft.to/lastmile_qr_scan", "ios": "https://dc.lft.to/lastmile_qr_scan"}, "is_disabled": 0, "fusion_lat": 0.0, "lat": 38.908316666666664, "is_reserved": 0}, {"lon": -77.0046375, "fusion_lon": 0.0, "bike_id": "6e29ab5042b7435feef1c5151a7a00d2", "type": "electric_scooter", "name": "6e29ab5042b7435feef1c5151a7a00d2", "rental_uris": {"android": "https://dc.lft.to/lastmile_qr_scan", "ios": "https://dc.lft.to/lastmile_qr_scan"}, "is_disabled": 0, "fusion_lat": 0.0, "lat": 38.876700166666666, "is_reserved": 0}, {"lon": -77.07280066666667, "fusion_lon": 0.0, "bike_id": "7993dbd4aab2f90e7778f55c0015fc01", "type": "electric_scooter", "name": "7993dbd4aab2f90e7778f55c0015fc01", "rental_uris": {"android": "https://dc.lft.to/lastmile_qr_scan", "ios": "https://dc.lft.to/lastmile_qr_scan"}, "is_disabled": 0, "fusion_lat": 0.0, "lat": 38.934707833333334, "is_reserved": 0}, {"lon": -77.02492333333333, "fusion_lon": 0.0, "bike_id": "7cc159da99d840ccb40edb80ae04df6c", "type": "electric_scooter", "name": "7cc159da99d840ccb40edb80ae04df6c", "rental_uris": {"android": "https://dc.lft.to/lastmile_qr_scan", "ios": "https://dc.lft.to/lastmile_qr_scan"}, "is_disabled": 0, "fusion_lat": 0.0, "lat": 38.941817, "is_reserved": 0}, {"lon": -77.02281666666667, "fusion_lon": 0.0, "bike_id": "17fe0ddc6f206666b9c2db727529ea6f", "type": "electric_scooter", "name": "17fe0ddc6f206666b9c2db727529ea6f", "rental_uris": {"android": "https://dc.lft.to/lastmile_qr_scan", "ios": "https://dc.lft.to/lastmile_qr_scan"}, "is_disabled": 0, "fusion_lat": 0.0, "lat": 38.908606, "is_reserved": 0}, {"lon": -77.02224583333333, "fusion_lon": 0.0, "bike_id": "51c4ac3ca9daae736c8cf16379c33c90", "type": "electric_scooter", "name": "51c4ac3ca9daae736c8cf16379c33c90", "rental_uris": {"android": "https://dc.lft.to/lastmile_qr_scan", "ios": "https://dc.lft.to/lastmile_qr_scan"}, "is_disabled": 0, "fusion_lat": 0.0, "lat": 38.91273066666667, "is_reserved": 0}, {"lon": -77.002062, "fusion_lon": 0.0, "bike_id": "5f63dc8653a0ddd02a5867be745c9425", "type": "electric_scooter", "name": "5f63dc8653a0ddd02a5867be745c9425", "rental_uris": {"android": "https://dc.lft.to/lastmile_qr_scan", "ios": "https://dc.lft.to/lastmile_qr_scan"}, "is_disabled": 0, "fusion_lat": 0.0, "lat": 38.96558183333333, "is_reserved": 0}, {"lon": -77.02706733333333, "fusion_lon": 0.0, "bike_id": "185aebdb9801690bbed65103cbadcc91", "type": "electric_scooter", "name": "185aebdb9801690bbed65103cbadcc91", "rental_uris": {"android": "https://dc.lft.to/lastmile_qr_scan", "ios": "https://dc.lft.to/lastmile_qr_scan"}, "is_disabled": 0, "fusion_lat": 0.0, "lat": 38.907035, "is_reserved": 0}, {"lon": -77.02315883333333, "fusion_lon": 0.0, "bike_id": "0f76a361e4426a6dceca07e445194342", "type": "electric_scooter", "name": "0f76a361e4426a6dceca07e445194342", "rental_uris": {"android": "https://dc.lft.to/lastmile_qr_scan", "ios": "https://dc.lft.to/lastmile_qr_scan"}, "is_disabled": 0, "fusion_lat": 0.0, "lat": 38.91588516666667, "is_reserved": 0}, {"lon": -76.98359316666667, "fusion_lon": 0.0, "bike_id": "99485f48d49ce133c78d4868655375f0", "type": "electric_scooter", "name": "99485f48d49ce133c78d4868655375f0", "rental_uris": {"android": "https://dc.lft.to/lastmile_qr_scan", "ios": "https://dc.lft.to/lastmile_qr_scan"}, "is_disabled": 0, "fusion_lat": 0.0, "lat": 38.894392333333336, "is_reserved": 0}, {"lon": -77.00801666666666, "fusion_lon": 0.0, "bike_id": "5f2ab41a19de86353c63cb1cae0333a3", "type": "electric_bike", "name": "5f2ab41a19de86353c63cb1cae0333a3", "rental_uris": {"android": "https://dc.lft.to/lastmile_qr_scan", "ios": "https://dc.lft.to/lastmile_qr_scan"}, "is_disabled": 0, "fusion_lat": 0.0, "lat": 38.949145666666666, "is_reserved": 0}, {"lon": -77.044948, "fusion_lon": 0.0, "bike_id": "78d62dc1cc6f3f054568ff1eee4ad30d", "type": "electric_scooter", "name": "78d62dc1cc6f3f054568ff1eee4ad30d", "rental_uris": {"android": "https://dc.lft.to/lastmile_qr_scan", "ios": "https://dc.lft.to/lastmile_qr_scan"}, "is_disabled": 0, "fusion_lat": 0.0, "lat": 38.900084, "is_reserved": 0}, {"lon": -77.02796716666667, "fusion_lon": 0.0, "bike_id": "5fcb7537efada56561ec02b8794ad670", "type": "electric_scooter", "name": "5fcb7537efada56561ec02b8794ad670", "rental_uris": {"android": "https://dc.lft.to/lastmile_qr_scan", "ios": "https://dc.lft.to/lastmile_qr_scan"}, "is_disabled": 0, "fusion_lat": 0.0, "lat": 38.89878233333334, "is_reserved": 0}, {"lon": -77.00359733333333, "fusion_lon": 0.0, "bike_id": "e79a3fe363282ec1a77d99d9d6b3254c", "type": "electric_scooter", "name": "e79a3fe363282ec1a77d99d9d6b3254c", "rental_uris": {"android": "https://dc.lft.to/lastmile_qr_scan", "ios": "https://dc.lft.to/lastmile_qr_scan"}, "is_disabled": 0, "fusion_lat": 0.0, "lat": 38.88738216666667, "is_reserved": 0}, {"lon": -77.03855566666667, "fusion_lon": 0.0, "bike_id": "a73e458d633d74dd078b4901d7f5336f", "type": "electric_scooter", "name": "a73e458d633d74dd078b4901d7f5336f", "rental_uris": {"android": "https://dc.lft.to/lastmile_qr_scan", "ios": "https://dc.lft.to/lastmile_qr_scan"}, "is_disabled": 0, "fusion_lat": 0.0, "lat": 38.91709766666666, "is_reserved": 0}, {"lon": -77.02675916666666, "fusion_lon": 0.0, "bike_id": "48c82cf90f22017e0b002b2e90d90675", "type": "electric_scooter", "name": "48c82cf90f22017e0b002b2e90d90675", "rental_uris": {"android": "https://dc.lft.to/lastmile_qr_scan", "ios": "https://dc.lft.to/lastmile_qr_scan"}, "is_disabled": 0, "fusion_lat": 0.0, "lat": 38.89510816666667, "is_reserved": 0}, {"lon": -76.9974585, "fusion_lon": 0.0, "bike_id": "f986b00d3b4380c4e809494bf3142dae", "type": "electric_scooter", "name": "f986b00d3b4380c4e809494bf3142dae", "rental_uris": {"android": "https://dc.lft.to/lastmile_qr_scan", "ios": "https://dc.lft.to/lastmile_qr_scan"}, "is_disabled": 0, "fusion_lat": 0.0, "lat": 38.90129183333333, "is_reserved": 0}, {"lon": -77.04662083333334, "fusion_lon": 0.0, "bike_id": "cbf1e266ab5e2aa87e8e5cd49caa6b05", "type": "electric_scooter", "name": "cbf1e266ab5e2aa87e8e5cd49caa6b05", "rental_uris": {"android": "https://dc.lft.to/lastmile_qr_scan", "ios": "https://dc.lft.to/lastmile_qr_scan"}, "is_disabled": 0, "fusion_lat": 0.0, "lat": 38.89629466666667, "is_reserved": 0}, {"lon": -76.99813633333333, "fusion_lon": 0.0, "bike_id": "f78a7a576cb6eb83829aa6e9f559646c", "type": "electric_bike", "name": "f78a7a576cb6eb83829aa6e9f559646c", "rental_uris": {"android": "https://dc.lft.to/lastmile_qr_scan", "ios": "https://dc.lft.to/lastmile_qr_scan"}, "is_disabled": 0, "fusion_lat": 0.0, "lat": 38.837797, "is_reserved": 0}, {"lon": -77.003427, "fusion_lon": 0.0, "bike_id": "1e1419b5c6c9599051d29bd0d1b7c36e", "type": "electric_scooter", "name": "1e1419b5c6c9599051d29bd0d1b7c36e", "rental_uris": {"android": "https://dc.lft.to/lastmile_qr_scan", "ios": "https://dc.lft.to/lastmile_qr_scan"}, "is_disabled": 0, "fusion_lat": 0.0, "lat": 38.894702833333334, "is_reserved": 0}, {"lon": -76.978591, "fusion_lon": 0.0, "bike_id": "4119e4abaf25754b5273e3db665e181a", "type": "electric_bike", "name": "4119e4abaf25754b5273e3db665e181a", "rental_uris": {"android": "https://dc.lft.to/lastmile_qr_scan", "ios": "https://dc.lft.to/lastmile_qr_scan"}, "is_disabled": 0, "fusion_lat": 0.0, "lat": 38.84468533333333, "is_reserved": 0}, {"lon": -76.99522166666667, "fusion_lon": 0.0, "bike_id": "bc739f81380ce78f90f8d5f39504c41f", "type": "electric_scooter", "name": "bc739f81380ce78f90f8d5f39504c41f", "rental_uris": {"android": "https://dc.lft.to/lastmile_qr_scan", "ios": "https://dc.lft.to/lastmile_qr_scan"}, "is_disabled": 0, "fusion_lat": 0.0, "lat": 38.87923816666667, "is_reserved": 0}, {"lon": -76.96701833333333, "fusion_lon": 0.0, "bike_id": "e67b8517c49a084ecf43fe2663bff3f3", "type": "electric_scooter", "name": "e67b8517c49a084ecf43fe2663bff3f3", "rental_uris": {"android": "https://dc.lft.to/lastmile_qr_scan", "ios": "https://dc.lft.to/lastmile_qr_scan"}, "is_disabled": 0, "fusion_lat": 0.0, "lat": 38.860414666666664, "is_reserved": 0}, {"lon": -77.056619, "fusion_lon": 0.0, "bike_id": "06e26fc2b7b2794e14371edb023fbc5b", "type": "electric_scooter", "name": "06e26fc2b7b2794e14371edb023fbc5b", "rental_uris": {"android": "https://dc.lft.to/lastmile_qr_scan", "ios": "https://dc.lft.to/lastmile_qr_scan"}, "is_disabled": 0, "fusion_lat": 0.0, "lat": 38.90610133333333, "is_reserved": 0}, {"lon": -77.0318285, "fusion_lon": 0.0, "bike_id": "533842be3316f4d8015ebc6a0897481b", "type": "electric_scooter", "name": "533842be3316f4d8015ebc6a0897481b", "rental_uris": {"android": "https://dc.lft.to/lastmile_qr_scan", "ios": "https://dc.lft.to/lastmile_qr_scan"}, "is_disabled": 0, "fusion_lat": 0.0, "lat": 38.919269166666666, "is_reserved": 0}, {"lon": -77.05740233333333, "fusion_lon": 0.0, "bike_id": "0089449fd43a014c2da90e83f2cbb1ee", "type": "electric_scooter", "name": "0089449fd43a014c2da90e83f2cbb1ee", "rental_uris": {"android": "https://dc.lft.to/lastmile_qr_scan", "ios": "https://dc.lft.to/lastmile_qr_scan"}, "is_disabled": 0, "fusion_lat": 0.0, "lat": 38.93374083333333, "is_reserved": 0}, {"lon": -77.0228895, "fusion_lon": 0.0, "bike_id": "35e84d71bda7a751009e077560f09f2a", "type": "electric_scooter", "name": "35e84d71bda7a751009e077560f09f2a", "rental_uris": {"android": "https://dc.lft.to/lastmile_qr_scan", "ios": "https://dc.lft.to/lastmile_qr_scan"}, "is_disabled": 0, "fusion_lat": 0.0, "lat": 38.8970775, "is_reserved": 0}, {"lon": -77.03644616666666, "fusion_lon": 0.0, "bike_id": "c003c5549d16b60faf9c8ece45cb5c3e", "type": "electric_scooter", "name": "c003c5549d16b60faf9c8ece45cb5c3e", "rental_uris": {"android": "https://dc.lft.to/lastmile_qr_scan", "ios": "https://dc.lft.to/lastmile_qr_scan"}, "is_disabled": 0, "fusion_lat": 0.0, "lat": 38.918223833333336, "is_reserved": 0}, {"lon": -76.997418, "fusion_lon": 0.0, "bike_id": "4a88af85b6581df20edf78b6c4d82ebb", "type": "electric_scooter", "name": "4a88af85b6581df20edf78b6c4d82ebb", "rental_uris": {"android": "https://dc.lft.to/lastmile_qr_scan", "ios": "https://dc.lft.to/lastmile_qr_scan"}, "is_disabled": 0, "fusion_lat": 0.0, "lat": 38.90043083333333, "is_reserved": 0}, {"lon": -77.0059195, "fusion_lon": 0.0, "bike_id": "b1cf0e070d502b733a77d752aea6d488", "type": "electric_scooter", "name": "b1cf0e070d502b733a77d752aea6d488", "rental_uris": {"android": "https://dc.lft.to/lastmile_qr_scan", "ios": "https://dc.lft.to/lastmile_qr_scan"}, "is_disabled": 0, "fusion_lat": 0.0, "lat": 38.876558833333334, "is_reserved": 0}, {"lon": -77.02556033333333, "fusion_lon": 0.0, "bike_id": "121d655285d3284057028f4f5b0dc031", "type": "electric_scooter", "name": "121d655285d3284057028f4f5b0dc031", "rental_uris": {"android": "https://dc.lft.to/lastmile_qr_scan", "ios": "https://dc.lft.to/lastmile_qr_scan"}, "is_disabled": 0, "fusion_lat": 0.0, "lat": 38.90961883333333, "is_reserved": 0}, {"lon": -77.0876535, "fusion_lon": 0.0, "bike_id": "c00cff1d51296e04a876ba85edbc4ced", "type": "electric_bike", "name": "c00cff1d51296e04a876ba85edbc4ced", "rental_uris": {"android": "https://dc.lft.to/lastmile_qr_scan", "ios": "https://dc.lft.to/lastmile_qr_scan"}, "is_disabled": 0, "fusion_lat": 0.0, "lat": 38.80657183333334, "is_reserved": 0}, {"lon": -76.937324, "fusion_lon": 0.0, "bike_id": "e873f4b1ee8ed57f35ec37ddb7ac31d7", "type": "electric_scooter", "name": "e873f4b1ee8ed57f35ec37ddb7ac31d7", "rental_uris": {"android": "https://dc.lft.to/lastmile_qr_scan", "ios": "https://dc.lft.to/lastmile_qr_scan"}, "is_disabled": 0, "fusion_lat": 0.0, "lat": 38.890245166666666, "is_reserved": 0}, {"lon": -77.02698333333333, "fusion_lon": 0.0, "bike_id": "539e3cae20f5867b049b51f4e50b952a", "type": "electric_scooter", "name": "539e3cae20f5867b049b51f4e50b952a", "rental_uris": {"android": "https://dc.lft.to/lastmile_qr_scan", "ios": "https://dc.lft.to/lastmile_qr_scan"}, "is_disabled": 0, "fusion_lat": 0.0, "lat": 38.90846833333333, "is_reserved": 0}, {"lon": -77.01268866666666, "fusion_lon": 0.0, "bike_id": "5d08e2cd1a88c242396c14cdb3a4ff4b", "type": "electric_scooter", "name": "5d08e2cd1a88c242396c14cdb3a4ff4b", "rental_uris": {"android": "https://dc.lft.to/lastmile_qr_scan", "ios": "https://dc.lft.to/lastmile_qr_scan"}, "is_disabled": 0, "fusion_lat": 0.0, "lat": 38.915380666666664, "is_reserved": 0}, {"lon": -77.04358916666666, "fusion_lon": 0.0, "bike_id": "dd1bceed3910748f9d75404c374ec2bf", "type": "electric_scooter", "name": "dd1bceed3910748f9d75404c374ec2bf", "rental_uris": {"android": "https://dc.lft.to/lastmile_qr_scan", "ios": "https://dc.lft.to/lastmile_qr_scan"}, "is_disabled": 0, "fusion_lat": 0.0, "lat": 38.905101, "is_reserved": 0}, {"lon": -77.014066, "fusion_lon": 0.0, "bike_id": "7e0a20ff8e8a6cc94894e8a05fddd1b0", "type": "electric_scooter", "name": "7e0a20ff8e8a6cc94894e8a05fddd1b0", "rental_uris": {"android": "https://dc.lft.to/lastmile_qr_scan", "ios": "https://dc.lft.to/lastmile_qr_scan"}, "is_disabled": 0, "fusion_lat": 0.0, "lat": 38.928587666666665, "is_reserved": 0}, {"lon": -77.0021445, "fusion_lon": 0.0, "bike_id": "f0f863c4697ad0ba355314b96ca0236f", "type": "electric_scooter", "name": "f0f863c4697ad0ba355314b96ca0236f", "rental_uris": {"android": "https://dc.lft.to/lastmile_qr_scan", "ios": "https://dc.lft.to/lastmile_qr_scan"}, "is_disabled": 0, "fusion_lat": 0.0, "lat": 38.895285666666666, "is_reserved": 0}, {"lon": -76.990793, "fusion_lon": 0.0, "bike_id": "b3106d265371df337ae116921f539dee", "type": "electric_bike", "name": "b3106d265371df337ae116921f539dee", "rental_uris": {"android": "https://dc.lft.to/lastmile_qr_scan", "ios": "https://dc.lft.to/lastmile_qr_scan"}, "is_disabled": 0, "fusion_lat": 0.0, "lat": 38.942659166666665, "is_reserved": 0}, {"lon": -76.97743833333334, "fusion_lon": 0.0, "bike_id": "c46742781a4ea92187b9f09a562b38bb", "type": "electric_scooter", "name": "c46742781a4ea92187b9f09a562b38bb", "rental_uris": {"android": "https://dc.lft.to/lastmile_qr_scan", "ios": "https://dc.lft.to/lastmile_qr_scan"}, "is_disabled": 0, "fusion_lat": 0.0, "lat": 38.8887285, "is_reserved": 0}, {"lon": -77.04556716666667, "fusion_lon": 0.0, "bike_id": "8ce164a47a71d8620ac17129a384b1f1", "type": "electric_scooter", "name": "8ce164a47a71d8620ac17129a384b1f1", "rental_uris": {"android": "https://dc.lft.to/lastmile_qr_scan", "ios": "https://dc.lft.to/lastmile_qr_scan"}, "is_disabled": 0, "fusion_lat": 0.0, "lat": 38.89838116666667, "is_reserved": 0}, {"lon": -77.03810333333334, "fusion_lon": 0.0, "bike_id": "5af1eaf48997b0e610d500627abb204d", "type": "electric_scooter", "name": "5af1eaf48997b0e610d500627abb204d", "rental_uris": {"android": "https://dc.lft.to/lastmile_qr_scan", "ios": "https://dc.lft.to/lastmile_qr_scan"}, "is_disabled": 0, "fusion_lat": 0.0, "lat": 38.902607333333336, "is_reserved": 0}, {"lon": -77.03641216666666, "fusion_lon": 0.0, "bike_id": "8d5f32e9f479796063ab812125617f77", "type": "electric_scooter", "name": "8d5f32e9f479796063ab812125617f77", "rental_uris": {"android": "https://dc.lft.to/lastmile_qr_scan", "ios": "https://dc.lft.to/lastmile_qr_scan"}, "is_disabled": 0, "fusion_lat": 0.0, "lat": 38.90689783333333, "is_reserved": 0}, {"lon": -77.051562, "fusion_lon": 0.0, "bike_id": "c4c177379e430960df151d97b4626e6b", "type": "electric_scooter", "name": "c4c177379e430960df151d97b4626e6b", "rental_uris": {"android": "https://dc.lft.to/lastmile_qr_scan", "ios": "https://dc.lft.to/lastmile_qr_scan"}, "is_disabled": 0, "fusion_lat": 0.0, "lat": 38.90101633333333, "is_reserved": 0}, {"lon": -77.02489766666666, "fusion_lon": 0.0, "bike_id": "a88d18395c2f01f16e88468fe2e26899", "type": "electric_scooter", "name": "a88d18395c2f01f16e88468fe2e26899", "rental_uris": {"android": "https://dc.lft.to/lastmile_qr_scan", "ios": "https://dc.lft.to/lastmile_qr_scan"}, "is_disabled": 0, "fusion_lat": 0.0, "lat": 38.941872833333335, "is_reserved": 0}, {"lon": -76.975394, "fusion_lon": 0.0, "bike_id": "d5c9905ae4f111e3db745027fdf94981", "type": "electric_scooter", "name": "d5c9905ae4f111e3db745027fdf94981", "rental_uris": {"android": "https://dc.lft.to/lastmile_qr_scan", "ios": "https://dc.lft.to/lastmile_qr_scan"}, "is_disabled": 0, "fusion_lat": 0.0, "lat": 38.90324616666667, "is_reserved": 0}, {"lon": -76.94942916666666, "fusion_lon": 0.0, "bike_id": "e173aa6deb1fda74cd7c1ac91cc90520", "type": "electric_scooter", "name": "e173aa6deb1fda74cd7c1ac91cc90520", "rental_uris": {"android": "https://dc.lft.to/lastmile_qr_scan", "ios": "https://dc.lft.to/lastmile_qr_scan"}, "is_disabled": 0, "fusion_lat": 0.0, "lat": 38.8936065, "is_reserved": 0}, {"lon": -76.946545, "fusion_lon": 0.0, "bike_id": "9ba637bdc3b982549ed701c84b9c449d", "type": "electric_scooter", "name": "9ba637bdc3b982549ed701c84b9c449d", "rental_uris": {"android": "https://dc.lft.to/lastmile_qr_scan", "ios": "https://dc.lft.to/lastmile_qr_scan"}, "is_disabled": 0, "fusion_lat": 0.0, "lat": 38.898271333333334, "is_reserved": 0}, {"lon": -77.0297725, "fusion_lon": 0.0, "bike_id": "4e68105e05164b108d374b36f0e6f2a1", "type": "electric_scooter", "name": "4e68105e05164b108d374b36f0e6f2a1", "rental_uris": {"android": "https://dc.lft.to/lastmile_qr_scan", "ios": "https://dc.lft.to/lastmile_qr_scan"}, "is_disabled": 0, "fusion_lat": 0.0, "lat": 38.92271016666667, "is_reserved": 0}, {"lon": -77.086603, "fusion_lon": 0.0, "bike_id": "18a40341332d5a4be8bdbf6400f39906", "type": "electric_bike", "name": "18a40341332d5a4be8bdbf6400f39906", "rental_uris": {"android": "https://dc.lft.to/lastmile_qr_scan", "ios": "https://dc.lft.to/lastmile_qr_scan"}, "is_disabled": 0, "fusion_lat": 0.0, "lat": 38.8624435, "is_reserved": 0}, {"lon": -77.0349795, "fusion_lon": 0.0, "bike_id": "e420eea119c675748469d7c0a2016e66", "type": "electric_scooter", "name": "e420eea119c675748469d7c0a2016e66", "rental_uris": {"android": "https://dc.lft.to/lastmile_qr_scan", "ios": "https://dc.lft.to/lastmile_qr_scan"}, "is_disabled": 0, "fusion_lat": 0.0, "lat": 38.92340816666667, "is_reserved": 0}, {"lon": -77.02639316666667, "fusion_lon": 0.0, "bike_id": "60f6e325339c87d8559c45ab41e6b82b", "type": "electric_scooter", "name": "60f6e325339c87d8559c45ab41e6b82b", "rental_uris": {"android": "https://dc.lft.to/lastmile_qr_scan", "ios": "https://dc.lft.to/lastmile_qr_scan"}, "is_disabled": 0, "fusion_lat": 0.0, "lat": 38.93657833333333, "is_reserved": 0}, {"lon": -77.02416783333334, "fusion_lon": 0.0, "bike_id": "805245ad234d5786d2f25233d428fa86", "type": "electric_scooter", "name": "805245ad234d5786d2f25233d428fa86", "rental_uris": {"android": "https://dc.lft.to/lastmile_qr_scan", "ios": "https://dc.lft.to/lastmile_qr_scan"}, "is_disabled": 0, "fusion_lat": 0.0, "lat": 38.8969175, "is_reserved": 0}, {"lon": -77.08923333333334, "fusion_lon": 0.0, "bike_id": "2bfaf81d444239801b1e7031fe3ed47c", "type": "electric_bike", "name": "2bfaf81d444239801b1e7031fe3ed47c", "rental_uris": {"android": "https://dc.lft.to/lastmile_qr_scan", "ios": "https://dc.lft.to/lastmile_qr_scan"}, "is_disabled": 0, "fusion_lat": 0.0, "lat": 38.863354, "is_reserved": 0}, {"lon": -76.99794983333334, "fusion_lon": 0.0, "bike_id": "4006aa32ff81fab680399648fc5b6c62", "type": "electric_bike", "name": "4006aa32ff81fab680399648fc5b6c62", "rental_uris": {"android": "https://dc.lft.to/lastmile_qr_scan", "ios": "https://dc.lft.to/lastmile_qr_scan"}, "is_disabled": 0, "fusion_lat": 0.0, "lat": 38.950859666666666, "is_reserved": 0}, {"lon": -77.025899, "fusion_lon": 0.0, "bike_id": "31d83f3e640460df1b14cd92ded80b02", "type": "electric_scooter", "name": "31d83f3e640460df1b14cd92ded80b02", "rental_uris": {"android": "https://dc.lft.to/lastmile_qr_scan", "ios": "https://dc.lft.to/lastmile_qr_scan"}, "is_disabled": 0, "fusion_lat": 0.0, "lat": 38.9241195, "is_reserved": 0}, {"lon": -77.0396785, "fusion_lon": 0.0, "bike_id": "40ba0145351d169c4ab3e164ab17e542", "type": "electric_scooter", "name": "40ba0145351d169c4ab3e164ab17e542", "rental_uris": {"android": "https://dc.lft.to/lastmile_qr_scan", "ios": "https://dc.lft.to/lastmile_qr_scan"}, "is_disabled": 0, "fusion_lat": 0.0, "lat": 38.90603483333334, "is_reserved": 0}, {"lon": -76.957598, "fusion_lon": 0.0, "bike_id": "10086f9797be4df4ad71175ca2807092", "type": "electric_scooter", "name": "10086f9797be4df4ad71175ca2807092", "rental_uris": {"android": "https://dc.lft.to/lastmile_qr_scan", "ios": "https://dc.lft.to/lastmile_qr_scan"}, "is_disabled": 0, "fusion_lat": 0.0, "lat": 38.884262666666665, "is_reserved": 0}, {"lon": -77.00578183333333, "fusion_lon": 0.0, "bike_id": "f387832109c8f4a219972d17c89b9e8d", "type": "electric_scooter", "name": "f387832109c8f4a219972d17c89b9e8d", "rental_uris": {"android": "https://dc.lft.to/lastmile_qr_scan", "ios": "https://dc.lft.to/lastmile_qr_scan"}, "is_disabled": 0, "fusion_lat": 0.0, "lat": 38.929384, "is_reserved": 0}, {"lon": -77.03592433333333, "fusion_lon": 0.0, "bike_id": "38acd55984f1352fd2942b101a01a939", "type": "electric_scooter", "name": "38acd55984f1352fd2942b101a01a939", "rental_uris": {"android": "https://dc.lft.to/lastmile_qr_scan", "ios": "https://dc.lft.to/lastmile_qr_scan"}, "is_disabled": 0, "fusion_lat": 0.0, "lat": 38.9367185, "is_reserved": 0}, {"lon": -77.02290816666667, "fusion_lon": 0.0, "bike_id": "d5e940dfb333527135e92bd0307c80ea", "type": "electric_scooter", "name": "d5e940dfb333527135e92bd0307c80ea", "rental_uris": {"android": "https://dc.lft.to/lastmile_qr_scan", "ios": "https://dc.lft.to/lastmile_qr_scan"}, "is_disabled": 0, "fusion_lat": 0.0, "lat": 38.92693583333333, "is_reserved": 0}, {"lon": -77.00868116666666, "fusion_lon": 0.0, "bike_id": "d5ad5735c26e050420c2ec346838a52a", "type": "electric_bike", "name": "d5ad5735c26e050420c2ec346838a52a", "rental_uris": {"android": "https://dc.lft.to/lastmile_qr_scan", "ios": "https://dc.lft.to/lastmile_qr_scan"}, "is_disabled": 0, "fusion_lat": 0.0, "lat": 38.96464316666667, "is_reserved": 0}, {"lon": -77.0635375, "fusion_lon": 0.0, "bike_id": "559799fb013607e143c516ebacebb188", "type": "electric_scooter", "name": "559799fb013607e143c516ebacebb188", "rental_uris": {"android": "https://dc.lft.to/lastmile_qr_scan", "ios": "https://dc.lft.to/lastmile_qr_scan"}, "is_disabled": 0, "fusion_lat": 0.0, "lat": 38.94436416666667, "is_reserved": 0}, {"lon": -77.22953033333333, "fusion_lon": 0.0, "bike_id": "950ddeff455b08d57be63d29f835b251", "type": "electric_bike", "name": "950ddeff455b08d57be63d29f835b251", "rental_uris": {"android": "https://dc.lft.to/lastmile_qr_scan", "ios": "https://dc.lft.to/lastmile_qr_scan"}, "is_disabled": 0, "fusion_lat": 0.0, "lat": 38.8721735, "is_reserved": 0}, {"lon": -77.02590916666666, "fusion_lon": 0.0, "bike_id": "97b3450d2e37b183a40b16802be32d90", "type": "electric_scooter", "name": "97b3450d2e37b183a40b16802be32d90", "rental_uris": {"android": "https://dc.lft.to/lastmile_qr_scan", "ios": "https://dc.lft.to/lastmile_qr_scan"}, "is_disabled": 0, "fusion_lat": 0.0, "lat": 38.914151833333335, "is_reserved": 0}, {"lon": -76.9742995, "fusion_lon": 0.0, "bike_id": "80aaba4daed497801ca1e0afb942968d", "type": "electric_bike", "name": "80aaba4daed497801ca1e0afb942968d", "rental_uris": {"android": "https://dc.lft.to/lastmile_qr_scan", "ios": "https://dc.lft.to/lastmile_qr_scan"}, "is_disabled": 0, "fusion_lat": 0.0, "lat": 38.9323925, "is_reserved": 0}, {"lon": -76.9906205, "fusion_lon": 0.0, "bike_id": "9a04ade5aeca4892ea34b9b3b06d5bd7", "type": "electric_bike", "name": "9a04ade5aeca4892ea34b9b3b06d5bd7", "rental_uris": {"android": "https://dc.lft.to/lastmile_qr_scan", "ios": "https://dc.lft.to/lastmile_qr_scan"}, "is_disabled": 0, "fusion_lat": 0.0, "lat": 38.936909666666665, "is_reserved": 0}, {"lon": -77.03275866666667, "fusion_lon": 0.0, "bike_id": "9e1ee0f10484f86aa3997ce7eb553780", "type": "electric_scooter", "name": "9e1ee0f10484f86aa3997ce7eb553780", "rental_uris": {"android": "https://dc.lft.to/lastmile_qr_scan", "ios": "https://dc.lft.to/lastmile_qr_scan"}, "is_disabled": 0, "fusion_lat": 0.0, "lat": 38.901491666666665, "is_reserved": 0}, {"lon": -76.90735016666666, "fusion_lon": 0.0, "bike_id": "2898fba404fd337ea87f26d039dc91a2", "type": "electric_bike", "name": "2898fba404fd337ea87f26d039dc91a2", "rental_uris": {"android": "https://dc.lft.to/lastmile_qr_scan", "ios": "https://dc.lft.to/lastmile_qr_scan"}, "is_disabled": 0, "fusion_lat": 0.0, "lat": 38.8961435, "is_reserved": 0}, {"lon": -77.03176016666667, "fusion_lon": 0.0, "bike_id": "86a1552b5a8a5228c7c690b2db120899", "type": "electric_scooter", "name": "86a1552b5a8a5228c7c690b2db120899", "rental_uris": {"android": "https://dc.lft.to/lastmile_qr_scan", "ios": "https://dc.lft.to/lastmile_qr_scan"}, "is_disabled": 0, "fusion_lat": 0.0, "lat": 38.915571, "is_reserved": 0}, {"lon": -77.04138866666666, "fusion_lon": 0.0, "bike_id": "0e989960d979f22c7c2620c3684812a7", "type": "electric_scooter", "name": "0e989960d979f22c7c2620c3684812a7", "rental_uris": {"android": "https://dc.lft.to/lastmile_qr_scan", "ios": "https://dc.lft.to/lastmile_qr_scan"}, "is_disabled": 0, "fusion_lat": 0.0, "lat": 38.913817333333334, "is_reserved": 0}, {"lon": -77.017999, "fusion_lon": 0.0, "bike_id": "b203b935e4c7f0cf540315a56e4604f0", "type": "electric_scooter", "name": "b203b935e4c7f0cf540315a56e4604f0", "rental_uris": {"android": "https://dc.lft.to/lastmile_qr_scan", "ios": "https://dc.lft.to/lastmile_qr_scan"}, "is_disabled": 0, "fusion_lat": 0.0, "lat": 38.952829666666666, "is_reserved": 0}, {"lon": -77.041604, "fusion_lon": 0.0, "bike_id": "d1c636ea7b9223865d603fec8968c6ad", "type": "electric_scooter", "name": "d1c636ea7b9223865d603fec8968c6ad", "rental_uris": {"android": "https://dc.lft.to/lastmile_qr_scan", "ios": "https://dc.lft.to/lastmile_qr_scan"}, "is_disabled": 0, "fusion_lat": 0.0, "lat": 38.89551616666667, "is_reserved": 0}, {"lon": -77.02695916666667, "fusion_lon": 0.0, "bike_id": "b53779af11837d8fa840d3244f801d36", "type": "electric_scooter", "name": "b53779af11837d8fa840d3244f801d36", "rental_uris": {"android": "https://dc.lft.to/lastmile_qr_scan", "ios": "https://dc.lft.to/lastmile_qr_scan"}, "is_disabled": 0, "fusion_lat": 0.0, "lat": 38.906856166666664, "is_reserved": 0}, {"lon": -77.032878, "fusion_lon": 0.0, "bike_id": "d08a49558ad0586e97edd24db1a9f45b", "type": "electric_scooter", "name": "d08a49558ad0586e97edd24db1a9f45b", "rental_uris": {"android": "https://dc.lft.to/lastmile_qr_scan", "ios": "https://dc.lft.to/lastmile_qr_scan"}, "is_disabled": 0, "fusion_lat": 0.0, "lat": 38.9289355, "is_reserved": 0}, {"lon": -77.01658383333333, "fusion_lon": 0.0, "bike_id": "235cbc9664eb5cd01705f466add6c62a", "type": "electric_scooter", "name": "235cbc9664eb5cd01705f466add6c62a", "rental_uris": {"android": "https://dc.lft.to/lastmile_qr_scan", "ios": "https://dc.lft.to/lastmile_qr_scan"}, "is_disabled": 0, "fusion_lat": 0.0, "lat": 38.8812445, "is_reserved": 0}, {"lon": -77.029603, "fusion_lon": 0.0, "bike_id": "efae0f7bad87d5667ddde693cacd1d94", "type": "electric_scooter", "name": "efae0f7bad87d5667ddde693cacd1d94", "rental_uris": {"android": "https://dc.lft.to/lastmile_qr_scan", "ios": "https://dc.lft.to/lastmile_qr_scan"}, "is_disabled": 0, "fusion_lat": 0.0, "lat": 38.906509, "is_reserved": 0}, {"lon": -77.03950133333333, "fusion_lon": 0.0, "bike_id": "9e57ec374eee7b42781710d343e47905", "type": "electric_scooter", "name": "9e57ec374eee7b42781710d343e47905", "rental_uris": {"android": "https://dc.lft.to/lastmile_qr_scan", "ios": "https://dc.lft.to/lastmile_qr_scan"}, "is_disabled": 0, "fusion_lat": 0.0, "lat": 38.89857133333334, "is_reserved": 0}, {"lon": -77.03287566666667, "fusion_lon": 0.0, "bike_id": "69d729f73c5a58904d8d03366e742b73", "type": "electric_scooter", "name": "69d729f73c5a58904d8d03366e742b73", "rental_uris": {"android": "https://dc.lft.to/lastmile_qr_scan", "ios": "https://dc.lft.to/lastmile_qr_scan"}, "is_disabled": 0, "fusion_lat": 0.0, "lat": 38.9344735, "is_reserved": 0}, {"lon": -77.0273375, "fusion_lon": 0.0, "bike_id": "ce0c645cd7f99dab9b3512045e335956", "type": "electric_scooter", "name": "ce0c645cd7f99dab9b3512045e335956", "rental_uris": {"android": "https://dc.lft.to/lastmile_qr_scan", "ios": "https://dc.lft.to/lastmile_qr_scan"}, "is_disabled": 0, "fusion_lat": 0.0, "lat": 38.8979565, "is_reserved": 0}, {"lon": -77.02160733333334, "fusion_lon": 0.0, "bike_id": "6c4108c268271cdf9bb1c4b8d8836485", "type": "electric_scooter", "name": "6c4108c268271cdf9bb1c4b8d8836485", "rental_uris": {"android": "https://dc.lft.to/lastmile_qr_scan", "ios": "https://dc.lft.to/lastmile_qr_scan"}, "is_disabled": 0, "fusion_lat": 0.0, "lat": 38.897322333333335, "is_reserved": 0}, {"lon": -77.03730216666666, "fusion_lon": 0.0, "bike_id": "f18beedd419d7c284c7c1dda0dd05490", "type": "electric_scooter", "name": "f18beedd419d7c284c7c1dda0dd05490", "rental_uris": {"android": "https://dc.lft.to/lastmile_qr_scan", "ios": "https://dc.lft.to/lastmile_qr_scan"}, "is_disabled": 0, "fusion_lat": 0.0, "lat": 38.92668283333333, "is_reserved": 0}, {"lon": -77.00985083333333, "fusion_lon": 0.0, "bike_id": "7c7596f3e6935a58027fc6bbd9385005", "type": "electric_scooter", "name": "7c7596f3e6935a58027fc6bbd9385005", "rental_uris": {"android": "https://dc.lft.to/lastmile_qr_scan", "ios": "https://dc.lft.to/lastmile_qr_scan"}, "is_disabled": 0, "fusion_lat": 0.0, "lat": 38.872959333333334, "is_reserved": 0}, {"lon": -77.2341295, "fusion_lon": 0.0, "bike_id": "cc31f4216641c6d6ccf6e25da1934a7f", "type": "electric_bike", "name": "cc31f4216641c6d6ccf6e25da1934a7f", "rental_uris": {"android": "https://dc.lft.to/lastmile_qr_scan", "ios": "https://dc.lft.to/lastmile_qr_scan"}, "is_disabled": 0, "fusion_lat": 0.0, "lat": 38.87579566666667, "is_reserved": 0}, {"lon": -77.043283, "fusion_lon": 0.0, "bike_id": "bf93b26c0897f9605a2073a3d25a557b", "type": "electric_scooter", "name": "bf93b26c0897f9605a2073a3d25a557b", "rental_uris": {"android": "https://dc.lft.to/lastmile_qr_scan", "ios": "https://dc.lft.to/lastmile_qr_scan"}, "is_disabled": 0, "fusion_lat": 0.0, "lat": 38.9263805, "is_reserved": 0}, {"lon": -77.03046066666667, "fusion_lon": 0.0, "bike_id": "00a1b3e1c1669ef35eba53eaa0616288", "type": "electric_scooter", "name": "00a1b3e1c1669ef35eba53eaa0616288", "rental_uris": {"android": "https://dc.lft.to/lastmile_qr_scan", "ios": "https://dc.lft.to/lastmile_qr_scan"}, "is_disabled": 0, "fusion_lat": 0.0, "lat": 38.902757333333334, "is_reserved": 0}, {"lon": -77.031207, "fusion_lon": 0.0, "bike_id": "c2b452f44c5c3894fd75e17cf47ee275", "type": "electric_scooter", "name": "c2b452f44c5c3894fd75e17cf47ee275", "rental_uris": {"android": "https://dc.lft.to/lastmile_qr_scan", "ios": "https://dc.lft.to/lastmile_qr_scan"}, "is_disabled": 0, "fusion_lat": 0.0, "lat": 38.91608866666667, "is_reserved": 0}, {"lon": -77.00134616666666, "fusion_lon": 0.0, "bike_id": "1ef4fd8a5f44deb35104e2236a8b17cf", "type": "electric_scooter", "name": "1ef4fd8a5f44deb35104e2236a8b17cf", "rental_uris": {"android": "https://dc.lft.to/lastmile_qr_scan", "ios": "https://dc.lft.to/lastmile_qr_scan"}, "is_disabled": 0, "fusion_lat": 0.0, "lat": 38.87504033333333, "is_reserved": 0}, {"lon": -76.98276366666667, "fusion_lon": 0.0, "bike_id": "d0ac553d2a2d21cfed8e6829ea5938f6", "type": "electric_scooter", "name": "d0ac553d2a2d21cfed8e6829ea5938f6", "rental_uris": {"android": "https://dc.lft.to/lastmile_qr_scan", "ios": "https://dc.lft.to/lastmile_qr_scan"}, "is_disabled": 0, "fusion_lat": 0.0, "lat": 38.88540366666667, "is_reserved": 0}, {"lon": -76.98967183333333, "fusion_lon": 0.0, "bike_id": "0f848152c823639f34d43ec7b0c45e98", "type": "electric_scooter", "name": "0f848152c823639f34d43ec7b0c45e98", "rental_uris": {"android": "https://dc.lft.to/lastmile_qr_scan", "ios": "https://dc.lft.to/lastmile_qr_scan"}, "is_disabled": 0, "fusion_lat": 0.0, "lat": 38.86542416666666, "is_reserved": 0}, {"lon": -77.0366615, "fusion_lon": 0.0, "bike_id": "9e2ac8d660fca43f67312085b2a7df7e", "type": "electric_scooter", "name": "9e2ac8d660fca43f67312085b2a7df7e", "rental_uris": {"android": "https://dc.lft.to/lastmile_qr_scan", "ios": "https://dc.lft.to/lastmile_qr_scan"}, "is_disabled": 0, "fusion_lat": 0.0, "lat": 38.92262616666667, "is_reserved": 0}, {"lon": -76.94705033333334, "fusion_lon": 0.0, "bike_id": "043d4df2722ece0fd41f5b26fd41d2a2", "type": "electric_scooter", "name": "043d4df2722ece0fd41f5b26fd41d2a2", "rental_uris": {"android": "https://dc.lft.to/lastmile_qr_scan", "ios": "https://dc.lft.to/lastmile_qr_scan"}, "is_disabled": 0, "fusion_lat": 0.0, "lat": 38.893651166666665, "is_reserved": 0}, {"lon": -77.02620366666666, "fusion_lon": 0.0, "bike_id": "f7fdf410c7c29d0710ec2320838094df", "type": "electric_scooter", "name": "f7fdf410c7c29d0710ec2320838094df", "rental_uris": {"android": "https://dc.lft.to/lastmile_qr_scan", "ios": "https://dc.lft.to/lastmile_qr_scan"}, "is_disabled": 0, "fusion_lat": 0.0, "lat": 38.94408, "is_reserved": 0}, {"lon": -77.035645, "fusion_lon": 0.0, "bike_id": "1282e1c593c573213e20714e2267eccb", "type": "electric_scooter", "name": "1282e1c593c573213e20714e2267eccb", "rental_uris": {"android": "https://dc.lft.to/lastmile_qr_scan", "ios": "https://dc.lft.to/lastmile_qr_scan"}, "is_disabled": 0, "fusion_lat": 0.0, "lat": 38.9046735, "is_reserved": 0}, {"lon": -77.0334805, "fusion_lon": 0.0, "bike_id": "cd1b9d77564d5f883bff1e2e12953f77", "type": "electric_scooter", "name": "cd1b9d77564d5f883bff1e2e12953f77", "rental_uris": {"android": "https://dc.lft.to/lastmile_qr_scan", "ios": "https://dc.lft.to/lastmile_qr_scan"}, "is_disabled": 0, "fusion_lat": 0.0, "lat": 38.917109333333336, "is_reserved": 0}, {"lon": -77.04753183333334, "fusion_lon": 0.0, "bike_id": "238ccdb2d30a36d837e22b023cd5d2d2", "type": "electric_scooter", "name": "238ccdb2d30a36d837e22b023cd5d2d2", "rental_uris": {"android": "https://dc.lft.to/lastmile_qr_scan", "ios": "https://dc.lft.to/lastmile_qr_scan"}, "is_disabled": 0, "fusion_lat": 0.0, "lat": 38.909692666666665, "is_reserved": 0}, {"lon": -76.9911545, "fusion_lon": 0.0, "bike_id": "107991822bb76f999b789b39231a1cc0", "type": "electric_scooter", "name": "107991822bb76f999b789b39231a1cc0", "rental_uris": {"android": "https://dc.lft.to/lastmile_qr_scan", "ios": "https://dc.lft.to/lastmile_qr_scan"}, "is_disabled": 0, "fusion_lat": 0.0, "lat": 38.84670933333334, "is_reserved": 0}, {"lon": -76.99770833333334, "fusion_lon": 0.0, "bike_id": "71ae9113111096ea1e7179e1a5f07216", "type": "electric_scooter", "name": "71ae9113111096ea1e7179e1a5f07216", "rental_uris": {"android": "https://dc.lft.to/lastmile_qr_scan", "ios": "https://dc.lft.to/lastmile_qr_scan"}, "is_disabled": 0, "fusion_lat": 0.0, "lat": 38.90899733333333, "is_reserved": 0}, {"lon": -76.9951535, "fusion_lon": 0.0, "bike_id": "664a0cb28e842dd4a9560e89dfc5f520", "type": "electric_bike", "name": "664a0cb28e842dd4a9560e89dfc5f520", "rental_uris": {"android": "https://dc.lft.to/lastmile_qr_scan", "ios": "https://dc.lft.to/lastmile_qr_scan"}, "is_disabled": 0, "fusion_lat": 0.0, "lat": 38.821780333333336, "is_reserved": 0}, {"lon": -77.02353916666667, "fusion_lon": 0.0, "bike_id": "69dfc16dd49c457155de1195c54bc837", "type": "electric_scooter", "name": "69dfc16dd49c457155de1195c54bc837", "rental_uris": {"android": "https://dc.lft.to/lastmile_qr_scan", "ios": "https://dc.lft.to/lastmile_qr_scan"}, "is_disabled": 0, "fusion_lat": 0.0, "lat": 38.93531816666667, "is_reserved": 0}, {"lon": -77.000722, "fusion_lon": 0.0, "bike_id": "f263be2e3a5345ecec8caca6faab0b56", "type": "electric_scooter", "name": "f263be2e3a5345ecec8caca6faab0b56", "rental_uris": {"android": "https://dc.lft.to/lastmile_qr_scan", "ios": "https://dc.lft.to/lastmile_qr_scan"}, "is_disabled": 0, "fusion_lat": 0.0, "lat": 38.9254395, "is_reserved": 0}, {"lon": -77.02206983333333, "fusion_lon": 0.0, "bike_id": "c2eb70439eb139f3dc0b6f4cd71e01fc", "type": "electric_bike", "name": "c2eb70439eb139f3dc0b6f4cd71e01fc", "rental_uris": {"android": "https://dc.lft.to/lastmile_qr_scan", "ios": "https://dc.lft.to/lastmile_qr_scan"}, "is_disabled": 0, "fusion_lat": 0.0, "lat": 38.933883, "is_reserved": 0}, {"lon": -77.03322166666666, "fusion_lon": 0.0, "bike_id": "0cd68242cf8e5693983e565f2fce4766", "type": "electric_scooter", "name": "0cd68242cf8e5693983e565f2fce4766", "rental_uris": {"android": "https://dc.lft.to/lastmile_qr_scan", "ios": "https://dc.lft.to/lastmile_qr_scan"}, "is_disabled": 0, "fusion_lat": 0.0, "lat": 38.890098333333334, "is_reserved": 0}, {"lon": -76.98545916666667, "fusion_lon": 0.0, "bike_id": "9705b370173270a1e1f63d62264beeb8", "type": "electric_scooter", "name": "9705b370173270a1e1f63d62264beeb8", "rental_uris": {"android": "https://dc.lft.to/lastmile_qr_scan", "ios": "https://dc.lft.to/lastmile_qr_scan"}, "is_disabled": 0, "fusion_lat": 0.0, "lat": 38.86687283333333, "is_reserved": 0}, {"lon": -77.0373835, "fusion_lon": 0.0, "bike_id": "ccc91400cb59e92a4ce129eea3e47e40", "type": "electric_scooter", "name": "ccc91400cb59e92a4ce129eea3e47e40", "rental_uris": {"android": "https://dc.lft.to/lastmile_qr_scan", "ios": "https://dc.lft.to/lastmile_qr_scan"}, "is_disabled": 0, "fusion_lat": 0.0, "lat": 38.92879333333333, "is_reserved": 0}, {"lon": -77.04037616666666, "fusion_lon": 0.0, "bike_id": "3b3f0ee07f5cafcfe43f2cc40c315fdf", "type": "electric_scooter", "name": "3b3f0ee07f5cafcfe43f2cc40c315fdf", "rental_uris": {"android": "https://dc.lft.to/lastmile_qr_scan", "ios": "https://dc.lft.to/lastmile_qr_scan"}, "is_disabled": 0, "fusion_lat": 0.0, "lat": 38.91795833333333, "is_reserved": 0}, {"lon": -77.01675083333333, "fusion_lon": 0.0, "bike_id": "b424cf9a643ace79ed844d55a7ca6d70", "type": "electric_scooter", "name": "b424cf9a643ace79ed844d55a7ca6d70", "rental_uris": {"android": "https://dc.lft.to/lastmile_qr_scan", "ios": "https://dc.lft.to/lastmile_qr_scan"}, "is_disabled": 0, "fusion_lat": 0.0, "lat": 38.88135, "is_reserved": 0}, {"lon": -76.94632833333333, "fusion_lon": 0.0, "bike_id": "1fca5ce891a07fca6cbdea6d2e544b42", "type": "electric_scooter", "name": "1fca5ce891a07fca6cbdea6d2e544b42", "rental_uris": {"android": "https://dc.lft.to/lastmile_qr_scan", "ios": "https://dc.lft.to/lastmile_qr_scan"}, "is_disabled": 0, "fusion_lat": 0.0, "lat": 38.898304, "is_reserved": 0}, {"lon": -77.03073083333334, "fusion_lon": 0.0, "bike_id": "56c1704312f59587d4743816e377bbc2", "type": "electric_scooter", "name": "56c1704312f59587d4743816e377bbc2", "rental_uris": {"android": "https://dc.lft.to/lastmile_qr_scan", "ios": "https://dc.lft.to/lastmile_qr_scan"}, "is_disabled": 0, "fusion_lat": 0.0, "lat": 38.922526500000004, "is_reserved": 0}, {"lon": -76.997362, "fusion_lon": 0.0, "bike_id": "e2da753449a68d115faac47caac23736", "type": "electric_scooter", "name": "e2da753449a68d115faac47caac23736", "rental_uris": {"android": "https://dc.lft.to/lastmile_qr_scan", "ios": "https://dc.lft.to/lastmile_qr_scan"}, "is_disabled": 0, "fusion_lat": 0.0, "lat": 38.89945616666667, "is_reserved": 0}, {"lon": -77.03218633333333, "fusion_lon": 0.0, "bike_id": "a0c14d23874887908c5c5bd90608a83a", "type": "electric_scooter", "name": "a0c14d23874887908c5c5bd90608a83a", "rental_uris": {"android": "https://dc.lft.to/lastmile_qr_scan", "ios": "https://dc.lft.to/lastmile_qr_scan"}, "is_disabled": 0, "fusion_lat": 0.0, "lat": 38.91778733333334, "is_reserved": 0}, {"lon": -77.02101533333334, "fusion_lon": 0.0, "bike_id": "3a2f09ab10e38fcff4e7c75729bbf2b0", "type": "electric_bike", "name": "3a2f09ab10e38fcff4e7c75729bbf2b0", "rental_uris": {"android": "https://dc.lft.to/lastmile_qr_scan", "ios": "https://dc.lft.to/lastmile_qr_scan"}, "is_disabled": 0, "fusion_lat": 0.0, "lat": 38.91172683333333, "is_reserved": 0}, {"lon": -76.996974, "fusion_lon": 0.0, "bike_id": "6376638040714a41f5ff8f8937e3c516", "type": "electric_scooter", "name": "6376638040714a41f5ff8f8937e3c516", "rental_uris": {"android": "https://dc.lft.to/lastmile_qr_scan", "ios": "https://dc.lft.to/lastmile_qr_scan"}, "is_disabled": 0, "fusion_lat": 0.0, "lat": 38.884178, "is_reserved": 0}, {"lon": -77.02176066666667, "fusion_lon": 0.0, "bike_id": "31456fe37f407c53c2d651d07a395007", "type": "electric_scooter", "name": "31456fe37f407c53c2d651d07a395007", "rental_uris": {"android": "https://dc.lft.to/lastmile_qr_scan", "ios": "https://dc.lft.to/lastmile_qr_scan"}, "is_disabled": 0, "fusion_lat": 0.0, "lat": 38.942951666666666, "is_reserved": 0}, {"lon": -77.03171816666666, "fusion_lon": 0.0, "bike_id": "ff6f656d725f6c2bd8e59944124ad50f", "type": "electric_scooter", "name": "ff6f656d725f6c2bd8e59944124ad50f", "rental_uris": {"android": "https://dc.lft.to/lastmile_qr_scan", "ios": "https://dc.lft.to/lastmile_qr_scan"}, "is_disabled": 0, "fusion_lat": 0.0, "lat": 38.919132833333336, "is_reserved": 0}, {"lon": -77.050427, "fusion_lon": 0.0, "bike_id": "4fefba5d38a9de9409a09e9037db10eb", "type": "electric_scooter", "name": "4fefba5d38a9de9409a09e9037db10eb", "rental_uris": {"android": "https://dc.lft.to/lastmile_qr_scan", "ios": "https://dc.lft.to/lastmile_qr_scan"}, "is_disabled": 0, "fusion_lat": 0.0, "lat": 38.923458, "is_reserved": 0}, {"lon": -77.10791333333333, "fusion_lon": 0.0, "bike_id": "f0f276f7605c215ae2486b95161b1298", "type": "electric_bike", "name": "f0f276f7605c215ae2486b95161b1298", "rental_uris": {"android": "https://dc.lft.to/lastmile_qr_scan", "ios": "https://dc.lft.to/lastmile_qr_scan"}, "is_disabled": 0, "fusion_lat": 0.0, "lat": 38.85249616666667, "is_reserved": 0}, {"lon": -77.04493316666667, "fusion_lon": 0.0, "bike_id": "53a0a484f2d89214daf6faf3b1bdf96e", "type": "electric_scooter", "name": "53a0a484f2d89214daf6faf3b1bdf96e", "rental_uris": {"android": "https://dc.lft.to/lastmile_qr_scan", "ios": "https://dc.lft.to/lastmile_qr_scan"}, "is_disabled": 0, "fusion_lat": 0.0, "lat": 38.91099766666667, "is_reserved": 0}, {"lon": -77.04485966666667, "fusion_lon": 0.0, "bike_id": "d24b318d4593d0e831b5f57b69420cf4", "type": "electric_scooter", "name": "d24b318d4593d0e831b5f57b69420cf4", "rental_uris": {"android": "https://dc.lft.to/lastmile_qr_scan", "ios": "https://dc.lft.to/lastmile_qr_scan"}, "is_disabled": 0, "fusion_lat": 0.0, "lat": 38.89984166666667, "is_reserved": 0}, {"lon": -77.03962266666667, "fusion_lon": 0.0, "bike_id": "02c5ad1c4c625b0e37b4dd0b54899125", "type": "electric_scooter", "name": "02c5ad1c4c625b0e37b4dd0b54899125", "rental_uris": {"android": "https://dc.lft.to/lastmile_qr_scan", "ios": "https://dc.lft.to/lastmile_qr_scan"}, "is_disabled": 0, "fusion_lat": 0.0, "lat": 38.917037666666666, "is_reserved": 0}, {"lon": -77.05230916666666, "fusion_lon": 0.0, "bike_id": "14ec8b75833e2ad0460f8be4ee5f4da0", "type": "electric_scooter", "name": "14ec8b75833e2ad0460f8be4ee5f4da0", "rental_uris": {"android": "https://dc.lft.to/lastmile_qr_scan", "ios": "https://dc.lft.to/lastmile_qr_scan"}, "is_disabled": 0, "fusion_lat": 0.0, "lat": 38.9244255, "is_reserved": 0}, {"lon": -77.046804, "fusion_lon": 0.0, "bike_id": "455090934c0591320af54e2bfc1aa6f0", "type": "electric_bike", "name": "455090934c0591320af54e2bfc1aa6f0", "rental_uris": {"android": "https://dc.lft.to/lastmile_qr_scan", "ios": "https://dc.lft.to/lastmile_qr_scan"}, "is_disabled": 0, "fusion_lat": 0.0, "lat": 38.90420066666667, "is_reserved": 0}, {"lon": -77.02996383333333, "fusion_lon": 0.0, "bike_id": "1fdb64d5556327aba8e93453780462f6", "type": "electric_scooter", "name": "1fdb64d5556327aba8e93453780462f6", "rental_uris": {"android": "https://dc.lft.to/lastmile_qr_scan", "ios": "https://dc.lft.to/lastmile_qr_scan"}, "is_disabled": 0, "fusion_lat": 0.0, "lat": 38.903757, "is_reserved": 0}, {"lon": -76.9997275, "fusion_lon": 0.0, "bike_id": "97f1791743a888141f67b104143238b9", "type": "electric_scooter", "name": "97f1791743a888141f67b104143238b9", "rental_uris": {"android": "https://dc.lft.to/lastmile_qr_scan", "ios": "https://dc.lft.to/lastmile_qr_scan"}, "is_disabled": 0, "fusion_lat": 0.0, "lat": 38.875108166666664, "is_reserved": 0}, {"lon": -77.037156, "fusion_lon": 0.0, "bike_id": "0c317d194002ab9a81046ac24be2a8d8", "type": "electric_scooter", "name": "0c317d194002ab9a81046ac24be2a8d8", "rental_uris": {"android": "https://dc.lft.to/lastmile_qr_scan", "ios": "https://dc.lft.to/lastmile_qr_scan"}, "is_disabled": 0, "fusion_lat": 0.0, "lat": 38.9026575, "is_reserved": 0}, {"lon": -76.983397, "fusion_lon": 0.0, "bike_id": "de66ddbe54cc25f9f438b55a003d9c31", "type": "electric_scooter", "name": "de66ddbe54cc25f9f438b55a003d9c31", "rental_uris": {"android": "https://dc.lft.to/lastmile_qr_scan", "ios": "https://dc.lft.to/lastmile_qr_scan"}, "is_disabled": 0, "fusion_lat": 0.0, "lat": 38.865620666666665, "is_reserved": 0}, {"lon": -77.0586095, "fusion_lon": 0.0, "bike_id": "6c7fc5ca537abf616f1a5b1e558ab049", "type": "electric_scooter", "name": "6c7fc5ca537abf616f1a5b1e558ab049", "rental_uris": {"android": "https://dc.lft.to/lastmile_qr_scan", "ios": "https://dc.lft.to/lastmile_qr_scan"}, "is_disabled": 0, "fusion_lat": 0.0, "lat": 38.936096, "is_reserved": 0}, {"lon": -77.03853266666667, "fusion_lon": 0.0, "bike_id": "538d518b8210356bc0e9fa69081d4063", "type": "electric_scooter", "name": "538d518b8210356bc0e9fa69081d4063", "rental_uris": {"android": "https://dc.lft.to/lastmile_qr_scan", "ios": "https://dc.lft.to/lastmile_qr_scan"}, "is_disabled": 0, "fusion_lat": 0.0, "lat": 38.90280033333333, "is_reserved": 0}, {"lon": -77.08068383333334, "fusion_lon": 0.0, "bike_id": "1a8ea3cc30b4feb02a155c20e31d22b3", "type": "electric_bike", "name": "1a8ea3cc30b4feb02a155c20e31d22b3", "rental_uris": {"android": "https://dc.lft.to/lastmile_qr_scan", "ios": "https://dc.lft.to/lastmile_qr_scan"}, "is_disabled": 0, "fusion_lat": 0.0, "lat": 39.05254516666667, "is_reserved": 0}, {"lon": -77.01762116666667, "fusion_lon": 0.0, "bike_id": "49e1e16cdc026886333172cb07bc797c", "type": "electric_scooter", "name": "49e1e16cdc026886333172cb07bc797c", "rental_uris": {"android": "https://dc.lft.to/lastmile_qr_scan", "ios": "https://dc.lft.to/lastmile_qr_scan"}, "is_disabled": 0, "fusion_lat": 0.0, "lat": 38.901038666666665, "is_reserved": 0}, {"lon": -76.97033233333333, "fusion_lon": 0.0, "bike_id": "577019a94ffb601e6b6b4c4804460945", "type": "electric_scooter", "name": "577019a94ffb601e6b6b4c4804460945", "rental_uris": {"android": "https://dc.lft.to/lastmile_qr_scan", "ios": "https://dc.lft.to/lastmile_qr_scan"}, "is_disabled": 0, "fusion_lat": 0.0, "lat": 38.87360666666667, "is_reserved": 0}, {"lon": -77.02956866666666, "fusion_lon": 0.0, "bike_id": "d9768fbf432ffd735dfcf2c29895efe2", "type": "electric_scooter", "name": "d9768fbf432ffd735dfcf2c29895efe2", "rental_uris": {"android": "https://dc.lft.to/lastmile_qr_scan", "ios": "https://dc.lft.to/lastmile_qr_scan"}, "is_disabled": 0, "fusion_lat": 0.0, "lat": 38.90301683333333, "is_reserved": 0}, {"lon": -77.051383, "fusion_lon": 0.0, "bike_id": "9b50a85043c067eeab13c4f978435471", "type": "electric_scooter", "name": "9b50a85043c067eeab13c4f978435471", "rental_uris": {"android": "https://dc.lft.to/lastmile_qr_scan", "ios": "https://dc.lft.to/lastmile_qr_scan"}, "is_disabled": 0, "fusion_lat": 0.0, "lat": 38.901834, "is_reserved": 0}, {"lon": -77.046219, "fusion_lon": 0.0, "bike_id": "064d09419b69ce09bc4537bc3e7b683e", "type": "electric_scooter", "name": "064d09419b69ce09bc4537bc3e7b683e", "rental_uris": {"android": "https://dc.lft.to/lastmile_qr_scan", "ios": "https://dc.lft.to/lastmile_qr_scan"}, "is_disabled": 0, "fusion_lat": 0.0, "lat": 38.91681116666667, "is_reserved": 0}, {"lon": -77.02287133333333, "fusion_lon": 0.0, "bike_id": "854ca37ba84e5b41848ac650c8eac85d", "type": "electric_scooter", "name": "854ca37ba84e5b41848ac650c8eac85d", "rental_uris": {"android": "https://dc.lft.to/lastmile_qr_scan", "ios": "https://dc.lft.to/lastmile_qr_scan"}, "is_disabled": 0, "fusion_lat": 0.0, "lat": 38.89499416666666, "is_reserved": 0}, {"lon": -77.02402516666666, "fusion_lon": 0.0, "bike_id": "f3a1f1eb7b415c98abd1a903d27228cc", "type": "electric_scooter", "name": "f3a1f1eb7b415c98abd1a903d27228cc", "rental_uris": {"android": "https://dc.lft.to/lastmile_qr_scan", "ios": "https://dc.lft.to/lastmile_qr_scan"}, "is_disabled": 0, "fusion_lat": 0.0, "lat": 38.90544766666667, "is_reserved": 0}, {"lon": -77.04505216666666, "fusion_lon": 0.0, "bike_id": "4f13501b7b9363a996f83c3eee5b1b6c", "type": "electric_scooter", "name": "4f13501b7b9363a996f83c3eee5b1b6c", "rental_uris": {"android": "https://dc.lft.to/lastmile_qr_scan", "ios": "https://dc.lft.to/lastmile_qr_scan"}, "is_disabled": 0, "fusion_lat": 0.0, "lat": 38.903703666666665, "is_reserved": 0}, {"lon": -77.013672, "fusion_lon": 0.0, "bike_id": "75aab34617badc90cac009cdfccbe503", "type": "electric_scooter", "name": "75aab34617badc90cac009cdfccbe503", "rental_uris": {"android": "https://dc.lft.to/lastmile_qr_scan", "ios": "https://dc.lft.to/lastmile_qr_scan"}, "is_disabled": 0, "fusion_lat": 0.0, "lat": 38.92891483333333, "is_reserved": 0}, {"lon": -77.033827, "fusion_lon": 0.0, "bike_id": "dd9a43fd207cd0784b2a8794fb1b2f18", "type": "electric_scooter", "name": "dd9a43fd207cd0784b2a8794fb1b2f18", "rental_uris": {"android": "https://dc.lft.to/lastmile_qr_scan", "ios": "https://dc.lft.to/lastmile_qr_scan"}, "is_disabled": 0, "fusion_lat": 0.0, "lat": 38.925391166666664, "is_reserved": 0}, {"lon": -77.044927, "fusion_lon": 0.0, "bike_id": "13e1b2e5ab62c553036f48640b357c61", "type": "electric_scooter", "name": "13e1b2e5ab62c553036f48640b357c61", "rental_uris": {"android": "https://dc.lft.to/lastmile_qr_scan", "ios": "https://dc.lft.to/lastmile_qr_scan"}, "is_disabled": 0, "fusion_lat": 0.0, "lat": 38.897373, "is_reserved": 0}, {"lon": -77.00491116666667, "fusion_lon": 0.0, "bike_id": "46a66ccb61b4da6753b220836215dee1", "type": "electric_scooter", "name": "46a66ccb61b4da6753b220836215dee1", "rental_uris": {"android": "https://dc.lft.to/lastmile_qr_scan", "ios": "https://dc.lft.to/lastmile_qr_scan"}, "is_disabled": 0, "fusion_lat": 0.0, "lat": 38.87453633333333, "is_reserved": 0}, {"lon": -77.04188033333334, "fusion_lon": 0.0, "bike_id": "3f746193dd7d51063e6b117168a9faa7", "type": "electric_scooter", "name": "3f746193dd7d51063e6b117168a9faa7", "rental_uris": {"android": "https://dc.lft.to/lastmile_qr_scan", "ios": "https://dc.lft.to/lastmile_qr_scan"}, "is_disabled": 0, "fusion_lat": 0.0, "lat": 38.92051566666667, "is_reserved": 0}, {"lon": -76.98142466666667, "fusion_lon": 0.0, "bike_id": "fd29896e33ab0c1bf404409f8172a6df", "type": "electric_scooter", "name": "fd29896e33ab0c1bf404409f8172a6df", "rental_uris": {"android": "https://dc.lft.to/lastmile_qr_scan", "ios": "https://dc.lft.to/lastmile_qr_scan"}, "is_disabled": 0, "fusion_lat": 0.0, "lat": 38.897456, "is_reserved": 0}, {"lon": -77.02694066666666, "fusion_lon": 0.0, "bike_id": "c305f7b0bb6eef505f0441501571b5fe", "type": "electric_scooter", "name": "c305f7b0bb6eef505f0441501571b5fe", "rental_uris": {"android": "https://dc.lft.to/lastmile_qr_scan", "ios": "https://dc.lft.to/lastmile_qr_scan"}, "is_disabled": 0, "fusion_lat": 0.0, "lat": 38.906821666666666, "is_reserved": 0}, {"lon": -77.00718283333333, "fusion_lon": 0.0, "bike_id": "e937cb1907f350c34896d87cff4c8bb3", "type": "electric_scooter", "name": "e937cb1907f350c34896d87cff4c8bb3", "rental_uris": {"android": "https://dc.lft.to/lastmile_qr_scan", "ios": "https://dc.lft.to/lastmile_qr_scan"}, "is_disabled": 0, "fusion_lat": 0.0, "lat": 38.925432, "is_reserved": 0}, {"lon": -77.01950633333334, "fusion_lon": 0.0, "bike_id": "4c9e84553da40bc3d96e635922ca5317", "type": "electric_scooter", "name": "4c9e84553da40bc3d96e635922ca5317", "rental_uris": {"android": "https://dc.lft.to/lastmile_qr_scan", "ios": "https://dc.lft.to/lastmile_qr_scan"}, "is_disabled": 0, "fusion_lat": 0.0, "lat": 38.924101, "is_reserved": 0}, {"lon": -77.02630783333333, "fusion_lon": 0.0, "bike_id": "ff6b25e0dd5fa1662858f5b585dc77bc", "type": "electric_scooter", "name": "ff6b25e0dd5fa1662858f5b585dc77bc", "rental_uris": {"android": "https://dc.lft.to/lastmile_qr_scan", "ios": "https://dc.lft.to/lastmile_qr_scan"}, "is_disabled": 0, "fusion_lat": 0.0, "lat": 38.887698666666665, "is_reserved": 0}, {"lon": -77.03999116666667, "fusion_lon": 0.0, "bike_id": "4c3a5d71cb1c1eec5ecaa30a6f850616", "type": "electric_scooter", "name": "4c3a5d71cb1c1eec5ecaa30a6f850616", "rental_uris": {"android": "https://dc.lft.to/lastmile_qr_scan", "ios": "https://dc.lft.to/lastmile_qr_scan"}, "is_disabled": 0, "fusion_lat": 0.0, "lat": 38.903341166666664, "is_reserved": 0}, {"lon": -77.02404066666666, "fusion_lon": 0.0, "bike_id": "7b5b40441b813d0878663ee1915ebea5", "type": "electric_scooter", "name": "7b5b40441b813d0878663ee1915ebea5", "rental_uris": {"android": "https://dc.lft.to/lastmile_qr_scan", "ios": "https://dc.lft.to/lastmile_qr_scan"}, "is_disabled": 0, "fusion_lat": 0.0, "lat": 38.92501633333333, "is_reserved": 0}, {"lon": -76.96829616666666, "fusion_lon": 0.0, "bike_id": "f89569756ba2e1c3a8ae30fa97816965", "type": "electric_scooter", "name": "f89569756ba2e1c3a8ae30fa97816965", "rental_uris": {"android": "https://dc.lft.to/lastmile_qr_scan", "ios": "https://dc.lft.to/lastmile_qr_scan"}, "is_disabled": 0, "fusion_lat": 0.0, "lat": 38.873351, "is_reserved": 0}, {"lon": -76.99062016666667, "fusion_lon": 0.0, "bike_id": "1874bdcb9202714326145891f77a6327", "type": "electric_scooter", "name": "1874bdcb9202714326145891f77a6327", "rental_uris": {"android": "https://dc.lft.to/lastmile_qr_scan", "ios": "https://dc.lft.to/lastmile_qr_scan"}, "is_disabled": 0, "fusion_lat": 0.0, "lat": 38.86370566666667, "is_reserved": 0}, {"lon": -77.03823266666667, "fusion_lon": 0.0, "bike_id": "16162d8779791b64907ca0cf469dbf9f", "type": "electric_scooter", "name": "16162d8779791b64907ca0cf469dbf9f", "rental_uris": {"android": "https://dc.lft.to/lastmile_qr_scan", "ios": "https://dc.lft.to/lastmile_qr_scan"}, "is_disabled": 0, "fusion_lat": 0.0, "lat": 38.908005333333335, "is_reserved": 0}, {"lon": -76.96042966666667, "fusion_lon": 0.0, "bike_id": "70d24118f010722e7e12046598eba518", "type": "electric_bike", "name": "70d24118f010722e7e12046598eba518", "rental_uris": {"android": "https://dc.lft.to/lastmile_qr_scan", "ios": "https://dc.lft.to/lastmile_qr_scan"}, "is_disabled": 0, "fusion_lat": 0.0, "lat": 38.967387333333335, "is_reserved": 0}, {"lon": -77.0028985, "fusion_lon": 0.0, "bike_id": "7b0f61733e033d9d1b5f82c6ca35e80e", "type": "electric_scooter", "name": "7b0f61733e033d9d1b5f82c6ca35e80e", "rental_uris": {"android": "https://dc.lft.to/lastmile_qr_scan", "ios": "https://dc.lft.to/lastmile_qr_scan"}, "is_disabled": 0, "fusion_lat": 0.0, "lat": 38.905842666666665, "is_reserved": 0}, {"lon": -77.015318, "fusion_lon": 0.0, "bike_id": "91818ab5cd6b8eced189aa7a872a2a02", "type": "electric_scooter", "name": "91818ab5cd6b8eced189aa7a872a2a02", "rental_uris": {"android": "https://dc.lft.to/lastmile_qr_scan", "ios": "https://dc.lft.to/lastmile_qr_scan"}, "is_disabled": 0, "fusion_lat": 0.0, "lat": 38.887418333333336, "is_reserved": 0}, {"lon": -77.02208233333333, "fusion_lon": 0.0, "bike_id": "ab29f7d6589e9f9ede6b1eecbd168989", "type": "electric_scooter", "name": "ab29f7d6589e9f9ede6b1eecbd168989", "rental_uris": {"android": "https://dc.lft.to/lastmile_qr_scan", "ios": "https://dc.lft.to/lastmile_qr_scan"}, "is_disabled": 0, "fusion_lat": 0.0, "lat": 38.92470983333333, "is_reserved": 0}, {"lon": -76.96913766666667, "fusion_lon": 0.0, "bike_id": "b5a423bbd35bc25e571a1dec2aad8492", "type": "electric_bike", "name": "b5a423bbd35bc25e571a1dec2aad8492", "rental_uris": {"android": "https://dc.lft.to/lastmile_qr_scan", "ios": "https://dc.lft.to/lastmile_qr_scan"}, "is_disabled": 0, "fusion_lat": 0.0, "lat": 38.846192333333335, "is_reserved": 0}, {"lon": -77.014239, "fusion_lon": 0.0, "bike_id": "bd3b58fba756fe68d55314f5a267f481", "type": "electric_scooter", "name": "bd3b58fba756fe68d55314f5a267f481", "rental_uris": {"android": "https://dc.lft.to/lastmile_qr_scan", "ios": "https://dc.lft.to/lastmile_qr_scan"}, "is_disabled": 0, "fusion_lat": 0.0, "lat": 38.90963716666667, "is_reserved": 0}, {"lon": -77.03634466666666, "fusion_lon": 0.0, "bike_id": "1dee1652a3687261291cc90091aee625", "type": "electric_scooter", "name": "1dee1652a3687261291cc90091aee625", "rental_uris": {"android": "https://dc.lft.to/lastmile_qr_scan", "ios": "https://dc.lft.to/lastmile_qr_scan"}, "is_disabled": 0, "fusion_lat": 0.0, "lat": 38.93072083333333, "is_reserved": 0}, {"lon": -77.019866, "fusion_lon": 0.0, "bike_id": "4bb610794dcd49ff380058757d0830a7", "type": "electric_scooter", "name": "4bb610794dcd49ff380058757d0830a7", "rental_uris": {"android": "https://dc.lft.to/lastmile_qr_scan", "ios": "https://dc.lft.to/lastmile_qr_scan"}, "is_disabled": 0, "fusion_lat": 0.0, "lat": 38.88037633333333, "is_reserved": 0}, {"lon": -77.02157983333333, "fusion_lon": 0.0, "bike_id": "c530c47e015c8c45b424e8a2096e4e58", "type": "electric_scooter", "name": "c530c47e015c8c45b424e8a2096e4e58", "rental_uris": {"android": "https://dc.lft.to/lastmile_qr_scan", "ios": "https://dc.lft.to/lastmile_qr_scan"}, "is_disabled": 0, "fusion_lat": 0.0, "lat": 38.926046, "is_reserved": 0}, {"lon": -77.048763, "fusion_lon": 0.0, "bike_id": "36f22164251b18156dad705071c07262", "type": "electric_scooter", "name": "36f22164251b18156dad705071c07262", "rental_uris": {"android": "https://dc.lft.to/lastmile_qr_scan", "ios": "https://dc.lft.to/lastmile_qr_scan"}, "is_disabled": 0, "fusion_lat": 0.0, "lat": 38.90312083333333, "is_reserved": 0}, {"lon": -77.03593883333333, "fusion_lon": 0.0, "bike_id": "29d250541eb3f3c11696ddef6846219c", "type": "electric_scooter", "name": "29d250541eb3f3c11696ddef6846219c", "rental_uris": {"android": "https://dc.lft.to/lastmile_qr_scan", "ios": "https://dc.lft.to/lastmile_qr_scan"}, "is_disabled": 0, "fusion_lat": 0.0, "lat": 38.936729166666666, "is_reserved": 0}, {"lon": -77.01780066666667, "fusion_lon": 0.0, "bike_id": "fccaf677339951450d9bcc8b0b3639ff", "type": "electric_scooter", "name": "fccaf677339951450d9bcc8b0b3639ff", "rental_uris": {"android": "https://dc.lft.to/lastmile_qr_scan", "ios": "https://dc.lft.to/lastmile_qr_scan"}, "is_disabled": 0, "fusion_lat": 0.0, "lat": 38.887113, "is_reserved": 0}, {"lon": -77.02704666666666, "fusion_lon": 0.0, "bike_id": "386942e5d4ff98e7cbb507c3d1c5a10b", "type": "electric_scooter", "name": "386942e5d4ff98e7cbb507c3d1c5a10b", "rental_uris": {"android": "https://dc.lft.to/lastmile_qr_scan", "ios": "https://dc.lft.to/lastmile_qr_scan"}, "is_disabled": 0, "fusion_lat": 0.0, "lat": 38.906767, "is_reserved": 0}, {"lon": -77.02843183333333, "fusion_lon": 0.0, "bike_id": "63aa683173c83284d9fd3538907424c9", "type": "electric_bike", "name": "63aa683173c83284d9fd3538907424c9", "rental_uris": {"android": "https://dc.lft.to/lastmile_qr_scan", "ios": "https://dc.lft.to/lastmile_qr_scan"}, "is_disabled": 0, "fusion_lat": 0.0, "lat": 38.94259233333333, "is_reserved": 0}, {"lon": -77.0679665, "fusion_lon": 0.0, "bike_id": "db9bd4570bf6617a4d5cf917f16b7373", "type": "electric_scooter", "name": "db9bd4570bf6617a4d5cf917f16b7373", "rental_uris": {"android": "https://dc.lft.to/lastmile_qr_scan", "ios": "https://dc.lft.to/lastmile_qr_scan"}, "is_disabled": 0, "fusion_lat": 0.0, "lat": 38.91270433333333, "is_reserved": 0}, {"lon": -77.02952183333333, "fusion_lon": 0.0, "bike_id": "24c2ee2327195c166d5ea18ca0460e3d", "type": "electric_scooter", "name": "24c2ee2327195c166d5ea18ca0460e3d", "rental_uris": {"android": "https://dc.lft.to/lastmile_qr_scan", "ios": "https://dc.lft.to/lastmile_qr_scan"}, "is_disabled": 0, "fusion_lat": 0.0, "lat": 38.90229133333333, "is_reserved": 0}, {"lon": -77.04507216666667, "fusion_lon": 0.0, "bike_id": "e38d9bc3cf47b9d30502d72fe6c42309", "type": "electric_scooter", "name": "e38d9bc3cf47b9d30502d72fe6c42309", "rental_uris": {"android": "https://dc.lft.to/lastmile_qr_scan", "ios": "https://dc.lft.to/lastmile_qr_scan"}, "is_disabled": 0, "fusion_lat": 0.0, "lat": 38.90369366666667, "is_reserved": 0}, {"lon": -77.049731, "fusion_lon": 0.0, "bike_id": "1c1ccc9cc29e5986bfbfbfbfe5bddb30", "type": "electric_scooter", "name": "1c1ccc9cc29e5986bfbfbfbfe5bddb30", "rental_uris": {"android": "https://dc.lft.to/lastmile_qr_scan", "ios": "https://dc.lft.to/lastmile_qr_scan"}, "is_disabled": 0, "fusion_lat": 0.0, "lat": 38.91108166666667, "is_reserved": 0}, {"lon": -76.93339083333333, "fusion_lon": 0.0, "bike_id": "6907c25f0c05108b6c27806f9778e51a", "type": "electric_scooter", "name": "6907c25f0c05108b6c27806f9778e51a", "rental_uris": {"android": "https://dc.lft.to/lastmile_qr_scan", "ios": "https://dc.lft.to/lastmile_qr_scan"}, "is_disabled": 0, "fusion_lat": 0.0, "lat": 38.908667666666666, "is_reserved": 0}, {"lon": -77.02817683333333, "fusion_lon": 0.0, "bike_id": "952c33bbd8b5143862ce217922d43294", "type": "electric_bike", "name": "952c33bbd8b5143862ce217922d43294", "rental_uris": {"android": "https://dc.lft.to/lastmile_qr_scan", "ios": "https://dc.lft.to/lastmile_qr_scan"}, "is_disabled": 0, "fusion_lat": 0.0, "lat": 38.96566133333334, "is_reserved": 0}, {"lon": -77.05353783333334, "fusion_lon": 0.0, "bike_id": "cb2fa52eac6e56f8dadf1ec8db03c796", "type": "electric_scooter", "name": "cb2fa52eac6e56f8dadf1ec8db03c796", "rental_uris": {"android": "https://dc.lft.to/lastmile_qr_scan", "ios": "https://dc.lft.to/lastmile_qr_scan"}, "is_disabled": 0, "fusion_lat": 0.0, "lat": 38.92710066666667, "is_reserved": 0}, {"lon": -77.04424933333334, "fusion_lon": 0.0, "bike_id": "54e741574f21d586b348f35e399c793f", "type": "electric_scooter", "name": "54e741574f21d586b348f35e399c793f", "rental_uris": {"android": "https://dc.lft.to/lastmile_qr_scan", "ios": "https://dc.lft.to/lastmile_qr_scan"}, "is_disabled": 0, "fusion_lat": 0.0, "lat": 38.9100395, "is_reserved": 0}, {"lon": -77.01855416666666, "fusion_lon": 0.0, "bike_id": "25d87772bf9fb5b4a01dbb8f1357c76e", "type": "electric_scooter", "name": "25d87772bf9fb5b4a01dbb8f1357c76e", "rental_uris": {"android": "https://dc.lft.to/lastmile_qr_scan", "ios": "https://dc.lft.to/lastmile_qr_scan"}, "is_disabled": 0, "fusion_lat": 0.0, "lat": 38.949184833333334, "is_reserved": 0}, {"lon": -77.03261366666666, "fusion_lon": 0.0, "bike_id": "988936b505d403f7b02a50c2eee8599c", "type": "electric_scooter", "name": "988936b505d403f7b02a50c2eee8599c", "rental_uris": {"android": "https://dc.lft.to/lastmile_qr_scan", "ios": "https://dc.lft.to/lastmile_qr_scan"}, "is_disabled": 0, "fusion_lat": 0.0, "lat": 38.933997166666664, "is_reserved": 0}, {"lon": -77.09992, "fusion_lon": 0.0, "bike_id": "8c2ccbcb06bdcb8c8ed0d07dbc90a41a", "type": "electric_bike", "name": "8c2ccbcb06bdcb8c8ed0d07dbc90a41a", "rental_uris": {"android": "https://dc.lft.to/lastmile_qr_scan", "ios": "https://dc.lft.to/lastmile_qr_scan"}, "is_disabled": 0, "fusion_lat": 0.0, "lat": 38.8589605, "is_reserved": 0}, {"lon": -77.02342633333333, "fusion_lon": 0.0, "bike_id": "9584b79abfc35c15c5cc5ee09bfced32", "type": "electric_bike", "name": "9584b79abfc35c15c5cc5ee09bfced32", "rental_uris": {"android": "https://dc.lft.to/lastmile_qr_scan", "ios": "https://dc.lft.to/lastmile_qr_scan"}, "is_disabled": 0, "fusion_lat": 0.0, "lat": 38.94092216666667, "is_reserved": 0}, {"lon": -77.0414305, "fusion_lon": 0.0, "bike_id": "0a1184ce52d49c8790aa380db00eca0f", "type": "electric_scooter", "name": "0a1184ce52d49c8790aa380db00eca0f", "rental_uris": {"android": "https://dc.lft.to/lastmile_qr_scan", "ios": "https://dc.lft.to/lastmile_qr_scan"}, "is_disabled": 0, "fusion_lat": 0.0, "lat": 38.91681966666667, "is_reserved": 0}, {"lon": -77.04630483333334, "fusion_lon": 0.0, "bike_id": "177997a369ad81cd0f444f6364af556a", "type": "electric_scooter", "name": "177997a369ad81cd0f444f6364af556a", "rental_uris": {"android": "https://dc.lft.to/lastmile_qr_scan", "ios": "https://dc.lft.to/lastmile_qr_scan"}, "is_disabled": 0, "fusion_lat": 0.0, "lat": 38.915118666666665, "is_reserved": 0}, {"lon": -77.0221565, "fusion_lon": 0.0, "bike_id": "051ec82039d714a1ea30335014088072", "type": "electric_scooter", "name": "051ec82039d714a1ea30335014088072", "rental_uris": {"android": "https://dc.lft.to/lastmile_qr_scan", "ios": "https://dc.lft.to/lastmile_qr_scan"}, "is_disabled": 0, "fusion_lat": 0.0, "lat": 38.896267, "is_reserved": 0}, {"lon": -77.03857433333333, "fusion_lon": 0.0, "bike_id": "2b60cf51f18f1dec7510acba16b57a71", "type": "electric_scooter", "name": "2b60cf51f18f1dec7510acba16b57a71", "rental_uris": {"android": "https://dc.lft.to/lastmile_qr_scan", "ios": "https://dc.lft.to/lastmile_qr_scan"}, "is_disabled": 0, "fusion_lat": 0.0, "lat": 38.90563383333333, "is_reserved": 0}, {"lon": -77.03549266666667, "fusion_lon": 0.0, "bike_id": "21eff16ff88b780ef1a19ca3300b99e9", "type": "electric_scooter", "name": "21eff16ff88b780ef1a19ca3300b99e9", "rental_uris": {"android": "https://dc.lft.to/lastmile_qr_scan", "ios": "https://dc.lft.to/lastmile_qr_scan"}, "is_disabled": 0, "fusion_lat": 0.0, "lat": 38.92513, "is_reserved": 0}, {"lon": -77.02390683333333, "fusion_lon": 0.0, "bike_id": "176870e4d9ebc335c41d84b9fe82ea62", "type": "electric_scooter", "name": "176870e4d9ebc335c41d84b9fe82ea62", "rental_uris": {"android": "https://dc.lft.to/lastmile_qr_scan", "ios": "https://dc.lft.to/lastmile_qr_scan"}, "is_disabled": 0, "fusion_lat": 0.0, "lat": 38.9167985, "is_reserved": 0}, {"lon": -77.01947816666667, "fusion_lon": 0.0, "bike_id": "21379f7295028844d613f843354a147a", "type": "electric_scooter", "name": "21379f7295028844d613f843354a147a", "rental_uris": {"android": "https://dc.lft.to/lastmile_qr_scan", "ios": "https://dc.lft.to/lastmile_qr_scan"}, "is_disabled": 0, "fusion_lat": 0.0, "lat": 38.924183, "is_reserved": 0},