{"data": {"bikes": [{"type": "electric_scooter", "rental_uris": {"ios": "https://dc.lft.to/lastmile_qr_scan", "android": "https://dc.lft.to/lastmile_qr_scan"}, "lon": -76.965286, "fusion_lon": 0.0, "is_disabled": 0, "lat": 38.876303666666665, "bike_id": "56963d23114e55a8753925a550b2ab66", "name": "56963d23114e55a8753925a550b2ab66", "is_reserved": 0, "fusion_lat": 0.0}, {"type": "electric_scooter", "rental_uris": {"ios": "https://dc.lft.to/lastmile_qr_scan", "android": "https://dc.lft.to/lastmile_qr_scan"}, "lon": -76.93136533333333, "fusion_lon": 0.0, "is_disabled": 0, "lat": 38.89341316666667, "bike_id": "5bd132290ab708119d7f695e3d15d1fe", "name": "5bd132290ab708119d7f695e3d15d1fe", "is_reserved": 0, "fusion_lat": 0.0}, {"type": "electric_scooter", "rental_uris": {"ios": "https://dc.lft.to/lastmile_qr_scan", "android": "https://dc.lft.to/lastmile_qr_scan"}, "lon": -77.00570983333333, "fusion_lon": 0.0, "is_disabled": 0, "lat": 38.90884833333333, "bike_id": "c3419e83ec5d296b6020f1093259833c", "name": "c3419e83ec5d296b6020f1093259833c", "is_reserved": 0, "fusion_lat": 0.0}, {"type": "electric_scooter", "rental_uris": {"ios": "https://dc.lft.to/lastmile_qr_scan", "android": "https://dc.lft.to/lastmile_qr_scan"}, "lon": -77.00589983333333, "fusion_lon": 0.0, "is_disabled": 0, "lat": 38.90651233333333, "bike_id": "f403838781e4795fb2e56a9b45dcb8ce", "name": "f403838781e4795fb2e56a9b45dcb8ce", "is_reserved": 0, "fusion_lat": 0.0}, {"type": "electric_scooter", "rental_uris": {"ios": "https://dc.lft.to/lastmile_qr_scan", "android": "https://dc.lft.to/lastmile_qr_scan"}, "lon": -77.02170733333334, "fusion_lon": 0.0, "is_disabled": 0, "lat": 38.94293416666667, "bike_id": "d99ec5d4bc28701bb77151ce760a3451", "name": "d99ec5d4bc28701bb77151ce760a3451", "is_reserved": 0, "fusion_lat": 0.0}, {"type": "electric_scooter", "rental_uris": {"ios": "https://dc.lft.to/lastmile_qr_scan", "android": "https://dc.lft.to/lastmile_qr_scan"}, "lon": -77.00443516666667, "fusion_lon": 0.0, "is_disabled": 0, "lat": 38.91123866666667, "bike_id": "df9881da8f24d8e8127dff1cc7ea8812", "name": "df9881da8f24d8e8127dff1cc7ea8812", "is_reserved": 0, "fusion_lat": 0.0}, {"type": "electric_bike", "rental_uris": {"ios": "https://dc.lft.to/lastmile_qr_scan", "android": "https://dc.lft.to/lastmile_qr_scan"}, "lon": -77.02629816666666, "fusion_lon": 0.0, "is_disabled": 0, "lat": 38.96221666666667, "bike_id": "1bf8997af357357ebb034e677ca40116", "name": "1bf8997af357357ebb034e677ca40116", "is_reserved": 0, "fusion_lat": 0.0}, {"type": "electric_scooter", "rental_uris": {"ios": "https://dc.lft.to/lastmile_qr_scan", "android": "https://dc.lft.to/lastmile_qr_scan"}, "lon": -77.02321016666667, "fusion_lon": 0.0, "is_disabled": 0, "lat": 38.9020605, "bike_id": "c8c55aadaee643099571f6a6d4fb71db", "name": "c8c55aadaee643099571f6a6d4fb71db", "is_reserved": 0, "fusion_lat": 0.0}, {"type": "electric_scooter", "rental_uris": {"ios": "https://dc.lft.to/lastmile_qr_scan", "android": "https://dc.lft.to/lastmile_qr_scan"}, "lon": -77.03419516666666, "fusion_lon": 0.0, "is_disabled": 0, "lat": 38.93543283333333, "bike_id": "13af74d87d044b16465edfcd1d13a44c", "name": "13af74d87d044b16465edfcd1d13a44c", "is_reserved": 0, "fusion_lat": 0.0}, {"type": "electric_scooter", "rental_uris": {"ios": "https://dc.lft.to/lastmile_qr_scan", "android": "https://dc.lft.to/lastmile_qr_scan"}, "lon": -77.057518, "fusion_lon": 0.0, "is_disabled": 0, "lat": 38.9238495, "bike_id": "b6858ef547bce0f7fa2890a3496716dd", "name": "b6858ef547bce0f7fa2890a3496716dd", "is_reserved": 0, "fusion_lat": 0.0}, {"type": "electric_bike", "rental_uris": {"ios": "https://dc.lft.to/lastmile_qr_scan", "android": "https://dc.lft.to/lastmile_qr_scan"}, "lon": -77.107777, "fusion_lon": 0.0, "is_disabled": 0, "lat": 38.89218133333333, "bike_id": "d3d54ddfa1e10248c39dac6d0c26f2cd", "name": "d3d54ddfa1e10248c39dac6d0c26f2cd", "is_reserved": 0, "fusion_lat": 0.0}, {"type": "electric_scooter", "rental_uris": {"ios": "https://dc.lft.to/lastmile_qr_scan", "android": "https://dc.lft.to/lastmile_qr_scan"}, "lon": -77.03657883333334, "fusion_lon": 0.0, "is_disabled": 0, "lat": 38.922797833333334, "bike_id": "3e49176f3d5891b140cb1fed26bc02b1", "name": "3e49176f3d5891b140cb1fed26bc02b1", "is_reserved": 0, "fusion_lat": 0.0}, {"type": "electric_scooter", "rental_uris": {"ios": "https://dc.lft.to/lastmile_qr_scan", "android": "https://dc.lft.to/lastmile_qr_scan"}, "lon": -76.99937733333333, "fusion_lon": 0.0, "is_disabled": 0, "lat": 38.88975716666667, "bike_id": "257c2ee41ae0123a8545d401b5b93e68", "name": "257c2ee41ae0123a8545d401b5b93e68", "is_reserved": 0, "fusion_lat": 0.0}, {"type": "electric_scooter", "rental_uris": {"ios": "https://dc.lft.to/lastmile_qr_scan", "android": "https://dc.lft.to/lastmile_qr_scan"}, "lon": -76.98577083333333, "fusion_lon": 0.0, "is_disabled": 0, "lat": 38.854487, "bike_id": "4eb12921403e5888c4befe0655ced009", "name": "4eb12921403e5888c4befe0655ced009", "is_reserved": 0, "fusion_lat": 0.0}, {"type": "electric_scooter", "rental_uris": {"ios": "https://dc.lft.to/lastmile_qr_scan", "android": "https://dc.lft.to/lastmile_qr_scan"}, "lon": -77.01366216666666, "fusion_lon": 0.0, "is_disabled": 0, "lat": 38.886647333333336, "bike_id": "63313b2f28250f897a3060d08f14d61e", "name": "63313b2f28250f897a3060d08f14d61e", "is_reserved": 0, "fusion_lat": 0.0}, {"type": "electric_scooter", "rental_uris": {"ios": "https://dc.lft.to/lastmile_qr_scan", "android": "https://dc.lft.to/lastmile_qr_scan"}, "lon": -77.0201405, "fusion_lon": 0.0, "is_disabled": 0, "lat": 38.92418383333333, "bike_id": "0a0ab56f1a75467782104e9f48ede900", "name": "0a0ab56f1a75467782104e9f48ede900", "is_reserved": 0, "fusion_lat": 0.0}, {"type": "electric_scooter", "rental_uris": {"ios": "https://dc.lft.to/lastmile_qr_scan", "android": "https://dc.lft.to/lastmile_qr_scan"}, "lon": -77.0224365, "fusion_lon": 0.0, "is_disabled": 0, "lat": 38.87864033333334, "bike_id": "13134bdfbf53eb474d16ec66911ce732", "name": "13134bdfbf53eb474d16ec66911ce732", "is_reserved": 0, "fusion_lat": 0.0}, {"type": "electric_scooter", "rental_uris": {"ios": "https://dc.lft.to/lastmile_qr_scan", "android": "https://dc.lft.to/lastmile_qr_scan"}, "lon": -77.036593, "fusion_lon": 0.0, "is_disabled": 0, "lat": 38.92254616666666, "bike_id": "46feb78d1f2d8966fa37df1057e6e575", "name": "46feb78d1f2d8966fa37df1057e6e575", "is_reserved": 0, "fusion_lat": 0.0}, {"type": "electric_scooter", "rental_uris": {"ios": "https://dc.lft.to/lastmile_qr_scan", "android": "https://dc.lft.to/lastmile_qr_scan"}, "lon": -77.04372633333334, "fusion_lon": 0.0, "is_disabled": 0, "lat": 38.90270966666667, "bike_id": "196a4f929a901a74824d4f5399fae409", "name": "196a4f929a901a74824d4f5399fae409", "is_reserved": 0, "fusion_lat": 0.0}, {"type": "electric_bike", "rental_uris": {"ios": "https://dc.lft.to/lastmile_qr_scan", "android": "https://dc.lft.to/lastmile_qr_scan"}, "lon": -77.033479, "fusion_lon": 0.0, "is_disabled": 0, "lat": 38.96943866666667, "bike_id": "73093297bf997e08ea11f81ea55734b1", "name": "73093297bf997e08ea11f81ea55734b1", "is_reserved": 0, "fusion_lat": 0.0}, {"type": "electric_scooter", "rental_uris": {"ios": "https://dc.lft.to/lastmile_qr_scan", "android": "https://dc.lft.to/lastmile_qr_scan"}, "lon": -77.04668666666667, "fusion_lon": 0.0, "is_disabled": 0, "lat": 38.909437833333335, "bike_id": "0c253c832dd8e5bc80ae7d719523cf48", "name": "0c253c832dd8e5bc80ae7d719523cf48", "is_reserved": 0, "fusion_lat": 0.0}, {"type": "electric_scooter", "rental_uris": {"ios": "https://dc.lft.to/lastmile_qr_scan", "android": "https://dc.lft.to/lastmile_qr_scan"}, "lon": -77.037435, "fusion_lon": 0.0, "is_disabled": 0, "lat": 38.9309135, "bike_id": "34cfa2d5e1ca6850b5dc30b62ecc59ae", "name": "34cfa2d5e1ca6850b5dc30b62ecc59ae", "is_reserved": 0, "fusion_lat": 0.0}, {"type": "electric_scooter", "rental_uris": {"ios": "https://dc.lft.to/lastmile_qr_scan", "android": "https://dc.lft.to/lastmile_qr_scan"}, "lon": -76.97926983333333, "fusion_lon": 0.0, "is_disabled": 0, "lat": 38.9050175, "bike_id": "99b5b730b1c02ed3988d0e051207fc6c", "name": "99b5b730b1c02ed3988d0e051207fc6c", "is_reserved": 0, "fusion_lat": 0.0}, {"type": "electric_scooter", "rental_uris": {"ios": "https://dc.lft.to/lastmile_qr_scan", "android": "https://dc.lft.to/lastmile_qr_scan"}, "lon": -77.03166133333333, "fusion_lon": 0.0, "is_disabled": 0, "lat": 38.91866233333333, "bike_id": "3f856b18f650f332a6d30287797d3981", "name": "3f856b18f650f332a6d30287797d3981", "is_reserved": 0, "fusion_lat": 0.0}, {"type": "electric_scooter", "rental_uris": {"ios": "https://dc.lft.to/lastmile_qr_scan", "android": "https://dc.lft.to/lastmile_qr_scan"}, "lon": -77.0321815, "fusion_lon": 0.0, "is_disabled": 0, "lat": 38.892185166666664, "bike_id": "b73f3e129b4cec5b454dc3cc7b0446b8", "name": "b73f3e129b4cec5b454dc3cc7b0446b8", "is_reserved": 0, "fusion_lat": 0.0}, {"type": "electric_scooter", "rental_uris": {"ios": "https://dc.lft.to/lastmile_qr_scan", "android": "https://dc.lft.to/lastmile_qr_scan"}, "lon": -77.03213833333334, "fusion_lon": 0.0, "is_disabled": 0, "lat": 38.8921335, "bike_id": "58cfe74101003e7203f00f4fdaddcd46", "name": "58cfe74101003e7203f00f4fdaddcd46", "is_reserved": 0, "fusion_lat": 0.0}, {"type": "electric_scooter", "rental_uris": {"ios": "https://dc.lft.to/lastmile_qr_scan", "android": "https://dc.lft.to/lastmile_qr_scan"}, "lon": -77.044773, "fusion_lon": 0.0, "is_disabled": 0, "lat": 38.90786116666666, "bike_id": "dd95c85376399e58f70748d23f5aa32f", "name": "dd95c85376399e58f70748d23f5aa32f", "is_reserved": 0, "fusion_lat": 0.0}, {"type": "electric_scooter", "rental_uris": {"ios": "https://dc.lft.to/lastmile_qr_scan", "android": "https://dc.lft.to/lastmile_qr_scan"}, "lon": -77.0341, "fusion_lon": 0.0, "is_disabled": 0, "lat": 38.927454833333336, "bike_id": "1ba0a9ad229a9f565ab3acd7dbc2185a", "name": "1ba0a9ad229a9f565ab3acd7dbc2185a", "is_reserved": 0, "fusion_lat": 0.0}, {"type": "electric_scooter", "rental_uris": {"ios": "https://dc.lft.to/lastmile_qr_scan", "android": "https://dc.lft.to/lastmile_qr_scan"}, "lon": -76.9936315, "fusion_lon": 0.0, "is_disabled": 0, "lat": 38.92841833333333, "bike_id": "3cc2870fd856f7f82a5b0bdf9065bfb8", "name": "3cc2870fd856f7f82a5b0bdf9065bfb8", "is_reserved": 0, "fusion_lat": 0.0}, {"type": "electric_scooter", "rental_uris": {"ios": "https://dc.lft.to/lastmile_qr_scan", "android": "https://dc.lft.to/lastmile_qr_scan"}, "lon": -77.03471983333333, "fusion_lon": 0.0, "is_disabled": 0, "lat": 38.929862666666665, "bike_id": "bd1b814ad0d608fc43f7b691e4de941b", "name": "bd1b814ad0d608fc43f7b691e4de941b", "is_reserved": 0, "fusion_lat": 0.0}, {"type": "electric_scooter", "rental_uris": {"ios": "https://dc.lft.to/lastmile_qr_scan", "android": "https://dc.lft.to/lastmile_qr_scan"}, "lon": -77.0316235, "fusion_lon": 0.0, "is_disabled": 0, "lat": 38.892237, "bike_id": "a971f36f0be927e226fd425ac8043e5a", "name": "a971f36f0be927e226fd425ac8043e5a", "is_reserved": 0, "fusion_lat": 0.0}, {"type": "electric_scooter", "rental_uris": {"ios": "https://dc.lft.to/lastmile_qr_scan", "android": "https://dc.lft.to/lastmile_qr_scan"}, "lon": -77.04268433333333, "fusion_lon": 0.0, "is_disabled": 0, "lat": 38.9133955, "bike_id": "ab6453b00fa1e9017a8ec40315394c17", "name": "ab6453b00fa1e9017a8ec40315394c17", "is_reserved": 0, "fusion_lat": 0.0}, {"type": "electric_scooter", "rental_uris": {"ios": "https://dc.lft.to/lastmile_qr_scan", "android": "https://dc.lft.to/lastmile_qr_scan"}, "lon": -77.0318675, "fusion_lon": 0.0, "is_disabled": 0, "lat": 38.921343, "bike_id": "381282f68178ee52e752c9d99f4eddac", "name": "381282f68178ee52e752c9d99f4eddac", "is_reserved": 0, "fusion_lat": 0.0}, {"type": "electric_scooter", "rental_uris": {"ios": "https://dc.lft.to/lastmile_qr_scan", "android": "https://dc.lft.to/lastmile_qr_scan"}, "lon": -77.01836916666667, "fusion_lon": 0.0, "is_disabled": 0, "lat": 38.908202833333334, "bike_id": "ceb64a41c7bbeb4f407c5f29d0089945", "name": "ceb64a41c7bbeb4f407c5f29d0089945", "is_reserved": 0, "fusion_lat": 0.0}, {"type": "electric_scooter", "rental_uris": {"ios": "https://dc.lft.to/lastmile_qr_scan", "android": "https://dc.lft.to/lastmile_qr_scan"}, "lon": -77.03141383333333, "fusion_lon": 0.0, "is_disabled": 0, "lat": 38.915666, "bike_id": "3de2e979e57628ea4c1f78678b57b5a6", "name": "3de2e979e57628ea4c1f78678b57b5a6", "is_reserved": 0, "fusion_lat": 0.0}, {"type": "electric_scooter", "rental_uris": {"ios": "https://dc.lft.to/lastmile_qr_scan", "android": "https://dc.lft.to/lastmile_qr_scan"}, "lon": -77.02270416666667, "fusion_lon": 0.0, "is_disabled": 0, "lat": 38.87832483333333, "bike_id": "290d69384ffdc0fd15d92389f8ac59fe", "name": "290d69384ffdc0fd15d92389f8ac59fe", "is_reserved": 0, "fusion_lat": 0.0}, {"type": "electric_bike", "rental_uris": {"ios": "https://dc.lft.to/lastmile_qr_scan", "android": "https://dc.lft.to/lastmile_qr_scan"}, "lon": -77.0880605, "fusion_lon": 0.0, "is_disabled": 0, "lat": 38.86236783333333, "bike_id": "2e0be75e4ff6f89e384db65822c8d489", "name": "2e0be75e4ff6f89e384db65822c8d489", "is_reserved": 0, "fusion_lat": 0.0}, {"type": "electric_scooter", "rental_uris": {"ios": "https://dc.lft.to/lastmile_qr_scan", "android": "https://dc.lft.to/lastmile_qr_scan"}, "lon": -77.02591083333333, "fusion_lon": 0.0, "is_disabled": 0, "lat": 38.94199916666667, "bike_id": "7ba3a088aa20f88d4b00e687296caa39", "name": "7ba3a088aa20f88d4b00e687296caa39", "is_reserved": 0, "fusion_lat": 0.0}, {"type": "electric_scooter", "rental_uris": {"ios": "https://dc.lft.to/lastmile_qr_scan", "android": "https://dc.lft.to/lastmile_qr_scan"}, "lon": -77.01374283333334, "fusion_lon": 0.0, "is_disabled": 0, "lat": 38.892227166666665, "bike_id": "bd493e0e8be49d1f1b42dd2d92883e8f", "name": "bd493e0e8be49d1f1b42dd2d92883e8f", "is_reserved": 0, "fusion_lat": 0.0}, {"type": "electric_bike", "rental_uris": {"ios": "https://dc.lft.to/lastmile_qr_scan", "android": "https://dc.lft.to/lastmile_qr_scan"}, "lon": -77.05040283333334, "fusion_lon": 0.0, "is_disabled": 0, "lat": 39.0388825, "bike_id": "0d6cd6e1c8bd2a7069d837e1f602e2a7", "name": "0d6cd6e1c8bd2a7069d837e1f602e2a7", "is_reserved": 0, "fusion_lat": 0.0}, {"type": "electric_scooter", "rental_uris": {"ios": "https://dc.lft.to/lastmile_qr_scan", "android": "https://dc.lft.to/lastmile_qr_scan"}, "lon": -76.99404866666667, "fusion_lon": 0.0, "is_disabled": 0, "lat": 38.877953166666664, "bike_id": "4af1ccbc00ebdcbd4c288962d8e2cba4", "name": "4af1ccbc00ebdcbd4c288962d8e2cba4", "is_reserved": 0, "fusion_lat": 0.0}, {"type": "electric_scooter", "rental_uris": {"ios": "https://dc.lft.to/lastmile_qr_scan", "android": "https://dc.lft.to/lastmile_qr_scan"}, "lon": -77.02982016666667, "fusion_lon": 0.0, "is_disabled": 0, "lat": 38.917063166666665, "bike_id": "8b4ba80e48ddbab7954cfb35230f6c61", "name": "8b4ba80e48ddbab7954cfb35230f6c61", "is_reserved": 0, "fusion_lat": 0.0}, {"type": "electric_bike", "rental_uris": {"ios": "https://dc.lft.to/lastmile_qr_scan", "android": "https://dc.lft.to/lastmile_qr_scan"}, "lon": -76.9879945, "fusion_lon": 0.0, "is_disabled": 0, "lat": 38.922102, "bike_id": "2a2d6cd3ba66a83e7745443112efd821", "name": "2a2d6cd3ba66a83e7745443112efd821", "is_reserved": 0, "fusion_lat": 0.0}, {"type": "electric_scooter", "rental_uris": {"ios": "https://dc.lft.to/lastmile_qr_scan", "android": "https://dc.lft.to/lastmile_qr_scan"}, "lon": -77.03587766666666, "fusion_lon": 0.0, "is_disabled": 0, "lat": 38.93312783333333, "bike_id": "40fa8c75625932e2f7f5f3e5f53758e1", "name": "40fa8c75625932e2f7f5f3e5f53758e1", "is_reserved": 0, "fusion_lat": 0.0}, {"type": "electric_scooter", "rental_uris": {"ios": "https://dc.lft.to/lastmile_qr_scan", "android": "https://dc.lft.to/lastmile_qr_scan"}, "lon": -77.02219033333333, "fusion_lon": 0.0, "is_disabled": 0, "lat": 38.91277016666667, "bike_id": "366451bbe95a2c58f1ce0b654d5af84c", "name": "366451bbe95a2c58f1ce0b654d5af84c", "is_reserved": 0, "fusion_lat": 0.0}, {"type": "electric_scooter", "rental_uris": {"ios": "https://dc.lft.to/lastmile_qr_scan", "android": "https://dc.lft.to/lastmile_qr_scan"}, "lon": -77.04325483333334, "fusion_lon": 0.0, "is_disabled": 0, "lat": 38.892238166666665, "bike_id": "9fcfaa23766fe4964dbdc9db8aa0cba8", "name": "9fcfaa23766fe4964dbdc9db8aa0cba8", "is_reserved": 0, "fusion_lat": 0.0}, {"type": "electric_scooter", "rental_uris": {"ios": "https://dc.lft.to/lastmile_qr_scan", "android": "https://dc.lft.to/lastmile_qr_scan"}, "lon": -77.0137105, "fusion_lon": 0.0, "is_disabled": 0, "lat": 38.892226, "bike_id": "a7ef402172333bd4cc015f9bdfec66e2", "name": "a7ef402172333bd4cc015f9bdfec66e2", "is_reserved": 0, "fusion_lat": 0.0}, {"type": "electric_scooter", "rental_uris": {"ios": "https://dc.lft.to/lastmile_qr_scan", "android": "https://dc.lft.to/lastmile_qr_scan"}, "lon": -77.02764433333333, "fusion_lon": 0.0, "is_disabled": 0, "lat": 38.897228, "bike_id": "8d31810ad3b312676c4c7b386822c128", "name": "8d31810ad3b312676c4c7b386822c128", "is_reserved": 0, "fusion_lat": 0.0}, {"type": "electric_scooter", "rental_uris": {"ios": "https://dc.lft.to/lastmile_qr_scan", "android": "https://dc.lft.to/lastmile_qr_scan"}, "lon": -77.02797433333333, "fusion_lon": 0.0, "is_disabled": 0, "lat": 38.8923625, "bike_id": "1cd1dd1d24040ebc84a886277dd98433", "name": "1cd1dd1d24040ebc84a886277dd98433", "is_reserved": 0, "fusion_lat": 0.0}, {"type": "electric_scooter", "rental_uris": {"ios": "https://dc.lft.to/lastmile_qr_scan", "android": "https://dc.lft.to/lastmile_qr_scan"}, "lon": -77.03340616666667, "fusion_lon": 0.0, "is_disabled": 0, "lat": 38.892234333333334, "bike_id": "ef0c1a92d983b19e2eee91d7913f4b37", "name": "ef0c1a92d983b19e2eee91d7913f4b37", "is_reserved": 0, "fusion_lat": 0.0}, {"type": "electric_scooter", "rental_uris": {"ios": "https://dc.lft.to/lastmile_qr_scan", "android": "https://dc.lft.to/lastmile_qr_scan"}, "lon": -76.98924216666667, "fusion_lon": 0.0, "is_disabled": 0, "lat": 38.840758, "bike_id": "ed33bc415d6bdfa441a6911de1b564ca", "name": "ed33bc415d6bdfa441a6911de1b564ca", "is_reserved": 0, "fusion_lat": 0.0}, {"type": "electric_scooter", "rental_uris": {"ios": "https://dc.lft.to/lastmile_qr_scan", "android": "https://dc.lft.to/lastmile_qr_scan"}, "lon": -77.00395516666667, "fusion_lon": 0.0, "is_disabled": 0, "lat": 38.91053216666667, "bike_id": "4f3f2a2a0e98e96a81900b79548dd874", "name": "4f3f2a2a0e98e96a81900b79548dd874", "is_reserved": 0, "fusion_lat": 0.0}, {"type": "electric_scooter", "rental_uris": {"ios": "https://dc.lft.to/lastmile_qr_scan", "android": "https://dc.lft.to/lastmile_qr_scan"}, "lon": -77.03727666666667, "fusion_lon": 0.0, "is_disabled": 0, "lat": 38.917089, "bike_id": "7194563085ddbea852ecd4a0e808365f", "name": "7194563085ddbea852ecd4a0e808365f", "is_reserved": 0, "fusion_lat": 0.0}, {"type": "electric_scooter", "rental_uris": {"ios": "https://dc.lft.to/lastmile_qr_scan", "android": "https://dc.lft.to/lastmile_qr_scan"}, "lon": -77.035389, "fusion_lon": 0.0, "is_disabled": 0, "lat": 38.92639333333333, "bike_id": "148ab9ea69cc7d1d04d97be42820f530", "name": "148ab9ea69cc7d1d04d97be42820f530", "is_reserved": 0, "fusion_lat": 0.0}, {"type": "electric_scooter", "rental_uris": {"ios": "https://dc.lft.to/lastmile_qr_scan", "android": "https://dc.lft.to/lastmile_qr_scan"}, "lon": -77.02714666666667, "fusion_lon": 0.0, "is_disabled": 0, "lat": 38.9073595, "bike_id": "8d31b3c206b9ba483c96cadfa5a8477e", "name": "8d31b3c206b9ba483c96cadfa5a8477e", "is_reserved": 0, "fusion_lat": 0.0}, {"type": "electric_scooter", "rental_uris": {"ios": "https://dc.lft.to/lastmile_qr_scan", "android": "https://dc.lft.to/lastmile_qr_scan"}, "lon": -77.04855033333334, "fusion_lon": 0.0, "is_disabled": 0, "lat": 38.90463583333333, "bike_id": "0bb9a0109a93ea11195e7f7cf910bae5", "name": "0bb9a0109a93ea11195e7f7cf910bae5", "is_reserved": 0, "fusion_lat": 0.0}, {"type": "electric_scooter", "rental_uris": {"ios": "https://dc.lft.to/lastmile_qr_scan", "android": "https://dc.lft.to/lastmile_qr_scan"}, "lon": -77.02707016666666, "fusion_lon": 0.0, "is_disabled": 0, "lat": 38.901556666666664, "bike_id": "ef19a1f800a27c20a3735a93c022d7e5", "name": "ef19a1f800a27c20a3735a93c022d7e5", "is_reserved": 0, "fusion_lat": 0.0}, {"type": "electric_scooter", "rental_uris": {"ios": "https://dc.lft.to/lastmile_qr_scan", "android": "https://dc.lft.to/lastmile_qr_scan"}, "lon": -77.03211783333333, "fusion_lon": 0.0, "is_disabled": 0, "lat": 38.909702833333334, "bike_id": "a2298be0abe3c9b80233ef5ae0aec21e", "name": "a2298be0abe3c9b80233ef5ae0aec21e", "is_reserved": 0, "fusion_lat": 0.0}, {"type": "electric_scooter", "rental_uris": {"ios": "https://dc.lft.to/lastmile_qr_scan", "android": "https://dc.lft.to/lastmile_qr_scan"}, "lon": -77.052138, "fusion_lon": 0.0, "is_disabled": 0, "lat": 38.9249595, "bike_id": "72b29a5acd4e8ba6542e508b8aeaeea0", "name": "72b29a5acd4e8ba6542e508b8aeaeea0", "is_reserved": 0, "fusion_lat": 0.0}, {"type": "electric_scooter", "rental_uris": {"ios": "https://dc.lft.to/lastmile_qr_scan", "android": "https://dc.lft.to/lastmile_qr_scan"}, "lon": -76.9990555, "fusion_lon": 0.0, "is_disabled": 0, "lat": 38.948258833333334, "bike_id": "30fbef51c585f0e6841e6063889a5bb2", "name": "30fbef51c585f0e6841e6063889a5bb2", "is_reserved": 0, "fusion_lat": 0.0}, {"type": "electric_scooter", "rental_uris": {"ios": "https://dc.lft.to/lastmile_qr_scan", "android": "https://dc.lft.to/lastmile_qr_scan"}, "lon": -76.93606316666667, "fusion_lon": 0.0, "is_disabled": 0, "lat": 38.89681683333333, "bike_id": "aefbd3fe513f583841d679db8310f5de", "name": "aefbd3fe513f583841d679db8310f5de", "is_reserved": 0, "fusion_lat": 0.0}, {"type": "electric_scooter", "rental_uris": {"ios": "https://dc.lft.to/lastmile_qr_scan", "android": "https://dc.lft.to/lastmile_qr_scan"}, "lon": -77.03190616666667, "fusion_lon": 0.0, "is_disabled": 0, "lat": 38.91741416666667, "bike_id": "c4c34603ae7547d3540fb3b8bb493a20", "name": "c4c34603ae7547d3540fb3b8bb493a20", "is_reserved": 0, "fusion_lat": 0.0}, {"type": "electric_scooter", "rental_uris": {"ios": "https://dc.lft.to/lastmile_qr_scan", "android": "https://dc.lft.to/lastmile_qr_scan"}, "lon": -77.021298, "fusion_lon": 0.0, "is_disabled": 0, "lat": 38.887461333333334, "bike_id": "75a55a7641f6d3da23d8093c73627f13", "name": "75a55a7641f6d3da23d8093c73627f13", "is_reserved": 0, "fusion_lat": 0.0}, {"type": "electric_scooter", "rental_uris": {"ios": "https://dc.lft.to/lastmile_qr_scan", "android": "https://dc.lft.to/lastmile_qr_scan"}, "lon": -77.021778, "fusion_lon": 0.0, "is_disabled": 0, "lat": 38.91484783333333, "bike_id": "c553bee90aeb4a3a791cc6c7a58b7945", "name": "c553bee90aeb4a3a791cc6c7a58b7945", "is_reserved": 0, "fusion_lat": 0.0}, {"type": "electric_scooter", "rental_uris": {"ios": "https://dc.lft.to/lastmile_qr_scan", "android": "https://dc.lft.to/lastmile_qr_scan"}, "lon": -77.06037216666667, "fusion_lon": 0.0, "is_disabled": 0, "lat": 38.94470916666667, "bike_id": "2aab9cd510a642e815dc6fe321074fa5", "name": "2aab9cd510a642e815dc6fe321074fa5", "is_reserved": 0, "fusion_lat": 0.0}, {"type": "electric_scooter", "rental_uris": {"ios": "https://dc.lft.to/lastmile_qr_scan", "android": "https://dc.lft.to/lastmile_qr_scan"}, "lon": -77.0605245, "fusion_lon": 0.0, "is_disabled": 0, "lat": 38.902318, "bike_id": "80d714e7be3f206156e6d96fe3cd2755", "name": "80d714e7be3f206156e6d96fe3cd2755", "is_reserved": 0, "fusion_lat": 0.0}, {"type": "electric_scooter", "rental_uris": {"ios": "https://dc.lft.to/lastmile_qr_scan", "android": "https://dc.lft.to/lastmile_qr_scan"}, "lon": -77.04689183333333, "fusion_lon": 0.0, "is_disabled": 0, "lat": 38.897471333333336, "bike_id": "a5b2d1078cb4e1548b7bbb3507f63a91", "name": "a5b2d1078cb4e1548b7bbb3507f63a91", "is_reserved": 0, "fusion_lat": 0.0}, {"type": "electric_scooter", "rental_uris": {"ios": "https://dc.lft.to/lastmile_qr_scan", "android": "https://dc.lft.to/lastmile_qr_scan"}, "lon": -77.03241566666667, "fusion_lon": 0.0, "is_disabled": 0, "lat": 38.908722833333336, "bike_id": "40d3f4c0b4a51433951cb6bfc6beb946", "name": "40d3f4c0b4a51433951cb6bfc6beb946", "is_reserved": 0, "fusion_lat": 0.0}, {"type": "electric_scooter", "rental_uris": {"ios": "https://dc.lft.to/lastmile_qr_scan", "android": "https://dc.lft.to/lastmile_qr_scan"}, "lon": -77.017724, "fusion_lon": 0.0, "is_disabled": 0, "lat": 38.88715933333334, "bike_id": "7277d62ed7e69650a31e7bfd012e11d0", "name": "7277d62ed7e69650a31e7bfd012e11d0", "is_reserved": 0, "fusion_lat": 0.0}, {"type": "electric_scooter", "rental_uris": {"ios": "https://dc.lft.to/lastmile_qr_scan", "android": "https://dc.lft.to/lastmile_qr_scan"}, "lon": -77.04250466666667, "fusion_lon": 0.0, "is_disabled": 0, "lat": 38.91023583333333, "bike_id": "d48bf4c422b5486be8d1cd3795c4b9b9", "name": "d48bf4c422b5486be8d1cd3795c4b9b9", "is_reserved": 0, "fusion_lat": 0.0}, {"type": "electric_scooter", "rental_uris": {"ios": "https://dc.lft.to/lastmile_qr_scan", "android": "https://dc.lft.to/lastmile_qr_scan"}, "lon": -77.02195916666666, "fusion_lon": 0.0, "is_disabled": 0, "lat": 38.911349333333334, "bike_id": "b3d4b2415321e7d0bbdecdf5f25715e6", "name": "b3d4b2415321e7d0bbdecdf5f25715e6", "is_reserved": 0, "fusion_lat": 0.0}, {"type": "electric_scooter", "rental_uris": {"ios": "https://dc.lft.to/lastmile_qr_scan", "android": "https://dc.lft.to/lastmile_qr_scan"}, "lon": -76.98002566666666, "fusion_lon": 0.0, "is_disabled": 0, "lat": 38.853211333333334, "bike_id": "bfd1ceaedee0d9d093a835c388d4ad0b", "name": "bfd1ceaedee0d9d093a835c388d4ad0b", "is_reserved": 0, "fusion_lat": 0.0}, {"type": "electric_scooter", "rental_uris": {"ios": "https://dc.lft.to/lastmile_qr_scan", "android": "https://dc.lft.to/lastmile_qr_scan"}, "lon": -77.03360016666667, "fusion_lon": 0.0, "is_disabled": 0, "lat": 38.892534166666664, "bike_id": "10163aa62ad97e9c1b0d7919f1801ee0", "name": "10163aa62ad97e9c1b0d7919f1801ee0", "is_reserved": 0, "fusion_lat": 0.0}, {"type": "electric_scooter", "rental_uris": {"ios": "https://dc.lft.to/lastmile_qr_scan", "android": "https://dc.lft.to/lastmile_qr_scan"}, "lon": -77.03452833333333, "fusion_lon": 0.0, "is_disabled": 0, "lat": 38.918193333333335, "bike_id": "42ab4525ab1610540b6712f6791748dd", "name": "42ab4525ab1610540b6712f6791748dd", "is_reserved": 0, "fusion_lat": 0.0}, {"type": "electric_scooter", "rental_uris": {"ios": "https://dc.lft.to/lastmile_qr_scan", "android": "https://dc.lft.to/lastmile_qr_scan"}, "lon": -77.02966983333333, "fusion_lon": 0.0, "is_disabled": 0, "lat": 38.92327516666667, "bike_id": "dbcc54d0fa9e4b14dc89047204f87d3b", "name": "dbcc54d0fa9e4b14dc89047204f87d3b", "is_reserved": 0, "fusion_lat": 0.0}, {"type": "electric_scooter", "rental_uris": {"ios": "https://dc.lft.to/lastmile_qr_scan", "android": "https://dc.lft.to/lastmile_qr_scan"}, "lon": -77.03207216666667, "fusion_lon": 0.0, "is_disabled": 0, "lat": 38.914269, "bike_id": "79668ccb6c18929219ad2baa6e92ae23", "name": "79668ccb6c18929219ad2baa6e92ae23", "is_reserved": 0, "fusion_lat": 0.0}, {"type": "electric_scooter", "rental_uris": {"ios": "https://dc.lft.to/lastmile_qr_scan", "android": "https://dc.lft.to/lastmile_qr_scan"}, "lon": -77.04371, "fusion_lon": 0.0, "is_disabled": 0, "lat": 38.902692333333334, "bike_id": "fe270c29532b1f635d526f9638efa233", "name": "fe270c29532b1f635d526f9638efa233", "is_reserved": 0, "fusion_lat": 0.0}, {"type": "electric_scooter", "rental_uris": {"ios": "https://dc.lft.to/lastmile_qr_scan", "android": "https://dc.lft.to/lastmile_qr_scan"}, "lon": -77.04677633333333, "fusion_lon": 0.0, "is_disabled": 0, "lat": 38.91714566666667, "bike_id": "ba51ed9923b9e95053d01796db2ada8b", "name": "ba51ed9923b9e95053d01796db2ada8b", "is_reserved": 0, "fusion_lat": 0.0}, {"type": "electric_scooter", "rental_uris": {"ios": "https://dc.lft.to/lastmile_qr_scan", "android": "https://dc.lft.to/lastmile_qr_scan"}, "lon": -77.03496, "fusion_lon": 0.0, "is_disabled": 0, "lat": 38.92481516666667, "bike_id": "dd5f7765c21fa0e038393f2fa817bc45", "name": "dd5f7765c21fa0e038393f2fa817bc45", "is_reserved": 0, "fusion_lat": 0.0}, {"type": "electric_bike", "rental_uris": {"ios": "https://dc.lft.to/lastmile_qr_scan", "android": "https://dc.lft.to/lastmile_qr_scan"}, "lon": -77.00289166666667, "fusion_lon": 0.0, "is_disabled": 0, "lat": 38.911796833333334, "bike_id": "f1bde9555d091b3d75e52cab637bb822", "name": "f1bde9555d091b3d75e52cab637bb822", "is_reserved": 0, "fusion_lat": 0.0}, {"type": "electric_bike", "rental_uris": {"ios": "https://dc.lft.to/lastmile_qr_scan", "android": "https://dc.lft.to/lastmile_qr_scan"}, "lon": -77.03401366666667, "fusion_lon": 0.0, "is_disabled": 0, "lat": 38.91919633333333, "bike_id": "7e783039ca5426ed24d67b3e5ba991c0", "name": "7e783039ca5426ed24d67b3e5ba991c0", "is_reserved": 0, "fusion_lat": 0.0}, {"type": "electric_scooter", "rental_uris": {"ios": "https://dc.lft.to/lastmile_qr_scan", "android": "https://dc.lft.to/lastmile_qr_scan"}, "lon": -76.93379633333333, "fusion_lon": 0.0, "is_disabled": 0, "lat": 38.895461166666664, "bike_id": "c89c637aabd2fd07ddc22e4c62255681", "name": "c89c637aabd2fd07ddc22e4c62255681", "is_reserved": 0, "fusion_lat": 0.0}, {"type": "electric_scooter", "rental_uris": {"ios": "https://dc.lft.to/lastmile_qr_scan", "android": "https://dc.lft.to/lastmile_qr_scan"}, "lon": -77.04922933333333, "fusion_lon": 0.0, "is_disabled": 0, "lat": 38.90084866666667, "bike_id": "7ab713489a82fcac61b3eeb4d8cb6ce8", "name": "7ab713489a82fcac61b3eeb4d8cb6ce8", "is_reserved": 0, "fusion_lat": 0.0}, {"type": "electric_bike", "rental_uris": {"ios": "https://dc.lft.to/lastmile_qr_scan", "android": "https://dc.lft.to/lastmile_qr_scan"}, "lon": -76.98692133333333, "fusion_lon": 0.0, "is_disabled": 0, "lat": 38.944752, "bike_id": "74cee5aca461d883ab3a0398f7a5df17", "name": "74cee5aca461d883ab3a0398f7a5df17", "is_reserved": 0, "fusion_lat": 0.0}, {"type": "electric_scooter", "rental_uris": {"ios": "https://dc.lft.to/lastmile_qr_scan", "android": "https://dc.lft.to/lastmile_qr_scan"}, "lon": -77.04592266666667, "fusion_lon": 0.0, "is_disabled": 0, "lat": 38.918617833333336, "bike_id": "c01209a731ffba6736d72071af304025", "name": "c01209a731ffba6736d72071af304025", "is_reserved": 0, "fusion_lat": 0.0}, {"type": "electric_scooter", "rental_uris": {"ios": "https://dc.lft.to/lastmile_qr_scan", "android": "https://dc.lft.to/lastmile_qr_scan"}, "lon": -77.03503866666667, "fusion_lon": 0.0, "is_disabled": 0, "lat": 38.92149166666667, "bike_id": "f00d850c988c06a9207583dd85a6d89c", "name": "f00d850c988c06a9207583dd85a6d89c", "is_reserved": 0, "fusion_lat": 0.0}, {"type": "electric_scooter", "rental_uris": {"ios": "https://dc.lft.to/lastmile_qr_scan", "android": "https://dc.lft.to/lastmile_qr_scan"}, "lon": -77.02985516666666, "fusion_lon": 0.0, "is_disabled": 0, "lat": 38.922403, "bike_id": "8e3654210ed9cdac3782f854a485a456", "name": "8e3654210ed9cdac3782f854a485a456", "is_reserved": 0, "fusion_lat": 0.0}, {"type": "electric_scooter", "rental_uris": {"ios": "https://dc.lft.to/lastmile_qr_scan", "android": "https://dc.lft.to/lastmile_qr_scan"}, "lon": -77.0275565, "fusion_lon": 0.0, "is_disabled": 0, "lat": 38.95776566666667, "bike_id": "a58f3642707705bb8717879a3ac5ce45", "name": "a58f3642707705bb8717879a3ac5ce45", "is_reserved": 0, "fusion_lat": 0.0}, {"type": "electric_scooter", "rental_uris": {"ios": "https://dc.lft.to/lastmile_qr_scan", "android": "https://dc.lft.to/lastmile_qr_scan"}, "lon": -77.02172766666666, "fusion_lon": 0.0, "is_disabled": 0, "lat": 38.892981, "bike_id": "963c019823cb0ed7c58fa99c632e8440", "name": "963c019823cb0ed7c58fa99c632e8440", "is_reserved": 0, "fusion_lat": 0.0}, {"type": "electric_scooter", "rental_uris": {"ios": "https://dc.lft.to/lastmile_qr_scan", "android": "https://dc.lft.to/lastmile_qr_scan"}, "lon": -77.0523395, "fusion_lon": 0.0, "is_disabled": 0, "lat": 38.92460716666667, "bike_id": "53728a4138ea81696eb8e5486c1d0d17", "name": "53728a4138ea81696eb8e5486c1d0d17", "is_reserved": 0, "fusion_lat": 0.0}, {"type": "electric_scooter", "rental_uris": {"ios": "https://dc.lft.to/lastmile_qr_scan", "android": "https://dc.lft.to/lastmile_qr_scan"}, "lon": -77.0343425, "fusion_lon": 0.0, "is_disabled": 0, "lat": 38.9097045, "bike_id": "06874de643998b2cbd84e66d05fb1dac", "name": "06874de643998b2cbd84e66d05fb1dac", "is_reserved": 0, "fusion_lat": 0.0}, {"type": "electric_scooter", "rental_uris": {"ios": "https://dc.lft.to/lastmile_qr_scan", "android": "https://dc.lft.to/lastmile_qr_scan"}, "lon": -76.957545, "fusion_lon": 0.0, "is_disabled": 0, "lat": 38.884268166666665, "bike_id": "573375edcb7470923badaedb341f8214", "name": "573375edcb7470923badaedb341f8214", "is_reserved": 0, "fusion_lat": 0.0}, {"type": "electric_scooter", "rental_uris": {"ios": "https://dc.lft.to/lastmile_qr_scan", "android": "https://dc.lft.to/lastmile_qr_scan"}, "lon": -77.02431883333334, "fusion_lon": 0.0, "is_disabled": 0, "lat": 38.92751366666667, "bike_id": "59fd8819b7bcb8332b7ada49ed7c411e", "name": "59fd8819b7bcb8332b7ada49ed7c411e", "is_reserved": 0, "fusion_lat": 0.0}, {"type": "electric_scooter", "rental_uris": {"ios": "https://dc.lft.to/lastmile_qr_scan", "android": "https://dc.lft.to/lastmile_qr_scan"}, "lon": -77.03266666666667, "fusion_lon": 0.0, "is_disabled": 0, "lat": 38.919917, "bike_id": "90f4385a52e69655f28f483b36927e5f", "name": "90f4385a52e69655f28f483b36927e5f", "is_reserved": 0, "fusion_lat": 0.0}, {"type": "electric_scooter", "rental_uris": {"ios": "https://dc.lft.to/lastmile_qr_scan", "android": "https://dc.lft.to/lastmile_qr_scan"}, "lon": -77.00121983333334, "fusion_lon": 0.0, "is_disabled": 0, "lat": 38.877999333333335, "bike_id": "d1a3f97cf5e4b88290475099b9187734", "name": "d1a3f97cf5e4b88290475099b9187734", "is_reserved": 0, "fusion_lat": 0.0}, {"type": "electric_scooter", "rental_uris": {"ios": "https://dc.lft.to/lastmile_qr_scan", "android": "https://dc.lft.to/lastmile_qr_scan"}, "lon": -77.03244633333334, "fusion_lon": 0.0, "is_disabled": 0, "lat": 38.9055585, "bike_id": "d10a5d8a6d93be02e896a8f9c023e96f", "name": "d10a5d8a6d93be02e896a8f9c023e96f", "is_reserved": 0, "fusion_lat": 0.0}, {"type": "electric_scooter", "rental_uris": {"ios": "https://dc.lft.to/lastmile_qr_scan", "android": "https://dc.lft.to/lastmile_qr_scan"}, "lon": -76.97230233333333, "fusion_lon": 0.0, "is_disabled": 0, "lat": 38.85448933333333, "bike_id": "056d1a78def0adf97dd4a750e467f194", "name": "056d1a78def0adf97dd4a750e467f194", "is_reserved": 0, "fusion_lat": 0.0}, {"type": "electric_bike", "rental_uris": {"ios": "https://dc.lft.to/lastmile_qr_scan", "android": "https://dc.lft.to/lastmile_qr_scan"}, "lon": -77.0363285, "fusion_lon": 0.0, "is_disabled": 0, "lat": 38.93286033333333, "bike_id": "71eafc676431953b761c7b228f27e245", "name": "71eafc676431953b761c7b228f27e245", "is_reserved": 0, "fusion_lat": 0.0}, {"type": "electric_bike", "rental_uris": {"ios": "https://dc.lft.to/lastmile_qr_scan", "android": "https://dc.lft.to/lastmile_qr_scan"}, "lon": -77.09480883333333, "fusion_lon": 0.0, "is_disabled": 0, "lat": 39.030454666666664, "bike_id": "417d36d366da82930d005740068f42e7", "name": "417d36d366da82930d005740068f42e7", "is_reserved": 0, "fusion_lat": 0.0}, {"type": "electric_scooter", "rental_uris": {"ios": "https://dc.lft.to/lastmile_qr_scan", "android": "https://dc.lft.to/lastmile_qr_scan"}, "lon": -77.04998866666666, "fusion_lon": 0.0, "is_disabled": 0, "lat": 38.903153333333336, "bike_id": "e78093c24de4e8e19de1779f5d76e295", "name": "e78093c24de4e8e19de1779f5d76e295", "is_reserved": 0, "fusion_lat": 0.0}, {"type": "electric_scooter", "rental_uris": {"ios": "https://dc.lft.to/lastmile_qr_scan", "android": "https://dc.lft.to/lastmile_qr_scan"}, "lon": -77.06327766666666, "fusion_lon": 0.0, "is_disabled": 0, "lat": 38.90276466666667, "bike_id": "de8d8a74afca1950e1a441a00a3331e6", "name": "de8d8a74afca1950e1a441a00a3331e6", "is_reserved": 0, "fusion_lat": 0.0}, {"type": "electric_scooter", "rental_uris": {"ios": "https://dc.lft.to/lastmile_qr_scan", "android": "https://dc.lft.to/lastmile_qr_scan"}, "lon": -77.04035816666666, "fusion_lon": 0.0, "is_disabled": 0, "lat": 38.90416966666667, "bike_id": "6a907d49b612b4cd6e1e7d61a2810886", "name": "6a907d49b612b4cd6e1e7d61a2810886", "is_reserved": 0, "fusion_lat": 0.0}, {"type": "electric_scooter", "rental_uris": {"ios": "https://dc.lft.to/lastmile_qr_scan", "android": "https://dc.lft.to/lastmile_qr_scan"}, "lon": -76.973295, "fusion_lon": 0.0, "is_disabled": 0, "lat": 38.90411, "bike_id": "6d94662bf8de686b3617cf09b4cb2433", "name": "6d94662bf8de686b3617cf09b4cb2433", "is_reserved": 0, "fusion_lat": 0.0}, {"type": "electric_scooter", "rental_uris": {"ios": "https://dc.lft.to/lastmile_qr_scan", "android": "https://dc.lft.to/lastmile_qr_scan"}, "lon": -77.00058666666666, "fusion_lon": 0.0, "is_disabled": 0, "lat": 38.90577483333333, "bike_id": "473eb9e724250a9c4d9188c49fcdc9c3", "name": "473eb9e724250a9c4d9188c49fcdc9c3", "is_reserved": 0, "fusion_lat": 0.0}, {"type": "electric_scooter", "rental_uris": {"ios": "https://dc.lft.to/lastmile_qr_scan", "android": "https://dc.lft.to/lastmile_qr_scan"}, "lon": -77.01081116666667, "fusion_lon": 0.0, "is_disabled": 0, "lat": 38.916358333333335, "bike_id": "f65f9fe143ed5d82d0454f92ee2c41d9", "name": "f65f9fe143ed5d82d0454f92ee2c41d9", "is_reserved": 0, "fusion_lat": 0.0}, {"type": "electric_scooter", "rental_uris": {"ios": "https://dc.lft.to/lastmile_qr_scan", "android": "https://dc.lft.to/lastmile_qr_scan"}, "lon": -77.0206315, "fusion_lon": 0.0, "is_disabled": 0, "lat": 38.87567033333333, "bike_id": "bde4b6f48010b750891b02375478e151", "name": "bde4b6f48010b750891b02375478e151", "is_reserved": 0, "fusion_lat": 0.0}, {"type": "electric_scooter", "rental_uris": {"ios": "https://dc.lft.to/lastmile_qr_scan", "android": "https://dc.lft.to/lastmile_qr_scan"}, "lon": -77.02974383333333, "fusion_lon": 0.0, "is_disabled": 0, "lat": 38.91681916666667, "bike_id": "62faeaddd1b2d17b952d1f1071308b23", "name": "62faeaddd1b2d17b952d1f1071308b23", "is_reserved": 0, "fusion_lat": 0.0}, {"type": "electric_scooter", "rental_uris": {"ios": "https://dc.lft.to/lastmile_qr_scan", "android": "https://dc.lft.to/lastmile_qr_scan"}, "lon": -77.048822, "fusion_lon": 0.0, "is_disabled": 0, "lat": 38.913397333333336, "bike_id": "7fca767f44dff781cb9f191a16524549", "name": "7fca767f44dff781cb9f191a16524549", "is_reserved": 0, "fusion_lat": 0.0}, {"type": "electric_scooter", "rental_uris": {"ios": "https://dc.lft.to/lastmile_qr_scan", "android": "https://dc.lft.to/lastmile_qr_scan"}, "lon": -77.04773433333334, "fusion_lon": 0.0, "is_disabled": 0, "lat": 38.902404833333335, "bike_id": "da3854883c5ccd2427fc53e8e455eff9", "name": "da3854883c5ccd2427fc53e8e455eff9", "is_reserved": 0, "fusion_lat": 0.0}, {"type": "electric_scooter", "rental_uris": {"ios": "https://dc.lft.to/lastmile_qr_scan", "android": "https://dc.lft.to/lastmile_qr_scan"}, "lon": -77.07294516666667, "fusion_lon": 0.0, "is_disabled": 0, "lat": 38.92148016666667, "bike_id": "46252912af48fe3987c14b54c70a7e29", "name": "46252912af48fe3987c14b54c70a7e29", "is_reserved": 0, "fusion_lat": 0.0}, {"type": "electric_scooter", "rental_uris": {"ios": "https://dc.lft.to/lastmile_qr_scan", "android": "https://dc.lft.to/lastmile_qr_scan"}, "lon": -77.04082383333333, "fusion_lon": 0.0, "is_disabled": 0, "lat": 38.91698916666667, "bike_id": "09ca22342c775fa74285074b348ebaf2", "name": "09ca22342c775fa74285074b348ebaf2", "is_reserved": 0, "fusion_lat": 0.0}, {"type": "electric_scooter", "rental_uris": {"ios": "https://dc.lft.to/lastmile_qr_scan", "android": "https://dc.lft.to/lastmile_qr_scan"}, "lon": -76.9888495, "fusion_lon": 0.0, "is_disabled": 0, "lat": 38.86659016666667, "bike_id": "ac319af3426bff31aa86f86e4e812b01", "name": "ac319af3426bff31aa86f86e4e812b01", "is_reserved": 0, "fusion_lat": 0.0}, {"type": "electric_scooter", "rental_uris": {"ios": "https://dc.lft.to/lastmile_qr_scan", "android": "https://dc.lft.to/lastmile_qr_scan"}, "lon": -77.02057466666666, "fusion_lon": 0.0, "is_disabled": 0, "lat": 38.90846916666667, "bike_id": "160bb740948bc4774476b43e5a845aea", "name": "160bb740948bc4774476b43e5a845aea", "is_reserved": 0, "fusion_lat": 0.0}, {"type": "electric_scooter", "rental_uris": {"ios": "https://dc.lft.to/lastmile_qr_scan", "android": "https://dc.lft.to/lastmile_qr_scan"}, "lon": -77.0249575, "fusion_lon": 0.0, "is_disabled": 0, "lat": 38.91957883333333, "bike_id": "970afefba9059ada8fda7c72ae095f8b", "name": "970afefba9059ada8fda7c72ae095f8b", "is_reserved": 0, "fusion_lat": 0.0}, {"type": "electric_bike", "rental_uris": {"ios": "https://dc.lft.to/lastmile_qr_scan", "android": "https://dc.lft.to/lastmile_qr_scan"}, "lon": -77.07107966666666, "fusion_lon": 0.0, "is_disabled": 0, "lat": 38.800702, "bike_id": "5bd08c96cbf350066e16383113df44ff", "name": "5bd08c96cbf350066e16383113df44ff", "is_reserved": 0, "fusion_lat": 0.0}, {"type": "electric_scooter", "rental_uris": {"ios": "https://dc.lft.to/lastmile_qr_scan", "android": "https://dc.lft.to/lastmile_qr_scan"}, "lon": -76.996186, "fusion_lon": 0.0, "is_disabled": 0, "lat": 38.900022166666666, "bike_id": "4769d38ae4e3bceaf71844aa22190b8a", "name": "4769d38ae4e3bceaf71844aa22190b8a", "is_reserved": 0, "fusion_lat": 0.0}, {"type": "electric_scooter", "rental_uris": {"ios": "https://dc.lft.to/lastmile_qr_scan", "android": "https://dc.lft.to/lastmile_qr_scan"}, "lon": -76.99909866666667, "fusion_lon": 0.0, "is_disabled": 0, "lat": 38.8988835, "bike_id": "a867513049e2d427a9e5dcea92a8327e", "name": "a867513049e2d427a9e5dcea92a8327e", "is_reserved": 0, "fusion_lat": 0.0}, {"type": "electric_bike", "rental_uris": {"ios": "https://dc.lft.to/lastmile_qr_scan", "android": "https://dc.lft.to/lastmile_qr_scan"}, "lon": -77.063297, "fusion_lon": 0.0, "is_disabled": 0, "lat": 38.921087166666666, "bike_id": "6e015c1adf06c398672d2380512816c8", "name": "6e015c1adf06c398672d2380512816c8", "is_reserved": 0, "fusion_lat": 0.0}, {"type": "electric_bike", "rental_uris": {"ios": "https://dc.lft.to/lastmile_qr_scan", "android": "https://dc.lft.to/lastmile_qr_scan"}, "lon": -77.024663, "fusion_lon": 0.0, "is_disabled": 0, "lat": 38.9529415, "bike_id": "af6ebee8b96f8b0a5d138b888eb96678", "name": "af6ebee8b96f8b0a5d138b888eb96678", "is_reserved": 0, "fusion_lat": 0.0}, {"type": "electric_scooter", "rental_uris": {"ios": "https://dc.lft.to/lastmile_qr_scan", "android": "https://dc.lft.to/lastmile_qr_scan"}, "lon": -77.03220516666667, "fusion_lon": 0.0, "is_disabled": 0, "lat": 38.91847583333333, "bike_id": "54a9b170e440e010dfe3f79941ac7ec8", "name": "54a9b170e440e010dfe3f79941ac7ec8", "is_reserved": 0, "fusion_lat": 0.0}, {"type": "electric_scooter", "rental_uris": {"ios": "https://dc.lft.to/lastmile_qr_scan", "android": "https://dc.lft.to/lastmile_qr_scan"}, "lon": -77.0492675, "fusion_lon": 0.0, "is_disabled": 0, "lat": 38.900937, "bike_id": "3114c85e276c4198630d8b76fd1061ec", "name": "3114c85e276c4198630d8b76fd1061ec", "is_reserved": 0, "fusion_lat": 0.0}, {"type": "electric_scooter", "rental_uris": {"ios": "https://dc.lft.to/lastmile_qr_scan", "android": "https://dc.lft.to/lastmile_qr_scan"}, "lon": -77.002852, "fusion_lon": 0.0, "is_disabled": 0, "lat": 38.908672833333334, "bike_id": "2ea610a119ee971436fee735fb7365da", "name": "2ea610a119ee971436fee735fb7365da", "is_reserved": 0, "fusion_lat": 0.0}, {"type": "electric_scooter", "rental_uris": {"ios": "https://dc.lft.to/lastmile_qr_scan", "android": "https://dc.lft.to/lastmile_qr_scan"}, "lon": -77.04025066666667, "fusion_lon": 0.0, "is_disabled": 0, "lat": 38.930662166666664, "bike_id": "4783cb31a9548551a143f02980f50519", "name": "4783cb31a9548551a143f02980f50519", "is_reserved": 0, "fusion_lat": 0.0}, {"type": "electric_scooter", "rental_uris": {"ios": "https://dc.lft.to/lastmile_qr_scan", "android": "https://dc.lft.to/lastmile_qr_scan"}, "lon": -77.02439483333333, "fusion_lon": 0.0, "is_disabled": 0, "lat": 38.91891366666667, "bike_id": "8984b9af6140e6c34ae487cfe53616eb", "name": "8984b9af6140e6c34ae487cfe53616eb", "is_reserved": 0, "fusion_lat": 0.0}, {"type": "electric_scooter", "rental_uris": {"ios": "https://dc.lft.to/lastmile_qr_scan", "android": "https://dc.lft.to/lastmile_qr_scan"}, "lon": -77.01029333333334, "fusion_lon": 0.0, "is_disabled": 0, "lat": 38.86668916666667, "bike_id": "30daa582de10032b49677a3c987223bf", "name": "30daa582de10032b49677a3c987223bf", "is_reserved": 0, "fusion_lat": 0.0}, {"type": "electric_scooter", "rental_uris": {"ios": "https://dc.lft.to/lastmile_qr_scan", "android": "https://dc.lft.to/lastmile_qr_scan"}, "lon": -77.02986366666667, "fusion_lon": 0.0, "is_disabled": 0, "lat": 38.90509816666667, "bike_id": "e24c00cb6ba6af66ebe4de8d10f6192b", "name": "e24c00cb6ba6af66ebe4de8d10f6192b", "is_reserved": 0, "fusion_lat": 0.0}, {"type": "electric_scooter", "rental_uris": {"ios": "https://dc.lft.to/lastmile_qr_scan", "android": "https://dc.lft.to/lastmile_qr_scan"}, "lon": -76.98693333333334, "fusion_lon": 0.0, "is_disabled": 0, "lat": 38.86720416666667, "bike_id": "59990d522b8129d63972328ad8f0341e", "name": "59990d522b8129d63972328ad8f0341e", "is_reserved": 0, "fusion_lat": 0.0}, {"type": "electric_scooter", "rental_uris": {"ios": "https://dc.lft.to/lastmile_qr_scan", "android": "https://dc.lft.to/lastmile_qr_scan"}, "lon": -77.022749, "fusion_lon": 0.0, "is_disabled": 0, "lat": 38.92732383333333, "bike_id": "8fe34963aefb59b4110bc6ca68d69a18", "name": "8fe34963aefb59b4110bc6ca68d69a18", "is_reserved": 0, "fusion_lat": 0.0}, {"type": "electric_scooter", "rental_uris": {"ios": "https://dc.lft.to/lastmile_qr_scan", "android": "https://dc.lft.to/lastmile_qr_scan"}, "lon": -77.02282883333334, "fusion_lon": 0.0, "is_disabled": 0, "lat": 38.91613816666667, "bike_id": "d0b6e8587611bbf498cc7a1efd787fbf", "name": "d0b6e8587611bbf498cc7a1efd787fbf", "is_reserved": 0, "fusion_lat": 0.0}, {"type": "electric_scooter", "rental_uris": {"ios": "https://dc.lft.to/lastmile_qr_scan", "android": "https://dc.lft.to/lastmile_qr_scan"}, "lon": -77.01979466666667, "fusion_lon": 0.0, "is_disabled": 0, "lat": 38.92929733333333, "bike_id": "cbe191e71d5114fd07ece07bbcf54c6a", "name": "cbe191e71d5114fd07ece07bbcf54c6a", "is_reserved": 0, "fusion_lat": 0.0}, {"type": "electric_scooter", "rental_uris": {"ios": "https://dc.lft.to/lastmile_qr_scan", "android": "https://dc.lft.to/lastmile_qr_scan"}, "lon": -77.03382033333334, "fusion_lon": 0.0, "is_disabled": 0, "lat": 38.899105666666664, "bike_id": "6a04561deabc7d325d3da4890d8018f9", "name": "6a04561deabc7d325d3da4890d8018f9", "is_reserved": 0, "fusion_lat": 0.0}, {"type": "electric_scooter", "rental_uris": {"ios": "https://dc.lft.to/lastmile_qr_scan", "android": "https://dc.lft.to/lastmile_qr_scan"}, "lon": -77.0351225, "fusion_lon": 0.0, "is_disabled": 0, "lat": 38.921532166666665, "bike_id": "9562d447d29e9f6e51da1d5377adfe5c", "name": "9562d447d29e9f6e51da1d5377adfe5c", "is_reserved": 0, "fusion_lat": 0.0}, {"type": "electric_scooter", "rental_uris": {"ios": "https://dc.lft.to/lastmile_qr_scan", "android": "https://dc.lft.to/lastmile_qr_scan"}, "lon": -77.04660266666667, "fusion_lon": 0.0, "is_disabled": 0, "lat": 38.89244716666666, "bike_id": "3a27e7a7fada3e750c90fe9a34d8b57b", "name": "3a27e7a7fada3e750c90fe9a34d8b57b", "is_reserved": 0, "fusion_lat": 0.0}, {"type": "electric_scooter", "rental_uris": {"ios": "https://dc.lft.to/lastmile_qr_scan", "android": "https://dc.lft.to/lastmile_qr_scan"}, "lon": -77.04513116666666, "fusion_lon": 0.0, "is_disabled": 0, "lat": 38.91820633333333, "bike_id": "a05cd088090e93581dc72e8fbe67cefd", "name": "a05cd088090e93581dc72e8fbe67cefd", "is_reserved": 0, "fusion_lat": 0.0}, {"type": "electric_scooter", "rental_uris": {"ios": "https://dc.lft.to/lastmile_qr_scan", "android": "https://dc.lft.to/lastmile_qr_scan"}, "lon": -77.03375366666667, "fusion_lon": 0.0, "is_disabled": 0, "lat": 38.921533833333335, "bike_id": "836b2a5f5c3da58c3e8b312e80edd2e8", "name": "836b2a5f5c3da58c3e8b312e80edd2e8", "is_reserved": 0, "fusion_lat": 0.0}, {"type": "electric_scooter", "rental_uris": {"ios": "https://dc.lft.to/lastmile_qr_scan", "android": "https://dc.lft.to/lastmile_qr_scan"}, "lon": -77.04011383333334, "fusion_lon": 0.0, "is_disabled": 0, "lat": 38.9216385, "bike_id": "644c26c285c3e4bedc57ea71e8cb7045", "name": "644c26c285c3e4bedc57ea71e8cb7045", "is_reserved": 0, "fusion_lat": 0.0}, {"type": "electric_scooter", "rental_uris": {"ios": "https://dc.lft.to/lastmile_qr_scan", "android": "https://dc.lft.to/lastmile_qr_scan"}, "lon": -77.0335575, "fusion_lon": 0.0, "is_disabled": 0, "lat": 38.887583666666664, "bike_id": "1eab478affdeaf4d79ebf322407eae0b", "name": "1eab478affdeaf4d79ebf322407eae0b", "is_reserved": 0, "fusion_lat": 0.0}, {"type": "electric_scooter", "rental_uris": {"ios": "https://dc.lft.to/lastmile_qr_scan", "android": "https://dc.lft.to/lastmile_qr_scan"}, "lon": -76.99504400000001, "fusion_lon": 0.0, "is_disabled": 0, "lat": 38.894881166666664, "bike_id": "3efa29106caf4c4ce4926dfbc221f99c", "name": "3efa29106caf4c4ce4926dfbc221f99c", "is_reserved": 0, "fusion_lat": 0.0}, {"type": "electric_scooter", "rental_uris": {"ios": "https://dc.lft.to/lastmile_qr_scan", "android": "https://dc.lft.to/lastmile_qr_scan"}, "lon": -77.04500633333333, "fusion_lon": 0.0, "is_disabled": 0, "lat": 38.8922045, "bike_id": "4845eb8687593429ecfcd77dbc567044", "name": "4845eb8687593429ecfcd77dbc567044", "is_reserved": 0, "fusion_lat": 0.0}, {"type": "electric_scooter", "rental_uris": {"ios": "https://dc.lft.to/lastmile_qr_scan", "android": "https://dc.lft.to/lastmile_qr_scan"}, "lon": -77.03788566666667, "fusion_lon": 0.0, "is_disabled": 0, "lat": 38.9262305, "bike_id": "895bf78c4f467359e4199b6a57530faf", "name": "895bf78c4f467359e4199b6a57530faf", "is_reserved": 0, "fusion_lat": 0.0}, {"type": "electric_bike", "rental_uris": {"ios": "https://dc.lft.to/lastmile_qr_scan", "android": "https://dc.lft.to/lastmile_qr_scan"}, "lon": -76.936495, "fusion_lon": 0.0, "is_disabled": 0, "lat": 38.87152183333333, "bike_id": "27096df172c60ed2b608dd2c8c92daa5", "name": "27096df172c60ed2b608dd2c8c92daa5", "is_reserved": 0, "fusion_lat": 0.0}, {"type": "electric_scooter", "rental_uris": {"ios": "https://dc.lft.to/lastmile_qr_scan", "android": "https://dc.lft.to/lastmile_qr_scan"}, "lon": -77.04361216666666, "fusion_lon": 0.0, "is_disabled": 0, "lat": 38.92116933333333, "bike_id": "a09122486d8fa1222ab78caaf87cb165", "name": "a09122486d8fa1222ab78caaf87cb165", "is_reserved": 0, "fusion_lat": 0.0}, {"type": "electric_scooter", "rental_uris": {"ios": "https://dc.lft.to/lastmile_qr_scan", "android": "https://dc.lft.to/lastmile_qr_scan"}, "lon": -76.9660485, "fusion_lon": 0.0, "is_disabled": 0, "lat": 38.87391983333333, "bike_id": "2659a3f058ebbc13a322b0daec42a918", "name": "2659a3f058ebbc13a322b0daec42a918", "is_reserved": 0, "fusion_lat": 0.0}, {"type": "electric_scooter", "rental_uris": {"ios": "https://dc.lft.to/lastmile_qr_scan", "android": "https://dc.lft.to/lastmile_qr_scan"}, "lon": -76.96868133333334, "fusion_lon": 0.0, "is_disabled": 0, "lat": 38.87092966666667, "bike_id": "50137284d110c7d47eed08262fbde709", "name": "50137284d110c7d47eed08262fbde709", "is_reserved": 0, "fusion_lat": 0.0}, {"type": "electric_scooter", "rental_uris": {"ios": "https://dc.lft.to/lastmile_qr_scan", "android": "https://dc.lft.to/lastmile_qr_scan"}, "lon": -77.03846733333333, "fusion_lon": 0.0, "is_disabled": 0, "lat": 38.93257233333333, "bike_id": "0e0dc515672f4d2d64bf42849c50d378", "name": "0e0dc515672f4d2d64bf42849c50d378", "is_reserved": 0, "fusion_lat": 0.0}, {"type": "electric_scooter", "rental_uris": {"ios": "https://dc.lft.to/lastmile_qr_scan", "android": "https://dc.lft.to/lastmile_qr_scan"}, "lon": -77.02771, "fusion_lon": 0.0, "is_disabled": 0, "lat": 38.892186333333335, "bike_id": "397448da17c6f5df930b772a2a8623b8", "name": "397448da17c6f5df930b772a2a8623b8", "is_reserved": 0, "fusion_lat": 0.0}, {"type": "electric_scooter", "rental_uris": {"ios": "https://dc.lft.to/lastmile_qr_scan", "android": "https://dc.lft.to/lastmile_qr_scan"}, "lon": -77.03179416666667, "fusion_lon": 0.0, "is_disabled": 0, "lat": 38.90788533333333, "bike_id": "ffe90d6511157e9bfc043d5fc3cf709d", "name": "ffe90d6511157e9bfc043d5fc3cf709d", "is_reserved": 0, "fusion_lat": 0.0}, {"type": "electric_scooter", "rental_uris": {"ios": "https://dc.lft.to/lastmile_qr_scan", "android": "https://dc.lft.to/lastmile_qr_scan"}, "lon": -77.02975933333333, "fusion_lon": 0.0, "is_disabled": 0, "lat": 38.91682933333333, "bike_id": "80a51835d24fb041b31466da586d81c3", "name": "80a51835d24fb041b31466da586d81c3", "is_reserved": 0, "fusion_lat": 0.0}, {"type": "electric_scooter", "rental_uris": {"ios": "https://dc.lft.to/lastmile_qr_scan", "android": "https://dc.lft.to/lastmile_qr_scan"}, "lon": -77.02651433333334, "fusion_lon": 0.0, "is_disabled": 0, "lat": 38.8921405, "bike_id": "0aa09cc033cbfd10205d70d1e698769f", "name": "0aa09cc033cbfd10205d70d1e698769f", "is_reserved": 0, "fusion_lat": 0.0}, {"type": "electric_scooter", "rental_uris": {"ios": "https://dc.lft.to/lastmile_qr_scan", "android": "https://dc.lft.to/lastmile_qr_scan"}, "lon": -77.02098516666666, "fusion_lon": 0.0, "is_disabled": 0, "lat": 38.9311445, "bike_id": "b83270f7756ac064bd0e6fabec1e35be", "name": "b83270f7756ac064bd0e6fabec1e35be", "is_reserved": 0, "fusion_lat": 0.0}, {"type": "electric_scooter", "rental_uris": {"ios": "https://dc.lft.to/lastmile_qr_scan", "android": "https://dc.lft.to/lastmile_qr_scan"}, "lon": -76.97404783333333, "fusion_lon": 0.0, "is_disabled": 0, "lat": 38.8641205, "bike_id": "9d3f1c0ddea744659d91427b0fb8c998", "name": "9d3f1c0ddea744659d91427b0fb8c998", "is_reserved": 0, "fusion_lat": 0.0}, {"type": "electric_scooter", "rental_uris": {"ios": "https://dc.lft.to/lastmile_qr_scan", "android": "https://dc.lft.to/lastmile_qr_scan"}, "lon": -77.0233215, "fusion_lon": 0.0, "is_disabled": 0, "lat": 38.9168445, "bike_id": "a46ceea6cfe420c7747739d09b5960c0", "name": "a46ceea6cfe420c7747739d09b5960c0", "is_reserved": 0, "fusion_lat": 0.0}, {"type": "electric_scooter", "rental_uris": {"ios": "https://dc.lft.to/lastmile_qr_scan", "android": "https://dc.lft.to/lastmile_qr_scan"}, "lon": -76.92621216666667, "fusion_lon": 0.0, "is_disabled": 0, "lat": 38.88459833333334, "bike_id": "f85ac3ac6d31832a6b337870ffcf2742", "name": "f85ac3ac6d31832a6b337870ffcf2742", "is_reserved": 0, "fusion_lat": 0.0}, {"type": "electric_scooter", "rental_uris": {"ios": "https://dc.lft.to/lastmile_qr_scan", "android": "https://dc.lft.to/lastmile_qr_scan"}, "lon": -77.0321, "fusion_lon": 0.0, "is_disabled": 0, "lat": 38.89615716666667, "bike_id": "0b470b3cf228a7225b8f8455acbd1e67", "name": "0b470b3cf228a7225b8f8455acbd1e67", "is_reserved": 0, "fusion_lat": 0.0}, {"type": "electric_scooter", "rental_uris": {"ios": "https://dc.lft.to/lastmile_qr_scan", "android": "https://dc.lft.to/lastmile_qr_scan"}, "lon": -77.03021433333333, "fusion_lon": 0.0, "is_disabled": 0, "lat": 38.9310545, "bike_id": "50293c2421613dd2dabc134ef3933ac4", "name": "50293c2421613dd2dabc134ef3933ac4", "is_reserved": 0, "fusion_lat": 0.0}, {"type": "electric_bike", "rental_uris": {"ios": "https://dc.lft.to/lastmile_qr_scan", "android": "https://dc.lft.to/lastmile_qr_scan"}, "lon": -77.02407383333333, "fusion_lon": 0.0, "is_disabled": 0, "lat": 38.8967935, "bike_id": "5df096fe7292808dd32377c04bdf87ac", "name": "5df096fe7292808dd32377c04bdf87ac", "is_reserved": 0, "fusion_lat": 0.0}, {"type": "electric_scooter", "rental_uris": {"ios": "https://dc.lft.to/lastmile_qr_scan", "android": "https://dc.lft.to/lastmile_qr_scan"}, "lon": -76.99517883333333, "fusion_lon": 0.0, "is_disabled": 0, "lat": 38.88376566666667, "bike_id": "774ce96c37407bf418c429e48ad311e1", "name": "774ce96c37407bf418c429e48ad311e1", "is_reserved": 0, "fusion_lat": 0.0}, {"type": "electric_scooter", "rental_uris": {"ios": "https://dc.lft.to/lastmile_qr_scan", "android": "https://dc.lft.to/lastmile_qr_scan"}, "lon": -76.98183766666666, "fusion_lon": 0.0, "is_disabled": 0, "lat": 38.89581033333333, "bike_id": "da537311111284783bd44e286faa50f5", "name": "da537311111284783bd44e286faa50f5", "is_reserved": 0, "fusion_lat": 0.0}, {"type": "electric_bike", "rental_uris": {"ios": "https://dc.lft.to/lastmile_qr_scan", "android": "https://dc.lft.to/lastmile_qr_scan"}, "lon": -77.12482483333334, "fusion_lon": 0.0, "is_disabled": 0, "lat": 38.853958, "bike_id": "fdbb320f1b92089f30aab6a09412ccc1", "name": "fdbb320f1b92089f30aab6a09412ccc1", "is_reserved": 0, "fusion_lat": 0.0}, {"type": "electric_scooter", "rental_uris": {"ios": "https://dc.lft.to/lastmile_qr_scan", "android": "https://dc.lft.to/lastmile_qr_scan"}, "lon": -77.04688116666667, "fusion_lon": 0.0, "is_disabled": 0, "lat": 38.8974855, "bike_id": "efb4f8f0a8bc226e0ec32737160abefd", "name": "efb4f8f0a8bc226e0ec32737160abefd", "is_reserved": 0, "fusion_lat": 0.0}, {"type": "electric_bike", "rental_uris": {"ios": "https://dc.lft.to/lastmile_qr_scan", "android": "https://dc.lft.to/lastmile_qr_scan"}, "lon": -76.97529466666667, "fusion_lon": 0.0, "is_disabled": 0, "lat": 38.8401205, "bike_id": "64bf3a285163669f8e67cb0861fe76ca", "name": "64bf3a285163669f8e67cb0861fe76ca", "is_reserved": 0, "fusion_lat": 0.0}, {"type": "electric_scooter", "rental_uris": {"ios": "https://dc.lft.to/lastmile_qr_scan", "android": "https://dc.lft.to/lastmile_qr_scan"}, "lon": -77.023956, "fusion_lon": 0.0, "is_disabled": 0, "lat": 38.91745516666667, "bike_id": "24eb7a142eb72af15330e2414ae8922e", "name": "24eb7a142eb72af15330e2414ae8922e", "is_reserved": 0, "fusion_lat": 0.0}, {"type": "electric_bike", "rental_uris": {"ios": "https://dc.lft.to/lastmile_qr_scan", "android": "https://dc.lft.to/lastmile_qr_scan"}, "lon": -76.9835845, "fusion_lon": 0.0, "is_disabled": 0, "lat": 38.894372, "bike_id": "2a63951adaf5db2dbae3a34d3ca90be4", "name": "2a63951adaf5db2dbae3a34d3ca90be4", "is_reserved": 0, "fusion_lat": 0.0}, {"type": "electric_scooter", "rental_uris": {"ios": "https://dc.lft.to/lastmile_qr_scan", "android": "https://dc.lft.to/lastmile_qr_scan"}, "lon": -77.04051466666667, "fusion_lon": 0.0, "is_disabled": 0, "lat": 38.8990575, "bike_id": "697bfa25d6364d5044412b582aa7e615", "name": "697bfa25d6364d5044412b582aa7e615", "is_reserved": 0, "fusion_lat": 0.0}, {"type": "electric_scooter", "rental_uris": {"ios": "https://dc.lft.to/lastmile_qr_scan", "android": "https://dc.lft.to/lastmile_qr_scan"}, "lon": -77.0395965, "fusion_lon": 0.0, "is_disabled": 0, "lat": 38.899087333333334, "bike_id": "0ce91d8a7835cd4d58246811a1027c53", "name": "0ce91d8a7835cd4d58246811a1027c53", "is_reserved": 0, "fusion_lat": 0.0}, {"type": "electric_scooter", "rental_uris": {"ios": "https://dc.lft.to/lastmile_qr_scan", "android": "https://dc.lft.to/lastmile_qr_scan"}, "lon": -77.0300175, "fusion_lon": 0.0, "is_disabled": 0, "lat": 38.92974666666667, "bike_id": "5fff2195b37125ace0f246ed526f5042", "name": "5fff2195b37125ace0f246ed526f5042", "is_reserved": 0, "fusion_lat": 0.0}, {"type": "electric_scooter", "rental_uris": {"ios": "https://dc.lft.to/lastmile_qr_scan", "android": "https://dc.lft.to/lastmile_qr_scan"}, "lon": -77.04168316666667, "fusion_lon": 0.0, "is_disabled": 0, "lat": 38.91762283333333, "bike_id": "5959c406148a1519bb3696d0fb81fb04", "name": "5959c406148a1519bb3696d0fb81fb04", "is_reserved": 0, "fusion_lat": 0.0}, {"type": "electric_scooter", "rental_uris": {"ios": "https://dc.lft.to/lastmile_qr_scan", "android": "https://dc.lft.to/lastmile_qr_scan"}, "lon": -76.97727566666667, "fusion_lon": 0.0, "is_disabled": 0, "lat": 38.89518266666666, "bike_id": "68dc6c280165b6f30e92e01992fd00b3", "name": "68dc6c280165b6f30e92e01992fd00b3", "is_reserved": 0, "fusion_lat": 0.0}, {"type": "electric_scooter", "rental_uris": {"ios": "https://dc.lft.to/lastmile_qr_scan", "android": "https://dc.lft.to/lastmile_qr_scan"}, "lon": -77.02271233333333, "fusion_lon": 0.0, "is_disabled": 0, "lat": 38.9022935, "bike_id": "5e053a97917b8e4076949cc186c08fa6", "name": "5e053a97917b8e4076949cc186c08fa6", "is_reserved": 0, "fusion_lat": 0.0}, {"type": "electric_scooter", "rental_uris": {"ios": "https://dc.lft.to/lastmile_qr_scan", "android": "https://dc.lft.to/lastmile_qr_scan"}, "lon": -77.002103, "fusion_lon": 0.0, "is_disabled": 0, "lat": 38.904311, "bike_id": "5d816aa958c21fccf3bdd075bc26f392", "name": "5d816aa958c21fccf3bdd075bc26f392", "is_reserved": 0, "fusion_lat": 0.0}, {"type": "electric_bike", "rental_uris": {"ios": "https://dc.lft.to/lastmile_qr_scan", "android": "https://dc.lft.to/lastmile_qr_scan"}, "lon": -77.035166, "fusion_lon": 0.0, "is_disabled": 0, "lat": 38.96206383333333, "bike_id": "f36349f06726e9ba97041d433fe48fbc", "name": "f36349f06726e9ba97041d433fe48fbc", "is_reserved": 0, "fusion_lat": 0.0}, {"type": "electric_scooter", "rental_uris": {"ios": "https://dc.lft.to/lastmile_qr_scan", "android": "https://dc.lft.to/lastmile_qr_scan"}, "lon": -77.03208133333334, "fusion_lon": 0.0, "is_disabled": 0, "lat": 38.91714316666667, "bike_id": "6f84e3ab33e807eb6315771e398e85eb", "name": "6f84e3ab33e807eb6315771e398e85eb", "is_reserved": 0, "fusion_lat": 0.0}, {"type": "electric_bike", "rental_uris": {"ios": "https://dc.lft.to/lastmile_qr_scan", "android": "https://dc.lft.to/lastmile_qr_scan"}, "lon": -77.04920783333333, "fusion_lon": 0.0, "is_disabled": 0, "lat": 38.81348066666666, "bike_id": "92f584fab4aeee1f59009c1dbf88c7a6", "name": "92f584fab4aeee1f59009c1dbf88c7a6", "is_reserved": 0, "fusion_lat": 0.0}, {"type": "electric_scooter", "rental_uris": {"ios": "https://dc.lft.to/lastmile_qr_scan", "android": "https://dc.lft.to/lastmile_qr_scan"}, "lon": -77.03826733333334, "fusion_lon": 0.0, "is_disabled": 0, "lat": 38.9083545, "bike_id": "7e3d344078e9aa79f6c9d2b8f51cf53b", "name": "7e3d344078e9aa79f6c9d2b8f51cf53b", "is_reserved": 0, "fusion_lat": 0.0}, {"type": "electric_scooter", "rental_uris": {"ios": "https://dc.lft.to/lastmile_qr_scan", "android": "https://dc.lft.to/lastmile_qr_scan"}, "lon": -77.03144833333333, "fusion_lon": 0.0, "is_disabled": 0, "lat": 38.915597, "bike_id": "107c866a737b8dc6e09f4ee9c493fd08", "name": "107c866a737b8dc6e09f4ee9c493fd08", "is_reserved": 0, "fusion_lat": 0.0}, {"type": "electric_scooter", "rental_uris": {"ios": "https://dc.lft.to/lastmile_qr_scan", "android": "https://dc.lft.to/lastmile_qr_scan"}, "lon": -77.01699616666667, "fusion_lon": 0.0, "is_disabled": 0, "lat": 38.9138575, "bike_id": "a397a405c4c3e82130c38066ce78fa49", "name": "a397a405c4c3e82130c38066ce78fa49", "is_reserved": 0, "fusion_lat": 0.0}, {"type": "electric_scooter", "rental_uris": {"ios": "https://dc.lft.to/lastmile_qr_scan", "android": "https://dc.lft.to/lastmile_qr_scan"}, "lon": -77.024928, "fusion_lon": 0.0, "is_disabled": 0, "lat": 38.941874, "bike_id": "fad0e8ccea9eaeb4a8d341ccf59b66a9", "name": "fad0e8ccea9eaeb4a8d341ccf59b66a9", "is_reserved": 0, "fusion_lat": 0.0}, {"type": "electric_scooter", "rental_uris": {"ios": "https://dc.lft.to/lastmile_qr_scan", "android": "https://dc.lft.to/lastmile_qr_scan"}, "lon": -77.03691716666667, "fusion_lon": 0.0, "is_disabled": 0, "lat": 38.9261155, "bike_id": "97f8fc061ae80d2d340e90ca9faf758a", "name": "97f8fc061ae80d2d340e90ca9faf758a", "is_reserved": 0, "fusion_lat": 0.0}, {"type": "electric_scooter", "rental_uris": {"ios": "https://dc.lft.to/lastmile_qr_scan", "android": "https://dc.lft.to/lastmile_qr_scan"}, "lon": -77.05857483333334, "fusion_lon": 0.0, "is_disabled": 0, "lat": 38.935454, "bike_id": "e43130d1beec8c26cffac70e3070bf2b", "name": "e43130d1beec8c26cffac70e3070bf2b", "is_reserved": 0, "fusion_lat": 0.0}, {"type": "electric_scooter", "rental_uris": {"ios": "https://dc.lft.to/lastmile_qr_scan", "android": "https://dc.lft.to/lastmile_qr_scan"}, "lon": -77.0325335, "fusion_lon": 0.0, "is_disabled": 0, "lat": 38.9156275, "bike_id": "31c0e5d0a6055e6f98189a1e7d64eba5", "name": "31c0e5d0a6055e6f98189a1e7d64eba5", "is_reserved": 0, "fusion_lat": 0.0}, {"type": "electric_scooter", "rental_uris": {"ios": "https://dc.lft.to/lastmile_qr_scan", "android": "https://dc.lft.to/lastmile_qr_scan"}, "lon": -77.0295785, "fusion_lon": 0.0, "is_disabled": 0, "lat": 38.923304, "bike_id": "9dd1f9cb62863c43b2436b23af7d7aca", "name": "9dd1f9cb62863c43b2436b23af7d7aca", "is_reserved": 0, "fusion_lat": 0.0}, {"type": "electric_scooter", "rental_uris": {"ios": "https://dc.lft.to/lastmile_qr_scan", "android": "https://dc.lft.to/lastmile_qr_scan"}, "lon": -77.0316295, "fusion_lon": 0.0, "is_disabled": 0, "lat": 38.91563, "bike_id": "31fa5c25ec80d283efc6f6447668e1d7", "name": "31fa5c25ec80d283efc6f6447668e1d7", "is_reserved": 0, "fusion_lat": 0.0}, {"type": "electric_scooter", "rental_uris": {"ios": "https://dc.lft.to/lastmile_qr_scan", "android": "https://dc.lft.to/lastmile_qr_scan"}, "lon": -77.04363066666667, "fusion_lon": 0.0, "is_disabled": 0, "lat": 38.92067766666667, "bike_id": "48b5289c852b832bcfe5e5393e9656cd", "name": "48b5289c852b832bcfe5e5393e9656cd", "is_reserved": 0, "fusion_lat": 0.0}, {"type": "electric_scooter", "rental_uris": {"ios": "https://dc.lft.to/lastmile_qr_scan", "android": "https://dc.lft.to/lastmile_qr_scan"}, "lon": -77.03484983333334, "fusion_lon": 0.0, "is_disabled": 0, "lat": 38.9248465, "bike_id": "e143f2f2a4e7648ad8826937a0d67a0c", "name": "e143f2f2a4e7648ad8826937a0d67a0c", "is_reserved": 0, "fusion_lat": 0.0}, {"type": "electric_scooter", "rental_uris": {"ios": "https://dc.lft.to/lastmile_qr_scan", "android": "https://dc.lft.to/lastmile_qr_scan"}, "lon": -76.9851975, "fusion_lon": 0.0, "is_disabled": 0, "lat": 38.866843333333335, "bike_id": "d805303dcc89b4d8528cd35c2eb54f95", "name": "d805303dcc89b4d8528cd35c2eb54f95", "is_reserved": 0, "fusion_lat": 0.0}, {"type": "electric_scooter", "rental_uris": {"ios": "https://dc.lft.to/lastmile_qr_scan", "android": "https://dc.lft.to/lastmile_qr_scan"}, "lon": -77.02954883333334, "fusion_lon": 0.0, "is_disabled": 0, "lat": 38.92250833333333, "bike_id": "4449102c89c401645b412a05ec58d0cc", "name": "4449102c89c401645b412a05ec58d0cc", "is_reserved": 0, "fusion_lat": 0.0}, {"type": "electric_scooter", "rental_uris": {"ios": "https://dc.lft.to/lastmile_qr_scan", "android": "https://dc.lft.to/lastmile_qr_scan"}, "lon": -77.033816, "fusion_lon": 0.0, "is_disabled": 0, "lat": 38.90981816666667, "bike_id": "5b76d862cd1493bc84c31d313e6e59f4", "name": "5b76d862cd1493bc84c31d313e6e59f4", "is_reserved": 0, "fusion_lat": 0.0}, {"type": "electric_scooter", "rental_uris": {"ios": "https://dc.lft.to/lastmile_qr_scan", "android": "https://dc.lft.to/lastmile_qr_scan"}, "lon": -77.03444833333333, "fusion_lon": 0.0, "is_disabled": 0, "lat": 38.93743683333334, "bike_id": "45fbca1ef7aee13f303f956a2d78ba7e", "name": "45fbca1ef7aee13f303f956a2d78ba7e", "is_reserved": 0, "fusion_lat": 0.0}, {"type": "electric_scooter", "rental_uris": {"ios": "https://dc.lft.to/lastmile_qr_scan", "android": "https://dc.lft.to/lastmile_qr_scan"}, "lon": -77.03925883333334, "fusion_lon": 0.0, "is_disabled": 0, "lat": 38.917038166666664, "bike_id": "66f24d5b19d6affd407fdbaf725a4776", "name": "66f24d5b19d6affd407fdbaf725a4776", "is_reserved": 0, "fusion_lat": 0.0}, {"type": "electric_scooter", "rental_uris": {"ios": "https://dc.lft.to/lastmile_qr_scan", "android": "https://dc.lft.to/lastmile_qr_scan"}, "lon": -77.01407716666667, "fusion_lon": 0.0, "is_disabled": 0, "lat": 38.88121983333333, "bike_id": "34a47eb3d24dad15c9b0109bd730eaad", "name": "34a47eb3d24dad15c9b0109bd730eaad", "is_reserved": 0, "fusion_lat": 0.0}, {"type": "electric_scooter", "rental_uris": {"ios": "https://dc.lft.to/lastmile_qr_scan", "android": "https://dc.lft.to/lastmile_qr_scan"}, "lon": -77.0243485, "fusion_lon": 0.0, "is_disabled": 0, "lat": 38.9184935, "bike_id": "881e752f9ad3db4c0ef3ca0f71ea9084", "name": "881e752f9ad3db4c0ef3ca0f71ea9084", "is_reserved": 0, "fusion_lat": 0.0}, {"type": "electric_scooter", "rental_uris": {"ios": "https://dc.lft.to/lastmile_qr_scan", "android": "https://dc.lft.to/lastmile_qr_scan"}, "lon": -77.003649, "fusion_lon": 0.0, "is_disabled": 0, "lat": 38.882645, "bike_id": "4373bbbebf4cb4e8a54fc7b3e4f9cecf", "name": "4373bbbebf4cb4e8a54fc7b3e4f9cecf", "is_reserved": 0, "fusion_lat": 0.0}, {"type": "electric_scooter", "rental_uris": {"ios": "https://dc.lft.to/lastmile_qr_scan", "android": "https://dc.lft.to/lastmile_qr_scan"}, "lon": -77.03645916666666, "fusion_lon": 0.0, "is_disabled": 0, "lat": 38.918632833333334, "bike_id": "2993be32bdff903bb6d571cbe5253f45", "name": "2993be32bdff903bb6d571cbe5253f45", "is_reserved": 0, "fusion_lat": 0.0}, {"type": "electric_scooter", "rental_uris": {"ios": "https://dc.lft.to/lastmile_qr_scan", "android": "https://dc.lft.to/lastmile_qr_scan"}, "lon": -77.04174466666667, "fusion_lon": 0.0, "is_disabled": 0, "lat": 38.9053765, "bike_id": "325e1ac25f3d438b09e4860ef0f77260", "name": "325e1ac25f3d438b09e4860ef0f77260", "is_reserved": 0, "fusion_lat": 0.0}, {"type": "electric_scooter", "rental_uris": {"ios": "https://dc.lft.to/lastmile_qr_scan", "android": "https://dc.lft.to/lastmile_qr_scan"}, "lon": -77.02982833333333, "fusion_lon": 0.0, "is_disabled": 0, "lat": 38.930653166666666, "bike_id": "62429992f96c458f6b13523ade0d45d4", "name": "62429992f96c458f6b13523ade0d45d4", "is_reserved": 0, "fusion_lat": 0.0}, {"type": "electric_scooter", "rental_uris": {"ios": "https://dc.lft.to/lastmile_qr_scan", "android": "https://dc.lft.to/lastmile_qr_scan"}, "lon": -77.010653, "fusion_lon": 0.0, "is_disabled": 0, "lat": 38.90728633333333, "bike_id": "33cb77a0fab59209730bc528f9fbb4dd", "name": "33cb77a0fab59209730bc528f9fbb4dd", "is_reserved": 0, "fusion_lat": 0.0}, {"type": "electric_scooter", "rental_uris": {"ios": "https://dc.lft.to/lastmile_qr_scan", "android": "https://dc.lft.to/lastmile_qr_scan"}, "lon": -76.95415266666667, "fusion_lon": 0.0, "is_disabled": 0, "lat": 38.889928, "bike_id": "6d6f8f29f8515c11a524fc90cce7ef73", "name": "6d6f8f29f8515c11a524fc90cce7ef73", "is_reserved": 0, "fusion_lat": 0.0}, {"type": "electric_bike", "rental_uris": {"ios": "https://dc.lft.to/lastmile_qr_scan", "android": "https://dc.lft.to/lastmile_qr_scan"}, "lon": -77.03591166666666, "fusion_lon": 0.0, "is_disabled": 0, "lat": 38.907047166666665, "bike_id": "6c965c0cda1d0a31d05e63e32422663b", "name": "6c965c0cda1d0a31d05e63e32422663b", "is_reserved": 0, "fusion_lat": 0.0}, {"type": "electric_scooter", "rental_uris": {"ios": "https://dc.lft.to/lastmile_qr_scan", "android": "https://dc.lft.to/lastmile_qr_scan"}, "lon": -77.04173233333333, "fusion_lon": 0.0, "is_disabled": 0, "lat": 38.91550316666667, "bike_id": "6d50228d4e1eaf853162cdb967d4da03", "name": "6d50228d4e1eaf853162cdb967d4da03", "is_reserved": 0, "fusion_lat": 0.0}, {"type": "electric_scooter", "rental_uris": {"ios": "https://dc.lft.to/lastmile_qr_scan", "android": "https://dc.lft.to/lastmile_qr_scan"}, "lon": -76.98699666666667, "fusion_lon": 0.0, "is_disabled": 0, "lat": 38.8662665, "bike_id": "001e96fd434deaf68d80906b649a82a4", "name": "001e96fd434deaf68d80906b649a82a4", "is_reserved": 0, "fusion_lat": 0.0}, {"type": "electric_scooter", "rental_uris": {"ios": "https://dc.lft.to/lastmile_qr_scan", "android": "https://dc.lft.to/lastmile_qr_scan"}, "lon": -77.02401533333334, "fusion_lon": 0.0, "is_disabled": 0, "lat": 38.95710183333333, "bike_id": "7c5c59f0348286fd8e7c0131e35098c9", "name": "7c5c59f0348286fd8e7c0131e35098c9", "is_reserved": 0, "fusion_lat": 0.0}, {"type": "electric_scooter", "rental_uris": {"ios": "https://dc.lft.to/lastmile_qr_scan", "android": "https://dc.lft.to/lastmile_qr_scan"}, "lon": -77.038557, "fusion_lon": 0.0, "is_disabled": 0, "lat": 38.91244066666667, "bike_id": "a66daf8caaa8d1b49ac10811c076b178", "name": "a66daf8caaa8d1b49ac10811c076b178", "is_reserved": 0, "fusion_lat": 0.0}, {"type": "electric_scooter", "rental_uris": {"ios": "https://dc.lft.to/lastmile_qr_scan", "android": "https://dc.lft.to/lastmile_qr_scan"}, "lon": -77.03675566666666, "fusion_lon": 0.0, "is_disabled": 0, "lat": 38.917098, "bike_id": "1f261c1c905f56d9706c30cfe69731b9", "name": "1f261c1c905f56d9706c30cfe69731b9", "is_reserved": 0, "fusion_lat": 0.0}, {"type": "electric_scooter", "rental_uris": {"ios": "https://dc.lft.to/lastmile_qr_scan", "android": "https://dc.lft.to/lastmile_qr_scan"}, "lon": -77.02805883333333, "fusion_lon": 0.0, "is_disabled": 0, "lat": 38.899313166666666, "bike_id": "2dc0c52a22e9e4edb6e6a0021610c838", "name": "2dc0c52a22e9e4edb6e6a0021610c838", "is_reserved": 0, "fusion_lat": 0.0}, {"type": "electric_scooter", "rental_uris": {"ios": "https://dc.lft.to/lastmile_qr_scan", "android": "https://dc.lft.to/lastmile_qr_scan"}, "lon": -76.99499016666667, "fusion_lon": 0.0, "is_disabled": 0, "lat": 38.92662283333333, "bike_id": "b85d07b69048234895a1295c756dc5f5", "name": "b85d07b69048234895a1295c756dc5f5", "is_reserved": 0, "fusion_lat": 0.0}, {"type": "electric_scooter", "rental_uris": {"ios": "https://dc.lft.to/lastmile_qr_scan", "android": "https://dc.lft.to/lastmile_qr_scan"}, "lon": -77.043491, "fusion_lon": 0.0, "is_disabled": 0, "lat": 38.90530666666667, "bike_id": "35db795a7efb93849f6552b5cf67cd8f", "name": "35db795a7efb93849f6552b5cf67cd8f", "is_reserved": 0, "fusion_lat": 0.0}, {"type": "electric_scooter", "rental_uris": {"ios": "https://dc.lft.to/lastmile_qr_scan", "android": "https://dc.lft.to/lastmile_qr_scan"}, "lon": -77.04180683333334, "fusion_lon": 0.0, "is_disabled": 0, "lat": 38.90534783333333, "bike_id": "481d362facbfd03cca7c53cb51265f02", "name": "481d362facbfd03cca7c53cb51265f02", "is_reserved": 0, "fusion_lat": 0.0}, {"type": "electric_scooter", "rental_uris": {"ios": "https://dc.lft.to/lastmile_qr_scan", "android": "https://dc.lft.to/lastmile_qr_scan"}, "lon": -77.04927716666667, "fusion_lon": 0.0, "is_disabled": 0, "lat": 38.900923166666665, "bike_id": "340fb9f1806d4a68b5d7409080571e42", "name": "340fb9f1806d4a68b5d7409080571e42", "is_reserved": 0, "fusion_lat": 0.0}, {"type": "electric_scooter", "rental_uris": {"ios": "https://dc.lft.to/lastmile_qr_scan", "android": "https://dc.lft.to/lastmile_qr_scan"}, "lon": -76.9902935, "fusion_lon": 0.0, "is_disabled": 0, "lat": 38.891487166666664, "bike_id": "9b234bd451c99bb21cfc3c464fd7894b", "name": "9b234bd451c99bb21cfc3c464fd7894b", "is_reserved": 0, "fusion_lat": 0.0}, {"type": "electric_bike", "rental_uris": {"ios": "https://dc.lft.to/lastmile_qr_scan", "android": "https://dc.lft.to/lastmile_qr_scan"}, "lon": -77.11726783333333, "fusion_lon": 0.0, "is_disabled": 0, "lat": 39.05458866666667, "bike_id": "153bb70e7f11323b103fd8c098cfb20c", "name": "153bb70e7f11323b103fd8c098cfb20c", "is_reserved": 0, "fusion_lat": 0.0}, {"type": "electric_scooter", "rental_uris": {"ios": "https://dc.lft.to/lastmile_qr_scan", "android": "https://dc.lft.to/lastmile_qr_scan"}, "lon": -77.046805, "fusion_lon": 0.0, "is_disabled": 0, "lat": 38.915812, "bike_id": "5448b507012c11b5888ab5928d3d5e8e", "name": "5448b507012c11b5888ab5928d3d5e8e", "is_reserved": 0, "fusion_lat": 0.0}, {"type": "electric_scooter", "rental_uris": {"ios": "https://dc.lft.to/lastmile_qr_scan", "android": "https://dc.lft.to/lastmile_qr_scan"}, "lon": -77.0297925, "fusion_lon": 0.0, "is_disabled": 0, "lat": 38.915615, "bike_id": "8a5030559df16ba0b21ade025f8306a5", "name": "8a5030559df16ba0b21ade025f8306a5", "is_reserved": 0, "fusion_lat": 0.0}, {"type": "electric_scooter", "rental_uris": {"ios": "https://dc.lft.to/lastmile_qr_scan", "android": "https://dc.lft.to/lastmile_qr_scan"}, "lon": -77.04344433333333, "fusion_lon": 0.0, "is_disabled": 0, "lat": 38.9080925, "bike_id": "b4fe9b88bae61ade2128bf4599180805", "name": "b4fe9b88bae61ade2128bf4599180805", "is_reserved": 0, "fusion_lat": 0.0}, {"type": "electric_scooter", "rental_uris": {"ios": "https://dc.lft.to/lastmile_qr_scan", "android": "https://dc.lft.to/lastmile_qr_scan"}, "lon": -77.03218566666666, "fusion_lon": 0.0, "is_disabled": 0, "lat": 38.89221233333333, "bike_id": "25be863610a85880b058f59346ad5253", "name": "25be863610a85880b058f59346ad5253", "is_reserved": 0, "fusion_lat": 0.0}, {"type": "electric_scooter", "rental_uris": {"ios": "https://dc.lft.to/lastmile_qr_scan", "android": "https://dc.lft.to/lastmile_qr_scan"}, "lon": -77.022214, "fusion_lon": 0.0, "is_disabled": 0, "lat": 38.89220783333333, "bike_id": "21c84660b5a176e398eff65f02190267", "name": "21c84660b5a176e398eff65f02190267", "is_reserved": 0, "fusion_lat": 0.0}, {"type": "electric_scooter", "rental_uris": {"ios": "https://dc.lft.to/lastmile_qr_scan", "android": "https://dc.lft.to/lastmile_qr_scan"}, "lon": -77.039165, "fusion_lon": 0.0, "is_disabled": 0, "lat": 38.918173, "bike_id": "ec49bc85baa201eb1480ac646215014c", "name": "ec49bc85baa201eb1480ac646215014c", "is_reserved": 0, "fusion_lat": 0.0}, {"type": "electric_scooter", "rental_uris": {"ios": "https://dc.lft.to/lastmile_qr_scan", "android": "https://dc.lft.to/lastmile_qr_scan"}, "lon": -77.03124216666667, "fusion_lon": 0.0, "is_disabled": 0, "lat": 38.920279666666666, "bike_id": "5475b32d1f1ba148bb7ba70502d099c0", "name": "5475b32d1f1ba148bb7ba70502d099c0", "is_reserved": 0, "fusion_lat": 0.0}, {"type": "electric_scooter", "rental_uris": {"ios": "https://dc.lft.to/lastmile_qr_scan", "android": "https://dc.lft.to/lastmile_qr_scan"}, "lon": -77.028369, "fusion_lon": 0.0, "is_disabled": 0, "lat": 38.93276933333333, "bike_id": "587fced9b7457eb3a7ee83ffffe1244d", "name": "587fced9b7457eb3a7ee83ffffe1244d", "is_reserved": 0, "fusion_lat": 0.0}, {"type": "electric_scooter", "rental_uris": {"ios": "https://dc.lft.to/lastmile_qr_scan", "android": "https://dc.lft.to/lastmile_qr_scan"}, "lon": -77.076802, "fusion_lon": 0.0, "is_disabled": 0, "lat": 38.942258, "bike_id": "23fa34252f54c6d7dd213121976cdd7f", "name": "23fa34252f54c6d7dd213121976cdd7f", "is_reserved": 0, "fusion_lat": 0.0}, {"type": "electric_scooter", "rental_uris": {"ios": "https://dc.lft.to/lastmile_qr_scan", "android": "https://dc.lft.to/lastmile_qr_scan"}, "lon": -77.0184035, "fusion_lon": 0.0, "is_disabled": 0, "lat": 38.92235433333333, "bike_id": "dee9c1b6f980aee44f6956e642171c52", "name": "dee9c1b6f980aee44f6956e642171c52", "is_reserved": 0, "fusion_lat": 0.0}, {"type": "electric_scooter", "rental_uris": {"ios": "https://dc.lft.to/lastmile_qr_scan", "android": "https://dc.lft.to/lastmile_qr_scan"}, "lon": -77.03188233333333, "fusion_lon": 0.0, "is_disabled": 0, "lat": 38.89228833333333, "bike_id": "891f1231b3a79d51d5174b0e96239502", "name": "891f1231b3a79d51d5174b0e96239502", "is_reserved": 0, "fusion_lat": 0.0}, {"type": "electric_scooter", "rental_uris": {"ios": "https://dc.lft.to/lastmile_qr_scan", "android": "https://dc.lft.to/lastmile_qr_scan"}, "lon": -77.0407185, "fusion_lon": 0.0, "is_disabled": 0, "lat": 38.91412316666667, "bike_id": "99b9e6670c393fcb017b726dda5e0222", "name": "99b9e6670c393fcb017b726dda5e0222", "is_reserved": 0, "fusion_lat": 0.0}, {"type": "electric_scooter", "rental_uris": {"ios": "https://dc.lft.to/lastmile_qr_scan", "android": "https://dc.lft.to/lastmile_qr_scan"}, "lon": -77.02334866666666, "fusion_lon": 0.0, "is_disabled": 0, "lat": 38.917699666666664, "bike_id": "8adb357f5e9d25699fd2b9d248a8b71e", "name": "8adb357f5e9d25699fd2b9d248a8b71e", "is_reserved": 0, "fusion_lat": 0.0}, {"type": "electric_scooter", "rental_uris": {"ios": "https://dc.lft.to/lastmile_qr_scan", "android": "https://dc.lft.to/lastmile_qr_scan"}, "lon": -77.0365655, "fusion_lon": 0.0, "is_disabled": 0, "lat": 38.92026366666666, "bike_id": "777cf94da071a0ba4c7c73c48a37897a", "name": "777cf94da071a0ba4c7c73c48a37897a", "is_reserved": 0, "fusion_lat": 0.0}, {"type": "electric_scooter", "rental_uris": {"ios": "https://dc.lft.to/lastmile_qr_scan", "android": "https://dc.lft.to/lastmile_qr_scan"}, "lon": -77.026258, "fusion_lon": 0.0, "is_disabled": 0, "lat": 38.892153, "bike_id": "78e90a2b426acdf10efce7e1fa549765", "name": "78e90a2b426acdf10efce7e1fa549765", "is_reserved": 0, "fusion_lat": 0.0}, {"type": "electric_scooter", "rental_uris": {"ios": "https://dc.lft.to/lastmile_qr_scan", "android": "https://dc.lft.to/lastmile_qr_scan"}, "lon": -77.039498, "fusion_lon": 0.0, "is_disabled": 0, "lat": 38.9171055, "bike_id": "49ca64b53fba8a8a9769faf9928433ad", "name": "49ca64b53fba8a8a9769faf9928433ad", "is_reserved": 0, "fusion_lat": 0.0}, {"type": "electric_scooter", "rental_uris": {"ios": "https://dc.lft.to/lastmile_qr_scan", "android": "https://dc.lft.to/lastmile_qr_scan"}, "lon": -76.990311, "fusion_lon": 0.0, "is_disabled": 0, "lat": 38.86523916666667, "bike_id": "3a9f6636efb27aba3d04074a010b34e0", "name": "3a9f6636efb27aba3d04074a010b34e0", "is_reserved": 0, "fusion_lat": 0.0}, {"type": "electric_scooter", "rental_uris": {"ios": "https://dc.lft.to/lastmile_qr_scan", "android": "https://dc.lft.to/lastmile_qr_scan"}, "lon": -77.04017683333333, "fusion_lon": 0.0, "is_disabled": 0, "lat": 38.924470666666664, "bike_id": "1ce942e6d623d335772883a9de10fdb3", "name": "1ce942e6d623d335772883a9de10fdb3", "is_reserved": 0, "fusion_lat": 0.0}, {"type": "electric_scooter", "rental_uris": {"ios": "https://dc.lft.to/lastmile_qr_scan", "android": "https://dc.lft.to/lastmile_qr_scan"}, "lon": -77.0147635, "fusion_lon": 0.0, "is_disabled": 0, "lat": 38.876313, "bike_id": "ae98b5f427271128911bc8f5dc5bb9a5", "name": "ae98b5f427271128911bc8f5dc5bb9a5", "is_reserved": 0, "fusion_lat": 0.0}, {"type": "electric_bike", "rental_uris": {"ios": "https://dc.lft.to/lastmile_qr_scan", "android": "https://dc.lft.to/lastmile_qr_scan"}, "lon": -76.98102316666666, "fusion_lon": 0.0, "is_disabled": 0, "lat": 38.953515333333335, "bike_id": "9134f87dc1528a3b09657c9ad79d35b4", "name": "9134f87dc1528a3b09657c9ad79d35b4", "is_reserved": 0, "fusion_lat": 0.0}, {"type": "electric_scooter", "rental_uris": {"ios": "https://dc.lft.to/lastmile_qr_scan", "android": "https://dc.lft.to/lastmile_qr_scan"}, "lon": -77.043377, "fusion_lon": 0.0, "is_disabled": 0, "lat": 38.9044035, "bike_id": "0dc4a0a422f91a524ebd7b55a7f36283", "name": "0dc4a0a422f91a524ebd7b55a7f36283", "is_reserved": 0, "fusion_lat": 0.0}, {"type": "electric_scooter", "rental_uris": {"ios": "https://dc.lft.to/lastmile_qr_scan", "android": "https://dc.lft.to/lastmile_qr_scan"}, "lon": -77.0461295, "fusion_lon": 0.0, "is_disabled": 0, "lat": 38.9155845, "bike_id": "d123ea53baa3c1eef6b5f4544462d1b5", "name": "d123ea53baa3c1eef6b5f4544462d1b5", "is_reserved": 0, "fusion_lat": 0.0}, {"type": "electric_scooter", "rental_uris": {"ios": "https://dc.lft.to/lastmile_qr_scan", "android": "https://dc.lft.to/lastmile_qr_scan"}, "lon": -77.04389333333333, "fusion_lon": 0.0, "is_disabled": 0, "lat": 38.9333225, "bike_id": "adcbd5aca8f2dfffb77ef3cf71a65c52", "name": "adcbd5aca8f2dfffb77ef3cf71a65c52", "is_reserved": 0, "fusion_lat": 0.0}, {"type": "electric_scooter", "rental_uris": {"ios": "https://dc.lft.to/lastmile_qr_scan", "android": "https://dc.lft.to/lastmile_qr_scan"}, "lon": -77.04008683333333, "fusion_lon": 0.0, "is_disabled": 0, "lat": 38.91003933333333, "bike_id": "2712d10bab25d269bba321bb5265b566", "name": "2712d10bab25d269bba321bb5265b566", "is_reserved": 0, "fusion_lat": 0.0}, {"type": "electric_bike", "rental_uris": {"ios": "https://dc.lft.to/lastmile_qr_scan", "android": "https://dc.lft.to/lastmile_qr_scan"}, "lon": -77.129643, "fusion_lon": 0.0, "is_disabled": 0, "lat": 38.852222166666664, "bike_id": "b9412ef370065a24ffada11530d43a2a", "name": "b9412ef370065a24ffada11530d43a2a", "is_reserved": 0, "fusion_lat": 0.0}, {"type": "electric_bike", "rental_uris": {"ios": "https://dc.lft.to/lastmile_qr_scan", "android": "https://dc.lft.to/lastmile_qr_scan"}, "lon": -76.93230683333333, "fusion_lon": 0.0, "is_disabled": 0, "lat": 38.86594133333333, "bike_id": "0b609e893473c7f99973473d105eefee", "name": "0b609e893473c7f99973473d105eefee", "is_reserved": 0, "fusion_lat": 0.0}, {"type": "electric_bike", "rental_uris": {"ios": "https://dc.lft.to/lastmile_qr_scan", "android": "https://dc.lft.to/lastmile_qr_scan"}, "lon": -77.09477033333333, "fusion_lon": 0.0, "is_disabled": 0, "lat": 38.80752066666667, "bike_id": "92f44dd6ca836577fed82dd6b75e0ab8", "name": "92f44dd6ca836577fed82dd6b75e0ab8", "is_reserved": 0, "fusion_lat": 0.0}, {"type": "electric_scooter", "rental_uris": {"ios": "https://dc.lft.to/lastmile_qr_scan", "android": "https://dc.lft.to/lastmile_qr_scan"}, "lon": -77.03673933333333, "fusion_lon": 0.0, "is_disabled": 0, "lat": 38.917103, "bike_id": "5cd678b1fbd5390fa6bb9ea6c78fb720", "name": "5cd678b1fbd5390fa6bb9ea6c78fb720", "is_reserved": 0, "fusion_lat": 0.0}, {"type": "electric_scooter", "rental_uris": {"ios": "https://dc.lft.to/lastmile_qr_scan", "android": "https://dc.lft.to/lastmile_qr_scan"}, "lon": -77.03176433333333, "fusion_lon": 0.0, "is_disabled": 0, "lat": 38.919235666666665, "bike_id": "2fc26dcf8435d1a1caaefb308ab4412d", "name": "2fc26dcf8435d1a1caaefb308ab4412d", "is_reserved": 0, "fusion_lat": 0.0}, {"type": "electric_scooter", "rental_uris": {"ios": "https://dc.lft.to/lastmile_qr_scan", "android": "https://dc.lft.to/lastmile_qr_scan"}, "lon": -77.03191516666666, "fusion_lon": 0.0, "is_disabled": 0, "lat": 38.90979983333333, "bike_id": "7ae71a5a4641ae5156b8593bd34bff27", "name": "7ae71a5a4641ae5156b8593bd34bff27", "is_reserved": 0, "fusion_lat": 0.0}, {"type": "electric_scooter", "rental_uris": {"ios": "https://dc.lft.to/lastmile_qr_scan", "android": "https://dc.lft.to/lastmile_qr_scan"}, "lon": -77.02405866666666, "fusion_lon": 0.0, "is_disabled": 0, "lat": 38.89839683333334, "bike_id": "a44648fbc01be5cfecd9d6d13f8db530", "name": "a44648fbc01be5cfecd9d6d13f8db530", "is_reserved": 0, "fusion_lat": 0.0}, {"type": "electric_scooter", "rental_uris": {"ios": "https://dc.lft.to/lastmile_qr_scan", "android": "https://dc.lft.to/lastmile_qr_scan"}, "lon": -77.01763883333334, "fusion_lon": 0.0, "is_disabled": 0, "lat": 38.876803, "bike_id": "267cbd2d23132cb4fbb6a8ef58da1064", "name": "267cbd2d23132cb4fbb6a8ef58da1064", "is_reserved": 0, "fusion_lat": 0.0}, {"type": "electric_scooter", "rental_uris": {"ios": "https://dc.lft.to/lastmile_qr_scan", "android": "https://dc.lft.to/lastmile_qr_scan"}, "lon": -77.02848633333333, "fusion_lon": 0.0, "is_disabled": 0, "lat": 38.92763033333333, "bike_id": "d9c4c30309af6b347525178b9a0c3252", "name": "d9c4c30309af6b347525178b9a0c3252", "is_reserved": 0, "fusion_lat": 0.0}, {"type": "electric_scooter", "rental_uris": {"ios": "https://dc.lft.to/lastmile_qr_scan", "android": "https://dc.lft.to/lastmile_qr_scan"}, "lon": -76.9995915, "fusion_lon": 0.0, "is_disabled": 0, "lat": 38.90111483333333, "bike_id": "952e1397fd546b5e260d29963a9388a4", "name": "952e1397fd546b5e260d29963a9388a4", "is_reserved": 0, "fusion_lat": 0.0}, {"type": "electric_scooter", "rental_uris": {"ios": "https://dc.lft.to/lastmile_qr_scan", "android": "https://dc.lft.to/lastmile_qr_scan"}, "lon": -76.9955725, "fusion_lon": 0.0, "is_disabled": 0, "lat": 38.9002665, "bike_id": "c8ff6171aab3a150805e5ac5126abe3c", "name": "c8ff6171aab3a150805e5ac5126abe3c", "is_reserved": 0, "fusion_lat": 0.0}, {"type": "electric_scooter", "rental_uris": {"ios": "https://dc.lft.to/lastmile_qr_scan", "android": "https://dc.lft.to/lastmile_qr_scan"}, "lon": -77.05127883333333, "fusion_lon": 0.0, "is_disabled": 0, "lat": 38.92361866666667, "bike_id": "2d9943c0ff5635b06c42fddb3503dfe9", "name": "2d9943c0ff5635b06c42fddb3503dfe9", "is_reserved": 0, "fusion_lat": 0.0}, {"type": "electric_scooter", "rental_uris": {"ios": "https://dc.lft.to/lastmile_qr_scan", "android": "https://dc.lft.to/lastmile_qr_scan"}, "lon": -77.05232983333333, "fusion_lon": 0.0, "is_disabled": 0, "lat": 38.924691, "bike_id": "c0a2075bf66d812bed46d7a6e05c25c0", "name": "c0a2075bf66d812bed46d7a6e05c25c0", "is_reserved": 0, "fusion_lat": 0.0}, {"type": "electric_scooter", "rental_uris": {"ios": "https://dc.lft.to/lastmile_qr_scan", "android": "https://dc.lft.to/lastmile_qr_scan"}, "lon": -77.04478316666666, "fusion_lon": 0.0, "is_disabled": 0, "lat": 38.91931816666666, "bike_id": "83a0916678cf62b6143e9e52bc3dc202", "name": "83a0916678cf62b6143e9e52bc3dc202", "is_reserved": 0, "fusion_lat": 0.0}, {"type": "electric_bike", "rental_uris": {"ios": "https://dc.lft.to/lastmile_qr_scan", "android": "https://dc.lft.to/lastmile_qr_scan"}, "lon": -76.98594816666666, "fusion_lon": 0.0, "is_disabled": 0, "lat": 38.90619016666667, "bike_id": "6df29d5992201b12425447cfc05da415", "name": "6df29d5992201b12425447cfc05da415", "is_reserved": 0, "fusion_lat": 0.0}, {"type": "electric_scooter", "rental_uris": {"ios": "https://dc.lft.to/lastmile_qr_scan", "android": "https://dc.lft.to/lastmile_qr_scan"}, "lon": -77.01501866666666, "fusion_lon": 0.0, "is_disabled": 0, "lat": 38.943259, "bike_id": "b4cc120c9a8ea89e36925ec4e5027bb7", "name": "b4cc120c9a8ea89e36925ec4e5027bb7", "is_reserved": 0, "fusion_lat": 0.0}, {"type": "electric_bike", "rental_uris": {"ios": "https://dc.lft.to/lastmile_qr_scan", "android": "https://dc.lft.to/lastmile_qr_scan"}, "lon": -76.90970516666667, "fusion_lon": 0.0, "is_disabled": 0, "lat": 38.85424016666666, "bike_id": "e2d8aed7bb25ffe8a21ae29c0435288c", "name": "e2d8aed7bb25ffe8a21ae29c0435288c", "is_reserved": 0, "fusion_lat": 0.0}, {"type": "electric_scooter", "rental_uris": {"ios": "https://dc.lft.to/lastmile_qr_scan", "android": "https://dc.lft.to/lastmile_qr_scan"}, "lon": -77.04331, "fusion_lon": 0.0, "is_disabled": 0, "lat": 38.892221, "bike_id": "55098cf6fa0c2b341c177c9d6dfe53ad", "name": "55098cf6fa0c2b341c177c9d6dfe53ad", "is_reserved": 0, "fusion_lat": 0.0}, {"type": "electric_scooter", "rental_uris": {"ios": "https://dc.lft.to/lastmile_qr_scan", "android": "https://dc.lft.to/lastmile_qr_scan"}, "lon": -77.02162166666666, "fusion_lon": 0.0, "is_disabled": 0, "lat": 38.897258666666666, "bike_id": "b875496e58bcbcad5292819e947c9e82", "name": "b875496e58bcbcad5292819e947c9e82", "is_reserved": 0, "fusion_lat": 0.0}, {"type": "electric_scooter", "rental_uris": {"ios": "https://dc.lft.to/lastmile_qr_scan", "android": "https://dc.lft.to/lastmile_qr_scan"}, "lon": -76.96525833333334, "fusion_lon": 0.0, "is_disabled": 0, "lat": 38.876253, "bike_id": "beaa6f83e654cceede112cfb356abbe9", "name": "beaa6f83e654cceede112cfb356abbe9", "is_reserved": 0, "fusion_lat": 0.0}, {"type": "electric_bike", "rental_uris": {"ios": "https://dc.lft.to/lastmile_qr_scan", "android": "https://dc.lft.to/lastmile_qr_scan"}, "lon": -76.97268066666666, "fusion_lon": 0.0, "is_disabled": 0, "lat": 38.91960616666667, "bike_id": "0e02953808ace65a9ff172f89811336c", "name": "0e02953808ace65a9ff172f89811336c", "is_reserved": 0, "fusion_lat": 0.0}, {"type": "electric_scooter", "rental_uris": {"ios": "https://dc.lft.to/lastmile_qr_scan", "android": "https://dc.lft.to/lastmile_qr_scan"}, "lon": -77.04125083333334, "fusion_lon": 0.0, "is_disabled": 0, "lat": 38.899373833333335, "bike_id": "89f00dbba5997e3d8fef78a46104e8d3", "name": "89f00dbba5997e3d8fef78a46104e8d3", "is_reserved": 0, "fusion_lat": 0.0}, {"type": "electric_scooter", "rental_uris": {"ios": "https://dc.lft.to/lastmile_qr_scan", "android": "https://dc.lft.to/lastmile_qr_scan"}, "lon": -77.02618033333333, "fusion_lon": 0.0, "is_disabled": 0, "lat": 38.948246833333336, "bike_id": "1d48ea0a757127f572db1627e1ee4a72", "name": "1d48ea0a757127f572db1627e1ee4a72", "is_reserved": 0, "fusion_lat": 0.0}, {"type": "electric_scooter", "rental_uris": {"ios": "https://dc.lft.to/lastmile_qr_scan", "android": "https://dc.lft.to/lastmile_qr_scan"}, "lon": -76.99495983333334, "fusion_lon": 0.0, "is_disabled": 0, "lat": 38.86246766666667, "bike_id": "5d3427f03c80c025b55ea6baa0e93a8a", "name": "5d3427f03c80c025b55ea6baa0e93a8a", "is_reserved": 0, "fusion_lat": 0.0}, {"type": "electric_scooter", "rental_uris": {"ios": "https://dc.lft.to/lastmile_qr_scan", "android": "https://dc.lft.to/lastmile_qr_scan"}, "lon": -77.036495, "fusion_lon": 0.0, "is_disabled": 0, "lat": 38.903139, "bike_id": "695b1c56ca85f32ca6d109b78a95b807", "name": "695b1c56ca85f32ca6d109b78a95b807", "is_reserved": 0, "fusion_lat": 0.0}, {"type": "electric_bike", "rental_uris": {"ios": "https://dc.lft.to/lastmile_qr_scan", "android": "https://dc.lft.to/lastmile_qr_scan"}, "lon": -77.03148366666667, "fusion_lon": 0.0, "is_disabled": 0, "lat": 38.994401, "bike_id": "6125261f4b854c5128ba62374f6e2c01", "name": "6125261f4b854c5128ba62374f6e2c01", "is_reserved": 0, "fusion_lat": 0.0}, {"type": "electric_bike", "rental_uris": {"ios": "https://dc.lft.to/lastmile_qr_scan", "android": "https://dc.lft.to/lastmile_qr_scan"}, "lon": -77.21645416666667, "fusion_lon": 0.0, "is_disabled": 0, "lat": 38.930111833333335, "bike_id": "f413971b6e2a338008aa8840915995a4", "name": "f413971b6e2a338008aa8840915995a4", "is_reserved": 0, "fusion_lat": 0.0}, {"type": "electric_bike", "rental_uris": {"ios": "https://dc.lft.to/lastmile_qr_scan", "android": "https://dc.lft.to/lastmile_qr_scan"}, "lon": -76.96061083333333, "fusion_lon": 0.0, "is_disabled": 0, "lat": 38.88402033333333, "bike_id": "f82353e154b092bb30ca11037a4e5af4", "name": "f82353e154b092bb30ca11037a4e5af4", "is_reserved": 0, "fusion_lat": 0.0}, {"type": "electric_scooter", "rental_uris": {"ios": "https://dc.lft.to/lastmile_qr_scan", "android": "https://dc.lft.to/lastmile_qr_scan"}, "lon": -77.01939566666667, "fusion_lon": 0.0, "is_disabled": 0, "lat": 38.948527, "bike_id": "b21c1038c46dafa013765ab2963c9ddb", "name": "b21c1038c46dafa013765ab2963c9ddb", "is_reserved": 0, "fusion_lat": 0.0}, {"type": "electric_bike", "rental_uris": {"ios": "https://dc.lft.to/lastmile_qr_scan", "android": "https://dc.lft.to/lastmile_qr_scan"}, "lon": -77.0586825, "fusion_lon": 0.0, "is_disabled": 0, "lat": 38.95894783333333, "bike_id": "3f59f7b3f187e7776bd5d2a2b09113ff", "name": "3f59f7b3f187e7776bd5d2a2b09113ff", "is_reserved": 0, "fusion_lat": 0.0}, {"type": "electric_scooter", "rental_uris": {"ios": "https://dc.lft.to/lastmile_qr_scan", "android": "https://dc.lft.to/lastmile_qr_scan"}, "lon": -77.000707, "fusion_lon": 0.0, "is_disabled": 0, "lat": 38.92553383333333, "bike_id": "62b2d60b159525ed8cfc40555c84f7a1", "name": "62b2d60b159525ed8cfc40555c84f7a1", "is_reserved": 0, "fusion_lat": 0.0}, {"type": "electric_scooter", "rental_uris": {"ios": "https://dc.lft.to/lastmile_qr_scan", "android": "https://dc.lft.to/lastmile_qr_scan"}, "lon": -77.024316, "fusion_lon": 0.0, "is_disabled": 0, "lat": 38.9185675, "bike_id": "5555407fc641ff51ea64fd7a74953bdb", "name": "5555407fc641ff51ea64fd7a74953bdb", "is_reserved": 0, "fusion_lat": 0.0}, {"type": "electric_scooter", "rental_uris": {"ios": "https://dc.lft.to/lastmile_qr_scan", "android": "https://dc.lft.to/lastmile_qr_scan"}, "lon": -77.02156566666666, "fusion_lon": 0.0, "is_disabled": 0, "lat": 38.924965666666665, "bike_id": "a0940f23734780b3cf48751ee62134c9", "name": "a0940f23734780b3cf48751ee62134c9", "is_reserved": 0, "fusion_lat": 0.0}, {"type": "electric_scooter", "rental_uris": {"ios": "https://dc.lft.to/lastmile_qr_scan", "android": "https://dc.lft.to/lastmile_qr_scan"}, "lon": -77.03967416666667, "fusion_lon": 0.0, "is_disabled": 0, "lat": 38.899026166666665, "bike_id": "38c530276e92fce21717c834163b3344", "name": "38c530276e92fce21717c834163b3344", "is_reserved": 0, "fusion_lat": 0.0}, {"type": "electric_scooter", "rental_uris": {"ios": "https://dc.lft.to/lastmile_qr_scan", "android": "https://dc.lft.to/lastmile_qr_scan"}, "lon": -77.02200216666667, "fusion_lon": 0.0, "is_disabled": 0, "lat": 38.894962, "bike_id": "c0305f55a129881b164c3bafee6d9660", "name": "c0305f55a129881b164c3bafee6d9660", "is_reserved": 0, "fusion_lat": 0.0}, {"type": "electric_bike", "rental_uris": {"ios": "https://dc.lft.to/lastmile_qr_scan", "android": "https://dc.lft.to/lastmile_qr_scan"}, "lon": -76.95197533333334, "fusion_lon": 0.0, "is_disabled": 0, "lat": 38.936763666666664, "bike_id": "9e0c07556dc021797dadd2320c1c9925", "name": "9e0c07556dc021797dadd2320c1c9925", "is_reserved": 0, "fusion_lat": 0.0}, {"type": "electric_scooter", "rental_uris": {"ios": "https://dc.lft.to/lastmile_qr_scan", "android": "https://dc.lft.to/lastmile_qr_scan"}, "lon": -77.03032116666667, "fusion_lon": 0.0, "is_disabled": 0, "lat": 38.9267995, "bike_id": "55d113378b62a8376beefa721c847951", "name": "55d113378b62a8376beefa721c847951", "is_reserved": 0, "fusion_lat": 0.0}, {"type": "electric_scooter", "rental_uris": {"ios": "https://dc.lft.to/lastmile_qr_scan", "android": "https://dc.lft.to/lastmile_qr_scan"}, "lon": -77.05150166666667, "fusion_lon": 0.0, "is_disabled": 0, "lat": 38.9025795, "bike_id": "8baa964637d557b30d15e39517ea180b", "name": "8baa964637d557b30d15e39517ea180b", "is_reserved": 0, "fusion_lat": 0.0}, {"type": "electric_scooter", "rental_uris": {"ios": "https://dc.lft.to/lastmile_qr_scan", "android": "https://dc.lft.to/lastmile_qr_scan"}, "lon": -77.0241925, "fusion_lon": 0.0, "is_disabled": 0, "lat": 38.926547666666664, "bike_id": "b15511c6209e97aad15ab08db0195fec", "name": "b15511c6209e97aad15ab08db0195fec", "is_reserved": 0, "fusion_lat": 0.0}, {"type": "electric_scooter", "rental_uris": {"ios": "https://dc.lft.to/lastmile_qr_scan", "android": "https://dc.lft.to/lastmile_qr_scan"}, "lon": -77.03074016666666, "fusion_lon": 0.0, "is_disabled": 0, "lat": 38.917528833333336, "bike_id": "795319293d9570f9b268538f0f297bf0", "name": "795319293d9570f9b268538f0f297bf0", "is_reserved": 0, "fusion_lat": 0.0}, {"type": "electric_scooter", "rental_uris": {"ios": "https://dc.lft.to/lastmile_qr_scan", "android": "https://dc.lft.to/lastmile_qr_scan"}, "lon": -77.0335475, "fusion_lon": 0.0, "is_disabled": 0, "lat": 38.91707183333333, "bike_id": "7e500cb013a163b97de69f11dbbfdee2", "name": "7e500cb013a163b97de69f11dbbfdee2", "is_reserved": 0, "fusion_lat": 0.0}, {"type": "electric_scooter", "rental_uris": {"ios": "https://dc.lft.to/lastmile_qr_scan", "android": "https://dc.lft.to/lastmile_qr_scan"}, "lon": -77.01376166666667, "fusion_lon": 0.0, "is_disabled": 0, "lat": 38.892216833333336, "bike_id": "4669f99348cf318202aa56af48effec3", "name": "4669f99348cf318202aa56af48effec3", "is_reserved": 0, "fusion_lat": 0.0}, {"type": "electric_scooter", "rental_uris": {"ios": "https://dc.lft.to/lastmile_qr_scan", "android": "https://dc.lft.to/lastmile_qr_scan"}, "lon": -76.97015316666666, "fusion_lon": 0.0, "is_disabled": 0, "lat": 38.92032416666667, "bike_id": "85d975cccae9dd4934c810ba18ae05ab", "name": "85d975cccae9dd4934c810ba18ae05ab", "is_reserved": 0, "fusion_lat": 0.0}, {"type": "electric_scooter", "rental_uris": {"ios": "https://dc.lft.to/lastmile_qr_scan", "android": "https://dc.lft.to/lastmile_qr_scan"}, "lon": -77.03623283333333, "fusion_lon": 0.0, "is_disabled": 0, "lat": 38.936838, "bike_id": "45406248cf14159ae72e62a377f969a6", "name": "45406248cf14159ae72e62a377f969a6", "is_reserved": 0, "fusion_lat": 0.0}, {"type": "electric_scooter", "rental_uris": {"ios": "https://dc.lft.to/lastmile_qr_scan", "android": "https://dc.lft.to/lastmile_qr_scan"}, "lon": -77.0222005, "fusion_lon": 0.0, "is_disabled": 0, "lat": 38.892194, "bike_id": "8cf1a8418ad19f0acd70de15bea55629", "name": "8cf1a8418ad19f0acd70de15bea55629", "is_reserved": 0, "fusion_lat": 0.0}, {"type": "electric_bike", "rental_uris": {"ios": "https://dc.lft.to/lastmile_qr_scan", "android": "https://dc.lft.to/lastmile_qr_scan"}, "lon": -77.0270925, "fusion_lon": 0.0, "is_disabled": 0, "lat": 38.922981166666666, "bike_id": "9b18af6522af2dfd536a40c049dcb7fe", "name": "9b18af6522af2dfd536a40c049dcb7fe", "is_reserved": 0, "fusion_lat": 0.0}, {"type": "electric_scooter", "rental_uris": {"ios": "https://dc.lft.to/lastmile_qr_scan", "android": "https://dc.lft.to/lastmile_qr_scan"}, "lon": -77.0504705, "fusion_lon": 0.0, "is_disabled": 0, "lat": 38.92358516666667, "bike_id": "9424d5e8ded811f66fce9cc095a9db5f", "name": "9424d5e8ded811f66fce9cc095a9db5f", "is_reserved": 0, "fusion_lat": 0.0}, {"type": "electric_scooter", "rental_uris": {"ios": "https://dc.lft.to/lastmile_qr_scan", "android": "https://dc.lft.to/lastmile_qr_scan"}, "lon": -77.030958, "fusion_lon": 0.0, "is_disabled": 0, "lat": 38.901372333333335, "bike_id": "735514c1f9190dedda0145a71e11f048", "name": "735514c1f9190dedda0145a71e11f048", "is_reserved": 0, "fusion_lat": 0.0}, {"type": "electric_scooter", "rental_uris": {"ios": "https://dc.lft.to/lastmile_qr_scan", "android": "https://dc.lft.to/lastmile_qr_scan"},