{"data": {"bikes": [{"bike_id": "999df5676c9fd0f34d8d2a1d3dfdcca8", "fusion_lon": 0.0, "type": "electric_scooter", "name": "999df5676c9fd0f34d8d2a1d3dfdcca8", "rental_uris": {"android": "https://dc.lft.to/lastmile_qr_scan", "ios": "https://dc.lft.to/lastmile_qr_scan"}, "fusion_lat": 0.0, "lat": 38.85727, "is_disabled": 0, "lon": -76.98096716666667, "is_reserved": 0}, {"bike_id": "ec743b1dc96611a5e5b946ab46bc8ae4", "fusion_lon": 0.0, "type": "electric_scooter", "name": "ec743b1dc96611a5e5b946ab46bc8ae4", "rental_uris": {"android": "https://dc.lft.to/lastmile_qr_scan", "ios": "https://dc.lft.to/lastmile_qr_scan"}, "fusion_lat": 0.0, "lat": 38.93372633333333, "is_disabled": 0, "lon": -77.05727233333333, "is_reserved": 0}, {"bike_id": "60d0210dc45a199be973c4e03ae3077a", "fusion_lon": 0.0, "type": "electric_scooter", "name": "60d0210dc45a199be973c4e03ae3077a", "rental_uris": {"android": "https://dc.lft.to/lastmile_qr_scan", "ios": "https://dc.lft.to/lastmile_qr_scan"}, "fusion_lat": 0.0, "lat": 38.909794833333336, "is_disabled": 0, "lon": -77.02293066666667, "is_reserved": 0}, {"bike_id": "fffb5d03cbb31ff0514d00a44901f3c8", "fusion_lon": 0.0, "type": "electric_scooter", "name": "fffb5d03cbb31ff0514d00a44901f3c8", "rental_uris": {"android": "https://dc.lft.to/lastmile_qr_scan", "ios": "https://dc.lft.to/lastmile_qr_scan"}, "fusion_lat": 0.0, "lat": 38.9003425, "is_disabled": 0, "lon": -76.99447666666667, "is_reserved": 0}, {"bike_id": "be780a560a1ee2005a1603961aad2c5c", "fusion_lon": 0.0, "type": "electric_scooter", "name": "be780a560a1ee2005a1603961aad2c5c", "rental_uris": {"android": "https://dc.lft.to/lastmile_qr_scan", "ios": "https://dc.lft.to/lastmile_qr_scan"}, "fusion_lat": 0.0, "lat": 38.911583666666665, "is_disabled": 0, "lon": -76.98475083333334, "is_reserved": 0}, {"bike_id": "889ff2aff4114441551c76ce497e8489", "fusion_lon": 0.0, "type": "electric_scooter", "name": "889ff2aff4114441551c76ce497e8489", "rental_uris": {"android": "https://dc.lft.to/lastmile_qr_scan", "ios": "https://dc.lft.to/lastmile_qr_scan"}, "fusion_lat": 0.0, "lat": 38.9053195, "is_disabled": 0, "lon": -77.04997566666667, "is_reserved": 0}, {"bike_id": "784c39d8ecb81730a874dc428089dc07", "fusion_lon": 0.0, "type": "electric_scooter", "name": "784c39d8ecb81730a874dc428089dc07", "rental_uris": {"android": "https://dc.lft.to/lastmile_qr_scan", "ios": "https://dc.lft.to/lastmile_qr_scan"}, "fusion_lat": 0.0, "lat": 38.915523666666665, "is_disabled": 0, "lon": -77.03845766666667, "is_reserved": 0}, {"bike_id": "34229e042b8fb4e25b151dcaa96560dc", "fusion_lon": 0.0, "type": "electric_scooter", "name": "34229e042b8fb4e25b151dcaa96560dc", "rental_uris": {"android": "https://dc.lft.to/lastmile_qr_scan", "ios": "https://dc.lft.to/lastmile_qr_scan"}, "fusion_lat": 0.0, "lat": 38.86712266666667, "is_disabled": 0, "lon": -76.987311, "is_reserved": 0}, {"bike_id": "ba8f8007350c58ed46f0768b9df5d0be", "fusion_lon": 0.0, "type": "electric_scooter", "name": "ba8f8007350c58ed46f0768b9df5d0be", "rental_uris": {"android": "https://dc.lft.to/lastmile_qr_scan", "ios": "https://dc.lft.to/lastmile_qr_scan"}, "fusion_lat": 0.0, "lat": 38.924788166666666, "is_disabled": 0, "lon": -77.0348825, "is_reserved": 0}, {"bike_id": "64a197fe1bf85a7401331295c859eaab", "fusion_lon": 0.0, "type": "electric_bike", "name": "64a197fe1bf85a7401331295c859eaab", "rental_uris": {"android": "https://dc.lft.to/lastmile_qr_scan", "ios": "https://dc.lft.to/lastmile_qr_scan"}, "fusion_lat": 0.0, "lat": 38.85483816666667, "is_disabled": 0, "lon": -77.1160475, "is_reserved": 0}, {"bike_id": "8259411a8ab888c5803507df64f351b6", "fusion_lon": 0.0, "type": "electric_scooter", "name": "8259411a8ab888c5803507df64f351b6", "rental_uris": {"android": "https://dc.lft.to/lastmile_qr_scan", "ios": "https://dc.lft.to/lastmile_qr_scan"}, "fusion_lat": 0.0, "lat": 38.95330116666667, "is_disabled": 0, "lon": -77.01652383333334, "is_reserved": 0}, {"bike_id": "169a79930bea3a77844f81c2ded22ffd", "fusion_lon": 0.0, "type": "electric_bike", "name": "169a79930bea3a77844f81c2ded22ffd", "rental_uris": {"android": "https://dc.lft.to/lastmile_qr_scan", "ios": "https://dc.lft.to/lastmile_qr_scan"}, "fusion_lat": 0.0, "lat": 38.95067, "is_disabled": 0, "lon": -77.07797033333334, "is_reserved": 0}, {"bike_id": "69e6a618c2ac4f23f5812c60b6b02633", "fusion_lon": 0.0, "type": "electric_scooter", "name": "69e6a618c2ac4f23f5812c60b6b02633", "rental_uris": {"android": "https://dc.lft.to/lastmile_qr_scan", "ios": "https://dc.lft.to/lastmile_qr_scan"}, "fusion_lat": 0.0, "lat": 38.9382365, "is_disabled": 0, "lon": -77.0326565, "is_reserved": 0}, {"bike_id": "bb1b6c760da77d81712e4dce4353429a", "fusion_lon": 0.0, "type": "electric_bike", "name": "bb1b6c760da77d81712e4dce4353429a", "rental_uris": {"android": "https://dc.lft.to/lastmile_qr_scan", "ios": "https://dc.lft.to/lastmile_qr_scan"}, "fusion_lat": 0.0, "lat": 38.938657666666664, "is_disabled": 0, "lon": -77.04233, "is_reserved": 0}, {"bike_id": "680b9cc05ee07e4196dbaabe3e2d894c", "fusion_lon": 0.0, "type": "electric_scooter", "name": "680b9cc05ee07e4196dbaabe3e2d894c", "rental_uris": {"android": "https://dc.lft.to/lastmile_qr_scan", "ios": "https://dc.lft.to/lastmile_qr_scan"}, "fusion_lat": 0.0, "lat": 38.931355333333336, "is_disabled": 0, "lon": -77.02197616666666, "is_reserved": 0}, {"bike_id": "2c8709df265a9edc6f50211baa192f3b", "fusion_lon": 0.0, "type": "electric_scooter", "name": "2c8709df265a9edc6f50211baa192f3b", "rental_uris": {"android": "https://dc.lft.to/lastmile_qr_scan", "ios": "https://dc.lft.to/lastmile_qr_scan"}, "fusion_lat": 0.0, "lat": 38.914208, "is_disabled": 0, "lon": -77.0300795, "is_reserved": 0}, {"bike_id": "b03e056fbacd511b24a4c8579e1055fb", "fusion_lon": 0.0, "type": "electric_scooter", "name": "b03e056fbacd511b24a4c8579e1055fb", "rental_uris": {"android": "https://dc.lft.to/lastmile_qr_scan", "ios": "https://dc.lft.to/lastmile_qr_scan"}, "fusion_lat": 0.0, "lat": 38.90882216666667, "is_disabled": 0, "lon": -77.01837233333333, "is_reserved": 0}, {"bike_id": "accad1d3b21da727961bbbeae372f20e", "fusion_lon": 0.0, "type": "electric_scooter", "name": "accad1d3b21da727961bbbeae372f20e", "rental_uris": {"android": "https://dc.lft.to/lastmile_qr_scan", "ios": "https://dc.lft.to/lastmile_qr_scan"}, "fusion_lat": 0.0, "lat": 38.863567833333335, "is_disabled": 0, "lon": -76.98266466666666, "is_reserved": 0}, {"bike_id": "6260d48bc8810b60b46c81aa59c02c0c", "fusion_lon": 0.0, "type": "electric_scooter", "name": "6260d48bc8810b60b46c81aa59c02c0c", "rental_uris": {"android": "https://dc.lft.to/lastmile_qr_scan", "ios": "https://dc.lft.to/lastmile_qr_scan"}, "fusion_lat": 0.0, "lat": 38.91566616666667, "is_disabled": 0, "lon": -77.0324875, "is_reserved": 0}, {"bike_id": "76e47dfb536f67c514e2c84993fcdd2a", "fusion_lon": 0.0, "type": "electric_scooter", "name": "76e47dfb536f67c514e2c84993fcdd2a", "rental_uris": {"android": "https://dc.lft.to/lastmile_qr_scan", "ios": "https://dc.lft.to/lastmile_qr_scan"}, "fusion_lat": 0.0, "lat": 38.922791833333335, "is_disabled": 0, "lon": -76.99756783333333, "is_reserved": 0}, {"bike_id": "5b6ca671f48f7289129a65295fd979e4", "fusion_lon": 0.0, "type": "electric_bike", "name": "5b6ca671f48f7289129a65295fd979e4", "rental_uris": {"android": "https://dc.lft.to/lastmile_qr_scan", "ios": "https://dc.lft.to/lastmile_qr_scan"}, "fusion_lat": 0.0, "lat": 38.92462533333333, "is_disabled": 0, "lon": -76.9755825, "is_reserved": 0}, {"bike_id": "683c299d35cabb2cfad44c2bcd9d966d", "fusion_lon": 0.0, "type": "electric_scooter", "name": "683c299d35cabb2cfad44c2bcd9d966d", "rental_uris": {"android": "https://dc.lft.to/lastmile_qr_scan", "ios": "https://dc.lft.to/lastmile_qr_scan"}, "fusion_lat": 0.0, "lat": 38.898567666666665, "is_disabled": 0, "lon": -76.99033583333333, "is_reserved": 0}, {"bike_id": "2c36719c0b17e6d5f3a19e775308f0b0", "fusion_lon": 0.0, "type": "electric_scooter", "name": "2c36719c0b17e6d5f3a19e775308f0b0", "rental_uris": {"android": "https://dc.lft.to/lastmile_qr_scan", "ios": "https://dc.lft.to/lastmile_qr_scan"}, "fusion_lat": 0.0, "lat": 38.95851916666667, "is_disabled": 0, "lon": -77.029057, "is_reserved": 0}, {"bike_id": "ffca08e2168d1386eec8d1e9edb3cb77", "fusion_lon": 0.0, "type": "electric_bike", "name": "ffca08e2168d1386eec8d1e9edb3cb77", "rental_uris": {"android": "https://dc.lft.to/lastmile_qr_scan", "ios": "https://dc.lft.to/lastmile_qr_scan"}, "fusion_lat": 0.0, "lat": 38.909806, "is_disabled": 0, "lon": -77.08822216666667, "is_reserved": 0}, {"bike_id": "f998adb6d62e003d89250c2036437d01", "fusion_lon": 0.0, "type": "electric_scooter", "name": "f998adb6d62e003d89250c2036437d01", "rental_uris": {"android": "https://dc.lft.to/lastmile_qr_scan", "ios": "https://dc.lft.to/lastmile_qr_scan"}, "fusion_lat": 0.0, "lat": 38.896203666666665, "is_disabled": 0, "lon": -76.99935666666667, "is_reserved": 0}, {"bike_id": "0c4112c8ff8a02b22c122a73d7b4d5e4", "fusion_lon": 0.0, "type": "electric_scooter", "name": "0c4112c8ff8a02b22c122a73d7b4d5e4", "rental_uris": {"android": "https://dc.lft.to/lastmile_qr_scan", "ios": "https://dc.lft.to/lastmile_qr_scan"}, "fusion_lat": 0.0, "lat": 38.91502416666667, "is_disabled": 0, "lon": -77.01209133333333, "is_reserved": 0}, {"bike_id": "712d369a302cc7a1c0dd5b57eaf63a25", "fusion_lon": 0.0, "type": "electric_scooter", "name": "712d369a302cc7a1c0dd5b57eaf63a25", "rental_uris": {"android": "https://dc.lft.to/lastmile_qr_scan", "ios": "https://dc.lft.to/lastmile_qr_scan"}, "fusion_lat": 0.0, "lat": 38.908581, "is_disabled": 0, "lon": -77.03256683333333, "is_reserved": 0}, {"bike_id": "98bd561b239dbfd19f814086fe1a8ced", "fusion_lon": 0.0, "type": "electric_scooter", "name": "98bd561b239dbfd19f814086fe1a8ced", "rental_uris": {"android": "https://dc.lft.to/lastmile_qr_scan", "ios": "https://dc.lft.to/lastmile_qr_scan"}, "fusion_lat": 0.0, "lat": 38.884904, "is_disabled": 0, "lon": -77.023367, "is_reserved": 0}, {"bike_id": "9d9ea4223fd0639b13761f224ec4481d", "fusion_lon": 0.0, "type": "electric_scooter", "name": "9d9ea4223fd0639b13761f224ec4481d", "rental_uris": {"android": "https://dc.lft.to/lastmile_qr_scan", "ios": "https://dc.lft.to/lastmile_qr_scan"}, "fusion_lat": 0.0, "lat": 38.867113333333336, "is_disabled": 0, "lon": -76.98731333333333, "is_reserved": 0}, {"bike_id": "262e95b8e69157102200c7e8ca023439", "fusion_lon": 0.0, "type": "electric_scooter", "name": "262e95b8e69157102200c7e8ca023439", "rental_uris": {"android": "https://dc.lft.to/lastmile_qr_scan", "ios": "https://dc.lft.to/lastmile_qr_scan"}, "fusion_lat": 0.0, "lat": 38.94637316666667, "is_disabled": 0, "lon": -77.01841066666667, "is_reserved": 0}, {"bike_id": "9d414cea4ba2182f1390f7767d6d712b", "fusion_lon": 0.0, "type": "electric_scooter", "name": "9d414cea4ba2182f1390f7767d6d712b", "rental_uris": {"android": "https://dc.lft.to/lastmile_qr_scan", "ios": "https://dc.lft.to/lastmile_qr_scan"}, "fusion_lat": 0.0, "lat": 38.92381833333334, "is_disabled": 0, "lon": -77.04094933333333, "is_reserved": 0}, {"bike_id": "e3ce07a91982821cf2225e0130458dcd", "fusion_lon": 0.0, "type": "electric_scooter", "name": "e3ce07a91982821cf2225e0130458dcd", "rental_uris": {"android": "https://dc.lft.to/lastmile_qr_scan", "ios": "https://dc.lft.to/lastmile_qr_scan"}, "fusion_lat": 0.0, "lat": 38.902666333333336, "is_disabled": 0, "lon": -77.03259616666666, "is_reserved": 0}, {"bike_id": "67551608aead229c844d8b2590f35e8f", "fusion_lon": 0.0, "type": "electric_scooter", "name": "67551608aead229c844d8b2590f35e8f", "rental_uris": {"android": "https://dc.lft.to/lastmile_qr_scan", "ios": "https://dc.lft.to/lastmile_qr_scan"}, "fusion_lat": 0.0, "lat": 38.877818, "is_disabled": 0, "lon": -77.014345, "is_reserved": 0}, {"bike_id": "2702d52d361cf8eeb86c23397f2a7f34", "fusion_lon": 0.0, "type": "electric_scooter", "name": "2702d52d361cf8eeb86c23397f2a7f34", "rental_uris": {"android": "https://dc.lft.to/lastmile_qr_scan", "ios": "https://dc.lft.to/lastmile_qr_scan"}, "fusion_lat": 0.0, "lat": 38.9020725, "is_disabled": 0, "lon": -77.0237565, "is_reserved": 0}, {"bike_id": "9dd1f33eb6332d91b4ba51adac10e390", "fusion_lon": 0.0, "type": "electric_scooter", "name": "9dd1f33eb6332d91b4ba51adac10e390", "rental_uris": {"android": "https://dc.lft.to/lastmile_qr_scan", "ios": "https://dc.lft.to/lastmile_qr_scan"}, "fusion_lat": 0.0, "lat": 38.88308983333334, "is_disabled": 0, "lon": -76.948552, "is_reserved": 0}, {"bike_id": "c8ddabe5178d6fb2f4b95c066ad08632", "fusion_lon": 0.0, "type": "electric_scooter", "name": "c8ddabe5178d6fb2f4b95c066ad08632", "rental_uris": {"android": "https://dc.lft.to/lastmile_qr_scan", "ios": "https://dc.lft.to/lastmile_qr_scan"}, "fusion_lat": 0.0, "lat": 38.845066333333335, "is_disabled": 0, "lon": -76.9875615, "is_reserved": 0}, {"bike_id": "ebe2d2693249ef4ae78a7754c29c615d", "fusion_lon": 0.0, "type": "electric_scooter", "name": "ebe2d2693249ef4ae78a7754c29c615d", "rental_uris": {"android": "https://dc.lft.to/lastmile_qr_scan", "ios": "https://dc.lft.to/lastmile_qr_scan"}, "fusion_lat": 0.0, "lat": 38.929142166666665, "is_disabled": 0, "lon": -77.03623916666666, "is_reserved": 0}, {"bike_id": "e39685691867d81187399f00f2b83531", "fusion_lon": 0.0, "type": "electric_scooter", "name": "e39685691867d81187399f00f2b83531", "rental_uris": {"android": "https://dc.lft.to/lastmile_qr_scan", "ios": "https://dc.lft.to/lastmile_qr_scan"}, "fusion_lat": 0.0, "lat": 38.91180883333333, "is_disabled": 0, "lon": -77.0365995, "is_reserved": 0}, {"bike_id": "0be740e435268dd570c95c8935ef691b", "fusion_lon": 0.0, "type": "electric_bike", "name": "0be740e435268dd570c95c8935ef691b", "rental_uris": {"android": "https://dc.lft.to/lastmile_qr_scan", "ios": "https://dc.lft.to/lastmile_qr_scan"}, "fusion_lat": 0.0, "lat": 39.053494666666666, "is_disabled": 0, "lon": -77.135957, "is_reserved": 0}, {"bike_id": "b6117706f91522d37e33a22145b9be9d", "fusion_lon": 0.0, "type": "electric_scooter", "name": "b6117706f91522d37e33a22145b9be9d", "rental_uris": {"android": "https://dc.lft.to/lastmile_qr_scan", "ios": "https://dc.lft.to/lastmile_qr_scan"}, "fusion_lat": 0.0, "lat": 38.89221783333333, "is_disabled": 0, "lon": -77.026273, "is_reserved": 0}, {"bike_id": "670e4f10790fe1e19c9b0296ae92c02d", "fusion_lon": 0.0, "type": "electric_bike", "name": "670e4f10790fe1e19c9b0296ae92c02d", "rental_uris": {"android": "https://dc.lft.to/lastmile_qr_scan", "ios": "https://dc.lft.to/lastmile_qr_scan"}, "fusion_lat": 0.0, "lat": 38.84335033333333, "is_disabled": 0, "lon": -77.064259, "is_reserved": 0}, {"bike_id": "a34515ac3c6c731f466287238ba794eb", "fusion_lon": 0.0, "type": "electric_scooter", "name": "a34515ac3c6c731f466287238ba794eb", "rental_uris": {"android": "https://dc.lft.to/lastmile_qr_scan", "ios": "https://dc.lft.to/lastmile_qr_scan"}, "fusion_lat": 0.0, "lat": 38.928706166666665, "is_disabled": 0, "lon": -77.03476816666667, "is_reserved": 0}, {"bike_id": "74db6f5e397b6562cc1528596dce439a", "fusion_lon": 0.0, "type": "electric_scooter", "name": "74db6f5e397b6562cc1528596dce439a", "rental_uris": {"android": "https://dc.lft.to/lastmile_qr_scan", "ios": "https://dc.lft.to/lastmile_qr_scan"}, "fusion_lat": 0.0, "lat": 38.91489333333333, "is_disabled": 0, "lon": -77.04651566666666, "is_reserved": 0}, {"bike_id": "bb6f240630689c96a5ce2e1c02b96304", "fusion_lon": 0.0, "type": "electric_scooter", "name": "bb6f240630689c96a5ce2e1c02b96304", "rental_uris": {"android": "https://dc.lft.to/lastmile_qr_scan", "ios": "https://dc.lft.to/lastmile_qr_scan"}, "fusion_lat": 0.0, "lat": 38.91880716666667, "is_disabled": 0, "lon": -77.03502916666666, "is_reserved": 0}, {"bike_id": "0be1ebae68b6df01fa236e11cc67801d", "fusion_lon": 0.0, "type": "electric_scooter", "name": "0be1ebae68b6df01fa236e11cc67801d", "rental_uris": {"android": "https://dc.lft.to/lastmile_qr_scan", "ios": "https://dc.lft.to/lastmile_qr_scan"}, "fusion_lat": 0.0, "lat": 38.9391355, "is_disabled": 0, "lon": -77.0603875, "is_reserved": 0}, {"bike_id": "2ba654f6f479e161ca5cb3b1badc4ac6", "fusion_lon": 0.0, "type": "electric_scooter", "name": "2ba654f6f479e161ca5cb3b1badc4ac6", "rental_uris": {"android": "https://dc.lft.to/lastmile_qr_scan", "ios": "https://dc.lft.to/lastmile_qr_scan"}, "fusion_lat": 0.0, "lat": 38.896978, "is_disabled": 0, "lon": -77.02177983333333, "is_reserved": 0}, {"bike_id": "0132e9a222f5b2d97900fbe7e400250d", "fusion_lon": 0.0, "type": "electric_scooter", "name": "0132e9a222f5b2d97900fbe7e400250d", "rental_uris": {"android": "https://dc.lft.to/lastmile_qr_scan", "ios": "https://dc.lft.to/lastmile_qr_scan"}, "fusion_lat": 0.0, "lat": 38.942849, "is_disabled": 0, "lon": -77.02932116666666, "is_reserved": 0}, {"bike_id": "a7b98a962cc6cede80a3f46981820e40", "fusion_lon": 0.0, "type": "electric_bike", "name": "a7b98a962cc6cede80a3f46981820e40", "rental_uris": {"android": "https://dc.lft.to/lastmile_qr_scan", "ios": "https://dc.lft.to/lastmile_qr_scan"}, "fusion_lat": 0.0, "lat": 38.8637915, "is_disabled": 0, "lon": -77.128997, "is_reserved": 0}, {"bike_id": "c1cf8069c3fae93b6475b20820422cb2", "fusion_lon": 0.0, "type": "electric_scooter", "name": "c1cf8069c3fae93b6475b20820422cb2", "rental_uris": {"android": "https://dc.lft.to/lastmile_qr_scan", "ios": "https://dc.lft.to/lastmile_qr_scan"}, "fusion_lat": 0.0, "lat": 38.875365, "is_disabled": 0, "lon": -77.00551916666667, "is_reserved": 0}, {"bike_id": "8de58f2b05dc4881d47921b6809ce550", "fusion_lon": 0.0, "type": "electric_scooter", "name": "8de58f2b05dc4881d47921b6809ce550", "rental_uris": {"android": "https://dc.lft.to/lastmile_qr_scan", "ios": "https://dc.lft.to/lastmile_qr_scan"}, "fusion_lat": 0.0, "lat": 38.931111666666666, "is_disabled": 0, "lon": -77.02401083333334, "is_reserved": 0}, {"bike_id": "c40799abae863c34da33e680d84d9cf3", "fusion_lon": 0.0, "type": "electric_scooter", "name": "c40799abae863c34da33e680d84d9cf3", "rental_uris": {"android": "https://dc.lft.to/lastmile_qr_scan", "ios": "https://dc.lft.to/lastmile_qr_scan"}, "fusion_lat": 0.0, "lat": 38.900544, "is_disabled": 0, "lon": -77.04485716666667, "is_reserved": 0}, {"bike_id": "5d9016093b3a30024649c5a9505018ff", "fusion_lon": 0.0, "type": "electric_scooter", "name": "5d9016093b3a30024649c5a9505018ff", "rental_uris": {"android": "https://dc.lft.to/lastmile_qr_scan", "ios": "https://dc.lft.to/lastmile_qr_scan"}, "fusion_lat": 0.0, "lat": 38.886638166666664, "is_disabled": 0, "lon": -77.03386216666667, "is_reserved": 0}, {"bike_id": "5116d1942201defc7ab19c047d3f05a1", "fusion_lon": 0.0, "type": "electric_scooter", "name": "5116d1942201defc7ab19c047d3f05a1", "rental_uris": {"android": "https://dc.lft.to/lastmile_qr_scan", "ios": "https://dc.lft.to/lastmile_qr_scan"}, "fusion_lat": 0.0, "lat": 38.9110865, "is_disabled": 0, "lon": -77.042293, "is_reserved": 0}, {"bike_id": "4a94f552a81dfbc9771303b30411c591", "fusion_lon": 0.0, "type": "electric_scooter", "name": "4a94f552a81dfbc9771303b30411c591", "rental_uris": {"android": "https://dc.lft.to/lastmile_qr_scan", "ios": "https://dc.lft.to/lastmile_qr_scan"}, "fusion_lat": 0.0, "lat": 38.8637195, "is_disabled": 0, "lon": -76.974559, "is_reserved": 0}, {"bike_id": "35d6d8b962cfbfd893e60451706258a2", "fusion_lon": 0.0, "type": "electric_scooter", "name": "35d6d8b962cfbfd893e60451706258a2", "rental_uris": {"android": "https://dc.lft.to/lastmile_qr_scan", "ios": "https://dc.lft.to/lastmile_qr_scan"}, "fusion_lat": 0.0, "lat": 38.880293333333334, "is_disabled": 0, "lon": -76.98827633333333, "is_reserved": 0}, {"bike_id": "48f26b4146f8a4bb5ab3eae977720763", "fusion_lon": 0.0, "type": "electric_scooter", "name": "48f26b4146f8a4bb5ab3eae977720763", "rental_uris": {"android": "https://dc.lft.to/lastmile_qr_scan", "ios": "https://dc.lft.to/lastmile_qr_scan"}, "fusion_lat": 0.0, "lat": 38.924987, "is_disabled": 0, "lon": -77.043352, "is_reserved": 0}, {"bike_id": "ff2187893f28d144c47c34334dfb024e", "fusion_lon": 0.0, "type": "electric_scooter", "name": "ff2187893f28d144c47c34334dfb024e", "rental_uris": {"android": "https://dc.lft.to/lastmile_qr_scan", "ios": "https://dc.lft.to/lastmile_qr_scan"}, "fusion_lat": 0.0, "lat": 38.9026505, "is_disabled": 0, "lon": -77.03447133333333, "is_reserved": 0}, {"bike_id": "a4b8e8fae203d1e928a9e4cc69f787be", "fusion_lon": 0.0, "type": "electric_scooter", "name": "a4b8e8fae203d1e928a9e4cc69f787be", "rental_uris": {"android": "https://dc.lft.to/lastmile_qr_scan", "ios": "https://dc.lft.to/lastmile_qr_scan"}, "fusion_lat": 0.0, "lat": 38.899656666666665, "is_disabled": 0, "lon": -77.03351783333333, "is_reserved": 0}, {"bike_id": "c7643f75ef4a8e1aeb85f85ba4f0c82a", "fusion_lon": 0.0, "type": "electric_scooter", "name": "c7643f75ef4a8e1aeb85f85ba4f0c82a", "rental_uris": {"android": "https://dc.lft.to/lastmile_qr_scan", "ios": "https://dc.lft.to/lastmile_qr_scan"}, "fusion_lat": 0.0, "lat": 38.916024, "is_disabled": 0, "lon": -77.03660683333334, "is_reserved": 0}, {"bike_id": "a4f790f224c2e25abda683f09206f8d3", "fusion_lon": 0.0, "type": "electric_scooter", "name": "a4f790f224c2e25abda683f09206f8d3", "rental_uris": {"android": "https://dc.lft.to/lastmile_qr_scan", "ios": "https://dc.lft.to/lastmile_qr_scan"}, "fusion_lat": 0.0, "lat": 38.9067525, "is_disabled": 0, "lon": -77.02716716666667, "is_reserved": 0}, {"bike_id": "9a3ef566cc31eef1fb2a9ed54bdd5f38", "fusion_lon": 0.0, "type": "electric_scooter", "name": "9a3ef566cc31eef1fb2a9ed54bdd5f38", "rental_uris": {"android": "https://dc.lft.to/lastmile_qr_scan", "ios": "https://dc.lft.to/lastmile_qr_scan"}, "fusion_lat": 0.0, "lat": 38.905195666666664, "is_disabled": 0, "lon": -77.04336166666667, "is_reserved": 0}, {"bike_id": "0b17383c090becf3950994042643c0ee", "fusion_lon": 0.0, "type": "electric_scooter", "name": "0b17383c090becf3950994042643c0ee", "rental_uris": {"android": "https://dc.lft.to/lastmile_qr_scan", "ios": "https://dc.lft.to/lastmile_qr_scan"}, "fusion_lat": 0.0, "lat": 38.901754833333335, "is_disabled": 0, "lon": -76.98081916666666, "is_reserved": 0}, {"bike_id": "764cfbdcaa443e44ebc2652c7e1b1ed6", "fusion_lon": 0.0, "type": "electric_scooter", "name": "764cfbdcaa443e44ebc2652c7e1b1ed6", "rental_uris": {"android": "https://dc.lft.to/lastmile_qr_scan", "ios": "https://dc.lft.to/lastmile_qr_scan"}, "fusion_lat": 0.0, "lat": 38.88105916666667, "is_disabled": 0, "lon": -77.02640016666666, "is_reserved": 0}, {"bike_id": "33e0c9ff5a09d28f4381a432fa000785", "fusion_lon": 0.0, "type": "electric_scooter", "name": "33e0c9ff5a09d28f4381a432fa000785", "rental_uris": {"android": "https://dc.lft.to/lastmile_qr_scan", "ios": "https://dc.lft.to/lastmile_qr_scan"}, "fusion_lat": 0.0, "lat": 38.900903166666666, "is_disabled": 0, "lon": -77.04776966666667, "is_reserved": 0}, {"bike_id": "a6936057ea34cd7bdde43649c7b8c06a", "fusion_lon": 0.0, "type": "electric_scooter", "name": "a6936057ea34cd7bdde43649c7b8c06a", "rental_uris": {"android": "https://dc.lft.to/lastmile_qr_scan", "ios": "https://dc.lft.to/lastmile_qr_scan"}, "fusion_lat": 0.0, "lat": 38.842955333333336, "is_disabled": 0, "lon": -76.99948566666667, "is_reserved": 0}, {"bike_id": "a1c87ffc02edc9cc07aec708f3f1366a", "fusion_lon": 0.0, "type": "electric_scooter", "name": "a1c87ffc02edc9cc07aec708f3f1366a", "rental_uris": {"android": "https://dc.lft.to/lastmile_qr_scan", "ios": "https://dc.lft.to/lastmile_qr_scan"}, "fusion_lat": 0.0, "lat": 38.920786666666665, "is_disabled": 0, "lon": -77.03808616666667, "is_reserved": 0}, {"bike_id": "9711dcdd09e5a76be540620daaf65865", "fusion_lon": 0.0, "type": "electric_scooter", "name": "9711dcdd09e5a76be540620daaf65865", "rental_uris": {"android": "https://dc.lft.to/lastmile_qr_scan", "ios": "https://dc.lft.to/lastmile_qr_scan"}, "fusion_lat": 0.0, "lat": 38.930804, "is_disabled": 0, "lon": -77.03278866666666, "is_reserved": 0}, {"bike_id": "21f7d0ef4ee70f4511248b87f83140dc", "fusion_lon": 0.0, "type": "electric_scooter", "name": "21f7d0ef4ee70f4511248b87f83140dc", "rental_uris": {"android": "https://dc.lft.to/lastmile_qr_scan", "ios": "https://dc.lft.to/lastmile_qr_scan"}, "fusion_lat": 0.0, "lat": 38.898558333333334, "is_disabled": 0, "lon": -77.033342, "is_reserved": 0}, {"bike_id": "439868679d714aa2332cfdf2d80bfb4b", "fusion_lon": 0.0, "type": "electric_scooter", "name": "439868679d714aa2332cfdf2d80bfb4b", "rental_uris": {"android": "https://dc.lft.to/lastmile_qr_scan", "ios": "https://dc.lft.to/lastmile_qr_scan"}, "fusion_lat": 0.0, "lat": 38.87201133333333, "is_disabled": 0, "lon": -77.0124785, "is_reserved": 0}, {"bike_id": "05b1b24ac4af808f1b83dc4cb7784f86", "fusion_lon": 0.0, "type": "electric_scooter", "name": "05b1b24ac4af808f1b83dc4cb7784f86", "rental_uris": {"android": "https://dc.lft.to/lastmile_qr_scan", "ios": "https://dc.lft.to/lastmile_qr_scan"}, "fusion_lat": 0.0, "lat": 38.90780816666667, "is_disabled": 0, "lon": -77.04495333333334, "is_reserved": 0}, {"bike_id": "5f7b50bc30425807faebc212010e561e", "fusion_lon": 0.0, "type": "electric_scooter", "name": "5f7b50bc30425807faebc212010e561e", "rental_uris": {"android": "https://dc.lft.to/lastmile_qr_scan", "ios": "https://dc.lft.to/lastmile_qr_scan"}, "fusion_lat": 0.0, "lat": 38.91185, "is_disabled": 0, "lon": -77.005558, "is_reserved": 0}, {"bike_id": "4aabe96772f1a0d1e27e1f6a0b413872", "fusion_lon": 0.0, "type": "electric_scooter", "name": "4aabe96772f1a0d1e27e1f6a0b413872", "rental_uris": {"android": "https://dc.lft.to/lastmile_qr_scan", "ios": "https://dc.lft.to/lastmile_qr_scan"}, "fusion_lat": 0.0, "lat": 38.908522833333336, "is_disabled": 0, "lon": -77.02694966666667, "is_reserved": 0}, {"bike_id": "00a974cab4649915ca17c042c0aee5c9", "fusion_lon": 0.0, "type": "electric_scooter", "name": "00a974cab4649915ca17c042c0aee5c9", "rental_uris": {"android": "https://dc.lft.to/lastmile_qr_scan", "ios": "https://dc.lft.to/lastmile_qr_scan"}, "fusion_lat": 0.0, "lat": 38.9492985, "is_disabled": 0, "lon": -77.01932283333333, "is_reserved": 0}, {"bike_id": "2cf1490473cf67c60aa6c375bb6c4dbe", "fusion_lon": 0.0, "type": "electric_bike", "name": "2cf1490473cf67c60aa6c375bb6c4dbe", "rental_uris": {"android": "https://dc.lft.to/lastmile_qr_scan", "ios": "https://dc.lft.to/lastmile_qr_scan"}, "fusion_lat": 0.0, "lat": 38.9114235, "is_disabled": 0, "lon": -77.06567, "is_reserved": 0}, {"bike_id": "be0671ee3a5175c1d7458ebd1d0b041e", "fusion_lon": 0.0, "type": "electric_scooter", "name": "be0671ee3a5175c1d7458ebd1d0b041e", "rental_uris": {"android": "https://dc.lft.to/lastmile_qr_scan", "ios": "https://dc.lft.to/lastmile_qr_scan"}, "fusion_lat": 0.0, "lat": 38.9357025, "is_disabled": 0, "lon": -77.0213375, "is_reserved": 0}, {"bike_id": "c629cd27c6d88c61be700a8aacac0992", "fusion_lon": 0.0, "type": "electric_scooter", "name": "c629cd27c6d88c61be700a8aacac0992", "rental_uris": {"android": "https://dc.lft.to/lastmile_qr_scan", "ios": "https://dc.lft.to/lastmile_qr_scan"}, "fusion_lat": 0.0, "lat": 38.92583483333333, "is_disabled": 0, "lon": -77.0437585, "is_reserved": 0}, {"bike_id": "12b614cd12bd2ec19561a4c4b8563b2a", "fusion_lon": 0.0, "type": "electric_scooter", "name": "12b614cd12bd2ec19561a4c4b8563b2a", "rental_uris": {"android": "https://dc.lft.to/lastmile_qr_scan", "ios": "https://dc.lft.to/lastmile_qr_scan"}, "fusion_lat": 0.0, "lat": 38.908698333333334, "is_disabled": 0, "lon": -77.012432, "is_reserved": 0}, {"bike_id": "f408113a258819d7ad38a5a5be565e2c", "fusion_lon": 0.0, "type": "electric_scooter", "name": "f408113a258819d7ad38a5a5be565e2c", "rental_uris": {"android": "https://dc.lft.to/lastmile_qr_scan", "ios": "https://dc.lft.to/lastmile_qr_scan"}, "fusion_lat": 0.0, "lat": 38.922859833333334, "is_disabled": 0, "lon": -76.9942305, "is_reserved": 0}, {"bike_id": "c169ee69aea41c7127ffe1f64e395307", "fusion_lon": 0.0, "type": "electric_scooter", "name": "c169ee69aea41c7127ffe1f64e395307", "rental_uris": {"android": "https://dc.lft.to/lastmile_qr_scan", "ios": "https://dc.lft.to/lastmile_qr_scan"}, "fusion_lat": 0.0, "lat": 38.900220833333336, "is_disabled": 0, "lon": -76.988485, "is_reserved": 0}, {"bike_id": "6869dfea634532309983c49cbdfec2a5", "fusion_lon": 0.0, "type": "electric_scooter", "name": "6869dfea634532309983c49cbdfec2a5", "rental_uris": {"android": "https://dc.lft.to/lastmile_qr_scan", "ios": "https://dc.lft.to/lastmile_qr_scan"}, "fusion_lat": 0.0, "lat": 38.874804, "is_disabled": 0, "lon": -76.96519783333333, "is_reserved": 0}, {"bike_id": "e0991f9ea40675f511f98accbe23fe54", "fusion_lon": 0.0, "type": "electric_scooter", "name": "e0991f9ea40675f511f98accbe23fe54", "rental_uris": {"android": "https://dc.lft.to/lastmile_qr_scan", "ios": "https://dc.lft.to/lastmile_qr_scan"}, "fusion_lat": 0.0, "lat": 38.933416666666666, "is_disabled": 0, "lon": -77.032668, "is_reserved": 0}, {"bike_id": "b197726a7b2652e6883a41f8b4e440f5", "fusion_lon": 0.0, "type": "electric_scooter", "name": "b197726a7b2652e6883a41f8b4e440f5", "rental_uris": {"android": "https://dc.lft.to/lastmile_qr_scan", "ios": "https://dc.lft.to/lastmile_qr_scan"}, "fusion_lat": 0.0, "lat": 38.95003216666667, "is_disabled": 0, "lon": -77.027097, "is_reserved": 0}, {"bike_id": "bd65bbf199d4d1127d503ead5995d127", "fusion_lon": 0.0, "type": "electric_scooter", "name": "bd65bbf199d4d1127d503ead5995d127", "rental_uris": {"android": "https://dc.lft.to/lastmile_qr_scan", "ios": "https://dc.lft.to/lastmile_qr_scan"}, "fusion_lat": 0.0, "lat": 38.91214033333333, "is_disabled": 0, "lon": -77.0384735, "is_reserved": 0}, {"bike_id": "c816bfca3bc499e94c9d6a4c5608544a", "fusion_lon": 0.0, "type": "electric_scooter", "name": "c816bfca3bc499e94c9d6a4c5608544a", "rental_uris": {"android": "https://dc.lft.to/lastmile_qr_scan", "ios": "https://dc.lft.to/lastmile_qr_scan"}, "fusion_lat": 0.0, "lat": 38.9171565, "is_disabled": 0, "lon": -77.03865616666667, "is_reserved": 0}, {"bike_id": "473a26faf7d4274d173519e574961f08", "fusion_lon": 0.0, "type": "electric_scooter", "name": "473a26faf7d4274d173519e574961f08", "rental_uris": {"android": "https://dc.lft.to/lastmile_qr_scan", "ios": "https://dc.lft.to/lastmile_qr_scan"}, "fusion_lat": 0.0, "lat": 38.914375166666666, "is_disabled": 0, "lon": -77.0180615, "is_reserved": 0}, {"bike_id": "0ad9fd50c95233f30a97d87acfb792c8", "fusion_lon": 0.0, "type": "electric_scooter", "name": "0ad9fd50c95233f30a97d87acfb792c8", "rental_uris": {"android": "https://dc.lft.to/lastmile_qr_scan", "ios": "https://dc.lft.to/lastmile_qr_scan"}, "fusion_lat": 0.0, "lat": 38.919468, "is_disabled": 0, "lon": -77.0135055, "is_reserved": 0}, {"bike_id": "b3d00e4c134df8576487fbd14667c14d", "fusion_lon": 0.0, "type": "electric_scooter", "name": "b3d00e4c134df8576487fbd14667c14d", "rental_uris": {"android": "https://dc.lft.to/lastmile_qr_scan", "ios": "https://dc.lft.to/lastmile_qr_scan"}, "fusion_lat": 0.0, "lat": 38.892196, "is_disabled": 0, "lon": -77.02718583333333, "is_reserved": 0}, {"bike_id": "2f81370d021e72c61a1af13ffcd4f896", "fusion_lon": 0.0, "type": "electric_scooter", "name": "2f81370d021e72c61a1af13ffcd4f896", "rental_uris": {"android": "https://dc.lft.to/lastmile_qr_scan", "ios": "https://dc.lft.to/lastmile_qr_scan"}, "fusion_lat": 0.0, "lat": 38.89237516666667, "is_disabled": 0, "lon": -77.04996583333333, "is_reserved": 0}, {"bike_id": "f9605c966003e9abaff6cb62e4c4b072", "fusion_lon": 0.0, "type": "electric_scooter", "name": "f9605c966003e9abaff6cb62e4c4b072", "rental_uris": {"android": "https://dc.lft.to/lastmile_qr_scan", "ios": "https://dc.lft.to/lastmile_qr_scan"}, "fusion_lat": 0.0, "lat": 38.90255633333334, "is_disabled": 0, "lon": -77.02587066666666, "is_reserved": 0}, {"bike_id": "ba35a2e02fc4051d2f8ff61094dcba51", "fusion_lon": 0.0, "type": "electric_scooter", "name": "ba35a2e02fc4051d2f8ff61094dcba51", "rental_uris": {"android": "https://dc.lft.to/lastmile_qr_scan", "ios": "https://dc.lft.to/lastmile_qr_scan"}, "fusion_lat": 0.0, "lat": 38.935546333333335, "is_disabled": 0, "lon": -77.08219516666666, "is_reserved": 0}, {"bike_id": "63d0e56cc507db54c17aed0f021d8a22", "fusion_lon": 0.0, "type": "electric_scooter", "name": "63d0e56cc507db54c17aed0f021d8a22", "rental_uris": {"android": "https://dc.lft.to/lastmile_qr_scan", "ios": "https://dc.lft.to/lastmile_qr_scan"}, "fusion_lat": 0.0, "lat": 38.92479133333333, "is_disabled": 0, "lon": -77.02831083333334, "is_reserved": 0}, {"bike_id": "9fc486062aba2d1865514a4435d7fc17", "fusion_lon": 0.0, "type": "electric_scooter", "name": "9fc486062aba2d1865514a4435d7fc17", "rental_uris": {"android": "https://dc.lft.to/lastmile_qr_scan", "ios": "https://dc.lft.to/lastmile_qr_scan"}, "fusion_lat": 0.0, "lat": 38.9446895, "is_disabled": 0, "lon": -77.0280525, "is_reserved": 0}, {"bike_id": "f04e39b4d2d4a31e9873f20cbd92839f", "fusion_lon": 0.0, "type": "electric_scooter", "name": "f04e39b4d2d4a31e9873f20cbd92839f", "rental_uris": {"android": "https://dc.lft.to/lastmile_qr_scan", "ios": "https://dc.lft.to/lastmile_qr_scan"}, "fusion_lat": 0.0, "lat": 38.918422166666666, "is_disabled": 0, "lon": -77.03921583333333, "is_reserved": 0}, {"bike_id": "13082f39717c34e7215afa64eeb4b784", "fusion_lon": 0.0, "type": "electric_scooter", "name": "13082f39717c34e7215afa64eeb4b784", "rental_uris": {"android": "https://dc.lft.to/lastmile_qr_scan", "ios": "https://dc.lft.to/lastmile_qr_scan"}, "fusion_lat": 0.0, "lat": 38.8943795, "is_disabled": 0, "lon": -77.00114816666667, "is_reserved": 0}, {"bike_id": "45fa9400c8d06af2cca512144c7faf43", "fusion_lon": 0.0, "type": "electric_scooter", "name": "45fa9400c8d06af2cca512144c7faf43", "rental_uris": {"android": "https://dc.lft.to/lastmile_qr_scan", "ios": "https://dc.lft.to/lastmile_qr_scan"}, "fusion_lat": 0.0, "lat": 38.91042866666667, "is_disabled": 0, "lon": -77.03272833333334, "is_reserved": 0}, {"bike_id": "e8f54f91ef1fce349615519e9ea5c4a9", "fusion_lon": 0.0, "type": "electric_scooter", "name": "e8f54f91ef1fce349615519e9ea5c4a9", "rental_uris": {"android": "https://dc.lft.to/lastmile_qr_scan", "ios": "https://dc.lft.to/lastmile_qr_scan"}, "fusion_lat": 0.0, "lat": 38.939939, "is_disabled": 0, "lon": -77.03280783333334, "is_reserved": 0}, {"bike_id": "d19dcdca44db030a9b4be4a837cb4723", "fusion_lon": 0.0, "type": "electric_scooter", "name": "d19dcdca44db030a9b4be4a837cb4723", "rental_uris": {"android": "https://dc.lft.to/lastmile_qr_scan", "ios": "https://dc.lft.to/lastmile_qr_scan"}, "fusion_lat": 0.0, "lat": 38.96510083333333, "is_disabled": 0, "lon": -77.02844983333334, "is_reserved": 0}, {"bike_id": "e0bd5423e203731a0c9489c5cf0922c1", "fusion_lon": 0.0, "type": "electric_scooter", "name": "e0bd5423e203731a0c9489c5cf0922c1", "rental_uris": {"android": "https://dc.lft.to/lastmile_qr_scan", "ios": "https://dc.lft.to/lastmile_qr_scan"}, "fusion_lat": 0.0, "lat": 38.905763666666665, "is_disabled": 0, "lon": -76.97631733333333, "is_reserved": 0}, {"bike_id": "c7358c7672624c8507593b6dbeeed471", "fusion_lon": 0.0, "type": "electric_scooter", "name": "c7358c7672624c8507593b6dbeeed471", "rental_uris": {"android": "https://dc.lft.to/lastmile_qr_scan", "ios": "https://dc.lft.to/lastmile_qr_scan"}, "fusion_lat": 0.0, "lat": 38.895123, "is_disabled": 0, "lon": -77.01102183333333, "is_reserved": 0}, {"bike_id": "8c456780a098deca35366b88a3ae371c", "fusion_lon": 0.0, "type": "electric_scooter", "name": "8c456780a098deca35366b88a3ae371c", "rental_uris": {"android": "https://dc.lft.to/lastmile_qr_scan", "ios": "https://dc.lft.to/lastmile_qr_scan"}, "fusion_lat": 0.0, "lat": 38.918775, "is_disabled": 0, "lon": -77.04183116666667, "is_reserved": 0}, {"bike_id": "7a53fa0e2e8e72d0e23b104169d2a49b", "fusion_lon": 0.0, "type": "electric_scooter", "name": "7a53fa0e2e8e72d0e23b104169d2a49b", "rental_uris": {"android": "https://dc.lft.to/lastmile_qr_scan", "ios": "https://dc.lft.to/lastmile_qr_scan"}, "fusion_lat": 0.0, "lat": 38.882121, "is_disabled": 0, "lon": -76.98688466666667, "is_reserved": 0}, {"bike_id": "85e906120ff3dba25b3e700d0c4034fd", "fusion_lon": 0.0, "type": "electric_scooter", "name": "85e906120ff3dba25b3e700d0c4034fd", "rental_uris": {"android": "https://dc.lft.to/lastmile_qr_scan", "ios": "https://dc.lft.to/lastmile_qr_scan"}, "fusion_lat": 0.0, "lat": 38.918476, "is_disabled": 0, "lon": -76.9655585, "is_reserved": 0}, {"bike_id": "7abf522b683c455a85e7d47c285a264c", "fusion_lon": 0.0, "type": "electric_scooter", "name": "7abf522b683c455a85e7d47c285a264c", "rental_uris": {"android": "https://dc.lft.to/lastmile_qr_scan", "ios": "https://dc.lft.to/lastmile_qr_scan"}, "fusion_lat": 0.0, "lat": 38.91259866666667, "is_disabled": 0, "lon": -77.04738483333334, "is_reserved": 0}, {"bike_id": "205a98911b89a67f84333d58cbc39330", "fusion_lon": 0.0, "type": "electric_scooter", "name": "205a98911b89a67f84333d58cbc39330", "rental_uris": {"android": "https://dc.lft.to/lastmile_qr_scan", "ios": "https://dc.lft.to/lastmile_qr_scan"}, "fusion_lat": 0.0, "lat": 38.902114833333336, "is_disabled": 0, "lon": -77.0237595, "is_reserved": 0}, {"bike_id": "41193e3e0f56afd1e4a5625612c6b1b0", "fusion_lon": 0.0, "type": "electric_scooter", "name": "41193e3e0f56afd1e4a5625612c6b1b0", "rental_uris": {"android": "https://dc.lft.to/lastmile_qr_scan", "ios": "https://dc.lft.to/lastmile_qr_scan"}, "fusion_lat": 0.0, "lat": 38.9081895, "is_disabled": 0, "lon": -77.03945733333333, "is_reserved": 0}, {"bike_id": "4babbfbf3c957ce4d417b7a066036e46", "fusion_lon": 0.0, "type": "electric_scooter", "name": "4babbfbf3c957ce4d417b7a066036e46", "rental_uris": {"android": "https://dc.lft.to/lastmile_qr_scan", "ios": "https://dc.lft.to/lastmile_qr_scan"}, "fusion_lat": 0.0, "lat": 38.89869733333333, "is_disabled": 0, "lon": -76.94666883333333, "is_reserved": 0}, {"bike_id": "641f5c6e5f9f0f671c74ff35aaf60aac", "fusion_lon": 0.0, "type": "electric_scooter", "name": "641f5c6e5f9f0f671c74ff35aaf60aac", "rental_uris": {"android": "https://dc.lft.to/lastmile_qr_scan", "ios": "https://dc.lft.to/lastmile_qr_scan"}, "fusion_lat": 0.0, "lat": 38.9308275, "is_disabled": 0, "lon": -77.02790633333333, "is_reserved": 0}, {"bike_id": "dc0bd35d0900c8e3e63da97fece8bd2b", "fusion_lon": 0.0, "type": "electric_scooter", "name": "dc0bd35d0900c8e3e63da97fece8bd2b", "rental_uris": {"android": "https://dc.lft.to/lastmile_qr_scan", "ios": "https://dc.lft.to/lastmile_qr_scan"}, "fusion_lat": 0.0, "lat": 38.92133583333333, "is_disabled": 0, "lon": -77.04691583333333, "is_reserved": 0}, {"bike_id": "44794aed9a89b01f5592813739ef0636", "fusion_lon": 0.0, "type": "electric_scooter", "name": "44794aed9a89b01f5592813739ef0636", "rental_uris": {"android": "https://dc.lft.to/lastmile_qr_scan", "ios": "https://dc.lft.to/lastmile_qr_scan"}, "fusion_lat": 0.0, "lat": 38.91441016666667, "is_disabled": 0, "lon": -77.00200483333333, "is_reserved": 0}, {"bike_id": "bb5842447cba207c425a07dfb3dd0f3c", "fusion_lon": 0.0, "type": "electric_scooter", "name": "bb5842447cba207c425a07dfb3dd0f3c", "rental_uris": {"android": "https://dc.lft.to/lastmile_qr_scan", "ios": "https://dc.lft.to/lastmile_qr_scan"}, "fusion_lat": 0.0, "lat": 38.908862166666665, "is_disabled": 0, "lon": -77.03469066666666, "is_reserved": 0}, {"bike_id": "7e02c2299e697960af83b96dcef97cd4", "fusion_lon": 0.0, "type": "electric_scooter", "name": "7e02c2299e697960af83b96dcef97cd4", "rental_uris": {"android": "https://dc.lft.to/lastmile_qr_scan", "ios": "https://dc.lft.to/lastmile_qr_scan"}, "fusion_lat": 0.0, "lat": 38.943263, "is_disabled": 0, "lon": -77.07366233333333, "is_reserved": 0}, {"bike_id": "196dd0b6f44da3384ce376b908506a58", "fusion_lon": 0.0, "type": "electric_scooter", "name": "196dd0b6f44da3384ce376b908506a58", "rental_uris": {"android": "https://dc.lft.to/lastmile_qr_scan", "ios": "https://dc.lft.to/lastmile_qr_scan"}, "fusion_lat": 0.0, "lat": 38.900466333333334, "is_disabled": 0, "lon": -77.0259405, "is_reserved": 0}, {"bike_id": "5017f0cf6d6024eaf8e6f89548f89490", "fusion_lon": 0.0, "type": "electric_scooter", "name": "5017f0cf6d6024eaf8e6f89548f89490", "rental_uris": {"android": "https://dc.lft.to/lastmile_qr_scan", "ios": "https://dc.lft.to/lastmile_qr_scan"}, "fusion_lat": 0.0, "lat": 38.908351, "is_disabled": 0, "lon": -77.0365125, "is_reserved": 0}, {"bike_id": "dec9f8cc846d7ae01499cfd975b80ea3", "fusion_lon": 0.0, "type": "electric_scooter", "name": "dec9f8cc846d7ae01499cfd975b80ea3", "rental_uris": {"android": "https://dc.lft.to/lastmile_qr_scan", "ios": "https://dc.lft.to/lastmile_qr_scan"}, "fusion_lat": 0.0, "lat": 38.899774666666666, "is_disabled": 0, "lon": -77.03344683333333, "is_reserved": 0}, {"bike_id": "ef582e7166d34c5b7b70c234cbb50426", "fusion_lon": 0.0, "type": "electric_scooter", "name": "ef582e7166d34c5b7b70c234cbb50426", "rental_uris": {"android": "https://dc.lft.to/lastmile_qr_scan", "ios": "https://dc.lft.to/lastmile_qr_scan"}, "fusion_lat": 0.0, "lat": 38.92353833333333, "is_disabled": 0, "lon": -77.04064766666667, "is_reserved": 0}, {"bike_id": "4dc93b38baeb9bcc6a3078e0ec60f6d0", "fusion_lon": 0.0, "type": "electric_scooter", "name": "4dc93b38baeb9bcc6a3078e0ec60f6d0", "rental_uris": {"android": "https://dc.lft.to/lastmile_qr_scan", "ios": "https://dc.lft.to/lastmile_qr_scan"}, "fusion_lat": 0.0, "lat": 38.917071, "is_disabled": 0, "lon": -77.03205566666666, "is_reserved": 0}, {"bike_id": "16581871e30a01a650d6a4efaec2251e", "fusion_lon": 0.0, "type": "electric_scooter", "name": "16581871e30a01a650d6a4efaec2251e", "rental_uris": {"android": "https://dc.lft.to/lastmile_qr_scan", "ios": "https://dc.lft.to/lastmile_qr_scan"}, "fusion_lat": 0.0, "lat": 38.91332033333333, "is_disabled": 0, "lon": -77.01685466666666, "is_reserved": 0}, {"bike_id": "63fb66cf162873962640c91b082b2347", "fusion_lon": 0.0, "type": "electric_bike", "name": "63fb66cf162873962640c91b082b2347", "rental_uris": {"android": "https://dc.lft.to/lastmile_qr_scan", "ios": "https://dc.lft.to/lastmile_qr_scan"}, "fusion_lat": 0.0, "lat": 38.8273035, "is_disabled": 0, "lon": -77.00864516666667, "is_reserved": 0}, {"bike_id": "6f7eec21b07af076681d98409e428cb9", "fusion_lon": 0.0, "type": "electric_scooter", "name": "6f7eec21b07af076681d98409e428cb9", "rental_uris": {"android": "https://dc.lft.to/lastmile_qr_scan", "ios": "https://dc.lft.to/lastmile_qr_scan"}, "fusion_lat": 0.0, "lat": 38.87552566666667, "is_disabled": 0, "lon": -76.9648735, "is_reserved": 0}, {"bike_id": "f02f55319ca42f19175bf8644e721d04", "fusion_lon": 0.0, "type": "electric_scooter", "name": "f02f55319ca42f19175bf8644e721d04", "rental_uris": {"android": "https://dc.lft.to/lastmile_qr_scan", "ios": "https://dc.lft.to/lastmile_qr_scan"}, "fusion_lat": 0.0, "lat": 38.85586583333333, "is_disabled": 0, "lon": -76.98560716666667, "is_reserved": 0}, {"bike_id": "b1499d84a8f00814b127f446d52bf183", "fusion_lon": 0.0, "type": "electric_scooter", "name": "b1499d84a8f00814b127f446d52bf183", "rental_uris": {"android": "https://dc.lft.to/lastmile_qr_scan", "ios": "https://dc.lft.to/lastmile_qr_scan"}, "fusion_lat": 0.0, "lat": 38.934861, "is_disabled": 0, "lon": -77.07266383333334, "is_reserved": 0}, {"bike_id": "77a6806588d6b6afa65a2a2d85c9b919", "fusion_lon": 0.0, "type": "electric_scooter", "name": "77a6806588d6b6afa65a2a2d85c9b919", "rental_uris": {"android": "https://dc.lft.to/lastmile_qr_scan", "ios": "https://dc.lft.to/lastmile_qr_scan"}, "fusion_lat": 0.0, "lat": 38.918287, "is_disabled": 0, "lon": -77.03844866666667, "is_reserved": 0}, {"bike_id": "a416e8220a1048f4df146b92a9d025aa", "fusion_lon": 0.0, "type": "electric_scooter", "name": "a416e8220a1048f4df146b92a9d025aa", "rental_uris": {"android": "https://dc.lft.to/lastmile_qr_scan", "ios": "https://dc.lft.to/lastmile_qr_scan"}, "fusion_lat": 0.0, "lat": 38.90254016666667, "is_disabled": 0, "lon": -77.03956833333334, "is_reserved": 0}, {"bike_id": "40a72d06ed8fb91681885b0eaae7761b", "fusion_lon": 0.0, "type": "electric_scooter", "name": "40a72d06ed8fb91681885b0eaae7761b", "rental_uris": {"android": "https://dc.lft.to/lastmile_qr_scan", "ios": "https://dc.lft.to/lastmile_qr_scan"}, "fusion_lat": 0.0, "lat": 38.900869666666665, "is_disabled": 0, "lon": -76.93020283333334, "is_reserved": 0}, {"bike_id": "a4c989f6b357ef3290ca1e261729801f", "fusion_lon": 0.0, "type": "electric_scooter", "name": "a4c989f6b357ef3290ca1e261729801f", "rental_uris": {"android": "https://dc.lft.to/lastmile_qr_scan", "ios": "https://dc.lft.to/lastmile_qr_scan"}, "fusion_lat": 0.0, "lat": 38.884412833333336, "is_disabled": 0, "lon": -76.95752316666666, "is_reserved": 0}, {"bike_id": "93cb95ce0c926f9baeedf7c8fcffedc8", "fusion_lon": 0.0, "type": "electric_scooter", "name": "93cb95ce0c926f9baeedf7c8fcffedc8", "rental_uris": {"android": "https://dc.lft.to/lastmile_qr_scan", "ios": "https://dc.lft.to/lastmile_qr_scan"}, "fusion_lat": 0.0, "lat": 38.92626633333333, "is_disabled": 0, "lon": -77.043278, "is_reserved": 0}, {"bike_id": "37a2d5891ca9648257f5c12d1964810b", "fusion_lon": 0.0, "type": "electric_scooter", "name": "37a2d5891ca9648257f5c12d1964810b", "rental_uris": {"android": "https://dc.lft.to/lastmile_qr_scan", "ios": "https://dc.lft.to/lastmile_qr_scan"}, "fusion_lat": 0.0, "lat": 38.9015715, "is_disabled": 0, "lon": -77.03318833333333, "is_reserved": 0}, {"bike_id": "d27bf25ceebd49c35852271d5ca98460", "fusion_lon": 0.0, "type": "electric_scooter", "name": "d27bf25ceebd49c35852271d5ca98460", "rental_uris": {"android": "https://dc.lft.to/lastmile_qr_scan", "ios": "https://dc.lft.to/lastmile_qr_scan"}, "fusion_lat": 0.0, "lat": 38.90253033333333, "is_disabled": 0, "lon": -77.01741483333333, "is_reserved": 0}, {"bike_id": "55bfcecdf6e6f2f02c30312e7248df96", "fusion_lon": 0.0, "type": "electric_scooter", "name": "55bfcecdf6e6f2f02c30312e7248df96", "rental_uris": {"android": "https://dc.lft.to/lastmile_qr_scan", "ios": "https://dc.lft.to/lastmile_qr_scan"}, "fusion_lat": 0.0, "lat": 38.91524783333333, "is_disabled": 0, "lon": -77.02698616666666, "is_reserved": 0}, {"bike_id": "82e6e5933e309c020e81625e0531400a", "fusion_lon": 0.0, "type": "electric_scooter", "name": "82e6e5933e309c020e81625e0531400a", "rental_uris": {"android": "https://dc.lft.to/lastmile_qr_scan", "ios": "https://dc.lft.to/lastmile_qr_scan"}, "fusion_lat": 0.0, "lat": 38.9038695, "is_disabled": 0, "lon": -77.0438905, "is_reserved": 0}, {"bike_id": "2a2fb5e5695333bc63d90f4f3856870e", "fusion_lon": 0.0, "type": "electric_bike", "name": "2a2fb5e5695333bc63d90f4f3856870e", "rental_uris": {"android": "https://dc.lft.to/lastmile_qr_scan", "ios": "https://dc.lft.to/lastmile_qr_scan"}, "fusion_lat": 0.0, "lat": 38.89686016666667, "is_disabled": 0, "lon": -77.024174, "is_reserved": 0}, {"bike_id": "390039098bf387f8181fec739d245524", "fusion_lon": 0.0, "type": "electric_scooter", "name": "390039098bf387f8181fec739d245524", "rental_uris": {"android": "https://dc.lft.to/lastmile_qr_scan", "ios": "https://dc.lft.to/lastmile_qr_scan"}, "fusion_lat": 0.0, "lat": 38.891625166666664, "is_disabled": 0, "lon": -76.95403483333334, "is_reserved": 0}, {"bike_id": "7a2aa4fd660628c172f34ffc4307cca4", "fusion_lon": 0.0, "type": "electric_scooter", "name": "7a2aa4fd660628c172f34ffc4307cca4", "rental_uris": {"android": "https://dc.lft.to/lastmile_qr_scan", "ios": "https://dc.lft.to/lastmile_qr_scan"}, "fusion_lat": 0.0, "lat": 38.909208, "is_disabled": 0, "lon": -77.07276633333333, "is_reserved": 0}, {"bike_id": "65b58f46328906c1ba52e3e576cf6332", "fusion_lon": 0.0, "type": "electric_bike", "name": "65b58f46328906c1ba52e3e576cf6332", "rental_uris": {"android": "https://dc.lft.to/lastmile_qr_scan", "ios": "https://dc.lft.to/lastmile_qr_scan"}, "fusion_lat": 0.0, "lat": 38.925033666666664, "is_disabled": 0, "lon": -77.05753883333334, "is_reserved": 0}, {"bike_id": "df38df432d4c690befbe757dce949b6d", "fusion_lon": 0.0, "type": "electric_bike", "name": "df38df432d4c690befbe757dce949b6d", "rental_uris": {"android": "https://dc.lft.to/lastmile_qr_scan", "ios": "https://dc.lft.to/lastmile_qr_scan"}, "fusion_lat": 0.0, "lat": 38.86861533333333, "is_disabled": 0, "lon": -76.91651883333333, "is_reserved": 0}, {"bike_id": "0fb014e51ca1e7180a969083a9018915", "fusion_lon": 0.0, "type": "electric_bike", "name": "0fb014e51ca1e7180a969083a9018915", "rental_uris": {"android": "https://dc.lft.to/lastmile_qr_scan", "ios": "https://dc.lft.to/lastmile_qr_scan"}, "fusion_lat": 0.0, "lat": 38.8923135, "is_disabled": 0, "lon": -77.1076765, "is_reserved": 0}, {"bike_id": "726a84484cbc6c0d4c68ec3f3fb2cf51", "fusion_lon": 0.0, "type": "electric_scooter", "name": "726a84484cbc6c0d4c68ec3f3fb2cf51", "rental_uris": {"android": "https://dc.lft.to/lastmile_qr_scan", "ios": "https://dc.lft.to/lastmile_qr_scan"}, "fusion_lat": 0.0, "lat": 38.9022755, "is_disabled": 0, "lon": -77.002082, "is_reserved": 0}, {"bike_id": "5a3052a97d69065898531e2cbb89ccc9", "fusion_lon": 0.0, "type": "electric_scooter", "name": "5a3052a97d69065898531e2cbb89ccc9", "rental_uris": {"android": "https://dc.lft.to/lastmile_qr_scan", "ios": "https://dc.lft.to/lastmile_qr_scan"}, "fusion_lat": 0.0, "lat": 38.90033666666667, "is_disabled": 0, "lon": -76.9877455, "is_reserved": 0}, {"bike_id": "8ae22984b5639f035dcf96431a4a1e54", "fusion_lon": 0.0, "type": "electric_scooter", "name": "8ae22984b5639f035dcf96431a4a1e54", "rental_uris": {"android": "https://dc.lft.to/lastmile_qr_scan", "ios": "https://dc.lft.to/lastmile_qr_scan"}, "fusion_lat": 0.0, "lat": 38.91260466666667, "is_disabled": 0, "lon": -77.04963616666667, "is_reserved": 0}, {"bike_id": "1832294a60f70467c0206e8942cbc833", "fusion_lon": 0.0, "type": "electric_bike", "name": "1832294a60f70467c0206e8942cbc833", "rental_uris": {"android": "https://dc.lft.to/lastmile_qr_scan", "ios": "https://dc.lft.to/lastmile_qr_scan"}, "fusion_lat": 0.0, "lat": 38.888008166666665, "is_disabled": 0, "lon": -76.92995666666667, "is_reserved": 0}, {"bike_id": "3417658ac784fd49cb57b9f7f10abf93", "fusion_lon": 0.0, "type": "electric_bike", "name": "3417658ac784fd49cb57b9f7f10abf93", "rental_uris": {"android": "https://dc.lft.to/lastmile_qr_scan", "ios": "https://dc.lft.to/lastmile_qr_scan"}, "fusion_lat": 0.0, "lat": 38.94288233333333, "is_disabled": 0, "lon": -77.0692415, "is_reserved": 0}, {"bike_id": "d3afcb76802ed394217c2ce3ff029a56", "fusion_lon": 0.0, "type": "electric_scooter", "name": "d3afcb76802ed394217c2ce3ff029a56", "rental_uris": {"android": "https://dc.lft.to/lastmile_qr_scan", "ios": "https://dc.lft.to/lastmile_qr_scan"}, "fusion_lat": 0.0, "lat": 38.9487115, "is_disabled": 0, "lon": -77.07937383333334, "is_reserved": 0}, {"bike_id": "c4a23483018908522eb6e5614aadcb8d", "fusion_lon": 0.0, "type": "electric_scooter", "name": "c4a23483018908522eb6e5614aadcb8d", "rental_uris": {"android": "https://dc.lft.to/lastmile_qr_scan", "ios": "https://dc.lft.to/lastmile_qr_scan"}, "fusion_lat": 0.0, "lat": 38.864109, "is_disabled": 0, "lon": -76.990246, "is_reserved": 0}, {"bike_id": "78d5c9e786576f5acbab1cf4db2845e4", "fusion_lon": 0.0, "type": "electric_scooter", "name": "78d5c9e786576f5acbab1cf4db2845e4", "rental_uris": {"android": "https://dc.lft.to/lastmile_qr_scan", "ios": "https://dc.lft.to/lastmile_qr_scan"}, "fusion_lat": 0.0, "lat": 38.875984333333335, "is_disabled": 0, "lon": -77.01368983333333, "is_reserved": 0}, {"bike_id": "105f9c5a383e680eee26caeef81e90a4", "fusion_lon": 0.0, "type": "electric_bike", "name": "105f9c5a383e680eee26caeef81e90a4", "rental_uris": {"android": "https://dc.lft.to/lastmile_qr_scan", "ios": "https://dc.lft.to/lastmile_qr_scan"}, "fusion_lat": 0.0, "lat": 38.911873666666665, "is_disabled": 0, "lon": -77.002719, "is_reserved": 0}, {"bike_id": "97f5fbf1b8860374a19a7b36570aa9e0", "fusion_lon": 0.0, "type": "electric_scooter", "name": "97f5fbf1b8860374a19a7b36570aa9e0", "rental_uris": {"android": "https://dc.lft.to/lastmile_qr_scan", "ios": "https://dc.lft.to/lastmile_qr_scan"}, "fusion_lat": 0.0, "lat": 38.919967166666666, "is_disabled": 0, "lon": -77.039604, "is_reserved": 0}, {"bike_id": "7ca03019c5125c266b5f6e240f19300c", "fusion_lon": 0.0, "type": "electric_scooter", "name": "7ca03019c5125c266b5f6e240f19300c", "rental_uris": {"android": "https://dc.lft.to/lastmile_qr_scan", "ios": "https://dc.lft.to/lastmile_qr_scan"}, "fusion_lat": 0.0, "lat": 38.91543766666667, "is_disabled": 0, "lon": -77.01219833333333, "is_reserved": 0}, {"bike_id": "2fd7f9f69b7c92298a89aa5be1220442", "fusion_lon": 0.0, "type": "electric_bike", "name": "2fd7f9f69b7c92298a89aa5be1220442", "rental_uris": {"android": "https://dc.lft.to/lastmile_qr_scan", "ios": "https://dc.lft.to/lastmile_qr_scan"}, "fusion_lat": 0.0, "lat": 38.93216433333333, "is_disabled": 0, "lon": -77.023454, "is_reserved": 0}, {"bike_id": "c25165c0321a35f7ea718d3686fb17f0", "fusion_lon": 0.0, "type": "electric_scooter", "name": "c25165c0321a35f7ea718d3686fb17f0", "rental_uris": {"android": "https://dc.lft.to/lastmile_qr_scan", "ios": "https://dc.lft.to/lastmile_qr_scan"}, "fusion_lat": 0.0, "lat": 38.921014, "is_disabled": 0, "lon": -77.03657616666666, "is_reserved": 0}, {"bike_id": "90d200bb94b683b5c32ae38dfaacbebd", "fusion_lon": 0.0, "type": "electric_scooter", "name": "90d200bb94b683b5c32ae38dfaacbebd", "rental_uris": {"android": "https://dc.lft.to/lastmile_qr_scan", "ios": "https://dc.lft.to/lastmile_qr_scan"}, "fusion_lat": 0.0, "lat": 38.9113855, "is_disabled": 0, "lon": -77.02187466666666, "is_reserved": 0}, {"bike_id": "3d1d7569e1c04290574c44befe549d29", "fusion_lon": 0.0, "type": "electric_scooter", "name": "3d1d7569e1c04290574c44befe549d29", "rental_uris": {"android": "https://dc.lft.to/lastmile_qr_scan", "ios": "https://dc.lft.to/lastmile_qr_scan"}, "fusion_lat": 0.0, "lat": 38.902877, "is_disabled": 0, "lon": -77.0364795, "is_reserved": 0}, {"bike_id": "e4f78d2fe485ea719acc0f14b7095b1d", "fusion_lon": 0.0, "type": "electric_scooter", "name": "e4f78d2fe485ea719acc0f14b7095b1d", "rental_uris": {"android": "https://dc.lft.to/lastmile_qr_scan", "ios": "https://dc.lft.to/lastmile_qr_scan"}, "fusion_lat": 0.0, "lat": 38.918883, "is_disabled": 0, "lon": -77.0376865, "is_reserved": 0}, {"bike_id": "c47a5a5a68e94e4847c79f7e5579f18a", "fusion_lon": 0.0, "type": "electric_scooter", "name": "c47a5a5a68e94e4847c79f7e5579f18a", "rental_uris": {"android": "https://dc.lft.to/lastmile_qr_scan", "ios": "https://dc.lft.to/lastmile_qr_scan"}, "fusion_lat": 0.0, "lat": 38.918375833333336, "is_disabled": 0, "lon": -77.032179, "is_reserved": 0}, {"bike_id": "61fa35e0356cc9924e902173031fdf59", "fusion_lon": 0.0, "type": "electric_scooter", "name": "61fa35e0356cc9924e902173031fdf59", "rental_uris": {"android": "https://dc.lft.to/lastmile_qr_scan", "ios": "https://dc.lft.to/lastmile_qr_scan"}, "fusion_lat": 0.0, "lat": 38.92880383333333, "is_disabled": 0, "lon": -77.02709683333333, "is_reserved": 0}, {"bike_id": "d11f7e5d19550af699bb55ea77b07188", "fusion_lon": 0.0, "type": "electric_bike", "name": "d11f7e5d19550af699bb55ea77b07188", "rental_uris": {"android": "https://dc.lft.to/lastmile_qr_scan", "ios": "https://dc.lft.to/lastmile_qr_scan"}, "fusion_lat": 0.0, "lat": 38.85065483333333, "is_disabled": 0, "lon": -76.9732845, "is_reserved": 0}, {"bike_id": "c1cf235c9a7a58e6f00254780138c668", "fusion_lon": 0.0, "type": "electric_scooter", "name": "c1cf235c9a7a58e6f00254780138c668", "rental_uris": {"android": "https://dc.lft.to/lastmile_qr_scan", "ios": "https://dc.lft.to/lastmile_qr_scan"}, "fusion_lat": 0.0, "lat": 38.91142766666667, "is_disabled": 0, "lon": -77.02803983333334, "is_reserved": 0}, {"bike_id": "313f0bc392348eec7a77389050ab7e85", "fusion_lon": 0.0, "type": "electric_scooter", "name": "313f0bc392348eec7a77389050ab7e85", "rental_uris": {"android": "https://dc.lft.to/lastmile_qr_scan", "ios": "https://dc.lft.to/lastmile_qr_scan"}, "fusion_lat": 0.0, "lat": 38.91017033333333, "is_disabled": 0, "lon": -77.05304533333333, "is_reserved": 0}, {"bike_id": "5b2707641eb73e4903026133565aedf1", "fusion_lon": 0.0, "type": "electric_scooter", "name": "5b2707641eb73e4903026133565aedf1", "rental_uris": {"android": "https://dc.lft.to/lastmile_qr_scan", "ios": "https://dc.lft.to/lastmile_qr_scan"}, "fusion_lat": 0.0, "lat": 38.9103605, "is_disabled": 0, "lon": -77.02185616666667, "is_reserved": 0}, {"bike_id": "814b5d3e809b2c61305c7dec72c4645a", "fusion_lon": 0.0, "type": "electric_scooter", "name": "814b5d3e809b2c61305c7dec72c4645a", "rental_uris": {"android": "https://dc.lft.to/lastmile_qr_scan", "ios": "https://dc.lft.to/lastmile_qr_scan"}, "fusion_lat": 0.0, "lat": 38.900495166666666, "is_disabled": 0, "lon": -77.044846, "is_reserved": 0}, {"bike_id": "9415a90d7dcb6d267207c37368d56103", "fusion_lon": 0.0, "type": "electric_scooter", "name": "9415a90d7dcb6d267207c37368d56103", "rental_uris": {"android": "https://dc.lft.to/lastmile_qr_scan", "ios": "https://dc.lft.to/lastmile_qr_scan"}, "fusion_lat": 0.0, "lat": 38.90027166666667, "is_disabled": 0, "lon": -77.05330166666667, "is_reserved": 0}, {"bike_id": "e3d6cd68f099283894caae0ee08eeb4e", "fusion_lon": 0.0, "type": "electric_scooter", "name": "e3d6cd68f099283894caae0ee08eeb4e", "rental_uris": {"android": "https://dc.lft.to/lastmile_qr_scan", "ios": "https://dc.lft.to/lastmile_qr_scan"}, "fusion_lat": 0.0, "lat": 38.932536999999996, "is_disabled": 0, "lon": -77.03869166666667, "is_reserved": 0}, {"bike_id": "b155b952af3d2b1b329c9adab38862ed", "fusion_lon": 0.0, "type": "electric_scooter", "name": "b155b952af3d2b1b329c9adab38862ed", "rental_uris": {"android": "https://dc.lft.to/lastmile_qr_scan", "ios": "https://dc.lft.to/lastmile_qr_scan"}, "fusion_lat": 0.0, "lat": 38.9278875, "is_disabled": 0, "lon": -77.0313635, "is_reserved": 0}, {"bike_id": "0643cd355755b2f3613adeffd07ef78f", "fusion_lon": 0.0, "type": "electric_scooter", "name": "0643cd355755b2f3613adeffd07ef78f", "rental_uris": {"android": "https://dc.lft.to/lastmile_qr_scan", "ios": "https://dc.lft.to/lastmile_qr_scan"}, "fusion_lat": 0.0, "lat": 38.842977, "is_disabled": 0, "lon": -76.99946166666666, "is_reserved": 0}, {"bike_id": "75dcefdb347e09918afd5e85f83b16ff", "fusion_lon": 0.0, "type": "electric_scooter", "name": "75dcefdb347e09918afd5e85f83b16ff", "rental_uris": {"android": "https://dc.lft.to/lastmile_qr_scan", "ios": "https://dc.lft.to/lastmile_qr_scan"}, "fusion_lat": 0.0, "lat": 38.896749, "is_disabled": 0, "lon": -76.9472925, "is_reserved": 0}, {"bike_id": "b0c59d86b611d97dc3615dad619d3d4e", "fusion_lon": 0.0, "type": "electric_bike", "name": "b0c59d86b611d97dc3615dad619d3d4e", "rental_uris": {"android": "https://dc.lft.to/lastmile_qr_scan", "ios": "https://dc.lft.to/lastmile_qr_scan"}, "fusion_lat": 0.0, "lat": 38.85214633333333, "is_disabled": 0, "lon": -77.04643983333334, "is_reserved": 0}, {"bike_id": "262fd5ae4632432fa679facc4bb7ea21", "fusion_lon": 0.0, "type": "electric_scooter", "name": "262fd5ae4632432fa679facc4bb7ea21", "rental_uris": {"android": "https://dc.lft.to/lastmile_qr_scan", "ios": "https://dc.lft.to/lastmile_qr_scan"}, "fusion_lat": 0.0, "lat": 38.900331333333334, "is_disabled": 0, "lon": -77.03350566666667, "is_reserved": 0}, {"bike_id": "06d07f4dc838e87cea44070495680b57", "fusion_lon": 0.0, "type": "electric_scooter", "name": "06d07f4dc838e87cea44070495680b57", "rental_uris": {"android": "https://dc.lft.to/lastmile_qr_scan", "ios": "https://dc.lft.to/lastmile_qr_scan"}, "fusion_lat": 0.0, "lat": 38.911937333333334, "is_disabled": 0, "lon": -77.0336035, "is_reserved": 0}, {"bike_id": "7053544bb75ffb49178fd4ff4bef9984", "fusion_lon": 0.0, "type": "electric_scooter", "name": "7053544bb75ffb49178fd4ff4bef9984", "rental_uris": {"android": "https://dc.lft.to/lastmile_qr_scan", "ios": "https://dc.lft.to/lastmile_qr_scan"}, "fusion_lat": 0.0, "lat": 38.91742516666667, "is_disabled": 0, "lon": -77.02272466666666, "is_reserved": 0}, {"bike_id": "ba308a47c704ff7bc66be96921578b9c", "fusion_lon": 0.0, "type": "electric_scooter", "name": "ba308a47c704ff7bc66be96921578b9c", "rental_uris": {"android": "https://dc.lft.to/lastmile_qr_scan", "ios": "https://dc.lft.to/lastmile_qr_scan"}, "fusion_lat": 0.0, "lat": 38.90409416666667, "is_disabled": 0, "lon": -77.06265616666667, "is_reserved": 0}, {"bike_id": "b157d4068855edb480ecca9312030568", "fusion_lon": 0.0, "type": "electric_bike", "name": "b157d4068855edb480ecca9312030568", "rental_uris": {"android": "https://dc.lft.to/lastmile_qr_scan", "ios": "https://dc.lft.to/lastmile_qr_scan"}, "fusion_lat": 0.0, "lat": 38.97409366666667, "is_disabled": 0, "lon": -77.02491216666667, "is_reserved": 0}, {"bike_id": "ad168f4013340c3019f8106ed9a12a06", "fusion_lon": 0.0, "type": "electric_scooter", "name": "ad168f4013340c3019f8106ed9a12a06", "rental_uris": {"android": "https://dc.lft.to/lastmile_qr_scan", "ios": "https://dc.lft.to/lastmile_qr_scan"}, "fusion_lat": 0.0, "lat": 38.88503216666667, "is_disabled": 0, "lon": -77.00558466666666, "is_reserved": 0}, {"bike_id": "021973e6caaf33ff42601e570f8dc849", "fusion_lon": 0.0, "type": "electric_scooter", "name": "021973e6caaf33ff42601e570f8dc849", "rental_uris": {"android": "https://dc.lft.to/lastmile_qr_scan", "ios": "https://dc.lft.to/lastmile_qr_scan"}, "fusion_lat": 0.0, "lat": 38.90077466666666, "is_disabled": 0, "lon": -77.05060516666667, "is_reserved": 0}, {"bike_id": "2ee543cdb870de7a8d4cea1e82c4c759", "fusion_lon": 0.0, "type": "electric_scooter", "name": "2ee543cdb870de7a8d4cea1e82c4c759", "rental_uris": {"android": "https://dc.lft.to/lastmile_qr_scan", "ios": "https://dc.lft.to/lastmile_qr_scan"}, "fusion_lat": 0.0, "lat": 38.89505716666667, "is_disabled": 0, "lon": -77.011089, "is_reserved": 0}, {"bike_id": "48ebd4f0e88d334b29b2cf9bc489e8c4", "fusion_lon": 0.0, "type": "electric_scooter", "name": "48ebd4f0e88d334b29b2cf9bc489e8c4", "rental_uris": {"android": "https://dc.lft.to/lastmile_qr_scan", "ios": "https://dc.lft.to/lastmile_qr_scan"}, "fusion_lat": 0.0, "lat": 38.917058, "is_disabled": 0, "lon": -77.04032616666667, "is_reserved": 0}, {"bike_id": "14050cd7feabf7891fa14c942e934976", "fusion_lon": 0.0, "type": "electric_scooter", "name": "14050cd7feabf7891fa14c942e934976", "rental_uris": {"android": "https://dc.lft.to/lastmile_qr_scan", "ios": "https://dc.lft.to/lastmile_qr_scan"}, "fusion_lat": 0.0, "lat": 38.89997983333333, "is_disabled": 0, "lon": -77.04579966666667, "is_reserved": 0}, {"bike_id": "1993d597b97cfbfc2e138659ef05508d", "fusion_lon": 0.0, "type": "electric_bike", "name": "1993d597b97cfbfc2e138659ef05508d", "rental_uris": {"android": "https://dc.lft.to/lastmile_qr_scan", "ios": "https://dc.lft.to/lastmile_qr_scan"}, "fusion_lat": 0.0, "lat": 38.953282, "is_disabled": 0, "lon": -76.95434316666666, "is_reserved": 0}, {"bike_id": "21381d04064554a3c6c11e77dae49077", "fusion_lon": 0.0, "type": "electric_scooter", "name": "21381d04064554a3c6c11e77dae49077", "rental_uris": {"android": "https://dc.lft.to/lastmile_qr_scan", "ios": "https://dc.lft.to/lastmile_qr_scan"}, "fusion_lat": 0.0, "lat": 38.93145766666667, "is_disabled": 0, "lon": -77.07850166666667, "is_reserved": 0}, {"bike_id": "61588ff3437fbdcc8e9ffd2c5b74ec05", "fusion_lon": 0.0, "type": "electric_scooter", "name": "61588ff3437fbdcc8e9ffd2c5b74ec05", "rental_uris": {"android": "https://dc.lft.to/lastmile_qr_scan", "ios": "https://dc.lft.to/lastmile_qr_scan"}, "fusion_lat": 0.0, "lat": 38.89985866666667, "is_disabled": 0, "lon": -76.992726, "is_reserved": 0}, {"bike_id": "ace331780d4dacc196e83287d1765a10", "fusion_lon": 0.0, "type": "electric_scooter", "name": "ace331780d4dacc196e83287d1765a10", "rental_uris": {"android": "https://dc.lft.to/lastmile_qr_scan", "ios": "https://dc.lft.to/lastmile_qr_scan"}, "fusion_lat": 0.0, "lat": 38.92902633333333, "is_disabled": 0, "lon": -77.03743783333333, "is_reserved": 0}, {"bike_id": "007e61da7fb7d17b2eb7f80a7ae81653", "fusion_lon": 0.0, "type": "electric_scooter", "name": "007e61da7fb7d17b2eb7f80a7ae81653", "rental_uris": {"android": "https://dc.lft.to/lastmile_qr_scan", "ios": "https://dc.lft.to/lastmile_qr_scan"}, "fusion_lat": 0.0, "lat": 38.89237033333333, "is_disabled": 0, "lon": -76.98800816666666, "is_reserved": 0}, {"bike_id": "66ae1fc0f0ef9aeba7ba29bf1b5169e9", "fusion_lon": 0.0, "type": "electric_scooter", "name": "66ae1fc0f0ef9aeba7ba29bf1b5169e9", "rental_uris": {"android": "https://dc.lft.to/lastmile_qr_scan", "ios": "https://dc.lft.to/lastmile_qr_scan"}, "fusion_lat": 0.0, "lat": 38.9361885, "is_disabled": 0, "lon": -77.03654016666667, "is_reserved": 0}, {"bike_id": "723bc2361cbd59733606517fb60c6f69", "fusion_lon": 0.0, "type": "electric_scooter", "name": "723bc2361cbd59733606517fb60c6f69", "rental_uris": {"android": "https://dc.lft.to/lastmile_qr_scan", "ios": "https://dc.lft.to/lastmile_qr_scan"}, "fusion_lat": 0.0, "lat": 38.8842015, "is_disabled": 0, "lon": -76.99541816666667, "is_reserved": 0}, {"bike_id": "f84e62e77c081e180e4052f8b38c7cb2", "fusion_lon": 0.0, "type": "electric_scooter", "name": "f84e62e77c081e180e4052f8b38c7cb2", "rental_uris": {"android": "https://dc.lft.to/lastmile_qr_scan", "ios": "https://dc.lft.to/lastmile_qr_scan"}, "fusion_lat": 0.0, "lat": 38.926806166666665, "is_disabled": 0, "lon": -77.00753583333334, "is_reserved": 0}, {"bike_id": "7c13ce9740125ffa05499c766673aaa3", "fusion_lon": 0.0, "type": "electric_scooter", "name": "7c13ce9740125ffa05499c766673aaa3", "rental_uris": {"android": "https://dc.lft.to/lastmile_qr_scan", "ios": "https://dc.lft.to/lastmile_qr_scan"}, "fusion_lat": 0.0, "lat": 38.909628833333336, "is_disabled": 0, "lon": -77.04049666666667, "is_reserved": 0}, {"bike_id": "6874832cc585683e48e24cab7163441a", "fusion_lon": 0.0, "type": "electric_scooter", "name": "6874832cc585683e48e24cab7163441a", "rental_uris": {"android": "https://dc.lft.to/lastmile_qr_scan", "ios": "https://dc.lft.to/lastmile_qr_scan"}, "fusion_lat": 0.0, "lat": 38.90036883333333, "is_disabled": 0, "lon": -76.996227, "is_reserved": 0}, {"bike_id": "28f009ddb2381370dc7e0b11e217ab60", "fusion_lon": 0.0, "type": "electric_scooter", "name": "28f009ddb2381370dc7e0b11e217ab60", "rental_uris": {"android": "https://dc.lft.to/lastmile_qr_scan", "ios": "https://dc.lft.to/lastmile_qr_scan"}, "fusion_lat": 0.0, "lat": 38.92894233333333, "is_disabled": 0, "lon": -77.00519666666666, "is_reserved": 0}, {"bike_id": "3d088df0193560455accc05ea6c53eef", "fusion_lon": 0.0, "type": "electric_scooter", "name": "3d088df0193560455accc05ea6c53eef", "rental_uris": {"android": "https://dc.lft.to/lastmile_qr_scan", "ios": "https://dc.lft.to/lastmile_qr_scan"}, "fusion_lat": 0.0, "lat": 38.86444066666667, "is_disabled": 0, "lon": -76.98995316666667, "is_reserved": 0}, {"bike_id": "fa319562e3252b5c2f9e1822d8188e9c", "fusion_lon": 0.0, "type": "electric_scooter", "name": "fa319562e3252b5c2f9e1822d8188e9c", "rental_uris": {"android": "https://dc.lft.to/lastmile_qr_scan", "ios": "https://dc.lft.to/lastmile_qr_scan"}, "fusion_lat": 0.0, "lat": 38.89961533333334, "is_disabled": 0, "lon": -76.9856535, "is_reserved": 0}, {"bike_id": "adca7f06f929e88360ddfca187ed6206", "fusion_lon": 0.0, "type": "electric_scooter", "name": "adca7f06f929e88360ddfca187ed6206", "rental_uris": {"android": "https://dc.lft.to/lastmile_qr_scan", "ios": "https://dc.lft.to/lastmile_qr_scan"}, "fusion_lat": 0.0, "lat": 38.935888, "is_disabled": 0, "lon": -77.01932866666667, "is_reserved": 0}, {"bike_id": "05f9c216b4c2e0177c8b82ab871446a1", "fusion_lon": 0.0, "type": "electric_scooter", "name": "05f9c216b4c2e0177c8b82ab871446a1", "rental_uris": {"android": "https://dc.lft.to/lastmile_qr_scan", "ios": "https://dc.lft.to/lastmile_qr_scan"}, "fusion_lat": 0.0, "lat": 38.90911633333333, "is_disabled": 0, "lon": -77.041392, "is_reserved": 0}, {"bike_id": "e2a3c05a8463df9b57ba339a4e95f1e6", "fusion_lon": 0.0, "type": "electric_scooter", "name": "e2a3c05a8463df9b57ba339a4e95f1e6", "rental_uris": {"android": "https://dc.lft.to/lastmile_qr_scan", "ios": "https://dc.lft.to/lastmile_qr_scan"}, "fusion_lat": 0.0, "lat": 38.962081833333336, "is_disabled": 0, "lon": -77.023439, "is_reserved": 0}, {"bike_id": "477de96d2ea3ae7e03b3f4c71a7f7973", "fusion_lon": 0.0, "type": "electric_scooter", "name": "477de96d2ea3ae7e03b3f4c71a7f7973", "rental_uris": {"android": "https://dc.lft.to/lastmile_qr_scan", "ios": "https://dc.lft.to/lastmile_qr_scan"}, "fusion_lat": 0.0, "lat": 38.933711833333334, "is_disabled": 0, "lon": -77.05727066666667, "is_reserved": 0}, {"bike_id": "1ee2275ae7462ffbe1941ac5289fff44", "fusion_lon": 0.0, "type": "electric_scooter", "name": "1ee2275ae7462ffbe1941ac5289fff44", "rental_uris": {"android": "https://dc.lft.to/lastmile_qr_scan", "ios": "https://dc.lft.to/lastmile_qr_scan"}, "fusion_lat": 0.0, "lat": 38.919940833333335, "is_disabled": 0, "lon": -77.03969533333333, "is_reserved": 0}, {"bike_id": "d3c96ea8323a44814c5267faa98be41c", "fusion_lon": 0.0, "type": "electric_scooter", "name": "d3c96ea8323a44814c5267faa98be41c", "rental_uris": {"android": "https://dc.lft.to/lastmile_qr_scan", "ios": "https://dc.lft.to/lastmile_qr_scan"}, "fusion_lat": 0.0, "lat": 38.87534683333333, "is_disabled": 0, "lon": -77.0004895, "is_reserved": 0}, {"bike_id": "69e1e78e052913edf5d4c56e1b9d4ed9", "fusion_lon": 0.0, "type": "electric_scooter", "name": "69e1e78e052913edf5d4c56e1b9d4ed9", "rental_uris": {"android": "https://dc.lft.to/lastmile_qr_scan", "ios": "https://dc.lft.to/lastmile_qr_scan"}, "fusion_lat": 0.0, "lat": 38.8932765, "is_disabled": 0, "lon": -77.02987116666667, "is_reserved": 0}, {"bike_id": "05cbfcf5dfdc95ff29fbe929488f45a2", "fusion_lon": 0.0, "type": "electric_scooter", "name": "05cbfcf5dfdc95ff29fbe929488f45a2", "rental_uris": {"android": "https://dc.lft.to/lastmile_qr_scan", "ios": "https://dc.lft.to/lastmile_qr_scan"}, "fusion_lat": 0.0, "lat": 38.910169, "is_disabled": 0, "lon": -77.02210833333334, "is_reserved": 0}, {"bike_id": "728c67a803ee234d2666291b46bc6fb7", "fusion_lon": 0.0, "type": "electric_scooter", "name": "728c67a803ee234d2666291b46bc6fb7", "rental_uris": {"android": "https://dc.lft.to/lastmile_qr_scan", "ios": "https://dc.lft.to/lastmile_qr_scan"}, "fusion_lat": 0.0, "lat": 38.892520166666664, "is_disabled": 0, "lon": -77.02180733333333, "is_reserved": 0}, {"bike_id": "14ab5a03927de41d5d1ae345ca3c2ff1", "fusion_lon": 0.0, "type": "electric_scooter", "name": "14ab5a03927de41d5d1ae345ca3c2ff1", "rental_uris": {"android": "https://dc.lft.to/lastmile_qr_scan", "ios": "https://dc.lft.to/lastmile_qr_scan"}, "fusion_lat": 0.0, "lat": 38.86511383333333, "is_disabled": 0, "lon": -76.97345683333333, "is_reserved": 0}, {"bike_id": "b95229c961f2f56e173b4f0980c0abec", "fusion_lon": 0.0, "type": "electric_scooter", "name": "b95229c961f2f56e173b4f0980c0abec", "rental_uris": {"android": "https://dc.lft.to/lastmile_qr_scan", "ios": "https://dc.lft.to/lastmile_qr_scan"}, "fusion_lat": 0.0, "lat": 38.87918366666667, "is_disabled": 0, "lon": -76.9916155, "is_reserved": 0}, {"bike_id": "675cf3bd241117cc7866978a540b1de9", "fusion_lon": 0.0, "type": "electric_scooter", "name": "675cf3bd241117cc7866978a540b1de9", "rental_uris": {"android": "https://dc.lft.to/lastmile_qr_scan", "ios": "https://dc.lft.to/lastmile_qr_scan"}, "fusion_lat": 0.0, "lat": 38.9102385, "is_disabled": 0, "lon": -77.009199, "is_reserved": 0}, {"bike_id": "c2abb360a2bb5e1f88f11b301c767dcb", "fusion_lon": 0.0, "type": "electric_scooter", "name": "c2abb360a2bb5e1f88f11b301c767dcb", "rental_uris": {"android": "https://dc.lft.to/lastmile_qr_scan", "ios": "https://dc.lft.to/lastmile_qr_scan"}, "fusion_lat": 0.0, "lat": 38.88988, "is_disabled": 0, "lon": -76.92402733333333, "is_reserved": 0}, {"bike_id": "90185b7e9cbd59040e149ba886d9c838", "fusion_lon": 0.0, "type": "electric_scooter", "name": "90185b7e9cbd59040e149ba886d9c838", "rental_uris": {"android": "https://dc.lft.to/lastmile_qr_scan", "ios": "https://dc.lft.to/lastmile_qr_scan"}, "fusion_lat": 0.0, "lat": 38.9078755, "is_disabled": 0, "lon": -77.045148, "is_reserved": 0}, {"bike_id": "a064ebcf6be0eeb48e8c21fd37dd48da", "fusion_lon": 0.0, "type": "electric_scooter", "name": "a064ebcf6be0eeb48e8c21fd37dd48da", "rental_uris": {"android": "https://dc.lft.to/lastmile_qr_scan", "ios": "https://dc.lft.to/lastmile_qr_scan"}, "fusion_lat": 0.0, "lat": 38.9068655, "is_disabled": 0, "lon": -77.062815, "is_reserved": 0}, {"bike_id": "ea5aafd652be27092980439562faa760", "fusion_lon": 0.0, "type": "electric_scooter", "name": "ea5aafd652be27092980439562faa760", "rental_uris": {"android": "https://dc.lft.to/lastmile_qr_scan", "ios": "https://dc.lft.to/lastmile_qr_scan"}, "fusion_lat": 0.0, "lat": 38.9047535, "is_disabled": 0, "lon": -77.01995766666667, "is_reserved": 0}, {"bike_id": "57f377ec8f7ad5c4bbdab3d28b3c5052", "fusion_lon": 0.0, "type": "electric_scooter", "name": "57f377ec8f7ad5c4bbdab3d28b3c5052", "rental_uris": {"android": "https://dc.lft.to/lastmile_qr_scan", "ios": "https://dc.lft.to/lastmile_qr_scan"}, "fusion_lat": 0.0, "lat": 38.9002885, "is_disabled": 0, "lon": -76.99869916666667, "is_reserved": 0}, {"bike_id": "d091df9c1d04c8aae34ba999c5832f68", "fusion_lon": 0.0, "type": "electric_scooter", "name": "d091df9c1d04c8aae34ba999c5832f68", "rental_uris": {"android": "https://dc.lft.to/lastmile_qr_scan", "ios": "https://dc.lft.to/lastmile_qr_scan"}, "fusion_lat": 0.0, "lat": 38.8650905, "is_disabled": 0, "lon": -76.98999533333334, "is_reserved": 0}, {"bike_id": "833cdb696797b339b19d7ec7e1ab92e5", "fusion_lon": 0.0, "type": "electric_scooter", "name": "833cdb696797b339b19d7ec7e1ab92e5", "rental_uris": {"android": "https://dc.lft.to/lastmile_qr_scan", "ios": "https://dc.lft.to/lastmile_qr_scan"}, "fusion_lat": 0.0, "lat": 38.90146166666667, "is_disabled": 0, "lon": -76.99412383333333, "is_reserved": 0}, {"bike_id": "8fbce536ab3b72a5fd3717467f68cfb4", "fusion_lon": 0.0, "type": "electric_scooter", "name": "8fbce536ab3b72a5fd3717467f68cfb4", "rental_uris": {"android": "https://dc.lft.to/lastmile_qr_scan", "ios": "https://dc.lft.to/lastmile_qr_scan"}, "fusion_lat": 0.0, "lat": 38.89859083333333, "is_disabled": 0, "lon": -76.97664333333333, "is_reserved": 0}, {"bike_id": "6da465c41e8595a3a264f73e52a412d6", "fusion_lon": 0.0, "type": "electric_scooter", "name": "6da465c41e8595a3a264f73e52a412d6", "rental_uris": {"android": "https://dc.lft.to/lastmile_qr_scan", "ios": "https://dc.lft.to/lastmile_qr_scan"}, "fusion_lat": 0.0, "lat": 38.89964833333333, "is_disabled": 0, "lon": -76.9343085, "is_reserved": 0}, {"bike_id": "baa51ab1ffd1cbc7fe31b80a54a8d3b1", "fusion_lon": 0.0, "type": "electric_scooter", "name": "baa51ab1ffd1cbc7fe31b80a54a8d3b1", "rental_uris": {"android": "https://dc.lft.to/lastmile_qr_scan", "ios": "https://dc.lft.to/lastmile_qr_scan"}, "fusion_lat": 0.0, "lat": 38.907994333333335, "is_disabled": 0, "lon": -77.05144483333333, "is_reserved": 0}, {"bike_id": "837ae4e23456e13be56550c8ccc74489", "fusion_lon": 0.0, "type": "electric_scooter", "name": "837ae4e23456e13be56550c8ccc74489", "rental_uris": {"android": "https://dc.lft.to/lastmile_qr_scan", "ios": "https://dc.lft.to/lastmile_qr_scan"}, "fusion_lat": 0.0, "lat": 38.91489, "is_disabled": 0, "lon": -77.01454766666667, "is_reserved": 0}, {"bike_id": "87b9b872a86451cb6ce949e73db0549d", "fusion_lon": 0.0, "type": "electric_scooter", "name": "87b9b872a86451cb6ce949e73db0549d", "rental_uris": {"android": "https://dc.lft.to/lastmile_qr_scan", "ios": "https://dc.lft.to/lastmile_qr_scan"}, "fusion_lat": 0.0, "lat": 38.933204, "is_disabled": 0, "lon": -76.99102866666667, "is_reserved": 0}, {"bike_id": "070c7cafa0a2c9b9a4a89f1c1a9d65f5", "fusion_lon": 0.0, "type": "electric_scooter", "name": "070c7cafa0a2c9b9a4a89f1c1a9d65f5", "rental_uris": {"android": "https://dc.lft.to/lastmile_qr_scan", "ios": "https://dc.lft.to/lastmile_qr_scan"}, "fusion_lat": 0.0, "lat": 38.934903, "is_disabled": 0, "lon": -77.02421283333334, "is_reserved": 0}, {"bike_id": "54d96a410fe9cfbc1a69b7c128fd21ad", "fusion_lon": 0.0, "type": "electric_scooter", "name": "54d96a410fe9cfbc1a69b7c128fd21ad", "rental_uris": {"android": "https://dc.lft.to/lastmile_qr_scan", "ios": "https://dc.lft.to/lastmile_qr_scan"}, "fusion_lat": 0.0, "lat": 38.91482216666667, "is_disabled": 0, "lon": -77.01323916666666, "is_reserved": 0}, {"bike_id": "4fe1aabf51b621336b9ded59751acced", "fusion_lon": 0.0, "type": "electric_bike", "name": "4fe1aabf51b621336b9ded59751acced", "rental_uris": {"android": "https://dc.lft.to/lastmile_qr_scan", "ios": "https://dc.lft.to/lastmile_qr_scan"}, "fusion_lat": 0.0, "lat": 38.83942566666666, "is_disabled": 0, "lon": -77.07903966666667, "is_reserved": 0}, {"bike_id": "7818b76d415e60fd2530fc67cfdf24f3", "fusion_lon": 0.0, "type": "electric_scooter", "name": "7818b76d415e60fd2530fc67cfdf24f3", "rental_uris": {"android": "https://dc.lft.to/lastmile_qr_scan", "ios": "https://dc.lft.to/lastmile_qr_scan"}, "fusion_lat": 0.0, "lat": 38.86948316666667, "is_disabled": 0, "lon": -77.00859766666666, "is_reserved": 0}, {"bike_id": "a60cd0b09cd2162e0f0b13b6b0afd39a", "fusion_lon": 0.0, "type": "electric_scooter", "name": "a60cd0b09cd2162e0f0b13b6b0afd39a", "rental_uris": {"android": "https://dc.lft.to/lastmile_qr_scan", "ios": "https://dc.lft.to/lastmile_qr_scan"}, "fusion_lat": 0.0, "lat": 38.90505433333333, "is_disabled": 0, "lon": -77.0295765, "is_reserved": 0}, {"bike_id": "d8e749b9897d09dd2fe207edbcc99c06", "fusion_lon": 0.0, "type": "electric_scooter", "name": "d8e749b9897d09dd2fe207edbcc99c06", "rental_uris": {"android": "https://dc.lft.to/lastmile_qr_scan", "ios": "https://dc.lft.to/lastmile_qr_scan"}, "fusion_lat": 0.0, "lat": 38.914180333333334, "is_disabled": 0, "lon": -77.03160633333333, "is_reserved": 0}, {"bike_id": "0b353133aaba111c97baf0472bfcba0c", "fusion_lon": 0.0, "type": "electric_scooter", "name": "0b353133aaba111c97baf0472bfcba0c", "rental_uris": {"android": "https://dc.lft.to/lastmile_qr_scan", "ios": "https://dc.lft.to/lastmile_qr_scan"}, "fusion_lat": 0.0, "lat": 38.91479266666666, "is_disabled": 0, "lon": -77.03833366666667, "is_reserved": 0}, {"bike_id": "733d7f5dfe941c6bd701e6a40f90ecd4", "fusion_lon": 0.0, "type": "electric_scooter", "name": "733d7f5dfe941c6bd701e6a40f90ecd4", "rental_uris": {"android": "https://dc.lft.to/lastmile_qr_scan", "ios": "https://dc.lft.to/lastmile_qr_scan"}, "fusion_lat": 0.0, "lat": 38.887374333333334, "is_disabled": 0, "lon": -77.01531666666666, "is_reserved": 0}, {"bike_id": "c3cb78d182a1d73568e29b339c95a45e", "fusion_lon": 0.0, "type": "electric_bike", "name": "c3cb78d182a1d73568e29b339c95a45e", "rental_uris": {"android": "https://dc.lft.to/lastmile_qr_scan", "ios": "https://dc.lft.to/lastmile_qr_scan"}, "fusion_lat": 0.0, "lat": 38.8133395, "is_disabled": 0, "lon": -77.05088016666667, "is_reserved": 0}, {"bike_id": "7c4eb943e1178f5c36c3763573080d7a", "fusion_lon": 0.0, "type": "electric_bike", "name": "7c4eb943e1178f5c36c3763573080d7a", "rental_uris": {"android": "https://dc.lft.to/lastmile_qr_scan", "ios": "https://dc.lft.to/lastmile_qr_scan"}, "fusion_lat": 0.0, "lat": 38.84307533333333, "is_disabled": 0, "lon": -77.11431833333333, "is_reserved": 0}, {"bike_id": "1b93e5c4df7ae99257137cc80732d0be", "fusion_lon": 0.0, "type": "electric_scooter", "name": "1b93e5c4df7ae99257137cc80732d0be", "rental_uris": {"android": "https://dc.lft.to/lastmile_qr_scan", "ios": "https://dc.lft.to/lastmile_qr_scan"}, "fusion_lat": 0.0, "lat": 38.91622366666667, "is_disabled": 0, "lon": -77.02808333333333, "is_reserved": 0}, {"bike_id": "c6ef39b8d9fa20ccc99819ba2fd1d401", "fusion_lon": 0.0, "type": "electric_scooter", "name": "c6ef39b8d9fa20ccc99819ba2fd1d401", "rental_uris": {"android": "https://dc.lft.to/lastmile_qr_scan", "ios": "https://dc.lft.to/lastmile_qr_scan"}, "fusion_lat": 0.0, "lat": 38.88452266666667, "is_disabled": 0, "lon": -77.02898216666667, "is_reserved": 0}, {"bike_id": "a95e66c8aa54c3de8eeabcd9a81652a0", "fusion_lon": 0.0, "type": "electric_scooter", "name": "a95e66c8aa54c3de8eeabcd9a81652a0", "rental_uris": {"android": "https://dc.lft.to/lastmile_qr_scan", "ios": "https://dc.lft.to/lastmile_qr_scan"}, "fusion_lat": 0.0, "lat": 38.92827166666667, "is_disabled": 0, "lon": -77.02160066666667, "is_reserved": 0}, {"bike_id": "59c4956ac23fce52acf25deaf8176ae2", "fusion_lon": 0.0, "type": "electric_scooter", "name": "59c4956ac23fce52acf25deaf8176ae2", "rental_uris": {"android": "https://dc.lft.to/lastmile_qr_scan", "ios": "https://dc.lft.to/lastmile_qr_scan"}, "fusion_lat": 0.0, "lat": 38.888685833333334, "is_disabled": 0, "lon": -76.9959885, "is_reserved": 0}, {"bike_id": "0608536aea9d521449f8a6cbed4c3809", "fusion_lon": 0.0, "type": "electric_bike", "name": "0608536aea9d521449f8a6cbed4c3809", "rental_uris": {"android": "https://dc.lft.to/lastmile_qr_scan", "ios": "https://dc.lft.to/lastmile_qr_scan"}, "fusion_lat": 0.0, "lat": 38.928525666666665, "is_disabled": 0, "lon": -77.105073, "is_reserved": 0}, {"bike_id": "e327ad757f98276d5949c92fb1b38d8b", "fusion_lon": 0.0, "type": "electric_scooter", "name": "e327ad757f98276d5949c92fb1b38d8b", "rental_uris": {"android": "https://dc.lft.to/lastmile_qr_scan", "ios": "https://dc.lft.to/lastmile_qr_scan"}, "fusion_lat": 0.0, "lat": 38.94295366666667, "is_disabled": 0, "lon": -77.0276305, "is_reserved": 0}, {"bike_id": "7ca1b1dab665ad6c665da74d4a3d6ea5", "fusion_lon": 0.0, "type": "electric_bike", "name": "7ca1b1dab665ad6c665da74d4a3d6ea5", "rental_uris": {"android": "https://dc.lft.to/lastmile_qr_scan", "ios": "https://dc.lft.to/lastmile_qr_scan"}, "fusion_lat": 0.0, "lat": 38.91181316666667, "is_disabled": 0, "lon": -77.00202266666666, "is_reserved": 0}, {"bike_id": "15d9fd52bcb7eca917a3ac1d20710f79", "fusion_lon": 0.0, "type": "electric_scooter", "name": "15d9fd52bcb7eca917a3ac1d20710f79", "rental_uris": {"android": "https://dc.lft.to/lastmile_qr_scan", "ios": "https://dc.lft.to/lastmile_qr_scan"}, "fusion_lat": 0.0, "lat": 38.91779733333333, "is_disabled": 0, "lon": -77.04247983333333, "is_reserved": 0}, {"bike_id": "1ede7e9768dca759a726346d3abde76d", "fusion_lon": 0.0, "type": "electric_scooter", "name": "1ede7e9768dca759a726346d3abde76d", "rental_uris": {"android": "https://dc.lft.to/lastmile_qr_scan", "ios": "https://dc.lft.to/lastmile_qr_scan"}, "fusion_lat": 0.0, "lat": 38.859706333333335, "is_disabled": 0, "lon": -76.98404683333334, "is_reserved": 0}, {"bike_id": "fdc5177015a0ec0b7102d35f703ca645", "fusion_lon": 0.0, "type": "electric_scooter", "name": "fdc5177015a0ec0b7102d35f703ca645", "rental_uris": {"android": "https://dc.lft.to/lastmile_qr_scan", "ios": "https://dc.lft.to/lastmile_qr_scan"}, "fusion_lat": 0.0, "lat": 38.907888166666666, "is_disabled": 0, "lon": -77.04506083333334, "is_reserved": 0}, {"bike_id": "896d2858c793cce86646a43548f61314", "fusion_lon": 0.0, "type": "electric_bike", "name": "896d2858c793cce86646a43548f61314", "rental_uris": {"android": "https://dc.lft.to/lastmile_qr_scan", "ios": "https://dc.lft.to/lastmile_qr_scan"}, "fusion_lat": 0.0, "lat": 38.8410915, "is_disabled": 0, "lon": -77.08939233333334, "is_reserved": 0}, {"bike_id": "efc05243d6374a8d237d368e912b8244", "fusion_lon": 0.0, "type": "electric_scooter", "name": "efc05243d6374a8d237d368e912b8244", "rental_uris": {"android": "https://dc.lft.to/lastmile_qr_scan", "ios": "https://dc.lft.to/lastmile_qr_scan"}, "fusion_lat": 0.0, "lat": 38.899345833333335, "is_disabled": 0, "lon": -77.0553875, "is_reserved": 0}, {"bike_id": "74ee5e9db80b4e55d1387793510a281d", "fusion_lon": 0.0, "type": "electric_scooter", "name": "74ee5e9db80b4e55d1387793510a281d", "rental_uris": {"android": "https://dc.lft.to/lastmile_qr_scan", "ios": "https://dc.lft.to/lastmile_qr_scan"}, "fusion_lat": 0.0, "lat": 38.90014633333333, "is_disabled": 0, "lon": -77.03090483333334, "is_reserved": 0}, {"bike_id": "2ed76442547782f5a5eeef6f4d891fc4", "fusion_lon": 0.0, "type": "electric_scooter", "name": "2ed76442547782f5a5eeef6f4d891fc4", "rental_uris": {"android": "https://dc.lft.to/lastmile_qr_scan", "ios": "https://dc.lft.to/lastmile_qr_scan"}, "fusion_lat": 0.0, "lat": 38.9366785, "is_disabled": 0, "lon": -77.05935933333333, "is_reserved": 0}, {"bike_id": "c739e1143a1a79de4ce8b134a06fa560", "fusion_lon": 0.0, "type": "electric_scooter", "name": "c739e1143a1a79de4ce8b134a06fa560", "rental_uris": {"android": "https://dc.lft.to/lastmile_qr_scan", "ios": "https://dc.lft.to/lastmile_qr_scan"}, "fusion_lat": 0.0, "lat": 38.90015866666667, "is_disabled": 0, "lon": -77.0448705, "is_reserved": 0}, {"bike_id": "ad0e9519c6ba7fdbb801bb92393f8c14", "fusion_lon": 0.0, "type": "electric_scooter", "name": "ad0e9519c6ba7fdbb801bb92393f8c14", "rental_uris": {"android": "https://dc.lft.to/lastmile_qr_scan", "ios": "https://dc.lft.to/lastmile_qr_scan"}, "fusion_lat": 0.0, "lat": 38.88746166666667, "is_disabled": 0, "lon": -77.0282715, "is_reserved": 0}, {"bike_id": "84f1646ae433ec7da0c195511bc78c6c", "fusion_lon": 0.0, "type": "electric_bike", "name": "84f1646ae433ec7da0c195511bc78c6c", "rental_uris": {"android": "https://dc.lft.to/lastmile_qr_scan", "ios": "https://dc.lft.to/lastmile_qr_scan"}, "fusion_lat": 0.0, "lat": 38.89648566666666, "is_disabled": 0, "lon": -76.9478385, "is_reserved": 0}, {"bike_id": "6d7df7b91c64f868eb33349bedd5f638", "fusion_lon": 0.0, "type": "electric_scooter", "name": "6d7df7b91c64f868eb33349bedd5f638", "rental_uris": {"android": "https://dc.lft.to/lastmile_qr_scan", "ios": "https://dc.lft.to/lastmile_qr_scan"}, "fusion_lat": 0.0, "lat": 38.892409, "is_disabled": 0, "lon": -77.03185316666666, "is_reserved": 0}, {"bike_id": "74143fbbf222bb474d8d034a7c54df07", "fusion_lon": 0.0, "type": "electric_scooter", "name": "74143fbbf222bb474d8d034a7c54df07", "rental_uris": {"android": "https://dc.lft.to/lastmile_qr_scan", "ios": "https://dc.lft.to/lastmile_qr_scan"}, "fusion_lat": 0.0, "lat": 38.894825, "is_disabled": 0, "lon": -77.04539333333334, "is_reserved": 0}, {"bike_id": "52db12f1e22a188199127d90ff9f3719", "fusion_lon": 0.0, "type": "electric_scooter", "name": "52db12f1e22a188199127d90ff9f3719", "rental_uris": {"android": "https://dc.lft.to/lastmile_qr_scan", "ios": "https://dc.lft.to/lastmile_qr_scan"}, "fusion_lat": 0.0, "lat": 38.937458666666664, "is_disabled": 0, "lon": -77.0349465, "is_reserved": 0}, {"bike_id": "3b96cbce9f04216970ddd1abc2d41c2c", "fusion_lon": 0.0, "type": "electric_bike", "name": "3b96cbce9f04216970ddd1abc2d41c2c", "rental_uris": {"android": "https://dc.lft.to/lastmile_qr_scan", "ios": "https://dc.lft.to/lastmile_qr_scan"}, "fusion_lat": 0.0, "lat": 38.925815166666666, "is_disabled": 0, "lon": -76.9861005, "is_reserved": 0}, {"bike_id": "c6497e2283a61c77c32e597fc6a5010e", "fusion_lon": 0.0, "type": "electric_scooter", "name": "c6497e2283a61c77c32e597fc6a5010e", "rental_uris": {"android": "https://dc.lft.to/lastmile_qr_scan", "ios": "https://dc.lft.to/lastmile_qr_scan"}, "fusion_lat": 0.0, "lat": 38.89840316666667, "is_disabled": 0, "lon": -77.0332315, "is_reserved": 0}, {"bike_id": "e5d29f320aa651c94b2eaf1d1d60a1cc", "fusion_lon": 0.0, "type": "electric_scooter", "name": "e5d29f320aa651c94b2eaf1d1d60a1cc", "rental_uris": {"android": "https://dc.lft.to/lastmile_qr_scan", "ios": "https://dc.lft.to/lastmile_qr_scan"}, "fusion_lat": 0.0, "lat": 38.908711, "is_disabled": 0, "lon": -76.99952283333333, "is_reserved": 0}, {"bike_id": "97f9121d35167575defe3c96e568ab81", "fusion_lon": 0.0, "type": "electric_scooter", "name": "97f9121d35167575defe3c96e568ab81", "rental_uris": {"android": "https://dc.lft.to/lastmile_qr_scan", "ios": "https://dc.lft.to/lastmile_qr_scan"}, "fusion_lat": 0.0, "lat": 38.842941833333335, "is_disabled": 0, "lon": -76.99083816666666, "is_reserved": 0}, {"bike_id": "833c46156e9453625793fc5c6aafbe50", "fusion_lon": 0.0, "type": "electric_scooter", "name": "833c46156e9453625793fc5c6aafbe50", "rental_uris": {"android": "https://dc.lft.to/lastmile_qr_scan", "ios": "https://dc.lft.to/lastmile_qr_scan"}, "fusion_lat": 0.0, "lat": 38.93916933333333, "is_disabled": 0, "lon": -77.018996, "is_reserved": 0}, {"bike_id": "053ef8c0d3631ab3a782cdc7a521af53", "fusion_lon": 0.0, "type": "electric_scooter", "name": "053ef8c0d3631ab3a782cdc7a521af53", "rental_uris": {"android": "https://dc.lft.to/lastmile_qr_scan", "ios": "https://dc.lft.to/lastmile_qr_scan"}, "fusion_lat": 0.0, "lat": 38.916866, "is_disabled": 0, "lon": -77.02980033333333, "is_reserved": 0}, {"bike_id": "167b5c27ac2c74bb190c6196e76b3969", "fusion_lon": 0.0, "type": "electric_scooter", "name": "167b5c27ac2c74bb190c6196e76b3969", "rental_uris": {"android": "https://dc.lft.to/lastmile_qr_scan", "ios": "https://dc.lft.to/lastmile_qr_scan"}, "fusion_lat": 0.0, "lat": 38.920348833333335, "is_disabled": 0, "lon": -76.97021, "is_reserved": 0}, {"bike_id": "44c875a7f912ab72c55cc352b884f478", "fusion_lon": 0.0, "type": "electric_scooter", "name": "44c875a7f912ab72c55cc352b884f478", "rental_uris": {"android": "https://dc.lft.to/lastmile_qr_scan", "ios": "https://dc.lft.to/lastmile_qr_scan"}, "fusion_lat": 0.0, "lat": 38.907079833333334, "is_disabled": 0, "lon": -76.98697966666667, "is_reserved": 0}, {"bike_id": "2c554f7190af5550e40b2525283e1783", "fusion_lon": 0.0, "type": "electric_scooter", "name": "2c554f7190af5550e40b2525283e1783", "rental_uris": {"android": "https://dc.lft.to/lastmile_qr_scan", "ios": "https://dc.lft.to/lastmile_qr_scan"}, "fusion_lat": 0.0, "lat": 38.9223355, "is_disabled": 0, "lon": -77.03754283333333, "is_reserved": 0}, {"bike_id": "8f79cf2d4baa7c9ee2ffc9737a8bf13c", "fusion_lon": 0.0, "type": "electric_scooter", "name": "8f79cf2d4baa7c9ee2ffc9737a8bf13c", "rental_uris": {"android": "https://dc.lft.to/lastmile_qr_scan", "ios": "https://dc.lft.to/lastmile_qr_scan"}, "fusion_lat": 0.0, "lat": 38.900067, "is_disabled": 0, "lon": -77.00200683333334, "is_reserved": 0}, {"bike_id": "4447c4732ff72ca43f50482d0fa3a92c", "fusion_lon": 0.0, "type": "electric_scooter", "name": "4447c4732ff72ca43f50482d0fa3a92c", "rental_uris": {"android": "https://dc.lft.to/lastmile_qr_scan", "ios": "https://dc.lft.to/lastmile_qr_scan"}, "fusion_lat": 0.0, "lat": 38.87649833333333, "is_disabled": 0, "lon": -77.00325183333334, "is_reserved": 0}, {"bike_id": "f4ce3f45b2e0a8956851a8fb870cd8ff", "fusion_lon": 0.0, "type": "electric_scooter", "name": "f4ce3f45b2e0a8956851a8fb870cd8ff", "rental_uris": {"android": "https://dc.lft.to/lastmile_qr_scan", "ios": "https://dc.lft.to/lastmile_qr_scan"}, "fusion_lat": 0.0, "lat": 38.917171, "is_disabled": 0, "lon": -77.03209433333333, "is_reserved": 0}, {"bike_id": "fafc2700db330b1b1e56063a53eae80b", "fusion_lon": 0.0, "type": "electric_scooter", "name": "fafc2700db330b1b1e56063a53eae80b", "rental_uris": {"android": "https://dc.lft.to/lastmile_qr_scan", "ios": "https://dc.lft.to/lastmile_qr_scan"}, "fusion_lat": 0.0, "lat": 38.917904, "is_disabled": 0, "lon": -76.973288, "is_reserved": 0}, {"bike_id": "294c5702f1b2db298aa8f80e49871ecd", "fusion_lon": 0.0, "type": "electric_bike", "name": "294c5702f1b2db298aa8f80e49871ecd", "rental_uris": {"android": "https://dc.lft.to/lastmile_qr_scan", "ios": "https://dc.lft.to/lastmile_qr_scan"}, "fusion_lat": 0.0, "lat": 38.999711166666664, "is_disabled": 0, "lon": -77.05116333333334, "is_reserved": 0}, {"bike_id": "c5b66dc041b9d5787776e50cf922093b", "fusion_lon": 0.0, "type": "electric_bike", "name": "c5b66dc041b9d5787776e50cf922093b", "rental_uris": {"android": "https://dc.lft.to/lastmile_qr_scan", "ios": "https://dc.lft.to/lastmile_qr_scan"}, "fusion_lat": 0.0, "lat": 39.115198, "is_disabled": 0, "lon": -77.1954155, "is_reserved": 0}, {"bike_id": "01869a77e13f26c142d0ae08a0097d16", "fusion_lon": 0.0, "type": "electric_scooter", "name": "01869a77e13f26c142d0ae08a0097d16", "rental_uris": {"android": "https://dc.lft.to/lastmile_qr_scan", "ios": "https://dc.lft.to/lastmile_qr_scan"}, "fusion_lat": 0.0, "lat": 38.883222, "is_disabled": 0, "lon": -76.94944366666667, "is_reserved": 0}, {"bike_id": "637aa15a9281fb9736326423c398f2c4", "fusion_lon": 0.0, "type": "electric_scooter", "name": "637aa15a9281fb9736326423c398f2c4", "rental_uris": {"android": "https://dc.lft.to/lastmile_qr_scan", "ios": "https://dc.lft.to/lastmile_qr_scan"}, "fusion_lat": 0.0, "lat": 38.956546833333334, "is_disabled": 0, "lon": -77.032893, "is_reserved": 0}, {"bike_id": "ec71b853e7f97df7d48b56a1521ea489", "fusion_lon": 0.0, "type": "electric_bike", "name": "ec71b853e7f97df7d48b56a1521ea489", "rental_uris": {"android": "https://dc.lft.to/lastmile_qr_scan", "ios": "https://dc.lft.to/lastmile_qr_scan"}, "fusion_lat": 0.0, "lat": 38.837383, "is_disabled": 0, "lon": -77.09548466666666, "is_reserved": 0}, {"bike_id": "638bf77d39a6080826a21b441d30acc6", "fusion_lon": 0.0, "type": "electric_scooter", "name": "638bf77d39a6080826a21b441d30acc6", "rental_uris": {"android": "https://dc.lft.to/lastmile_qr_scan", "ios": "https://dc.lft.to/lastmile_qr_scan"}, "fusion_lat": 0.0, "lat": 38.844277166666664, "is_disabled": 0, "lon": -76.99775733333334, "is_reserved": 0}, {"bike_id": "26dcab265d88e8cddb90a66af8fed463", "fusion_lon": 0.0, "type": "electric_scooter", "name": "26dcab265d88e8cddb90a66af8fed463", "rental_uris": {"android": "https://dc.lft.to/lastmile_qr_scan", "ios": "https://dc.lft.to/lastmile_qr_scan"}, "fusion_lat": 0.0, "lat": 38.908758666666664, "is_disabled": 0, "lon": -77.0238885, "is_reserved": 0}, {"bike_id": "3b564fef28d9632043dac724337d528d", "fusion_lon": 0.0, "type": "electric_scooter", "name": "3b564fef28d9632043dac724337d528d", "rental_uris": {"android": "https://dc.lft.to/lastmile_qr_scan", "ios": "https://dc.lft.to/lastmile_qr_scan"}, "fusion_lat": 0.0, "lat": 38.89640466666667, "is_disabled": 0, "lon": -76.94772683333333, "is_reserved": 0}, {"bike_id": "ea7c550d4e3f9c0e87d0b16cb92ec131", "fusion_lon": 0.0, "type": "electric_scooter", "name": "ea7c550d4e3f9c0e87d0b16cb92ec131", "rental_uris": {"android": "https://dc.lft.to/lastmile_qr_scan", "ios": "https://dc.lft.to/lastmile_qr_scan"}, "fusion_lat": 0.0, "lat": 38.90729916666667, "is_disabled": 0, "lon": -77.04285116666667, "is_reserved": 0}, {"bike_id": "e78ab4312a64bd21ebd301a03c5c4023", "fusion_lon": 0.0, "type": "electric_scooter", "name": "e78ab4312a64bd21ebd301a03c5c4023", "rental_uris": {"android": "https://dc.lft.to/lastmile_qr_scan", "ios": "https://dc.lft.to/lastmile_qr_scan"}, "fusion_lat": 0.0, "lat": 38.90677766666667, "is_disabled": 0, "lon": -77.02704633333333, "is_reserved": 0}, {"bike_id": "c09bb2e905fd956650aff884127056aa", "fusion_lon": 0.0, "type": "electric_bike", "name": "c09bb2e905fd956650aff884127056aa", "rental_uris": {"android": "https://dc.lft.to/lastmile_qr_scan", "ios": "https://dc.lft.to/lastmile_qr_scan"}, "fusion_lat": 0.0, "lat": 38.836145, "is_disabled": 0, "lon": -77.00369433333333, "is_reserved": 0}, {"bike_id": "3599560c427b12c0c98e3b0feceb647b", "fusion_lon": 0.0, "type": "electric_bike", "name": "3599560c427b12c0c98e3b0feceb647b", "rental_uris": {"android": "https://dc.lft.to/lastmile_qr_scan", "ios": "https://dc.lft.to/lastmile_qr_scan"}, "fusion_lat": 0.0, "lat": 38.975916833333336, "is_disabled": 0, "lon": -77.03510966666667, "is_reserved": 0}, {"bike_id": "2c5cf7f68695050aee285a0fdbd5d900", "fusion_lon": 0.0, "type": "electric_scooter", "name": "2c5cf7f68695050aee285a0fdbd5d900", "rental_uris": {"android": "https://dc.lft.to/lastmile_qr_scan", "ios": "https://dc.lft.to/lastmile_qr_scan"}, "fusion_lat": 0.0, "lat": 38.893455, "is_disabled": 0, "lon": -77.01160816666666, "is_reserved": 0}, {"bike_id": "12b547842e2d69153c425f4872ac693a", "fusion_lon": 0.0, "type": "electric_scooter", "name": "12b547842e2d69153c425f4872ac693a", "rental_uris": {"android": "https://dc.lft.to/lastmile_qr_scan", "ios": "https://dc.lft.to/lastmile_qr_scan"}, "fusion_lat": 0.0, "lat": 38.91841733333333, "is_disabled": 0, "lon": -76.9655595, "is_reserved": 0}, {"bike_id": "e3eebdb0b2e5e7f503e2e2a4af830ea9", "fusion_lon": 0.0, "type": "electric_scooter", "name": "e3eebdb0b2e5e7f503e2e2a4af830ea9", "rental_uris": {"android": "https://dc.lft.to/lastmile_qr_scan", "ios": "https://dc.lft.to/lastmile_qr_scan"}, "fusion_lat": 0.0, "lat": 38.926206, "is_disabled": 0, "lon": -77.021611, "is_reserved": 0}, {"bike_id": "e3d90df838330d0db5fb70cf6d07e2d0", "fusion_lon": 0.0, "type": "electric_scooter", "name": "e3d90df838330d0db5fb70cf6d07e2d0", "rental_uris": {"android": "https://dc.lft.to/lastmile_qr_scan", "ios": "https://dc.lft.to/lastmile_qr_scan"}, "fusion_lat": 0.0, "lat": 38.897449, "is_disabled": 0, "lon": -77.01309216666667, "is_reserved": 0}, {"bike_id": "745cb8e12539ebf24d56b8b8413bd6fd", "fusion_lon": 0.0, "type": "electric_scooter", "name": "745cb8e12539ebf24d56b8b8413bd6fd", "rental_uris": {"android": "https://dc.lft.to/lastmile_qr_scan", "ios": "https://dc.lft.to/lastmile_qr_scan"}, "fusion_lat": 0.0, "lat": 38.90873083333334, "is_disabled": 0, "lon": -76.9995405, "is_reserved": 0}, {"bike_id": "aca9ae27aa1468d5c28e73f444e7cc88", "fusion_lon": 0.0, "type": "electric_scooter", "name": "aca9ae27aa1468d5c28e73f444e7cc88", "rental_uris": {"android": "https://dc.lft.to/lastmile_qr_scan", "ios": "https://dc.lft.to/lastmile_qr_scan"}, "fusion_lat": 0.0, "lat": 38.958364, "is_disabled": 0, "lon": -77.0716695, "is_reserved": 0}, {"bike_id": "838684b7e69d92da37ca0d12b5cb2e8d", "fusion_lon": 0.0, "type": "electric_scooter", "name": "838684b7e69d92da37ca0d12b5cb2e8d", "rental_uris": {"android": "https://dc.lft.to/lastmile_qr_scan", "ios": "https://dc.lft.to/lastmile_qr_scan"}, "fusion_lat": 0.0, "lat": 38.867058666666665, "is_disabled": 0, "lon": -76.987081, "is_reserved": 0}, {"bike_id": "0acf0b3baf6d3c6165e740316a8bcfc2", "fusion_lon": 0.0, "type": "electric_scooter", "name": "0acf0b3baf6d3c6165e740316a8bcfc2", "rental_uris": {"android": "https://dc.lft.to/lastmile_qr_scan", "ios": "https://dc.lft.to/lastmile_qr_scan"}, "fusion_lat": 0.0, "lat": 38.927694, "is_disabled": 0, "lon": -77.02299833333333, "is_reserved": 0}, {"bike_id": "ed2b06d97ab721d27f15925066e666ec", "fusion_lon": 0.0, "type": "electric_scooter", "name": "ed2b06d97ab721d27f15925066e666ec", "rental_uris": {"android": "https://dc.lft.to/lastmile_qr_scan", "ios": "https://dc.lft.to/lastmile_qr_scan"}, "fusion_lat": 0.0, "lat": 38.880307, "is_disabled": 0, "lon": -77.02189633333333, "is_reserved": 0}, {"bike_id": "50e547d82d492166d205123d4176251e", "fusion_lon": 0.0, "type": "electric_bike", "name": "50e547d82d492166d205123d4176251e", "rental_uris": {"android": "https://dc.lft.to/lastmile_qr_scan", "ios": "https://dc.lft.to/lastmile_qr_scan"}, "fusion_lat": 0.0, "lat": 39.0242525, "is_disabled": 0, "lon": -77.125011, "is_reserved": 0}, {"bike_id": "22adaab06751eee281e9d90dedacb4ea", "fusion_lon": 0.0, "type": "electric_scooter", "name": "22adaab06751eee281e9d90dedacb4ea", "rental_uris": {"android": "https://dc.lft.to/lastmile_qr_scan", "ios": "https://dc.lft.to/lastmile_qr_scan"}, "fusion_lat": 0.0, "lat": 38.905179333333336, "is_disabled": 0, "lon": -77.00159333333333, "is_reserved": 0}, {"bike_id": "0283e2d949ebc09fc286e76ccc22162b", "fusion_lon": 0.0, "type": "electric_scooter", "name": "0283e2d949ebc09fc286e76ccc22162b", "rental_uris": {"android": "https://dc.lft.to/lastmile_qr_scan", "ios": "https://dc.lft.to/lastmile_qr_scan"}, "fusion_lat": 0.0, "lat": 38.9571295, "is_disabled": 0, "lon": -77.02401083333334, "is_reserved": 0}, {"bike_id": "a8ba8aba7137ab5a62c4b9f1d893ec44", "fusion_lon": 0.0, "type": "electric_scooter", "name": "a8ba8aba7137ab5a62c4b9f1d893ec44", "rental_uris": {"android": "https://dc.lft.to/lastmile_qr_scan", "ios": "https://dc.lft.to/lastmile_qr_scan"}, "fusion_lat": 0.0, "lat": 38.86358516666667, "is_disabled": 0, "lon": -76.99093316666666, "is_reserved": 0}, {"bike_id": "f840ff47b9a9d5e06956744044fa50f3", "fusion_lon": 0.0, "type": "electric_scooter", "name": "f840ff47b9a9d5e06956744044fa50f3", "rental_uris": {"android": "https://dc.lft.to/lastmile_qr_scan", "ios": "https://dc.lft.to/lastmile_qr_scan"}, "fusion_lat": 0.0, "lat": 38.887467, "is_disabled": 0, "lon": -77.028275, "is_reserved": 0}, {"bike_id": "3a9997edc123b9970aa54c5b2d2e8df0", "fusion_lon": 0.0, "type": "electric_scooter", "name": "3a9997edc123b9970aa54c5b2d2e8df0", "rental_uris": {"android": "https://dc.lft.to/lastmile_qr_scan", "ios": "https://dc.lft.to/lastmile_qr_scan"}, "fusion_lat": 0.0, "lat": 38.9398705, "is_disabled": 0, "lon": -77.02705483333334, "is_reserved": 0}, {"bike_id": "b427c911f6ff1ebd66448dd1aaeedb5c", "fusion_lon": 0.0, "type": "electric_bike", "name": "b427c911f6ff1ebd66448dd1aaeedb5c", "rental_uris": {"android": "https://dc.lft.to/lastmile_qr_scan", "ios": "https://dc.lft.to/lastmile_qr_scan"},