{"data": {"bikes": [{"lon": -77.05028833333333, "is_disabled": 0, "lat": 38.92363683333333, "fusion_lat": 0.0, "is_reserved": 0, "rental_uris": {"ios": "https://dc.lft.to/lastmile_qr_scan", "android": "https://dc.lft.to/lastmile_qr_scan"}, "fusion_lon": 0.0, "type": "electric_scooter", "bike_id": "1327611c2cdc9dfe48e4539ec8f98e2d", "name": "1327611c2cdc9dfe48e4539ec8f98e2d"}, {"lon": -76.98149333333333, "is_disabled": 0, "lat": 38.905672833333334, "fusion_lat": 0.0, "is_reserved": 0, "rental_uris": {"ios": "https://dc.lft.to/lastmile_qr_scan", "android": "https://dc.lft.to/lastmile_qr_scan"}, "fusion_lon": 0.0, "type": "electric_scooter", "bike_id": "839e0c0da69093450462206db48296d3", "name": "839e0c0da69093450462206db48296d3"}, {"lon": -77.02458666666666, "is_disabled": 0, "lat": 38.931057833333334, "fusion_lat": 0.0, "is_reserved": 0, "rental_uris": {"ios": "https://dc.lft.to/lastmile_qr_scan", "android": "https://dc.lft.to/lastmile_qr_scan"}, "fusion_lon": 0.0, "type": "electric_scooter", "bike_id": "694103e53ef52689779dcedc0469e4d7", "name": "694103e53ef52689779dcedc0469e4d7"}, {"lon": -77.01213716666666, "is_disabled": 0, "lat": 38.9197685, "fusion_lat": 0.0, "is_reserved": 0, "rental_uris": {"ios": "https://dc.lft.to/lastmile_qr_scan", "android": "https://dc.lft.to/lastmile_qr_scan"}, "fusion_lon": 0.0, "type": "electric_scooter", "bike_id": "6699a266b3cd53e50db0eb3918b34c41", "name": "6699a266b3cd53e50db0eb3918b34c41"}, {"lon": -77.0218055, "is_disabled": 0, "lat": 38.901855833333336, "fusion_lat": 0.0, "is_reserved": 0, "rental_uris": {"ios": "https://dc.lft.to/lastmile_qr_scan", "android": "https://dc.lft.to/lastmile_qr_scan"}, "fusion_lon": 0.0, "type": "electric_scooter", "bike_id": "059dddac3fd97d8f2341ea6d53712162", "name": "059dddac3fd97d8f2341ea6d53712162"}, {"lon": -77.04213516666667, "is_disabled": 0, "lat": 38.92319883333333, "fusion_lat": 0.0, "is_reserved": 0, "rental_uris": {"ios": "https://dc.lft.to/lastmile_qr_scan", "android": "https://dc.lft.to/lastmile_qr_scan"}, "fusion_lon": 0.0, "type": "electric_scooter", "bike_id": "75fadf8ac3c83b02f6335b43ae612831", "name": "75fadf8ac3c83b02f6335b43ae612831"}, {"lon": -77.0410225, "is_disabled": 0, "lat": 38.905218, "fusion_lat": 0.0, "is_reserved": 0, "rental_uris": {"ios": "https://dc.lft.to/lastmile_qr_scan", "android": "https://dc.lft.to/lastmile_qr_scan"}, "fusion_lon": 0.0, "type": "electric_scooter", "bike_id": "d99a24e8b2ac67ea5357d0faef500f3c", "name": "d99a24e8b2ac67ea5357d0faef500f3c"}, {"lon": -77.02400233333333, "is_disabled": 0, "lat": 38.9191255, "fusion_lat": 0.0, "is_reserved": 0, "rental_uris": {"ios": "https://dc.lft.to/lastmile_qr_scan", "android": "https://dc.lft.to/lastmile_qr_scan"}, "fusion_lon": 0.0, "type": "electric_scooter", "bike_id": "44c63c9420286716c03e06ff9b48a57f", "name": "44c63c9420286716c03e06ff9b48a57f"}, {"lon": -76.98574916666666, "is_disabled": 0, "lat": 38.866832, "fusion_lat": 0.0, "is_reserved": 0, "rental_uris": {"ios": "https://dc.lft.to/lastmile_qr_scan", "android": "https://dc.lft.to/lastmile_qr_scan"}, "fusion_lon": 0.0, "type": "electric_scooter", "bike_id": "c5bd0679246bae60a3b53a67cb29644c", "name": "c5bd0679246bae60a3b53a67cb29644c"}, {"lon": -77.027133, "is_disabled": 0, "lat": 38.92761983333333, "fusion_lat": 0.0, "is_reserved": 0, "rental_uris": {"ios": "https://dc.lft.to/lastmile_qr_scan", "android": "https://dc.lft.to/lastmile_qr_scan"}, "fusion_lon": 0.0, "type": "electric_scooter", "bike_id": "3bf662bf924dc979b025877c19ee7d6b", "name": "3bf662bf924dc979b025877c19ee7d6b"}, {"lon": -77.06835466666666, "is_disabled": 0, "lat": 38.91731016666667, "fusion_lat": 0.0, "is_reserved": 0, "rental_uris": {"ios": "https://dc.lft.to/lastmile_qr_scan", "android": "https://dc.lft.to/lastmile_qr_scan"}, "fusion_lon": 0.0, "type": "electric_scooter", "bike_id": "5f4282f53f0d8b1423acbec770eda2f3", "name": "5f4282f53f0d8b1423acbec770eda2f3"}, {"lon": -77.04446333333334, "is_disabled": 0, "lat": 38.915488833333335, "fusion_lat": 0.0, "is_reserved": 0, "rental_uris": {"ios": "https://dc.lft.to/lastmile_qr_scan", "android": "https://dc.lft.to/lastmile_qr_scan"}, "fusion_lon": 0.0, "type": "electric_scooter", "bike_id": "c9ce58285c5b3ce4e30d4a7ad8812b18", "name": "c9ce58285c5b3ce4e30d4a7ad8812b18"}, {"lon": -77.01760066666667, "is_disabled": 0, "lat": 38.88389466666667, "fusion_lat": 0.0, "is_reserved": 0, "rental_uris": {"ios": "https://dc.lft.to/lastmile_qr_scan", "android": "https://dc.lft.to/lastmile_qr_scan"}, "fusion_lon": 0.0, "type": "electric_scooter", "bike_id": "4e259bc9687a7737201897ab6a6efb0e", "name": "4e259bc9687a7737201897ab6a6efb0e"}, {"lon": -76.99007966666667, "is_disabled": 0, "lat": 38.865088666666665, "fusion_lat": 0.0, "is_reserved": 0, "rental_uris": {"ios": "https://dc.lft.to/lastmile_qr_scan", "android": "https://dc.lft.to/lastmile_qr_scan"}, "fusion_lon": 0.0, "type": "electric_scooter", "bike_id": "7dfc6bc316d7f78e0e82b1e13441f75d", "name": "7dfc6bc316d7f78e0e82b1e13441f75d"}, {"lon": -77.0394455, "is_disabled": 0, "lat": 38.91412166666667, "fusion_lat": 0.0, "is_reserved": 0, "rental_uris": {"ios": "https://dc.lft.to/lastmile_qr_scan", "android": "https://dc.lft.to/lastmile_qr_scan"}, "fusion_lon": 0.0, "type": "electric_scooter", "bike_id": "bceaca59b122ae196e9ae73176269f8b", "name": "bceaca59b122ae196e9ae73176269f8b"}, {"lon": -77.02376683333334, "is_disabled": 0, "lat": 38.91995816666667, "fusion_lat": 0.0, "is_reserved": 0, "rental_uris": {"ios": "https://dc.lft.to/lastmile_qr_scan", "android": "https://dc.lft.to/lastmile_qr_scan"}, "fusion_lon": 0.0, "type": "electric_scooter", "bike_id": "9ff5f6ffb1aefce9017c8f3fd4560ca8", "name": "9ff5f6ffb1aefce9017c8f3fd4560ca8"}, {"lon": -77.027879, "is_disabled": 0, "lat": 38.92764116666667, "fusion_lat": 0.0, "is_reserved": 0, "rental_uris": {"ios": "https://dc.lft.to/lastmile_qr_scan", "android": "https://dc.lft.to/lastmile_qr_scan"}, "fusion_lon": 0.0, "type": "electric_scooter", "bike_id": "6548beddeb6e09f6d3f9347a68249513", "name": "6548beddeb6e09f6d3f9347a68249513"}, {"lon": -77.02205083333334, "is_disabled": 0, "lat": 38.91033066666667, "fusion_lat": 0.0, "is_reserved": 0, "rental_uris": {"ios": "https://dc.lft.to/lastmile_qr_scan", "android": "https://dc.lft.to/lastmile_qr_scan"}, "fusion_lon": 0.0, "type": "electric_scooter", "bike_id": "f694448a3ef3a9e928f16c380215dbd0", "name": "f694448a3ef3a9e928f16c380215dbd0"}, {"lon": -77.03520783333333, "is_disabled": 0, "lat": 38.9225755, "fusion_lat": 0.0, "is_reserved": 0, "rental_uris": {"ios": "https://dc.lft.to/lastmile_qr_scan", "android": "https://dc.lft.to/lastmile_qr_scan"}, "fusion_lon": 0.0, "type": "electric_scooter", "bike_id": "ea57096b4cf8ff4286958ce03ce9f2ed", "name": "ea57096b4cf8ff4286958ce03ce9f2ed"}, {"lon": -77.024865, "is_disabled": 0, "lat": 38.91887466666667, "fusion_lat": 0.0, "is_reserved": 0, "rental_uris": {"ios": "https://dc.lft.to/lastmile_qr_scan", "android": "https://dc.lft.to/lastmile_qr_scan"}, "fusion_lon": 0.0, "type": "electric_scooter", "bike_id": "53f5ce944ce6a3851ed8faf6c30a5bbb", "name": "53f5ce944ce6a3851ed8faf6c30a5bbb"}, {"lon": -77.05728, "is_disabled": 0, "lat": 38.9336355, "fusion_lat": 0.0, "is_reserved": 0, "rental_uris": {"ios": "https://dc.lft.to/lastmile_qr_scan", "android": "https://dc.lft.to/lastmile_qr_scan"}, "fusion_lon": 0.0, "type": "electric_scooter", "bike_id": "3d58b23b5b81a50648e7a3dc9c019fd4", "name": "3d58b23b5b81a50648e7a3dc9c019fd4"}, {"lon": -77.04864716666667, "is_disabled": 0, "lat": 38.892232166666666, "fusion_lat": 0.0, "is_reserved": 0, "rental_uris": {"ios": "https://dc.lft.to/lastmile_qr_scan", "android": "https://dc.lft.to/lastmile_qr_scan"}, "fusion_lon": 0.0, "type": "electric_scooter", "bike_id": "274843b39c688c18ca16987853d63752", "name": "274843b39c688c18ca16987853d63752"}, {"lon": -77.01946983333333, "is_disabled": 0, "lat": 38.9241985, "fusion_lat": 0.0, "is_reserved": 0, "rental_uris": {"ios": "https://dc.lft.to/lastmile_qr_scan", "android": "https://dc.lft.to/lastmile_qr_scan"}, "fusion_lon": 0.0, "type": "electric_scooter", "bike_id": "e0f857572c4ff61cffa220b95666ff54", "name": "e0f857572c4ff61cffa220b95666ff54"}, {"lon": -77.0273055, "is_disabled": 0, "lat": 38.933586, "fusion_lat": 0.0, "is_reserved": 0, "rental_uris": {"ios": "https://dc.lft.to/lastmile_qr_scan", "android": "https://dc.lft.to/lastmile_qr_scan"}, "fusion_lon": 0.0, "type": "electric_scooter", "bike_id": "c954c9fe78c9135966ea91a45e2151b5", "name": "c954c9fe78c9135966ea91a45e2151b5"}, {"lon": -77.03897266666667, "is_disabled": 0, "lat": 38.92326533333333, "fusion_lat": 0.0, "is_reserved": 0, "rental_uris": {"ios": "https://dc.lft.to/lastmile_qr_scan", "android": "https://dc.lft.to/lastmile_qr_scan"}, "fusion_lon": 0.0, "type": "electric_scooter", "bike_id": "43ea10b3c84a1bd9fcc7ba6e73e0f44c", "name": "43ea10b3c84a1bd9fcc7ba6e73e0f44c"}, {"lon": -77.02713033333333, "is_disabled": 0, "lat": 38.91964883333333, "fusion_lat": 0.0, "is_reserved": 0, "rental_uris": {"ios": "https://dc.lft.to/lastmile_qr_scan", "android": "https://dc.lft.to/lastmile_qr_scan"}, "fusion_lon": 0.0, "type": "electric_scooter", "bike_id": "ef3be59003f9ca0eb648b77d405b617f", "name": "ef3be59003f9ca0eb648b77d405b617f"}, {"lon": -77.035709, "is_disabled": 0, "lat": 38.936809333333336, "fusion_lat": 0.0, "is_reserved": 0, "rental_uris": {"ios": "https://dc.lft.to/lastmile_qr_scan", "android": "https://dc.lft.to/lastmile_qr_scan"}, "fusion_lon": 0.0, "type": "electric_scooter", "bike_id": "da6c974885cf7b2d350789a42b5493e8", "name": "da6c974885cf7b2d350789a42b5493e8"}, {"lon": -77.06446733333334, "is_disabled": 0, "lat": 38.946077833333334, "fusion_lat": 0.0, "is_reserved": 0, "rental_uris": {"ios": "https://dc.lft.to/lastmile_qr_scan", "android": "https://dc.lft.to/lastmile_qr_scan"}, "fusion_lon": 0.0, "type": "electric_scooter", "bike_id": "5a2c3afa656db6d41527bd437325c412", "name": "5a2c3afa656db6d41527bd437325c412"}, {"lon": -77.0019645, "is_disabled": 0, "lat": 38.915985666666664, "fusion_lat": 0.0, "is_reserved": 0, "rental_uris": {"ios": "https://dc.lft.to/lastmile_qr_scan", "android": "https://dc.lft.to/lastmile_qr_scan"}, "fusion_lon": 0.0, "type": "electric_scooter", "bike_id": "1d730fcb3fe63802eb7bd8c43b353b1e", "name": "1d730fcb3fe63802eb7bd8c43b353b1e"}, {"lon": -77.04820216666667, "is_disabled": 0, "lat": 38.90242333333333, "fusion_lat": 0.0, "is_reserved": 0, "rental_uris": {"ios": "https://dc.lft.to/lastmile_qr_scan", "android": "https://dc.lft.to/lastmile_qr_scan"}, "fusion_lon": 0.0, "type": "electric_scooter", "bike_id": "809ce4e8e108acbd4bdd5198b4da05a6", "name": "809ce4e8e108acbd4bdd5198b4da05a6"}, {"lon": -77.01843316666667, "is_disabled": 0, "lat": 38.94628766666666, "fusion_lat": 0.0, "is_reserved": 0, "rental_uris": {"ios": "https://dc.lft.to/lastmile_qr_scan", "android": "https://dc.lft.to/lastmile_qr_scan"}, "fusion_lon": 0.0, "type": "electric_scooter", "bike_id": "63ef9a73e350d84192cb95e1aeb47ccf", "name": "63ef9a73e350d84192cb95e1aeb47ccf"}, {"lon": -77.02694933333333, "is_disabled": 0, "lat": 38.8944715, "fusion_lat": 0.0, "is_reserved": 0, "rental_uris": {"ios": "https://dc.lft.to/lastmile_qr_scan", "android": "https://dc.lft.to/lastmile_qr_scan"}, "fusion_lon": 0.0, "type": "electric_scooter", "bike_id": "3504ad404e2dfa1542203b882c9c4256", "name": "3504ad404e2dfa1542203b882c9c4256"}, {"lon": -77.02537916666667, "is_disabled": 0, "lat": 38.94112283333333, "fusion_lat": 0.0, "is_reserved": 0, "rental_uris": {"ios": "https://dc.lft.to/lastmile_qr_scan", "android": "https://dc.lft.to/lastmile_qr_scan"}, "fusion_lon": 0.0, "type": "electric_scooter", "bike_id": "12b915ae36831fe95571aea873b058c8", "name": "12b915ae36831fe95571aea873b058c8"}, {"lon": -77.00207183333333, "is_disabled": 0, "lat": 38.96559466666667, "fusion_lat": 0.0, "is_reserved": 0, "rental_uris": {"ios": "https://dc.lft.to/lastmile_qr_scan", "android": "https://dc.lft.to/lastmile_qr_scan"}, "fusion_lon": 0.0, "type": "electric_scooter", "bike_id": "a8414e143d5e7052b67b498a6ffd8f75", "name": "a8414e143d5e7052b67b498a6ffd8f75"}, {"lon": -77.04003433333334, "is_disabled": 0, "lat": 38.9078245, "fusion_lat": 0.0, "is_reserved": 0, "rental_uris": {"ios": "https://dc.lft.to/lastmile_qr_scan", "android": "https://dc.lft.to/lastmile_qr_scan"}, "fusion_lon": 0.0, "type": "electric_scooter", "bike_id": "0983301a8628446aeb57be470e92c49b", "name": "0983301a8628446aeb57be470e92c49b"}, {"lon": -77.02302133333333, "is_disabled": 0, "lat": 38.92057716666667, "fusion_lat": 0.0, "is_reserved": 0, "rental_uris": {"ios": "https://dc.lft.to/lastmile_qr_scan", "android": "https://dc.lft.to/lastmile_qr_scan"}, "fusion_lon": 0.0, "type": "electric_scooter", "bike_id": "5360d2dbdf56226e99a86cf6fbfc2aa5", "name": "5360d2dbdf56226e99a86cf6fbfc2aa5"}, {"lon": -77.02482816666667, "is_disabled": 0, "lat": 38.902538, "fusion_lat": 0.0, "is_reserved": 0, "rental_uris": {"ios": "https://dc.lft.to/lastmile_qr_scan", "android": "https://dc.lft.to/lastmile_qr_scan"}, "fusion_lon": 0.0, "type": "electric_scooter", "bike_id": "71835599428a09699bc01bc8c36b770c", "name": "71835599428a09699bc01bc8c36b770c"}, {"lon": -77.18121433333333, "is_disabled": 0, "lat": 38.9322835, "fusion_lat": 0.0, "is_reserved": 0, "rental_uris": {"ios": "https://dc.lft.to/lastmile_qr_scan", "android": "https://dc.lft.to/lastmile_qr_scan"}, "fusion_lon": 0.0, "type": "electric_bike", "bike_id": "83f30a743ff4c42f29650fd20c1d7abb", "name": "83f30a743ff4c42f29650fd20c1d7abb"}, {"lon": -77.01660066666666, "is_disabled": 0, "lat": 38.8811305, "fusion_lat": 0.0, "is_reserved": 0, "rental_uris": {"ios": "https://dc.lft.to/lastmile_qr_scan", "android": "https://dc.lft.to/lastmile_qr_scan"}, "fusion_lon": 0.0, "type": "electric_scooter", "bike_id": "ead31ef724f3ec38abfaf0c725c2426f", "name": "ead31ef724f3ec38abfaf0c725c2426f"}, {"lon": -77.03829766666667, "is_disabled": 0, "lat": 38.912574, "fusion_lat": 0.0, "is_reserved": 0, "rental_uris": {"ios": "https://dc.lft.to/lastmile_qr_scan", "android": "https://dc.lft.to/lastmile_qr_scan"}, "fusion_lon": 0.0, "type": "electric_scooter", "bike_id": "5f599cbac1f515c1b2b96b200a2d23fc", "name": "5f599cbac1f515c1b2b96b200a2d23fc"}, {"lon": -77.0269665, "is_disabled": 0, "lat": 38.9257675, "fusion_lat": 0.0, "is_reserved": 0, "rental_uris": {"ios": "https://dc.lft.to/lastmile_qr_scan", "android": "https://dc.lft.to/lastmile_qr_scan"}, "fusion_lon": 0.0, "type": "electric_scooter", "bike_id": "38dce33035667299c984d27c5a6e4629", "name": "38dce33035667299c984d27c5a6e4629"}, {"lon": -76.98001666666667, "is_disabled": 0, "lat": 38.90678416666667, "fusion_lat": 0.0, "is_reserved": 0, "rental_uris": {"ios": "https://dc.lft.to/lastmile_qr_scan", "android": "https://dc.lft.to/lastmile_qr_scan"}, "fusion_lon": 0.0, "type": "electric_scooter", "bike_id": "c40434656dd09bdd069908f7b7aaa6be", "name": "c40434656dd09bdd069908f7b7aaa6be"}, {"lon": -77.03854766666667, "is_disabled": 0, "lat": 38.917073, "fusion_lat": 0.0, "is_reserved": 0, "rental_uris": {"ios": "https://dc.lft.to/lastmile_qr_scan", "android": "https://dc.lft.to/lastmile_qr_scan"}, "fusion_lon": 0.0, "type": "electric_scooter", "bike_id": "c51046133550282a802cb530cc8b4e16", "name": "c51046133550282a802cb530cc8b4e16"}, {"lon": -77.00109666666667, "is_disabled": 0, "lat": 38.87363366666666, "fusion_lat": 0.0, "is_reserved": 0, "rental_uris": {"ios": "https://dc.lft.to/lastmile_qr_scan", "android": "https://dc.lft.to/lastmile_qr_scan"}, "fusion_lon": 0.0, "type": "electric_scooter", "bike_id": "d160b9935b59c59a0c15d8c53d398ca8", "name": "d160b9935b59c59a0c15d8c53d398ca8"}, {"lon": -76.97612816666667, "is_disabled": 0, "lat": 38.90468933333333, "fusion_lat": 0.0, "is_reserved": 0, "rental_uris": {"ios": "https://dc.lft.to/lastmile_qr_scan", "android": "https://dc.lft.to/lastmile_qr_scan"}, "fusion_lon": 0.0, "type": "electric_scooter", "bike_id": "74cc041ae69b8a7fceb9727d3e843df5", "name": "74cc041ae69b8a7fceb9727d3e843df5"}, {"lon": -77.0277235, "is_disabled": 0, "lat": 38.92870816666667, "fusion_lat": 0.0, "is_reserved": 0, "rental_uris": {"ios": "https://dc.lft.to/lastmile_qr_scan", "android": "https://dc.lft.to/lastmile_qr_scan"}, "fusion_lon": 0.0, "type": "electric_scooter", "bike_id": "295df45f85b5222107b662c1f5e19897", "name": "295df45f85b5222107b662c1f5e19897"}, {"lon": -77.04999966666666, "is_disabled": 0, "lat": 38.892336, "fusion_lat": 0.0, "is_reserved": 0, "rental_uris": {"ios": "https://dc.lft.to/lastmile_qr_scan", "android": "https://dc.lft.to/lastmile_qr_scan"}, "fusion_lon": 0.0, "type": "electric_scooter", "bike_id": "6d6d24407e8d682edfb7422fcc4817ae", "name": "6d6d24407e8d682edfb7422fcc4817ae"}, {"lon": -76.98563083333333, "is_disabled": 0, "lat": 38.89989833333333, "fusion_lat": 0.0, "is_reserved": 0, "rental_uris": {"ios": "https://dc.lft.to/lastmile_qr_scan", "android": "https://dc.lft.to/lastmile_qr_scan"}, "fusion_lon": 0.0, "type": "electric_scooter", "bike_id": "6d2aaf00019280e25de71625fd0d324b", "name": "6d2aaf00019280e25de71625fd0d324b"}, {"lon": -76.956313, "is_disabled": 0, "lat": 38.88514033333333, "fusion_lat": 0.0, "is_reserved": 0, "rental_uris": {"ios": "https://dc.lft.to/lastmile_qr_scan", "android": "https://dc.lft.to/lastmile_qr_scan"}, "fusion_lon": 0.0, "type": "electric_bike", "bike_id": "2cebcf7e93463b957a09c8f64c76fb28", "name": "2cebcf7e93463b957a09c8f64c76fb28"}, {"lon": -77.00135716666666, "is_disabled": 0, "lat": 38.9051195, "fusion_lat": 0.0, "is_reserved": 0, "rental_uris": {"ios": "https://dc.lft.to/lastmile_qr_scan", "android": "https://dc.lft.to/lastmile_qr_scan"}, "fusion_lon": 0.0, "type": "electric_scooter", "bike_id": "07b5d1f1997411203731860bf66ab1a5", "name": "07b5d1f1997411203731860bf66ab1a5"}, {"lon": -77.0227525, "is_disabled": 0, "lat": 38.92726483333333, "fusion_lat": 0.0, "is_reserved": 0, "rental_uris": {"ios": "https://dc.lft.to/lastmile_qr_scan", "android": "https://dc.lft.to/lastmile_qr_scan"}, "fusion_lon": 0.0, "type": "electric_scooter", "bike_id": "c022b47846d670838172603670500674", "name": "c022b47846d670838172603670500674"}, {"lon": -77.023879, "is_disabled": 0, "lat": 38.91271883333334, "fusion_lat": 0.0, "is_reserved": 0, "rental_uris": {"ios": "https://dc.lft.to/lastmile_qr_scan", "android": "https://dc.lft.to/lastmile_qr_scan"}, "fusion_lon": 0.0, "type": "electric_scooter", "bike_id": "672b33f35071c900f3a2099196cbb74a", "name": "672b33f35071c900f3a2099196cbb74a"}, {"lon": -77.04458416666667, "is_disabled": 0, "lat": 38.92305783333333, "fusion_lat": 0.0, "is_reserved": 0, "rental_uris": {"ios": "https://dc.lft.to/lastmile_qr_scan", "android": "https://dc.lft.to/lastmile_qr_scan"}, "fusion_lon": 0.0, "type": "electric_scooter", "bike_id": "4dc04ac90455b311f3f65a8505f19848", "name": "4dc04ac90455b311f3f65a8505f19848"}, {"lon": -77.026411, "is_disabled": 0, "lat": 38.89602583333333, "fusion_lat": 0.0, "is_reserved": 0, "rental_uris": {"ios": "https://dc.lft.to/lastmile_qr_scan", "android": "https://dc.lft.to/lastmile_qr_scan"}, "fusion_lon": 0.0, "type": "electric_scooter", "bike_id": "c2c0253a353f7306f5f82bb8edd036d9", "name": "c2c0253a353f7306f5f82bb8edd036d9"}, {"lon": -77.03440183333333, "is_disabled": 0, "lat": 38.906851333333336, "fusion_lat": 0.0, "is_reserved": 0, "rental_uris": {"ios": "https://dc.lft.to/lastmile_qr_scan", "android": "https://dc.lft.to/lastmile_qr_scan"}, "fusion_lon": 0.0, "type": "electric_scooter", "bike_id": "1168f09319709b781fc9f570f0642ba8", "name": "1168f09319709b781fc9f570f0642ba8"}, {"lon": -77.04437016666667, "is_disabled": 0, "lat": 38.898192, "fusion_lat": 0.0, "is_reserved": 0, "rental_uris": {"ios": "https://dc.lft.to/lastmile_qr_scan", "android": "https://dc.lft.to/lastmile_qr_scan"}, "fusion_lon": 0.0, "type": "electric_scooter", "bike_id": "c0bd08ccb531da80e1bce4dea238062b", "name": "c0bd08ccb531da80e1bce4dea238062b"}, {"lon": -77.03661333333334, "is_disabled": 0, "lat": 38.91247083333333, "fusion_lat": 0.0, "is_reserved": 0, "rental_uris": {"ios": "https://dc.lft.to/lastmile_qr_scan", "android": "https://dc.lft.to/lastmile_qr_scan"}, "fusion_lon": 0.0, "type": "electric_scooter", "bike_id": "1bede176c6fb38650796a33dca1ce051", "name": "1bede176c6fb38650796a33dca1ce051"}, {"lon": -76.988424, "is_disabled": 0, "lat": 38.89660966666667, "fusion_lat": 0.0, "is_reserved": 0, "rental_uris": {"ios": "https://dc.lft.to/lastmile_qr_scan", "android": "https://dc.lft.to/lastmile_qr_scan"}, "fusion_lon": 0.0, "type": "electric_scooter", "bike_id": "6df942e264f90aa33e2dd1e5213d237f", "name": "6df942e264f90aa33e2dd1e5213d237f"}, {"lon": -76.99629266666666, "is_disabled": 0, "lat": 38.88715666666667, "fusion_lat": 0.0, "is_reserved": 0, "rental_uris": {"ios": "https://dc.lft.to/lastmile_qr_scan", "android": "https://dc.lft.to/lastmile_qr_scan"}, "fusion_lon": 0.0, "type": "electric_scooter", "bike_id": "af7c74d2cb080f677fa674db8ba9963f", "name": "af7c74d2cb080f677fa674db8ba9963f"}, {"lon": -77.02174183333334, "is_disabled": 0, "lat": 38.94292083333333, "fusion_lat": 0.0, "is_reserved": 0, "rental_uris": {"ios": "https://dc.lft.to/lastmile_qr_scan", "android": "https://dc.lft.to/lastmile_qr_scan"}, "fusion_lon": 0.0, "type": "electric_scooter", "bike_id": "c804bbd156f23fd17d198d9274f2c469", "name": "c804bbd156f23fd17d198d9274f2c469"}, {"lon": -77.02540483333334, "is_disabled": 0, "lat": 38.924073, "fusion_lat": 0.0, "is_reserved": 0, "rental_uris": {"ios": "https://dc.lft.to/lastmile_qr_scan", "android": "https://dc.lft.to/lastmile_qr_scan"}, "fusion_lon": 0.0, "type": "electric_scooter", "bike_id": "4bb211506dd563572c3b036b893eb9cb", "name": "4bb211506dd563572c3b036b893eb9cb"}, {"lon": -77.0422355, "is_disabled": 0, "lat": 38.9262215, "fusion_lat": 0.0, "is_reserved": 0, "rental_uris": {"ios": "https://dc.lft.to/lastmile_qr_scan", "android": "https://dc.lft.to/lastmile_qr_scan"}, "fusion_lon": 0.0, "type": "electric_scooter", "bike_id": "de5434f04e108335b4f9957addb70e8c", "name": "de5434f04e108335b4f9957addb70e8c"}, {"lon": -77.00342766666667, "is_disabled": 0, "lat": 38.895254333333334, "fusion_lat": 0.0, "is_reserved": 0, "rental_uris": {"ios": "https://dc.lft.to/lastmile_qr_scan", "android": "https://dc.lft.to/lastmile_qr_scan"}, "fusion_lon": 0.0, "type": "electric_scooter", "bike_id": "9652a8fa430428758ec1e92fdfdca950", "name": "9652a8fa430428758ec1e92fdfdca950"}, {"lon": -76.99218066666667, "is_disabled": 0, "lat": 38.940267, "fusion_lat": 0.0, "is_reserved": 0, "rental_uris": {"ios": "https://dc.lft.to/lastmile_qr_scan", "android": "https://dc.lft.to/lastmile_qr_scan"}, "fusion_lon": 0.0, "type": "electric_bike", "bike_id": "365c26145096b21201512d337823c29a", "name": "365c26145096b21201512d337823c29a"}, {"lon": -77.05230833333333, "is_disabled": 0, "lat": 38.92505883333333, "fusion_lat": 0.0, "is_reserved": 0, "rental_uris": {"ios": "https://dc.lft.to/lastmile_qr_scan", "android": "https://dc.lft.to/lastmile_qr_scan"}, "fusion_lon": 0.0, "type": "electric_scooter", "bike_id": "0d408a9796a6a8e6e86839a4dca834d4", "name": "0d408a9796a6a8e6e86839a4dca834d4"}, {"lon": -77.0237555, "is_disabled": 0, "lat": 38.914055166666664, "fusion_lat": 0.0, "is_reserved": 0, "rental_uris": {"ios": "https://dc.lft.to/lastmile_qr_scan", "android": "https://dc.lft.to/lastmile_qr_scan"}, "fusion_lon": 0.0, "type": "electric_scooter", "bike_id": "65ac1508ec9a2c7cc1aed283d53ec59d", "name": "65ac1508ec9a2c7cc1aed283d53ec59d"}, {"lon": -77.0857165, "is_disabled": 0, "lat": 38.8742015, "fusion_lat": 0.0, "is_reserved": 0, "rental_uris": {"ios": "https://dc.lft.to/lastmile_qr_scan", "android": "https://dc.lft.to/lastmile_qr_scan"}, "fusion_lon": 0.0, "type": "electric_bike", "bike_id": "d3a8e4bc21fc9a2fbcb4917a5f95c2e5", "name": "d3a8e4bc21fc9a2fbcb4917a5f95c2e5"}, {"lon": -77.00054433333334, "is_disabled": 0, "lat": 38.87416183333333, "fusion_lat": 0.0, "is_reserved": 0, "rental_uris": {"ios": "https://dc.lft.to/lastmile_qr_scan", "android": "https://dc.lft.to/lastmile_qr_scan"}, "fusion_lon": 0.0, "type": "electric_scooter", "bike_id": "43937eaa0f6eb83083c9ee514db8bfa7", "name": "43937eaa0f6eb83083c9ee514db8bfa7"}, {"lon": -77.05431183333333, "is_disabled": 0, "lat": 38.92844616666667, "fusion_lat": 0.0, "is_reserved": 0, "rental_uris": {"ios": "https://dc.lft.to/lastmile_qr_scan", "android": "https://dc.lft.to/lastmile_qr_scan"}, "fusion_lon": 0.0, "type": "electric_scooter", "bike_id": "50f17a5f362d13c77f0f22cbc5a6afa8", "name": "50f17a5f362d13c77f0f22cbc5a6afa8"}, {"lon": -77.06397633333333, "is_disabled": 0, "lat": 38.944190666666664, "fusion_lat": 0.0, "is_reserved": 0, "rental_uris": {"ios": "https://dc.lft.to/lastmile_qr_scan", "android": "https://dc.lft.to/lastmile_qr_scan"}, "fusion_lon": 0.0, "type": "electric_scooter", "bike_id": "d8ab4374d5b075fae2ff513ad7efe0be", "name": "d8ab4374d5b075fae2ff513ad7efe0be"}, {"lon": -77.02575216666666, "is_disabled": 0, "lat": 38.93091583333333, "fusion_lat": 0.0, "is_reserved": 0, "rental_uris": {"ios": "https://dc.lft.to/lastmile_qr_scan", "android": "https://dc.lft.to/lastmile_qr_scan"}, "fusion_lon": 0.0, "type": "electric_scooter", "bike_id": "ea042aa8b645dfa38ee94cd4b58653e6", "name": "ea042aa8b645dfa38ee94cd4b58653e6"}, {"lon": -76.94719316666666, "is_disabled": 0, "lat": 38.897341833333336, "fusion_lat": 0.0, "is_reserved": 0, "rental_uris": {"ios": "https://dc.lft.to/lastmile_qr_scan", "android": "https://dc.lft.to/lastmile_qr_scan"}, "fusion_lon": 0.0, "type": "electric_scooter", "bike_id": "65794c3c495a322854e68fd50141f6d6", "name": "65794c3c495a322854e68fd50141f6d6"}, {"lon": -77.0386795, "is_disabled": 0, "lat": 38.91687116666667, "fusion_lat": 0.0, "is_reserved": 0, "rental_uris": {"ios": "https://dc.lft.to/lastmile_qr_scan", "android": "https://dc.lft.to/lastmile_qr_scan"}, "fusion_lon": 0.0, "type": "electric_scooter", "bike_id": "114de05b60b6915eaeeb60b6602143bc", "name": "114de05b60b6915eaeeb60b6602143bc"}, {"lon": -77.01475216666667, "is_disabled": 0, "lat": 38.9187245, "fusion_lat": 0.0, "is_reserved": 0, "rental_uris": {"ios": "https://dc.lft.to/lastmile_qr_scan", "android": "https://dc.lft.to/lastmile_qr_scan"}, "fusion_lon": 0.0, "type": "electric_scooter", "bike_id": "c048250b9b45797d0e3f918ad77a74ee", "name": "c048250b9b45797d0e3f918ad77a74ee"}, {"lon": -77.029449, "is_disabled": 0, "lat": 38.89975033333333, "fusion_lat": 0.0, "is_reserved": 0, "rental_uris": {"ios": "https://dc.lft.to/lastmile_qr_scan", "android": "https://dc.lft.to/lastmile_qr_scan"}, "fusion_lon": 0.0, "type": "electric_scooter", "bike_id": "ae6451501323b34b3e9df2fab572c8a3", "name": "ae6451501323b34b3e9df2fab572c8a3"}, {"lon": -77.023108, "is_disabled": 0, "lat": 38.928893333333335, "fusion_lat": 0.0, "is_reserved": 0, "rental_uris": {"ios": "https://dc.lft.to/lastmile_qr_scan", "android": "https://dc.lft.to/lastmile_qr_scan"}, "fusion_lon": 0.0, "type": "electric_scooter", "bike_id": "f08df544dec2920d3c08f0c8c119558f", "name": "f08df544dec2920d3c08f0c8c119558f"}, {"lon": -77.02825316666667, "is_disabled": 0, "lat": 38.886211833333334, "fusion_lat": 0.0, "is_reserved": 0, "rental_uris": {"ios": "https://dc.lft.to/lastmile_qr_scan", "android": "https://dc.lft.to/lastmile_qr_scan"}, "fusion_lon": 0.0, "type": "electric_scooter", "bike_id": "3469c06f6fdf9c67a6963a212dfaae8c", "name": "3469c06f6fdf9c67a6963a212dfaae8c"}, {"lon": -76.99966166666667, "is_disabled": 0, "lat": 38.908321, "fusion_lat": 0.0, "is_reserved": 0, "rental_uris": {"ios": "https://dc.lft.to/lastmile_qr_scan", "android": "https://dc.lft.to/lastmile_qr_scan"}, "fusion_lon": 0.0, "type": "electric_scooter", "bike_id": "2aff2412950f17d2497f74d2946e6bcf", "name": "2aff2412950f17d2497f74d2946e6bcf"}, {"lon": -77.03440033333334, "is_disabled": 0, "lat": 38.913269, "fusion_lat": 0.0, "is_reserved": 0, "rental_uris": {"ios": "https://dc.lft.to/lastmile_qr_scan", "android": "https://dc.lft.to/lastmile_qr_scan"}, "fusion_lon": 0.0, "type": "electric_scooter", "bike_id": "7ac5ddcdf69207a0cee46da715ec9966", "name": "7ac5ddcdf69207a0cee46da715ec9966"}, {"lon": -77.033522, "is_disabled": 0, "lat": 38.892362166666665, "fusion_lat": 0.0, "is_reserved": 0, "rental_uris": {"ios": "https://dc.lft.to/lastmile_qr_scan", "android": "https://dc.lft.to/lastmile_qr_scan"}, "fusion_lon": 0.0, "type": "electric_scooter", "bike_id": "f3e349cccc3d8e020ff561bd7cf00c91", "name": "f3e349cccc3d8e020ff561bd7cf00c91"}, {"lon": -77.02183833333333, "is_disabled": 0, "lat": 38.9098115, "fusion_lat": 0.0, "is_reserved": 0, "rental_uris": {"ios": "https://dc.lft.to/lastmile_qr_scan", "android": "https://dc.lft.to/lastmile_qr_scan"}, "fusion_lon": 0.0, "type": "electric_scooter", "bike_id": "4238eb4021380d4440de90a508652408", "name": "4238eb4021380d4440de90a508652408"}, {"lon": -77.005347, "is_disabled": 0, "lat": 38.8772215, "fusion_lat": 0.0, "is_reserved": 0, "rental_uris": {"ios": "https://dc.lft.to/lastmile_qr_scan", "android": "https://dc.lft.to/lastmile_qr_scan"}, "fusion_lon": 0.0, "type": "electric_scooter", "bike_id": "06af697e87589ab24773e2917aa51e62", "name": "06af697e87589ab24773e2917aa51e62"}, {"lon": -76.94862366666666, "is_disabled": 0, "lat": 38.8947895, "fusion_lat": 0.0, "is_reserved": 0, "rental_uris": {"ios": "https://dc.lft.to/lastmile_qr_scan", "android": "https://dc.lft.to/lastmile_qr_scan"}, "fusion_lon": 0.0, "type": "electric_scooter", "bike_id": "12b7018c8497eb4a6026316bdf04e532", "name": "12b7018c8497eb4a6026316bdf04e532"}, {"lon": -77.0772275, "is_disabled": 0, "lat": 38.92517483333334, "fusion_lat": 0.0, "is_reserved": 0, "rental_uris": {"ios": "https://dc.lft.to/lastmile_qr_scan", "android": "https://dc.lft.to/lastmile_qr_scan"}, "fusion_lon": 0.0, "type": "electric_scooter", "bike_id": "e44ad2ae82a2554598fddd77aa5f381c", "name": "e44ad2ae82a2554598fddd77aa5f381c"}, {"lon": -76.97606083333334, "is_disabled": 0, "lat": 38.94021933333333, "fusion_lat": 0.0, "is_reserved": 0, "rental_uris": {"ios": "https://dc.lft.to/lastmile_qr_scan", "android": "https://dc.lft.to/lastmile_qr_scan"}, "fusion_lon": 0.0, "type": "electric_scooter", "bike_id": "8a2a7257d0d7bd5f5793da58e6208eb3", "name": "8a2a7257d0d7bd5f5793da58e6208eb3"}, {"lon": -77.0111075, "is_disabled": 0, "lat": 38.89509233333333, "fusion_lat": 0.0, "is_reserved": 0, "rental_uris": {"ios": "https://dc.lft.to/lastmile_qr_scan", "android": "https://dc.lft.to/lastmile_qr_scan"}, "fusion_lon": 0.0, "type": "electric_scooter", "bike_id": "b90ca63b326182d92fb597f77f6c66ee", "name": "b90ca63b326182d92fb597f77f6c66ee"}, {"lon": -77.05004683333334, "is_disabled": 0, "lat": 38.8922985, "fusion_lat": 0.0, "is_reserved": 0, "rental_uris": {"ios": "https://dc.lft.to/lastmile_qr_scan", "android": "https://dc.lft.to/lastmile_qr_scan"}, "fusion_lon": 0.0, "type": "electric_scooter", "bike_id": "d7822a3d2495dae72215355e13b5e246", "name": "d7822a3d2495dae72215355e13b5e246"}, {"lon": -77.0487755, "is_disabled": 0, "lat": 38.906380166666665, "fusion_lat": 0.0, "is_reserved": 0, "rental_uris": {"ios": "https://dc.lft.to/lastmile_qr_scan", "android": "https://dc.lft.to/lastmile_qr_scan"}, "fusion_lon": 0.0, "type": "electric_scooter", "bike_id": "6d676d1aab0e8e75b6ec99ba0cee321c", "name": "6d676d1aab0e8e75b6ec99ba0cee321c"}, {"lon": -77.0412335, "is_disabled": 0, "lat": 38.917089, "fusion_lat": 0.0, "is_reserved": 0, "rental_uris": {"ios": "https://dc.lft.to/lastmile_qr_scan", "android": "https://dc.lft.to/lastmile_qr_scan"}, "fusion_lon": 0.0, "type": "electric_scooter", "bike_id": "a66a045e5097545f1d6bd04d083f3dc7", "name": "a66a045e5097545f1d6bd04d083f3dc7"}, {"lon": -77.027082, "is_disabled": 0, "lat": 38.89715666666667, "fusion_lat": 0.0, "is_reserved": 0, "rental_uris": {"ios": "https://dc.lft.to/lastmile_qr_scan", "android": "https://dc.lft.to/lastmile_qr_scan"}, "fusion_lon": 0.0, "type": "electric_scooter", "bike_id": "d11c5430d2115a19291c6fe2d9ee2621", "name": "d11c5430d2115a19291c6fe2d9ee2621"}, {"lon": -77.02217966666667, "is_disabled": 0, "lat": 38.8972485, "fusion_lat": 0.0, "is_reserved": 0, "rental_uris": {"ios": "https://dc.lft.to/lastmile_qr_scan", "android": "https://dc.lft.to/lastmile_qr_scan"}, "fusion_lon": 0.0, "type": "electric_scooter", "bike_id": "53c06aac62c1ab39fe48de534101f97c", "name": "53c06aac62c1ab39fe48de534101f97c"}, {"lon": -77.0433355, "is_disabled": 0, "lat": 38.896420666666664, "fusion_lat": 0.0, "is_reserved": 0, "rental_uris": {"ios": "https://dc.lft.to/lastmile_qr_scan", "android": "https://dc.lft.to/lastmile_qr_scan"}, "fusion_lon": 0.0, "type": "electric_scooter", "bike_id": "293d1ee6fb9dbd240d16aa909b58d25c", "name": "293d1ee6fb9dbd240d16aa909b58d25c"}, {"lon": -77.02434816666667, "is_disabled": 0, "lat": 38.92053833333333, "fusion_lat": 0.0, "is_reserved": 0, "rental_uris": {"ios": "https://dc.lft.to/lastmile_qr_scan", "android": "https://dc.lft.to/lastmile_qr_scan"}, "fusion_lon": 0.0, "type": "electric_scooter", "bike_id": "5d4d2239d5e69c14fbb98ddbaec39aae", "name": "5d4d2239d5e69c14fbb98ddbaec39aae"}, {"lon": -77.010387, "is_disabled": 0, "lat": 38.91568616666667, "fusion_lat": 0.0, "is_reserved": 0, "rental_uris": {"ios": "https://dc.lft.to/lastmile_qr_scan", "android": "https://dc.lft.to/lastmile_qr_scan"}, "fusion_lon": 0.0, "type": "electric_scooter", "bike_id": "e6114b2c080b9889f76acb01e9f48ce8", "name": "e6114b2c080b9889f76acb01e9f48ce8"}, {"lon": -77.03122366666666, "is_disabled": 0, "lat": 38.930878, "fusion_lat": 0.0, "is_reserved": 0, "rental_uris": {"ios": "https://dc.lft.to/lastmile_qr_scan", "android": "https://dc.lft.to/lastmile_qr_scan"}, "fusion_lon": 0.0, "type": "electric_scooter", "bike_id": "25b98020a05cd84f6a460a610c26b630", "name": "25b98020a05cd84f6a460a610c26b630"}, {"lon": -77.02177783333333, "is_disabled": 0, "lat": 38.90678183333333, "fusion_lat": 0.0, "is_reserved": 0, "rental_uris": {"ios": "https://dc.lft.to/lastmile_qr_scan", "android": "https://dc.lft.to/lastmile_qr_scan"}, "fusion_lon": 0.0, "type": "electric_scooter", "bike_id": "a57ceabf9de8e1d01037cbc6980517ac", "name": "a57ceabf9de8e1d01037cbc6980517ac"}, {"lon": -77.005907, "is_disabled": 0, "lat": 38.90310916666667, "fusion_lat": 0.0, "is_reserved": 0, "rental_uris": {"ios": "https://dc.lft.to/lastmile_qr_scan", "android": "https://dc.lft.to/lastmile_qr_scan"}, "fusion_lon": 0.0, "type": "electric_scooter", "bike_id": "162212dc9aa04d8b9cccada3b0197cd3", "name": "162212dc9aa04d8b9cccada3b0197cd3"}, {"lon": -77.03280916666667, "is_disabled": 0, "lat": 38.926364666666665, "fusion_lat": 0.0, "is_reserved": 0, "rental_uris": {"ios": "https://dc.lft.to/lastmile_qr_scan", "android": "https://dc.lft.to/lastmile_qr_scan"}, "fusion_lon": 0.0, "type": "electric_scooter", "bike_id": "4fdbd3aede6d1d010399880a05ef9957", "name": "4fdbd3aede6d1d010399880a05ef9957"}, {"lon": -77.02117983333333, "is_disabled": 0, "lat": 38.914005, "fusion_lat": 0.0, "is_reserved": 0, "rental_uris": {"ios": "https://dc.lft.to/lastmile_qr_scan", "android": "https://dc.lft.to/lastmile_qr_scan"}, "fusion_lon": 0.0, "type": "electric_scooter", "bike_id": "ca3ac300c1f58d4281fdbf5add56e7ca", "name": "ca3ac300c1f58d4281fdbf5add56e7ca"}, {"lon": -77.0446085, "is_disabled": 0, "lat": 38.91544916666667, "fusion_lat": 0.0, "is_reserved": 0, "rental_uris": {"ios": "https://dc.lft.to/lastmile_qr_scan", "android": "https://dc.lft.to/lastmile_qr_scan"}, "fusion_lon": 0.0, "type": "electric_scooter", "bike_id": "bbaf361fc0dacc568f90024c7d25fcac", "name": "bbaf361fc0dacc568f90024c7d25fcac"}, {"lon": -77.03967266666666, "is_disabled": 0, "lat": 38.894276, "fusion_lat": 0.0, "is_reserved": 0, "rental_uris": {"ios": "https://dc.lft.to/lastmile_qr_scan", "android": "https://dc.lft.to/lastmile_qr_scan"}, "fusion_lon": 0.0, "type": "electric_scooter", "bike_id": "3f1b228ebdda1b67e07e4ca35bd77b29", "name": "3f1b228ebdda1b67e07e4ca35bd77b29"}, {"lon": -77.022051, "is_disabled": 0, "lat": 38.910470333333336, "fusion_lat": 0.0, "is_reserved": 0, "rental_uris": {"ios": "https://dc.lft.to/lastmile_qr_scan", "android": "https://dc.lft.to/lastmile_qr_scan"}, "fusion_lon": 0.0, "type": "electric_scooter", "bike_id": "b293703205c073b015f75a9c97c01252", "name": "b293703205c073b015f75a9c97c01252"}, {"lon": -77.01857, "is_disabled": 0, "lat": 38.9491935, "fusion_lat": 0.0, "is_reserved": 0, "rental_uris": {"ios": "https://dc.lft.to/lastmile_qr_scan", "android": "https://dc.lft.to/lastmile_qr_scan"}, "fusion_lon": 0.0, "type": "electric_scooter", "bike_id": "f5d480c09bb11e4d2326c9747b176f5c", "name": "f5d480c09bb11e4d2326c9747b176f5c"}, {"lon": -77.03964933333333, "is_disabled": 0, "lat": 38.902602, "fusion_lat": 0.0, "is_reserved": 0, "rental_uris": {"ios": "https://dc.lft.to/lastmile_qr_scan", "android": "https://dc.lft.to/lastmile_qr_scan"}, "fusion_lon": 0.0, "type": "electric_scooter", "bike_id": "3eed4bbeda2e4ddda303e08f13dbd3ee", "name": "3eed4bbeda2e4ddda303e08f13dbd3ee"}, {"lon": -76.99929483333334, "is_disabled": 0, "lat": 39.039896, "fusion_lat": 0.0, "is_reserved": 0, "rental_uris": {"ios": "https://dc.lft.to/lastmile_qr_scan", "android": "https://dc.lft.to/lastmile_qr_scan"}, "fusion_lon": 0.0, "type": "electric_bike", "bike_id": "e245021ebd8e2957e90bcae979ad3e26", "name": "e245021ebd8e2957e90bcae979ad3e26"}, {"lon": -77.03298033333333, "is_disabled": 0, "lat": 38.923503833333335, "fusion_lat": 0.0, "is_reserved": 0, "rental_uris": {"ios": "https://dc.lft.to/lastmile_qr_scan", "android": "https://dc.lft.to/lastmile_qr_scan"}, "fusion_lon": 0.0, "type": "electric_scooter", "bike_id": "2c3329d31ea6ee60342d7ad460c62028", "name": "2c3329d31ea6ee60342d7ad460c62028"}, {"lon": -77.04228716666667, "is_disabled": 0, "lat": 38.92055783333333, "fusion_lat": 0.0, "is_reserved": 0, "rental_uris": {"ios": "https://dc.lft.to/lastmile_qr_scan", "android": "https://dc.lft.to/lastmile_qr_scan"}, "fusion_lon": 0.0, "type": "electric_scooter", "bike_id": "a3c0102934bb305334ed17a5e6a0cb6f", "name": "a3c0102934bb305334ed17a5e6a0cb6f"}, {"lon": -77.03453416666666, "is_disabled": 0, "lat": 38.92215616666667, "fusion_lat": 0.0, "is_reserved": 0, "rental_uris": {"ios": "https://dc.lft.to/lastmile_qr_scan", "android": "https://dc.lft.to/lastmile_qr_scan"}, "fusion_lon": 0.0, "type": "electric_scooter", "bike_id": "60fc26aa260d10c42361ad3d7b437591", "name": "60fc26aa260d10c42361ad3d7b437591"}, {"lon": -76.996374, "is_disabled": 0, "lat": 38.905277, "fusion_lat": 0.0, "is_reserved": 0, "rental_uris": {"ios": "https://dc.lft.to/lastmile_qr_scan", "android": "https://dc.lft.to/lastmile_qr_scan"}, "fusion_lon": 0.0, "type": "electric_scooter", "bike_id": "eed677ee21dd01468b09f613f4600998", "name": "eed677ee21dd01468b09f613f4600998"}, {"lon": -77.01782733333333, "is_disabled": 0, "lat": 38.87707, "fusion_lat": 0.0, "is_reserved": 0, "rental_uris": {"ios": "https://dc.lft.to/lastmile_qr_scan", "android": "https://dc.lft.to/lastmile_qr_scan"}, "fusion_lon": 0.0, "type": "electric_scooter", "bike_id": "71bb0e7af609186947555113c68b5f7e", "name": "71bb0e7af609186947555113c68b5f7e"}, {"lon": -76.93012833333333, "is_disabled": 0, "lat": 38.8882205, "fusion_lat": 0.0, "is_reserved": 0, "rental_uris": {"ios": "https://dc.lft.to/lastmile_qr_scan", "android": "https://dc.lft.to/lastmile_qr_scan"}, "fusion_lon": 0.0, "type": "electric_scooter", "bike_id": "2de9179d97bd68c8baed86aeda8c5986", "name": "2de9179d97bd68c8baed86aeda8c5986"}, {"lon": -77.03180033333334, "is_disabled": 0, "lat": 38.917433, "fusion_lat": 0.0, "is_reserved": 0, "rental_uris": {"ios": "https://dc.lft.to/lastmile_qr_scan", "android": "https://dc.lft.to/lastmile_qr_scan"}, "fusion_lon": 0.0, "type": "electric_scooter", "bike_id": "979f8e54e4a7fc6e1400258f962e5ab1", "name": "979f8e54e4a7fc6e1400258f962e5ab1"}, {"lon": -77.0131525, "is_disabled": 0, "lat": 38.901884833333334, "fusion_lat": 0.0, "is_reserved": 0, "rental_uris": {"ios": "https://dc.lft.to/lastmile_qr_scan", "android": "https://dc.lft.to/lastmile_qr_scan"}, "fusion_lon": 0.0, "type": "electric_scooter", "bike_id": "681ffad930f8929acfa4e280b6e7d9af", "name": "681ffad930f8929acfa4e280b6e7d9af"}, {"lon": -77.05394716666666, "is_disabled": 0, "lat": 38.804466, "fusion_lat": 0.0, "is_reserved": 0, "rental_uris": {"ios": "https://dc.lft.to/lastmile_qr_scan", "android": "https://dc.lft.to/lastmile_qr_scan"}, "fusion_lon": 0.0, "type": "electric_bike", "bike_id": "6eb040cdd0c66d52587306c8842819ce", "name": "6eb040cdd0c66d52587306c8842819ce"}, {"lon": -76.9957645, "is_disabled": 0, "lat": 38.947301833333334, "fusion_lat": 0.0, "is_reserved": 0, "rental_uris": {"ios": "https://dc.lft.to/lastmile_qr_scan", "android": "https://dc.lft.to/lastmile_qr_scan"}, "fusion_lon": 0.0, "type": "electric_bike", "bike_id": "c4801a37d3c0944baeec7b4d85f19751", "name": "c4801a37d3c0944baeec7b4d85f19751"}, {"lon": -77.04756083333334, "is_disabled": 0, "lat": 38.900772, "fusion_lat": 0.0, "is_reserved": 0, "rental_uris": {"ios": "https://dc.lft.to/lastmile_qr_scan", "android": "https://dc.lft.to/lastmile_qr_scan"}, "fusion_lon": 0.0, "type": "electric_scooter", "bike_id": "c0420d2944a961db8846cf2e1d07be69", "name": "c0420d2944a961db8846cf2e1d07be69"}, {"lon": -77.02339633333334, "is_disabled": 0, "lat": 38.91196016666667, "fusion_lat": 0.0, "is_reserved": 0, "rental_uris": {"ios": "https://dc.lft.to/lastmile_qr_scan", "android": "https://dc.lft.to/lastmile_qr_scan"}, "fusion_lon": 0.0, "type": "electric_scooter", "bike_id": "1fcf9f14063682f1b8442467d4dcb812", "name": "1fcf9f14063682f1b8442467d4dcb812"}, {"lon": -77.02381083333333, "is_disabled": 0, "lat": 38.9166595, "fusion_lat": 0.0, "is_reserved": 0, "rental_uris": {"ios": "https://dc.lft.to/lastmile_qr_scan", "android": "https://dc.lft.to/lastmile_qr_scan"}, "fusion_lon": 0.0, "type": "electric_scooter", "bike_id": "e067f3508b64922977c321dc6886c401", "name": "e067f3508b64922977c321dc6886c401"}, {"lon": -76.975288, "is_disabled": 0, "lat": 38.89883366666667, "fusion_lat": 0.0, "is_reserved": 0, "rental_uris": {"ios": "https://dc.lft.to/lastmile_qr_scan", "android": "https://dc.lft.to/lastmile_qr_scan"}, "fusion_lon": 0.0, "type": "electric_scooter", "bike_id": "b721b4de76524e8a56ffe9eb6e819fa1", "name": "b721b4de76524e8a56ffe9eb6e819fa1"}, {"lon": -77.01775633333334, "is_disabled": 0, "lat": 38.915045166666665, "fusion_lat": 0.0, "is_reserved": 0, "rental_uris": {"ios": "https://dc.lft.to/lastmile_qr_scan", "android": "https://dc.lft.to/lastmile_qr_scan"}, "fusion_lon": 0.0, "type": "electric_scooter", "bike_id": "ff0ac4b47a0ac65fa3b842c41c8d9668", "name": "ff0ac4b47a0ac65fa3b842c41c8d9668"}, {"lon": -77.02407733333334, "is_disabled": 0, "lat": 38.9142145, "fusion_lat": 0.0, "is_reserved": 0, "rental_uris": {"ios": "https://dc.lft.to/lastmile_qr_scan", "android": "https://dc.lft.to/lastmile_qr_scan"}, "fusion_lon": 0.0, "type": "electric_scooter", "bike_id": "40f80d33c1325ce6031e748dbd3f75b3", "name": "40f80d33c1325ce6031e748dbd3f75b3"}, {"lon": -77.0293965, "is_disabled": 0, "lat": 38.900029833333335, "fusion_lat": 0.0, "is_reserved": 0, "rental_uris": {"ios": "https://dc.lft.to/lastmile_qr_scan", "android": "https://dc.lft.to/lastmile_qr_scan"}, "fusion_lon": 0.0, "type": "electric_scooter", "bike_id": "8439d6d0d68d746498168c22d6c4e11b", "name": "8439d6d0d68d746498168c22d6c4e11b"}, {"lon": -77.04228766666667, "is_disabled": 0, "lat": 38.92176216666667, "fusion_lat": 0.0, "is_reserved": 0, "rental_uris": {"ios": "https://dc.lft.to/lastmile_qr_scan", "android": "https://dc.lft.to/lastmile_qr_scan"}, "fusion_lon": 0.0, "type": "electric_scooter", "bike_id": "baf8f87a77a906784b19afde9023f749", "name": "baf8f87a77a906784b19afde9023f749"}, {"lon": -77.0244575, "is_disabled": 0, "lat": 38.93589683333333, "fusion_lat": 0.0, "is_reserved": 0, "rental_uris": {"ios": "https://dc.lft.to/lastmile_qr_scan", "android": "https://dc.lft.to/lastmile_qr_scan"}, "fusion_lon": 0.0, "type": "electric_scooter", "bike_id": "4e1666f4cf3fbdad1aae34929c55f6f7", "name": "4e1666f4cf3fbdad1aae34929c55f6f7"}, {"lon": -77.02835266666666, "is_disabled": 0, "lat": 38.90561116666667, "fusion_lat": 0.0, "is_reserved": 0, "rental_uris": {"ios": "https://dc.lft.to/lastmile_qr_scan", "android": "https://dc.lft.to/lastmile_qr_scan"}, "fusion_lon": 0.0, "type": "electric_scooter", "bike_id": "62fe9a2656f00fa9db11e70fd98cbae5", "name": "62fe9a2656f00fa9db11e70fd98cbae5"}, {"lon": -76.98554633333333, "is_disabled": 0, "lat": 38.910333333333334, "fusion_lat": 0.0, "is_reserved": 0, "rental_uris": {"ios": "https://dc.lft.to/lastmile_qr_scan", "android": "https://dc.lft.to/lastmile_qr_scan"}, "fusion_lon": 0.0, "type": "electric_scooter", "bike_id": "3bfeade85d532f9c5888726974954eb8", "name": "3bfeade85d532f9c5888726974954eb8"}, {"lon": -77.024999, "is_disabled": 0, "lat": 38.942715166666666, "fusion_lat": 0.0, "is_reserved": 0, "rental_uris": {"ios": "https://dc.lft.to/lastmile_qr_scan", "android": "https://dc.lft.to/lastmile_qr_scan"}, "fusion_lon": 0.0, "type": "electric_scooter", "bike_id": "cba52302a5da0ffc4811529a74dfe91e", "name": "cba52302a5da0ffc4811529a74dfe91e"}, {"lon": -77.02399966666667, "is_disabled": 0, "lat": 38.91678533333334, "fusion_lat": 0.0, "is_reserved": 0, "rental_uris": {"ios": "https://dc.lft.to/lastmile_qr_scan", "android": "https://dc.lft.to/lastmile_qr_scan"}, "fusion_lon": 0.0, "type": "electric_scooter", "bike_id": "048b7d7f47b78ce5af6f796b566196e6", "name": "048b7d7f47b78ce5af6f796b566196e6"}, {"lon": -77.04446583333333, "is_disabled": 0, "lat": 38.92543366666666, "fusion_lat": 0.0, "is_reserved": 0, "rental_uris": {"ios": "https://dc.lft.to/lastmile_qr_scan", "android": "https://dc.lft.to/lastmile_qr_scan"}, "fusion_lon": 0.0, "type": "electric_scooter", "bike_id": "278f631f7bf0010eb5f3fdcb790a46b3", "name": "278f631f7bf0010eb5f3fdcb790a46b3"}, {"lon": -77.061996, "is_disabled": 0, "lat": 38.93344, "fusion_lat": 0.0, "is_reserved": 0, "rental_uris": {"ios": "https://dc.lft.to/lastmile_qr_scan", "android": "https://dc.lft.to/lastmile_qr_scan"}, "fusion_lon": 0.0, "type": "electric_scooter", "bike_id": "bc7298fecb7840aba96771604716acc2", "name": "bc7298fecb7840aba96771604716acc2"}, {"lon": -76.99303783333333, "is_disabled": 0, "lat": 38.85752466666667, "fusion_lat": 0.0, "is_reserved": 0, "rental_uris": {"ios": "https://dc.lft.to/lastmile_qr_scan", "android": "https://dc.lft.to/lastmile_qr_scan"}, "fusion_lon": 0.0, "type": "electric_scooter", "bike_id": "907a52397d75c24a243aa459fa0dca5b", "name": "907a52397d75c24a243aa459fa0dca5b"}, {"lon": -77.0349795, "is_disabled": 0, "lat": 38.934598, "fusion_lat": 0.0, "is_reserved": 0, "rental_uris": {"ios": "https://dc.lft.to/lastmile_qr_scan", "android": "https://dc.lft.to/lastmile_qr_scan"}, "fusion_lon": 0.0, "type": "electric_scooter", "bike_id": "77406678be3a378af40e85b55811abc5", "name": "77406678be3a378af40e85b55811abc5"}, {"lon": -77.04786433333334, "is_disabled": 0, "lat": 38.905100166666664, "fusion_lat": 0.0, "is_reserved": 0, "rental_uris": {"ios": "https://dc.lft.to/lastmile_qr_scan", "android": "https://dc.lft.to/lastmile_qr_scan"}, "fusion_lon": 0.0, "type": "electric_scooter", "bike_id": "21971eda1ae0bb4252241b19cea1ab36", "name": "21971eda1ae0bb4252241b19cea1ab36"}, {"lon": -77.03191133333333, "is_disabled": 0, "lat": 38.9187245, "fusion_lat": 0.0, "is_reserved": 0, "rental_uris": {"ios": "https://dc.lft.to/lastmile_qr_scan", "android": "https://dc.lft.to/lastmile_qr_scan"}, "fusion_lon": 0.0, "type": "electric_scooter", "bike_id": "6945751b0d8ab3dde5fcf018ce0e8592", "name": "6945751b0d8ab3dde5fcf018ce0e8592"}, {"lon": -76.98718, "is_disabled": 0, "lat": 38.86694116666666, "fusion_lat": 0.0, "is_reserved": 0, "rental_uris": {"ios": "https://dc.lft.to/lastmile_qr_scan", "android": "https://dc.lft.to/lastmile_qr_scan"}, "fusion_lon": 0.0, "type": "electric_scooter", "bike_id": "05f78b9741109f97a0c20387044b4d9b", "name": "05f78b9741109f97a0c20387044b4d9b"}, {"lon": -76.9984815, "is_disabled": 0, "lat": 38.896207, "fusion_lat": 0.0, "is_reserved": 0, "rental_uris": {"ios": "https://dc.lft.to/lastmile_qr_scan", "android": "https://dc.lft.to/lastmile_qr_scan"}, "fusion_lon": 0.0, "type": "electric_scooter", "bike_id": "e3427b4cf05839a6d4575a76aff6d91f", "name": "e3427b4cf05839a6d4575a76aff6d91f"}, {"lon": -77.0430885, "is_disabled": 0, "lat": 38.905620666666664, "fusion_lat": 0.0, "is_reserved": 0, "rental_uris": {"ios": "https://dc.lft.to/lastmile_qr_scan", "android": "https://dc.lft.to/lastmile_qr_scan"}, "fusion_lon": 0.0, "type": "electric_scooter", "bike_id": "99c9248fcae432380d1da3df66cd0049", "name": "99c9248fcae432380d1da3df66cd0049"}, {"lon": -77.043759, "is_disabled": 0, "lat": 38.92572216666667, "fusion_lat": 0.0, "is_reserved": 0, "rental_uris": {"ios": "https://dc.lft.to/lastmile_qr_scan", "android": "https://dc.lft.to/lastmile_qr_scan"}, "fusion_lon": 0.0, "type": "electric_scooter", "bike_id": "c79da9e1e523c1dd58f3f1f572732d2a", "name": "c79da9e1e523c1dd58f3f1f572732d2a"}, {"lon": -77.0228785, "is_disabled": 0, "lat": 38.89499716666667, "fusion_lat": 0.0, "is_reserved": 0, "rental_uris": {"ios": "https://dc.lft.to/lastmile_qr_scan", "android": "https://dc.lft.to/lastmile_qr_scan"}, "fusion_lon": 0.0, "type": "electric_scooter", "bike_id": "ef35ae923ff4d4d6a325508015277aed", "name": "ef35ae923ff4d4d6a325508015277aed"}, {"lon": -77.02637283333334, "is_disabled": 0, "lat": 38.98468283333333, "fusion_lat": 0.0, "is_reserved": 0, "rental_uris": {"ios": "https://dc.lft.to/lastmile_qr_scan", "android": "https://dc.lft.to/lastmile_qr_scan"}, "fusion_lon": 0.0, "type": "electric_scooter", "bike_id": "270b4f0ca4c5c6d6e3e239ed049b71eb", "name": "270b4f0ca4c5c6d6e3e239ed049b71eb"}, {"lon": -77.04129533333334, "is_disabled": 0, "lat": 38.924973, "fusion_lat": 0.0, "is_reserved": 0, "rental_uris": {"ios": "https://dc.lft.to/lastmile_qr_scan", "android": "https://dc.lft.to/lastmile_qr_scan"}, "fusion_lon": 0.0, "type": "electric_scooter", "bike_id": "a46d5f9ef7963b2bb9ac0c8c3ead8f6d", "name": "a46d5f9ef7963b2bb9ac0c8c3ead8f6d"}, {"lon": -77.07356233333333, "is_disabled": 0, "lat": 38.93358083333333, "fusion_lat": 0.0, "is_reserved": 0, "rental_uris": {"ios": "https://dc.lft.to/lastmile_qr_scan", "android": "https://dc.lft.to/lastmile_qr_scan"}, "fusion_lon": 0.0, "type": "electric_scooter", "bike_id": "4a17053e7c9bcb9004ef990ad529ea27", "name": "4a17053e7c9bcb9004ef990ad529ea27"}, {"lon": -77.0247265, "is_disabled": 0, "lat": 38.91915233333334, "fusion_lat": 0.0, "is_reserved": 0, "rental_uris": {"ios": "https://dc.lft.to/lastmile_qr_scan", "android": "https://dc.lft.to/lastmile_qr_scan"}, "fusion_lon": 0.0, "type": "electric_scooter", "bike_id": "b5a13ed907b0aec8d4d3ec92dc1e7f78", "name": "b5a13ed907b0aec8d4d3ec92dc1e7f78"}, {"lon": -77.0072575, "is_disabled": 0, "lat": 38.8849525, "fusion_lat": 0.0, "is_reserved": 0, "rental_uris": {"ios": "https://dc.lft.to/lastmile_qr_scan", "android": "https://dc.lft.to/lastmile_qr_scan"}, "fusion_lon": 0.0, "type": "electric_scooter", "bike_id": "991184fb2180ac8bc8cb545cdf53333d", "name": "991184fb2180ac8bc8cb545cdf53333d"}, {"lon": -77.0333085, "is_disabled": 0, "lat": 38.898199, "fusion_lat": 0.0, "is_reserved": 0, "rental_uris": {"ios": "https://dc.lft.to/lastmile_qr_scan", "android": "https://dc.lft.to/lastmile_qr_scan"}, "fusion_lon": 0.0, "type": "electric_scooter", "bike_id": "26a1af623a149fff86c6561bdccc5993", "name": "26a1af623a149fff86c6561bdccc5993"}, {"lon": -76.99377883333334, "is_disabled": 0, "lat": 38.990926, "fusion_lat": 0.0, "is_reserved": 0, "rental_uris": {"ios": "https://dc.lft.to/lastmile_qr_scan", "android": "https://dc.lft.to/lastmile_qr_scan"}, "fusion_lon": 0.0, "type": "electric_bike", "bike_id": "e5d295fcfcd93c456b632dcf49ff2990", "name": "e5d295fcfcd93c456b632dcf49ff2990"}, {"lon": -77.00341233333333, "is_disabled": 0, "lat": 38.883142, "fusion_lat": 0.0, "is_reserved": 0, "rental_uris": {"ios": "https://dc.lft.to/lastmile_qr_scan", "android": "https://dc.lft.to/lastmile_qr_scan"}, "fusion_lon": 0.0, "type": "electric_scooter", "bike_id": "99b7f83ee69c3366e771ba64cc2cda38", "name": "99b7f83ee69c3366e771ba64cc2cda38"}, {"lon": -77.045027, "is_disabled": 0, "lat": 38.892439833333334, "fusion_lat": 0.0, "is_reserved": 0, "rental_uris": {"ios": "https://dc.lft.to/lastmile_qr_scan", "android": "https://dc.lft.to/lastmile_qr_scan"}, "fusion_lon": 0.0, "type": "electric_scooter", "bike_id": "8bedf326232342dce610b585a42fc06b", "name": "8bedf326232342dce610b585a42fc06b"}, {"lon": -77.01748516666666, "is_disabled": 0, "lat": 38.90318966666667, "fusion_lat": 0.0, "is_reserved": 0, "rental_uris": {"ios": "https://dc.lft.to/lastmile_qr_scan", "android": "https://dc.lft.to/lastmile_qr_scan"}, "fusion_lon": 0.0, "type": "electric_scooter", "bike_id": "691b828805745210288dead5a5764650", "name": "691b828805745210288dead5a5764650"}, {"lon": -76.9817305, "is_disabled": 0, "lat": 38.91667066666667, "fusion_lat": 0.0, "is_reserved": 0, "rental_uris": {"ios": "https://dc.lft.to/lastmile_qr_scan", "android": "https://dc.lft.to/lastmile_qr_scan"}, "fusion_lon": 0.0, "type": "electric_scooter", "bike_id": "27d49d923e14452b9db40edab64d317d", "name": "27d49d923e14452b9db40edab64d317d"}, {"lon": -76.971702, "is_disabled": 0, "lat": 38.878148833333334, "fusion_lat": 0.0, "is_reserved": 0, "rental_uris": {"ios": "https://dc.lft.to/lastmile_qr_scan", "android": "https://dc.lft.to/lastmile_qr_scan"}, "fusion_lon": 0.0, "type": "electric_scooter", "bike_id": "08218211f2da4d8da64a75cb703912dd", "name": "08218211f2da4d8da64a75cb703912dd"}, {"lon": -77.03784183333333, "is_disabled": 0, "lat": 38.926294666666664, "fusion_lat": 0.0, "is_reserved": 0, "rental_uris": {"ios": "https://dc.lft.to/lastmile_qr_scan", "android": "https://dc.lft.to/lastmile_qr_scan"}, "fusion_lon": 0.0, "type": "electric_scooter", "bike_id": "d5b78f3591f7cffd8f4bf6b310811992", "name": "d5b78f3591f7cffd8f4bf6b310811992"}, {"lon": -77.06205616666666, "is_disabled": 0, "lat": 38.933501166666666, "fusion_lat": 0.0, "is_reserved": 0, "rental_uris": {"ios": "https://dc.lft.to/lastmile_qr_scan", "android": "https://dc.lft.to/lastmile_qr_scan"}, "fusion_lon": 0.0, "type": "electric_scooter", "bike_id": "fc8ad3cebe3b69cfe13b7012239888d1", "name": "fc8ad3cebe3b69cfe13b7012239888d1"}, {"lon": -77.03930683333333, "is_disabled": 0, "lat": 38.90945166666667, "fusion_lat": 0.0, "is_reserved": 0, "rental_uris": {"ios": "https://dc.lft.to/lastmile_qr_scan", "android": "https://dc.lft.to/lastmile_qr_scan"}, "fusion_lon": 0.0, "type": "electric_scooter", "bike_id": "6e7713d0272de6c990a52a2948f5fccf", "name": "6e7713d0272de6c990a52a2948f5fccf"}, {"lon": -77.0241485, "is_disabled": 0, "lat": 38.909688, "fusion_lat": 0.0, "is_reserved": 0, "rental_uris": {"ios": "https://dc.lft.to/lastmile_qr_scan", "android": "https://dc.lft.to/lastmile_qr_scan"}, "fusion_lon": 0.0, "type": "electric_scooter", "bike_id": "eac33353c8a64e5117ac6575938e6d24", "name": "eac33353c8a64e5117ac6575938e6d24"}, {"lon": -77.02491433333333, "is_disabled": 0, "lat": 38.9417935, "fusion_lat": 0.0, "is_reserved": 0, "rental_uris": {"ios": "https://dc.lft.to/lastmile_qr_scan", "android": "https://dc.lft.to/lastmile_qr_scan"}, "fusion_lon": 0.0, "type": "electric_scooter", "bike_id": "22776b04ced87fd5b029ea2186a0dcf3", "name": "22776b04ced87fd5b029ea2186a0dcf3"}, {"lon": -77.00682916666666, "is_disabled": 0, "lat": 38.87174366666667, "fusion_lat": 0.0, "is_reserved": 0, "rental_uris": {"ios": "https://dc.lft.to/lastmile_qr_scan", "android": "https://dc.lft.to/lastmile_qr_scan"}, "fusion_lon": 0.0, "type": "electric_scooter", "bike_id": "bf312b08499c9ffa51324ee26cb9e3c5", "name": "bf312b08499c9ffa51324ee26cb9e3c5"}, {"lon": -77.02164216666667, "is_disabled": 0, "lat": 38.92509483333333, "fusion_lat": 0.0, "is_reserved": 0, "rental_uris": {"ios": "https://dc.lft.to/lastmile_qr_scan", "android": "https://dc.lft.to/lastmile_qr_scan"}, "fusion_lon": 0.0, "type": "electric_scooter", "bike_id": "2e586452dd5c99d4c2db13fa51ab18f3", "name": "2e586452dd5c99d4c2db13fa51ab18f3"}, {"lon": -77.0113925, "is_disabled": 0, "lat": 38.90642666666667, "fusion_lat": 0.0, "is_reserved": 0, "rental_uris": {"ios": "https://dc.lft.to/lastmile_qr_scan", "android": "https://dc.lft.to/lastmile_qr_scan"}, "fusion_lon": 0.0, "type": "electric_scooter", "bike_id": "d32178401b1c217faba92162717298a6", "name": "d32178401b1c217faba92162717298a6"}, {"lon": -77.02386083333333, "is_disabled": 0, "lat": 38.90697083333333, "fusion_lat": 0.0, "is_reserved": 0, "rental_uris": {"ios": "https://dc.lft.to/lastmile_qr_scan", "android": "https://dc.lft.to/lastmile_qr_scan"}, "fusion_lon": 0.0, "type": "electric_scooter", "bike_id": "d23f3c8cb63bb487bc1ff408733550cb", "name": "d23f3c8cb63bb487bc1ff408733550cb"}, {"lon": -77.03552133333334, "is_disabled": 0, "lat": 38.91257616666667, "fusion_lat": 0.0, "is_reserved": 0, "rental_uris": {"ios": "https://dc.lft.to/lastmile_qr_scan", "android": "https://dc.lft.to/lastmile_qr_scan"}, "fusion_lon": 0.0, "type": "electric_scooter", "bike_id": "47f270e3e3474aa9003fd6200b25b2d6", "name": "47f270e3e3474aa9003fd6200b25b2d6"}, {"lon": -76.98575866666667, "is_disabled": 0, "lat": 38.866817833333336, "fusion_lat": 0.0, "is_reserved": 0, "rental_uris": {"ios": "https://dc.lft.to/lastmile_qr_scan", "android": "https://dc.lft.to/lastmile_qr_scan"}, "fusion_lon": 0.0, "type": "electric_scooter", "bike_id": "bea69b9cfc1fc41dc1f2a2843fa37a4b", "name": "bea69b9cfc1fc41dc1f2a2843fa37a4b"}, {"lon": -76.9949865, "is_disabled": 0, "lat": 38.86248, "fusion_lat": 0.0, "is_reserved": 0, "rental_uris": {"ios": "https://dc.lft.to/lastmile_qr_scan", "android": "https://dc.lft.to/lastmile_qr_scan"}, "fusion_lon": 0.0, "type": "electric_scooter", "bike_id": "d60eac1e30ba08c84abeeb19406391b5", "name": "d60eac1e30ba08c84abeeb19406391b5"}, {"lon": -77.03451666666666, "is_disabled": 0, "lat": 38.90734116666667, "fusion_lat": 0.0, "is_reserved": 0, "rental_uris": {"ios": "https://dc.lft.to/lastmile_qr_scan", "android": "https://dc.lft.to/lastmile_qr_scan"}, "fusion_lon": 0.0, "type": "electric_scooter", "bike_id": "3fcccbf9083bb07466cc313ad4b6bddd", "name": "3fcccbf9083bb07466cc313ad4b6bddd"}, {"lon": -77.03682416666666, "is_disabled": 0, "lat": 38.922699, "fusion_lat": 0.0, "is_reserved": 0, "rental_uris": {"ios": "https://dc.lft.to/lastmile_qr_scan", "android": "https://dc.lft.to/lastmile_qr_scan"}, "fusion_lon": 0.0, "type": "electric_scooter", "bike_id": "bdeb3902b1a95c54e0f60ecf4f9c443f", "name": "bdeb3902b1a95c54e0f60ecf4f9c443f"}, {"lon": -77.005978, "is_disabled": 0, "lat": 38.90635866666667, "fusion_lat": 0.0, "is_reserved": 0, "rental_uris": {"ios": "https://dc.lft.to/lastmile_qr_scan", "android": "https://dc.lft.to/lastmile_qr_scan"}, "fusion_lon": 0.0, "type": "electric_scooter", "bike_id": "d83bf7f8fa96a4014914f52ad5091851", "name": "d83bf7f8fa96a4014914f52ad5091851"}, {"lon": -77.00603266666667, "is_disabled": 0, "lat": 38.90551133333334, "fusion_lat": 0.0, "is_reserved": 0, "rental_uris": {"ios": "https://dc.lft.to/lastmile_qr_scan", "android": "https://dc.lft.to/lastmile_qr_scan"}, "fusion_lon": 0.0, "type": "electric_scooter", "bike_id": "924c0707a3c920d005e3eb8378fa0ee5", "name": "924c0707a3c920d005e3eb8378fa0ee5"}, {"lon": -77.02403783333334, "is_disabled": 0, "lat": 38.91763066666667, "fusion_lat": 0.0, "is_reserved": 0, "rental_uris": {"ios": "https://dc.lft.to/lastmile_qr_scan", "android": "https://dc.lft.to/lastmile_qr_scan"}, "fusion_lon": 0.0, "type": "electric_scooter", "bike_id": "645e1dc6aabd6a3cc8b8124e662f2da8", "name": "645e1dc6aabd6a3cc8b8124e662f2da8"}, {"lon": -76.97096, "is_disabled": 0, "lat": 38.8705985, "fusion_lat": 0.0, "is_reserved": 0, "rental_uris": {"ios": "https://dc.lft.to/lastmile_qr_scan", "android": "https://dc.lft.to/lastmile_qr_scan"}, "fusion_lon": 0.0, "type": "electric_scooter", "bike_id": "9a042ab237bc9e1bd1deab7eee28219a", "name": "9a042ab237bc9e1bd1deab7eee28219a"}, {"lon": -76.946392, "is_disabled": 0, "lat": 38.89865983333333, "fusion_lat": 0.0, "is_reserved": 0, "rental_uris": {"ios": "https://dc.lft.to/lastmile_qr_scan", "android": "https://dc.lft.to/lastmile_qr_scan"}, "fusion_lon": 0.0, "type": "electric_scooter", "bike_id": "c615f2d06c4a45b0b47cef0f6fd5848e", "name": "c615f2d06c4a45b0b47cef0f6fd5848e"}, {"lon": -77.022292, "is_disabled": 0, "lat": 38.93474766666667, "fusion_lat": 0.0, "is_reserved": 0, "rental_uris": {"ios": "https://dc.lft.to/lastmile_qr_scan", "android": "https://dc.lft.to/lastmile_qr_scan"}, "fusion_lon": 0.0, "type": "electric_scooter", "bike_id": "547b2a9a678322a3bcbb88d8de4040cc", "name": "547b2a9a678322a3bcbb88d8de4040cc"}, {"lon": -77.20138366666667, "is_disabled": 0, "lat": 38.922220833333334, "fusion_lat": 0.0, "is_reserved": 0, "rental_uris": {"ios": "https://dc.lft.to/lastmile_qr_scan", "android": "https://dc.lft.to/lastmile_qr_scan"}, "fusion_lon": 0.0, "type": "electric_bike", "bike_id": "e6b89ce24c87ab2f7cb038ca72973c89", "name": "e6b89ce24c87ab2f7cb038ca72973c89"}, {"lon": -77.03288333333333, "is_disabled": 0, "lat": 38.92257883333333, "fusion_lat": 0.0, "is_reserved": 0, "rental_uris": {"ios": "https://dc.lft.to/lastmile_qr_scan", "android": "https://dc.lft.to/lastmile_qr_scan"}, "fusion_lon": 0.0, "type": "electric_scooter", "bike_id": "8d90904d985111f2c274ac81c775f88c", "name": "8d90904d985111f2c274ac81c775f88c"}, {"lon": -77.09139266666666, "is_disabled": 0, "lat": 38.86150633333333, "fusion_lat": 0.0, "is_reserved": 0, "rental_uris": {"ios": "https://dc.lft.to/lastmile_qr_scan", "android": "https://dc.lft.to/lastmile_qr_scan"}, "fusion_lon": 0.0, "type": "electric_bike", "bike_id": "422e06d02646713dc1e52384b3cc0fb2", "name": "422e06d02646713dc1e52384b3cc0fb2"}, {"lon": -77.02588316666667, "is_disabled": 0, "lat": 38.942074166666664, "fusion_lat": 0.0, "is_reserved": 0, "rental_uris": {"ios": "https://dc.lft.to/lastmile_qr_scan", "android": "https://dc.lft.to/lastmile_qr_scan"}, "fusion_lon": 0.0, "type": "electric_scooter", "bike_id": "d25d3fe46004d38f51c2f83243a4eb74", "name": "d25d3fe46004d38f51c2f83243a4eb74"}, {"lon": -77.02209766666667, "is_disabled": 0, "lat": 38.91562166666667, "fusion_lat": 0.0, "is_reserved": 0, "rental_uris": {"ios": "https://dc.lft.to/lastmile_qr_scan", "android": "https://dc.lft.to/lastmile_qr_scan"}, "fusion_lon": 0.0, "type": "electric_scooter", "bike_id": "7fa25fd8bd7bef3e678d4194a058686e", "name": "7fa25fd8bd7bef3e678d4194a058686e"}, {"lon": -77.03152433333334, "is_disabled": 0, "lat": 38.9644055, "fusion_lat": 0.0, "is_reserved": 0, "rental_uris": {"ios": "https://dc.lft.to/lastmile_qr_scan", "android": "https://dc.lft.to/lastmile_qr_scan"}, "fusion_lon": 0.0, "type": "electric_bike", "bike_id": "9cc0633a21c5b6f8bcf2bf648cbb1c2a", "name": "9cc0633a21c5b6f8bcf2bf648cbb1c2a"}, {"lon": -77.04748783333334, "is_disabled": 0, "lat": 38.91873116666667, "fusion_lat": 0.0, "is_reserved": 0, "rental_uris": {"ios": "https://dc.lft.to/lastmile_qr_scan", "android": "https://dc.lft.to/lastmile_qr_scan"}, "fusion_lon": 0.0, "type": "electric_scooter", "bike_id": "72a96955d2503773dd90d43df30626eb", "name": "72a96955d2503773dd90d43df30626eb"}, {"lon": -77.057411, "is_disabled": 0, "lat": 38.933889, "fusion_lat": 0.0, "is_reserved": 0, "rental_uris": {"ios": "https://dc.lft.to/lastmile_qr_scan", "android": "https://dc.lft.to/lastmile_qr_scan"}, "fusion_lon": 0.0, "type": "electric_scooter", "bike_id": "1642089156111c07cbacaf7eb460c828", "name": "1642089156111c07cbacaf7eb460c828"}, {"lon": -77.0467375, "is_disabled": 0, "lat": 38.89330416666667, "fusion_lat": 0.0, "is_reserved": 0, "rental_uris": {"ios": "https://dc.lft.to/lastmile_qr_scan", "android": "https://dc.lft.to/lastmile_qr_scan"}, "fusion_lon": 0.0, "type": "electric_scooter", "bike_id": "dbf5b51e953de5ee7f46d7b10627d503", "name": "dbf5b51e953de5ee7f46d7b10627d503"}, {"lon": -77.04233866666667, "is_disabled": 0, "lat": 38.92056816666667, "fusion_lat": 0.0, "is_reserved": 0, "rental_uris": {"ios": "https://dc.lft.to/lastmile_qr_scan", "android": "https://dc.lft.to/lastmile_qr_scan"}, "fusion_lon": 0.0, "type": "electric_scooter", "bike_id": "a7c1d2fd81e504e072cd11240730e872", "name": "a7c1d2fd81e504e072cd11240730e872"}, {"lon": -77.0447005, "is_disabled": 0, "lat": 38.91196516666667, "fusion_lat": 0.0, "is_reserved": 0, "rental_uris": {"ios": "https://dc.lft.to/lastmile_qr_scan", "android": "https://dc.lft.to/lastmile_qr_scan"}, "fusion_lon": 0.0, "type": "electric_scooter", "bike_id": "caaf97f1070d5c8a5fc0023d14541574", "name": "caaf97f1070d5c8a5fc0023d14541574"}, {"lon": -77.003859, "is_disabled": 0, "lat": 38.895444166666664, "fusion_lat": 0.0, "is_reserved": 0, "rental_uris": {"ios": "https://dc.lft.to/lastmile_qr_scan", "android": "https://dc.lft.to/lastmile_qr_scan"}, "fusion_lon": 0.0, "type": "electric_scooter", "bike_id": "da3d14ba759df386336da6123ce93ac9", "name": "da3d14ba759df386336da6123ce93ac9"}, {"lon": -77.06394733333333, "is_disabled": 0, "lat": 38.944197333333335, "fusion_lat": 0.0, "is_reserved": 0, "rental_uris": {"ios": "https://dc.lft.to/lastmile_qr_scan", "android": "https://dc.lft.to/lastmile_qr_scan"}, "fusion_lon": 0.0, "type": "electric_scooter", "bike_id": "e5dabd9d85d708d3af69f707110da1d1", "name": "e5dabd9d85d708d3af69f707110da1d1"}, {"lon": -76.9836755, "is_disabled": 0, "lat": 38.91494316666667, "fusion_lat": 0.0, "is_reserved": 0, "rental_uris": {"ios": "https://dc.lft.to/lastmile_qr_scan", "android": "https://dc.lft.to/lastmile_qr_scan"}, "fusion_lon": 0.0, "type": "electric_scooter", "bike_id": "2224d0e4d2d72aa7519eb3942f9ff776", "name": "2224d0e4d2d72aa7519eb3942f9ff776"}, {"lon": -77.02813583333334, "is_disabled": 0, "lat": 38.908994166666666, "fusion_lat": 0.0, "is_reserved": 0, "rental_uris": {"ios": "https://dc.lft.to/lastmile_qr_scan", "android": "https://dc.lft.to/lastmile_qr_scan"}, "fusion_lon": 0.0, "type": "electric_scooter", "bike_id": "263e56825bb87c90d5947c2d79d6e3c9", "name": "263e56825bb87c90d5947c2d79d6e3c9"}, {"lon": -77.0221005, "is_disabled": 0, "lat": 38.901933666666665, "fusion_lat": 0.0, "is_reserved": 0, "rental_uris": {"ios": "https://dc.lft.to/lastmile_qr_scan", "android": "https://dc.lft.to/lastmile_qr_scan"}, "fusion_lon": 0.0, "type": "electric_scooter", "bike_id": "02438ab6654bdbe80acf6f9d273df8d2", "name": "02438ab6654bdbe80acf6f9d273df8d2"}, {"lon": -77.02289233333333, "is_disabled": 0, "lat": 38.894974500000004, "fusion_lat": 0.0, "is_reserved": 0, "rental_uris": {"ios": "https://dc.lft.to/lastmile_qr_scan", "android": "https://dc.lft.to/lastmile_qr_scan"}, "fusion_lon": 0.0, "type": "electric_scooter", "bike_id": "4918eeacea0848b957e749d1b2ddff52", "name": "4918eeacea0848b957e749d1b2ddff52"}, {"lon": -76.9611065, "is_disabled": 0, "lat": 38.918585, "fusion_lat": 0.0, "is_reserved": 0, "rental_uris": {"ios": "https://dc.lft.to/lastmile_qr_scan", "android": "https://dc.lft.to/lastmile_qr_scan"}, "fusion_lon": 0.0, "type": "electric_scooter", "bike_id": "8d179962c674db51efe0d32e137632a7", "name": "8d179962c674db51efe0d32e137632a7"}, {"lon": -77.05043716666667, "is_disabled": 0, "lat": 38.92337466666667, "fusion_lat": 0.0, "is_reserved": 0, "rental_uris": {"ios": "https://dc.lft.to/lastmile_qr_scan", "android": "https://dc.lft.to/lastmile_qr_scan"}, "fusion_lon": 0.0, "type": "electric_scooter", "bike_id": "9326a6fd96552289edf0ecb99028fbc5", "name": "9326a6fd96552289edf0ecb99028fbc5"}, {"lon": -77.0386625, "is_disabled": 0, "lat": 38.9125375, "fusion_lat": 0.0, "is_reserved": 0, "rental_uris": {"ios": "https://dc.lft.to/lastmile_qr_scan", "android": "https://dc.lft.to/lastmile_qr_scan"}, "fusion_lon": 0.0, "type": "electric_scooter", "bike_id": "d5b1c391ef3a27127a16a4844d07eff1", "name": "d5b1c391ef3a27127a16a4844d07eff1"}, {"lon": -77.02127966666667, "is_disabled": 0, "lat": 38.921204833333334, "fusion_lat": 0.0, "is_reserved": 0, "rental_uris": {"ios": "https://dc.lft.to/lastmile_qr_scan", "android": "https://dc.lft.to/lastmile_qr_scan"}, "fusion_lon": 0.0, "type": "electric_scooter", "bike_id": "5b3998214789cb7272e72a9af021a586", "name": "5b3998214789cb7272e72a9af021a586"}, {"lon": -77.024088, "is_disabled": 0, "lat": 38.913938, "fusion_lat": 0.0, "is_reserved": 0, "rental_uris": {"ios": "https://dc.lft.to/lastmile_qr_scan", "android": "https://dc.lft.to/lastmile_qr_scan"}, "fusion_lon": 0.0, "type": "electric_scooter", "bike_id": "c41a003936c621b28ef8239767277c85", "name": "c41a003936c621b28ef8239767277c85"}, {"lon": -76.95780483333333, "is_disabled": 0, "lat": 38.868776, "fusion_lat": 0.0, "is_reserved": 0, "rental_uris": {"ios": "https://dc.lft.to/lastmile_qr_scan", "android": "https://dc.lft.to/lastmile_qr_scan"}, "fusion_lon": 0.0, "type": "electric_bike", "bike_id": "a9a660468af5394d4c3dbb1768cdd8e8", "name": "a9a660468af5394d4c3dbb1768cdd8e8"}, {"lon": -77.01976616666667, "is_disabled": 0, "lat": 38.9357265, "fusion_lat": 0.0, "is_reserved": 0, "rental_uris": {"ios": "https://dc.lft.to/lastmile_qr_scan", "android": "https://dc.lft.to/lastmile_qr_scan"}, "fusion_lon": 0.0, "type": "electric_scooter", "bike_id": "e80452b39625851cb33dc1f1f9ebbb09", "name": "e80452b39625851cb33dc1f1f9ebbb09"}, {"lon": -77.04509183333333, "is_disabled": 0, "lat": 38.9149985, "fusion_lat": 0.0, "is_reserved": 0, "rental_uris": {"ios": "https://dc.lft.to/lastmile_qr_scan", "android": "https://dc.lft.to/lastmile_qr_scan"}, "fusion_lon": 0.0, "type": "electric_scooter", "bike_id": "24f0df73ef6f23de283e537a430c84dc", "name": "24f0df73ef6f23de283e537a430c84dc"}, {"lon": -77.0049515, "is_disabled": 0, "lat": 38.87462283333333, "fusion_lat": 0.0, "is_reserved": 0, "rental_uris": {"ios": "https://dc.lft.to/lastmile_qr_scan", "android": "https://dc.lft.to/lastmile_qr_scan"}, "fusion_lon": 0.0, "type": "electric_scooter", "bike_id": "1265e8cd436d67c322d499ae0276a7d5", "name": "1265e8cd436d67c322d499ae0276a7d5"}, {"lon": -76.9652975, "is_disabled": 0, "lat": 38.91856533333333, "fusion_lat": 0.0, "is_reserved": 0, "rental_uris": {"ios": "https://dc.lft.to/lastmile_qr_scan", "android": "https://dc.lft.to/lastmile_qr_scan"}, "fusion_lon": 0.0, "type": "electric_scooter", "bike_id": "2e89653d2ae4efdd1e29f172ca6cc05e", "name": "2e89653d2ae4efdd1e29f172ca6cc05e"}, {"lon": -77.0058945, "is_disabled": 0, "lat": 38.875678666666666, "fusion_lat": 0.0, "is_reserved": 0, "rental_uris": {"ios": "https://dc.lft.to/lastmile_qr_scan", "android": "https://dc.lft.to/lastmile_qr_scan"}, "fusion_lon": 0.0, "type": "electric_scooter", "bike_id": "e31cdb157ce877600ffbfd9dd65131cc", "name": "e31cdb157ce877600ffbfd9dd65131cc"}, {"lon": -77.038323, "is_disabled": 0, "lat": 38.907769, "fusion_lat": 0.0, "is_reserved": 0, "rental_uris": {"ios": "https://dc.lft.to/lastmile_qr_scan", "android": "https://dc.lft.to/lastmile_qr_scan"}, "fusion_lon": 0.0, "type": "electric_scooter", "bike_id": "b3e30f2b78e585aad4c1774976d9fd6e", "name": "b3e30f2b78e585aad4c1774976d9fd6e"}, {"lon": -77.08066766666667, "is_disabled": 0, "lat": 39.052522, "fusion_lat": 0.0, "is_reserved": 0, "rental_uris": {"ios": "https://dc.lft.to/lastmile_qr_scan", "android": "https://dc.lft.to/lastmile_qr_scan"}, "fusion_lon": 0.0, "type": "electric_bike", "bike_id": "cc4c085aab29e8ac3698166d47f8483f", "name": "cc4c085aab29e8ac3698166d47f8483f"}, {"lon": -77.06286266666666, "is_disabled": 0, "lat": 38.9057765, "fusion_lat": 0.0, "is_reserved": 0, "rental_uris": {"ios": "https://dc.lft.to/lastmile_qr_scan", "android": "https://dc.lft.to/lastmile_qr_scan"}, "fusion_lon": 0.0, "type": "electric_scooter", "bike_id": "fb1b4e9468b2ce05da430daabcc20be6", "name": "fb1b4e9468b2ce05da430daabcc20be6"}, {"lon": -77.04956, "is_disabled": 0, "lat": 38.8982885, "fusion_lat": 0.0, "is_reserved": 0, "rental_uris": {"ios": "https://dc.lft.to/lastmile_qr_scan", "android": "https://dc.lft.to/lastmile_qr_scan"}, "fusion_lon": 0.0, "type": "electric_scooter", "bike_id": "6d4eb47a5ca541b5f1d3324c4a6deffc", "name": "6d4eb47a5ca541b5f1d3324c4a6deffc"}, {"lon": -77.0494475, "is_disabled": 0, "lat": 38.91824, "fusion_lat": 0.0, "is_reserved": 0, "rental_uris": {"ios": "https://dc.lft.to/lastmile_qr_scan", "android": "https://dc.lft.to/lastmile_qr_scan"}, "fusion_lon": 0.0, "type": "electric_scooter", "bike_id": "650ea5e66d5d5cd3b87cd46c72d1569b", "name": "650ea5e66d5d5cd3b87cd46c72d1569b"}, {"lon": -76.98708366666666, "is_disabled": 0, "lat": 38.86705633333333, "fusion_lat": 0.0, "is_reserved": 0, "rental_uris": {"ios": "https://dc.lft.to/lastmile_qr_scan", "android": "https://dc.lft.to/lastmile_qr_scan"}, "fusion_lon": 0.0, "type": "electric_scooter", "bike_id": "c1177ad6fef7935c3ecdb9dcf959fcaa", "name": "c1177ad6fef7935c3ecdb9dcf959fcaa"}, {"lon": -77.03495466666666, "is_disabled": 0, "lat": 38.92334666666667, "fusion_lat": 0.0, "is_reserved": 0, "rental_uris": {"ios": "https://dc.lft.to/lastmile_qr_scan", "android": "https://dc.lft.to/lastmile_qr_scan"}, "fusion_lon": 0.0, "type": "electric_scooter", "bike_id": "bc016ae78fe73df5d044cd763216c753", "name": "bc016ae78fe73df5d044cd763216c753"}, {"lon": -76.97025983333333, "is_disabled": 0, "lat": 38.873593, "fusion_lat": 0.0, "is_reserved": 0, "rental_uris": {"ios": "https://dc.lft.to/lastmile_qr_scan", "android": "https://dc.lft.to/lastmile_qr_scan"}, "fusion_lon": 0.0, "type": "electric_scooter", "bike_id": "16c76ed52805be25921f5db01bd6e303", "name": "16c76ed52805be25921f5db01bd6e303"}, {"lon": -77.0228865, "is_disabled": 0, "lat": 38.895029, "fusion_lat": 0.0, "is_reserved": 0, "rental_uris": {"ios": "https://dc.lft.to/lastmile_qr_scan", "android": "https://dc.lft.to/lastmile_qr_scan"}, "fusion_lon": 0.0, "type": "electric_scooter", "bike_id": "cb346fea8fd3c6f822777adf375c9401", "name": "cb346fea8fd3c6f822777adf375c9401"}, {"lon": -77.04173683333333, "is_disabled": 0, "lat": 38.9014975, "fusion_lat": 0.0, "is_reserved": 0, "rental_uris": {"ios": "https://dc.lft.to/lastmile_qr_scan", "android": "https://dc.lft.to/lastmile_qr_scan"}, "fusion_lon": 0.0, "type": "electric_scooter", "bike_id": "2bef8e6585c2890c79ce10d79a3db57c", "name": "2bef8e6585c2890c79ce10d79a3db57c"}, {"lon": -77.0205995, "is_disabled": 0, "lat": 38.93339816666666, "fusion_lat": 0.0, "is_reserved": 0, "rental_uris": {"ios": "https://dc.lft.to/lastmile_qr_scan", "android": "https://dc.lft.to/lastmile_qr_scan"}, "fusion_lon": 0.0, "type": "electric_scooter", "bike_id": "ae5ac9a0954e0a04ed3b8ccadb4b2115", "name": "ae5ac9a0954e0a04ed3b8ccadb4b2115"}, {"lon": -77.01536466666667, "is_disabled": 0, "lat": 38.8873675, "fusion_lat": 0.0, "is_reserved": 0, "rental_uris": {"ios": "https://dc.lft.to/lastmile_qr_scan", "android": "https://dc.lft.to/lastmile_qr_scan"}, "fusion_lon": 0.0, "type": "electric_scooter", "bike_id": "f181fec1b5f533270cb7861f4b5110cf", "name": "f181fec1b5f533270cb7861f4b5110cf"}, {"lon": -77.06270916666666, "is_disabled": 0, "lat": 38.90571966666667, "fusion_lat": 0.0, "is_reserved": 0, "rental_uris": {"ios": "https://dc.lft.to/lastmile_qr_scan", "android": "https://dc.lft.to/lastmile_qr_scan"}, "fusion_lon": 0.0, "type": "electric_scooter", "bike_id": "4b54646183ba966952a578f90520ba77", "name": "4b54646183ba966952a578f90520ba77"}, {"lon": -77.02863283333333, "is_disabled": 0, "lat": 38.89359316666667, "fusion_lat": 0.0, "is_reserved": 0, "rental_uris": {"ios": "https://dc.lft.to/lastmile_qr_scan", "android": "https://dc.lft.to/lastmile_qr_scan"}, "fusion_lon": 0.0, "type": "electric_scooter", "bike_id": "bee2e395241b8cc7040e682301b62ca3", "name": "bee2e395241b8cc7040e682301b62ca3"}, {"lon": -77.0096525, "is_disabled": 0, "lat": 38.906589833333335, "fusion_lat": 0.0, "is_reserved": 0, "rental_uris": {"ios": "https://dc.lft.to/lastmile_qr_scan", "android": "https://dc.lft.to/lastmile_qr_scan"}, "fusion_lon": 0.0, "type": "electric_scooter", "bike_id": "11eca3598ee792f73840536d505ab87b", "name": "11eca3598ee792f73840536d505ab87b"}, {"lon": -77.038389, "is_disabled": 0, "lat": 38.94191983333333, "fusion_lat": 0.0, "is_reserved": 0, "rental_uris": {"ios": "https://dc.lft.to/lastmile_qr_scan", "android": "https://dc.lft.to/lastmile_qr_scan"}, "fusion_lon": 0.0, "type": "electric_scooter", "bike_id": "67f3d20adb4fe3d618010dfaa37f038b", "name": "67f3d20adb4fe3d618010dfaa37f038b"}, {"lon": -77.02840783333333, "is_disabled": 0, "lat": 38.8865125, "fusion_lat": 0.0, "is_reserved": 0, "rental_uris": {"ios": "https://dc.lft.to/lastmile_qr_scan", "android": "https://dc.lft.to/lastmile_qr_scan"}, "fusion_lon": 0.0, "type": "electric_scooter", "bike_id": "c49a2f9b0501a2775adee44f6751c863", "name": "c49a2f9b0501a2775adee44f6751c863"}, {"lon": -77.025659, "is_disabled": 0, "lat": 38.89747116666667, "fusion_lat": 0.0, "is_reserved": 0, "rental_uris": {"ios": "https://dc.lft.to/lastmile_qr_scan", "android": "https://dc.lft.to/lastmile_qr_scan"}, "fusion_lon": 0.0, "type": "electric_scooter", "bike_id": "e5603e7fd154ecd479f772f3f187d5b9", "name": "e5603e7fd154ecd479f772f3f187d5b9"}, {"lon": -77.03235516666666, "is_disabled": 0, "lat": 38.90721033333333, "fusion_lat": 0.0, "is_reserved": 0, "rental_uris": {"ios": "https://dc.lft.to/lastmile_qr_scan", "android": "https://dc.lft.to/lastmile_qr_scan"}, "fusion_lon": 0.0, "type": "electric_scooter", "bike_id": "017d7397e253b4cae7dbbaa723346ea8", "name": "017d7397e253b4cae7dbbaa723346ea8"}, {"lon": -77.00600516666667, "is_disabled": 0, "lat": 38.87588683333333, "fusion_lat": 0.0, "is_reserved": 0, "rental_uris": {"ios": "https://dc.lft.to/lastmile_qr_scan", "android": "https://dc.lft.to/lastmile_qr_scan"}, "fusion_lon": 0.0, "type": "electric_scooter", "bike_id": "b4f5b57d965f06473fd55e6c4e30010f", "name": "b4f5b57d965f06473fd55e6c4e30010f"}, {"lon": -77.03826633333334, "is_disabled": 0, "lat": 38.93130883333333, "fusion_lat": 0.0, "is_reserved": 0, "rental_uris": {"ios": "https://dc.lft.to/lastmile_qr_scan", "android": "https://dc.lft.to/lastmile_qr_scan"}, "fusion_lon": 0.0, "type": "electric_scooter", "bike_id": "ad58b3c931b6a1ff90d3e91a15f669e1", "name": "ad58b3c931b6a1ff90d3e91a15f669e1"}, {"lon": -77.01354666666667, "is_disabled": 0, "lat": 38.87121583333333, "fusion_lat": 0.0, "is_reserved": 0, "rental_uris": {"ios": "https://dc.lft.to/lastmile_qr_scan", "android": "https://dc.lft.to/lastmile_qr_scan"}, "fusion_lon": 0.0, "type": "electric_scooter", "bike_id": "9429ef750c9410f9aa84f418ab76b5a2", "name": "9429ef750c9410f9aa84f418ab76b5a2"}, {"lon": -77.03401416666667, "is_disabled": 0, "lat": 38.91254033333333, "fusion_lat": 0.0, "is_reserved": 0, "rental_uris": {"ios": "https://dc.lft.to/lastmile_qr_scan", "android": "https://dc.lft.to/lastmile_qr_scan"}, "fusion_lon": 0.0, "type": "electric_scooter", "bike_id": "1ebaf078b859ff53143af1de2994cf99", "name": "1ebaf078b859ff53143af1de2994cf99"}, {"lon": -77.031835, "is_disabled": 0, "lat": 38.917167, "fusion_lat": 0.0, "is_reserved": 0, "rental_uris": {"ios": "https://dc.lft.to/lastmile_qr_scan", "android": "https://dc.lft.to/lastmile_qr_scan"}, "fusion_lon": 0.0, "type": "electric_scooter", "bike_id": "0366970f6f2a40065481624c75c67c9f", "name": "0366970f6f2a40065481624c75c67c9f"}, {"lon": -77.048767, "is_disabled": 0, "lat": 38.90647333333333, "fusion_lat": 0.0, "is_reserved": 0, "rental_uris": {"ios": "https://dc.lft.to/lastmile_qr_scan", "android": "https://dc.lft.to/lastmile_qr_scan"}, "fusion_lon": 0.0, "type": "electric_scooter", "bike_id": "e97754bbd4af8d1c188f937cc775f2a0", "name": "e97754bbd4af8d1c188f937cc775f2a0"}, {"lon": -77.00059966666667, "is_disabled": 0, "lat": 38.915114, "fusion_lat": 0.0, "is_reserved": 0, "rental_uris": {"ios": "https://dc.lft.to/lastmile_qr_scan", "android": "https://dc.lft.to/lastmile_qr_scan"}, "fusion_lon": 0.0, "type": "electric_scooter", "bike_id": "cf0fd111d48e8883899c112dc9b9dd41", "name": "cf0fd111d48e8883899c112dc9b9dd41"}, {"lon": -77.0271265, "is_disabled": 0, "lat": 38.9276635, "fusion_lat": 0.0, "is_reserved": 0, "rental_uris": {"ios": "https://dc.lft.to/lastmile_qr_scan", "android": "https://dc.lft.to/lastmile_qr_scan"}, "fusion_lon": 0.0, "type": "electric_scooter", "bike_id": "ad786f3d54f0a4c95afedc5239cffb76", "name": "ad786f3d54f0a4c95afedc5239cffb76"}, {"lon": -77.01648366666667, "is_disabled": 0, "lat": 38.881362833333334, "fusion_lat": 0.0, "is_reserved": 0, "rental_uris": {"ios": "https://dc.lft.to/lastmile_qr_scan", "android": "https://dc.lft.to/lastmile_qr_scan"}, "fusion_lon": 0.0, "type": "electric_scooter", "bike_id": "510198c601c77611dc24e6b631a1a3bd", "name": "510198c601c77611dc24e6b631a1a3bd"}, {"lon": -77.0226255, "is_disabled": 0, "lat": 38.9273785, "fusion_lat": 0.0, "is_reserved": 0, "rental_uris": {"ios": "https://dc.lft.to/lastmile_qr_scan", "android": "https://dc.lft.to/lastmile_qr_scan"}, "fusion_lon": 0.0, "type": "electric_scooter", "bike_id": "87b279f1882fdacfd067ad9ff04591c1", "name": "87b279f1882fdacfd067ad9ff04591c1"}, {"lon": -77.01635333333333, "is_disabled": 0, "lat": 38.9064625, "fusion_lat": 0.0, "is_reserved": 0, "rental_uris": {"ios": "https://dc.lft.to/lastmile_qr_scan", "android": "https://dc.lft.to/lastmile_qr_scan"}, "fusion_lon": 0.0, "type": "electric_scooter", "bike_id": "3e97976d1c6a420fb25a18e8cca7b6ba", "name": "3e97976d1c6a420fb25a18e8cca7b6ba"}, {"lon": -77.00069583333334, "is_disabled": 0, "lat": 38.873722, "fusion_lat": 0.0, "is_reserved": 0, "rental_uris": {"ios": "https://dc.lft.to/lastmile_qr_scan", "android": "https://dc.lft.to/lastmile_qr_scan"}, "fusion_lon": 0.0, "type": "electric_scooter", "bike_id": "8bc76c8e64e5cf20cfc290499f20138c", "name": "8bc76c8e64e5cf20cfc290499f20138c"}, {"lon": -77.044959, "is_disabled": 0, "lat": 38.908644, "fusion_lat": 0.0, "is_reserved": 0, "rental_uris": {"ios": "https://dc.lft.to/lastmile_qr_scan", "android": "https://dc.lft.to/lastmile_qr_scan"}, "fusion_lon": 0.0, "type": "electric_scooter", "bike_id": "6928108700a2a63df789cb4d19a29e77", "name": "6928108700a2a63df789cb4d19a29e77"}, {"lon": -77.030437, "is_disabled": 0, "lat": 38.91624266666667, "fusion_lat": 0.0, "is_reserved": 0, "rental_uris": {"ios": "https://dc.lft.to/lastmile_qr_scan", "android": "https://dc.lft.to/lastmile_qr_scan"}, "fusion_lon": 0.0, "type": "electric_scooter", "bike_id": "d812e1350c245111fa1ca103257ec486", "name": "d812e1350c245111fa1ca103257ec486"}, {"lon": -77.04653716666667, "is_disabled": 0, "lat": 38.90549216666667, "fusion_lat": 0.0, "is_reserved": 0, "rental_uris": {"ios": "https://dc.lft.to/lastmile_qr_scan", "android": "https://dc.lft.to/lastmile_qr_scan"}, "fusion_lon": 0.0, "type": "electric_scooter", "bike_id": "c9963456e6baa137317e27925bbe030d", "name": "c9963456e6baa137317e27925bbe030d"}, {"lon": -77.0542585, "is_disabled": 0, "lat": 38.928494, "fusion_lat": 0.0, "is_reserved": 0, "rental_uris": {"ios": "https://dc.lft.to/lastmile_qr_scan", "android": "https://dc.lft.to/lastmile_qr_scan"}, "fusion_lon": 0.0, "type": "electric_scooter", "bike_id": "be1bc13ea8cffe809de335cc9f3ee7c4", "name": "be1bc13ea8cffe809de335cc9f3ee7c4"}, {"lon": -77.0318025, "is_disabled": 0, "lat": 38.9174705, "fusion_lat": 0.0, "is_reserved": 0, "rental_uris": {"ios": "https://dc.lft.to/lastmile_qr_scan", "android": "https://dc.lft.to/lastmile_qr_scan"}, "fusion_lon": 0.0, "type": "electric_scooter", "bike_id": "58b1c1c562783d01ec613268d9411cdf", "name": "58b1c1c562783d01ec613268d9411cdf"}, {"lon": -77.03401733333334, "is_disabled": 0, "lat": 38.92204866666667, "fusion_lat": 0.0, "is_reserved": 0, "rental_uris": {"ios": "https://dc.lft.to/lastmile_qr_scan", "android": "https://dc.lft.to/lastmile_qr_scan"}, "fusion_lon": 0.0, "type": "electric_scooter", "bike_id": "c64ef2c1a1e63585d0049a8345c16db0", "name": "c64ef2c1a1e63585d0049a8345c16db0"}, {"lon": -77.03797866666666, "is_disabled": 0, "lat": 38.924972333333336, "fusion_lat": 0.0, "is_reserved": 0, "rental_uris": {"ios": "https://dc.lft.to/lastmile_qr_scan", "android": "https://dc.lft.to/lastmile_qr_scan"}, "fusion_lon": 0.0, "type": "electric_scooter", "bike_id": "75a266a7ae13eb5889ffd1b08e6dd169", "name": "75a266a7ae13eb5889ffd1b08e6dd169"}, {"lon": -77.0234795, "is_disabled": 0, "lat": 38.893943, "fusion_lat": 0.0, "is_reserved": 0, "rental_uris": {"ios": "https://dc.lft.to/lastmile_qr_scan", "android": "https://dc.lft.to/lastmile_qr_scan"}, "fusion_lon": 0.0, "type": "electric_scooter", "bike_id": "a891be949bcc495b030e7758ad656366", "name": "a891be949bcc495b030e7758ad656366"}, {"lon": -77.04008983333334, "is_disabled": 0, "lat": 38.909944333333335, "fusion_lat": 0.0, "is_reserved": 0, "rental_uris": {"ios": "https://dc.lft.to/lastmile_qr_scan", "android": "https://dc.lft.to/lastmile_qr_scan"}, "fusion_lon": 0.0, "type": "electric_scooter", "bike_id": "bff1f44b5f4be506ce0e5b007db3bdc0", "name": "bff1f44b5f4be506ce0e5b007db3bdc0"}, {"lon": -77.02695883333334, "is_disabled": 0, "lat": 38.90689666666667, "fusion_lat": 0.0, "is_reserved": 0, "rental_uris": {"ios": "https://dc.lft.to/lastmile_qr_scan", "android": "https://dc.lft.to/lastmile_qr_scan"}, "fusion_lon": 0.0, "type": "electric_scooter", "bike_id": "308396a49117f65ecf8d837940c5a721", "name": "308396a49117f65ecf8d837940c5a721"}, {"lon": -77.03259716666666, "is_disabled": 0, "lat": 38.9027265, "fusion_lat": 0.0, "is_reserved": 0, "rental_uris": {"ios": "https://dc.lft.to/lastmile_qr_scan", "android": "https://dc.lft.to/lastmile_qr_scan"}, "fusion_lon": 0.0, "type": "electric_scooter", "bike_id": "6faaea60e1c0071ed5ccec48304b2c57", "name": "6faaea60e1c0071ed5ccec48304b2c57"}, {"lon": -76.979976, "is_disabled": 0, "lat": 38.904463, "fusion_lat": 0.0, "is_reserved": 0, "rental_uris": {"ios": "https://dc.lft.to/lastmile_qr_scan", "android": "https://dc.lft.to/lastmile_qr_scan"}, "fusion_lon": 0.0, "type": "electric_scooter", "bike_id": "e8257d3dbcca10eae70d675f2a5b9330", "name": "e8257d3dbcca10eae70d675f2a5b9330"}, {"lon": -77.047708, "is_disabled": 0, "lat": 38.917668, "fusion_lat": 0.0, "is_reserved": 0, "rental_uris": {"ios": "https://dc.lft.to/lastmile_qr_scan", "android": "https://dc.lft.to/lastmile_qr_scan"}, "fusion_lon": 0.0, "type": "electric_scooter", "bike_id": "f9e168f609cf19774f73a2f402d3ea1f", "name": "f9e168f609cf19774f73a2f402d3ea1f"}, {"lon": -77.0385145, "is_disabled": 0, "lat": 38.932377, "fusion_lat": 0.0, "is_reserved": 0, "rental_uris": {"ios": "https://dc.lft.to/lastmile_qr_scan", "android": "https://dc.lft.to/lastmile_qr_scan"}, "fusion_lon": 0.0, "type": "electric_scooter", "bike_id": "5e825cde176ecc01c3611b7bbe13ddd3", "name": "5e825cde176ecc01c3611b7bbe13ddd3"}, {"lon": -77.0120975, "is_disabled": 0, "lat": 38.9001305, "fusion_lat": 0.0, "is_reserved": 0, "rental_uris": {"ios": "https://dc.lft.to/lastmile_qr_scan", "android": "https://dc.lft.to/lastmile_qr_scan"}, "fusion_lon": 0.0, "type": "electric_scooter", "bike_id": "86dd4db91992a39304d470fcf71d2bd1", "name": "86dd4db91992a39304d470fcf71d2bd1"}, {"lon": -76.93369633333333, "is_disabled": 0, "lat": 38.89912316666667, "fusion_lat": 0.0, "is_reserved": 0, "rental_uris": {"ios": "https://dc.lft.to/lastmile_qr_scan", "android": "https://dc.lft.to/lastmile_qr_scan"}, "fusion_lon": 0.0, "type": "electric_scooter", "bike_id": "bf09ca0a40fd7a394baa1b5ce2fa82fd", "name": "bf09ca0a40fd7a394baa1b5ce2fa82fd"}, {"lon": -76.98088233333333, "is_disabled": 0, "lat": 38.922425833333335, "fusion_lat": 0.0, "is_reserved": 0, "rental_uris": {"ios": "https://dc.lft.to/lastmile_qr_scan", "android": "https://dc.lft.to/lastmile_qr_scan"}, "fusion_lon": 0.0, "type": "electric_scooter", "bike_id": "0c8b76d01a07ec77104c22f19380db0d", "name": "0c8b76d01a07ec77104c22f19380db0d"}, {"lon": -77.04827433333334, "is_disabled": 0, "lat": 38.904345166666666, "fusion_lat": 0.0, "is_reserved": 0, "rental_uris": {"ios": "https://dc.lft.to/lastmile_qr_scan", "android": "https://dc.lft.to/lastmile_qr_scan"}, "fusion_lon": 0.0, "type": "electric_scooter", "bike_id": "66d98f6aad3a9028b19623ea81846085", "name": "66d98f6aad3a9028b19623ea81846085"}, {"lon": -77.02180066666666, "is_disabled": 0, "lat": 38.9286665, "fusion_lat": 0.0, "is_reserved": 0, "rental_uris": {"ios": "https://dc.lft.to/lastmile_qr_scan", "android": "https://dc.lft.to/lastmile_qr_scan"}, "fusion_lon": 0.0, "type": "electric_scooter", "bike_id": "67363a3d5893609be47b7b236f38adf0", "name": "67363a3d5893609be47b7b236f38adf0"}, {"lon": -77.03217583333333, "is_disabled": 0, "lat": 38.91610633333333, "fusion_lat": 0.0, "is_reserved": 0, "rental_uris": {"ios": "https://dc.lft.to/lastmile_qr_scan", "android": "https://dc.lft.to/lastmile_qr_scan"}, "fusion_lon": 0.0, "type": "electric_scooter", "bike_id": "7f5d1f201bcae52c9f04b47c771d5fee", "name": "7f5d1f201bcae52c9f04b47c771d5fee"}, {"lon": -77.02976716666667, "is_disabled": 0, "lat": 38.92782033333334, "fusion_lat": 0.0, "is_reserved": 0, "rental_uris": {"ios": "https://dc.lft.to/lastmile_qr_scan", "android": "https://dc.lft.to/lastmile_qr_scan"}, "fusion_lon": 0.0, "type": "electric_bike", "bike_id": "776f3be85eef6824c5c1c69a2dc96af2", "name": "776f3be85eef6824c5c1c69a2dc96af2"}, {"lon": -77.02651966666667, "is_disabled": 0, "lat": 38.930101666666665, "fusion_lat": 0.0, "is_reserved": 0, "rental_uris": {"ios": "https://dc.lft.to/lastmile_qr_scan", "android": "https://dc.lft.to/lastmile_qr_scan"}, "fusion_lon": 0.0, "type": "electric_scooter", "bike_id": "7c3a278298105c45326330362758986a", "name": "7c3a278298105c45326330362758986a"}, {"lon": -77.03631816666666, "is_disabled": 0, "lat": 38.9305525, "fusion_lat": 0.0, "is_reserved": 0, "rental_uris": {"ios": "https://dc.lft.to/lastmile_qr_scan", "android": "https://dc.lft.to/lastmile_qr_scan"}, "fusion_lon": 0.0, "type": "electric_scooter", "bike_id": "c216a96df28cfbbc1c4eba4d255d8b10", "name": "c216a96df28cfbbc1c4eba4d255d8b10"}, {"lon": -77.0830565, "is_disabled": 0, "lat": 38.854371, "fusion_lat": 0.0, "is_reserved": 0, "rental_uris": {"ios": "https://dc.lft.to/lastmile_qr_scan", "android": "https://dc.lft.to/lastmile_qr_scan"}, "fusion_lon": 0.0, "type": "electric_bike", "bike_id": "80e00c93a1378833e48a121259b87d6c", "name": "80e00c93a1378833e48a121259b87d6c"}, {"lon": -77.02955616666667, "is_disabled": 0, "lat": 38.90496683333333, "fusion_lat": 0.0, "is_reserved": 0, "rental_uris": {"ios": "https://dc.lft.to/lastmile_qr_scan", "android": "https://dc.lft.to/lastmile_qr_scan"}, "fusion_lon": 0.0, "type": "electric_scooter", "bike_id": "4aaa9463ce3e085a246305d8e24f4e32", "name": "4aaa9463ce3e085a246305d8e24f4e32"}, {"lon": -77.22926283333334, "is_disabled": 0, "lat": 38.93192883333333, "fusion_lat": 0.0, "is_reserved": 0, "rental_uris": {"ios": "https://dc.lft.to/lastmile_qr_scan", "android": "https://dc.lft.to/lastmile_qr_scan"}, "fusion_lon": 0.0, "type": "electric_bike", "bike_id": "f9b20ee004ea621d5dc1ae07ac5d2310", "name": "f9b20ee004ea621d5dc1ae07ac5d2310"}, {"lon": -77.0271405, "is_disabled": 0, "lat": 38.927657333333336, "fusion_lat": 0.0, "is_reserved": 0, "rental_uris": {"ios": "https://dc.lft.to/lastmile_qr_scan", "android": "https://dc.lft.to/lastmile_qr_scan"}, "fusion_lon": 0.0, "type": "electric_scooter", "bike_id": "da99da6ba60c1da36b92476483db0657", "name": "da99da6ba60c1da36b92476483db0657"}, {"lon": -77.03216, "is_disabled": 0, "lat": 38.913242, "fusion_lat": 0.0, "is_reserved": 0, "rental_uris": {"ios": "https://dc.lft.to/lastmile_qr_scan", "android": "https://dc.lft.to/lastmile_qr_scan"}, "fusion_lon": 0.0, "type": "electric_scooter", "bike_id": "14e2f5f39f9005933eba84bf310e78b7", "name": "14e2f5f39f9005933eba84bf310e78b7"}, {"lon": -77.027247, "is_disabled": 0, "lat": 38.89851083333333, "fusion_lat": 0.0, "is_reserved": 0, "rental_uris": {"ios": "https://dc.lft.to/lastmile_qr_scan", "android": "https://dc.lft.to/lastmile_qr_scan"}, "fusion_lon": 0.0, "type": "electric_scooter", "bike_id": "f71fe6d05d9bab06bae12f8a9ce18ac9", "name": "f71fe6d05d9bab06bae12f8a9ce18ac9"}, {"lon": -77.02726233333334, "is_disabled": 0, "lat": 38.9558495, "fusion_lat": 0.0, "is_reserved": 0, "rental_uris": {"ios": "https://dc.lft.to/lastmile_qr_scan", "android": "https://dc.lft.to/lastmile_qr_scan"}, "fusion_lon": 0.0, "type": "electric_scooter", "bike_id": "9ce439fd4d10dd5684e008acaf1e3c3f", "name": "9ce439fd4d10dd5684e008acaf1e3c3f"}, {"lon": -76.99003166666667, "is_disabled": 0, "lat": 38.8650925, "fusion_lat": 0.0, "is_reserved": 0, "rental_uris": {"ios": "https://dc.lft.to/lastmile_qr_scan", "android": "https://dc.lft.to/lastmile_qr_scan"}, "fusion_lon": 0.0, "type": "electric_scooter", "bike_id": "e3ec8a4f00972e2c432da5635ac13879", "name": "e3ec8a4f00972e2c432da5635ac13879"}, {"lon": -77.026097, "is_disabled": 0, "lat": 38.91412016666666, "fusion_lat": 0.0, "is_reserved": 0, "rental_uris": {"ios": "https://dc.lft.to/lastmile_qr_scan", "android": "https://dc.lft.to/lastmile_qr_scan"}, "fusion_lon": 0.0, "type": "electric_scooter", "bike_id": "01b62390122768f6914dd0ef6e73645d", "name": "01b62390122768f6914dd0ef6e73645d"}, {"lon": -77.024371, "is_disabled": 0, "lat": 38.92042933333333, "fusion_lat": 0.0, "is_reserved": 0, "rental_uris": {"ios": "https://dc.lft.to/lastmile_qr_scan", "android": "https://dc.lft.to/lastmile_qr_scan"}, "fusion_lon": 0.0, "type": "electric_scooter", "bike_id": "cf54761c5963d8f7ee8df41592b5112d", "name": "cf54761c5963d8f7ee8df41592b5112d"}, {"lon": -77.03403333333333, "is_disabled": 0, "lat": 38.938832833333336, "fusion_lat": 0.0, "is_reserved": 0, "rental_uris": {"ios": "https://dc.lft.to/lastmile_qr_scan", "android": "https://dc.lft.to/lastmile_qr_scan"}, "fusion_lon": 0.0, "type": "electric_scooter", "bike_id": "36b8559582ca8a689df5e1f5600d4e0e", "name": "36b8559582ca8a689df5e1f5600d4e0e"}, {"lon": -76.9965645, "is_disabled": 0, "lat": 38.86007716666667, "fusion_lat": 0.0, "is_reserved": 0, "rental_uris": {"ios": "https://dc.lft.to/lastmile_qr_scan", "android": "https://dc.lft.to/lastmile_qr_scan"}, "fusion_lon": 0.0, "type": "electric_scooter", "bike_id": "8f301b8d8e4f91a58a6a08c3ba357efc", "name": "8f301b8d8e4f91a58a6a08c3ba357efc"}, {"lon": -77.03180833333333, "is_disabled": 0, "lat": 38.92495666666667, "fusion_lat": 0.0, "is_reserved": 0, "rental_uris": {"ios": "https://dc.lft.to/lastmile_qr_scan", "android": "https://dc.lft.to/lastmile_qr_scan"}, "fusion_lon": 0.0, "type": "electric_scooter", "bike_id": "916d6b4673bbe39427e15c5dff389d1e", "name": "916d6b4673bbe39427e15c5dff389d1e"}, {"lon": -77.05482283333333, "is_disabled": 0, "lat": 38.9085775, "fusion_lat": 0.0, "is_reserved": 0, "rental_uris": {"ios": "https://dc.lft.to/lastmile_qr_scan", "android": "https://dc.lft.to/lastmile_qr_scan"}, "fusion_lon": 0.0, "type": "electric_scooter", "bike_id": "d7984bee2cab037ed2e6034702ee833e", "name": "d7984bee2cab037ed2e6034702ee833e"}, {"lon": -77.022472, "is_disabled": 0, "lat": 38.8962985, "fusion_lat": 0.0, "is_reserved": 0, "rental_uris": {"ios": "https://dc.lft.to/lastmile_qr_scan", "android": "https://dc.lft.to/lastmile_qr_scan"}, "fusion_lon": 0.0, "type": "electric_scooter", "bike_id": "86b4c323882e92a9a36ed53dc9fde841", "name": "86b4c323882e92a9a36ed53dc9fde841"}, {"lon": -76.93136366666667, "is_disabled": 0, "lat": 38.876536, "fusion_lat": 0.0, "is_reserved": 0, "rental_uris": {"ios": "https://dc.lft.to/lastmile_qr_scan", "android": "https://dc.lft.to/lastmile_qr_scan"}, "fusion_lon": 0.0, "type": "electric_scooter", "bike_id": "527ed53fd511552102d1f15b639ef9b2", "name": "527ed53fd511552102d1f15b639ef9b2"}, {"lon": -77.02376283333334, "is_disabled": 0, "lat": 38.907317166666665, "fusion_lat": 0.0, "is_reserved": 0, "rental_uris": {"ios": "https://dc.lft.to/lastmile_qr_scan", "android": "https://dc.lft.to/lastmile_qr_scan"}, "fusion_lon": 0.0, "type": "electric_scooter", "bike_id": "1cb5089f60d24a056d47919a5f5838fc", "name": "1cb5089f60d24a056d47919a5f5838fc"}, {"lon": -77.00048783333334, "is_disabled": 0, "lat": 38.88857516666667, "fusion_lat": 0.0, "is_reserved": 0, "rental_uris": {"ios": "https://dc.lft.to/lastmile_qr_scan", "android": "https://dc.lft.to/lastmile_qr_scan"}, "fusion_lon": 0.0, "type": "electric_scooter", "bike_id": "79e89abb1d25a2d84ff1c9c37087bf77", "name": "79e89abb1d25a2d84ff1c9c37087bf77"}, {"lon": -76.99800516666667, "is_disabled": 0, "lat": 38.908534333333336, "fusion_lat": 0.0, "is_reserved": 0, "rental_uris": {"ios": "https://dc.lft.to/lastmile_qr_scan", "android": "https://dc.lft.to/lastmile_qr_scan"}, "fusion_lon": 0.0, "type": "electric_scooter", "bike_id": "b5793bb6a6af15e1314eb7e3930faba4", "name": "b5793bb6a6af15e1314eb7e3930faba4"}, {"lon": -77.02707116666667, "is_disabled": 0, "lat": 38.90666233333334, "fusion_lat": 0.0, "is_reserved": 0, "rental_uris": {"ios": "https://dc.lft.to/lastmile_qr_scan", "android": "https://dc.lft.to/lastmile_qr_scan"}, "fusion_lon": 0.0, "type": "electric_scooter", "bike_id": "cafcc234967e76a974111244a1603d15", "name": "cafcc234967e76a974111244a1603d15"}, {"lon": -77.03610283333333, "is_disabled": 0, "lat": 38.934784, "fusion_lat": 0.0, "is_reserved": 0, "rental_uris": {"ios": "https://dc.lft.to/lastmile_qr_scan", "android": "https://dc.lft.to/lastmile_qr_scan"}, "fusion_lon": 0.0, "type": "electric_scooter", "bike_id": "2873b60e1c3d93f74c5f48eb49796350", "name": "2873b60e1c3d93f74c5f48eb49796350"}, {"lon": -77.03836516666667, "is_disabled": 0, "lat": 38.9115155, "fusion_lat": 0.0, "is_reserved": 0, "rental_uris": {"ios": "https://dc.lft.to/lastmile_qr_scan", "android": "https://dc.lft.to/lastmile_qr_scan"}, "fusion_lon": 0.0, "type": "electric_scooter", "bike_id": "2b899caf6d8a7e1f33939c093ad501b2", "name": "2b899caf6d8a7e1f33939c093ad501b2"}, {"lon": -77.007552, "is_disabled": 0, "lat": 38.871153166666666, "fusion_lat": 0.0, "is_reserved": 0, "rental_uris": {"ios": "https://dc.lft.to/lastmile_qr_scan", "android": "https://dc.lft.to/lastmile_qr_scan"}, "fusion_lon": 0.0, "type": "electric_scooter", "bike_id": "755947dc46c1ca42cea161a4f587d6a1", "name": "755947dc46c1ca42cea161a4f587d6a1"}, {"lon": -77.0298355, "is_disabled": 0, "lat": 38.93445533333333, "fusion_lat": 0.0, "is_reserved": 0, "rental_uris": {"ios": "https://dc.lft.to/lastmile_qr_scan", "android": "https://dc.lft.to/lastmile_qr_scan"}, "fusion_lon": 0.0, "type": "electric_scooter", "bike_id": "0263c12c4e033b83bab0e4fe3f7d58ff", "name": "0263c12c4e033b83bab0e4fe3f7d58ff"}, {"lon": -77.0276295, "is_disabled": 0, "lat": 38.91683966666667, "fusion_lat": 0.0, "is_reserved": 0, "rental_uris": {"ios": "https://dc.lft.to/lastmile_qr_scan", "android": "https://dc.lft.to/lastmile_qr_scan"}, "fusion_lon": 0.0, "type": "electric_scooter", "bike_id": "fa61c3e5fe7b2df3dcc7f4b4fda23e9b", "name": "fa61c3e5fe7b2df3dcc7f4b4fda23e9b"}, {"lon": -77.0363555, "is_disabled": 0, "lat": 38.93176166666667, "fusion_lat": 0.0, "is_reserved": 0, "rental_uris": {"ios": "https://dc.lft.to/lastmile_qr_scan", "android": "https://dc.lft.to/lastmile_qr_scan"}, "fusion_lon": 0.0, "type": "electric_scooter", "bike_id": "ff6dbbdb2fc34ef6ab9080a7189cc95b", "name": "ff6dbbdb2fc34ef6ab9080a7189cc95b"}, {"lon": -77.02629966666667, "is_disabled": 0, "lat": 38.929908, "fusion_lat": 0.0, "is_reserved": 0, "rental_uris": {"ios": "https://dc.lft.to/lastmile_qr_scan", "android": "https://dc.lft.to/lastmile_qr_scan"}, "fusion_lon": 0.0, "type": "electric_scooter", "bike_id": "be545a4045d681d8dd9f4737a3edc0f9", "name": "be545a4045d681d8dd9f4737a3edc0f9"}, {"lon": -77.0240135, "is_disabled": 0, "lat": 38.916810166666664, "fusion_lat": 0.0, "is_reserved": 0, "rental_uris": {"ios": "https://dc.lft.to/lastmile_qr_scan", "android": "https://dc.lft.to/lastmile_qr_scan"}, "fusion_lon": 0.0, "type": "electric_scooter", "bike_id": "9ad0e906066c7cedd4cee7ceab86c491", "name": "9ad0e906066c7cedd4cee7ceab86c491"}, {"lon": -77.000623, "is_disabled": 0, "lat": 38.900267, "fusion_lat": 0.0, "is_reserved": 0, "rental_uris": {"ios": "https://dc.lft.to/lastmile_qr_scan", "android": "https://dc.lft.to/lastmile_qr_scan"}, "fusion_lon": 0.0, "type": "electric_scooter", "bike_id": "707c21d23b6c3b8da3ebae355b3ae8d3", "name": "707c21d23b6c3b8da3ebae355b3ae8d3"}, {"lon": -77.02573483333333, "is_disabled": 0, "lat": 38.89822733333333, "fusion_lat": 0.0, "is_reserved": 0, "rental_uris": {"ios": "https://dc.lft.to/lastmile_qr_scan", "android": "https://dc.lft.to/lastmile_qr_scan"}, "fusion_lon": 0.0, "type": "electric_scooter", "bike_id": "38aea7a9a121083e928e489fddc7f052", "name": "38aea7a9a121083e928e489fddc7f052"},