{"data": {"bikes": [{"lon": -77.04536366666666, "lat": 38.91941683333334, "name": "cbed8978df8960a4f5fcd7195f6f4676", "fusion_lat": 0.0, "fusion_lon": 0.0, "rental_uris": {"android": "https://dc.lft.to/lastmile_qr_scan", "ios": "https://dc.lft.to/lastmile_qr_scan"}, "is_reserved": 0, "is_disabled": 0, "type": "electric_scooter", "bike_id": "cbed8978df8960a4f5fcd7195f6f4676"}, {"lon": -77.04469283333333, "lat": 38.900422166666665, "name": "22ce2809fa4ab74eeda6c31cb981310b", "fusion_lat": 0.0, "fusion_lon": 0.0, "rental_uris": {"android": "https://dc.lft.to/lastmile_qr_scan", "ios": "https://dc.lft.to/lastmile_qr_scan"}, "is_reserved": 0, "is_disabled": 0, "type": "electric_scooter", "bike_id": "22ce2809fa4ab74eeda6c31cb981310b"}, {"lon": -77.03792266666666, "lat": 38.919829666666665, "name": "3de4476c6b9075ebeb454084b1d3f84d", "fusion_lat": 0.0, "fusion_lon": 0.0, "rental_uris": {"android": "https://dc.lft.to/lastmile_qr_scan", "ios": "https://dc.lft.to/lastmile_qr_scan"}, "is_reserved": 0, "is_disabled": 0, "type": "electric_scooter", "bike_id": "3de4476c6b9075ebeb454084b1d3f84d"}, {"lon": -76.9732965, "lat": 38.85062283333333, "name": "e02b8e2f230efdf330b7560c3b7e0464", "fusion_lat": 0.0, "fusion_lon": 0.0, "rental_uris": {"android": "https://dc.lft.to/lastmile_qr_scan", "ios": "https://dc.lft.to/lastmile_qr_scan"}, "is_reserved": 0, "is_disabled": 0, "type": "electric_bike", "bike_id": "e02b8e2f230efdf330b7560c3b7e0464"}, {"lon": -77.050066, "lat": 38.8922735, "name": "8ad8fbbc9710913051150516d11b4dca", "fusion_lat": 0.0, "fusion_lon": 0.0, "rental_uris": {"android": "https://dc.lft.to/lastmile_qr_scan", "ios": "https://dc.lft.to/lastmile_qr_scan"}, "is_reserved": 0, "is_disabled": 0, "type": "electric_scooter", "bike_id": "8ad8fbbc9710913051150516d11b4dca"}, {"lon": -77.05268533333333, "lat": 38.91027833333333, "name": "c81bd1cc8f2213d11964cd51ecb6c133", "fusion_lat": 0.0, "fusion_lon": 0.0, "rental_uris": {"android": "https://dc.lft.to/lastmile_qr_scan", "ios": "https://dc.lft.to/lastmile_qr_scan"}, "is_reserved": 0, "is_disabled": 0, "type": "electric_scooter", "bike_id": "c81bd1cc8f2213d11964cd51ecb6c133"}, {"lon": -77.03817566666666, "lat": 38.914083833333336, "name": "a9f33d14181714009f2646ee4590b154", "fusion_lat": 0.0, "fusion_lon": 0.0, "rental_uris": {"android": "https://dc.lft.to/lastmile_qr_scan", "ios": "https://dc.lft.to/lastmile_qr_scan"}, "is_reserved": 0, "is_disabled": 0, "type": "electric_scooter", "bike_id": "a9f33d14181714009f2646ee4590b154"}, {"lon": -77.02180383333334, "lat": 38.9112875, "name": "743d4c489a587603de33be42eaf02ca5", "fusion_lat": 0.0, "fusion_lon": 0.0, "rental_uris": {"android": "https://dc.lft.to/lastmile_qr_scan", "ios": "https://dc.lft.to/lastmile_qr_scan"}, "is_reserved": 0, "is_disabled": 0, "type": "electric_scooter", "bike_id": "743d4c489a587603de33be42eaf02ca5"}, {"lon": -77.02705716666667, "lat": 38.928778333333334, "name": "f4291350d4858711d72e36c20c0c41a4", "fusion_lat": 0.0, "fusion_lon": 0.0, "rental_uris": {"android": "https://dc.lft.to/lastmile_qr_scan", "ios": "https://dc.lft.to/lastmile_qr_scan"}, "is_reserved": 0, "is_disabled": 0, "type": "electric_scooter", "bike_id": "f4291350d4858711d72e36c20c0c41a4"}, {"lon": -76.94911266666666, "lat": 38.8955505, "name": "4163bf83f648248347a2408c0513a7be", "fusion_lat": 0.0, "fusion_lon": 0.0, "rental_uris": {"android": "https://dc.lft.to/lastmile_qr_scan", "ios": "https://dc.lft.to/lastmile_qr_scan"}, "is_reserved": 0, "is_disabled": 0, "type": "electric_scooter", "bike_id": "4163bf83f648248347a2408c0513a7be"}, {"lon": -77.012504, "lat": 38.8763, "name": "548617601ddaad59050a2a4c4c79b822", "fusion_lat": 0.0, "fusion_lon": 0.0, "rental_uris": {"android": "https://dc.lft.to/lastmile_qr_scan", "ios": "https://dc.lft.to/lastmile_qr_scan"}, "is_reserved": 0, "is_disabled": 0, "type": "electric_scooter", "bike_id": "548617601ddaad59050a2a4c4c79b822"}, {"lon": -77.10330033333334, "lat": 38.96509283333333, "name": "829acacea894a1332b8ea8f3c5e5a3c8", "fusion_lat": 0.0, "fusion_lon": 0.0, "rental_uris": {"android": "https://dc.lft.to/lastmile_qr_scan", "ios": "https://dc.lft.to/lastmile_qr_scan"}, "is_reserved": 0, "is_disabled": 0, "type": "electric_bike", "bike_id": "829acacea894a1332b8ea8f3c5e5a3c8"}, {"lon": -77.02416433333333, "lat": 38.92608583333333, "name": "9b282179ff65293a5295291c41d4676c", "fusion_lat": 0.0, "fusion_lon": 0.0, "rental_uris": {"android": "https://dc.lft.to/lastmile_qr_scan", "ios": "https://dc.lft.to/lastmile_qr_scan"}, "is_reserved": 0, "is_disabled": 0, "type": "electric_scooter", "bike_id": "9b282179ff65293a5295291c41d4676c"}, {"lon": -77.02415433333333, "lat": 38.92076466666666, "name": "3f404a74b1d6b97b74e284fe99857f4a", "fusion_lat": 0.0, "fusion_lon": 0.0, "rental_uris": {"android": "https://dc.lft.to/lastmile_qr_scan", "ios": "https://dc.lft.to/lastmile_qr_scan"}, "is_reserved": 0, "is_disabled": 0, "type": "electric_scooter", "bike_id": "3f404a74b1d6b97b74e284fe99857f4a"}, {"lon": -77.0014105, "lat": 38.90757466666667, "name": "560cd1d429d3ed7d2e543e029715c11d", "fusion_lat": 0.0, "fusion_lon": 0.0, "rental_uris": {"android": "https://dc.lft.to/lastmile_qr_scan", "ios": "https://dc.lft.to/lastmile_qr_scan"}, "is_reserved": 0, "is_disabled": 0, "type": "electric_scooter", "bike_id": "560cd1d429d3ed7d2e543e029715c11d"}, {"lon": -77.02375583333334, "lat": 38.90719833333333, "name": "bb2b0ae56a53252fe05cf7fbb50eb27d", "fusion_lat": 0.0, "fusion_lon": 0.0, "rental_uris": {"android": "https://dc.lft.to/lastmile_qr_scan", "ios": "https://dc.lft.to/lastmile_qr_scan"}, "is_reserved": 0, "is_disabled": 0, "type": "electric_scooter", "bike_id": "bb2b0ae56a53252fe05cf7fbb50eb27d"}, {"lon": -77.01589983333334, "lat": 38.95764916666667, "name": "e2f1178e8006064a92a39191634b422b", "fusion_lat": 0.0, "fusion_lon": 0.0, "rental_uris": {"android": "https://dc.lft.to/lastmile_qr_scan", "ios": "https://dc.lft.to/lastmile_qr_scan"}, "is_reserved": 0, "is_disabled": 0, "type": "electric_scooter", "bike_id": "e2f1178e8006064a92a39191634b422b"}, {"lon": -77.03261316666666, "lat": 38.93004366666667, "name": "d4b4701aae39da95ed23890b09937e95", "fusion_lat": 0.0, "fusion_lon": 0.0, "rental_uris": {"android": "https://dc.lft.to/lastmile_qr_scan", "ios": "https://dc.lft.to/lastmile_qr_scan"}, "is_reserved": 0, "is_disabled": 0, "type": "electric_scooter", "bike_id": "d4b4701aae39da95ed23890b09937e95"}, {"lon": -77.02049066666666, "lat": 38.915564333333336, "name": "ecf08d43534918179628ba967590d9ac", "fusion_lat": 0.0, "fusion_lon": 0.0, "rental_uris": {"android": "https://dc.lft.to/lastmile_qr_scan", "ios": "https://dc.lft.to/lastmile_qr_scan"}, "is_reserved": 0, "is_disabled": 0, "type": "electric_scooter", "bike_id": "ecf08d43534918179628ba967590d9ac"}, {"lon": -77.00582533333333, "lat": 38.90568616666667, "name": "87055fbe4ab6f7adc6920eaf2ca4a400", "fusion_lat": 0.0, "fusion_lon": 0.0, "rental_uris": {"android": "https://dc.lft.to/lastmile_qr_scan", "ios": "https://dc.lft.to/lastmile_qr_scan"}, "is_reserved": 0, "is_disabled": 0, "type": "electric_scooter", "bike_id": "87055fbe4ab6f7adc6920eaf2ca4a400"}, {"lon": -76.95184366666666, "lat": 38.891335833333336, "name": "d8f944075c4acbae6834471e660ab328", "fusion_lat": 0.0, "fusion_lon": 0.0, "rental_uris": {"android": "https://dc.lft.to/lastmile_qr_scan", "ios": "https://dc.lft.to/lastmile_qr_scan"}, "is_reserved": 0, "is_disabled": 0, "type": "electric_scooter", "bike_id": "d8f944075c4acbae6834471e660ab328"}, {"lon": -77.016488, "lat": 38.929379, "name": "d91214d969a38afde349403be9c4dba4", "fusion_lat": 0.0, "fusion_lon": 0.0, "rental_uris": {"android": "https://dc.lft.to/lastmile_qr_scan", "ios": "https://dc.lft.to/lastmile_qr_scan"}, "is_reserved": 0, "is_disabled": 0, "type": "electric_scooter", "bike_id": "d91214d969a38afde349403be9c4dba4"}, {"lon": -76.9954235, "lat": 38.884183166666666, "name": "2d95908b724b1e6202d6eeecb2698f3f", "fusion_lat": 0.0, "fusion_lon": 0.0, "rental_uris": {"android": "https://dc.lft.to/lastmile_qr_scan", "ios": "https://dc.lft.to/lastmile_qr_scan"}, "is_reserved": 0, "is_disabled": 0, "type": "electric_scooter", "bike_id": "2d95908b724b1e6202d6eeecb2698f3f"}, {"lon": -77.04707533333334, "lat": 38.90578083333333, "name": "c860506a93aaeee3b6df4bad5d58a99d", "fusion_lat": 0.0, "fusion_lon": 0.0, "rental_uris": {"android": "https://dc.lft.to/lastmile_qr_scan", "ios": "https://dc.lft.to/lastmile_qr_scan"}, "is_reserved": 0, "is_disabled": 0, "type": "electric_scooter", "bike_id": "c860506a93aaeee3b6df4bad5d58a99d"}, {"lon": -77.02398766666667, "lat": 38.93092816666667, "name": "dadb0aa79ea4f328802e92392fd175f9", "fusion_lat": 0.0, "fusion_lon": 0.0, "rental_uris": {"android": "https://dc.lft.to/lastmile_qr_scan", "ios": "https://dc.lft.to/lastmile_qr_scan"}, "is_reserved": 0, "is_disabled": 0, "type": "electric_scooter", "bike_id": "dadb0aa79ea4f328802e92392fd175f9"}, {"lon": -77.00520583333333, "lat": 38.928894, "name": "83c9f96895b7688493841c3c8ef00d82", "fusion_lat": 0.0, "fusion_lon": 0.0, "rental_uris": {"android": "https://dc.lft.to/lastmile_qr_scan", "ios": "https://dc.lft.to/lastmile_qr_scan"}, "is_reserved": 0, "is_disabled": 0, "type": "electric_scooter", "bike_id": "83c9f96895b7688493841c3c8ef00d82"}, {"lon": -77.02343216666667, "lat": 38.962062, "name": "051c9923f4af67b864fbf56c5c046a20", "fusion_lat": 0.0, "fusion_lon": 0.0, "rental_uris": {"android": "https://dc.lft.to/lastmile_qr_scan", "ios": "https://dc.lft.to/lastmile_qr_scan"}, "is_reserved": 0, "is_disabled": 0, "type": "electric_scooter", "bike_id": "051c9923f4af67b864fbf56c5c046a20"}, {"lon": -77.00806033333333, "lat": 38.896902, "name": "f3e6dcd24f1fcc09b3473d2858cc96a1", "fusion_lat": 0.0, "fusion_lon": 0.0, "rental_uris": {"android": "https://dc.lft.to/lastmile_qr_scan", "ios": "https://dc.lft.to/lastmile_qr_scan"}, "is_reserved": 0, "is_disabled": 0, "type": "electric_scooter", "bike_id": "f3e6dcd24f1fcc09b3473d2858cc96a1"}, {"lon": -77.04237183333333, "lat": 38.89717183333333, "name": "21209159be841cad3c2aac571f842013", "fusion_lat": 0.0, "fusion_lon": 0.0, "rental_uris": {"android": "https://dc.lft.to/lastmile_qr_scan", "ios": "https://dc.lft.to/lastmile_qr_scan"}, "is_reserved": 0, "is_disabled": 0, "type": "electric_scooter", "bike_id": "21209159be841cad3c2aac571f842013"}, {"lon": -76.99490383333334, "lat": 38.883431333333334, "name": "d38450c1ae79c33ad46f2de8b1a20823", "fusion_lat": 0.0, "fusion_lon": 0.0, "rental_uris": {"android": "https://dc.lft.to/lastmile_qr_scan", "ios": "https://dc.lft.to/lastmile_qr_scan"}, "is_reserved": 0, "is_disabled": 0, "type": "electric_scooter", "bike_id": "d38450c1ae79c33ad46f2de8b1a20823"}, {"lon": -76.98551816666667, "lat": 38.899530666666664, "name": "89740a4705e99a64ba0b62452c2b3974", "fusion_lat": 0.0, "fusion_lon": 0.0, "rental_uris": {"android": "https://dc.lft.to/lastmile_qr_scan", "ios": "https://dc.lft.to/lastmile_qr_scan"}, "is_reserved": 0, "is_disabled": 0, "type": "electric_scooter", "bike_id": "89740a4705e99a64ba0b62452c2b3974"}, {"lon": -77.0572755, "lat": 38.933695666666665, "name": "f99bd0f0e59123c0771836c4c23e5741", "fusion_lat": 0.0, "fusion_lon": 0.0, "rental_uris": {"android": "https://dc.lft.to/lastmile_qr_scan", "ios": "https://dc.lft.to/lastmile_qr_scan"}, "is_reserved": 0, "is_disabled": 0, "type": "electric_scooter", "bike_id": "f99bd0f0e59123c0771836c4c23e5741"}, {"lon": -76.99624716666666, "lat": 38.9003155, "name": "6e7c09b4fad5bdbc27578566690a81ce", "fusion_lat": 0.0, "fusion_lon": 0.0, "rental_uris": {"android": "https://dc.lft.to/lastmile_qr_scan", "ios": "https://dc.lft.to/lastmile_qr_scan"}, "is_reserved": 0, "is_disabled": 0, "type": "electric_scooter", "bike_id": "6e7c09b4fad5bdbc27578566690a81ce"}, {"lon": -77.00757816666666, "lat": 38.92676, "name": "0d30937c99736fd0625c366ae438bcaf", "fusion_lat": 0.0, "fusion_lon": 0.0, "rental_uris": {"android": "https://dc.lft.to/lastmile_qr_scan", "ios": "https://dc.lft.to/lastmile_qr_scan"}, "is_reserved": 0, "is_disabled": 0, "type": "electric_scooter", "bike_id": "0d30937c99736fd0625c366ae438bcaf"}, {"lon": -77.04047516666667, "lat": 38.9095295, "name": "d57920a60d000b6640000ae4e5fb12a9", "fusion_lat": 0.0, "fusion_lon": 0.0, "rental_uris": {"android": "https://dc.lft.to/lastmile_qr_scan", "ios": "https://dc.lft.to/lastmile_qr_scan"}, "is_reserved": 0, "is_disabled": 0, "type": "electric_scooter", "bike_id": "d57920a60d000b6640000ae4e5fb12a9"}, {"lon": -77.024249, "lat": 38.89220183333333, "name": "657f9df00566cec4f3cbf5b730175480", "fusion_lat": 0.0, "fusion_lon": 0.0, "rental_uris": {"android": "https://dc.lft.to/lastmile_qr_scan", "ios": "https://dc.lft.to/lastmile_qr_scan"}, "is_reserved": 0, "is_disabled": 0, "type": "electric_scooter", "bike_id": "657f9df00566cec4f3cbf5b730175480"}, {"lon": -77.04504116666666, "lat": 38.9056785, "name": "bc048ef7e73cc13ba625aa11530664ef", "fusion_lat": 0.0, "fusion_lon": 0.0, "rental_uris": {"android": "https://dc.lft.to/lastmile_qr_scan", "ios": "https://dc.lft.to/lastmile_qr_scan"}, "is_reserved": 0, "is_disabled": 0, "type": "electric_scooter", "bike_id": "bc048ef7e73cc13ba625aa11530664ef"}, {"lon": -77.02199266666666, "lat": 38.905489333333335, "name": "551c1fe5ad52ede49eba17a89b46aa44", "fusion_lat": 0.0, "fusion_lon": 0.0, "rental_uris": {"android": "https://dc.lft.to/lastmile_qr_scan", "ios": "https://dc.lft.to/lastmile_qr_scan"}, "is_reserved": 0, "is_disabled": 0, "type": "electric_scooter", "bike_id": "551c1fe5ad52ede49eba17a89b46aa44"}, {"lon": -77.038508, "lat": 38.91547933333333, "name": "41a20cb76f2b805cd95396063c97eb04", "fusion_lat": 0.0, "fusion_lon": 0.0, "rental_uris": {"android": "https://dc.lft.to/lastmile_qr_scan", "ios": "https://dc.lft.to/lastmile_qr_scan"}, "is_reserved": 0, "is_disabled": 0, "type": "electric_scooter", "bike_id": "41a20cb76f2b805cd95396063c97eb04"}, {"lon": -77.04059466666666, "lat": 38.9177035, "name": "74cd3ae999e5ea9a7337afb680455d28", "fusion_lat": 0.0, "fusion_lon": 0.0, "rental_uris": {"android": "https://dc.lft.to/lastmile_qr_scan", "ios": "https://dc.lft.to/lastmile_qr_scan"}, "is_reserved": 0, "is_disabled": 0, "type": "electric_scooter", "bike_id": "74cd3ae999e5ea9a7337afb680455d28"}, {"lon": -76.987126, "lat": 38.862583, "name": "c9cfb5c2fdb1de577006386e129d97f4", "fusion_lat": 0.0, "fusion_lon": 0.0, "rental_uris": {"android": "https://dc.lft.to/lastmile_qr_scan", "ios": "https://dc.lft.to/lastmile_qr_scan"}, "is_reserved": 0, "is_disabled": 0, "type": "electric_scooter", "bike_id": "c9cfb5c2fdb1de577006386e129d97f4"}, {"lon": -77.01404916666667, "lat": 38.92811066666667, "name": "b8e183a5d00d927c93ad1f0a11d12669", "fusion_lat": 0.0, "fusion_lon": 0.0, "rental_uris": {"android": "https://dc.lft.to/lastmile_qr_scan", "ios": "https://dc.lft.to/lastmile_qr_scan"}, "is_reserved": 0, "is_disabled": 0, "type": "electric_scooter", "bike_id": "b8e183a5d00d927c93ad1f0a11d12669"}, {"lon": -76.947215, "lat": 38.89736883333333, "name": "5c77175919bdafb43919956b5534708e", "fusion_lat": 0.0, "fusion_lon": 0.0, "rental_uris": {"android": "https://dc.lft.to/lastmile_qr_scan", "ios": "https://dc.lft.to/lastmile_qr_scan"}, "is_reserved": 0, "is_disabled": 0, "type": "electric_scooter", "bike_id": "5c77175919bdafb43919956b5534708e"}, {"lon": -77.03342933333333, "lat": 38.91686983333334, "name": "d78cdd9716f0db4a23ca358fb145bc63", "fusion_lat": 0.0, "fusion_lon": 0.0, "rental_uris": {"android": "https://dc.lft.to/lastmile_qr_scan", "ios": "https://dc.lft.to/lastmile_qr_scan"}, "is_reserved": 0, "is_disabled": 0, "type": "electric_scooter", "bike_id": "d78cdd9716f0db4a23ca358fb145bc63"}, {"lon": -77.028098, "lat": 38.88178683333334, "name": "138384315d7b91bce6519134b2822efc", "fusion_lat": 0.0, "fusion_lon": 0.0, "rental_uris": {"android": "https://dc.lft.to/lastmile_qr_scan", "ios": "https://dc.lft.to/lastmile_qr_scan"}, "is_reserved": 0, "is_disabled": 0, "type": "electric_scooter", "bike_id": "138384315d7b91bce6519134b2822efc"}, {"lon": -77.03404683333333, "lat": 38.9227505, "name": "a550463707d7bfe1850a809514eb7468", "fusion_lat": 0.0, "fusion_lon": 0.0, "rental_uris": {"android": "https://dc.lft.to/lastmile_qr_scan", "ios": "https://dc.lft.to/lastmile_qr_scan"}, "is_reserved": 0, "is_disabled": 0, "type": "electric_scooter", "bike_id": "a550463707d7bfe1850a809514eb7468"}, {"lon": -77.04610466666666, "lat": 38.9223525, "name": "9954571cb5eb458aeaa02aa9208fd223", "fusion_lat": 0.0, "fusion_lon": 0.0, "rental_uris": {"android": "https://dc.lft.to/lastmile_qr_scan", "ios": "https://dc.lft.to/lastmile_qr_scan"}, "is_reserved": 0, "is_disabled": 0, "type": "electric_scooter", "bike_id": "9954571cb5eb458aeaa02aa9208fd223"}, {"lon": -77.0303845, "lat": 38.884372666666664, "name": "eae2c63cf92a641812430cc2e42dc78c", "fusion_lat": 0.0, "fusion_lon": 0.0, "rental_uris": {"android": "https://dc.lft.to/lastmile_qr_scan", "ios": "https://dc.lft.to/lastmile_qr_scan"}, "is_reserved": 0, "is_disabled": 0, "type": "electric_scooter", "bike_id": "eae2c63cf92a641812430cc2e42dc78c"}, {"lon": -77.067664, "lat": 38.90357183333333, "name": "f25feec4bdd6fd12b99114dbe7c41887", "fusion_lat": 0.0, "fusion_lon": 0.0, "rental_uris": {"android": "https://dc.lft.to/lastmile_qr_scan", "ios": "https://dc.lft.to/lastmile_qr_scan"}, "is_reserved": 0, "is_disabled": 0, "type": "electric_scooter", "bike_id": "f25feec4bdd6fd12b99114dbe7c41887"}, {"lon": -76.991588, "lat": 38.89547366666667, "name": "043d98481c10e7c7015448964a63655f", "fusion_lat": 0.0, "fusion_lon": 0.0, "rental_uris": {"android": "https://dc.lft.to/lastmile_qr_scan", "ios": "https://dc.lft.to/lastmile_qr_scan"}, "is_reserved": 0, "is_disabled": 0, "type": "electric_scooter", "bike_id": "043d98481c10e7c7015448964a63655f"}, {"lon": -77.05847216666666, "lat": 38.934255666666665, "name": "7eaf7cb55c72e7eb4533b06609e9f63c", "fusion_lat": 0.0, "fusion_lon": 0.0, "rental_uris": {"android": "https://dc.lft.to/lastmile_qr_scan", "ios": "https://dc.lft.to/lastmile_qr_scan"}, "is_reserved": 0, "is_disabled": 0, "type": "electric_scooter", "bike_id": "7eaf7cb55c72e7eb4533b06609e9f63c"}, {"lon": -77.0439125, "lat": 38.92275, "name": "f95162025c6d4aaede5864b14d954f4d", "fusion_lat": 0.0, "fusion_lon": 0.0, "rental_uris": {"android": "https://dc.lft.to/lastmile_qr_scan", "ios": "https://dc.lft.to/lastmile_qr_scan"}, "is_reserved": 0, "is_disabled": 0, "type": "electric_scooter", "bike_id": "f95162025c6d4aaede5864b14d954f4d"}, {"lon": -77.02404216666666, "lat": 38.8874045, "name": "3428a8a0eae00ec674358c459f89edd1", "fusion_lat": 0.0, "fusion_lon": 0.0, "rental_uris": {"android": "https://dc.lft.to/lastmile_qr_scan", "ios": "https://dc.lft.to/lastmile_qr_scan"}, "is_reserved": 0, "is_disabled": 0, "type": "electric_scooter", "bike_id": "3428a8a0eae00ec674358c459f89edd1"}, {"lon": -77.01821566666666, "lat": 38.908145833333336, "name": "4cf8d2443a192b756ec9f427542de962", "fusion_lat": 0.0, "fusion_lon": 0.0, "rental_uris": {"android": "https://dc.lft.to/lastmile_qr_scan", "ios": "https://dc.lft.to/lastmile_qr_scan"}, "is_reserved": 0, "is_disabled": 0, "type": "electric_scooter", "bike_id": "4cf8d2443a192b756ec9f427542de962"}, {"lon": -77.02785083333333, "lat": 38.89828933333333, "name": "e71d0d900c1b2708a08f4913da448c1c", "fusion_lat": 0.0, "fusion_lon": 0.0, "rental_uris": {"android": "https://dc.lft.to/lastmile_qr_scan", "ios": "https://dc.lft.to/lastmile_qr_scan"}, "is_reserved": 0, "is_disabled": 0, "type": "electric_scooter", "bike_id": "e71d0d900c1b2708a08f4913da448c1c"}, {"lon": -77.01072883333333, "lat": 38.871104333333335, "name": "81d27dbe5d0735963e5aee50d00874b7", "fusion_lat": 0.0, "fusion_lon": 0.0, "rental_uris": {"android": "https://dc.lft.to/lastmile_qr_scan", "ios": "https://dc.lft.to/lastmile_qr_scan"}, "is_reserved": 0, "is_disabled": 0, "type": "electric_scooter", "bike_id": "81d27dbe5d0735963e5aee50d00874b7"}, {"lon": -76.97183316666667, "lat": 38.91266316666667, "name": "d8125468c779149e8a93b18683f6abb5", "fusion_lat": 0.0, "fusion_lon": 0.0, "rental_uris": {"android": "https://dc.lft.to/lastmile_qr_scan", "ios": "https://dc.lft.to/lastmile_qr_scan"}, "is_reserved": 0, "is_disabled": 0, "type": "electric_scooter", "bike_id": "d8125468c779149e8a93b18683f6abb5"}, {"lon": -76.99033816666666, "lat": 38.858718, "name": "807376cd3d8a24ee43b2150b7c5cdd59", "fusion_lat": 0.0, "fusion_lon": 0.0, "rental_uris": {"android": "https://dc.lft.to/lastmile_qr_scan", "ios": "https://dc.lft.to/lastmile_qr_scan"}, "is_reserved": 0, "is_disabled": 0, "type": "electric_scooter", "bike_id": "807376cd3d8a24ee43b2150b7c5cdd59"}, {"lon": -77.0319715, "lat": 38.900226, "name": "89062b2e9015d7bd42ed576e1893658a", "fusion_lat": 0.0, "fusion_lon": 0.0, "rental_uris": {"android": "https://dc.lft.to/lastmile_qr_scan", "ios": "https://dc.lft.to/lastmile_qr_scan"}, "is_reserved": 0, "is_disabled": 0, "type": "electric_scooter", "bike_id": "89062b2e9015d7bd42ed576e1893658a"}, {"lon": -76.96508166666666, "lat": 38.876475, "name": "bc201c0458bd1815ed22ad3c30230247", "fusion_lat": 0.0, "fusion_lon": 0.0, "rental_uris": {"android": "https://dc.lft.to/lastmile_qr_scan", "ios": "https://dc.lft.to/lastmile_qr_scan"}, "is_reserved": 0, "is_disabled": 0, "type": "electric_scooter", "bike_id": "bc201c0458bd1815ed22ad3c30230247"}, {"lon": -77.0222565, "lat": 38.886268333333334, "name": "4ba3266c2d993ae138869955d62893ce", "fusion_lat": 0.0, "fusion_lon": 0.0, "rental_uris": {"android": "https://dc.lft.to/lastmile_qr_scan", "ios": "https://dc.lft.to/lastmile_qr_scan"}, "is_reserved": 0, "is_disabled": 0, "type": "electric_bike", "bike_id": "4ba3266c2d993ae138869955d62893ce"}, {"lon": -77.10916216666666, "lat": 39.05206416666667, "name": "6667149d0bb687e223514abe19c7e5d0", "fusion_lat": 0.0, "fusion_lon": 0.0, "rental_uris": {"android": "https://dc.lft.to/lastmile_qr_scan", "ios": "https://dc.lft.to/lastmile_qr_scan"}, "is_reserved": 0, "is_disabled": 0, "type": "electric_bike", "bike_id": "6667149d0bb687e223514abe19c7e5d0"}, {"lon": -77.00668683333333, "lat": 38.87473283333333, "name": "4e75d151982cbdccc56e45229376555b", "fusion_lat": 0.0, "fusion_lon": 0.0, "rental_uris": {"android": "https://dc.lft.to/lastmile_qr_scan", "ios": "https://dc.lft.to/lastmile_qr_scan"}, "is_reserved": 0, "is_disabled": 0, "type": "electric_scooter", "bike_id": "4e75d151982cbdccc56e45229376555b"}, {"lon": -77.048204, "lat": 38.90055383333333, "name": "dddddf780ef1d23a988717c863895c02", "fusion_lat": 0.0, "fusion_lon": 0.0, "rental_uris": {"android": "https://dc.lft.to/lastmile_qr_scan", "ios": "https://dc.lft.to/lastmile_qr_scan"}, "is_reserved": 0, "is_disabled": 0, "type": "electric_scooter", "bike_id": "dddddf780ef1d23a988717c863895c02"}, {"lon": -77.14123283333333, "lat": 38.816036833333335, "name": "b2283753e28e019774bf58952562fd11", "fusion_lat": 0.0, "fusion_lon": 0.0, "rental_uris": {"android": "https://dc.lft.to/lastmile_qr_scan", "ios": "https://dc.lft.to/lastmile_qr_scan"}, "is_reserved": 0, "is_disabled": 0, "type": "electric_bike", "bike_id": "b2283753e28e019774bf58952562fd11"}, {"lon": -77.0463255, "lat": 38.919154, "name": "528c05d8bed73871cb7ea4211327c9e6", "fusion_lat": 0.0, "fusion_lon": 0.0, "rental_uris": {"android": "https://dc.lft.to/lastmile_qr_scan", "ios": "https://dc.lft.to/lastmile_qr_scan"}, "is_reserved": 0, "is_disabled": 0, "type": "electric_scooter", "bike_id": "528c05d8bed73871cb7ea4211327c9e6"}, {"lon": -77.0235735, "lat": 38.93324533333333, "name": "8e81034a3a539e5988d4942f50e776bb", "fusion_lat": 0.0, "fusion_lon": 0.0, "rental_uris": {"android": "https://dc.lft.to/lastmile_qr_scan", "ios": "https://dc.lft.to/lastmile_qr_scan"}, "is_reserved": 0, "is_disabled": 0, "type": "electric_scooter", "bike_id": "8e81034a3a539e5988d4942f50e776bb"}, {"lon": -77.02768966666666, "lat": 38.89199033333333, "name": "dd6770327cf0c026ee51cc591e02e350", "fusion_lat": 0.0, "fusion_lon": 0.0, "rental_uris": {"android": "https://dc.lft.to/lastmile_qr_scan", "ios": "https://dc.lft.to/lastmile_qr_scan"}, "is_reserved": 0, "is_disabled": 0, "type": "electric_scooter", "bike_id": "dd6770327cf0c026ee51cc591e02e350"}, {"lon": -77.0383555, "lat": 38.912322833333334, "name": "a714307a38ac73fedc1799dc96c339f5", "fusion_lat": 0.0, "fusion_lon": 0.0, "rental_uris": {"android": "https://dc.lft.to/lastmile_qr_scan", "ios": "https://dc.lft.to/lastmile_qr_scan"}, "is_reserved": 0, "is_disabled": 0, "type": "electric_scooter", "bike_id": "a714307a38ac73fedc1799dc96c339f5"}, {"lon": -77.0497445, "lat": 38.90109983333333, "name": "a0f43f7a518c362df101bda92224b3a3", "fusion_lat": 0.0, "fusion_lon": 0.0, "rental_uris": {"android": "https://dc.lft.to/lastmile_qr_scan", "ios": "https://dc.lft.to/lastmile_qr_scan"}, "is_reserved": 0, "is_disabled": 0, "type": "electric_scooter", "bike_id": "a0f43f7a518c362df101bda92224b3a3"}, {"lon": -77.00604, "lat": 38.874557833333334, "name": "3f9d3fa5f03428bc66e8341c28de6add", "fusion_lat": 0.0, "fusion_lon": 0.0, "rental_uris": {"android": "https://dc.lft.to/lastmile_qr_scan", "ios": "https://dc.lft.to/lastmile_qr_scan"}, "is_reserved": 0, "is_disabled": 0, "type": "electric_scooter", "bike_id": "3f9d3fa5f03428bc66e8341c28de6add"}, {"lon": -77.0219565, "lat": 38.9113105, "name": "9e7bb64df88c12e0914215da48fbc7dd", "fusion_lat": 0.0, "fusion_lon": 0.0, "rental_uris": {"android": "https://dc.lft.to/lastmile_qr_scan", "ios": "https://dc.lft.to/lastmile_qr_scan"}, "is_reserved": 0, "is_disabled": 0, "type": "electric_scooter", "bike_id": "9e7bb64df88c12e0914215da48fbc7dd"}, {"lon": -76.93534633333333, "lat": 38.896804833333334, "name": "ab4155f88239063156db1b1d0274a3e9", "fusion_lat": 0.0, "fusion_lon": 0.0, "rental_uris": {"android": "https://dc.lft.to/lastmile_qr_scan", "ios": "https://dc.lft.to/lastmile_qr_scan"}, "is_reserved": 0, "is_disabled": 0, "type": "electric_scooter", "bike_id": "ab4155f88239063156db1b1d0274a3e9"}, {"lon": -77.00163433333333, "lat": 38.907743333333336, "name": "7dbc48856ce05250c39cac95a761b227", "fusion_lat": 0.0, "fusion_lon": 0.0, "rental_uris": {"android": "https://dc.lft.to/lastmile_qr_scan", "ios": "https://dc.lft.to/lastmile_qr_scan"}, "is_reserved": 0, "is_disabled": 0, "type": "electric_scooter", "bike_id": "7dbc48856ce05250c39cac95a761b227"}, {"lon": -77.02212333333334, "lat": 38.91086283333333, "name": "fea94bcdbfcb857f01f24c228e77bfab", "fusion_lat": 0.0, "fusion_lon": 0.0, "rental_uris": {"android": "https://dc.lft.to/lastmile_qr_scan", "ios": "https://dc.lft.to/lastmile_qr_scan"}, "is_reserved": 0, "is_disabled": 0, "type": "electric_scooter", "bike_id": "fea94bcdbfcb857f01f24c228e77bfab"}, {"lon": -77.039344, "lat": 38.908300833333335, "name": "736a0f79cc298b0025960436782af972", "fusion_lat": 0.0, "fusion_lon": 0.0, "rental_uris": {"android": "https://dc.lft.to/lastmile_qr_scan", "ios": "https://dc.lft.to/lastmile_qr_scan"}, "is_reserved": 0, "is_disabled": 0, "type": "electric_scooter", "bike_id": "736a0f79cc298b0025960436782af972"}, {"lon": -77.04689183333333, "lat": 38.92136416666666, "name": "e71262d69897cf2b570d47f4bcaca830", "fusion_lat": 0.0, "fusion_lon": 0.0, "rental_uris": {"android": "https://dc.lft.to/lastmile_qr_scan", "ios": "https://dc.lft.to/lastmile_qr_scan"}, "is_reserved": 0, "is_disabled": 0, "type": "electric_scooter", "bike_id": "e71262d69897cf2b570d47f4bcaca830"}, {"lon": -77.02793, "lat": 38.930822666666664, "name": "c541bd76cfa46f548f4ece3714a4cd17", "fusion_lat": 0.0, "fusion_lon": 0.0, "rental_uris": {"android": "https://dc.lft.to/lastmile_qr_scan", "ios": "https://dc.lft.to/lastmile_qr_scan"}, "is_reserved": 0, "is_disabled": 0, "type": "electric_scooter", "bike_id": "c541bd76cfa46f548f4ece3714a4cd17"}, {"lon": -77.03650366666666, "lat": 38.902731833333334, "name": "9b3658fc784da9ee1dba95009b83c8bc", "fusion_lat": 0.0, "fusion_lon": 0.0, "rental_uris": {"android": "https://dc.lft.to/lastmile_qr_scan", "ios": "https://dc.lft.to/lastmile_qr_scan"}, "is_reserved": 0, "is_disabled": 0, "type": "electric_scooter", "bike_id": "9b3658fc784da9ee1dba95009b83c8bc"}, {"lon": -77.00333683333334, "lat": 38.893555166666665, "name": "4fc6084e3af87e0bee043e2b533a1c24", "fusion_lat": 0.0, "fusion_lon": 0.0, "rental_uris": {"android": "https://dc.lft.to/lastmile_qr_scan", "ios": "https://dc.lft.to/lastmile_qr_scan"}, "is_reserved": 0, "is_disabled": 0, "type": "electric_scooter", "bike_id": "4fc6084e3af87e0bee043e2b533a1c24"}, {"lon": -77.02593416666667, "lat": 38.892401166666666, "name": "8342282cde2b4118cf8d4120d5f4591c", "fusion_lat": 0.0, "fusion_lon": 0.0, "rental_uris": {"android": "https://dc.lft.to/lastmile_qr_scan", "ios": "https://dc.lft.to/lastmile_qr_scan"}, "is_reserved": 0, "is_disabled": 0, "type": "electric_scooter", "bike_id": "8342282cde2b4118cf8d4120d5f4591c"}, {"lon": -76.94664966666667, "lat": 38.898692, "name": "8c1e6aff86f24bff6c490d5316e88b53", "fusion_lat": 0.0, "fusion_lon": 0.0, "rental_uris": {"android": "https://dc.lft.to/lastmile_qr_scan", "ios": "https://dc.lft.to/lastmile_qr_scan"}, "is_reserved": 0, "is_disabled": 0, "type": "electric_scooter", "bike_id": "8c1e6aff86f24bff6c490d5316e88b53"}, {"lon": -77.04740316666667, "lat": 38.91251916666667, "name": "c44061b05cef7b83c1c76bb55471e011", "fusion_lat": 0.0, "fusion_lon": 0.0, "rental_uris": {"android": "https://dc.lft.to/lastmile_qr_scan", "ios": "https://dc.lft.to/lastmile_qr_scan"}, "is_reserved": 0, "is_disabled": 0, "type": "electric_scooter", "bike_id": "c44061b05cef7b83c1c76bb55471e011"}, {"lon": -77.04542183333334, "lat": 38.894797833333335, "name": "6c15d835f9556a68a3330f7e9f228c1d", "fusion_lat": 0.0, "fusion_lon": 0.0, "rental_uris": {"android": "https://dc.lft.to/lastmile_qr_scan", "ios": "https://dc.lft.to/lastmile_qr_scan"}, "is_reserved": 0, "is_disabled": 0, "type": "electric_scooter", "bike_id": "6c15d835f9556a68a3330f7e9f228c1d"}, {"lon": -77.05004466666666, "lat": 38.89229916666667, "name": "3e8fbdabd4971521ade5303e511b51fe", "fusion_lat": 0.0, "fusion_lon": 0.0, "rental_uris": {"android": "https://dc.lft.to/lastmile_qr_scan", "ios": "https://dc.lft.to/lastmile_qr_scan"}, "is_reserved": 0, "is_disabled": 0, "type": "electric_scooter", "bike_id": "3e8fbdabd4971521ade5303e511b51fe"}, {"lon": -77.0231015, "lat": 38.91773283333333, "name": "742aa805c81d0db75a43e5661f463154", "fusion_lat": 0.0, "fusion_lon": 0.0, "rental_uris": {"android": "https://dc.lft.to/lastmile_qr_scan", "ios": "https://dc.lft.to/lastmile_qr_scan"}, "is_reserved": 0, "is_disabled": 0, "type": "electric_scooter", "bike_id": "742aa805c81d0db75a43e5661f463154"}, {"lon": -76.94796983333333, "lat": 38.896451, "name": "f7ce7f052955fd3fd08f367abf1abe99", "fusion_lat": 0.0, "fusion_lon": 0.0, "rental_uris": {"android": "https://dc.lft.to/lastmile_qr_scan", "ios": "https://dc.lft.to/lastmile_qr_scan"}, "is_reserved": 0, "is_disabled": 0, "type": "electric_bike", "bike_id": "f7ce7f052955fd3fd08f367abf1abe99"}, {"lon": -76.99077883333334, "lat": 38.84282016666667, "name": "2571c7d159caf5dacd7b0517baa431d9", "fusion_lat": 0.0, "fusion_lon": 0.0, "rental_uris": {"android": "https://dc.lft.to/lastmile_qr_scan", "ios": "https://dc.lft.to/lastmile_qr_scan"}, "is_reserved": 0, "is_disabled": 0, "type": "electric_scooter", "bike_id": "2571c7d159caf5dacd7b0517baa431d9"}, {"lon": -77.02691216666666, "lat": 38.909356, "name": "ff8ec2f465686de7d064a48dd04841d6", "fusion_lat": 0.0, "fusion_lon": 0.0, "rental_uris": {"android": "https://dc.lft.to/lastmile_qr_scan", "ios": "https://dc.lft.to/lastmile_qr_scan"}, "is_reserved": 0, "is_disabled": 0, "type": "electric_scooter", "bike_id": "ff8ec2f465686de7d064a48dd04841d6"}, {"lon": -77.02964633333333, "lat": 38.91124133333334, "name": "60fae4d75580875978658d3bd19e34ed", "fusion_lat": 0.0, "fusion_lon": 0.0, "rental_uris": {"android": "https://dc.lft.to/lastmile_qr_scan", "ios": "https://dc.lft.to/lastmile_qr_scan"}, "is_reserved": 0, "is_disabled": 0, "type": "electric_scooter", "bike_id": "60fae4d75580875978658d3bd19e34ed"}, {"lon": -76.9702185, "lat": 38.92032066666667, "name": "65658a579b4ab86e8890370e657fc2a1", "fusion_lat": 0.0, "fusion_lon": 0.0, "rental_uris": {"android": "https://dc.lft.to/lastmile_qr_scan", "ios": "https://dc.lft.to/lastmile_qr_scan"}, "is_reserved": 0, "is_disabled": 0, "type": "electric_scooter", "bike_id": "65658a579b4ab86e8890370e657fc2a1"}, {"lon": -77.01896783333333, "lat": 38.93916816666667, "name": "04c167ed53089330514675f92fde791c", "fusion_lat": 0.0, "fusion_lon": 0.0, "rental_uris": {"android": "https://dc.lft.to/lastmile_qr_scan", "ios": "https://dc.lft.to/lastmile_qr_scan"}, "is_reserved": 0, "is_disabled": 0, "type": "electric_scooter", "bike_id": "04c167ed53089330514675f92fde791c"}, {"lon": -77.02727333333333, "lat": 38.940850166666664, "name": "8c017b45ff2037c508dff77890f192ce", "fusion_lat": 0.0, "fusion_lon": 0.0, "rental_uris": {"android": "https://dc.lft.to/lastmile_qr_scan", "ios": "https://dc.lft.to/lastmile_qr_scan"}, "is_reserved": 0, "is_disabled": 0, "type": "electric_scooter", "bike_id": "8c017b45ff2037c508dff77890f192ce"}, {"lon": -77.00335483333333, "lat": 38.895273, "name": "f10707433d306529cc49b8ea1abc4128", "fusion_lat": 0.0, "fusion_lon": 0.0, "rental_uris": {"android": "https://dc.lft.to/lastmile_qr_scan", "ios": "https://dc.lft.to/lastmile_qr_scan"}, "is_reserved": 0, "is_disabled": 0, "type": "electric_scooter", "bike_id": "f10707433d306529cc49b8ea1abc4128"}, {"lon": -77.05935133333334, "lat": 38.9366625, "name": "02f95e04b341be65baa620c5c37352e5", "fusion_lat": 0.0, "fusion_lon": 0.0, "rental_uris": {"android": "https://dc.lft.to/lastmile_qr_scan", "ios": "https://dc.lft.to/lastmile_qr_scan"}, "is_reserved": 0, "is_disabled": 0, "type": "electric_scooter", "bike_id": "02f95e04b341be65baa620c5c37352e5"}, {"lon": -77.03755216666667, "lat": 38.92219216666667, "name": "b78675e53245a117848bdb901536977c", "fusion_lat": 0.0, "fusion_lon": 0.0, "rental_uris": {"android": "https://dc.lft.to/lastmile_qr_scan", "ios": "https://dc.lft.to/lastmile_qr_scan"}, "is_reserved": 0, "is_disabled": 0, "type": "electric_scooter", "bike_id": "b78675e53245a117848bdb901536977c"}, {"lon": -77.03340216666666, "lat": 38.898167666666666, "name": "4e7e3b2783d2e80f180e8592730b413e", "fusion_lat": 0.0, "fusion_lon": 0.0, "rental_uris": {"android": "https://dc.lft.to/lastmile_qr_scan", "ios": "https://dc.lft.to/lastmile_qr_scan"}, "is_reserved": 0, "is_disabled": 0, "type": "electric_scooter", "bike_id": "4e7e3b2783d2e80f180e8592730b413e"}, {"lon": -77.0282875, "lat": 38.887399, "name": "3786aa2dad5c3aeab8159faae77e2e3b", "fusion_lat": 0.0, "fusion_lon": 0.0, "rental_uris": {"android": "https://dc.lft.to/lastmile_qr_scan", "ios": "https://dc.lft.to/lastmile_qr_scan"}, "is_reserved": 0, "is_disabled": 0, "type": "electric_scooter", "bike_id": "3786aa2dad5c3aeab8159faae77e2e3b"}, {"lon": -77.03438083333333, "lat": 38.90978233333333, "name": "61ebe02696087a95e4b01a6f8bc62f46", "fusion_lat": 0.0, "fusion_lon": 0.0, "rental_uris": {"android": "https://dc.lft.to/lastmile_qr_scan", "ios": "https://dc.lft.to/lastmile_qr_scan"}, "is_reserved": 0, "is_disabled": 0, "type": "electric_scooter", "bike_id": "61ebe02696087a95e4b01a6f8bc62f46"}, {"lon": -76.87495933333334, "lat": 38.9909135, "name": "e5c835e0e5999499d8f214693b3feadc", "fusion_lat": 0.0, "fusion_lon": 0.0, "rental_uris": {"android": "https://dc.lft.to/lastmile_qr_scan", "ios": "https://dc.lft.to/lastmile_qr_scan"}, "is_reserved": 0, "is_disabled": 0, "type": "electric_bike", "bike_id": "e5c835e0e5999499d8f214693b3feadc"}, {"lon": -77.03129383333334, "lat": 38.915606333333336, "name": "1c28b6c369b9d11d418a5f9b750cbc9c", "fusion_lat": 0.0, "fusion_lon": 0.0, "rental_uris": {"android": "https://dc.lft.to/lastmile_qr_scan", "ios": "https://dc.lft.to/lastmile_qr_scan"}, "is_reserved": 0, "is_disabled": 0, "type": "electric_scooter", "bike_id": "1c28b6c369b9d11d418a5f9b750cbc9c"}, {"lon": -76.99622, "lat": 38.880288166666666, "name": "2bf99ea29fa89108f03155938a86aa08", "fusion_lat": 0.0, "fusion_lon": 0.0, "rental_uris": {"android": "https://dc.lft.to/lastmile_qr_scan", "ios": "https://dc.lft.to/lastmile_qr_scan"}, "is_reserved": 0, "is_disabled": 0, "type": "electric_scooter", "bike_id": "2bf99ea29fa89108f03155938a86aa08"}, {"lon": -77.03325933333333, "lat": 38.89838783333333, "name": "d48786a77f15c4d55723b6748b3b3163", "fusion_lat": 0.0, "fusion_lon": 0.0, "rental_uris": {"android": "https://dc.lft.to/lastmile_qr_scan", "ios": "https://dc.lft.to/lastmile_qr_scan"}, "is_reserved": 0, "is_disabled": 0, "type": "electric_scooter", "bike_id": "d48786a77f15c4d55723b6748b3b3163"}, {"lon": -77.112175, "lat": 38.8287375, "name": "a579518a7ddec6b298ff3713d2771329", "fusion_lat": 0.0, "fusion_lon": 0.0, "rental_uris": {"android": "https://dc.lft.to/lastmile_qr_scan", "ios": "https://dc.lft.to/lastmile_qr_scan"}, "is_reserved": 0, "is_disabled": 0, "type": "electric_bike", "bike_id": "a579518a7ddec6b298ff3713d2771329"}, {"lon": -76.9316025, "lat": 38.89885116666667, "name": "0fde4e94e2feff6e3ece5566d1f0831f", "fusion_lat": 0.0, "fusion_lon": 0.0, "rental_uris": {"android": "https://dc.lft.to/lastmile_qr_scan", "ios": "https://dc.lft.to/lastmile_qr_scan"}, "is_reserved": 0, "is_disabled": 0, "type": "electric_scooter", "bike_id": "0fde4e94e2feff6e3ece5566d1f0831f"}, {"lon": -77.00214983333333, "lat": 38.9002635, "name": "b6c0f8f88509a338c27d6da116a82e77", "fusion_lat": 0.0, "fusion_lon": 0.0, "rental_uris": {"android": "https://dc.lft.to/lastmile_qr_scan", "ios": "https://dc.lft.to/lastmile_qr_scan"}, "is_reserved": 0, "is_disabled": 0, "type": "electric_scooter", "bike_id": "b6c0f8f88509a338c27d6da116a82e77"}, {"lon": -77.01762766666667, "lat": 38.902536, "name": "6ab8346e1cc543078ee07c161f7c188f", "fusion_lat": 0.0, "fusion_lon": 0.0, "rental_uris": {"android": "https://dc.lft.to/lastmile_qr_scan", "ios": "https://dc.lft.to/lastmile_qr_scan"}, "is_reserved": 0, "is_disabled": 0, "type": "electric_scooter", "bike_id": "6ab8346e1cc543078ee07c161f7c188f"}, {"lon": -76.96520616666666, "lat": 38.87480333333333, "name": "60037c257e051a98f0e67c8e04203c43", "fusion_lat": 0.0, "fusion_lon": 0.0, "rental_uris": {"android": "https://dc.lft.to/lastmile_qr_scan", "ios": "https://dc.lft.to/lastmile_qr_scan"}, "is_reserved": 0, "is_disabled": 0, "type": "electric_scooter", "bike_id": "60037c257e051a98f0e67c8e04203c43"}, {"lon": -77.01406233333333, "lat": 38.92862433333333, "name": "989b7c2e8aaf277a82a34ad3b4e5fd5f", "fusion_lat": 0.0, "fusion_lon": 0.0, "rental_uris": {"android": "https://dc.lft.to/lastmile_qr_scan", "ios": "https://dc.lft.to/lastmile_qr_scan"}, "is_reserved": 0, "is_disabled": 0, "type": "electric_scooter", "bike_id": "989b7c2e8aaf277a82a34ad3b4e5fd5f"}, {"lon": -77.02707433333333, "lat": 38.949982, "name": "32b7bdd8aca2e98d5b4a2a7113c79210", "fusion_lat": 0.0, "fusion_lon": 0.0, "rental_uris": {"android": "https://dc.lft.to/lastmile_qr_scan", "ios": "https://dc.lft.to/lastmile_qr_scan"}, "is_reserved": 0, "is_disabled": 0, "type": "electric_scooter", "bike_id": "32b7bdd8aca2e98d5b4a2a7113c79210"}, {"lon": -77.03264866666666, "lat": 38.9333575, "name": "fdb1e785cc91dfa81f5e528162cc97cf", "fusion_lat": 0.0, "fusion_lon": 0.0, "rental_uris": {"android": "https://dc.lft.to/lastmile_qr_scan", "ios": "https://dc.lft.to/lastmile_qr_scan"}, "is_reserved": 0, "is_disabled": 0, "type": "electric_scooter", "bike_id": "fdb1e785cc91dfa81f5e528162cc97cf"}, {"lon": -77.0124765, "lat": 38.908673, "name": "99488347783f5c33e62f207c37cab4cb", "fusion_lat": 0.0, "fusion_lon": 0.0, "rental_uris": {"android": "https://dc.lft.to/lastmile_qr_scan", "ios": "https://dc.lft.to/lastmile_qr_scan"}, "is_reserved": 0, "is_disabled": 0, "type": "electric_scooter", "bike_id": "99488347783f5c33e62f207c37cab4cb"}, {"lon": -77.01806666666667, "lat": 38.914345833333336, "name": "8ad43eff4b77de3dd0e4d2ee431d4379", "fusion_lat": 0.0, "fusion_lon": 0.0, "rental_uris": {"android": "https://dc.lft.to/lastmile_qr_scan", "ios": "https://dc.lft.to/lastmile_qr_scan"}, "is_reserved": 0, "is_disabled": 0, "type": "electric_scooter", "bike_id": "8ad43eff4b77de3dd0e4d2ee431d4379"}, {"lon": -77.04309866666667, "lat": 38.92334183333333, "name": "12ff3b4315ca388fd8329bebf0248ded", "fusion_lat": 0.0, "fusion_lon": 0.0, "rental_uris": {"android": "https://dc.lft.to/lastmile_qr_scan", "ios": "https://dc.lft.to/lastmile_qr_scan"}, "is_reserved": 0, "is_disabled": 0, "type": "electric_scooter", "bike_id": "12ff3b4315ca388fd8329bebf0248ded"}, {"lon": -77.03501283333334, "lat": 38.921465, "name": "0d5bc9cb58dda871d505fbab9255e242", "fusion_lat": 0.0, "fusion_lon": 0.0, "rental_uris": {"android": "https://dc.lft.to/lastmile_qr_scan", "ios": "https://dc.lft.to/lastmile_qr_scan"}, "is_reserved": 0, "is_disabled": 0, "type": "electric_scooter", "bike_id": "0d5bc9cb58dda871d505fbab9255e242"}, {"lon": -77.02414066666667, "lat": 38.92071333333333, "name": "e9d9c56217bae25ce28b597b02f5e118", "fusion_lat": 0.0, "fusion_lon": 0.0, "rental_uris": {"android": "https://dc.lft.to/lastmile_qr_scan", "ios": "https://dc.lft.to/lastmile_qr_scan"}, "is_reserved": 0, "is_disabled": 0, "type": "electric_scooter", "bike_id": "e9d9c56217bae25ce28b597b02f5e118"}, {"lon": -76.98198616666667, "lat": 38.90243616666667, "name": "a7852012a40f07d0aa0e07d44f8811f9", "fusion_lat": 0.0, "fusion_lon": 0.0, "rental_uris": {"android": "https://dc.lft.to/lastmile_qr_scan", "ios": "https://dc.lft.to/lastmile_qr_scan"}, "is_reserved": 0, "is_disabled": 0, "type": "electric_scooter", "bike_id": "a7852012a40f07d0aa0e07d44f8811f9"}, {"lon": -77.0144975, "lat": 38.911992166666664, "name": "3ec0a970dddee816fa663895f61f2fc7", "fusion_lat": 0.0, "fusion_lon": 0.0, "rental_uris": {"android": "https://dc.lft.to/lastmile_qr_scan", "ios": "https://dc.lft.to/lastmile_qr_scan"}, "is_reserved": 0, "is_disabled": 0, "type": "electric_scooter", "bike_id": "3ec0a970dddee816fa663895f61f2fc7"}, {"lon": -77.03438183333333, "lat": 38.9023815, "name": "8aefcc1527f00554962bcb79aa2a1bab", "fusion_lat": 0.0, "fusion_lon": 0.0, "rental_uris": {"android": "https://dc.lft.to/lastmile_qr_scan", "ios": "https://dc.lft.to/lastmile_qr_scan"}, "is_reserved": 0, "is_disabled": 0, "type": "electric_scooter", "bike_id": "8aefcc1527f00554962bcb79aa2a1bab"}, {"lon": -77.037545, "lat": 38.908731, "name": "93a49c46e412ace674fb20df049fac8f", "fusion_lat": 0.0, "fusion_lon": 0.0, "rental_uris": {"android": "https://dc.lft.to/lastmile_qr_scan", "ios": "https://dc.lft.to/lastmile_qr_scan"}, "is_reserved": 0, "is_disabled": 0, "type": "electric_scooter", "bike_id": "93a49c46e412ace674fb20df049fac8f"}, {"lon": -77.00207083333333, "lat": 38.82266766666667, "name": "89687383c5ec7753d11c64a24c8be1a3", "fusion_lat": 0.0, "fusion_lon": 0.0, "rental_uris": {"android": "https://dc.lft.to/lastmile_qr_scan", "ios": "https://dc.lft.to/lastmile_qr_scan"}, "is_reserved": 0, "is_disabled": 0, "type": "electric_scooter", "bike_id": "89687383c5ec7753d11c64a24c8be1a3"}, {"lon": -77.02490383333334, "lat": 38.8922065, "name": "3b5341a88dc44e4374091f427903f5dd", "fusion_lat": 0.0, "fusion_lon": 0.0, "rental_uris": {"android": "https://dc.lft.to/lastmile_qr_scan", "ios": "https://dc.lft.to/lastmile_qr_scan"}, "is_reserved": 0, "is_disabled": 0, "type": "electric_scooter", "bike_id": "3b5341a88dc44e4374091f427903f5dd"}, {"lon": -76.98361983333334, "lat": 38.864764666666666, "name": "56cd85dd43bd2f4b79e2b662a7e4738d", "fusion_lat": 0.0, "fusion_lon": 0.0, "rental_uris": {"android": "https://dc.lft.to/lastmile_qr_scan", "ios": "https://dc.lft.to/lastmile_qr_scan"}, "is_reserved": 0, "is_disabled": 0, "type": "electric_scooter", "bike_id": "56cd85dd43bd2f4b79e2b662a7e4738d"}, {"lon": -77.03198116666667, "lat": 38.912865833333335, "name": "6aba0178a2467cedec4aaf2e8d1ee685", "fusion_lat": 0.0, "fusion_lon": 0.0, "rental_uris": {"android": "https://dc.lft.to/lastmile_qr_scan", "ios": "https://dc.lft.to/lastmile_qr_scan"}, "is_reserved": 0, "is_disabled": 0, "type": "electric_scooter", "bike_id": "6aba0178a2467cedec4aaf2e8d1ee685"}, {"lon": -77.01146266666667, "lat": 38.956744, "name": "c0add409aaac23f2de076b501572715c", "fusion_lat": 0.0, "fusion_lon": 0.0, "rental_uris": {"android": "https://dc.lft.to/lastmile_qr_scan", "ios": "https://dc.lft.to/lastmile_qr_scan"}, "is_reserved": 0, "is_disabled": 0, "type": "electric_scooter", "bike_id": "c0add409aaac23f2de076b501572715c"}, {"lon": -77.019676, "lat": 38.8837755, "name": "8c8ab0d1f99d4744eb8492b8efa0b3b0", "fusion_lat": 0.0, "fusion_lon": 0.0, "rental_uris": {"android": "https://dc.lft.to/lastmile_qr_scan", "ios": "https://dc.lft.to/lastmile_qr_scan"}, "is_reserved": 0, "is_disabled": 0, "type": "electric_scooter", "bike_id": "8c8ab0d1f99d4744eb8492b8efa0b3b0"}, {"lon": -77.04086283333334, "lat": 38.92013566666667, "name": "6f772538d80ce0ca20f4e432adf8dd4b", "fusion_lat": 0.0, "fusion_lon": 0.0, "rental_uris": {"android": "https://dc.lft.to/lastmile_qr_scan", "ios": "https://dc.lft.to/lastmile_qr_scan"}, "is_reserved": 0, "is_disabled": 0, "type": "electric_scooter", "bike_id": "6f772538d80ce0ca20f4e432adf8dd4b"}, {"lon": -77.07790716666666, "lat": 38.845156833333334, "name": "d28f1d8aa6817ec4694dcecd94d2ff89", "fusion_lat": 0.0, "fusion_lon": 0.0, "rental_uris": {"android": "https://dc.lft.to/lastmile_qr_scan", "ios": "https://dc.lft.to/lastmile_qr_scan"}, "is_reserved": 0, "is_disabled": 0, "type": "electric_bike", "bike_id": "d28f1d8aa6817ec4694dcecd94d2ff89"}, {"lon": -77.046363, "lat": 38.89221233333333, "name": "4911eaec90de83691e248195363681d5", "fusion_lat": 0.0, "fusion_lon": 0.0, "rental_uris": {"android": "https://dc.lft.to/lastmile_qr_scan", "ios": "https://dc.lft.to/lastmile_qr_scan"}, "is_reserved": 0, "is_disabled": 0, "type": "electric_scooter", "bike_id": "4911eaec90de83691e248195363681d5"}, {"lon": -77.0383195, "lat": 38.91110166666667, "name": "bc213e6a8f590f68723bab6c92c145b8", "fusion_lat": 0.0, "fusion_lon": 0.0, "rental_uris": {"android": "https://dc.lft.to/lastmile_qr_scan", "ios": "https://dc.lft.to/lastmile_qr_scan"}, "is_reserved": 0, "is_disabled": 0, "type": "electric_scooter", "bike_id": "bc213e6a8f590f68723bab6c92c145b8"}, {"lon": -76.941184, "lat": 38.90794266666666, "name": "49db12ec27d0226d7330f70857dddd46", "fusion_lat": 0.0, "fusion_lon": 0.0, "rental_uris": {"android": "https://dc.lft.to/lastmile_qr_scan", "ios": "https://dc.lft.to/lastmile_qr_scan"}, "is_reserved": 0, "is_disabled": 0, "type": "electric_scooter", "bike_id": "49db12ec27d0226d7330f70857dddd46"}, {"lon": -77.052369, "lat": 38.924639166666665, "name": "c14697591f5029fc42312b3d151e507a", "fusion_lat": 0.0, "fusion_lon": 0.0, "rental_uris": {"android": "https://dc.lft.to/lastmile_qr_scan", "ios": "https://dc.lft.to/lastmile_qr_scan"}, "is_reserved": 0, "is_disabled": 0, "type": "electric_scooter", "bike_id": "c14697591f5029fc42312b3d151e507a"}, {"lon": -77.04654533333333, "lat": 38.904258166666665, "name": "c0593910895cc5529830ec4aaf6c33e9", "fusion_lat": 0.0, "fusion_lon": 0.0, "rental_uris": {"android": "https://dc.lft.to/lastmile_qr_scan", "ios": "https://dc.lft.to/lastmile_qr_scan"}, "is_reserved": 0, "is_disabled": 0, "type": "electric_scooter", "bike_id": "c0593910895cc5529830ec4aaf6c33e9"}, {"lon": -77.04669883333334, "lat": 38.895589666666666, "name": "0993c9554c8745421e26e310fa04105c", "fusion_lat": 0.0, "fusion_lon": 0.0, "rental_uris": {"android": "https://dc.lft.to/lastmile_qr_scan", "ios": "https://dc.lft.to/lastmile_qr_scan"}, "is_reserved": 0, "is_disabled": 0, "type": "electric_scooter", "bike_id": "0993c9554c8745421e26e310fa04105c"}, {"lon": -76.9365725, "lat": 38.902890666666664, "name": "1bcb549c91a282f55ddd367f9f0ab5d4", "fusion_lat": 0.0, "fusion_lon": 0.0, "rental_uris": {"android": "https://dc.lft.to/lastmile_qr_scan", "ios": "https://dc.lft.to/lastmile_qr_scan"}, "is_reserved": 0, "is_disabled": 0, "type": "electric_scooter", "bike_id": "1bcb549c91a282f55ddd367f9f0ab5d4"}, {"lon": -77.04285333333333, "lat": 38.9110915, "name": "9e654735d9c23602436eebb8cccf2397", "fusion_lat": 0.0, "fusion_lon": 0.0, "rental_uris": {"android": "https://dc.lft.to/lastmile_qr_scan", "ios": "https://dc.lft.to/lastmile_qr_scan"}, "is_reserved": 0, "is_disabled": 0, "type": "electric_scooter", "bike_id": "9e654735d9c23602436eebb8cccf2397"}, {"lon": -77.12740966666667, "lat": 38.8881805, "name": "4efc643119afdeccd8413af21eed89f1", "fusion_lat": 0.0, "fusion_lon": 0.0, "rental_uris": {"android": "https://dc.lft.to/lastmile_qr_scan", "ios": "https://dc.lft.to/lastmile_qr_scan"}, "is_reserved": 0, "is_disabled": 0, "type": "electric_bike", "bike_id": "4efc643119afdeccd8413af21eed89f1"}, {"lon": -77.02394216666667, "lat": 38.887374, "name": "d6df705a3bf8ba97c2442bfd9dab97f4", "fusion_lat": 0.0, "fusion_lon": 0.0, "rental_uris": {"android": "https://dc.lft.to/lastmile_qr_scan", "ios": "https://dc.lft.to/lastmile_qr_scan"}, "is_reserved": 0, "is_disabled": 0, "type": "electric_scooter", "bike_id": "d6df705a3bf8ba97c2442bfd9dab97f4"}, {"lon": -77.008313, "lat": 38.904707333333334, "name": "f8d57d71c7b7f884620e2ba9aaf0c924", "fusion_lat": 0.0, "fusion_lon": 0.0, "rental_uris": {"android": "https://dc.lft.to/lastmile_qr_scan", "ios": "https://dc.lft.to/lastmile_qr_scan"}, "is_reserved": 0, "is_disabled": 0, "type": "electric_scooter", "bike_id": "f8d57d71c7b7f884620e2ba9aaf0c924"}, {"lon": -77.06164783333334, "lat": 38.9421815, "name": "6b2bf4a73b35aefafca478719e7e9ff4", "fusion_lat": 0.0, "fusion_lon": 0.0, "rental_uris": {"android": "https://dc.lft.to/lastmile_qr_scan", "ios": "https://dc.lft.to/lastmile_qr_scan"}, "is_reserved": 0, "is_disabled": 0, "type": "electric_scooter", "bike_id": "6b2bf4a73b35aefafca478719e7e9ff4"}, {"lon": -76.931576, "lat": 38.89887083333333, "name": "afd4b97fd4422e426e8e79894a8f8836", "fusion_lat": 0.0, "fusion_lon": 0.0, "rental_uris": {"android": "https://dc.lft.to/lastmile_qr_scan", "ios": "https://dc.lft.to/lastmile_qr_scan"}, "is_reserved": 0, "is_disabled": 0, "type": "electric_scooter", "bike_id": "afd4b97fd4422e426e8e79894a8f8836"}, {"lon": -77.039571, "lat": 38.902644, "name": "28bb0985ca04de96014540429286e902", "fusion_lat": 0.0, "fusion_lon": 0.0, "rental_uris": {"android": "https://dc.lft.to/lastmile_qr_scan", "ios": "https://dc.lft.to/lastmile_qr_scan"}, "is_reserved": 0, "is_disabled": 0, "type": "electric_scooter", "bike_id": "28bb0985ca04de96014540429286e902"}, {"lon": -77.02580266666666, "lat": 38.892472833333336, "name": "ec591e72b3e936ef6804c3bc0f91b00d", "fusion_lat": 0.0, "fusion_lon": 0.0, "rental_uris": {"android": "https://dc.lft.to/lastmile_qr_scan", "ios": "https://dc.lft.to/lastmile_qr_scan"}, "is_reserved": 0, "is_disabled": 0, "type": "electric_scooter", "bike_id": "ec591e72b3e936ef6804c3bc0f91b00d"}, {"lon": -77.0394435, "lat": 38.908234666666665, "name": "9e1fc449f95272a8cbcb6f9de0b3321f", "fusion_lat": 0.0, "fusion_lon": 0.0, "rental_uris": {"android": "https://dc.lft.to/lastmile_qr_scan", "ios": "https://dc.lft.to/lastmile_qr_scan"}, "is_reserved": 0, "is_disabled": 0, "type": "electric_scooter", "bike_id": "9e1fc449f95272a8cbcb6f9de0b3321f"}, {"lon": -76.98774066666667, "lat": 38.91175066666667, "name": "33a21e2ba253ac8e6bad27ca20c325b6", "fusion_lat": 0.0, "fusion_lon": 0.0, "rental_uris": {"android": "https://dc.lft.to/lastmile_qr_scan", "ios": "https://dc.lft.to/lastmile_qr_scan"}, "is_reserved": 0, "is_disabled": 0, "type": "electric_scooter", "bike_id": "33a21e2ba253ac8e6bad27ca20c325b6"}, {"lon": -77.026936, "lat": 38.92483433333334, "name": "2e157d9dfc7053fee2f926c42d70847b", "fusion_lat": 0.0, "fusion_lon": 0.0, "rental_uris": {"android": "https://dc.lft.to/lastmile_qr_scan", "ios": "https://dc.lft.to/lastmile_qr_scan"}, "is_reserved": 0, "is_disabled": 0, "type": "electric_scooter", "bike_id": "2e157d9dfc7053fee2f926c42d70847b"}, {"lon": -77.02399483333333, "lat": 38.919929, "name": "1768ad07956cff4d6dbf2c8990fb4aa9", "fusion_lat": 0.0, "fusion_lon": 0.0, "rental_uris": {"android": "https://dc.lft.to/lastmile_qr_scan", "ios": "https://dc.lft.to/lastmile_qr_scan"}, "is_reserved": 0, "is_disabled": 0, "type": "electric_scooter", "bike_id": "1768ad07956cff4d6dbf2c8990fb4aa9"}, {"lon": -77.03163516666666, "lat": 38.91413883333333, "name": "a3c57f9fe1aef12cccaf17146ad0a567", "fusion_lat": 0.0, "fusion_lon": 0.0, "rental_uris": {"android": "https://dc.lft.to/lastmile_qr_scan", "ios": "https://dc.lft.to/lastmile_qr_scan"}, "is_reserved": 0, "is_disabled": 0, "type": "electric_scooter", "bike_id": "a3c57f9fe1aef12cccaf17146ad0a567"}, {"lon": -77.022476, "lat": 38.912742, "name": "82190fff3b6673789e24ec4b241ed7ca", "fusion_lat": 0.0, "fusion_lon": 0.0, "rental_uris": {"android": "https://dc.lft.to/lastmile_qr_scan", "ios": "https://dc.lft.to/lastmile_qr_scan"}, "is_reserved": 0, "is_disabled": 0, "type": "electric_scooter", "bike_id": "82190fff3b6673789e24ec4b241ed7ca"}, {"lon": -77.10126716666667, "lat": 38.852068833333334, "name": "dca8f579004d83a774f95ba2ee96f17c", "fusion_lat": 0.0, "fusion_lon": 0.0, "rental_uris": {"android": "https://dc.lft.to/lastmile_qr_scan", "ios": "https://dc.lft.to/lastmile_qr_scan"}, "is_reserved": 0, "is_disabled": 0, "type": "electric_bike", "bike_id": "dca8f579004d83a774f95ba2ee96f17c"}, {"lon": -77.043937, "lat": 38.92363916666667, "name": "41d6c4fd2d25aec951aaf64dc756afe2", "fusion_lat": 0.0, "fusion_lon": 0.0, "rental_uris": {"android": "https://dc.lft.to/lastmile_qr_scan", "ios": "https://dc.lft.to/lastmile_qr_scan"}, "is_reserved": 0, "is_disabled": 0, "type": "electric_scooter", "bike_id": "41d6c4fd2d25aec951aaf64dc756afe2"}, {"lon": -77.02160633333334, "lat": 38.886289833333336, "name": "9dc82ac53233802be0e51582d01d7987", "fusion_lat": 0.0, "fusion_lon": 0.0, "rental_uris": {"android": "https://dc.lft.to/lastmile_qr_scan", "ios": "https://dc.lft.to/lastmile_qr_scan"}, "is_reserved": 0, "is_disabled": 0, "type": "electric_scooter", "bike_id": "9dc82ac53233802be0e51582d01d7987"}, {"lon": -77.02974116666667, "lat": 38.96227566666666, "name": "32c8470ef9d315b4c06538f5f48714b8", "fusion_lat": 0.0, "fusion_lon": 0.0, "rental_uris": {"android": "https://dc.lft.to/lastmile_qr_scan", "ios": "https://dc.lft.to/lastmile_qr_scan"}, "is_reserved": 0, "is_disabled": 0, "type": "electric_scooter", "bike_id": "32c8470ef9d315b4c06538f5f48714b8"}, {"lon": -77.00356566666666, "lat": 38.882501833333336, "name": "bc0ab34bc838ce847775f1e5095ec7fa", "fusion_lat": 0.0, "fusion_lon": 0.0, "rental_uris": {"android": "https://dc.lft.to/lastmile_qr_scan", "ios": "https://dc.lft.to/lastmile_qr_scan"}, "is_reserved": 0, "is_disabled": 0, "type": "electric_scooter", "bike_id": "bc0ab34bc838ce847775f1e5095ec7fa"}, {"lon": -77.03478183333333, "lat": 38.90862416666667, "name": "80664e48b005db38d32b922a9897b5ed", "fusion_lat": 0.0, "fusion_lon": 0.0, "rental_uris": {"android": "https://dc.lft.to/lastmile_qr_scan", "ios": "https://dc.lft.to/lastmile_qr_scan"}, "is_reserved": 0, "is_disabled": 0, "type": "electric_scooter", "bike_id": "80664e48b005db38d32b922a9897b5ed"}, {"lon": -77.00135783333333, "lat": 38.90401633333333, "name": "f7da82086a90112d3f03ca859078d711", "fusion_lat": 0.0, "fusion_lon": 0.0, "rental_uris": {"android": "https://dc.lft.to/lastmile_qr_scan", "ios": "https://dc.lft.to/lastmile_qr_scan"}, "is_reserved": 0, "is_disabled": 0, "type": "electric_scooter", "bike_id": "f7da82086a90112d3f03ca859078d711"}, {"lon": -77.0269225, "lat": 38.90366, "name": "93fd39ceddb525d84f2255f6e18746c6", "fusion_lat": 0.0, "fusion_lon": 0.0, "rental_uris": {"android": "https://dc.lft.to/lastmile_qr_scan", "ios": "https://dc.lft.to/lastmile_qr_scan"}, "is_reserved": 0, "is_disabled": 0, "type": "electric_scooter", "bike_id": "93fd39ceddb525d84f2255f6e18746c6"}, {"lon": -77.027742, "lat": 38.8922055, "name": "03f4c9b04b9a5c99bbbd33dc0f209948", "fusion_lat": 0.0, "fusion_lon": 0.0, "rental_uris": {"android": "https://dc.lft.to/lastmile_qr_scan", "ios": "https://dc.lft.to/lastmile_qr_scan"}, "is_reserved": 0, "is_disabled": 0, "type": "electric_scooter", "bike_id": "03f4c9b04b9a5c99bbbd33dc0f209948"}, {"lon": -77.04125633333334, "lat": 38.922586, "name": "b18c9edb765133a22f418b8315ba784e", "fusion_lat": 0.0, "fusion_lon": 0.0, "rental_uris": {"android": "https://dc.lft.to/lastmile_qr_scan", "ios": "https://dc.lft.to/lastmile_qr_scan"}, "is_reserved": 0, "is_disabled": 0, "type": "electric_scooter", "bike_id": "b18c9edb765133a22f418b8315ba784e"}, {"lon": -77.038507, "lat": 38.91059333333333, "name": "095c9eeac09fa3c2149a66528c250e2e", "fusion_lat": 0.0, "fusion_lon": 0.0, "rental_uris": {"android": "https://dc.lft.to/lastmile_qr_scan", "ios": "https://dc.lft.to/lastmile_qr_scan"}, "is_reserved": 0, "is_disabled": 0, "type": "electric_scooter", "bike_id": "095c9eeac09fa3c2149a66528c250e2e"}, {"lon": -76.98849883333334, "lat": 38.90344916666667, "name": "3a99a1276beb7abd5a8f9f3732624e03", "fusion_lat": 0.0, "fusion_lon": 0.0, "rental_uris": {"android": "https://dc.lft.to/lastmile_qr_scan", "ios": "https://dc.lft.to/lastmile_qr_scan"}, "is_reserved": 0, "is_disabled": 0, "type": "electric_scooter", "bike_id": "3a99a1276beb7abd5a8f9f3732624e03"}, {"lon": -77.03386783333333, "lat": 38.9286915, "name": "cff6eb1225378952a426970d77773615", "fusion_lat": 0.0, "fusion_lon": 0.0, "rental_uris": {"android": "https://dc.lft.to/lastmile_qr_scan", "ios": "https://dc.lft.to/lastmile_qr_scan"}, "is_reserved": 0, "is_disabled": 0, "type": "electric_scooter", "bike_id": "cff6eb1225378952a426970d77773615"}, {"lon": -77.0463785, "lat": 38.8922185, "name": "6201f944f9694cb0990ebcef6d6464c4", "fusion_lat": 0.0, "fusion_lon": 0.0, "rental_uris": {"android": "https://dc.lft.to/lastmile_qr_scan", "ios": "https://dc.lft.to/lastmile_qr_scan"}, "is_reserved": 0, "is_disabled": 0, "type": "electric_scooter", "bike_id": "6201f944f9694cb0990ebcef6d6464c4"}, {"lon": -77.00050983333334, "lat": 38.90364183333333, "name": "1160a7d87b010978c67f153a2dfd9b80", "fusion_lat": 0.0, "fusion_lon": 0.0, "rental_uris": {"android": "https://dc.lft.to/lastmile_qr_scan", "ios": "https://dc.lft.to/lastmile_qr_scan"}, "is_reserved": 0, "is_disabled": 0, "type": "electric_scooter", "bike_id": "1160a7d87b010978c67f153a2dfd9b80"}, {"lon": -76.99017966666666, "lat": 38.86114666666667, "name": "9e8f8a7668ca6052114c67ba9fca4b7e", "fusion_lat": 0.0, "fusion_lon": 0.0, "rental_uris": {"android": "https://dc.lft.to/lastmile_qr_scan", "ios": "https://dc.lft.to/lastmile_qr_scan"}, "is_reserved": 0, "is_disabled": 0, "type": "electric_scooter", "bike_id": "9e8f8a7668ca6052114c67ba9fca4b7e"}, {"lon": -77.02482116666667, "lat": 38.93880683333333, "name": "addf2e87cab1236fc1c317e624302d3a", "fusion_lat": 0.0, "fusion_lon": 0.0, "rental_uris": {"android": "https://dc.lft.to/lastmile_qr_scan", "ios": "https://dc.lft.to/lastmile_qr_scan"}, "is_reserved": 0, "is_disabled": 0, "type": "electric_scooter", "bike_id": "addf2e87cab1236fc1c317e624302d3a"}, {"lon": -77.02148683333333, "lat": 38.8940515, "name": "918c10b0d84929fb1ebef8a7b971c65e", "fusion_lat": 0.0, "fusion_lon": 0.0, "rental_uris": {"android": "https://dc.lft.to/lastmile_qr_scan", "ios": "https://dc.lft.to/lastmile_qr_scan"}, "is_reserved": 0, "is_disabled": 0, "type": "electric_scooter", "bike_id": "918c10b0d84929fb1ebef8a7b971c65e"}, {"lon": -77.031759, "lat": 38.9192785, "name": "0f62c76c91fb6ff44ca2f2a50d44abee", "fusion_lat": 0.0, "fusion_lon": 0.0, "rental_uris": {"android": "https://dc.lft.to/lastmile_qr_scan", "ios": "https://dc.lft.to/lastmile_qr_scan"}, "is_reserved": 0, "is_disabled": 0, "type": "electric_scooter", "bike_id": "0f62c76c91fb6ff44ca2f2a50d44abee"}, {"lon": -77.02964716666666, "lat": 38.916868666666666, "name": "de82de93122bc84a6ebac089859e9c44", "fusion_lat": 0.0, "fusion_lon": 0.0, "rental_uris": {"android": "https://dc.lft.to/lastmile_qr_scan", "ios": "https://dc.lft.to/lastmile_qr_scan"}, "is_reserved": 0, "is_disabled": 0, "type": "electric_scooter", "bike_id": "de82de93122bc84a6ebac089859e9c44"}, {"lon": -77.03640083333333, "lat": 38.92407816666667, "name": "62b3892b9f3938f2ef586b5cec570a5f", "fusion_lat": 0.0, "fusion_lon": 0.0, "rental_uris": {"android": "https://dc.lft.to/lastmile_qr_scan", "ios": "https://dc.lft.to/lastmile_qr_scan"}, "is_reserved": 0, "is_disabled": 0, "type": "electric_scooter", "bike_id": "62b3892b9f3938f2ef586b5cec570a5f"}, {"lon": -77.02169833333333, "lat": 38.887438, "name": "5506598408730365a61bceff9130e3ff", "fusion_lat": 0.0, "fusion_lon": 0.0, "rental_uris": {"android": "https://dc.lft.to/lastmile_qr_scan", "ios": "https://dc.lft.to/lastmile_qr_scan"}, "is_reserved": 0, "is_disabled": 0, "type": "electric_scooter", "bike_id": "5506598408730365a61bceff9130e3ff"}, {"lon": -76.94891266666667, "lat": 38.89525016666666, "name": "2cc547c1bbca350159de64e7d9cd1345", "fusion_lat": 0.0, "fusion_lon": 0.0, "rental_uris": {"android": "https://dc.lft.to/lastmile_qr_scan", "ios": "https://dc.lft.to/lastmile_qr_scan"}, "is_reserved": 0, "is_disabled": 0, "type": "electric_scooter", "bike_id": "2cc547c1bbca350159de64e7d9cd1345"}, {"lon": -76.99633, "lat": 38.8462205, "name": "1678cbb9c68591cd617e7f301436d199", "fusion_lat": 0.0, "fusion_lon": 0.0, "rental_uris": {"android": "https://dc.lft.to/lastmile_qr_scan", "ios": "https://dc.lft.to/lastmile_qr_scan"}, "is_reserved": 0, "is_disabled": 0, "type": "electric_scooter", "bike_id": "1678cbb9c68591cd617e7f301436d199"}, {"lon": -76.99871016666667, "lat": 38.90022966666667, "name": "c962cb5d15b4a4aa126eccd6ddda4ac9", "fusion_lat": 0.0, "fusion_lon": 0.0, "rental_uris": {"android": "https://dc.lft.to/lastmile_qr_scan", "ios": "https://dc.lft.to/lastmile_qr_scan"}, "is_reserved": 0, "is_disabled": 0, "type": "electric_scooter", "bike_id": "c962cb5d15b4a4aa126eccd6ddda4ac9"}, {"lon": -77.0256165, "lat": 38.93855816666667, "name": "d5ecac66f0e26bc62689a6d340423e87", "fusion_lat": 0.0, "fusion_lon": 0.0, "rental_uris": {"android": "https://dc.lft.to/lastmile_qr_scan", "ios": "https://dc.lft.to/lastmile_qr_scan"}, "is_reserved": 0, "is_disabled": 0, "type": "electric_scooter", "bike_id": "d5ecac66f0e26bc62689a6d340423e87"}, {"lon": -77.04166633333334, "lat": 38.91909783333333, "name": "eaf46afae7253b4a7f63ccadf8abffa9", "fusion_lat": 0.0, "fusion_lon": 0.0, "rental_uris": {"android": "https://dc.lft.to/lastmile_qr_scan", "ios": "https://dc.lft.to/lastmile_qr_scan"}, "is_reserved": 0, "is_disabled": 0, "type": "electric_scooter", "bike_id": "eaf46afae7253b4a7f63ccadf8abffa9"}, {"lon": -77.00356616666667, "lat": 38.899272, "name": "7a8b1fcb4efb05a11f8085b2aaff3f59", "fusion_lat": 0.0, "fusion_lon": 0.0, "rental_uris": {"android": "https://dc.lft.to/lastmile_qr_scan", "ios": "https://dc.lft.to/lastmile_qr_scan"}, "is_reserved": 0, "is_disabled": 0, "type": "electric_scooter", "bike_id": "7a8b1fcb4efb05a11f8085b2aaff3f59"}, {"lon": -77.00864316666667, "lat": 38.827265833333335, "name": "fff9ce0469c66d524aa5aa9b4a554e08", "fusion_lat": 0.0, "fusion_lon": 0.0, "rental_uris": {"android": "https://dc.lft.to/lastmile_qr_scan", "ios": "https://dc.lft.to/lastmile_qr_scan"}, "is_reserved": 0, "is_disabled": 0, "type": "electric_bike", "bike_id": "fff9ce0469c66d524aa5aa9b4a554e08"}, {"lon": -77.02476833333333, "lat": 38.938770833333336, "name": "52a54c88980e4bc54566ea19449a1b11", "fusion_lat": 0.0, "fusion_lon": 0.0, "rental_uris": {"android": "https://dc.lft.to/lastmile_qr_scan", "ios": "https://dc.lft.to/lastmile_qr_scan"}, "is_reserved": 0, "is_disabled": 0, "type": "electric_scooter", "bike_id": "52a54c88980e4bc54566ea19449a1b11"}, {"lon": -77.04496916666666, "lat": 38.91838116666667, "name": "4ab34b658fddb93cd094a2be2b46de50", "fusion_lat": 0.0, "fusion_lon": 0.0, "rental_uris": {"android": "https://dc.lft.to/lastmile_qr_scan", "ios": "https://dc.lft.to/lastmile_qr_scan"}, "is_reserved": 0, "is_disabled": 0, "type": "electric_scooter", "bike_id": "4ab34b658fddb93cd094a2be2b46de50"}, {"lon": -77.05324633333333, "lat": 38.90269216666667, "name": "2d5716ad1dabad8bdf16e7e05ef9376d", "fusion_lat": 0.0, "fusion_lon": 0.0, "rental_uris": {"android": "https://dc.lft.to/lastmile_qr_scan", "ios": "https://dc.lft.to/lastmile_qr_scan"}, "is_reserved": 0, "is_disabled": 0, "type": "electric_scooter", "bike_id": "2d5716ad1dabad8bdf16e7e05ef9376d"}, {"lon": -77.072691, "lat": 38.93477733333334, "name": "0fa299fb039ed42a9aa7bf0c048b4900", "fusion_lat": 0.0, "fusion_lon": 0.0, "rental_uris": {"android": "https://dc.lft.to/lastmile_qr_scan", "ios": "https://dc.lft.to/lastmile_qr_scan"}, "is_reserved": 0, "is_disabled": 0, "type": "electric_scooter", "bike_id": "0fa299fb039ed42a9aa7bf0c048b4900"}, {"lon": -77.06174133333333, "lat": 38.9430985, "name": "a63d25cd582436ac6d7d7e19d0e3d16d", "fusion_lat": 0.0, "fusion_lon": 0.0, "rental_uris": {"android": "https://dc.lft.to/lastmile_qr_scan", "ios": "https://dc.lft.to/lastmile_qr_scan"}, "is_reserved": 0, "is_disabled": 0, "type": "electric_scooter", "bike_id": "a63d25cd582436ac6d7d7e19d0e3d16d"}, {"lon": -76.9856255, "lat": 38.8558135, "name": "bdba9f3d9e5efc1cf2ebd1eb3705a105", "fusion_lat": 0.0, "fusion_lon": 0.0, "rental_uris": {"android": "https://dc.lft.to/lastmile_qr_scan", "ios": "https://dc.lft.to/lastmile_qr_scan"}, "is_reserved": 0, "is_disabled": 0, "type": "electric_scooter", "bike_id": "bdba9f3d9e5efc1cf2ebd1eb3705a105"}, {"lon": -77.0320885, "lat": 38.917148, "name": "589974814747f3d7641d34f6f3540a2a", "fusion_lat": 0.0, "fusion_lon": 0.0, "rental_uris": {"android": "https://dc.lft.to/lastmile_qr_scan", "ios": "https://dc.lft.to/lastmile_qr_scan"}, "is_reserved": 0, "is_disabled": 0, "type": "electric_scooter", "bike_id": "589974814747f3d7641d34f6f3540a2a"}, {"lon": -77.024156, "lat": 38.920772666666664, "name": "a599b0c6608b1ed4eb680d1b8dbe3f79", "fusion_lat": 0.0, "fusion_lon": 0.0, "rental_uris": {"android": "https://dc.lft.to/lastmile_qr_scan", "ios": "https://dc.lft.to/lastmile_qr_scan"}, "is_reserved": 0, "is_disabled": 0, "type": "electric_scooter", "bike_id": "a599b0c6608b1ed4eb680d1b8dbe3f79"}, {"lon": -77.04159266666667, "lat": 38.907199166666665, "name": "2c7c717a135fdd7258182f5cdda1fedc", "fusion_lat": 0.0, "fusion_lon": 0.0, "rental_uris": {"android": "https://dc.lft.to/lastmile_qr_scan", "ios": "https://dc.lft.to/lastmile_qr_scan"}, "is_reserved": 0, "is_disabled": 0, "type": "electric_scooter", "bike_id": "2c7c717a135fdd7258182f5cdda1fedc"}, {"lon": -77.03354783333333, "lat": 38.899725, "name": "ca97bd69ea5b58bc0fa64b6592aaeb37", "fusion_lat": 0.0, "fusion_lon": 0.0, "rental_uris": {"android": "https://dc.lft.to/lastmile_qr_scan", "ios": "https://dc.lft.to/lastmile_qr_scan"}, "is_reserved": 0, "is_disabled": 0, "type": "electric_scooter", "bike_id": "ca97bd69ea5b58bc0fa64b6592aaeb37"}, {"lon": -77.02599583333334, "lat": 38.900281166666666, "name": "ade2f49fcdf2e91b7d19759cfe4fca8d", "fusion_lat": 0.0, "fusion_lon": 0.0, "rental_uris": {"android": "https://dc.lft.to/lastmile_qr_scan", "ios": "https://dc.lft.to/lastmile_qr_scan"}, "is_reserved": 0, "is_disabled": 0, "type": "electric_scooter", "bike_id": "ade2f49fcdf2e91b7d19759cfe4fca8d"}, {"lon": -77.03463316666667, "lat": 38.9086155, "name": "aa698d60dee10efa273a4d9f6a321ae6", "fusion_lat": 0.0, "fusion_lon": 0.0, "rental_uris": {"android": "https://dc.lft.to/lastmile_qr_scan", "ios": "https://dc.lft.to/lastmile_qr_scan"}, "is_reserved": 0, "is_disabled": 0, "type": "electric_scooter", "bike_id": "aa698d60dee10efa273a4d9f6a321ae6"}, {"lon": -77.03163566666667, "lat": 38.914138333333334, "name": "d37d0eb60373f5176e4a03318642aea4", "fusion_lat": 0.0, "fusion_lon": 0.0, "rental_uris": {"android": "https://dc.lft.to/lastmile_qr_scan", "ios": "https://dc.lft.to/lastmile_qr_scan"}, "is_reserved": 0, "is_disabled": 0, "type": "electric_scooter", "bike_id": "d37d0eb60373f5176e4a03318642aea4"}, {"lon": -77.02815516666666, "lat": 38.8924165, "name": "7709866747eccfc7a7eeffa39972e40b", "fusion_lat": 0.0, "fusion_lon": 0.0, "rental_uris": {"android": "https://dc.lft.to/lastmile_qr_scan", "ios": "https://dc.lft.to/lastmile_qr_scan"}, "is_reserved": 0, "is_disabled": 0, "type": "electric_scooter", "bike_id": "7709866747eccfc7a7eeffa39972e40b"}, {"lon": -77.03193633333333, "lat": 38.944162166666665, "name": "592d17c74848a073c9ffcf08d763ac9f", "fusion_lat": 0.0, "fusion_lon": 0.0, "rental_uris": {"android": "https://dc.lft.to/lastmile_qr_scan", "ios": "https://dc.lft.to/lastmile_qr_scan"}, "is_reserved": 0, "is_disabled": 0, "type": "electric_bike", "bike_id": "592d17c74848a073c9ffcf08d763ac9f"}, {"lon": -77.03380366666667, "lat": 38.921503666666666, "name": "63211bea573fa1ddbedc5c5d8460127b", "fusion_lat": 0.0, "fusion_lon": 0.0, "rental_uris": {"android": "https://dc.lft.to/lastmile_qr_scan", "ios": "https://dc.lft.to/lastmile_qr_scan"}, "is_reserved": 0, "is_disabled": 0, "type": "electric_scooter", "bike_id": "63211bea573fa1ddbedc5c5d8460127b"}, {"lon": -77.01822383333334, "lat": 38.902403666666665, "name": "eadc4ac94099957444498f8e92bb44aa", "fusion_lat": 0.0, "fusion_lon": 0.0, "rental_uris": {"android": "https://dc.lft.to/lastmile_qr_scan", "ios": "https://dc.lft.to/lastmile_qr_scan"}, "is_reserved": 0, "is_disabled": 0, "type": "electric_scooter", "bike_id": "eadc4ac94099957444498f8e92bb44aa"}, {"lon": -77.00209633333333, "lat": 38.905178666666664, "name": "250771ad48716b2e7d488f63b4a92f13", "fusion_lat": 0.0, "fusion_lon": 0.0, "rental_uris": {"android": "https://dc.lft.to/lastmile_qr_scan", "ios": "https://dc.lft.to/lastmile_qr_scan"}, "is_reserved": 0, "is_disabled": 0, "type": "electric_scooter", "bike_id": "250771ad48716b2e7d488f63b4a92f13"}, {"lon": -77.03866483333333, "lat": 38.91256883333333, "name": "ee5cb501acbaf52d414127dc2f6a99f7", "fusion_lat": 0.0, "fusion_lon": 0.0, "rental_uris": {"android": "https://dc.lft.to/lastmile_qr_scan", "ios": "https://dc.lft.to/lastmile_qr_scan"}, "is_reserved": 0, "is_disabled": 0, "type": "electric_scooter", "bike_id": "ee5cb501acbaf52d414127dc2f6a99f7"}, {"lon": -77.015074, "lat": 38.91344683333333, "name": "056b162e726f2b8e1a35759ba1fd586a", "fusion_lat": 0.0, "fusion_lon": 0.0, "rental_uris": {"android": "https://dc.lft.to/lastmile_qr_scan", "ios": "https://dc.lft.to/lastmile_qr_scan"}, "is_reserved": 0, "is_disabled": 0, "type": "electric_scooter", "bike_id": "056b162e726f2b8e1a35759ba1fd586a"}, {"lon": -77.03862883333333, "lat": 38.912529166666666, "name": "5f3b3a69f7957ef4ca16621600ac6d9c", "fusion_lat": 0.0, "fusion_lon": 0.0, "rental_uris": {"android": "https://dc.lft.to/lastmile_qr_scan", "ios": "https://dc.lft.to/lastmile_qr_scan"}, "is_reserved": 0, "is_disabled": 0, "type": "electric_scooter", "bike_id": "5f3b3a69f7957ef4ca16621600ac6d9c"}, {"lon": -76.998836, "lat": 38.90751983333333, "name": "30212e2a24e5058dd2c11d3da7b0f24b", "fusion_lat": 0.0, "fusion_lon": 0.0, "rental_uris": {"android": "https://dc.lft.to/lastmile_qr_scan", "ios": "https://dc.lft.to/lastmile_qr_scan"}, "is_reserved": 0, "is_disabled": 0, "type": "electric_scooter", "bike_id": "30212e2a24e5058dd2c11d3da7b0f24b"}, {"lon": -76.99167783333333, "lat": 38.87923766666667, "name": "5ba6712f4f99d00c852b305941f2cbba", "fusion_lat": 0.0, "fusion_lon": 0.0, "rental_uris": {"android": "https://dc.lft.to/lastmile_qr_scan", "ios": "https://dc.lft.to/lastmile_qr_scan"}, "is_reserved": 0, "is_disabled": 0, "type": "electric_scooter", "bike_id": "5ba6712f4f99d00c852b305941f2cbba"}, {"lon": -77.034732, "lat": 38.904693333333334, "name": "fd0a01368e540276cf1ef0252c66c7bb", "fusion_lat": 0.0, "fusion_lon": 0.0, "rental_uris": {"android": "https://dc.lft.to/lastmile_qr_scan", "ios": "https://dc.lft.to/lastmile_qr_scan"}, "is_reserved": 0, "is_disabled": 0, "type": "electric_scooter", "bike_id": "fd0a01368e540276cf1ef0252c66c7bb"}, {"lon": -77.0206175, "lat": 38.920190833333336, "name": "89502e818a38fb444137f2692d3ead13", "fusion_lat": 0.0, "fusion_lon": 0.0, "rental_uris": {"android": "https://dc.lft.to/lastmile_qr_scan", "ios": "https://dc.lft.to/lastmile_qr_scan"}, "is_reserved": 0, "is_disabled": 0, "type": "electric_scooter", "bike_id": "89502e818a38fb444137f2692d3ead13"}, {"lon": -77.04420366666666, "lat": 38.91128666666667, "name": "8fc0952d92a0be7e787b5fb64a704da7", "fusion_lat": 0.0, "fusion_lon": 0.0, "rental_uris": {"android": "https://dc.lft.to/lastmile_qr_scan", "ios": "https://dc.lft.to/lastmile_qr_scan"}, "is_reserved": 0, "is_disabled": 0, "type": "electric_scooter", "bike_id": "8fc0952d92a0be7e787b5fb64a704da7"}, {"lon": -77.06473833333334, "lat": 38.9738135, "name": "dd65dd81d95b543de4ebfdb4ad3a8ffb", "fusion_lat": 0.0, "fusion_lon": 0.0, "rental_uris": {"android": "https://dc.lft.to/lastmile_qr_scan", "ios": "https://dc.lft.to/lastmile_qr_scan"}, "is_reserved": 0, "is_disabled": 0, "type": "electric_bike", "bike_id": "dd65dd81d95b543de4ebfdb4ad3a8ffb"}, {"lon": -77.01190916666667, "lat": 38.900227, "name": "5807881daf77dad25abbe8c83b0159ff", "fusion_lat": 0.0, "fusion_lon": 0.0, "rental_uris": {"android": "https://dc.lft.to/lastmile_qr_scan", "ios": "https://dc.lft.to/lastmile_qr_scan"}, "is_reserved": 0, "is_disabled": 0, "type": "electric_scooter", "bike_id": "5807881daf77dad25abbe8c83b0159ff"}, {"lon": -77.027488, "lat": 38.9662605, "name": "4a5f63fab90995b271036dfe47702bc8", "fusion_lat": 0.0, "fusion_lon": 0.0, "rental_uris": {"android": "https://dc.lft.to/lastmile_qr_scan", "ios": "https://dc.lft.to/lastmile_qr_scan"}, "is_reserved": 0, "is_disabled": 0, "type": "electric_scooter", "bike_id": "4a5f63fab90995b271036dfe47702bc8"}, {"lon": -77.03193966666667, "lat": 38.89348016666667, "name": "dd43133f3768a4dff68eb84e247cd4a9", "fusion_lat": 0.0, "fusion_lon": 0.0, "rental_uris": {"android": "https://dc.lft.to/lastmile_qr_scan", "ios": "https://dc.lft.to/lastmile_qr_scan"}, "is_reserved": 0, "is_disabled": 0, "type": "electric_scooter", "bike_id": "dd43133f3768a4dff68eb84e247cd4a9"}, {"lon": -77.02596833333334, "lat": 38.92035416666667, "name": "503f5b20c2fe78c46d42180330fd66d8", "fusion_lat": 0.0, "fusion_lon": 0.0, "rental_uris": {"android": "https://dc.lft.to/lastmile_qr_scan", "ios": "https://dc.lft.to/lastmile_qr_scan"}, "is_reserved": 0, "is_disabled": 0, "type": "electric_scooter", "bike_id": "503f5b20c2fe78c46d42180330fd66d8"}, {"lon": -77.02716583333333, "lat": 38.9007305, "name": "35751a8d0173bf43186a30a2cc8dc973", "fusion_lat": 0.0, "fusion_lon": 0.0, "rental_uris": {"android": "https://dc.lft.to/lastmile_qr_scan", "ios": "https://dc.lft.to/lastmile_qr_scan"}, "is_reserved": 0, "is_disabled": 0, "type": "electric_scooter", "bike_id": "35751a8d0173bf43186a30a2cc8dc973"}, {"lon": -76.97030766666667, "lat": 38.90310766666666, "name": "5edfed9778e5101c980c901ddca978f2", "fusion_lat": 0.0, "fusion_lon": 0.0, "rental_uris": {"android": "https://dc.lft.to/lastmile_qr_scan", "ios": "https://dc.lft.to/lastmile_qr_scan"}, "is_reserved": 0, "is_disabled": 0, "type": "electric_scooter", "bike_id": "5edfed9778e5101c980c901ddca978f2"}, {"lon": -77.03988716666667, "lat": 38.80297633333333, "name": "c3db7e117b92bfabfddb2faf0ccfe95a", "fusion_lat": 0.0, "fusion_lon": 0.0, "rental_uris": {"android": "https://dc.lft.to/lastmile_qr_scan", "ios": "https://dc.lft.to/lastmile_qr_scan"}, "is_reserved": 0, "is_disabled": 0, "type": "electric_bike", "bike_id": "c3db7e117b92bfabfddb2faf0ccfe95a"}, {"lon": -76.98859483333334, "lat": 38.90028566666667, "name": "ca64c1f74d30118abc91e4c0c84bd5ea", "fusion_lat": 0.0, "fusion_lon": 0.0, "rental_uris": {"android": "https://dc.lft.to/lastmile_qr_scan", "ios": "https://dc.lft.to/lastmile_qr_scan"}, "is_reserved": 0, "is_disabled": 0, "type": "electric_scooter", "bike_id": "ca64c1f74d30118abc91e4c0c84bd5ea"}, {"lon": -77.02705616666667, "lat": 38.906788, "name": "100c57ee99a93c84861b168ca7897d46", "fusion_lat": 0.0, "fusion_lon": 0.0, "rental_uris": {"android": "https://dc.lft.to/lastmile_qr_scan", "ios": "https://dc.lft.to/lastmile_qr_scan"}, "is_reserved": 0, "is_disabled": 0, "type": "electric_scooter", "bike_id": "100c57ee99a93c84861b168ca7897d46"}, {"lon": -76.98217316666667, "lat": 38.866826333333336, "name": "53ea01b362e22e1baa45b72ab0df9876", "fusion_lat": 0.0, "fusion_lon": 0.0, "rental_uris": {"android": "https://dc.lft.to/lastmile_qr_scan", "ios": "https://dc.lft.to/lastmile_qr_scan"}, "is_reserved": 0, "is_disabled": 0, "type": "electric_bike", "bike_id": "53ea01b362e22e1baa45b72ab0df9876"}, {"lon": -77.02571716666667, "lat": 38.887432833333335, "name": "86724a9996107e558b02f5b95dec6675", "fusion_lat": 0.0, "fusion_lon": 0.0, "rental_uris": {"android": "https://dc.lft.to/lastmile_qr_scan", "ios": "https://dc.lft.to/lastmile_qr_scan"}, "is_reserved": 0, "is_disabled": 0, "type": "electric_scooter", "bike_id": "86724a9996107e558b02f5b95dec6675"}, {"lon": -77.03239433333333, "lat": 38.93450766666667, "name": "ed50867569c368f02b97af7e7159a5c5", "fusion_lat": 0.0, "fusion_lon": 0.0, "rental_uris": {"android": "https://dc.lft.to/lastmile_qr_scan", "ios": "https://dc.lft.to/lastmile_qr_scan"}, "is_reserved": 0, "is_disabled": 0, "type": "electric_scooter", "bike_id": "ed50867569c368f02b97af7e7159a5c5"}, {"lon": -76.99915716666666, "lat": 38.909334666666666, "name": "a562ea90862ffc48517961098ff6a070", "fusion_lat": 0.0, "fusion_lon": 0.0, "rental_uris": {"android": "https://dc.lft.to/lastmile_qr_scan", "ios": "https://dc.lft.to/lastmile_qr_scan"}, "is_reserved": 0, "is_disabled": 0, "type": "electric_scooter", "bike_id": "a562ea90862ffc48517961098ff6a070"}, {"lon": -77.03283416666666, "lat": 38.929306, "name": "c51481c50faf9cf860f5de77bb58a002", "fusion_lat": 0.0, "fusion_lon": 0.0, "rental_uris": {"android": "https://dc.lft.to/lastmile_qr_scan", "ios": "https://dc.lft.to/lastmile_qr_scan"}, "is_reserved": 0, "is_disabled": 0, "type": "electric_scooter", "bike_id": "c51481c50faf9cf860f5de77bb58a002"}, {"lon": -76.99511583333333, "lat": 38.84470983333333, "name": "4f6ba5d01f3f2b7fb218e83c919f91c6", "fusion_lat": 0.0, "fusion_lon": 0.0, "rental_uris": {"android": "https://dc.lft.to/lastmile_qr_scan", "ios": "https://dc.lft.to/lastmile_qr_scan"}, "is_reserved": 0, "is_disabled": 0, "type": "electric_scooter", "bike_id": "4f6ba5d01f3f2b7fb218e83c919f91c6"}, {"lon": -77.02400866666666, "lat": 38.908589666666664, "name": "85b946315222782112d1ac236bbf7de1", "fusion_lat": 0.0, "fusion_lon": 0.0, "rental_uris": {"android": "https://dc.lft.to/lastmile_qr_scan", "ios": "https://dc.lft.to/lastmile_qr_scan"}, "is_reserved": 0, "is_disabled": 0, "type": "electric_scooter", "bike_id": "85b946315222782112d1ac236bbf7de1"}, {"lon": -77.02817066666667, "lat": 38.9093505, "name": "83e5920f78f8dd2164a7a382c0bc44c7", "fusion_lat": 0.0, "fusion_lon": 0.0, "rental_uris": {"android": "https://dc.lft.to/lastmile_qr_scan", "ios": "https://dc.lft.to/lastmile_qr_scan"}, "is_reserved": 0, "is_disabled": 0, "type": "electric_scooter", "bike_id": "83e5920f78f8dd2164a7a382c0bc44c7"}, {"lon": -76.97625233333333, "lat": 38.8928345, "name": "22e1ed79b741eb009dc5140f9d5e46a2", "fusion_lat": 0.0, "fusion_lon": 0.0, "rental_uris": {"android": "https://dc.lft.to/lastmile_qr_scan", "ios": "https://dc.lft.to/lastmile_qr_scan"}, "is_reserved": 0, "is_disabled": 0, "type": "electric_bike", "bike_id": "22e1ed79b741eb009dc5140f9d5e46a2"}, {"lon": -77.04152, "lat": 38.91969616666667, "name": "255c68618efecd1696e38209c04b3686", "fusion_lat": 0.0, "fusion_lon": 0.0, "rental_uris": {"android": "https://dc.lft.to/lastmile_qr_scan", "ios": "https://dc.lft.to/lastmile_qr_scan"}, "is_reserved": 0, "is_disabled": 0, "type": "electric_scooter", "bike_id": "255c68618efecd1696e38209c04b3686"}, {"lon": -76.99873666666667, "lat": 38.900228, "name": "9cf9e7d6fd9c2a1c066cba6225f42d55", "fusion_lat": 0.0, "fusion_lon": 0.0, "rental_uris": {"android": "https://dc.lft.to/lastmile_qr_scan", "ios": "https://dc.lft.to/lastmile_qr_scan"}, "is_reserved": 0, "is_disabled": 0, "type": "electric_scooter", "bike_id": "9cf9e7d6fd9c2a1c066cba6225f42d55"}, {"lon": -77.06383933333333, "lat": 38.92909516666667, "name": "0659411ad7a957856fdd384d7789c3b8", "fusion_lat": 0.0, "fusion_lon": 0.0, "rental_uris": {"android": "https://dc.lft.to/lastmile_qr_scan", "ios": "https://dc.lft.to/lastmile_qr_scan"}, "is_reserved": 0, "is_disabled": 0, "type": "electric_scooter", "bike_id": "0659411ad7a957856fdd384d7789c3b8"}, {"lon": -77.02764466666666, "lat": 38.891957166666664, "name": "8fc7389f9965a9e582e851b81ef67c12", "fusion_lat": 0.0, "fusion_lon": 0.0, "rental_uris": {"android": "https://dc.lft.to/lastmile_qr_scan", "ios": "https://dc.lft.to/lastmile_qr_scan"}, "is_reserved": 0, "is_disabled": 0, "type": "electric_scooter", "bike_id": "8fc7389f9965a9e582e851b81ef67c12"}, {"lon": -77.05299916666667, "lat": 38.898806666666665, "name": "4737ae40774c430b7e7318c3004bae79", "fusion_lat": 0.0, "fusion_lon": 0.0, "rental_uris": {"android": "https://dc.lft.to/lastmile_qr_scan", "ios": "https://dc.lft.to/lastmile_qr_scan"}, "is_reserved": 0, "is_disabled": 0, "type": "electric_scooter", "bike_id": "4737ae40774c430b7e7318c3004bae79"}, {"lon": -76.9860425, "lat": 38.89918433333333, "name": "3a2680f6bcc3658c2dd6545405e553dd", "fusion_lat": 0.0, "fusion_lon": 0.0, "rental_uris": {"android": "https://dc.lft.to/lastmile_qr_scan", "ios": "https://dc.lft.to/lastmile_qr_scan"}, "is_reserved": 0, "is_disabled": 0, "type": "electric_scooter", "bike_id": "3a2680f6bcc3658c2dd6545405e553dd"}, {"lon": -76.99410733333333, "lat": 38.87784283333333, "name": "434c3e8fc1083565e18afdad569fbbbf", "fusion_lat": 0.0, "fusion_lon": 0.0, "rental_uris": {"android": "https://dc.lft.to/lastmile_qr_scan", "ios": "https://dc.lft.to/lastmile_qr_scan"}, "is_reserved": 0, "is_disabled": 0, "type": "electric_scooter", "bike_id": "434c3e8fc1083565e18afdad569fbbbf"}, {"lon": -77.03735766666667, "lat": 38.933701166666665, "name": "b2f6fdeb114c3505fb6d6794144441ba", "fusion_lat": 0.0, "fusion_lon": 0.0, "rental_uris": {"android": "https://dc.lft.to/lastmile_qr_scan", "ios": "https://dc.lft.to/lastmile_qr_scan"}, "is_reserved": 0, "is_disabled": 0, "type": "electric_scooter", "bike_id": "b2f6fdeb114c3505fb6d6794144441ba"}, {"lon": -77.03197766666666, "lat": 38.907666666666664, "name": "0e18b0a405c2429b25a26ed8069e57b4", "fusion_lat": 0.0, "fusion_lon": 0.0, "rental_uris": {"android": "https://dc.lft.to/lastmile_qr_scan", "ios": "https://dc.lft.to/lastmile_qr_scan"}, "is_reserved": 0, "is_disabled": 0, "type": "electric_scooter", "bike_id": "0e18b0a405c2429b25a26ed8069e57b4"}, {"lon": -77.00977516666667, "lat": 38.953478833333335, "name": "b7b3e29a197277c3192e1b9eee10607b", "fusion_lat": 0.0, "fusion_lon": 0.0, "rental_uris": {"android": "https://dc.lft.to/lastmile_qr_scan", "ios": "https://dc.lft.to/lastmile_qr_scan"}, "is_reserved": 0, "is_disabled": 0, "type": "electric_bike", "bike_id": "b7b3e29a197277c3192e1b9eee10607b"}, {"lon": -77.01776466666666, "lat": 38.900643, "name": "3e38c7a6fa5d598c20419b30c4a42437", "fusion_lat": 0.0, "fusion_lon": 0.0, "rental_uris": {"android": "https://dc.lft.to/lastmile_qr_scan", "ios": "https://dc.lft.to/lastmile_qr_scan"}, "is_reserved": 0, "is_disabled": 0, "type": "electric_scooter", "bike_id": "3e38c7a6fa5d598c20419b30c4a42437"}, {"lon": -77.02692766666667, "lat": 38.918166166666666, "name": "c807600be21048806085a80e3607eaa8", "fusion_lat": 0.0, "fusion_lon": 0.0, "rental_uris": {"android": "https://dc.lft.to/lastmile_qr_scan", "ios": "https://dc.lft.to/lastmile_qr_scan"}, "is_reserved": 0, "is_disabled": 0, "type": "electric_scooter", "bike_id": "c807600be21048806085a80e3607eaa8"}, {"lon": -77.025964, "lat": 38.9041785, "name": "6a970ab7da05e3f465b352b6e132c6d7", "fusion_lat": 0.0, "fusion_lon": 0.0, "rental_uris": {"android": "https://dc.lft.to/lastmile_qr_scan", "ios": "https://dc.lft.to/lastmile_qr_scan"}, "is_reserved": 0, "is_disabled": 0, "type": "electric_scooter", "bike_id": "6a970ab7da05e3f465b352b6e132c6d7"}, {"lon": -77.002822, "lat": 38.914778, "name": "6e52328349c093b70bed181ba908f870", "fusion_lat": 0.0, "fusion_lon": 0.0, "rental_uris": {"android": "https://dc.lft.to/lastmile_qr_scan", "ios": "https://dc.lft.to/lastmile_qr_scan"}, "is_reserved": 0, "is_disabled": 0, "type": "electric_scooter", "bike_id": "6e52328349c093b70bed181ba908f870"}, {"lon": -77.048543, "lat": 38.91960783333333, "name": "80077072530eebb34612c8f81e2848e2", "fusion_lat": 0.0, "fusion_lon": 0.0, "rental_uris": {"android": "https://dc.lft.to/lastmile_qr_scan", "ios": "https://dc.lft.to/lastmile_qr_scan"}, "is_reserved": 0, "is_disabled": 0, "type": "electric_scooter", "bike_id": "80077072530eebb34612c8f81e2848e2"}, {"lon": -77.02773883333333, "lat": 38.894787666666666, "name": "430e325bf6350382ac26c1e4b0da5488", "fusion_lat": 0.0, "fusion_lon": 0.0, "rental_uris": {"android": "https://dc.lft.to/lastmile_qr_scan", "ios": "https://dc.lft.to/lastmile_qr_scan"}, "is_reserved": 0, "is_disabled": 0, "type": "electric_scooter", "bike_id": "430e325bf6350382ac26c1e4b0da5488"}, {"lon": -77.02542716666666, "lat": 38.892176666666664, "name": "77b0687c64a4040ac72351da788e3832", "fusion_lat": 0.0, "fusion_lon": 0.0, "rental_uris": {"android": "https://dc.lft.to/lastmile_qr_scan", "ios": "https://dc.lft.to/lastmile_qr_scan"}, "is_reserved": 0, "is_disabled": 0, "type": "electric_scooter", "bike_id": "77b0687c64a4040ac72351da788e3832"}, {"lon": -77.032089, "lat": 38.908929666666666, "name": "b9a4beb04af62d0fcebf46f12d20f13a", "fusion_lat": 0.0, "fusion_lon": 0.0, "rental_uris": {"android": "https://dc.lft.to/lastmile_qr_scan", "ios": "https://dc.lft.to/lastmile_qr_scan"}, "is_reserved": 0, "is_disabled": 0, "type": "electric_scooter", "bike_id": "b9a4beb04af62d0fcebf46f12d20f13a"}, {"lon": -76.995299, "lat": 38.900019666666665, "name": "9335e13d2b3af1684b9a20fdfb5c4d76", "fusion_lat": 0.0, "fusion_lon": 0.0, "rental_uris": {"android": "https://dc.lft.to/lastmile_qr_scan", "ios": "https://dc.lft.to/lastmile_qr_scan"}, "is_reserved": 0, "is_disabled": 0, "type": "electric_scooter", "bike_id": "9335e13d2b3af1684b9a20fdfb5c4d76"}, {"lon": -77.02541383333333, "lat": 38.920698333333334, "name": "1cb3400cf43460292cd4b1e484d07c33", "fusion_lat": 0.0, "fusion_lon": 0.0, "rental_uris": {"android": "https://dc.lft.to/lastmile_qr_scan", "ios": "https://dc.lft.to/lastmile_qr_scan"}, "is_reserved": 0, "is_disabled": 0, "type": "electric_scooter", "bike_id": "1cb3400cf43460292cd4b1e484d07c33"}, {"lon": -77.04332816666667, "lat": 38.903279, "name": "65576ff0368d7d86b2a347f6a0178b64", "fusion_lat": 0.0, "fusion_lon": 0.0, "rental_uris": {"android": "https://dc.lft.to/lastmile_qr_scan", "ios": "https://dc.lft.to/lastmile_qr_scan"}, "is_reserved": 0, "is_disabled": 0, "type": "electric_scooter", "bike_id": "65576ff0368d7d86b2a347f6a0178b64"}, {"lon": -76.99180983333333, "lat": 38.90506033333333, "name": "6e8cb3824f12757d694c0c34f887a054", "fusion_lat": 0.0, "fusion_lon": 0.0, "rental_uris": {"android": "https://dc.lft.to/lastmile_qr_scan", "ios": "https://dc.lft.to/lastmile_qr_scan"}, "is_reserved": 0, "is_disabled": 0, "type": "electric_scooter", "bike_id": "6e8cb3824f12757d694c0c34f887a054"}, {"lon": -76.9902075, "lat": 38.85866166666667, "name": "cfa4a1ba5fb0319802b0ff81c08c8fac", "fusion_lat": 0.0, "fusion_lon": 0.0, "rental_uris": {"android": "https://dc.lft.to/lastmile_qr_scan", "ios": "https://dc.lft.to/lastmile_qr_scan"}, "is_reserved": 0, "is_disabled": 0, "type": "electric_scooter", "bike_id": "cfa4a1ba5fb0319802b0ff81c08c8fac"}, {"lon": -77.0376605, "lat": 38.9035705, "name": "3578ba88d737b75b792038432c15c43d", "fusion_lat": 0.0, "fusion_lon": 0.0, "rental_uris": {"android": "https://dc.lft.to/lastmile_qr_scan", "ios": "https://dc.lft.to/lastmile_qr_scan"}, "is_reserved": 0, "is_disabled": 0, "type": "electric_scooter", "bike_id": "3578ba88d737b75b792038432c15c43d"}, {"lon": -77.03726116666667, "lat": 38.91711016666667, "name": "50b442b8dbf2bbd49df03c76651520ad", "fusion_lat": 0.0, "fusion_lon": 0.0, "rental_uris": {"android": "https://dc.lft.to/lastmile_qr_scan", "ios": "https://dc.lft.to/lastmile_qr_scan"}, "is_reserved": 0, "is_disabled": 0, "type": "electric_scooter", "bike_id": "50b442b8dbf2bbd49df03c76651520ad"}, {"lon": -77.02148866666667, "lat": 38.892211, "name": "7057a2b8866e78e553ff8671675ef738", "fusion_lat": 0.0, "fusion_lon": 0.0, "rental_uris": {"android": "https://dc.lft.to/lastmile_qr_scan", "ios": "https://dc.lft.to/lastmile_qr_scan"}, "is_reserved": 0, "is_disabled": 0, "type": "electric_scooter", "bike_id": "7057a2b8866e78e553ff8671675ef738"}, {"lon": -77.02494083333333, "lat": 38.97406733333333, "name": "4689a7c70f53d7282c2cba9462308631", "fusion_lat": 0.0, "fusion_lon": 0.0, "rental_uris": {"android": "https://dc.lft.to/lastmile_qr_scan", "ios": "https://dc.lft.to/lastmile_qr_scan"}, "is_reserved": 0, "is_disabled": 0, "type": "electric_bike", "bike_id": "4689a7c70f53d7282c2cba9462308631"}, {"lon": -77.04329083333333, "lat": 38.9073815, "name": "a034e4cd7308f455d7ce0b9509f0dc13", "fusion_lat": 0.0, "fusion_lon": 0.0, "rental_uris": {"android": "https://dc.lft.to/lastmile_qr_scan", "ios": "https://dc.lft.to/lastmile_qr_scan"}, "is_reserved": 0, "is_disabled": 0, "type": "electric_scooter", "bike_id": "a034e4cd7308f455d7ce0b9509f0dc13"}, {"lon": -77.0231855, "lat": 38.918436, "name": "cfef97c858df073f73b8aed017a1e247", "fusion_lat": 0.0, "fusion_lon": 0.0, "rental_uris": {"android": "https://dc.lft.to/lastmile_qr_scan", "ios": "https://dc.lft.to/lastmile_qr_scan"}, "is_reserved": 0, "is_disabled": 0, "type": "electric_scooter", "bike_id": "cfef97c858df073f73b8aed017a1e247"}, {"lon": -77.047177, "lat": 38.8996785, "name": "e99a836361bebaa794a36bbb8740efcb", "fusion_lat": 0.0, "fusion_lon": 0.0, "rental_uris": {"android": "https://dc.lft.to/lastmile_qr_scan", "ios": "https://dc.lft.to/lastmile_qr_scan"}, "is_reserved": 0, "is_disabled": 0, "type": "electric_scooter", "bike_id": "e99a836361bebaa794a36bbb8740efcb"}, {"lon": -77.03424916666667, "lat": 38.919319, "name": "cd05e551724906b3a2edc4c47cd23918", "fusion_lat": 0.0, "fusion_lon": 0.0, "rental_uris": {"android": "https://dc.lft.to/lastmile_qr_scan", "ios": "https://dc.lft.to/lastmile_qr_scan"}, "is_reserved": 0, "is_disabled": 0, "type": "electric_scooter", "bike_id": "cd05e551724906b3a2edc4c47cd23918"}, {"lon": -77.03143283333333, "lat": 38.9279965, "name": "e767ebcef819428c77b824a118015cdf", "fusion_lat": 0.0, "fusion_lon": 0.0, "rental_uris": {"android": "https://dc.lft.to/lastmile_qr_scan", "ios": "https://dc.lft.to/lastmile_qr_scan"}, "is_reserved": 0, "is_disabled": 0, "type": "electric_scooter", "bike_id": "e767ebcef819428c77b824a118015cdf"}, {"lon": -77.0112355, "lat": 38.89511266666667, "name": "bbc8a098d08c84c4252426c803304271", "fusion_lat": 0.0, "fusion_lon": 0.0, "rental_uris": {"android": "https://dc.lft.to/lastmile_qr_scan", "ios": "https://dc.lft.to/lastmile_qr_scan"}, "is_reserved": 0, "is_disabled": 0, "type": "electric_scooter", "bike_id": "bbc8a098d08c84c4252426c803304271"}, {"lon": -76.98130583333334, "lat": 38.904931, "name": "265993d50c98b654fedbbdb4ea0b2aa9", "fusion_lat": 0.0, "fusion_lon": 0.0, "rental_uris": {"android": "https://dc.lft.to/lastmile_qr_scan", "ios": "https://dc.lft.to/lastmile_qr_scan"}, "is_reserved": 0, "is_disabled": 0, "type": "electric_scooter", "bike_id": "265993d50c98b654fedbbdb4ea0b2aa9"}, {"lon": -77.02967516666666, "lat": 38.9046625, "name": "5e33f1ac14eb2adf32b222cfdcb0e092", "fusion_lat": 0.0, "fusion_lon": 0.0, "rental_uris": {"android": "https://dc.lft.to/lastmile_qr_scan", "ios": "https://dc.lft.to/lastmile_qr_scan"}, "is_reserved": 0, "is_disabled": 0, "type": "electric_scooter", "bike_id": "5e33f1ac14eb2adf32b222cfdcb0e092"}, {"lon": -77.04646766666667, "lat": 38.852116333333335, "name": "fa8fd25da833e8962d4cd2a812f89d90", "fusion_lat": 0.0, "fusion_lon": 0.0, "rental_uris": {"android": "https://dc.lft.to/lastmile_qr_scan", "ios": "https://dc.lft.to/lastmile_qr_scan"}, "is_reserved": 0, "is_disabled": 0, "type": "electric_bike", "bike_id": "fa8fd25da833e8962d4cd2a812f89d90"}, {"lon": -76.94737983333333, "lat": 38.896923666666666, "name": "e7f6c6bb3320dbfe55b0368e87318088", "fusion_lat": 0.0, "fusion_lon": 0.0, "rental_uris": {"android": "https://dc.lft.to/lastmile_qr_scan", "ios": "https://dc.lft.to/lastmile_qr_scan"}, "is_reserved": 0, "is_disabled": 0, "type": "electric_scooter", "bike_id": "e7f6c6bb3320dbfe55b0368e87318088"}, {"lon": -77.03165766666666, "lat": 38.944564166666666, "name": "57ded31d16236ef3019e58857cdd7c7e", "fusion_lat": 0.0, "fusion_lon": 0.0, "rental_uris": {"android": "https://dc.lft.to/lastmile_qr_scan", "ios": "https://dc.lft.to/lastmile_qr_scan"}, "is_reserved": 0, "is_disabled": 0, "type": "electric_bike", "bike_id": "57ded31d16236ef3019e58857cdd7c7e"}, {"lon": -77.03320666666667, "lat": 38.90031, "name": "28ab475cedcc964eb0f03486fb2eb7d8", "fusion_lat": 0.0, "fusion_lon": 0.0, "rental_uris": {"android": "https://dc.lft.to/lastmile_qr_scan", "ios": "https://dc.lft.to/lastmile_qr_scan"}, "is_reserved": 0, "is_disabled": 0, "type": "electric_scooter", "bike_id": "28ab475cedcc964eb0f03486fb2eb7d8"}, {"lon": -76.99948416666666, "lat": 38.842927833333334, "name": "b589a2ebfb032a2fdd0e6e84eba957fd", "fusion_lat": 0.0, "fusion_lon": 0.0, "rental_uris": {"android": "https://dc.lft.to/lastmile_qr_scan", "ios": "https://dc.lft.to/lastmile_qr_scan"}, "is_reserved": 0, "is_disabled": 0, "type": "electric_scooter", "bike_id": "b589a2ebfb032a2fdd0e6e84eba957fd"}, {"lon": -77.04666533333334, "lat": 38.907404, "name": "16059e1f9ffb14d622986c213aec578e", "fusion_lat": 0.0, "fusion_lon": 0.0, "rental_uris": {"android": "https://dc.lft.to/lastmile_qr_scan", "ios": "https://dc.lft.to/lastmile_qr_scan"}, "is_reserved": 0, "is_disabled": 0, "type": "electric_scooter", "bike_id": "16059e1f9ffb14d622986c213aec578e"}, {"lon": -77.00200033333333, "lat": 38.902394666666666, "name": "c198947954e142e55f9b713dc261ece8", "fusion_lat": 0.0, "fusion_lon": 0.0, "rental_uris": {"android": "https://dc.lft.to/lastmile_qr_scan", "ios": "https://dc.lft.to/lastmile_qr_scan"}, "is_reserved": 0, "is_disabled": 0, "type": "electric_scooter", "bike_id": "c198947954e142e55f9b713dc261ece8"}, {"lon": -77.125039, "lat": 39.0242115, "name": "fcf9adc79f82872707d6d85be4c210d9", "fusion_lat": 0.0, "fusion_lon": 0.0, "rental_uris": {"android": "https://dc.lft.to/lastmile_qr_scan", "ios": "https://dc.lft.to/lastmile_qr_scan"}, "is_reserved": 0, "is_disabled": 0, "type": "electric_bike", "bike_id": "fcf9adc79f82872707d6d85be4c210d9"}, {"lon": -76.9995295, "lat": 38.90864033333333, "name": "3c0b94c37ac78d729528ca5fddbce8c5", "fusion_lat": 0.0, "fusion_lon": 0.0, "rental_uris": {"android": "https://dc.lft.to/lastmile_qr_scan", "ios": "https://dc.lft.to/lastmile_qr_scan"}, "is_reserved": 0, "is_disabled": 0, "type": "electric_scooter", "bike_id": "3c0b94c37ac78d729528ca5fddbce8c5"}, {"lon": -77.01314, "lat": 38.89741516666667, "name": "ecc5f8213861bec8ccf0a3d4c78ab70e", "fusion_lat": 0.0, "fusion_lon": 0.0, "rental_uris": {"android": "https://dc.lft.to/lastmile_qr_scan", "ios": "https://dc.lft.to/lastmile_qr_scan"}, "is_reserved": 0, "is_disabled": 0, "type": "electric_scooter", "bike_id": "ecc5f8213861bec8ccf0a3d4c78ab70e"}, {"lon": -76.96535333333334, "lat": 38.918533, "name": "b297eb6bd0923da5f5c91c5ad3082649", "fusion_lat": 0.0, "fusion_lon": 0.0, "rental_uris": {"android": "https://dc.lft.to/lastmile_qr_scan", "ios": "https://dc.lft.to/lastmile_qr_scan"}, "is_reserved": 0, "is_disabled": 0, "type": "electric_scooter", "bike_id": "b297eb6bd0923da5f5c91c5ad3082649"}, {"lon": -77.0717775, "lat": 38.95840583333333, "name": "bead35b92fb1ceb4d204c4fbab251481", "fusion_lat": 0.0, "fusion_lon": 0.0, "rental_uris": {"android": "https://dc.lft.to/lastmile_qr_scan", "ios": "https://dc.lft.to/lastmile_qr_scan"}, "is_reserved": 0, "is_disabled": 0, "type": "electric_scooter", "bike_id": "bead35b92fb1ceb4d204c4fbab251481"}, {"lon": -77.01641133333334, "lat": 38.8999735, "name": "9a9e640854161260f7ba3e7ccad68892", "fusion_lat": 0.0, "fusion_lon": 0.0, "rental_uris": {"android": "https://dc.lft.to/lastmile_qr_scan", "ios": "https://dc.lft.to/lastmile_qr_scan"}, "is_reserved": 0, "is_disabled": 0, "type": "electric_scooter", "bike_id": "9a9e640854161260f7ba3e7ccad68892"}, {"lon": -77.03764933333333, "lat": 38.91124033333333, "name": "b8a377dead1769604d9cad0bc674622e", "fusion_lat": 0.0, "fusion_lon": 0.0, "rental_uris": {"android": "https://dc.lft.to/lastmile_qr_scan", "ios": "https://dc.lft.to/lastmile_qr_scan"}, "is_reserved": 0, "is_disabled": 0, "type": "electric_scooter", "bike_id": "b8a377dead1769604d9cad0bc674622e"}, {"lon": -77.043344, "lat": 38.898295833333336, "name": "c66ac106baa1c9f325bfe3de47b0c503", "fusion_lat": 0.0, "fusion_lon": 0.0, "rental_uris": {"android": "https://dc.lft.to/lastmile_qr_scan", "ios": "https://dc.lft.to/lastmile_qr_scan"}, "is_reserved": 0, "is_disabled": 0, "type": "electric_scooter", "bike_id": "c66ac106baa1c9f325bfe3de47b0c503"}, {"lon": -76.991306, "lat": 38.900377666666664, "name": "4abd7826eee5aae792c1a986406b398e", "fusion_lat": 0.0, "fusion_lon": 0.0, "rental_uris": {"android": "https://dc.lft.to/lastmile_qr_scan", "ios": "https://dc.lft.to/lastmile_qr_scan"}, "is_reserved": 0, "is_disabled": 0, "type": "electric_scooter", "bike_id": "4abd7826eee5aae792c1a986406b398e"}, {"lon": -77.01020766666667, "lat": 38.921232833333335, "name": "62ac5e83ecc0b20b75773013ef7a0eb7", "fusion_lat": 0.0, "fusion_lon": 0.0, "rental_uris": {"android": "https://dc.lft.to/lastmile_qr_scan", "ios": "https://dc.lft.to/lastmile_qr_scan"}, "is_reserved": 0, "is_disabled": 0, "type": "electric_scooter", "bike_id": "62ac5e83ecc0b20b75773013ef7a0eb7"}, {"lon": -77.10683316666666, "lat": 38.935814, "name": "e69b650b7311b9d0e7bd5507437c3137", "fusion_lat": 0.0, "fusion_lon": 0.0, "rental_uris": {"android": "https://dc.lft.to/lastmile_qr_scan", "ios": "https://dc.lft.to/lastmile_qr_scan"}, "is_reserved": 0, "is_disabled": 0, "type": "electric_bike", "bike_id": "e69b650b7311b9d0e7bd5507437c3137"}, {"lon": -77.03556866666666, "lat": 38.92477133333333, "name": "db2ac75e9ac44b2a7e16f1b2cb0e3a2e", "fusion_lat": 0.0, "fusion_lon": 0.0, "rental_uris": {"android": "https://dc.lft.to/lastmile_qr_scan", "ios": "https://dc.lft.to/lastmile_qr_scan"}, "is_reserved": 0, "is_disabled": 0, "type": "electric_scooter", "bike_id": "db2ac75e9ac44b2a7e16f1b2cb0e3a2e"}, {"lon": -76.99741433333334, "lat": 38.900424666666666, "name": "6afa765d2fb8a95ad7bcf348df695303", "fusion_lat": 0.0, "fusion_lon": 0.0, "rental_uris": {"android": "https://dc.lft.to/lastmile_qr_scan", "ios": "https://dc.lft.to/lastmile_qr_scan"}, "is_reserved": 0, "is_disabled": 0, "type": "electric_scooter", "bike_id": "6afa765d2fb8a95ad7bcf348df695303"}, {"lon": -77.045149, "lat": 38.90233683333334, "name": "2deeb2d0b839857eeb16672a656d09a0", "fusion_lat": 0.0, "fusion_lon": 0.0, "rental_uris": {"android": "https://dc.lft.to/lastmile_qr_scan", "ios": "https://dc.lft.to/lastmile_qr_scan"}, "is_reserved": 0, "is_disabled": 0, "type": "electric_scooter", "bike_id": "2deeb2d0b839857eeb16672a656d09a0"}, {"lon": -77.03877783333333, "lat": 38.91401366666667, "name": "4cbc65b546e43481c3eb76800c09bf64", "fusion_lat": 0.0, "fusion_lon": 0.0, "rental_uris": {"android": "https://dc.lft.to/lastmile_qr_scan", "ios": "https://dc.lft.to/lastmile_qr_scan"}, "is_reserved": 0, "is_disabled": 0, "type": "electric_scooter", "bike_id": "4cbc65b546e43481c3eb76800c09bf64"}, {"lon": -77.02401883333333, "lat": 38.904258666666664, "name": "8b027551ce0482a1259e8bc468b525d9", "fusion_lat": 0.0, "fusion_lon": 0.0, "rental_uris": {"android": "https://dc.lft.to/lastmile_qr_scan", "ios": "https://dc.lft.to/lastmile_qr_scan"}, "is_reserved": 0, "is_disabled": 0, "type": "electric_scooter", "bike_id": "8b027551ce0482a1259e8bc468b525d9"}, {"lon": -77.03221016666667, "lat": 38.930426, "name": "9159467935fc79a8c91f1f2ec14a7c90", "fusion_lat": 0.0, "fusion_lon": 0.0, "rental_uris": {"android": "https://dc.lft.to/lastmile_qr_scan", "ios": "https://dc.lft.to/lastmile_qr_scan"}, "is_reserved": 0, "is_disabled": 0, "type": "electric_scooter", "bike_id": "9159467935fc79a8c91f1f2ec14a7c90"},