{"data": {"bikes": [{"lon": -77.049385, "bike_id": "4f3900939c997d5496777ba98477e3f5", "lat": 38.90210866666666, "fusion_lon": 0.0, "fusion_lat": 0.0, "type": "electric_scooter", "name": "4f3900939c997d5496777ba98477e3f5", "is_disabled": 0, "rental_uris": {"ios": "https://dc.lft.to/lastmile_qr_scan", "android": "https://dc.lft.to/lastmile_qr_scan"}, "is_reserved": 0}, {"lon": -77.02284966666667, "bike_id": "714c6dcca206ebaec6282368aecaf282", "lat": 38.9078085, "fusion_lon": 0.0, "fusion_lat": 0.0, "type": "electric_scooter", "name": "714c6dcca206ebaec6282368aecaf282", "is_disabled": 0, "rental_uris": {"ios": "https://dc.lft.to/lastmile_qr_scan", "android": "https://dc.lft.to/lastmile_qr_scan"}, "is_reserved": 0}, {"lon": -77.02974766666667, "bike_id": "aeb36e29c440c9caa77c09c1864d451b", "lat": 38.9146015, "fusion_lon": 0.0, "fusion_lat": 0.0, "type": "electric_scooter", "name": "aeb36e29c440c9caa77c09c1864d451b", "is_disabled": 0, "rental_uris": {"ios": "https://dc.lft.to/lastmile_qr_scan", "android": "https://dc.lft.to/lastmile_qr_scan"}, "is_reserved": 0}, {"lon": -76.98196333333334, "bike_id": "1717295d9f8ce84fe6793276e8100e40", "lat": 38.967426, "fusion_lon": 0.0, "fusion_lat": 0.0, "type": "electric_bike", "name": "1717295d9f8ce84fe6793276e8100e40", "is_disabled": 0, "rental_uris": {"ios": "https://dc.lft.to/lastmile_qr_scan", "android": "https://dc.lft.to/lastmile_qr_scan"}, "is_reserved": 0}, {"lon": -77.028802, "bike_id": "00bba59f5217b046407f4ca66bf93941", "lat": 38.916927333333334, "fusion_lon": 0.0, "fusion_lat": 0.0, "type": "electric_scooter", "name": "00bba59f5217b046407f4ca66bf93941", "is_disabled": 0, "rental_uris": {"ios": "https://dc.lft.to/lastmile_qr_scan", "android": "https://dc.lft.to/lastmile_qr_scan"}, "is_reserved": 0}, {"lon": -77.02458083333333, "bike_id": "9a612bb4510a4028a5986403b9e2481d", "lat": 38.918781333333335, "fusion_lon": 0.0, "fusion_lat": 0.0, "type": "electric_scooter", "name": "9a612bb4510a4028a5986403b9e2481d", "is_disabled": 0, "rental_uris": {"ios": "https://dc.lft.to/lastmile_qr_scan", "android": "https://dc.lft.to/lastmile_qr_scan"}, "is_reserved": 0}, {"lon": -77.037566, "bike_id": "e5e9943ae399f9230083c610b365c0e2", "lat": 38.907753666666665, "fusion_lon": 0.0, "fusion_lat": 0.0, "type": "electric_scooter", "name": "e5e9943ae399f9230083c610b365c0e2", "is_disabled": 0, "rental_uris": {"ios": "https://dc.lft.to/lastmile_qr_scan", "android": "https://dc.lft.to/lastmile_qr_scan"}, "is_reserved": 0}, {"lon": -77.02844333333333, "bike_id": "3c2f5bffb11ecc97736df00fa88a0ac3", "lat": 38.934209, "fusion_lon": 0.0, "fusion_lat": 0.0, "type": "electric_scooter", "name": "3c2f5bffb11ecc97736df00fa88a0ac3", "is_disabled": 0, "rental_uris": {"ios": "https://dc.lft.to/lastmile_qr_scan", "android": "https://dc.lft.to/lastmile_qr_scan"}, "is_reserved": 0}, {"lon": -76.99831466666667, "bike_id": "9b84fd159c7278168dd22873cc62ae3a", "lat": 38.894528333333334, "fusion_lon": 0.0, "fusion_lat": 0.0, "type": "electric_scooter", "name": "9b84fd159c7278168dd22873cc62ae3a", "is_disabled": 0, "rental_uris": {"ios": "https://dc.lft.to/lastmile_qr_scan", "android": "https://dc.lft.to/lastmile_qr_scan"}, "is_reserved": 0}, {"lon": -77.06649, "bike_id": "5fa51be91658b75589dbf162822085cc", "lat": 38.905966666666664, "fusion_lon": 0.0, "fusion_lat": 0.0, "type": "electric_scooter", "name": "5fa51be91658b75589dbf162822085cc", "is_disabled": 0, "rental_uris": {"ios": "https://dc.lft.to/lastmile_qr_scan", "android": "https://dc.lft.to/lastmile_qr_scan"}, "is_reserved": 0}, {"lon": -77.001981, "bike_id": "92120b002f667596d86454325f1c6f7b", "lat": 38.902393333333336, "fusion_lon": 0.0, "fusion_lat": 0.0, "type": "electric_scooter", "name": "92120b002f667596d86454325f1c6f7b", "is_disabled": 0, "rental_uris": {"ios": "https://dc.lft.to/lastmile_qr_scan", "android": "https://dc.lft.to/lastmile_qr_scan"}, "is_reserved": 0}, {"lon": -77.0301865, "bike_id": "1497bc4e4a963f74a73a7d9239b289c7", "lat": 38.934858, "fusion_lon": 0.0, "fusion_lat": 0.0, "type": "electric_bike", "name": "1497bc4e4a963f74a73a7d9239b289c7", "is_disabled": 0, "rental_uris": {"ios": "https://dc.lft.to/lastmile_qr_scan", "android": "https://dc.lft.to/lastmile_qr_scan"}, "is_reserved": 0}, {"lon": -77.03499616666667, "bike_id": "ee78bbded274c43a8164d154a0effcc1", "lat": 38.93274383333333, "fusion_lon": 0.0, "fusion_lat": 0.0, "type": "electric_scooter", "name": "ee78bbded274c43a8164d154a0effcc1", "is_disabled": 0, "rental_uris": {"ios": "https://dc.lft.to/lastmile_qr_scan", "android": "https://dc.lft.to/lastmile_qr_scan"}, "is_reserved": 0}, {"lon": -77.013454, "bike_id": "7553151e3e149e375d8aca948e5c0b8e", "lat": 38.8781585, "fusion_lon": 0.0, "fusion_lat": 0.0, "type": "electric_scooter", "name": "7553151e3e149e375d8aca948e5c0b8e", "is_disabled": 0, "rental_uris": {"ios": "https://dc.lft.to/lastmile_qr_scan", "android": "https://dc.lft.to/lastmile_qr_scan"}, "is_reserved": 0}, {"lon": -77.020985, "bike_id": "951a370894dbe62b83b0074ef9c30b34", "lat": 38.88182533333333, "fusion_lon": 0.0, "fusion_lat": 0.0, "type": "electric_scooter", "name": "951a370894dbe62b83b0074ef9c30b34", "is_disabled": 0, "rental_uris": {"ios": "https://dc.lft.to/lastmile_qr_scan", "android": "https://dc.lft.to/lastmile_qr_scan"}, "is_reserved": 0}, {"lon": -76.989051, "bike_id": "55380156b0a1edeeab28ad8285a4dea7", "lat": 38.86666433333333, "fusion_lon": 0.0, "fusion_lat": 0.0, "type": "electric_scooter", "name": "55380156b0a1edeeab28ad8285a4dea7", "is_disabled": 0, "rental_uris": {"ios": "https://dc.lft.to/lastmile_qr_scan", "android": "https://dc.lft.to/lastmile_qr_scan"}, "is_reserved": 0}, {"lon": -76.98086583333334, "bike_id": "74b557540a9b0b5db1b870082999343f", "lat": 38.90707666666667, "fusion_lon": 0.0, "fusion_lat": 0.0, "type": "electric_scooter", "name": "74b557540a9b0b5db1b870082999343f", "is_disabled": 0, "rental_uris": {"ios": "https://dc.lft.to/lastmile_qr_scan", "android": "https://dc.lft.to/lastmile_qr_scan"}, "is_reserved": 0}, {"lon": -77.04339933333333, "bike_id": "72aa0a12e51e12157bbfd3cba7e64de6", "lat": 38.9110615, "fusion_lon": 0.0, "fusion_lat": 0.0, "type": "electric_scooter", "name": "72aa0a12e51e12157bbfd3cba7e64de6", "is_disabled": 0, "rental_uris": {"ios": "https://dc.lft.to/lastmile_qr_scan", "android": "https://dc.lft.to/lastmile_qr_scan"}, "is_reserved": 0}, {"lon": -77.00523683333333, "bike_id": "bd8cafbeaee0608af3b07e12e98c4d6e", "lat": 38.8754315, "fusion_lon": 0.0, "fusion_lat": 0.0, "type": "electric_scooter", "name": "bd8cafbeaee0608af3b07e12e98c4d6e", "is_disabled": 0, "rental_uris": {"ios": "https://dc.lft.to/lastmile_qr_scan", "android": "https://dc.lft.to/lastmile_qr_scan"}, "is_reserved": 0}, {"lon": -77.0269745, "bike_id": "27193611ab67e4398dd5959a82ad2f07", "lat": 38.90629116666667, "fusion_lon": 0.0, "fusion_lat": 0.0, "type": "electric_scooter", "name": "27193611ab67e4398dd5959a82ad2f07", "is_disabled": 0, "rental_uris": {"ios": "https://dc.lft.to/lastmile_qr_scan", "android": "https://dc.lft.to/lastmile_qr_scan"}, "is_reserved": 0}, {"lon": -76.9900425, "bike_id": "864275a962e70ae8e31c1b35d8049993", "lat": 38.86504766666667, "fusion_lon": 0.0, "fusion_lat": 0.0, "type": "electric_scooter", "name": "864275a962e70ae8e31c1b35d8049993", "is_disabled": 0, "rental_uris": {"ios": "https://dc.lft.to/lastmile_qr_scan", "android": "https://dc.lft.to/lastmile_qr_scan"}, "is_reserved": 0}, {"lon": -77.027724, "bike_id": "ba746cdffd8f64fc11ef51665d886f36", "lat": 38.89370233333333, "fusion_lon": 0.0, "fusion_lat": 0.0, "type": "electric_scooter", "name": "ba746cdffd8f64fc11ef51665d886f36", "is_disabled": 0, "rental_uris": {"ios": "https://dc.lft.to/lastmile_qr_scan", "android": "https://dc.lft.to/lastmile_qr_scan"}, "is_reserved": 0}, {"lon": -77.03574416666666, "bike_id": "56d7c320fba9991c76ab15d7db0a879f", "lat": 38.917770833333336, "fusion_lon": 0.0, "fusion_lat": 0.0, "type": "electric_scooter", "name": "56d7c320fba9991c76ab15d7db0a879f", "is_disabled": 0, "rental_uris": {"ios": "https://dc.lft.to/lastmile_qr_scan", "android": "https://dc.lft.to/lastmile_qr_scan"}, "is_reserved": 0}, {"lon": -77.02562166666667, "bike_id": "0ac8253897102523d0ba6aae79c22614", "lat": 38.930837833333335, "fusion_lon": 0.0, "fusion_lat": 0.0, "type": "electric_scooter", "name": "0ac8253897102523d0ba6aae79c22614", "is_disabled": 0, "rental_uris": {"ios": "https://dc.lft.to/lastmile_qr_scan", "android": "https://dc.lft.to/lastmile_qr_scan"}, "is_reserved": 0}, {"lon": -77.02767233333333, "bike_id": "7c86e6c2cf8b579cd933409b31b2aa4b", "lat": 38.93011883333333, "fusion_lon": 0.0, "fusion_lat": 0.0, "type": "electric_scooter", "name": "7c86e6c2cf8b579cd933409b31b2aa4b", "is_disabled": 0, "rental_uris": {"ios": "https://dc.lft.to/lastmile_qr_scan", "android": "https://dc.lft.to/lastmile_qr_scan"}, "is_reserved": 0}, {"lon": -77.1083885, "bike_id": "da6e3df487290383a2cb6167f958d0a5", "lat": 38.812021333333334, "fusion_lon": 0.0, "fusion_lat": 0.0, "type": "electric_bike", "name": "da6e3df487290383a2cb6167f958d0a5", "is_disabled": 0, "rental_uris": {"ios": "https://dc.lft.to/lastmile_qr_scan", "android": "https://dc.lft.to/lastmile_qr_scan"}, "is_reserved": 0}, {"lon": -77.0237175, "bike_id": "facf545366e95294f171a58c636bfeea", "lat": 38.90199533333333, "fusion_lon": 0.0, "fusion_lat": 0.0, "type": "electric_scooter", "name": "facf545366e95294f171a58c636bfeea", "is_disabled": 0, "rental_uris": {"ios": "https://dc.lft.to/lastmile_qr_scan", "android": "https://dc.lft.to/lastmile_qr_scan"}, "is_reserved": 0}, {"lon": -77.03968216666667, "bike_id": "b3c792065131576b9f6286354388cda0", "lat": 38.898981666666664, "fusion_lon": 0.0, "fusion_lat": 0.0, "type": "electric_scooter", "name": "b3c792065131576b9f6286354388cda0", "is_disabled": 0, "rental_uris": {"ios": "https://dc.lft.to/lastmile_qr_scan", "android": "https://dc.lft.to/lastmile_qr_scan"}, "is_reserved": 0}, {"lon": -77.02717416666667, "bike_id": "1ac137172d42edf1cc165e40d6cd15be", "lat": 38.9095045, "fusion_lon": 0.0, "fusion_lat": 0.0, "type": "electric_scooter", "name": "1ac137172d42edf1cc165e40d6cd15be", "is_disabled": 0, "rental_uris": {"ios": "https://dc.lft.to/lastmile_qr_scan", "android": "https://dc.lft.to/lastmile_qr_scan"}, "is_reserved": 0}, {"lon": -77.043378, "bike_id": "337f0e80dd53fbad14fea61868dcb6a8", "lat": 38.8922245, "fusion_lon": 0.0, "fusion_lat": 0.0, "type": "electric_scooter", "name": "337f0e80dd53fbad14fea61868dcb6a8", "is_disabled": 0, "rental_uris": {"ios": "https://dc.lft.to/lastmile_qr_scan", "android": "https://dc.lft.to/lastmile_qr_scan"}, "is_reserved": 0}, {"lon": -77.04351516666667, "bike_id": "68149c35e604a7adc413b30986fcab6c", "lat": 38.921490166666665, "fusion_lon": 0.0, "fusion_lat": 0.0, "type": "electric_scooter", "name": "68149c35e604a7adc413b30986fcab6c", "is_disabled": 0, "rental_uris": {"ios": "https://dc.lft.to/lastmile_qr_scan", "android": "https://dc.lft.to/lastmile_qr_scan"}, "is_reserved": 0}, {"lon": -77.021854, "bike_id": "9b90fbdc4b509003468efd106599f5a6", "lat": 38.914805666666666, "fusion_lon": 0.0, "fusion_lat": 0.0, "type": "electric_scooter", "name": "9b90fbdc4b509003468efd106599f5a6", "is_disabled": 0, "rental_uris": {"ios": "https://dc.lft.to/lastmile_qr_scan", "android": "https://dc.lft.to/lastmile_qr_scan"}, "is_reserved": 0}, {"lon": -77.02446916666666, "bike_id": "5e63425b50e6d60dc6af933e6588760c", "lat": 38.914122666666664, "fusion_lon": 0.0, "fusion_lat": 0.0, "type": "electric_scooter", "name": "5e63425b50e6d60dc6af933e6588760c", "is_disabled": 0, "rental_uris": {"ios": "https://dc.lft.to/lastmile_qr_scan", "android": "https://dc.lft.to/lastmile_qr_scan"}, "is_reserved": 0}, {"lon": -77.00831633333334, "bike_id": "078259a6886f98174650b877fb045feb", "lat": 38.879023333333336, "fusion_lon": 0.0, "fusion_lat": 0.0, "type": "electric_scooter", "name": "078259a6886f98174650b877fb045feb", "is_disabled": 0, "rental_uris": {"ios": "https://dc.lft.to/lastmile_qr_scan", "android": "https://dc.lft.to/lastmile_qr_scan"}, "is_reserved": 0}, {"lon": -77.02118333333334, "bike_id": "5530e85f03c9eef65a4f2d3f3a672991", "lat": 38.93698833333333, "fusion_lon": 0.0, "fusion_lat": 0.0, "type": "electric_scooter", "name": "5530e85f03c9eef65a4f2d3f3a672991", "is_disabled": 0, "rental_uris": {"ios": "https://dc.lft.to/lastmile_qr_scan", "android": "https://dc.lft.to/lastmile_qr_scan"}, "is_reserved": 0}, {"lon": -76.94881533333333, "bike_id": "37f6f2533fb09a21fcca8d399807e2eb", "lat": 38.89504633333333, "fusion_lon": 0.0, "fusion_lat": 0.0, "type": "electric_scooter", "name": "37f6f2533fb09a21fcca8d399807e2eb", "is_disabled": 0, "rental_uris": {"ios": "https://dc.lft.to/lastmile_qr_scan", "android": "https://dc.lft.to/lastmile_qr_scan"}, "is_reserved": 0}, {"lon": -77.05708133333333, "bike_id": "73d508530b0a44d724a4c3a314de719b", "lat": 38.90550916666667, "fusion_lon": 0.0, "fusion_lat": 0.0, "type": "electric_scooter", "name": "73d508530b0a44d724a4c3a314de719b", "is_disabled": 0, "rental_uris": {"ios": "https://dc.lft.to/lastmile_qr_scan", "android": "https://dc.lft.to/lastmile_qr_scan"}, "is_reserved": 0}, {"lon": -77.04175666666667, "bike_id": "b9b245dec50e52ee34f6dcb129d0e1e5", "lat": 38.9179325, "fusion_lon": 0.0, "fusion_lat": 0.0, "type": "electric_scooter", "name": "b9b245dec50e52ee34f6dcb129d0e1e5", "is_disabled": 0, "rental_uris": {"ios": "https://dc.lft.to/lastmile_qr_scan", "android": "https://dc.lft.to/lastmile_qr_scan"}, "is_reserved": 0}, {"lon": -77.02423216666666, "bike_id": "60edd14d1f180f9591e212b8fc89e296", "lat": 38.918254, "fusion_lon": 0.0, "fusion_lat": 0.0, "type": "electric_scooter", "name": "60edd14d1f180f9591e212b8fc89e296", "is_disabled": 0, "rental_uris": {"ios": "https://dc.lft.to/lastmile_qr_scan", "android": "https://dc.lft.to/lastmile_qr_scan"}, "is_reserved": 0}, {"lon": -77.01757633333334, "bike_id": "21061dac28f1af279f8e879800533646", "lat": 38.876688333333334, "fusion_lon": 0.0, "fusion_lat": 0.0, "type": "electric_scooter", "name": "21061dac28f1af279f8e879800533646", "is_disabled": 0, "rental_uris": {"ios": "https://dc.lft.to/lastmile_qr_scan", "android": "https://dc.lft.to/lastmile_qr_scan"}, "is_reserved": 0}, {"lon": -77.03662116666666, "bike_id": "0c3abab0f26605f5b3e30f97c516d8da", "lat": 38.93201883333333, "fusion_lon": 0.0, "fusion_lat": 0.0, "type": "electric_scooter", "name": "0c3abab0f26605f5b3e30f97c516d8da", "is_disabled": 0, "rental_uris": {"ios": "https://dc.lft.to/lastmile_qr_scan", "android": "https://dc.lft.to/lastmile_qr_scan"}, "is_reserved": 0}, {"lon": -77.02284, "bike_id": "5027b02ea1a289989cb6d0e138dbb8aa", "lat": 38.91745916666667, "fusion_lon": 0.0, "fusion_lat": 0.0, "type": "electric_scooter", "name": "5027b02ea1a289989cb6d0e138dbb8aa", "is_disabled": 0, "rental_uris": {"ios": "https://dc.lft.to/lastmile_qr_scan", "android": "https://dc.lft.to/lastmile_qr_scan"}, "is_reserved": 0}, {"lon": -77.0449175, "bike_id": "2d024d354a15aca9c52b10ce7366daf2", "lat": 38.892410166666664, "fusion_lon": 0.0, "fusion_lat": 0.0, "type": "electric_scooter", "name": "2d024d354a15aca9c52b10ce7366daf2", "is_disabled": 0, "rental_uris": {"ios": "https://dc.lft.to/lastmile_qr_scan", "android": "https://dc.lft.to/lastmile_qr_scan"}, "is_reserved": 0}, {"lon": -76.99473766666667, "bike_id": "b28da0722aa7136045407e76d62aa037", "lat": 38.862296666666666, "fusion_lon": 0.0, "fusion_lat": 0.0, "type": "electric_scooter", "name": "b28da0722aa7136045407e76d62aa037", "is_disabled": 0, "rental_uris": {"ios": "https://dc.lft.to/lastmile_qr_scan", "android": "https://dc.lft.to/lastmile_qr_scan"}, "is_reserved": 0}, {"lon": -77.04084733333333, "bike_id": "67a088218636ef796e03d6c95a3fa6ec", "lat": 38.90866066666667, "fusion_lon": 0.0, "fusion_lat": 0.0, "type": "electric_scooter", "name": "67a088218636ef796e03d6c95a3fa6ec", "is_disabled": 0, "rental_uris": {"ios": "https://dc.lft.to/lastmile_qr_scan", "android": "https://dc.lft.to/lastmile_qr_scan"}, "is_reserved": 0}, {"lon": -77.03323183333333, "bike_id": "9605bd7e4f5bc1ee8e63f737e7742e89", "lat": 38.94717033333333, "fusion_lon": 0.0, "fusion_lat": 0.0, "type": "electric_scooter", "name": "9605bd7e4f5bc1ee8e63f737e7742e89", "is_disabled": 0, "rental_uris": {"ios": "https://dc.lft.to/lastmile_qr_scan", "android": "https://dc.lft.to/lastmile_qr_scan"}, "is_reserved": 0}, {"lon": -76.9783975, "bike_id": "88dd82e3975b8903fd11f90d12d90292", "lat": 38.899235833333336, "fusion_lon": 0.0, "fusion_lat": 0.0, "type": "electric_scooter", "name": "88dd82e3975b8903fd11f90d12d90292", "is_disabled": 0, "rental_uris": {"ios": "https://dc.lft.to/lastmile_qr_scan", "android": "https://dc.lft.to/lastmile_qr_scan"}, "is_reserved": 0}, {"lon": -76.9987875, "bike_id": "5ebe971d73af57229bafd023f7f933a8", "lat": 38.9002655, "fusion_lon": 0.0, "fusion_lat": 0.0, "type": "electric_scooter", "name": "5ebe971d73af57229bafd023f7f933a8", "is_disabled": 0, "rental_uris": {"ios": "https://dc.lft.to/lastmile_qr_scan", "android": "https://dc.lft.to/lastmile_qr_scan"}, "is_reserved": 0}, {"lon": -77.03444466666667, "bike_id": "fda5fdbf601e85fa3676f47a87aeff8d", "lat": 38.9095015, "fusion_lon": 0.0, "fusion_lat": 0.0, "type": "electric_scooter", "name": "fda5fdbf601e85fa3676f47a87aeff8d", "is_disabled": 0, "rental_uris": {"ios": "https://dc.lft.to/lastmile_qr_scan", "android": "https://dc.lft.to/lastmile_qr_scan"}, "is_reserved": 0}, {"lon": -77.036913, "bike_id": "51675fcb85ec2420f6d393b86c5c3dab", "lat": 38.93643983333333, "fusion_lon": 0.0, "fusion_lat": 0.0, "type": "electric_scooter", "name": "51675fcb85ec2420f6d393b86c5c3dab", "is_disabled": 0, "rental_uris": {"ios": "https://dc.lft.to/lastmile_qr_scan", "android": "https://dc.lft.to/lastmile_qr_scan"}, "is_reserved": 0}, {"lon": -77.04401483333334, "bike_id": "678abf5de5c57f093fced20e3d493342", "lat": 38.89730933333333, "fusion_lon": 0.0, "fusion_lat": 0.0, "type": "electric_scooter", "name": "678abf5de5c57f093fced20e3d493342", "is_disabled": 0, "rental_uris": {"ios": "https://dc.lft.to/lastmile_qr_scan", "android": "https://dc.lft.to/lastmile_qr_scan"}, "is_reserved": 0}, {"lon": -77.01903216666666, "bike_id": "96b5ca5309ed4b7b180e9136b3db5e7e", "lat": 38.9150665, "fusion_lon": 0.0, "fusion_lat": 0.0, "type": "electric_scooter", "name": "96b5ca5309ed4b7b180e9136b3db5e7e", "is_disabled": 0, "rental_uris": {"ios": "https://dc.lft.to/lastmile_qr_scan", "android": "https://dc.lft.to/lastmile_qr_scan"}, "is_reserved": 0}, {"lon": -77.03286266666667, "bike_id": "57fbc2cf74ee541532d8ea6b5f208c70", "lat": 38.92617416666667, "fusion_lon": 0.0, "fusion_lat": 0.0, "type": "electric_bike", "name": "57fbc2cf74ee541532d8ea6b5f208c70", "is_disabled": 0, "rental_uris": {"ios": "https://dc.lft.to/lastmile_qr_scan", "android": "https://dc.lft.to/lastmile_qr_scan"}, "is_reserved": 0}, {"lon": -77.03273533333333, "bike_id": "f22b6fb103ed359bb4e4d7e0dbccbc20", "lat": 38.9140305, "fusion_lon": 0.0, "fusion_lat": 0.0, "type": "electric_scooter", "name": "f22b6fb103ed359bb4e4d7e0dbccbc20", "is_disabled": 0, "rental_uris": {"ios": "https://dc.lft.to/lastmile_qr_scan", "android": "https://dc.lft.to/lastmile_qr_scan"}, "is_reserved": 0}, {"lon": -77.038736, "bike_id": "4440062732e14e4e9f4646538c6c97dc", "lat": 38.912638, "fusion_lon": 0.0, "fusion_lat": 0.0, "type": "electric_scooter", "name": "4440062732e14e4e9f4646538c6c97dc", "is_disabled": 0, "rental_uris": {"ios": "https://dc.lft.to/lastmile_qr_scan", "android": "https://dc.lft.to/lastmile_qr_scan"}, "is_reserved": 0}, {"lon": -77.06854383333334, "bike_id": "54664c100a30097593696dbc889e3ad1", "lat": 38.9381055, "fusion_lon": 0.0, "fusion_lat": 0.0, "type": "electric_bike", "name": "54664c100a30097593696dbc889e3ad1", "is_disabled": 0, "rental_uris": {"ios": "https://dc.lft.to/lastmile_qr_scan", "android": "https://dc.lft.to/lastmile_qr_scan"}, "is_reserved": 0}, {"lon": -77.0133125, "bike_id": "76ffb7eac383ec9dfcb1dab3044a35a2", "lat": 38.900404, "fusion_lon": 0.0, "fusion_lat": 0.0, "type": "electric_scooter", "name": "76ffb7eac383ec9dfcb1dab3044a35a2", "is_disabled": 0, "rental_uris": {"ios": "https://dc.lft.to/lastmile_qr_scan", "android": "https://dc.lft.to/lastmile_qr_scan"}, "is_reserved": 0}, {"lon": -77.008834, "bike_id": "26925821612606a3a40fa32d74ef28cc", "lat": 38.916350333333334, "fusion_lon": 0.0, "fusion_lat": 0.0, "type": "electric_bike", "name": "26925821612606a3a40fa32d74ef28cc", "is_disabled": 0, "rental_uris": {"ios": "https://dc.lft.to/lastmile_qr_scan", "android": "https://dc.lft.to/lastmile_qr_scan"}, "is_reserved": 0}, {"lon": -77.03513933333333, "bike_id": "b29b482e6c6b9ebfae8ccb3a2d7cc46b", "lat": 38.92348783333333, "fusion_lon": 0.0, "fusion_lat": 0.0, "type": "electric_scooter", "name": "b29b482e6c6b9ebfae8ccb3a2d7cc46b", "is_disabled": 0, "rental_uris": {"ios": "https://dc.lft.to/lastmile_qr_scan", "android": "https://dc.lft.to/lastmile_qr_scan"}, "is_reserved": 0}, {"lon": -76.98526516666666, "bike_id": "e726d4caf379e33cfd61f330b01ef4ce", "lat": 38.8668785, "fusion_lon": 0.0, "fusion_lat": 0.0, "type": "electric_scooter", "name": "e726d4caf379e33cfd61f330b01ef4ce", "is_disabled": 0, "rental_uris": {"ios": "https://dc.lft.to/lastmile_qr_scan", "android": "https://dc.lft.to/lastmile_qr_scan"}, "is_reserved": 0}, {"lon": -76.94183416666667, "bike_id": "b5d8d1c1870aef901977551e4e205ef8", "lat": 38.89304533333333, "fusion_lon": 0.0, "fusion_lat": 0.0, "type": "electric_bike", "name": "b5d8d1c1870aef901977551e4e205ef8", "is_disabled": 0, "rental_uris": {"ios": "https://dc.lft.to/lastmile_qr_scan", "android": "https://dc.lft.to/lastmile_qr_scan"}, "is_reserved": 0}, {"lon": -77.02227983333333, "bike_id": "1885aa49562bc7c5781f50d93c0fabc5", "lat": 38.912543666666664, "fusion_lon": 0.0, "fusion_lat": 0.0, "type": "electric_scooter", "name": "1885aa49562bc7c5781f50d93c0fabc5", "is_disabled": 0, "rental_uris": {"ios": "https://dc.lft.to/lastmile_qr_scan", "android": "https://dc.lft.to/lastmile_qr_scan"}, "is_reserved": 0}, {"lon": -76.936168, "bike_id": "6143b45ca259d30978b5606c46945eba", "lat": 38.97059333333333, "fusion_lon": 0.0, "fusion_lat": 0.0, "type": "electric_bike", "name": "6143b45ca259d30978b5606c46945eba", "is_disabled": 0, "rental_uris": {"ios": "https://dc.lft.to/lastmile_qr_scan", "android": "https://dc.lft.to/lastmile_qr_scan"}, "is_reserved": 0}, {"lon": -77.02477383333333, "bike_id": "33bfbdcd750d2bade5aaf2799f874848", "lat": 38.938565, "fusion_lon": 0.0, "fusion_lat": 0.0, "type": "electric_scooter", "name": "33bfbdcd750d2bade5aaf2799f874848", "is_disabled": 0, "rental_uris": {"ios": "https://dc.lft.to/lastmile_qr_scan", "android": "https://dc.lft.to/lastmile_qr_scan"}, "is_reserved": 0}, {"lon": -77.03475333333333, "bike_id": "09d77f3f2558ad05b39510cfc32f2b45", "lat": 38.907311666666665, "fusion_lon": 0.0, "fusion_lat": 0.0, "type": "electric_scooter", "name": "09d77f3f2558ad05b39510cfc32f2b45", "is_disabled": 0, "rental_uris": {"ios": "https://dc.lft.to/lastmile_qr_scan", "android": "https://dc.lft.to/lastmile_qr_scan"}, "is_reserved": 0}, {"lon": -77.03370516666666, "bike_id": "83c7fe611bbca1564a76f4ca16e21518", "lat": 38.929063666666664, "fusion_lon": 0.0, "fusion_lat": 0.0, "type": "electric_scooter", "name": "83c7fe611bbca1564a76f4ca16e21518", "is_disabled": 0, "rental_uris": {"ios": "https://dc.lft.to/lastmile_qr_scan", "android": "https://dc.lft.to/lastmile_qr_scan"}, "is_reserved": 0}, {"lon": -76.97331233333334, "bike_id": "95e30a983cd78ee31757f191c6ee678e", "lat": 38.9041195, "fusion_lon": 0.0, "fusion_lat": 0.0, "type": "electric_scooter", "name": "95e30a983cd78ee31757f191c6ee678e", "is_disabled": 0, "rental_uris": {"ios": "https://dc.lft.to/lastmile_qr_scan", "android": "https://dc.lft.to/lastmile_qr_scan"}, "is_reserved": 0}, {"lon": -77.050169, "bike_id": "cf1963ddba4f407e3e733042eac226ea", "lat": 38.90053, "fusion_lon": 0.0, "fusion_lat": 0.0, "type": "electric_scooter", "name": "cf1963ddba4f407e3e733042eac226ea", "is_disabled": 0, "rental_uris": {"ios": "https://dc.lft.to/lastmile_qr_scan", "android": "https://dc.lft.to/lastmile_qr_scan"}, "is_reserved": 0}, {"lon": -77.00204716666667, "bike_id": "344ba0786672938ddd9f548dac41f1ff", "lat": 38.90236733333333, "fusion_lon": 0.0, "fusion_lat": 0.0, "type": "electric_scooter", "name": "344ba0786672938ddd9f548dac41f1ff", "is_disabled": 0, "rental_uris": {"ios": "https://dc.lft.to/lastmile_qr_scan", "android": "https://dc.lft.to/lastmile_qr_scan"}, "is_reserved": 0}, {"lon": -77.03668016666667, "bike_id": "5a04fc3d5a349abf716d2e5f3abfe55c", "lat": 38.9213935, "fusion_lon": 0.0, "fusion_lat": 0.0, "type": "electric_scooter", "name": "5a04fc3d5a349abf716d2e5f3abfe55c", "is_disabled": 0, "rental_uris": {"ios": "https://dc.lft.to/lastmile_qr_scan", "android": "https://dc.lft.to/lastmile_qr_scan"}, "is_reserved": 0}, {"lon": -77.03877883333334, "bike_id": "d0678405116cf1916dd3688da3780a3b", "lat": 38.929621, "fusion_lon": 0.0, "fusion_lat": 0.0, "type": "electric_scooter", "name": "d0678405116cf1916dd3688da3780a3b", "is_disabled": 0, "rental_uris": {"ios": "https://dc.lft.to/lastmile_qr_scan", "android": "https://dc.lft.to/lastmile_qr_scan"}, "is_reserved": 0}, {"lon": -77.05434633333333, "bike_id": "e3b63e8da8feb2415ed69b7730f21671", "lat": 38.83683966666667, "fusion_lon": 0.0, "fusion_lat": 0.0, "type": "electric_bike", "name": "e3b63e8da8feb2415ed69b7730f21671", "is_disabled": 0, "rental_uris": {"ios": "https://dc.lft.to/lastmile_qr_scan", "android": "https://dc.lft.to/lastmile_qr_scan"}, "is_reserved": 0}, {"lon": -77.04560183333334, "bike_id": "bd378dbbf0b82da698ae1491486f9ade", "lat": 38.896156, "fusion_lon": 0.0, "fusion_lat": 0.0, "type": "electric_scooter", "name": "bd378dbbf0b82da698ae1491486f9ade", "is_disabled": 0, "rental_uris": {"ios": "https://dc.lft.to/lastmile_qr_scan", "android": "https://dc.lft.to/lastmile_qr_scan"}, "is_reserved": 0}, {"lon": -77.0003765, "bike_id": "55d0d43bccd923838c7e3a675be90e42", "lat": 38.96784683333333, "fusion_lon": 0.0, "fusion_lat": 0.0, "type": "electric_bike", "name": "55d0d43bccd923838c7e3a675be90e42", "is_disabled": 0, "rental_uris": {"ios": "https://dc.lft.to/lastmile_qr_scan", "android": "https://dc.lft.to/lastmile_qr_scan"}, "is_reserved": 0}, {"lon": -77.03203966666666, "bike_id": "ef5647f583dfcd0ca20e755b73462c2f", "lat": 38.9440875, "fusion_lon": 0.0, "fusion_lat": 0.0, "type": "electric_scooter", "name": "ef5647f583dfcd0ca20e755b73462c2f", "is_disabled": 0, "rental_uris": {"ios": "https://dc.lft.to/lastmile_qr_scan", "android": "https://dc.lft.to/lastmile_qr_scan"}, "is_reserved": 0}, {"lon": -77.03192, "bike_id": "d3eb5efdc54a67a189252dcb84ddd685", "lat": 38.917418833333336, "fusion_lon": 0.0, "fusion_lat": 0.0, "type": "electric_scooter", "name": "d3eb5efdc54a67a189252dcb84ddd685", "is_disabled": 0, "rental_uris": {"ios": "https://dc.lft.to/lastmile_qr_scan", "android": "https://dc.lft.to/lastmile_qr_scan"}, "is_reserved": 0}, {"lon": -77.050449, "bike_id": "5e3f5521fb338faca8a080d0c9bfab29", "lat": 38.92362983333334, "fusion_lon": 0.0, "fusion_lat": 0.0, "type": "electric_scooter", "name": "5e3f5521fb338faca8a080d0c9bfab29", "is_disabled": 0, "rental_uris": {"ios": "https://dc.lft.to/lastmile_qr_scan", "android": "https://dc.lft.to/lastmile_qr_scan"}, "is_reserved": 0}, {"lon": -77.03799483333333, "bike_id": "03ec5c7fabe9b7ce28a1e5d3787f29ad", "lat": 38.910324, "fusion_lon": 0.0, "fusion_lat": 0.0, "type": "electric_scooter", "name": "03ec5c7fabe9b7ce28a1e5d3787f29ad", "is_disabled": 0, "rental_uris": {"ios": "https://dc.lft.to/lastmile_qr_scan", "android": "https://dc.lft.to/lastmile_qr_scan"}, "is_reserved": 0}, {"lon": -77.03352316666667, "bike_id": "9b1523601894fab97ea6c6d15d4d6d71", "lat": 38.9016015, "fusion_lon": 0.0, "fusion_lat": 0.0, "type": "electric_scooter", "name": "9b1523601894fab97ea6c6d15d4d6d71", "is_disabled": 0, "rental_uris": {"ios": "https://dc.lft.to/lastmile_qr_scan", "android": "https://dc.lft.to/lastmile_qr_scan"}, "is_reserved": 0}, {"lon": -77.02654833333334, "bike_id": "2ddf69eadd0efd1ad89632464c8fe2d5", "lat": 38.9277595, "fusion_lon": 0.0, "fusion_lat": 0.0, "type": "electric_scooter", "name": "2ddf69eadd0efd1ad89632464c8fe2d5", "is_disabled": 0, "rental_uris": {"ios": "https://dc.lft.to/lastmile_qr_scan", "android": "https://dc.lft.to/lastmile_qr_scan"}, "is_reserved": 0}, {"lon": -77.03639566666666, "bike_id": "b3b3142d289c03b07f38c297c2719e71", "lat": 38.9230465, "fusion_lon": 0.0, "fusion_lat": 0.0, "type": "electric_scooter", "name": "b3b3142d289c03b07f38c297c2719e71", "is_disabled": 0, "rental_uris": {"ios": "https://dc.lft.to/lastmile_qr_scan", "android": "https://dc.lft.to/lastmile_qr_scan"}, "is_reserved": 0}, {"lon": -77.02698666666667, "bike_id": "1fb4ffb085e5d7bfaa21036165c3ef4c", "lat": 38.90619433333333, "fusion_lon": 0.0, "fusion_lat": 0.0, "type": "electric_scooter", "name": "1fb4ffb085e5d7bfaa21036165c3ef4c", "is_disabled": 0, "rental_uris": {"ios": "https://dc.lft.to/lastmile_qr_scan", "android": "https://dc.lft.to/lastmile_qr_scan"}, "is_reserved": 0}, {"lon": -77.0387035, "bike_id": "761999228abf5407186715b05b8f5461", "lat": 38.906614833333336, "fusion_lon": 0.0, "fusion_lat": 0.0, "type": "electric_scooter", "name": "761999228abf5407186715b05b8f5461", "is_disabled": 0, "rental_uris": {"ios": "https://dc.lft.to/lastmile_qr_scan", "android": "https://dc.lft.to/lastmile_qr_scan"}, "is_reserved": 0}, {"lon": -77.067493, "bike_id": "f055eb801f5ad4d7be963dad3786b3f8", "lat": 38.9033655, "fusion_lon": 0.0, "fusion_lat": 0.0, "type": "electric_scooter", "name": "f055eb801f5ad4d7be963dad3786b3f8", "is_disabled": 0, "rental_uris": {"ios": "https://dc.lft.to/lastmile_qr_scan", "android": "https://dc.lft.to/lastmile_qr_scan"}, "is_reserved": 0}, {"lon": -76.98579083333334, "bike_id": "efd0951a322880f77af15dd1dbcdc59c", "lat": 38.900312666666665, "fusion_lon": 0.0, "fusion_lat": 0.0, "type": "electric_scooter", "name": "efd0951a322880f77af15dd1dbcdc59c", "is_disabled": 0, "rental_uris": {"ios": "https://dc.lft.to/lastmile_qr_scan", "android": "https://dc.lft.to/lastmile_qr_scan"}, "is_reserved": 0}, {"lon": -77.08590366666667, "bike_id": "325d7c9cd90fa0689c40d71f4d26b64f", "lat": 38.9086635, "fusion_lon": 0.0, "fusion_lat": 0.0, "type": "electric_scooter", "name": "325d7c9cd90fa0689c40d71f4d26b64f", "is_disabled": 0, "rental_uris": {"ios": "https://dc.lft.to/lastmile_qr_scan", "android": "https://dc.lft.to/lastmile_qr_scan"}, "is_reserved": 0}, {"lon": -77.02591266666667, "bike_id": "98d3287f4f99202f13b48aeed5716671", "lat": 38.942005333333334, "fusion_lon": 0.0, "fusion_lat": 0.0, "type": "electric_scooter", "name": "98d3287f4f99202f13b48aeed5716671", "is_disabled": 0, "rental_uris": {"ios": "https://dc.lft.to/lastmile_qr_scan", "android": "https://dc.lft.to/lastmile_qr_scan"}, "is_reserved": 0}, {"lon": -77.03944033333333, "bike_id": "ab5e8e86080067cb6484c4468237a021", "lat": 38.93063816666667, "fusion_lon": 0.0, "fusion_lat": 0.0, "type": "electric_scooter", "name": "ab5e8e86080067cb6484c4468237a021", "is_disabled": 0, "rental_uris": {"ios": "https://dc.lft.to/lastmile_qr_scan", "android": "https://dc.lft.to/lastmile_qr_scan"}, "is_reserved": 0}, {"lon": -76.997782, "bike_id": "e5fe94f93d8bc2f99f7188ca4f5c4808", "lat": 38.844278833333334, "fusion_lon": 0.0, "fusion_lat": 0.0, "type": "electric_scooter", "name": "e5fe94f93d8bc2f99f7188ca4f5c4808", "is_disabled": 0, "rental_uris": {"ios": "https://dc.lft.to/lastmile_qr_scan", "android": "https://dc.lft.to/lastmile_qr_scan"}, "is_reserved": 0}, {"lon": -77.02967166666667, "bike_id": "f891a58dea40d269f6bc1b6745ae619d", "lat": 38.930609833333335, "fusion_lon": 0.0, "fusion_lat": 0.0, "type": "electric_scooter", "name": "f891a58dea40d269f6bc1b6745ae619d", "is_disabled": 0, "rental_uris": {"ios": "https://dc.lft.to/lastmile_qr_scan", "android": "https://dc.lft.to/lastmile_qr_scan"}, "is_reserved": 0}, {"lon": -76.99543733333333, "bike_id": "1176b49bf647ebf41f6a4dfb3fff0ab2", "lat": 38.88373383333333, "fusion_lon": 0.0, "fusion_lat": 0.0, "type": "electric_scooter", "name": "1176b49bf647ebf41f6a4dfb3fff0ab2", "is_disabled": 0, "rental_uris": {"ios": "https://dc.lft.to/lastmile_qr_scan", "android": "https://dc.lft.to/lastmile_qr_scan"}, "is_reserved": 0}, {"lon": -77.03453116666667, "bike_id": "d6702776f3c80a56b8690abbe6285d5e", "lat": 38.9072935, "fusion_lon": 0.0, "fusion_lat": 0.0, "type": "electric_scooter", "name": "d6702776f3c80a56b8690abbe6285d5e", "is_disabled": 0, "rental_uris": {"ios": "https://dc.lft.to/lastmile_qr_scan", "android": "https://dc.lft.to/lastmile_qr_scan"}, "is_reserved": 0}, {"lon": -77.04063183333334, "bike_id": "100f22f3cf0ba784ef89254bac7a83a1", "lat": 38.91771766666667, "fusion_lon": 0.0, "fusion_lat": 0.0, "type": "electric_scooter", "name": "100f22f3cf0ba784ef89254bac7a83a1", "is_disabled": 0, "rental_uris": {"ios": "https://dc.lft.to/lastmile_qr_scan", "android": "https://dc.lft.to/lastmile_qr_scan"}, "is_reserved": 0}, {"lon": -77.00100766666667, "bike_id": "8225380071f8d9c4fa521e891d84cd37", "lat": 38.9074935, "fusion_lon": 0.0, "fusion_lat": 0.0, "type": "electric_scooter", "name": "8225380071f8d9c4fa521e891d84cd37", "is_disabled": 0, "rental_uris": {"ios": "https://dc.lft.to/lastmile_qr_scan", "android": "https://dc.lft.to/lastmile_qr_scan"}, "is_reserved": 0}, {"lon": -77.03777466666666, "bike_id": "c2326b515c3806010a50450ca4e37fc7", "lat": 38.925387, "fusion_lon": 0.0, "fusion_lat": 0.0, "type": "electric_scooter", "name": "c2326b515c3806010a50450ca4e37fc7", "is_disabled": 0, "rental_uris": {"ios": "https://dc.lft.to/lastmile_qr_scan", "android": "https://dc.lft.to/lastmile_qr_scan"}, "is_reserved": 0}, {"lon": -76.99119816666666, "bike_id": "7ccd18fa5f93ba0ac97a08dd8dba6c1b", "lat": 38.90905516666667, "fusion_lon": 0.0, "fusion_lat": 0.0, "type": "electric_scooter", "name": "7ccd18fa5f93ba0ac97a08dd8dba6c1b", "is_disabled": 0, "rental_uris": {"ios": "https://dc.lft.to/lastmile_qr_scan", "android": "https://dc.lft.to/lastmile_qr_scan"}, "is_reserved": 0}, {"lon": -76.98714866666667, "bike_id": "439bd1b598e2b5ba48f0dc017960fac3", "lat": 38.867021666666666, "fusion_lon": 0.0, "fusion_lat": 0.0, "type": "electric_scooter", "name": "439bd1b598e2b5ba48f0dc017960fac3", "is_disabled": 0, "rental_uris": {"ios": "https://dc.lft.to/lastmile_qr_scan", "android": "https://dc.lft.to/lastmile_qr_scan"}, "is_reserved": 0}, {"lon": -77.04376316666666, "bike_id": "8aace0e4e6d8d439e014e97f71e93df1", "lat": 38.892245333333335, "fusion_lon": 0.0, "fusion_lat": 0.0, "type": "electric_scooter", "name": "8aace0e4e6d8d439e014e97f71e93df1", "is_disabled": 0, "rental_uris": {"ios": "https://dc.lft.to/lastmile_qr_scan", "android": "https://dc.lft.to/lastmile_qr_scan"}, "is_reserved": 0}, {"lon": -77.04535216666666, "bike_id": "f504d8ad26aeb21a95f62984994bcfd3", "lat": 38.913244166666665, "fusion_lon": 0.0, "fusion_lat": 0.0, "type": "electric_scooter", "name": "f504d8ad26aeb21a95f62984994bcfd3", "is_disabled": 0, "rental_uris": {"ios": "https://dc.lft.to/lastmile_qr_scan", "android": "https://dc.lft.to/lastmile_qr_scan"}, "is_reserved": 0}, {"lon": -77.03167766666667, "bike_id": "e1a670dc71aaa7af85ce5194c3f76947", "lat": 38.91615566666667, "fusion_lon": 0.0, "fusion_lat": 0.0, "type": "electric_scooter", "name": "e1a670dc71aaa7af85ce5194c3f76947", "is_disabled": 0, "rental_uris": {"ios": "https://dc.lft.to/lastmile_qr_scan", "android": "https://dc.lft.to/lastmile_qr_scan"}, "is_reserved": 0}, {"lon": -77.0269165, "bike_id": "812aea2e3d83efd75f2b4452402d566b", "lat": 38.908406666666664, "fusion_lon": 0.0, "fusion_lat": 0.0, "type": "electric_scooter", "name": "812aea2e3d83efd75f2b4452402d566b", "is_disabled": 0, "rental_uris": {"ios": "https://dc.lft.to/lastmile_qr_scan", "android": "https://dc.lft.to/lastmile_qr_scan"}, "is_reserved": 0}, {"lon": -77.04374366666667, "bike_id": "f119fad58848592c68ca75da7bb9ca27", "lat": 38.89220483333333, "fusion_lon": 0.0, "fusion_lat": 0.0, "type": "electric_scooter", "name": "f119fad58848592c68ca75da7bb9ca27", "is_disabled": 0, "rental_uris": {"ios": "https://dc.lft.to/lastmile_qr_scan", "android": "https://dc.lft.to/lastmile_qr_scan"}, "is_reserved": 0}, {"lon": -77.0504445, "bike_id": "1f2587539475a3abcb85a53b54adac56", "lat": 38.923608333333334, "fusion_lon": 0.0, "fusion_lat": 0.0, "type": "electric_scooter", "name": "1f2587539475a3abcb85a53b54adac56", "is_disabled": 0, "rental_uris": {"ios": "https://dc.lft.to/lastmile_qr_scan", "android": "https://dc.lft.to/lastmile_qr_scan"}, "is_reserved": 0}, {"lon": -77.05500083333334, "bike_id": "067048ae655f51ec92e1171cca46dd3f", "lat": 38.935509, "fusion_lon": 0.0, "fusion_lat": 0.0, "type": "electric_scooter", "name": "067048ae655f51ec92e1171cca46dd3f", "is_disabled": 0, "rental_uris": {"ios": "https://dc.lft.to/lastmile_qr_scan", "android": "https://dc.lft.to/lastmile_qr_scan"}, "is_reserved": 0}, {"lon": -77.02157466666667, "bike_id": "85c60a2e31f79b705eb6411a891591cb", "lat": 38.89491366666667, "fusion_lon": 0.0, "fusion_lat": 0.0, "type": "electric_scooter", "name": "85c60a2e31f79b705eb6411a891591cb", "is_disabled": 0, "rental_uris": {"ios": "https://dc.lft.to/lastmile_qr_scan", "android": "https://dc.lft.to/lastmile_qr_scan"}, "is_reserved": 0}, {"lon": -76.9871345, "bike_id": "cdf4214db3e2282f4120b5c53c4c245d", "lat": 38.8669655, "fusion_lon": 0.0, "fusion_lat": 0.0, "type": "electric_scooter", "name": "cdf4214db3e2282f4120b5c53c4c245d", "is_disabled": 0, "rental_uris": {"ios": "https://dc.lft.to/lastmile_qr_scan", "android": "https://dc.lft.to/lastmile_qr_scan"}, "is_reserved": 0}, {"lon": -77.008921, "bike_id": "20d423cf5b8d3ae956a47999e871d353", "lat": 38.926499, "fusion_lon": 0.0, "fusion_lat": 0.0, "type": "electric_scooter", "name": "20d423cf5b8d3ae956a47999e871d353", "is_disabled": 0, "rental_uris": {"ios": "https://dc.lft.to/lastmile_qr_scan", "android": "https://dc.lft.to/lastmile_qr_scan"}, "is_reserved": 0}, {"lon": -77.01997133333333, "bike_id": "a9f80c9f6d5078d9922126c9e414c2a2", "lat": 38.887407833333334, "fusion_lon": 0.0, "fusion_lat": 0.0, "type": "electric_scooter", "name": "a9f80c9f6d5078d9922126c9e414c2a2", "is_disabled": 0, "rental_uris": {"ios": "https://dc.lft.to/lastmile_qr_scan", "android": "https://dc.lft.to/lastmile_qr_scan"}, "is_reserved": 0}, {"lon": -77.01415583333333, "bike_id": "5051369ede79313322bc784cf8a7570c", "lat": 38.9284735, "fusion_lon": 0.0, "fusion_lat": 0.0, "type": "electric_scooter", "name": "5051369ede79313322bc784cf8a7570c", "is_disabled": 0, "rental_uris": {"ios": "https://dc.lft.to/lastmile_qr_scan", "android": "https://dc.lft.to/lastmile_qr_scan"}, "is_reserved": 0}, {"lon": -77.02382716666666, "bike_id": "1e0946fec108c216dd1c0f2a1354fd07", "lat": 38.9376675, "fusion_lon": 0.0, "fusion_lat": 0.0, "type": "electric_scooter", "name": "1e0946fec108c216dd1c0f2a1354fd07", "is_disabled": 0, "rental_uris": {"ios": "https://dc.lft.to/lastmile_qr_scan", "android": "https://dc.lft.to/lastmile_qr_scan"}, "is_reserved": 0}, {"lon": -77.0198085, "bike_id": "022d65d2f8a9d5785f5ea48a0b9a1ed4", "lat": 38.96027383333333, "fusion_lon": 0.0, "fusion_lat": 0.0, "type": "electric_scooter", "name": "022d65d2f8a9d5785f5ea48a0b9a1ed4", "is_disabled": 0, "rental_uris": {"ios": "https://dc.lft.to/lastmile_qr_scan", "android": "https://dc.lft.to/lastmile_qr_scan"}, "is_reserved": 0}, {"lon": -77.02716533333333, "bike_id": "49da7238185969922bd9ff67d998ed3f", "lat": 38.9094985, "fusion_lon": 0.0, "fusion_lat": 0.0, "type": "electric_scooter", "name": "49da7238185969922bd9ff67d998ed3f", "is_disabled": 0, "rental_uris": {"ios": "https://dc.lft.to/lastmile_qr_scan", "android": "https://dc.lft.to/lastmile_qr_scan"}, "is_reserved": 0}, {"lon": -77.03205483333333, "bike_id": "25408fd668d9d61575147f092ac9f36c", "lat": 38.938674166666665, "fusion_lon": 0.0, "fusion_lat": 0.0, "type": "electric_scooter", "name": "25408fd668d9d61575147f092ac9f36c", "is_disabled": 0, "rental_uris": {"ios": "https://dc.lft.to/lastmile_qr_scan", "android": "https://dc.lft.to/lastmile_qr_scan"}, "is_reserved": 0}, {"lon": -76.97426066666667, "bike_id": "be4cd84d8b0443c47f076e6ecf57dd20", "lat": 38.9323755, "fusion_lon": 0.0, "fusion_lat": 0.0, "type": "electric_bike", "name": "be4cd84d8b0443c47f076e6ecf57dd20", "is_disabled": 0, "rental_uris": {"ios": "https://dc.lft.to/lastmile_qr_scan", "android": "https://dc.lft.to/lastmile_qr_scan"}, "is_reserved": 0}, {"lon": -76.93177383333334, "bike_id": "f24c68490d23bbc4c131d6e5c105cc0f", "lat": 38.89889866666667, "fusion_lon": 0.0, "fusion_lat": 0.0, "type": "electric_scooter", "name": "f24c68490d23bbc4c131d6e5c105cc0f", "is_disabled": 0, "rental_uris": {"ios": "https://dc.lft.to/lastmile_qr_scan", "android": "https://dc.lft.to/lastmile_qr_scan"}, "is_reserved": 0}, {"lon": -77.04786266666666, "bike_id": "ba3cc579ebe2fe85bfc1f29d5948708d", "lat": 38.82954066666667, "fusion_lon": 0.0, "fusion_lat": 0.0, "type": "electric_bike", "name": "ba3cc579ebe2fe85bfc1f29d5948708d", "is_disabled": 0, "rental_uris": {"ios": "https://dc.lft.to/lastmile_qr_scan", "android": "https://dc.lft.to/lastmile_qr_scan"}, "is_reserved": 0}, {"lon": -77.07386383333333, "bike_id": "4b1a572cc339e6f13522bdf60fea6cdf", "lat": 38.962242333333336, "fusion_lon": 0.0, "fusion_lat": 0.0, "type": "electric_scooter", "name": "4b1a572cc339e6f13522bdf60fea6cdf", "is_disabled": 0, "rental_uris": {"ios": "https://dc.lft.to/lastmile_qr_scan", "android": "https://dc.lft.to/lastmile_qr_scan"}, "is_reserved": 0}, {"lon": -77.04184566666666, "bike_id": "dd301b11e054a54fa8691e93359c64cc", "lat": 38.91980083333333, "fusion_lon": 0.0, "fusion_lat": 0.0, "type": "electric_scooter", "name": "dd301b11e054a54fa8691e93359c64cc", "is_disabled": 0, "rental_uris": {"ios": "https://dc.lft.to/lastmile_qr_scan", "android": "https://dc.lft.to/lastmile_qr_scan"}, "is_reserved": 0}, {"lon": -77.02560066666666, "bike_id": "5dc9a16b61472da269246d939cca74cb", "lat": 38.90972816666667, "fusion_lon": 0.0, "fusion_lat": 0.0, "type": "electric_scooter", "name": "5dc9a16b61472da269246d939cca74cb", "is_disabled": 0, "rental_uris": {"ios": "https://dc.lft.to/lastmile_qr_scan", "android": "https://dc.lft.to/lastmile_qr_scan"}, "is_reserved": 0}, {"lon": -77.02977233333333, "bike_id": "c1a4d89d8cd4a37556f66e56373ad5f3", "lat": 38.9231515, "fusion_lon": 0.0, "fusion_lat": 0.0, "type": "electric_scooter", "name": "c1a4d89d8cd4a37556f66e56373ad5f3", "is_disabled": 0, "rental_uris": {"ios": "https://dc.lft.to/lastmile_qr_scan", "android": "https://dc.lft.to/lastmile_qr_scan"}, "is_reserved": 0}, {"lon": -76.98528483333334, "bike_id": "245b53540da5f160cabf0f3caf7bc7d3", "lat": 38.866871333333336, "fusion_lon": 0.0, "fusion_lat": 0.0, "type": "electric_scooter", "name": "245b53540da5f160cabf0f3caf7bc7d3", "is_disabled": 0, "rental_uris": {"ios": "https://dc.lft.to/lastmile_qr_scan", "android": "https://dc.lft.to/lastmile_qr_scan"}, "is_reserved": 0}, {"lon": -77.04306766666667, "bike_id": "81a416a2be5729731c43d5a6cca953e2", "lat": 38.906764833333334, "fusion_lon": 0.0, "fusion_lat": 0.0, "type": "electric_scooter", "name": "81a416a2be5729731c43d5a6cca953e2", "is_disabled": 0, "rental_uris": {"ios": "https://dc.lft.to/lastmile_qr_scan", "android": "https://dc.lft.to/lastmile_qr_scan"}, "is_reserved": 0}, {"lon": -77.11574166666666, "bike_id": "c2d862c72e12e6dcc1e59f35d13f5953", "lat": 38.993433333333336, "fusion_lon": 0.0, "fusion_lat": 0.0, "type": "electric_bike", "name": "c2d862c72e12e6dcc1e59f35d13f5953", "is_disabled": 0, "rental_uris": {"ios": "https://dc.lft.to/lastmile_qr_scan", "android": "https://dc.lft.to/lastmile_qr_scan"}, "is_reserved": 0}, {"lon": -76.98599433333334, "bike_id": "ca2b6f3627657aa6dc25d2edecfb719e", "lat": 38.866831833333336, "fusion_lon": 0.0, "fusion_lat": 0.0, "type": "electric_scooter", "name": "ca2b6f3627657aa6dc25d2edecfb719e", "is_disabled": 0, "rental_uris": {"ios": "https://dc.lft.to/lastmile_qr_scan", "android": "https://dc.lft.to/lastmile_qr_scan"}, "is_reserved": 0}, {"lon": -77.03389766666666, "bike_id": "e1d92dbad441fde8ec0d1cd934f358f2", "lat": 38.92156816666667, "fusion_lon": 0.0, "fusion_lat": 0.0, "type": "electric_scooter", "name": "e1d92dbad441fde8ec0d1cd934f358f2", "is_disabled": 0, "rental_uris": {"ios": "https://dc.lft.to/lastmile_qr_scan", "android": "https://dc.lft.to/lastmile_qr_scan"}, "is_reserved": 0}, {"lon": -77.03950433333333, "bike_id": "046d65baad3329a291feee1b2f8a8d2c", "lat": 38.91546483333333, "fusion_lon": 0.0, "fusion_lat": 0.0, "type": "electric_scooter", "name": "046d65baad3329a291feee1b2f8a8d2c", "is_disabled": 0, "rental_uris": {"ios": "https://dc.lft.to/lastmile_qr_scan", "android": "https://dc.lft.to/lastmile_qr_scan"}, "is_reserved": 0}, {"lon": -77.00958533333333, "bike_id": "6d6a753bf7d75ae05a49f977e2f5e4e0", "lat": 38.95337883333333, "fusion_lon": 0.0, "fusion_lat": 0.0, "type": "electric_bike", "name": "6d6a753bf7d75ae05a49f977e2f5e4e0", "is_disabled": 0, "rental_uris": {"ios": "https://dc.lft.to/lastmile_qr_scan", "android": "https://dc.lft.to/lastmile_qr_scan"}, "is_reserved": 0}, {"lon": -77.02726166666666, "bike_id": "0f63f4b331d2d017d47e36ffe312bbd4", "lat": 38.95134816666667, "fusion_lon": 0.0, "fusion_lat": 0.0, "type": "electric_scooter", "name": "0f63f4b331d2d017d47e36ffe312bbd4", "is_disabled": 0, "rental_uris": {"ios": "https://dc.lft.to/lastmile_qr_scan", "android": "https://dc.lft.to/lastmile_qr_scan"}, "is_reserved": 0}, {"lon": -76.98589083333333, "bike_id": "2df8d8b148e0217e13ce4c8f2f4ea28e", "lat": 38.88409866666667, "fusion_lon": 0.0, "fusion_lat": 0.0, "type": "electric_scooter", "name": "2df8d8b148e0217e13ce4c8f2f4ea28e", "is_disabled": 0, "rental_uris": {"ios": "https://dc.lft.to/lastmile_qr_scan", "android": "https://dc.lft.to/lastmile_qr_scan"}, "is_reserved": 0}, {"lon": -76.9936565, "bike_id": "25a15a17011f279b374d9cb332f9b160", "lat": 38.94023966666666, "fusion_lon": 0.0, "fusion_lat": 0.0, "type": "electric_scooter", "name": "25a15a17011f279b374d9cb332f9b160", "is_disabled": 0, "rental_uris": {"ios": "https://dc.lft.to/lastmile_qr_scan", "android": "https://dc.lft.to/lastmile_qr_scan"}, "is_reserved": 0}, {"lon": -77.03203983333333, "bike_id": "130bb50c204a35b12bfc203d2daa3733", "lat": 38.91825083333333, "fusion_lon": 0.0, "fusion_lat": 0.0, "type": "electric_scooter", "name": "130bb50c204a35b12bfc203d2daa3733", "is_disabled": 0, "rental_uris": {"ios": "https://dc.lft.to/lastmile_qr_scan", "android": "https://dc.lft.to/lastmile_qr_scan"}, "is_reserved": 0}, {"lon": -77.04981, "bike_id": "b6df67658e40c9e3770725cad2cf6239", "lat": 39.06296366666667, "fusion_lon": 0.0, "fusion_lat": 0.0, "type": "electric_bike", "name": "b6df67658e40c9e3770725cad2cf6239", "is_disabled": 0, "rental_uris": {"ios": "https://dc.lft.to/lastmile_qr_scan", "android": "https://dc.lft.to/lastmile_qr_scan"}, "is_reserved": 0}, {"lon": -77.00156483333333, "bike_id": "d30bad66da33f51de3f1286789400d61", "lat": 38.91627916666667, "fusion_lon": 0.0, "fusion_lat": 0.0, "type": "electric_scooter", "name": "d30bad66da33f51de3f1286789400d61", "is_disabled": 0, "rental_uris": {"ios": "https://dc.lft.to/lastmile_qr_scan", "android": "https://dc.lft.to/lastmile_qr_scan"}, "is_reserved": 0}, {"lon": -77.06287866666666, "bike_id": "15308b9ec588ab40f1f98415fb396fef", "lat": 38.865396833333335, "fusion_lon": 0.0, "fusion_lat": 0.0, "type": "electric_bike", "name": "15308b9ec588ab40f1f98415fb396fef", "is_disabled": 0, "rental_uris": {"ios": "https://dc.lft.to/lastmile_qr_scan", "android": "https://dc.lft.to/lastmile_qr_scan"}, "is_reserved": 0}, {"lon": -77.05145616666667, "bike_id": "ca3a003f68534d27003705ad9a40422c", "lat": 38.898567166666666, "fusion_lon": 0.0, "fusion_lat": 0.0, "type": "electric_scooter", "name": "ca3a003f68534d27003705ad9a40422c", "is_disabled": 0, "rental_uris": {"ios": "https://dc.lft.to/lastmile_qr_scan", "android": "https://dc.lft.to/lastmile_qr_scan"}, "is_reserved": 0}, {"lon": -76.978655, "bike_id": "072a5e6a9f899ca42b4c0c7dd37ca24f", "lat": 38.88305783333333, "fusion_lon": 0.0, "fusion_lat": 0.0, "type": "electric_scooter", "name": "072a5e6a9f899ca42b4c0c7dd37ca24f", "is_disabled": 0, "rental_uris": {"ios": "https://dc.lft.to/lastmile_qr_scan", "android": "https://dc.lft.to/lastmile_qr_scan"}, "is_reserved": 0}, {"lon": -77.02967683333334, "bike_id": "f17da8ef549b0010d0062c449b339361", "lat": 38.912735833333336, "fusion_lon": 0.0, "fusion_lat": 0.0, "type": "electric_scooter", "name": "f17da8ef549b0010d0062c449b339361", "is_disabled": 0, "rental_uris": {"ios": "https://dc.lft.to/lastmile_qr_scan", "android": "https://dc.lft.to/lastmile_qr_scan"}, "is_reserved": 0}, {"lon": -77.025587, "bike_id": "7cb3984a23fab6119c825d893c1d2517", "lat": 38.941717, "fusion_lon": 0.0, "fusion_lat": 0.0, "type": "electric_scooter", "name": "7cb3984a23fab6119c825d893c1d2517", "is_disabled": 0, "rental_uris": {"ios": "https://dc.lft.to/lastmile_qr_scan", "android": "https://dc.lft.to/lastmile_qr_scan"}, "is_reserved": 0}, {"lon": -77.01767583333333, "bike_id": "b814927d152b547f16b6dc2b39b37fce", "lat": 38.88732433333333, "fusion_lon": 0.0, "fusion_lat": 0.0, "type": "electric_scooter", "name": "b814927d152b547f16b6dc2b39b37fce", "is_disabled": 0, "rental_uris": {"ios": "https://dc.lft.to/lastmile_qr_scan", "android": "https://dc.lft.to/lastmile_qr_scan"}, "is_reserved": 0}, {"lon": -77.03866866666667, "bike_id": "ed514055a51139511d0a15b5ef6b484f", "lat": 38.92015, "fusion_lon": 0.0, "fusion_lat": 0.0, "type": "electric_scooter", "name": "ed514055a51139511d0a15b5ef6b484f", "is_disabled": 0, "rental_uris": {"ios": "https://dc.lft.to/lastmile_qr_scan", "android": "https://dc.lft.to/lastmile_qr_scan"}, "is_reserved": 0}, {"lon": -77.0586445, "bike_id": "3952e7e68d44b19ad4c91eb31ec7b888", "lat": 38.935769666666666, "fusion_lon": 0.0, "fusion_lat": 0.0, "type": "electric_scooter", "name": "3952e7e68d44b19ad4c91eb31ec7b888", "is_disabled": 0, "rental_uris": {"ios": "https://dc.lft.to/lastmile_qr_scan", "android": "https://dc.lft.to/lastmile_qr_scan"}, "is_reserved": 0}, {"lon": -77.03824516666667, "bike_id": "29a16e3169e920325a134d32c66d706f", "lat": 38.90973566666667, "fusion_lon": 0.0, "fusion_lat": 0.0, "type": "electric_scooter", "name": "29a16e3169e920325a134d32c66d706f", "is_disabled": 0, "rental_uris": {"ios": "https://dc.lft.to/lastmile_qr_scan", "android": "https://dc.lft.to/lastmile_qr_scan"}, "is_reserved": 0}, {"lon": -76.99506883333333, "bike_id": "66d49b1fc92aeff0a534246bafa9caeb", "lat": 38.9324045, "fusion_lon": 0.0, "fusion_lat": 0.0, "type": "electric_scooter", "name": "66d49b1fc92aeff0a534246bafa9caeb", "is_disabled": 0, "rental_uris": {"ios": "https://dc.lft.to/lastmile_qr_scan", "android": "https://dc.lft.to/lastmile_qr_scan"}, "is_reserved": 0}, {"lon": -77.01809983333334, "bike_id": "7c9e6fcf0d2fba0ada9ca866cd34fca2", "lat": 38.921268833333336, "fusion_lon": 0.0, "fusion_lat": 0.0, "type": "electric_scooter", "name": "7c9e6fcf0d2fba0ada9ca866cd34fca2", "is_disabled": 0, "rental_uris": {"ios": "https://dc.lft.to/lastmile_qr_scan", "android": "https://dc.lft.to/lastmile_qr_scan"}, "is_reserved": 0}, {"lon": -77.0098625, "bike_id": "b5816c29a8c9fe84111b878c4ddbcd9c", "lat": 38.872895, "fusion_lon": 0.0, "fusion_lat": 0.0, "type": "electric_scooter", "name": "b5816c29a8c9fe84111b878c4ddbcd9c", "is_disabled": 0, "rental_uris": {"ios": "https://dc.lft.to/lastmile_qr_scan", "android": "https://dc.lft.to/lastmile_qr_scan"}, "is_reserved": 0}, {"lon": -77.046593, "bike_id": "6662b175ab46503109513dc3eb80a477", "lat": 38.9159195, "fusion_lon": 0.0, "fusion_lat": 0.0, "type": "electric_scooter", "name": "6662b175ab46503109513dc3eb80a477", "is_disabled": 0, "rental_uris": {"ios": "https://dc.lft.to/lastmile_qr_scan", "android": "https://dc.lft.to/lastmile_qr_scan"}, "is_reserved": 0}, {"lon": -76.98789683333334, "bike_id": "7dd7f8537c479e61023ba0863ce162b3", "lat": 38.867273833333336, "fusion_lon": 0.0, "fusion_lat": 0.0, "type": "electric_scooter", "name": "7dd7f8537c479e61023ba0863ce162b3", "is_disabled": 0, "rental_uris": {"ios": "https://dc.lft.to/lastmile_qr_scan", "android": "https://dc.lft.to/lastmile_qr_scan"}, "is_reserved": 0}, {"lon": -77.0306565, "bike_id": "ab16b63d2b9e9f8c24c079e55c817ffd", "lat": 38.922539666666665, "fusion_lon": 0.0, "fusion_lat": 0.0, "type": "electric_scooter", "name": "ab16b63d2b9e9f8c24c079e55c817ffd", "is_disabled": 0, "rental_uris": {"ios": "https://dc.lft.to/lastmile_qr_scan", "android": "https://dc.lft.to/lastmile_qr_scan"}, "is_reserved": 0}, {"lon": -77.03107216666666, "bike_id": "568906c48362eab1a837ec34108891f0", "lat": 38.91558333333333, "fusion_lon": 0.0, "fusion_lat": 0.0, "type": "electric_scooter", "name": "568906c48362eab1a837ec34108891f0", "is_disabled": 0, "rental_uris": {"ios": "https://dc.lft.to/lastmile_qr_scan", "android": "https://dc.lft.to/lastmile_qr_scan"}, "is_reserved": 0}, {"lon": -77.02924366666667, "bike_id": "f7f6a8b8a2bea60a387b56cf3c93ff24", "lat": 38.9346005, "fusion_lon": 0.0, "fusion_lat": 0.0, "type": "electric_scooter", "name": "f7f6a8b8a2bea60a387b56cf3c93ff24", "is_disabled": 0, "rental_uris": {"ios": "https://dc.lft.to/lastmile_qr_scan", "android": "https://dc.lft.to/lastmile_qr_scan"}, "is_reserved": 0}, {"lon": -77.02961683333334, "bike_id": "d8c1f086806f78a431f6c91acb617bcb", "lat": 38.9167745, "fusion_lon": 0.0, "fusion_lat": 0.0, "type": "electric_scooter", "name": "d8c1f086806f78a431f6c91acb617bcb", "is_disabled": 0, "rental_uris": {"ios": "https://dc.lft.to/lastmile_qr_scan", "android": "https://dc.lft.to/lastmile_qr_scan"}, "is_reserved": 0}, {"lon": -76.98863816666666, "bike_id": "6c4d7e1dfa251d32c5ae37aa23f371d5", "lat": 38.891757166666665, "fusion_lon": 0.0, "fusion_lat": 0.0, "type": "electric_scooter", "name": "6c4d7e1dfa251d32c5ae37aa23f371d5", "is_disabled": 0, "rental_uris": {"ios": "https://dc.lft.to/lastmile_qr_scan", "android": "https://dc.lft.to/lastmile_qr_scan"}, "is_reserved": 0}, {"lon": -77.0290125, "bike_id": "9f1360feb115f531cc7d4f5fe0aa76fd", "lat": 38.916932, "fusion_lon": 0.0, "fusion_lat": 0.0, "type": "electric_scooter", "name": "9f1360feb115f531cc7d4f5fe0aa76fd", "is_disabled": 0, "rental_uris": {"ios": "https://dc.lft.to/lastmile_qr_scan", "android": "https://dc.lft.to/lastmile_qr_scan"}, "is_reserved": 0}, {"lon": -77.03822466666666, "bike_id": "a1a322e1f11213dbf5d06b30f30c4b0e", "lat": 38.9067555, "fusion_lon": 0.0, "fusion_lat": 0.0, "type": "electric_scooter", "name": "a1a322e1f11213dbf5d06b30f30c4b0e", "is_disabled": 0, "rental_uris": {"ios": "https://dc.lft.to/lastmile_qr_scan", "android": "https://dc.lft.to/lastmile_qr_scan"}, "is_reserved": 0}, {"lon": -77.02718383333334, "bike_id": "a559c3ee0bae0f3c65d2b4cf7a73e6de", "lat": 38.906635, "fusion_lon": 0.0, "fusion_lat": 0.0, "type": "electric_scooter", "name": "a559c3ee0bae0f3c65d2b4cf7a73e6de", "is_disabled": 0, "rental_uris": {"ios": "https://dc.lft.to/lastmile_qr_scan", "android": "https://dc.lft.to/lastmile_qr_scan"}, "is_reserved": 0}, {"lon": -77.02837166666667, "bike_id": "c13aaf96beb39107baf9a45c7d3165b7", "lat": 38.932782, "fusion_lon": 0.0, "fusion_lat": 0.0, "type": "electric_scooter", "name": "c13aaf96beb39107baf9a45c7d3165b7", "is_disabled": 0, "rental_uris": {"ios": "https://dc.lft.to/lastmile_qr_scan", "android": "https://dc.lft.to/lastmile_qr_scan"}, "is_reserved": 0}, {"lon": -76.9767025, "bike_id": "c27996d6d786ff717a20b841089d489a", "lat": 38.952442, "fusion_lon": 0.0, "fusion_lat": 0.0, "type": "electric_bike", "name": "c27996d6d786ff717a20b841089d489a", "is_disabled": 0, "rental_uris": {"ios": "https://dc.lft.to/lastmile_qr_scan", "android": "https://dc.lft.to/lastmile_qr_scan"}, "is_reserved": 0}, {"lon": -77.07104783333334, "bike_id": "3476344ea4878c17348a76ebe745bcdf", "lat": 38.919738, "fusion_lon": 0.0, "fusion_lat": 0.0, "type": "electric_scooter", "name": "3476344ea4878c17348a76ebe745bcdf", "is_disabled": 0, "rental_uris": {"ios": "https://dc.lft.to/lastmile_qr_scan", "android": "https://dc.lft.to/lastmile_qr_scan"}, "is_reserved": 0}, {"lon": -77.03833316666666, "bike_id": "94b2292e3f96fd9bfbc7a5035c7d0a22", "lat": 38.912674833333334, "fusion_lon": 0.0, "fusion_lat": 0.0, "type": "electric_scooter", "name": "94b2292e3f96fd9bfbc7a5035c7d0a22", "is_disabled": 0, "rental_uris": {"ios": "https://dc.lft.to/lastmile_qr_scan", "android": "https://dc.lft.to/lastmile_qr_scan"}, "is_reserved": 0}, {"lon": -77.041602, "bike_id": "ecadb161abd6d7af4e692000fc8fc663", "lat": 38.912496166666664, "fusion_lon": 0.0, "fusion_lat": 0.0, "type": "electric_scooter", "name": "ecadb161abd6d7af4e692000fc8fc663", "is_disabled": 0, "rental_uris": {"ios": "https://dc.lft.to/lastmile_qr_scan", "android": "https://dc.lft.to/lastmile_qr_scan"}, "is_reserved": 0}, {"lon": -77.02448916666667, "bike_id": "b56eccca4a1a8e80ceaeeded7ccc2a07", "lat": 38.884326333333334, "fusion_lon": 0.0, "fusion_lat": 0.0, "type": "electric_scooter", "name": "b56eccca4a1a8e80ceaeeded7ccc2a07", "is_disabled": 0, "rental_uris": {"ios": "https://dc.lft.to/lastmile_qr_scan", "android": "https://dc.lft.to/lastmile_qr_scan"}, "is_reserved": 0}, {"lon": -77.04805133333333, "bike_id": "e54c90dc6e11ae57222f7d4e5ecd6061", "lat": 38.9140615, "fusion_lon": 0.0, "fusion_lat": 0.0, "type": "electric_scooter", "name": "e54c90dc6e11ae57222f7d4e5ecd6061", "is_disabled": 0, "rental_uris": {"ios": "https://dc.lft.to/lastmile_qr_scan", "android": "https://dc.lft.to/lastmile_qr_scan"}, "is_reserved": 0}, {"lon": -77.0418105, "bike_id": "5838a2b8cc9d0860170316d6111e607a", "lat": 38.892247833333336, "fusion_lon": 0.0, "fusion_lat": 0.0, "type": "electric_scooter", "name": "5838a2b8cc9d0860170316d6111e607a", "is_disabled": 0, "rental_uris": {"ios": "https://dc.lft.to/lastmile_qr_scan", "android": "https://dc.lft.to/lastmile_qr_scan"}, "is_reserved": 0}, {"lon": -76.98237433333334, "bike_id": "00f7c3042a885c10871ebf21267dbb03", "lat": 38.88863666666666, "fusion_lon": 0.0, "fusion_lat": 0.0, "type": "electric_scooter", "name": "00f7c3042a885c10871ebf21267dbb03", "is_disabled": 0, "rental_uris": {"ios": "https://dc.lft.to/lastmile_qr_scan", "android": "https://dc.lft.to/lastmile_qr_scan"}, "is_reserved": 0}, {"lon": -77.030689, "bike_id": "003e6097365727cc2b7702cb7c14bafc", "lat": 38.908071166666666, "fusion_lon": 0.0, "fusion_lat": 0.0, "type": "electric_scooter", "name": "003e6097365727cc2b7702cb7c14bafc", "is_disabled": 0, "rental_uris": {"ios": "https://dc.lft.to/lastmile_qr_scan", "android": "https://dc.lft.to/lastmile_qr_scan"}, "is_reserved": 0}, {"lon": -77.0335565, "bike_id": "7e742128976df4f7529bc1f39750bc6a", "lat": 38.923451166666666, "fusion_lon": 0.0, "fusion_lat": 0.0, "type": "electric_scooter", "name": "7e742128976df4f7529bc1f39750bc6a", "is_disabled": 0, "rental_uris": {"ios": "https://dc.lft.to/lastmile_qr_scan", "android": "https://dc.lft.to/lastmile_qr_scan"}, "is_reserved": 0}, {"lon": -76.99016716666667, "bike_id": "aade0defb54d133c8344fdf148513ad2", "lat": 38.8827395, "fusion_lon": 0.0, "fusion_lat": 0.0, "type": "electric_scooter", "name": "aade0defb54d133c8344fdf148513ad2", "is_disabled": 0, "rental_uris": {"ios": "https://dc.lft.to/lastmile_qr_scan", "android": "https://dc.lft.to/lastmile_qr_scan"}, "is_reserved": 0}, {"lon": -76.931894, "bike_id": "c952f865208cb2a0bbcca7128eff67ae", "lat": 38.898761666666665, "fusion_lon": 0.0, "fusion_lat": 0.0, "type": "electric_scooter", "name": "c952f865208cb2a0bbcca7128eff67ae", "is_disabled": 0, "rental_uris": {"ios": "https://dc.lft.to/lastmile_qr_scan", "android": "https://dc.lft.to/lastmile_qr_scan"}, "is_reserved": 0}, {"lon": -77.00373633333334, "bike_id": "0388cec8a0fbd064800fea57ac46eedc", "lat": 38.897323, "fusion_lon": 0.0, "fusion_lat": 0.0, "type": "electric_scooter", "name": "0388cec8a0fbd064800fea57ac46eedc", "is_disabled": 0, "rental_uris": {"ios": "https://dc.lft.to/lastmile_qr_scan", "android": "https://dc.lft.to/lastmile_qr_scan"}, "is_reserved": 0}, {"lon": -76.98034516666667, "bike_id": "4f8829fcc7d22ae728117afafe2fc2bf", "lat": 38.88965816666666, "fusion_lon": 0.0, "fusion_lat": 0.0, "type": "electric_scooter", "name": "4f8829fcc7d22ae728117afafe2fc2bf", "is_disabled": 0, "rental_uris": {"ios": "https://dc.lft.to/lastmile_qr_scan", "android": "https://dc.lft.to/lastmile_qr_scan"}, "is_reserved": 0}, {"lon": -77.0238705, "bike_id": "24898e175de402a8873ecd5c115aa733", "lat": 38.914402833333334, "fusion_lon": 0.0, "fusion_lat": 0.0, "type": "electric_scooter", "name": "24898e175de402a8873ecd5c115aa733", "is_disabled": 0, "rental_uris": {"ios": "https://dc.lft.to/lastmile_qr_scan", "android": "https://dc.lft.to/lastmile_qr_scan"}, "is_reserved": 0}, {"lon": -77.005678, "bike_id": "894e9dfab5c10e499e6b9fece2269e31", "lat": 38.90558766666667, "fusion_lon": 0.0, "fusion_lat": 0.0, "type": "electric_scooter", "name": "894e9dfab5c10e499e6b9fece2269e31", "is_disabled": 0, "rental_uris": {"ios": "https://dc.lft.to/lastmile_qr_scan", "android": "https://dc.lft.to/lastmile_qr_scan"}, "is_reserved": 0}, {"lon": -77.03286516666667, "bike_id": "ef940d82556f320975a0be9fb60450e5", "lat": 38.9072315, "fusion_lon": 0.0, "fusion_lat": 0.0, "type": "electric_scooter", "name": "ef940d82556f320975a0be9fb60450e5", "is_disabled": 0, "rental_uris": {"ios": "https://dc.lft.to/lastmile_qr_scan", "android": "https://dc.lft.to/lastmile_qr_scan"}, "is_reserved": 0}, {"lon": -76.98384016666667, "bike_id": "34874f798b7b1159e9d7221281bde270", "lat": 38.86631166666667, "fusion_lon": 0.0, "fusion_lat": 0.0, "type": "electric_scooter", "name": "34874f798b7b1159e9d7221281bde270", "is_disabled": 0, "rental_uris": {"ios": "https://dc.lft.to/lastmile_qr_scan", "android": "https://dc.lft.to/lastmile_qr_scan"}, "is_reserved": 0}, {"lon": -77.03607433333333, "bike_id": "92c77b1b593fdd33958effb5d38d43b3", "lat": 38.93483766666667, "fusion_lon": 0.0, "fusion_lat": 0.0, "type": "electric_scooter", "name": "92c77b1b593fdd33958effb5d38d43b3", "is_disabled": 0, "rental_uris": {"ios": "https://dc.lft.to/lastmile_qr_scan", "android": "https://dc.lft.to/lastmile_qr_scan"}, "is_reserved": 0}, {"lon": -76.922126, "bike_id": "2925e054bf269bc6b4da6b2c3bfda5cc", "lat": 38.895027166666665, "fusion_lon": 0.0, "fusion_lat": 0.0, "type": "electric_bike", "name": "2925e054bf269bc6b4da6b2c3bfda5cc", "is_disabled": 0, "rental_uris": {"ios": "https://dc.lft.to/lastmile_qr_scan", "android": "https://dc.lft.to/lastmile_qr_scan"}, "is_reserved": 0}, {"lon": -77.01496266666666, "bike_id": "354278fb81bb4bde1f971137129f562f", "lat": 38.917533, "fusion_lon": 0.0, "fusion_lat": 0.0, "type": "electric_scooter", "name": "354278fb81bb4bde1f971137129f562f", "is_disabled": 0, "rental_uris": {"ios": "https://dc.lft.to/lastmile_qr_scan", "android": "https://dc.lft.to/lastmile_qr_scan"}, "is_reserved": 0}, {"lon": -77.08000766666666, "bike_id": "0980034d25e3e5890af6ee19693c0682", "lat": 38.964849666666666, "fusion_lon": 0.0, "fusion_lat": 0.0, "type": "electric_scooter", "name": "0980034d25e3e5890af6ee19693c0682", "is_disabled": 0, "rental_uris": {"ios": "https://dc.lft.to/lastmile_qr_scan", "android": "https://dc.lft.to/lastmile_qr_scan"}, "is_reserved": 0}, {"lon": -77.07899366666666, "bike_id": "a4140094abd3e2d6cd241546a03d88a8", "lat": 38.839401, "fusion_lon": 0.0, "fusion_lat": 0.0, "type": "electric_bike", "name": "a4140094abd3e2d6cd241546a03d88a8", "is_disabled": 0, "rental_uris": {"ios": "https://dc.lft.to/lastmile_qr_scan", "android": "https://dc.lft.to/lastmile_qr_scan"}, "is_reserved": 0}, {"lon": -76.99949316666667, "bike_id": "b9f4250a11c4e72f044deda958a30e13", "lat": 38.906223, "fusion_lon": 0.0, "fusion_lat": 0.0, "type": "electric_scooter", "name": "b9f4250a11c4e72f044deda958a30e13", "is_disabled": 0, "rental_uris": {"ios": "https://dc.lft.to/lastmile_qr_scan", "android": "https://dc.lft.to/lastmile_qr_scan"}, "is_reserved": 0}, {"lon": -77.0342715, "bike_id": "598b67fded3a0fd112cc8a5f424c6352", "lat": 38.965397833333334, "fusion_lon": 0.0, "fusion_lat": 0.0, "type": "electric_bike", "name": "598b67fded3a0fd112cc8a5f424c6352", "is_disabled": 0, "rental_uris": {"ios": "https://dc.lft.to/lastmile_qr_scan", "android": "https://dc.lft.to/lastmile_qr_scan"}, "is_reserved": 0}, {"lon": -77.0466375, "bike_id": "76e6523c99bb9134db60e4b3c2bb659a", "lat": 38.897810666666665, "fusion_lon": 0.0, "fusion_lat": 0.0, "type": "electric_scooter", "name": "76e6523c99bb9134db60e4b3c2bb659a", "is_disabled": 0, "rental_uris": {"ios": "https://dc.lft.to/lastmile_qr_scan", "android": "https://dc.lft.to/lastmile_qr_scan"}, "is_reserved": 0}, {"lon": -77.03108, "bike_id": "8bd317afa8e6570e3fd7efcbb62e2846", "lat": 38.887399333333335, "fusion_lon": 0.0, "fusion_lat": 0.0, "type": "electric_scooter", "name": "8bd317afa8e6570e3fd7efcbb62e2846", "is_disabled": 0, "rental_uris": {"ios": "https://dc.lft.to/lastmile_qr_scan", "android": "https://dc.lft.to/lastmile_qr_scan"}, "is_reserved": 0}, {"lon": -77.03859, "bike_id": "d4dc85d81cce5263e733e9aab3ef9e29", "lat": 38.91716383333333, "fusion_lon": 0.0, "fusion_lat": 0.0, "type": "electric_scooter", "name": "d4dc85d81cce5263e733e9aab3ef9e29", "is_disabled": 0, "rental_uris": {"ios": "https://dc.lft.to/lastmile_qr_scan", "android": "https://dc.lft.to/lastmile_qr_scan"}, "is_reserved": 0}, {"lon": -77.01246383333333, "bike_id": "fcd8697c6935497f6058ede18ce06d6c", "lat": 38.893054666666664, "fusion_lon": 0.0, "fusion_lat": 0.0, "type": "electric_scooter", "name": "fcd8697c6935497f6058ede18ce06d6c", "is_disabled": 0, "rental_uris": {"ios": "https://dc.lft.to/lastmile_qr_scan", "android": "https://dc.lft.to/lastmile_qr_scan"}, "is_reserved": 0}, {"lon": -76.94879616666667, "bike_id": "4e9937be2e980e13bbecfe00e9f39f27", "lat": 38.895033, "fusion_lon": 0.0, "fusion_lat": 0.0, "type": "electric_scooter", "name": "4e9937be2e980e13bbecfe00e9f39f27", "is_disabled": 0, "rental_uris": {"ios": "https://dc.lft.to/lastmile_qr_scan", "android": "https://dc.lft.to/lastmile_qr_scan"}, "is_reserved": 0}, {"lon": -77.013123, "bike_id": "67f245bb294cfb5764d6ace19d8da697", "lat": 38.900273166666665, "fusion_lon": 0.0, "fusion_lat": 0.0, "type": "electric_scooter", "name": "67f245bb294cfb5764d6ace19d8da697", "is_disabled": 0, "rental_uris": {"ios": "https://dc.lft.to/lastmile_qr_scan", "android": "https://dc.lft.to/lastmile_qr_scan"}, "is_reserved": 0}, {"lon": -77.0451125, "bike_id": "d247b6ac7b25b7938133ea324eb71255", "lat": 38.914219333333335, "fusion_lon": 0.0, "fusion_lat": 0.0, "type": "electric_bike", "name": "d247b6ac7b25b7938133ea324eb71255", "is_disabled": 0, "rental_uris": {"ios": "https://dc.lft.to/lastmile_qr_scan", "android": "https://dc.lft.to/lastmile_qr_scan"}, "is_reserved": 0}, {"lon": -77.0397105, "bike_id": "e80b4b9d00c653211bf29f3142317f48", "lat": 38.906249, "fusion_lon": 0.0, "fusion_lat": 0.0, "type": "electric_scooter", "name": "e80b4b9d00c653211bf29f3142317f48", "is_disabled": 0, "rental_uris": {"ios": "https://dc.lft.to/lastmile_qr_scan", "android": "https://dc.lft.to/lastmile_qr_scan"}, "is_reserved": 0}, {"lon": -77.02752483333333, "bike_id": "824568366f96bedbea2c4d77242add91", "lat": 38.895040333333334, "fusion_lon": 0.0, "fusion_lat": 0.0, "type": "electric_scooter", "name": "824568366f96bedbea2c4d77242add91", "is_disabled": 0, "rental_uris": {"ios": "https://dc.lft.to/lastmile_qr_scan", "android": "https://dc.lft.to/lastmile_qr_scan"}, "is_reserved": 0}, {"lon": -76.99145183333333, "bike_id": "4131e2069ac4e6c3c6c24d89d83541f5", "lat": 38.889731166666664, "fusion_lon": 0.0, "fusion_lat": 0.0, "type": "electric_scooter", "name": "4131e2069ac4e6c3c6c24d89d83541f5", "is_disabled": 0, "rental_uris": {"ios": "https://dc.lft.to/lastmile_qr_scan", "android": "https://dc.lft.to/lastmile_qr_scan"}, "is_reserved": 0}, {"lon": -77.004542, "bike_id": "9c22ca68396f55a4a5cd6f74bfc38313", "lat": 38.876592333333335, "fusion_lon": 0.0, "fusion_lat": 0.0, "type": "electric_scooter", "name": "9c22ca68396f55a4a5cd6f74bfc38313", "is_disabled": 0, "rental_uris": {"ios": "https://dc.lft.to/lastmile_qr_scan", "android": "https://dc.lft.to/lastmile_qr_scan"}, "is_reserved": 0}, {"lon": -77.00594883333333, "bike_id": "5a525da39abbd70fa2cfcb07b1782650", "lat": 38.8729845, "fusion_lon": 0.0, "fusion_lat": 0.0, "type": "electric_scooter", "name": "5a525da39abbd70fa2cfcb07b1782650", "is_disabled": 0, "rental_uris": {"ios": "https://dc.lft.to/lastmile_qr_scan", "android": "https://dc.lft.to/lastmile_qr_scan"}, "is_reserved": 0}, {"lon": -77.01627816666667, "bike_id": "8f803d13aa4e058d0ad340d63f484388", "lat": 38.906900666666665, "fusion_lon": 0.0, "fusion_lat": 0.0, "type": "electric_scooter", "name": "8f803d13aa4e058d0ad340d63f484388", "is_disabled": 0, "rental_uris": {"ios": "https://dc.lft.to/lastmile_qr_scan", "android": "https://dc.lft.to/lastmile_qr_scan"}, "is_reserved": 0}, {"lon": -77.04875583333333, "bike_id": "69a144fd4f11771c676d007d3acd1b43", "lat": 38.89236366666667, "fusion_lon": 0.0, "fusion_lat": 0.0, "type": "electric_scooter", "name": "69a144fd4f11771c676d007d3acd1b43", "is_disabled": 0, "rental_uris": {"ios": "https://dc.lft.to/lastmile_qr_scan", "android": "https://dc.lft.to/lastmile_qr_scan"}, "is_reserved": 0}, {"lon": -76.98834366666667, "bike_id": "4f13601cf9c495db811f8458e674aee9", "lat": 38.901355, "fusion_lon": 0.0, "fusion_lat": 0.0, "type": "electric_scooter", "name": "4f13601cf9c495db811f8458e674aee9", "is_disabled": 0, "rental_uris": {"ios": "https://dc.lft.to/lastmile_qr_scan", "android": "https://dc.lft.to/lastmile_qr_scan"}, "is_reserved": 0}, {"lon": -77.036419, "bike_id": "5a7c23392d34a2430e8199c2294b57ff", "lat": 38.924610666666666, "fusion_lon": 0.0, "fusion_lat": 0.0, "type": "electric_scooter", "name": "5a7c23392d34a2430e8199c2294b57ff", "is_disabled": 0, "rental_uris": {"ios": "https://dc.lft.to/lastmile_qr_scan", "android": "https://dc.lft.to/lastmile_qr_scan"}, "is_reserved": 0}, {"lon": -77.04467233333334, "bike_id": "60241bb18cde2d835e8a13840793b227", "lat": 38.89216233333333, "fusion_lon": 0.0, "fusion_lat": 0.0, "type": "electric_scooter", "name": "60241bb18cde2d835e8a13840793b227", "is_disabled": 0, "rental_uris": {"ios": "https://dc.lft.to/lastmile_qr_scan", "android": "https://dc.lft.to/lastmile_qr_scan"}, "is_reserved": 0}, {"lon": -77.02397733333333, "bike_id": "418c513388126a522f1e06d5d153727b", "lat": 38.90698166666667, "fusion_lon": 0.0, "fusion_lat": 0.0, "type": "electric_scooter", "name": "418c513388126a522f1e06d5d153727b", "is_disabled": 0, "rental_uris": {"ios": "https://dc.lft.to/lastmile_qr_scan", "android": "https://dc.lft.to/lastmile_qr_scan"}, "is_reserved": 0}, {"lon": -77.0209275, "bike_id": "6db039339a333cce76709109bf473bca", "lat": 38.92707933333333, "fusion_lon": 0.0, "fusion_lat": 0.0, "type": "electric_scooter", "name": "6db039339a333cce76709109bf473bca", "is_disabled": 0, "rental_uris": {"ios": "https://dc.lft.to/lastmile_qr_scan", "android": "https://dc.lft.to/lastmile_qr_scan"}, "is_reserved": 0}, {"lon": -77.02963383333334, "bike_id": "5466c460fc20baf0505c41e8b06474c6", "lat": 38.905012666666664, "fusion_lon": 0.0, "fusion_lat": 0.0, "type": "electric_scooter", "name": "5466c460fc20baf0505c41e8b06474c6", "is_disabled": 0, "rental_uris": {"ios": "https://dc.lft.to/lastmile_qr_scan", "android": "https://dc.lft.to/lastmile_qr_scan"}, "is_reserved": 0}, {"lon": -77.014803, "bike_id": "033f708dc1c804b417b05b2baa9d86c3", "lat": 38.91914583333333, "fusion_lon": 0.0, "fusion_lat": 0.0, "type": "electric_scooter", "name": "033f708dc1c804b417b05b2baa9d86c3", "is_disabled": 0, "rental_uris": {"ios": "https://dc.lft.to/lastmile_qr_scan", "android": "https://dc.lft.to/lastmile_qr_scan"}, "is_reserved": 0}, {"lon": -77.09492, "bike_id": "6cb3169fb646b220fe4d5e458621d1e3", "lat": 38.807658833333335, "fusion_lon": 0.0, "fusion_lat": 0.0, "type": "electric_bike", "name": "6cb3169fb646b220fe4d5e458621d1e3", "is_disabled": 0, "rental_uris": {"ios": "https://dc.lft.to/lastmile_qr_scan", "android": "https://dc.lft.to/lastmile_qr_scan"}, "is_reserved": 0}, {"lon": -77.042179, "bike_id": "6e701f5c38533942e0d2cdf1fa1ce12d", "lat": 38.921275, "fusion_lon": 0.0, "fusion_lat": 0.0, "type": "electric_scooter", "name": "6e701f5c38533942e0d2cdf1fa1ce12d", "is_disabled": 0, "rental_uris": {"ios": "https://dc.lft.to/lastmile_qr_scan", "android": "https://dc.lft.to/lastmile_qr_scan"}, "is_reserved": 0}, {"lon": -77.026867, "bike_id": "5a6e93b5d5debc9c46ff65cb8f3b5238", "lat": 38.90457983333334, "fusion_lon": 0.0, "fusion_lat": 0.0, "type": "electric_scooter", "name": "5a6e93b5d5debc9c46ff65cb8f3b5238", "is_disabled": 0, "rental_uris": {"ios": "https://dc.lft.to/lastmile_qr_scan", "android": "https://dc.lft.to/lastmile_qr_scan"}, "is_reserved": 0}, {"lon": -77.022089, "bike_id": "e59e6335f4cb29cd431384ad2aff2df5", "lat": 38.90561266666667, "fusion_lon": 0.0, "fusion_lat": 0.0, "type": "electric_scooter", "name": "e59e6335f4cb29cd431384ad2aff2df5", "is_disabled": 0, "rental_uris": {"ios": "https://dc.lft.to/lastmile_qr_scan", "android": "https://dc.lft.to/lastmile_qr_scan"}, "is_reserved": 0}, {"lon": -77.01209216666666, "bike_id": "03e00ff78ba9940ce81c61585a1eed40", "lat": 38.900137666666666, "fusion_lon": 0.0, "fusion_lat": 0.0, "type": "electric_bike", "name": "03e00ff78ba9940ce81c61585a1eed40", "is_disabled": 0, "rental_uris": {"ios": "https://dc.lft.to/lastmile_qr_scan", "android": "https://dc.lft.to/lastmile_qr_scan"}, "is_reserved": 0}, {"lon": -77.045026, "bike_id": "f78df937858eaf8879161def4bf15382", "lat": 38.89788716666666, "fusion_lon": 0.0, "fusion_lat": 0.0, "type": "electric_scooter", "name": "f78df937858eaf8879161def4bf15382", "is_disabled": 0, "rental_uris": {"ios": "https://dc.lft.to/lastmile_qr_scan", "android": "https://dc.lft.to/lastmile_qr_scan"}, "is_reserved": 0}, {"lon": -77.02378766666666, "bike_id": "61b40ff9d32164fe2f8f52143e769acd", "lat": 38.920112333333336, "fusion_lon": 0.0, "fusion_lat": 0.0, "type": "electric_scooter", "name": "61b40ff9d32164fe2f8f52143e769acd", "is_disabled": 0, "rental_uris": {"ios": "https://dc.lft.to/lastmile_qr_scan", "android": "https://dc.lft.to/lastmile_qr_scan"}, "is_reserved": 0}, {"lon": -77.02401716666667, "bike_id": "a0d86287322a40c819ded41e8d9abedc", "lat": 38.931020833333335, "fusion_lon": 0.0, "fusion_lat": 0.0, "type": "electric_scooter", "name": "a0d86287322a40c819ded41e8d9abedc", "is_disabled": 0, "rental_uris": {"ios": "https://dc.lft.to/lastmile_qr_scan", "android": "https://dc.lft.to/lastmile_qr_scan"}, "is_reserved": 0}, {"lon": -77.03869866666666, "bike_id": "7697188c6dcf0e4e203c0c838716f24e", "lat": 38.90281233333333, "fusion_lon": 0.0, "fusion_lat": 0.0, "type": "electric_scooter", "name": "7697188c6dcf0e4e203c0c838716f24e", "is_disabled": 0, "rental_uris": {"ios": "https://dc.lft.to/lastmile_qr_scan", "android": "https://dc.lft.to/lastmile_qr_scan"}, "is_reserved": 0}, {"lon": -77.02590233333333, "bike_id": "75e1b86620113963e40d1e65f6513d93", "lat": 38.9639635, "fusion_lon": 0.0, "fusion_lat": 0.0, "type": "electric_scooter", "name": "75e1b86620113963e40d1e65f6513d93", "is_disabled": 0, "rental_uris": {"ios": "https://dc.lft.to/lastmile_qr_scan", "android": "https://dc.lft.to/lastmile_qr_scan"}, "is_reserved": 0}, {"lon": -77.04510166666667, "bike_id": "4ece93fe0d0d2ab4b4862ca7ef55627c", "lat": 38.935345833333336, "fusion_lon": 0.0, "fusion_lat": 0.0, "type": "electric_scooter", "name": "4ece93fe0d0d2ab4b4862ca7ef55627c", "is_disabled": 0, "rental_uris": {"ios": "https://dc.lft.to/lastmile_qr_scan", "android": "https://dc.lft.to/lastmile_qr_scan"}, "is_reserved": 0}, {"lon": -77.0327215, "bike_id": "73931a9d4f8820204d8f1f58a317801c", "lat": 38.919883666666664, "fusion_lon": 0.0, "fusion_lat": 0.0, "type": "electric_scooter", "name": "73931a9d4f8820204d8f1f58a317801c", "is_disabled": 0, "rental_uris": {"ios": "https://dc.lft.to/lastmile_qr_scan", "android": "https://dc.lft.to/lastmile_qr_scan"}, "is_reserved": 0}, {"lon": -76.93733933333333, "bike_id": "6219c2bb377b80f53b82405e2277a1d4", "lat": 38.890155666666665, "fusion_lon": 0.0, "fusion_lat": 0.0, "type": "electric_scooter", "name": "6219c2bb377b80f53b82405e2277a1d4", "is_disabled": 0, "rental_uris": {"ios": "https://dc.lft.to/lastmile_qr_scan", "android": "https://dc.lft.to/lastmile_qr_scan"}, "is_reserved": 0}, {"lon": -77.02975966666666, "bike_id": "4e93b1d933b6abc6bfd51d9c91f4f5c8", "lat": 38.92871566666667, "fusion_lon": 0.0, "fusion_lat": 0.0, "type": "electric_scooter", "name": "4e93b1d933b6abc6bfd51d9c91f4f5c8", "is_disabled": 0, "rental_uris": {"ios": "https://dc.lft.to/lastmile_qr_scan", "android": "https://dc.lft.to/lastmile_qr_scan"}, "is_reserved": 0}, {"lon": -77.02056566666667, "bike_id": "faf9bee8bf1d8b5bb803bd8e656f3727", "lat": 38.95757966666667, "fusion_lon": 0.0, "fusion_lat": 0.0, "type": "electric_bike", "name": "faf9bee8bf1d8b5bb803bd8e656f3727", "is_disabled": 0, "rental_uris": {"ios": "https://dc.lft.to/lastmile_qr_scan", "android": "https://dc.lft.to/lastmile_qr_scan"}, "is_reserved": 0}, {"lon": -76.9871335, "bike_id": "16810895d9a72ee112261725bac8e9f6", "lat": 38.867019, "fusion_lon": 0.0, "fusion_lat": 0.0, "type": "electric_scooter", "name": "16810895d9a72ee112261725bac8e9f6", "is_disabled": 0, "rental_uris": {"ios": "https://dc.lft.to/lastmile_qr_scan", "android": "https://dc.lft.to/lastmile_qr_scan"}, "is_reserved": 0}, {"lon": -77.04506116666667, "bike_id": "1a2d9ce4b5979760acf6b2d1594f3489", "lat": 38.90377, "fusion_lon": 0.0, "fusion_lat": 0.0, "type": "electric_scooter", "name": "1a2d9ce4b5979760acf6b2d1594f3489", "is_disabled": 0, "rental_uris": {"ios": "https://dc.lft.to/lastmile_qr_scan", "android": "https://dc.lft.to/lastmile_qr_scan"}, "is_reserved": 0}, {"lon": -77.03205383333334, "bike_id": "371e9f350c94e8a4253f2a78873b1761", "lat": 38.8936475, "fusion_lon": 0.0, "fusion_lat": 0.0, "type": "electric_scooter", "name": "371e9f350c94e8a4253f2a78873b1761", "is_disabled": 0, "rental_uris": {"ios": "https://dc.lft.to/lastmile_qr_scan", "android": "https://dc.lft.to/lastmile_qr_scan"}, "is_reserved": 0}, {"lon": -76.98232333333333, "bike_id": "6fb84e00b32dd86f21f22feb80104006", "lat": 38.868945833333335, "fusion_lon": 0.0, "fusion_lat": 0.0, "type": "electric_scooter", "name": "6fb84e00b32dd86f21f22feb80104006", "is_disabled": 0, "rental_uris": {"ios": "https://dc.lft.to/lastmile_qr_scan", "android": "https://dc.lft.to/lastmile_qr_scan"}, "is_reserved": 0}, {"lon": -76.9919235, "bike_id": "02592cbb9776ec214af81d2039d63db8", "lat": 38.8628455, "fusion_lon": 0.0, "fusion_lat": 0.0, "type": "electric_scooter", "name": "02592cbb9776ec214af81d2039d63db8", "is_disabled": 0, "rental_uris": {"ios": "https://dc.lft.to/lastmile_qr_scan", "android": "https://dc.lft.to/lastmile_qr_scan"}, "is_reserved": 0}, {"lon": -77.04146283333333, "bike_id": "11d76014a4e413710136100e78893a19", "lat": 38.90553233333333, "fusion_lon": 0.0, "fusion_lat": 0.0, "type": "electric_scooter", "name": "11d76014a4e413710136100e78893a19", "is_disabled": 0, "rental_uris": {"ios": "https://dc.lft.to/lastmile_qr_scan", "android": "https://dc.lft.to/lastmile_qr_scan"}, "is_reserved": 0}, {"lon": -77.03860666666667, "bike_id": "457b65ce1945711c59bd9bdc6aed314f", "lat": 38.91281883333333, "fusion_lon": 0.0, "fusion_lat": 0.0, "type": "electric_scooter", "name": "457b65ce1945711c59bd9bdc6aed314f", "is_disabled": 0, "rental_uris": {"ios": "https://dc.lft.to/lastmile_qr_scan", "android": "https://dc.lft.to/lastmile_qr_scan"}, "is_reserved": 0}, {"lon": -77.0432635, "bike_id": "b262b283bd7f704fab0d56dc8f22bec3", "lat": 38.9023615, "fusion_lon": 0.0, "fusion_lat": 0.0, "type": "electric_scooter", "name": "b262b283bd7f704fab0d56dc8f22bec3", "is_disabled": 0, "rental_uris": {"ios": "https://dc.lft.to/lastmile_qr_scan", "android": "https://dc.lft.to/lastmile_qr_scan"}, "is_reserved": 0}, {"lon": -77.01612816666666, "bike_id": "34bd4157f94913ce5a007d356c575821", "lat": 38.8996545, "fusion_lon": 0.0, "fusion_lat": 0.0, "type": "electric_scooter", "name": "34bd4157f94913ce5a007d356c575821", "is_disabled": 0, "rental_uris": {"ios": "https://dc.lft.to/lastmile_qr_scan", "android": "https://dc.lft.to/lastmile_qr_scan"}, "is_reserved": 0}, {"lon": -77.0399035, "bike_id": "a4d3e40e7efb8e48b427e01b0f153259", "lat": 38.93338116666666, "fusion_lon": 0.0, "fusion_lat": 0.0, "type": "electric_scooter", "name": "a4d3e40e7efb8e48b427e01b0f153259", "is_disabled": 0, "rental_uris": {"ios": "https://dc.lft.to/lastmile_qr_scan", "android": "https://dc.lft.to/lastmile_qr_scan"}, "is_reserved": 0}, {"lon": -77.02000516666666, "bike_id": "75e92aea0995eadcb1cf3d303dbc098e", "lat": 38.91529083333333, "fusion_lon": 0.0, "fusion_lat": 0.0, "type": "electric_scooter", "name": "75e92aea0995eadcb1cf3d303dbc098e", "is_disabled": 0, "rental_uris": {"ios": "https://dc.lft.to/lastmile_qr_scan", "android": "https://dc.lft.to/lastmile_qr_scan"}, "is_reserved": 0}, {"lon": -77.05858766666667, "bike_id": "a44f87dc6e22a3eae937206b6623081d", "lat": 38.93547483333333, "fusion_lon": 0.0, "fusion_lat": 0.0, "type": "electric_scooter", "name": "a44f87dc6e22a3eae937206b6623081d", "is_disabled": 0, "rental_uris": {"ios": "https://dc.lft.to/lastmile_qr_scan", "android": "https://dc.lft.to/lastmile_qr_scan"}, "is_reserved": 0}, {"lon": -76.9978965, "bike_id": "342909a1e1ea3d7cf9dc77521bc91282", "lat": 38.95642983333333, "fusion_lon": 0.0, "fusion_lat": 0.0, "type": "electric_bike", "name": "342909a1e1ea3d7cf9dc77521bc91282", "is_disabled": 0, "rental_uris": {"ios": "https://dc.lft.to/lastmile_qr_scan", "android": "https://dc.lft.to/lastmile_qr_scan"}, "is_reserved": 0}, {"lon": -77.02181833333333, "bike_id": "f762181b11f31b9f8e4df6f81b5eb5a1", "lat": 38.909822, "fusion_lon": 0.0, "fusion_lat": 0.0, "type": "electric_scooter", "name": "f762181b11f31b9f8e4df6f81b5eb5a1", "is_disabled": 0, "rental_uris": {"ios": "https://dc.lft.to/lastmile_qr_scan", "android": "https://dc.lft.to/lastmile_qr_scan"}, "is_reserved": 0}, {"lon": -77.04191716666666, "bike_id": "5a31130a8d7247c7377b1176aba2ee84", "lat": 38.899826, "fusion_lon": 0.0, "fusion_lat": 0.0, "type": "electric_scooter", "name": "5a31130a8d7247c7377b1176aba2ee84", "is_disabled": 0, "rental_uris": {"ios": "https://dc.lft.to/lastmile_qr_scan", "android": "https://dc.lft.to/lastmile_qr_scan"}, "is_reserved": 0}, {"lon": -77.0484885, "bike_id": "8840c24f963f3a66cd2a0c96fe73b299", "lat": 38.9151925, "fusion_lon": 0.0, "fusion_lat": 0.0, "type": "electric_scooter", "name": "8840c24f963f3a66cd2a0c96fe73b299", "is_disabled": 0, "rental_uris": {"ios": "https://dc.lft.to/lastmile_qr_scan", "android": "https://dc.lft.to/lastmile_qr_scan"}, "is_reserved": 0}, {"lon": -77.02208866666666, "bike_id": "086397b335fe1131a9a44bc38e123bc0", "lat": 38.887319, "fusion_lon": 0.0, "fusion_lat": 0.0, "type": "electric_scooter", "name": "086397b335fe1131a9a44bc38e123bc0", "is_disabled": 0, "rental_uris": {"ios": "https://dc.lft.to/lastmile_qr_scan", "android": "https://dc.lft.to/lastmile_qr_scan"}, "is_reserved": 0}, {"lon": -77.0418155, "bike_id": "2503a9cfe41ac67aa71a8d8eec7838a9", "lat": 38.919804, "fusion_lon": 0.0, "fusion_lat": 0.0, "type": "electric_scooter", "name": "2503a9cfe41ac67aa71a8d8eec7838a9", "is_disabled": 0, "rental_uris": {"ios": "https://dc.lft.to/lastmile_qr_scan", "android": "https://dc.lft.to/lastmile_qr_scan"}, "is_reserved": 0}, {"lon": -77.03841066666666, "bike_id": "a322db387dbee3d0d923e86470061e98", "lat": 38.910374166666664, "fusion_lon": 0.0, "fusion_lat": 0.0, "type": "electric_scooter", "name": "a322db387dbee3d0d923e86470061e98", "is_disabled": 0, "rental_uris": {"ios": "https://dc.lft.to/lastmile_qr_scan", "android": "https://dc.lft.to/lastmile_qr_scan"}, "is_reserved": 0}, {"lon": -77.02571383333333, "bike_id": "5670e0faea61764a0026b6d74bee28af", "lat": 38.8828765, "fusion_lon": 0.0, "fusion_lat": 0.0, "type": "electric_scooter", "name": "5670e0faea61764a0026b6d74bee28af", "is_disabled": 0, "rental_uris": {"ios": "https://dc.lft.to/lastmile_qr_scan", "android": "https://dc.lft.to/lastmile_qr_scan"}, "is_reserved": 0}, {"lon": -76.97326583333333, "bike_id": "5e38f46b00b7d99008f8e8a950b99351", "lat": 38.90478066666667, "fusion_lon": 0.0, "fusion_lat": 0.0, "type": "electric_bike", "name": "5e38f46b00b7d99008f8e8a950b99351", "is_disabled": 0, "rental_uris": {"ios": "https://dc.lft.to/lastmile_qr_scan", "android": "https://dc.lft.to/lastmile_qr_scan"}, "is_reserved": 0}, {"lon": -77.05875666666667, "bike_id": "60c9c7c2f9b907e030053262db2f80ac", "lat": 38.935810333333336, "fusion_lon": 0.0, "fusion_lat": 0.0, "type": "electric_scooter", "name": "60c9c7c2f9b907e030053262db2f80ac", "is_disabled": 0, "rental_uris": {"ios": "https://dc.lft.to/lastmile_qr_scan", "android": "https://dc.lft.to/lastmile_qr_scan"}, "is_reserved": 0}, {"lon": -77.0240135, "bike_id": "95f8593c1f1a52406006def35f533f7c", "lat": 38.88138716666667, "fusion_lon": 0.0, "fusion_lat": 0.0, "type": "electric_scooter", "name": "95f8593c1f1a52406006def35f533f7c", "is_disabled": 0, "rental_uris": {"ios": "https://dc.lft.to/lastmile_qr_scan", "android": "https://dc.lft.to/lastmile_qr_scan"}, "is_reserved": 0}, {"lon": -77.03287616666667, "bike_id": "1b34a5abf0e66136552c6fe8a99940ff", "lat": 38.9564985, "fusion_lon": 0.0, "fusion_lat": 0.0, "type": "electric_scooter", "name": "1b34a5abf0e66136552c6fe8a99940ff", "is_disabled": 0, "rental_uris": {"ios": "https://dc.lft.to/lastmile_qr_scan", "android": "https://dc.lft.to/lastmile_qr_scan"}, "is_reserved": 0}, {"lon": -76.9636425, "bike_id": "104a9c603c60b1fdf14ae5eabb52d661", "lat": 38.93495083333333, "fusion_lon": 0.0, "fusion_lat": 0.0, "type": "electric_scooter", "name": "104a9c603c60b1fdf14ae5eabb52d661", "is_disabled": 0, "rental_uris": {"ios": "https://dc.lft.to/lastmile_qr_scan", "android": "https://dc.lft.to/lastmile_qr_scan"}, "is_reserved": 0}, {"lon": -77.0385175, "bike_id": "63e7d76f8a994e3bcd4c380c9b083a1d", "lat": 38.91546183333333, "fusion_lon": 0.0, "fusion_lat": 0.0, "type": "electric_scooter", "name": "63e7d76f8a994e3bcd4c380c9b083a1d", "is_disabled": 0, "rental_uris": {"ios": "https://dc.lft.to/lastmile_qr_scan", "android": "https://dc.lft.to/lastmile_qr_scan"}, "is_reserved": 0}, {"lon": -77.03816116666667, "bike_id": "b31e55de0ab5e67131ac2b416524f439", "lat": 38.930937, "fusion_lon": 0.0, "fusion_lat": 0.0, "type": "electric_scooter", "name": "b31e55de0ab5e67131ac2b416524f439", "is_disabled": 0, "rental_uris": {"ios": "https://dc.lft.to/lastmile_qr_scan", "android": "https://dc.lft.to/lastmile_qr_scan"}, "is_reserved": 0}, {"lon": -77.03516333333333, "bike_id": "0de8c597bd58ff42e40e37183edcfa47", "lat": 38.9213925, "fusion_lon": 0.0, "fusion_lat": 0.0, "type": "electric_scooter", "name": "0de8c597bd58ff42e40e37183edcfa47", "is_disabled": 0, "rental_uris": {"ios": "https://dc.lft.to/lastmile_qr_scan", "android": "https://dc.lft.to/lastmile_qr_scan"}, "is_reserved": 0}, {"lon": -77.021189, "bike_id": "f16d87e02176917908e3da992eb4f873", "lat": 38.93696533333333, "fusion_lon": 0.0, "fusion_lat": 0.0, "type": "electric_scooter", "name": "f16d87e02176917908e3da992eb4f873", "is_disabled": 0, "rental_uris": {"ios": "https://dc.lft.to/lastmile_qr_scan", "android": "https://dc.lft.to/lastmile_qr_scan"}, "is_reserved": 0}, {"lon": -77.04689716666667, "bike_id": "8cd582b1ddc449e8ceb52a3b64c5c50a", "lat": 38.89223416666667, "fusion_lon": 0.0, "fusion_lat": 0.0, "type": "electric_scooter", "name": "8cd582b1ddc449e8ceb52a3b64c5c50a", "is_disabled": 0, "rental_uris": {"ios": "https://dc.lft.to/lastmile_qr_scan", "android": "https://dc.lft.to/lastmile_qr_scan"}, "is_reserved": 0}, {"lon": -77.00916716666667, "bike_id": "3f6d91693d9b579e0dd6dd8d2b37bd71", "lat": 38.827856833333335, "fusion_lon": 0.0, "fusion_lat": 0.0, "type": "electric_bike", "name": "3f6d91693d9b579e0dd6dd8d2b37bd71", "is_disabled": 0, "rental_uris": {"ios": "https://dc.lft.to/lastmile_qr_scan", "android": "https://dc.lft.to/lastmile_qr_scan"}, "is_reserved": 0}, {"lon": -77.04689133333333, "bike_id": "0eba54d4080be66570ea28a49500a11f", "lat": 38.89221333333333, "fusion_lon": 0.0, "fusion_lat": 0.0, "type": "electric_scooter", "name": "0eba54d4080be66570ea28a49500a11f", "is_disabled": 0, "rental_uris": {"ios": "https://dc.lft.to/lastmile_qr_scan", "android": "https://dc.lft.to/lastmile_qr_scan"}, "is_reserved": 0}, {"lon": -77.029512, "bike_id": "2fffc50627ca2a13f98775373d88311b", "lat": 38.906662833333336, "fusion_lon": 0.0, "fusion_lat": 0.0, "type": "electric_scooter", "name": "2fffc50627ca2a13f98775373d88311b", "is_disabled": 0, "rental_uris": {"ios": "https://dc.lft.to/lastmile_qr_scan", "android": "https://dc.lft.to/lastmile_qr_scan"}, "is_reserved": 0}, {"lon": -76.95895633333333, "bike_id": "e92b3df7f2d4be90f89def503ed35733", "lat": 38.8901365, "fusion_lon": 0.0, "fusion_lat": 0.0, "type": "electric_scooter", "name": "e92b3df7f2d4be90f89def503ed35733", "is_disabled": 0, "rental_uris": {"ios": "https://dc.lft.to/lastmile_qr_scan", "android": "https://dc.lft.to/lastmile_qr_scan"}, "is_reserved": 0}, {"lon": -77.02407283333334, "bike_id": "78130c8ffffc77d7f0562320861c2cae", "lat": 38.90421666666667, "fusion_lon": 0.0, "fusion_lat": 0.0, "type": "electric_scooter", "name": "78130c8ffffc77d7f0562320861c2cae", "is_disabled": 0, "rental_uris": {"ios": "https://dc.lft.to/lastmile_qr_scan", "android": "https://dc.lft.to/lastmile_qr_scan"}, "is_reserved": 0}, {"lon": -77.04137033333333, "bike_id": "715b758090aff763a676b9bf6f2a4498", "lat": 38.9236675, "fusion_lon": 0.0, "fusion_lat": 0.0, "type": "electric_scooter", "name": "715b758090aff763a676b9bf6f2a4498", "is_disabled": 0, "rental_uris": {"ios": "https://dc.lft.to/lastmile_qr_scan", "android": "https://dc.lft.to/lastmile_qr_scan"}, "is_reserved": 0}, {"lon": -77.03333216666667, "bike_id": "2a74b8afcd42e1e551a163786eb96446", "lat": 38.90961716666666, "fusion_lon": 0.0, "fusion_lat": 0.0, "type": "electric_scooter", "name": "2a74b8afcd42e1e551a163786eb96446", "is_disabled": 0, "rental_uris": {"ios": "https://dc.lft.to/lastmile_qr_scan", "android": "https://dc.lft.to/lastmile_qr_scan"}, "is_reserved": 0}, {"lon": -77.03187716666666, "bike_id": "3318b93e4d7d0a377c935c06ecdfb7c6", "lat": 38.892201166666666, "fusion_lon": 0.0, "fusion_lat": 0.0, "type": "electric_scooter", "name": "3318b93e4d7d0a377c935c06ecdfb7c6", "is_disabled": 0, "rental_uris": {"ios": "https://dc.lft.to/lastmile_qr_scan", "android": "https://dc.lft.to/lastmile_qr_scan"}, "is_reserved": 0}, {"lon": -77.0176965, "bike_id": "9538372dc6c141aab894e81d43015424", "lat": 38.902498, "fusion_lon": 0.0, "fusion_lat": 0.0, "type": "electric_scooter", "name": "9538372dc6c141aab894e81d43015424", "is_disabled": 0, "rental_uris": {"ios": "https://dc.lft.to/lastmile_qr_scan", "android": "https://dc.lft.to/lastmile_qr_scan"}, "is_reserved": 0}, {"lon": -77.03192083333333, "bike_id": "0682191fd5fb604b48b5ad657049c79e", "lat": 38.93052433333333, "fusion_lon": 0.0, "fusion_lat": 0.0, "type": "electric_scooter", "name": "0682191fd5fb604b48b5ad657049c79e", "is_disabled": 0, "rental_uris": {"ios": "https://dc.lft.to/lastmile_qr_scan", "android": "https://dc.lft.to/lastmile_qr_scan"}, "is_reserved": 0}, {"lon": -77.02580883333333, "bike_id": "30bd39c74c7bfcb394dbb631fb33fad6", "lat": 38.9319175, "fusion_lon": 0.0, "fusion_lat": 0.0, "type": "electric_scooter", "name": "30bd39c74c7bfcb394dbb631fb33fad6", "is_disabled": 0, "rental_uris": {"ios": "https://dc.lft.to/lastmile_qr_scan", "android": "https://dc.lft.to/lastmile_qr_scan"}, "is_reserved": 0}, {"lon": -77.0036465, "bike_id": "a1064ebddc599551e6366f15d5de46ec", "lat": 38.89661316666667, "fusion_lon": 0.0, "fusion_lat": 0.0, "type": "electric_scooter", "name": "a1064ebddc599551e6366f15d5de46ec", "is_disabled": 0, "rental_uris": {"ios": "https://dc.lft.to/lastmile_qr_scan", "android": "https://dc.lft.to/lastmile_qr_scan"}, "is_reserved": 0}, {"lon": -77.021819, "bike_id": "aea32a4dab721ecd9302912d192e74a1", "lat": 38.915274333333336, "fusion_lon": 0.0, "fusion_lat": 0.0, "type": "electric_scooter", "name": "aea32a4dab721ecd9302912d192e74a1", "is_disabled": 0, "rental_uris": {"ios": "https://dc.lft.to/lastmile_qr_scan", "android": "https://dc.lft.to/lastmile_qr_scan"}, "is_reserved": 0}, {"lon": -77.02739433333333, "bike_id": "c76a1d77984532153fbed2f4353b12ce", "lat": 38.93210116666667, "fusion_lon": 0.0, "fusion_lat": 0.0, "type": "electric_scooter", "name": "c76a1d77984532153fbed2f4353b12ce", "is_disabled": 0, "rental_uris": {"ios": "https://dc.lft.to/lastmile_qr_scan", "android": "https://dc.lft.to/lastmile_qr_scan"}, "is_reserved": 0}, {"lon": -77.02376283333334, "bike_id": "43162f874020f97a882aed73a13689bb", "lat": 38.9178025, "fusion_lon": 0.0, "fusion_lat": 0.0, "type": "electric_scooter", "name": "43162f874020f97a882aed73a13689bb", "is_disabled": 0, "rental_uris": {"ios": "https://dc.lft.to/lastmile_qr_scan", "android": "https://dc.lft.to/lastmile_qr_scan"}, "is_reserved": 0}, {"lon": -77.01967433333333, "bike_id": "b40c928e7464b1dc4cc283ff3475807c", "lat": 38.88388666666667, "fusion_lon": 0.0, "fusion_lat": 0.0, "type": "electric_scooter", "name": "b40c928e7464b1dc4cc283ff3475807c", "is_disabled": 0, "rental_uris": {"ios": "https://dc.lft.to/lastmile_qr_scan", "android": "https://dc.lft.to/lastmile_qr_scan"}, "is_reserved": 0}, {"lon": -77.03515616666667, "bike_id": "23322161d7a0a5f21f9c53d7d6bcb9e3", "lat": 38.935933, "fusion_lon": 0.0, "fusion_lat": 0.0, "type": "electric_bike", "name": "23322161d7a0a5f21f9c53d7d6bcb9e3", "is_disabled": 0, "rental_uris": {"ios": "https://dc.lft.to/lastmile_qr_scan", "android": "https://dc.lft.to/lastmile_qr_scan"}, "is_reserved": 0}, {"lon": -77.02159366666666, "bike_id": "fa372b157ebf31c67cf175455b119025", "lat": 38.926849, "fusion_lon": 0.0, "fusion_lat": 0.0, "type": "electric_scooter", "name": "fa372b157ebf31c67cf175455b119025", "is_disabled": 0, "rental_uris": {"ios": "https://dc.lft.to/lastmile_qr_scan", "android": "https://dc.lft.to/lastmile_qr_scan"}, "is_reserved": 0}, {"lon": -77.02210416666667, "bike_id": "5cd1313606ea416ae093d5c8ae38db60", "lat": 38.90561666666667, "fusion_lon": 0.0, "fusion_lat": 0.0, "type": "electric_scooter", "name": "5cd1313606ea416ae093d5c8ae38db60", "is_disabled": 0, "rental_uris": {"ios": "https://dc.lft.to/lastmile_qr_scan", "android": "https://dc.lft.to/lastmile_qr_scan"}, "is_reserved": 0}, {"lon": -77.03228133333333, "bike_id": "fe7df91754eafa6aabfdb68f0e34c932", "lat": 38.897540666666664, "fusion_lon": 0.0, "fusion_lat": 0.0, "type": "electric_scooter", "name": "fe7df91754eafa6aabfdb68f0e34c932", "is_disabled": 0, "rental_uris": {"ios": "https://dc.lft.to/lastmile_qr_scan", "android": "https://dc.lft.to/lastmile_qr_scan"}, "is_reserved": 0}, {"lon": -77.02010233333333, "bike_id": "8180115d5e25d0a2a6ed63c1fb8842f5", "lat": 38.924218, "fusion_lon": 0.0, "fusion_lat": 0.0, "type": "electric_scooter", "name": "8180115d5e25d0a2a6ed63c1fb8842f5", "is_disabled": 0, "rental_uris": {"ios": "https://dc.lft.to/lastmile_qr_scan", "android": "https://dc.lft.to/lastmile_qr_scan"}, "is_reserved": 0}, {"lon": -76.98985783333333, "bike_id": "51e52482fe0b0f5cf55f39ea1da9e4e1", "lat": 38.9335845, "fusion_lon": 0.0, "fusion_lat": 0.0, "type": "electric_scooter", "name": "51e52482fe0b0f5cf55f39ea1da9e4e1", "is_disabled": 0, "rental_uris": {"ios": "https://dc.lft.to/lastmile_qr_scan", "android": "https://dc.lft.to/lastmile_qr_scan"}, "is_reserved": 0}, {"lon": -77.05745866666666, "bike_id": "d9b35631c4fb486b779f279252637613", "lat": 38.93349116666667, "fusion_lon": 0.0, "fusion_lat": 0.0, "type": "electric_scooter", "name": "d9b35631c4fb486b779f279252637613", "is_disabled": 0, "rental_uris": {"ios": "https://dc.lft.to/lastmile_qr_scan", "android": "https://dc.lft.to/lastmile_qr_scan"}, "is_reserved": 0}, {"lon": -77.032765, "bike_id": "b13fca58545a73eb3ae046bc93790a89", "lat": 38.90129733333333, "fusion_lon": 0.0, "fusion_lat": 0.0, "type": "electric_scooter", "name": "b13fca58545a73eb3ae046bc93790a89", "is_disabled": 0, "rental_uris": {"ios": "https://dc.lft.to/lastmile_qr_scan", "android": "https://dc.lft.to/lastmile_qr_scan"}, "is_reserved": 0}, {"lon": -76.99029883333333, "bike_id": "711568f12e9468fbd10f581652be957f", "lat": 38.888728666666665, "fusion_lon": 0.0, "fusion_lat": 0.0, "type": "electric_scooter", "name": "711568f12e9468fbd10f581652be957f", "is_disabled": 0, "rental_uris": {"ios": "https://dc.lft.to/lastmile_qr_scan", "android": "https://dc.lft.to/lastmile_qr_scan"}, "is_reserved": 0}, {"lon": -76.98023616666667, "bike_id": "453783a62cbdc9e31105077962e57199", "lat": 38.85321, "fusion_lon": 0.0, "fusion_lat": 0.0, "type": "electric_bike", "name": "453783a62cbdc9e31105077962e57199", "is_disabled": 0, "rental_uris": {"ios": "https://dc.lft.to/lastmile_qr_scan", "android": "https://dc.lft.to/lastmile_qr_scan"}, "is_reserved": 0}, {"lon": -77.03665083333334, "bike_id": "73fe0f1bf0c52f1d8ff8f090d2969063", "lat": 38.91711683333333, "fusion_lon": 0.0, "fusion_lat": 0.0, "type": "electric_scooter", "name": "73fe0f1bf0c52f1d8ff8f090d2969063", "is_disabled": 0, "rental_uris": {"ios": "https://dc.lft.to/lastmile_qr_scan", "android": "https://dc.lft.to/lastmile_qr_scan"}, "is_reserved": 0}, {"lon": -77.041863, "bike_id": "8e68f078960115c146066cff13df63c8", "lat": 38.919871, "fusion_lon": 0.0, "fusion_lat": 0.0, "type": "electric_scooter", "name": "8e68f078960115c146066cff13df63c8", "is_disabled": 0, "rental_uris": {"ios": "https://dc.lft.to/lastmile_qr_scan", "android": "https://dc.lft.to/lastmile_qr_scan"}, "is_reserved": 0}, {"lon": -76.998334, "bike_id": "646aebd5c8c6173e309d7f7b43a3c415", "lat": 38.90863433333333, "fusion_lon": 0.0, "fusion_lat": 0.0, "type": "electric_scooter", "name": "646aebd5c8c6173e309d7f7b43a3c415", "is_disabled": 0, "rental_uris": {"ios": "https://dc.lft.to/lastmile_qr_scan", "android": "https://dc.lft.to/lastmile_qr_scan"}, "is_reserved": 0}, {"lon": -77.03532016666666, "bike_id": "8aeda3581e4b1707e863d13bf16cec58", "lat": 38.92483683333333, "fusion_lon": 0.0, "fusion_lat": 0.0, "type": "electric_scooter", "name": "8aeda3581e4b1707e863d13bf16cec58", "is_disabled": 0, "rental_uris": {"ios": "https://dc.lft.to/lastmile_qr_scan", "android": "https://dc.lft.to/lastmile_qr_scan"}, "is_reserved": 0}, {"lon": -77.03220666666667, "bike_id": "3bdd99743ce1518267c12171095e8d6c", "lat": 38.914728833333335, "fusion_lon": 0.0, "fusion_lat": 0.0, "type": "electric_scooter", "name": "3bdd99743ce1518267c12171095e8d6c", "is_disabled": 0, "rental_uris": {"ios": "https://dc.lft.to/lastmile_qr_scan", "android": "https://dc.lft.to/lastmile_qr_scan"}, "is_reserved": 0}, {"lon": -77.0318705, "bike_id": "575245b53a108b1be17eaabc4fe013c3", "lat": 38.91740983333333, "fusion_lon": 0.0, "fusion_lat": 0.0, "type": "electric_scooter", "name": "575245b53a108b1be17eaabc4fe013c3", "is_disabled": 0, "rental_uris": {"ios": "https://dc.lft.to/lastmile_qr_scan", "android": "https://dc.lft.to/lastmile_qr_scan"}, "is_reserved": 0}, {"lon": -76.99821183333333, "bike_id": "43a8a16c153b390b32660d3d23f715e4", "lat": 38.90007966666667, "fusion_lon": 0.0, "fusion_lat": 0.0, "type": "electric_bike", "name": "43a8a16c153b390b32660d3d23f715e4", "is_disabled": 0, "rental_uris": {"ios": "https://dc.lft.to/lastmile_qr_scan", "android": "https://dc.lft.to/lastmile_qr_scan"}, "is_reserved": 0}, {"lon": -76.99521083333333, "bike_id": "af5aa4e131b72bab11bd5c2fa9659bb2", "lat": 38.862640166666665, "fusion_lon": 0.0, "fusion_lat": 0.0, "type": "electric_scooter", "name": "af5aa4e131b72bab11bd5c2fa9659bb2", "is_disabled": 0, "rental_uris": {"ios": "https://dc.lft.to/lastmile_qr_scan", "android": "https://dc.lft.to/lastmile_qr_scan"}, "is_reserved": 0}, {"lon": -76.94881866666667, "bike_id": "7f61b58a94c321cf9f01093e5c253885", "lat": 38.8950925, "fusion_lon": 0.0, "fusion_lat": 0.0, "type": "electric_scooter", "name": "7f61b58a94c321cf9f01093e5c253885", "is_disabled": 0, "rental_uris": {"ios": "https://dc.lft.to/lastmile_qr_scan", "android": "https://dc.lft.to/lastmile_qr_scan"}, "is_reserved": 0},