{"data": {"bikes": [{"type": "electric_scooter", "rental_uris": {"ios": "https://dc.lft.to/lastmile_qr_scan", "android": "https://dc.lft.to/lastmile_qr_scan"}, "lon": -77.04007216666666, "fusion_lon": 0.0, "is_disabled": 0, "lat": 38.9242785, "bike_id": "f1fab630d5d595672994f2b532e67ae5", "name": "f1fab630d5d595672994f2b532e67ae5", "is_reserved": 0, "fusion_lat": 0.0}, {"type": "electric_scooter", "rental_uris": {"ios": "https://dc.lft.to/lastmile_qr_scan", "android": "https://dc.lft.to/lastmile_qr_scan"}, "lon": -76.98002366666667, "fusion_lon": 0.0, "is_disabled": 0, "lat": 38.90081833333333, "bike_id": "431b7b1c4422013c7bcaf747efd926d1", "name": "431b7b1c4422013c7bcaf747efd926d1", "is_reserved": 0, "fusion_lat": 0.0}, {"type": "electric_scooter", "rental_uris": {"ios": "https://dc.lft.to/lastmile_qr_scan", "android": "https://dc.lft.to/lastmile_qr_scan"}, "lon": -77.03199716666667, "fusion_lon": 0.0, "is_disabled": 0, "lat": 38.91848733333333, "bike_id": "c7be733be9e462167ee03a9222c4f4f0", "name": "c7be733be9e462167ee03a9222c4f4f0", "is_reserved": 0, "fusion_lat": 0.0}, {"type": "electric_bike", "rental_uris": {"ios": "https://dc.lft.to/lastmile_qr_scan", "android": "https://dc.lft.to/lastmile_qr_scan"}, "lon": -77.08121216666666, "fusion_lon": 0.0, "is_disabled": 0, "lat": 38.80679966666667, "bike_id": "2fe9a68f6ecda0f14e6f233dff87bfb0", "name": "2fe9a68f6ecda0f14e6f233dff87bfb0", "is_reserved": 0, "fusion_lat": 0.0}, {"type": "electric_scooter", "rental_uris": {"ios": "https://dc.lft.to/lastmile_qr_scan", "android": "https://dc.lft.to/lastmile_qr_scan"}, "lon": -77.0558265, "fusion_lon": 0.0, "is_disabled": 0, "lat": 38.89990916666667, "bike_id": "54b94cf88d9e141a9cf0964b86703c9c", "name": "54b94cf88d9e141a9cf0964b86703c9c", "is_reserved": 0, "fusion_lat": 0.0}, {"type": "electric_bike", "rental_uris": {"ios": "https://dc.lft.to/lastmile_qr_scan", "android": "https://dc.lft.to/lastmile_qr_scan"}, "lon": -76.91599816666667, "fusion_lon": 0.0, "is_disabled": 0, "lat": 38.879692, "bike_id": "9092cea78283f8ba96252d28024fc497", "name": "9092cea78283f8ba96252d28024fc497", "is_reserved": 0, "fusion_lat": 0.0}, {"type": "electric_scooter", "rental_uris": {"ios": "https://dc.lft.to/lastmile_qr_scan", "android": "https://dc.lft.to/lastmile_qr_scan"}, "lon": -77.0386365, "fusion_lon": 0.0, "is_disabled": 0, "lat": 38.91265083333333, "bike_id": "cdaa2f777ac8382e2ed1c5ea015d1a48", "name": "cdaa2f777ac8382e2ed1c5ea015d1a48", "is_reserved": 0, "fusion_lat": 0.0}, {"type": "electric_scooter", "rental_uris": {"ios": "https://dc.lft.to/lastmile_qr_scan", "android": "https://dc.lft.to/lastmile_qr_scan"}, "lon": -77.031916, "fusion_lon": 0.0, "is_disabled": 0, "lat": 38.90977183333333, "bike_id": "39f6326cc3a8bdd71bf54b7f1e1ef413", "name": "39f6326cc3a8bdd71bf54b7f1e1ef413", "is_reserved": 0, "fusion_lat": 0.0}, {"type": "electric_scooter", "rental_uris": {"ios": "https://dc.lft.to/lastmile_qr_scan", "android": "https://dc.lft.to/lastmile_qr_scan"}, "lon": -77.00464333333333, "fusion_lon": 0.0, "is_disabled": 0, "lat": 38.876663666666666, "bike_id": "60cbc8110506a4af3ba4bae4569baef1", "name": "60cbc8110506a4af3ba4bae4569baef1", "is_reserved": 0, "fusion_lat": 0.0}, {"type": "electric_scooter", "rental_uris": {"ios": "https://dc.lft.to/lastmile_qr_scan", "android": "https://dc.lft.to/lastmile_qr_scan"}, "lon": -77.03657166666666, "fusion_lon": 0.0, "is_disabled": 0, "lat": 38.91301716666667, "bike_id": "ee05c6bbac096d8a5a637a65108f427f", "name": "ee05c6bbac096d8a5a637a65108f427f", "is_reserved": 0, "fusion_lat": 0.0}, {"type": "electric_bike", "rental_uris": {"ios": "https://dc.lft.to/lastmile_qr_scan", "android": "https://dc.lft.to/lastmile_qr_scan"}, "lon": -77.01210216666666, "fusion_lon": 0.0, "is_disabled": 0, "lat": 38.870935333333335, "bike_id": "6ac905c10c3d312facb296eab59aa352", "name": "6ac905c10c3d312facb296eab59aa352", "is_reserved": 0, "fusion_lat": 0.0}, {"type": "electric_scooter", "rental_uris": {"ios": "https://dc.lft.to/lastmile_qr_scan", "android": "https://dc.lft.to/lastmile_qr_scan"}, "lon": -77.02333733333333, "fusion_lon": 0.0, "is_disabled": 0, "lat": 38.91775666666667, "bike_id": "4d93ccc0f2e71bd105a5a8b3cd78be82", "name": "4d93ccc0f2e71bd105a5a8b3cd78be82", "is_reserved": 0, "fusion_lat": 0.0}, {"type": "electric_scooter", "rental_uris": {"ios": "https://dc.lft.to/lastmile_qr_scan", "android": "https://dc.lft.to/lastmile_qr_scan"}, "lon": -77.02699233333334, "fusion_lon": 0.0, "is_disabled": 0, "lat": 38.925641666666664, "bike_id": "88950c3ee5b5b8d57bcb5ed78b8c9d50", "name": "88950c3ee5b5b8d57bcb5ed78b8c9d50", "is_reserved": 0, "fusion_lat": 0.0}, {"type": "electric_scooter", "rental_uris": {"ios": "https://dc.lft.to/lastmile_qr_scan", "android": "https://dc.lft.to/lastmile_qr_scan"}, "lon": -77.027001, "fusion_lon": 0.0, "is_disabled": 0, "lat": 38.90680716666667, "bike_id": "a937358db4875699ea7cba40aee75e9b", "name": "a937358db4875699ea7cba40aee75e9b", "is_reserved": 0, "fusion_lat": 0.0}, {"type": "electric_bike", "rental_uris": {"ios": "https://dc.lft.to/lastmile_qr_scan", "android": "https://dc.lft.to/lastmile_qr_scan"}, "lon": -76.98294883333334, "fusion_lon": 0.0, "is_disabled": 0, "lat": 38.96284833333333, "bike_id": "43fa7a46c887f09cf6769f31e07ed44f", "name": "43fa7a46c887f09cf6769f31e07ed44f", "is_reserved": 0, "fusion_lat": 0.0}, {"type": "electric_scooter", "rental_uris": {"ios": "https://dc.lft.to/lastmile_qr_scan", "android": "https://dc.lft.to/lastmile_qr_scan"}, "lon": -77.0282585, "fusion_lon": 0.0, "is_disabled": 0, "lat": 38.8873255, "bike_id": "9b092cd0014bf0f536b1be94445eff67", "name": "9b092cd0014bf0f536b1be94445eff67", "is_reserved": 0, "fusion_lat": 0.0}, {"type": "electric_scooter", "rental_uris": {"ios": "https://dc.lft.to/lastmile_qr_scan", "android": "https://dc.lft.to/lastmile_qr_scan"}, "lon": -77.00751366666667, "fusion_lon": 0.0, "is_disabled": 0, "lat": 38.9005735, "bike_id": "476ed4cec840fa03b1cd9aa86cdf1807", "name": "476ed4cec840fa03b1cd9aa86cdf1807", "is_reserved": 0, "fusion_lat": 0.0}, {"type": "electric_bike", "rental_uris": {"ios": "https://dc.lft.to/lastmile_qr_scan", "android": "https://dc.lft.to/lastmile_qr_scan"}, "lon": -76.98987666666666, "fusion_lon": 0.0, "is_disabled": 0, "lat": 38.863885333333336, "bike_id": "f8ffa6d83af6774d86f12dadd69360e5", "name": "f8ffa6d83af6774d86f12dadd69360e5", "is_reserved": 0, "fusion_lat": 0.0}, {"type": "electric_scooter", "rental_uris": {"ios": "https://dc.lft.to/lastmile_qr_scan", "android": "https://dc.lft.to/lastmile_qr_scan"}, "lon": -77.03303983333333, "fusion_lon": 0.0, "is_disabled": 0, "lat": 38.93198566666667, "bike_id": "8ad6350f81d08cd31e8f1f4500999391", "name": "8ad6350f81d08cd31e8f1f4500999391", "is_reserved": 0, "fusion_lat": 0.0}, {"type": "electric_scooter", "rental_uris": {"ios": "https://dc.lft.to/lastmile_qr_scan", "android": "https://dc.lft.to/lastmile_qr_scan"}, "lon": -76.97843583333334, "fusion_lon": 0.0, "is_disabled": 0, "lat": 38.8656675, "bike_id": "68238e71d6838dbcca63fe2588b0a18f", "name": "68238e71d6838dbcca63fe2588b0a18f", "is_reserved": 0, "fusion_lat": 0.0}, {"type": "electric_scooter", "rental_uris": {"ios": "https://dc.lft.to/lastmile_qr_scan", "android": "https://dc.lft.to/lastmile_qr_scan"}, "lon": -77.03152, "fusion_lon": 0.0, "is_disabled": 0, "lat": 38.915592, "bike_id": "8a897c130fc9e6c229c114dc83b85b0a", "name": "8a897c130fc9e6c229c114dc83b85b0a", "is_reserved": 0, "fusion_lat": 0.0}, {"type": "electric_scooter", "rental_uris": {"ios": "https://dc.lft.to/lastmile_qr_scan", "android": "https://dc.lft.to/lastmile_qr_scan"}, "lon": -77.01698866666666, "fusion_lon": 0.0, "is_disabled": 0, "lat": 38.9138435, "bike_id": "d668e8f0631bc867ec15396ec85e729c", "name": "d668e8f0631bc867ec15396ec85e729c", "is_reserved": 0, "fusion_lat": 0.0}, {"type": "electric_scooter", "rental_uris": {"ios": "https://dc.lft.to/lastmile_qr_scan", "android": "https://dc.lft.to/lastmile_qr_scan"}, "lon": -77.02488183333334, "fusion_lon": 0.0, "is_disabled": 0, "lat": 38.941842333333334, "bike_id": "c9d9e839006ffe6a3b6fad0ae0035c83", "name": "c9d9e839006ffe6a3b6fad0ae0035c83", "is_reserved": 0, "fusion_lat": 0.0}, {"type": "electric_scooter", "rental_uris": {"ios": "https://dc.lft.to/lastmile_qr_scan", "android": "https://dc.lft.to/lastmile_qr_scan"}, "lon": -77.03685333333334, "fusion_lon": 0.0, "is_disabled": 0, "lat": 38.926114166666665, "bike_id": "7577288766eb9244ebbdfeeebd13e2ce", "name": "7577288766eb9244ebbdfeeebd13e2ce", "is_reserved": 0, "fusion_lat": 0.0}, {"type": "electric_scooter", "rental_uris": {"ios": "https://dc.lft.to/lastmile_qr_scan", "android": "https://dc.lft.to/lastmile_qr_scan"}, "lon": -77.05856133333333, "fusion_lon": 0.0, "is_disabled": 0, "lat": 38.935510666666666, "bike_id": "510ad833e133e9d34683adf4300777f8", "name": "510ad833e133e9d34683adf4300777f8", "is_reserved": 0, "fusion_lat": 0.0}, {"type": "electric_scooter", "rental_uris": {"ios": "https://dc.lft.to/lastmile_qr_scan", "android": "https://dc.lft.to/lastmile_qr_scan"}, "lon": -77.03259733333333, "fusion_lon": 0.0, "is_disabled": 0, "lat": 38.9156495, "bike_id": "57be7bb5f60b52e43a4376ed623400ac", "name": "57be7bb5f60b52e43a4376ed623400ac", "is_reserved": 0, "fusion_lat": 0.0}, {"type": "electric_scooter", "rental_uris": {"ios": "https://dc.lft.to/lastmile_qr_scan", "android": "https://dc.lft.to/lastmile_qr_scan"}, "lon": -77.03839066666667, "fusion_lon": 0.0, "is_disabled": 0, "lat": 38.90834016666667, "bike_id": "09d3549753fd58791ddd50f5d9308e13", "name": "09d3549753fd58791ddd50f5d9308e13", "is_reserved": 0, "fusion_lat": 0.0}, {"type": "electric_scooter", "rental_uris": {"ios": "https://dc.lft.to/lastmile_qr_scan", "android": "https://dc.lft.to/lastmile_qr_scan"}, "lon": -77.00406516666666, "fusion_lon": 0.0, "is_disabled": 0, "lat": 38.9054895, "bike_id": "8b6e92b7dcca4200341f014bf982e51a", "name": "8b6e92b7dcca4200341f014bf982e51a", "is_reserved": 0, "fusion_lat": 0.0}, {"type": "electric_scooter", "rental_uris": {"ios": "https://dc.lft.to/lastmile_qr_scan", "android": "https://dc.lft.to/lastmile_qr_scan"}, "lon": -77.02011433333334, "fusion_lon": 0.0, "is_disabled": 0, "lat": 38.89878133333333, "bike_id": "4a1df223649778f5a7c56e89ac201627", "name": "4a1df223649778f5a7c56e89ac201627", "is_reserved": 0, "fusion_lat": 0.0}, {"type": "electric_scooter", "rental_uris": {"ios": "https://dc.lft.to/lastmile_qr_scan", "android": "https://dc.lft.to/lastmile_qr_scan"}, "lon": -76.99003066666667, "fusion_lon": 0.0, "is_disabled": 0, "lat": 38.9001065, "bike_id": "d1ff2f01525d728caec8f288e54e3044", "name": "d1ff2f01525d728caec8f288e54e3044", "is_reserved": 0, "fusion_lat": 0.0}, {"type": "electric_bike", "rental_uris": {"ios": "https://dc.lft.to/lastmile_qr_scan", "android": "https://dc.lft.to/lastmile_qr_scan"}, "lon": -76.98107633333333, "fusion_lon": 0.0, "is_disabled": 0, "lat": 38.8772945, "bike_id": "8acb5055614d96d01f99d4f28e90aa14", "name": "8acb5055614d96d01f99d4f28e90aa14", "is_reserved": 0, "fusion_lat": 0.0}, {"type": "electric_scooter", "rental_uris": {"ios": "https://dc.lft.to/lastmile_qr_scan", "android": "https://dc.lft.to/lastmile_qr_scan"}, "lon": -77.038689, "fusion_lon": 0.0, "is_disabled": 0, "lat": 38.912541166666664, "bike_id": "41ab17e89b4e5122e00ac424dbc5abf5", "name": "41ab17e89b4e5122e00ac424dbc5abf5", "is_reserved": 0, "fusion_lat": 0.0}, {"type": "electric_scooter", "rental_uris": {"ios": "https://dc.lft.to/lastmile_qr_scan", "android": "https://dc.lft.to/lastmile_qr_scan"}, "lon": -77.02283683333333, "fusion_lon": 0.0, "is_disabled": 0, "lat": 38.916870833333334, "bike_id": "b93f3c01932315fabf1a5bed1a1bdd74", "name": "b93f3c01932315fabf1a5bed1a1bdd74", "is_reserved": 0, "fusion_lat": 0.0}, {"type": "electric_scooter", "rental_uris": {"ios": "https://dc.lft.to/lastmile_qr_scan", "android": "https://dc.lft.to/lastmile_qr_scan"}, "lon": -77.02146916666666, "fusion_lon": 0.0, "is_disabled": 0, "lat": 38.910831, "bike_id": "b95bae6a27a967ccf75d7ced60d532d8", "name": "b95bae6a27a967ccf75d7ced60d532d8", "is_reserved": 0, "fusion_lat": 0.0}, {"type": "electric_scooter", "rental_uris": {"ios": "https://dc.lft.to/lastmile_qr_scan", "android": "https://dc.lft.to/lastmile_qr_scan"}, "lon": -77.04523616666667, "fusion_lon": 0.0, "is_disabled": 0, "lat": 38.933187333333336, "bike_id": "876e0d65c915427f48bedb67a5405c8a", "name": "876e0d65c915427f48bedb67a5405c8a", "is_reserved": 0, "fusion_lat": 0.0}, {"type": "electric_scooter", "rental_uris": {"ios": "https://dc.lft.to/lastmile_qr_scan", "android": "https://dc.lft.to/lastmile_qr_scan"}, "lon": -77.04019933333333, "fusion_lon": 0.0, "is_disabled": 0, "lat": 38.9221295, "bike_id": "9f23b66610c7c03119caef6ad6ba24e3", "name": "9f23b66610c7c03119caef6ad6ba24e3", "is_reserved": 0, "fusion_lat": 0.0}, {"type": "electric_scooter", "rental_uris": {"ios": "https://dc.lft.to/lastmile_qr_scan", "android": "https://dc.lft.to/lastmile_qr_scan"}, "lon": -77.03159183333334, "fusion_lon": 0.0, "is_disabled": 0, "lat": 38.892242333333336, "bike_id": "33d0eebc912a91d235f3ae8706d8894d", "name": "33d0eebc912a91d235f3ae8706d8894d", "is_reserved": 0, "fusion_lat": 0.0}, {"type": "electric_scooter", "rental_uris": {"ios": "https://dc.lft.to/lastmile_qr_scan", "android": "https://dc.lft.to/lastmile_qr_scan"}, "lon": -77.04659016666666, "fusion_lon": 0.0, "is_disabled": 0, "lat": 38.892412666666665, "bike_id": "13dc08bb227a05cde41b31fb05cf5fa3", "name": "13dc08bb227a05cde41b31fb05cf5fa3", "is_reserved": 0, "fusion_lat": 0.0}, {"type": "electric_scooter", "rental_uris": {"ios": "https://dc.lft.to/lastmile_qr_scan", "android": "https://dc.lft.to/lastmile_qr_scan"}, "lon": -77.02593083333333, "fusion_lon": 0.0, "is_disabled": 0, "lat": 38.942018166666664, "bike_id": "3bb6f0d73cdc56f4d26bf5e927b1520a", "name": "3bb6f0d73cdc56f4d26bf5e927b1520a", "is_reserved": 0, "fusion_lat": 0.0}, {"type": "electric_scooter", "rental_uris": {"ios": "https://dc.lft.to/lastmile_qr_scan", "android": "https://dc.lft.to/lastmile_qr_scan"}, "lon": -77.00588533333334, "fusion_lon": 0.0, "is_disabled": 0, "lat": 38.905805, "bike_id": "782b02943f1b0b085cf287666246fdeb", "name": "782b02943f1b0b085cf287666246fdeb", "is_reserved": 0, "fusion_lat": 0.0}, {"type": "electric_scooter", "rental_uris": {"ios": "https://dc.lft.to/lastmile_qr_scan", "android": "https://dc.lft.to/lastmile_qr_scan"}, "lon": -77.03641416666666, "fusion_lon": 0.0, "is_disabled": 0, "lat": 38.909962, "bike_id": "d065c0519890252888013410e8152a84", "name": "d065c0519890252888013410e8152a84", "is_reserved": 0, "fusion_lat": 0.0}, {"type": "electric_scooter", "rental_uris": {"ios": "https://dc.lft.to/lastmile_qr_scan", "android": "https://dc.lft.to/lastmile_qr_scan"}, "lon": -77.04163783333334, "fusion_lon": 0.0, "is_disabled": 0, "lat": 38.9152, "bike_id": "f180fe5cb46ec7d8ea5cdd9fe0077713", "name": "f180fe5cb46ec7d8ea5cdd9fe0077713", "is_reserved": 0, "fusion_lat": 0.0}, {"type": "electric_scooter", "rental_uris": {"ios": "https://dc.lft.to/lastmile_qr_scan", "android": "https://dc.lft.to/lastmile_qr_scan"}, "lon": -77.02330116666667, "fusion_lon": 0.0, "is_disabled": 0, "lat": 38.93594366666667, "bike_id": "1895dc98b0b200397070364977f60c75", "name": "1895dc98b0b200397070364977f60c75", "is_reserved": 0, "fusion_lat": 0.0}, {"type": "electric_scooter", "rental_uris": {"ios": "https://dc.lft.to/lastmile_qr_scan", "android": "https://dc.lft.to/lastmile_qr_scan"}, "lon": -76.98536683333333, "fusion_lon": 0.0, "is_disabled": 0, "lat": 38.8667825, "bike_id": "e7d788def4b7d4bb6bd8ab67c832fdcb", "name": "e7d788def4b7d4bb6bd8ab67c832fdcb", "is_reserved": 0, "fusion_lat": 0.0}, {"type": "electric_scooter", "rental_uris": {"ios": "https://dc.lft.to/lastmile_qr_scan", "android": "https://dc.lft.to/lastmile_qr_scan"}, "lon": -77.0727355, "fusion_lon": 0.0, "is_disabled": 0, "lat": 38.93483883333333, "bike_id": "cae4fc462c6dba50c7d0b4c0c2c98ae9", "name": "cae4fc462c6dba50c7d0b4c0c2c98ae9", "is_reserved": 0, "fusion_lat": 0.0}, {"type": "electric_scooter", "rental_uris": {"ios": "https://dc.lft.to/lastmile_qr_scan", "android": "https://dc.lft.to/lastmile_qr_scan"}, "lon": -77.0376495, "fusion_lon": 0.0, "is_disabled": 0, "lat": 38.92924416666666, "bike_id": "7ac345f924bcc96e51f320433c072b7f", "name": "7ac345f924bcc96e51f320433c072b7f", "is_reserved": 0, "fusion_lat": 0.0}, {"type": "electric_scooter", "rental_uris": {"ios": "https://dc.lft.to/lastmile_qr_scan", "android": "https://dc.lft.to/lastmile_qr_scan"}, "lon": -77.022217, "fusion_lon": 0.0, "is_disabled": 0, "lat": 38.8922275, "bike_id": "beed816ed44a54e390d16c5645307513", "name": "beed816ed44a54e390d16c5645307513", "is_reserved": 0, "fusion_lat": 0.0}, {"type": "electric_scooter", "rental_uris": {"ios": "https://dc.lft.to/lastmile_qr_scan", "android": "https://dc.lft.to/lastmile_qr_scan"}, "lon": -77.04175733333334, "fusion_lon": 0.0, "is_disabled": 0, "lat": 38.91806833333333, "bike_id": "beed42bd33e9ef64fc307f91f10d203a", "name": "beed42bd33e9ef64fc307f91f10d203a", "is_reserved": 0, "fusion_lat": 0.0}, {"type": "electric_scooter", "rental_uris": {"ios": "https://dc.lft.to/lastmile_qr_scan", "android": "https://dc.lft.to/lastmile_qr_scan"}, "lon": -77.02718533333334, "fusion_lon": 0.0, "is_disabled": 0, "lat": 38.906871, "bike_id": "81f42fed64ce3394623102b8cff6bb74", "name": "81f42fed64ce3394623102b8cff6bb74", "is_reserved": 0, "fusion_lat": 0.0}, {"type": "electric_bike", "rental_uris": {"ios": "https://dc.lft.to/lastmile_qr_scan", "android": "https://dc.lft.to/lastmile_qr_scan"}, "lon": -76.9976895, "fusion_lon": 0.0, "is_disabled": 0, "lat": 38.837405333333336, "bike_id": "347f57de1c15f439b2b98d4d6b96a45b", "name": "347f57de1c15f439b2b98d4d6b96a45b", "is_reserved": 0, "fusion_lat": 0.0}, {"type": "electric_scooter", "rental_uris": {"ios": "https://dc.lft.to/lastmile_qr_scan", "android": "https://dc.lft.to/lastmile_qr_scan"}, "lon": -76.98178233333333, "fusion_lon": 0.0, "is_disabled": 0, "lat": 38.856784833333336, "bike_id": "006e67b815fdcc6eaf08ac79fa25317c", "name": "006e67b815fdcc6eaf08ac79fa25317c", "is_reserved": 0, "fusion_lat": 0.0}, {"type": "electric_bike", "rental_uris": {"ios": "https://dc.lft.to/lastmile_qr_scan", "android": "https://dc.lft.to/lastmile_qr_scan"}, "lon": -76.9913215, "fusion_lon": 0.0, "is_disabled": 0, "lat": 38.84636783333333, "bike_id": "dc7d9a43d6355a95e40a6d2ac95adb10", "name": "dc7d9a43d6355a95e40a6d2ac95adb10", "is_reserved": 0, "fusion_lat": 0.0}, {"type": "electric_scooter", "rental_uris": {"ios": "https://dc.lft.to/lastmile_qr_scan", "android": "https://dc.lft.to/lastmile_qr_scan"}, "lon": -77.01971433333334, "fusion_lon": 0.0, "is_disabled": 0, "lat": 38.93001616666667, "bike_id": "b63354dd5677578bf78edc441e9bce52", "name": "b63354dd5677578bf78edc441e9bce52", "is_reserved": 0, "fusion_lat": 0.0}, {"type": "electric_scooter", "rental_uris": {"ios": "https://dc.lft.to/lastmile_qr_scan", "android": "https://dc.lft.to/lastmile_qr_scan"}, "lon": -77.02784233333334, "fusion_lon": 0.0, "is_disabled": 0, "lat": 38.9307695, "bike_id": "8dc1f4b8543ad47b42393b24c841e06a", "name": "8dc1f4b8543ad47b42393b24c841e06a", "is_reserved": 0, "fusion_lat": 0.0}, {"type": "electric_scooter", "rental_uris": {"ios": "https://dc.lft.to/lastmile_qr_scan", "android": "https://dc.lft.to/lastmile_qr_scan"}, "lon": -77.04308766666666, "fusion_lon": 0.0, "is_disabled": 0, "lat": 38.90137933333333, "bike_id": "6285c4493932c0723060ec8dad65ef03", "name": "6285c4493932c0723060ec8dad65ef03", "is_reserved": 0, "fusion_lat": 0.0}, {"type": "electric_bike", "rental_uris": {"ios": "https://dc.lft.to/lastmile_qr_scan", "android": "https://dc.lft.to/lastmile_qr_scan"}, "lon": -77.05644266666667, "fusion_lon": 0.0, "is_disabled": 0, "lat": 38.936894833333334, "bike_id": "09968df68fee5ff5a6a7119c8ac73269", "name": "09968df68fee5ff5a6a7119c8ac73269", "is_reserved": 0, "fusion_lat": 0.0}, {"type": "electric_scooter", "rental_uris": {"ios": "https://dc.lft.to/lastmile_qr_scan", "android": "https://dc.lft.to/lastmile_qr_scan"}, "lon": -77.0481595, "fusion_lon": 0.0, "is_disabled": 0, "lat": 38.90540416666666, "bike_id": "47eed449d76630ccc9d89ddd6261c40a", "name": "47eed449d76630ccc9d89ddd6261c40a", "is_reserved": 0, "fusion_lat": 0.0}, {"type": "electric_bike", "rental_uris": {"ios": "https://dc.lft.to/lastmile_qr_scan", "android": "https://dc.lft.to/lastmile_qr_scan"}, "lon": -77.07770583333334, "fusion_lon": 0.0, "is_disabled": 0, "lat": 38.93045866666667, "bike_id": "b41223698329743dd69ec429f98759f9", "name": "b41223698329743dd69ec429f98759f9", "is_reserved": 0, "fusion_lat": 0.0}, {"type": "electric_scooter", "rental_uris": {"ios": "https://dc.lft.to/lastmile_qr_scan", "android": "https://dc.lft.to/lastmile_qr_scan"}, "lon": -77.04148816666667, "fusion_lon": 0.0, "is_disabled": 0, "lat": 38.892227, "bike_id": "c94dec971b8c226934fcbf0284f490c6", "name": "c94dec971b8c226934fcbf0284f490c6", "is_reserved": 0, "fusion_lat": 0.0}, {"type": "electric_scooter", "rental_uris": {"ios": "https://dc.lft.to/lastmile_qr_scan", "android": "https://dc.lft.to/lastmile_qr_scan"}, "lon": -77.026879, "fusion_lon": 0.0, "is_disabled": 0, "lat": 38.906797, "bike_id": "822db16afc5856a10c103965f4da0faf", "name": "822db16afc5856a10c103965f4da0faf", "is_reserved": 0, "fusion_lat": 0.0}, {"type": "electric_scooter", "rental_uris": {"ios": "https://dc.lft.to/lastmile_qr_scan", "android": "https://dc.lft.to/lastmile_qr_scan"}, "lon": -77.02663216666667, "fusion_lon": 0.0, "is_disabled": 0, "lat": 38.917062666666666, "bike_id": "b681dd0a3b5bf492c5c20546ba3fc7e4", "name": "b681dd0a3b5bf492c5c20546ba3fc7e4", "is_reserved": 0, "fusion_lat": 0.0}, {"type": "electric_scooter", "rental_uris": {"ios": "https://dc.lft.to/lastmile_qr_scan", "android": "https://dc.lft.to/lastmile_qr_scan"}, "lon": -77.0339455, "fusion_lon": 0.0, "is_disabled": 0, "lat": 38.906908, "bike_id": "e1f8447943940b422ee7938b5fd5d9dd", "name": "e1f8447943940b422ee7938b5fd5d9dd", "is_reserved": 0, "fusion_lat": 0.0}, {"type": "electric_scooter", "rental_uris": {"ios": "https://dc.lft.to/lastmile_qr_scan", "android": "https://dc.lft.to/lastmile_qr_scan"}, "lon": -77.02613466666666, "fusion_lon": 0.0, "is_disabled": 0, "lat": 38.905695333333334, "bike_id": "948d42d2c49a471dbf7b31be29646b2e", "name": "948d42d2c49a471dbf7b31be29646b2e", "is_reserved": 0, "fusion_lat": 0.0}, {"type": "electric_scooter", "rental_uris": {"ios": "https://dc.lft.to/lastmile_qr_scan", "android": "https://dc.lft.to/lastmile_qr_scan"}, "lon": -77.014802, "fusion_lon": 0.0, "is_disabled": 0, "lat": 38.88820183333333, "bike_id": "7ef6d41027fc4ef942b0b6575d711690", "name": "7ef6d41027fc4ef942b0b6575d711690", "is_reserved": 0, "fusion_lat": 0.0}, {"type": "electric_scooter", "rental_uris": {"ios": "https://dc.lft.to/lastmile_qr_scan", "android": "https://dc.lft.to/lastmile_qr_scan"}, "lon": -77.0241, "fusion_lon": 0.0, "is_disabled": 0, "lat": 38.89197733333334, "bike_id": "4a0dfa42b2e3f4c31f3b277c093d6fa3", "name": "4a0dfa42b2e3f4c31f3b277c093d6fa3", "is_reserved": 0, "fusion_lat": 0.0}, {"type": "electric_scooter", "rental_uris": {"ios": "https://dc.lft.to/lastmile_qr_scan", "android": "https://dc.lft.to/lastmile_qr_scan"}, "lon": -77.02696716666667, "fusion_lon": 0.0, "is_disabled": 0, "lat": 38.918271833333336, "bike_id": "7e505bfd9cef144b1d98209e32f95056", "name": "7e505bfd9cef144b1d98209e32f95056", "is_reserved": 0, "fusion_lat": 0.0}, {"type": "electric_scooter", "rental_uris": {"ios": "https://dc.lft.to/lastmile_qr_scan", "android": "https://dc.lft.to/lastmile_qr_scan"}, "lon": -77.029016, "fusion_lon": 0.0, "is_disabled": 0, "lat": 38.92571433333333, "bike_id": "4b328f46dfed0c972588d7e1b4820665", "name": "4b328f46dfed0c972588d7e1b4820665", "is_reserved": 0, "fusion_lat": 0.0}, {"type": "electric_scooter", "rental_uris": {"ios": "https://dc.lft.to/lastmile_qr_scan", "android": "https://dc.lft.to/lastmile_qr_scan"}, "lon": -77.0309575, "fusion_lon": 0.0, "is_disabled": 0, "lat": 38.879206833333335, "bike_id": "55f3e6df663c4a6f32818322d80bbc86", "name": "55f3e6df663c4a6f32818322d80bbc86", "is_reserved": 0, "fusion_lat": 0.0}, {"type": "electric_scooter", "rental_uris": {"ios": "https://dc.lft.to/lastmile_qr_scan", "android": "https://dc.lft.to/lastmile_qr_scan"}, "lon": -76.93184033333333, "fusion_lon": 0.0, "is_disabled": 0, "lat": 38.898782833333335, "bike_id": "0670c92ec55ff09f565f3bb21f08595e", "name": "0670c92ec55ff09f565f3bb21f08595e", "is_reserved": 0, "fusion_lat": 0.0}, {"type": "electric_bike", "rental_uris": {"ios": "https://dc.lft.to/lastmile_qr_scan", "android": "https://dc.lft.to/lastmile_qr_scan"}, "lon": -77.1013, "fusion_lon": 0.0, "is_disabled": 0, "lat": 38.85207116666667, "bike_id": "9e52d151ffc89fc4f3f5233dd81fd7e3", "name": "9e52d151ffc89fc4f3f5233dd81fd7e3", "is_reserved": 0, "fusion_lat": 0.0}, {"type": "electric_scooter", "rental_uris": {"ios": "https://dc.lft.to/lastmile_qr_scan", "android": "https://dc.lft.to/lastmile_qr_scan"}, "lon": -77.01866116666666, "fusion_lon": 0.0, "is_disabled": 0, "lat": 38.931521833333335, "bike_id": "dda6a2bf16b97fcae1a189f1d8061fe4", "name": "dda6a2bf16b97fcae1a189f1d8061fe4", "is_reserved": 0, "fusion_lat": 0.0}, {"type": "electric_scooter", "rental_uris": {"ios": "https://dc.lft.to/lastmile_qr_scan", "android": "https://dc.lft.to/lastmile_qr_scan"}, "lon": -76.92871783333334, "fusion_lon": 0.0, "is_disabled": 0, "lat": 38.88527333333333, "bike_id": "d26b1760973b64a407969ed550e45103", "name": "d26b1760973b64a407969ed550e45103", "is_reserved": 0, "fusion_lat": 0.0}, {"type": "electric_scooter", "rental_uris": {"ios": "https://dc.lft.to/lastmile_qr_scan", "android": "https://dc.lft.to/lastmile_qr_scan"}, "lon": -77.02223616666667, "fusion_lon": 0.0, "is_disabled": 0, "lat": 38.8922085, "bike_id": "48ef100de392a711f82871430cff26ee", "name": "48ef100de392a711f82871430cff26ee", "is_reserved": 0, "fusion_lat": 0.0}, {"type": "electric_scooter", "rental_uris": {"ios": "https://dc.lft.to/lastmile_qr_scan", "android": "https://dc.lft.to/lastmile_qr_scan"}, "lon": -77.00242133333333, "fusion_lon": 0.0, "is_disabled": 0, "lat": 38.880256333333335, "bike_id": "4491530a4e7c17b5f58a8e1aa8f7290c", "name": "4491530a4e7c17b5f58a8e1aa8f7290c", "is_reserved": 0, "fusion_lat": 0.0}, {"type": "electric_bike", "rental_uris": {"ios": "https://dc.lft.to/lastmile_qr_scan", "android": "https://dc.lft.to/lastmile_qr_scan"}, "lon": -76.99662733333334, "fusion_lon": 0.0, "is_disabled": 0, "lat": 38.89743416666666, "bike_id": "38fa118e2192fec578e674a5d7c5b128", "name": "38fa118e2192fec578e674a5d7c5b128", "is_reserved": 0, "fusion_lat": 0.0}, {"type": "electric_scooter", "rental_uris": {"ios": "https://dc.lft.to/lastmile_qr_scan", "android": "https://dc.lft.to/lastmile_qr_scan"}, "lon": -77.037868, "fusion_lon": 0.0, "is_disabled": 0, "lat": 38.926276333333334, "bike_id": "8542942670049cf432b5c09874a9d127", "name": "8542942670049cf432b5c09874a9d127", "is_reserved": 0, "fusion_lat": 0.0}, {"type": "electric_scooter", "rental_uris": {"ios": "https://dc.lft.to/lastmile_qr_scan", "android": "https://dc.lft.to/lastmile_qr_scan"}, "lon": -77.01163766666667, "fusion_lon": 0.0, "is_disabled": 0, "lat": 38.90027383333333, "bike_id": "c823a5d8278de4393f58a6bacd5ea9fc", "name": "c823a5d8278de4393f58a6bacd5ea9fc", "is_reserved": 0, "fusion_lat": 0.0}, {"type": "electric_scooter", "rental_uris": {"ios": "https://dc.lft.to/lastmile_qr_scan", "android": "https://dc.lft.to/lastmile_qr_scan"}, "lon": -77.02315433333334, "fusion_lon": 0.0, "is_disabled": 0, "lat": 38.91618883333334, "bike_id": "a7866c9b6b61c354132885c554c580dd", "name": "a7866c9b6b61c354132885c554c580dd", "is_reserved": 0, "fusion_lat": 0.0}, {"type": "electric_scooter", "rental_uris": {"ios": "https://dc.lft.to/lastmile_qr_scan", "android": "https://dc.lft.to/lastmile_qr_scan"}, "lon": -77.05219883333334, "fusion_lon": 0.0, "is_disabled": 0, "lat": 38.924957, "bike_id": "8d33ff03f8dfad31824b04fd0094768c", "name": "8d33ff03f8dfad31824b04fd0094768c", "is_reserved": 0, "fusion_lat": 0.0}, {"type": "electric_scooter", "rental_uris": {"ios": "https://dc.lft.to/lastmile_qr_scan", "android": "https://dc.lft.to/lastmile_qr_scan"}, "lon": -76.97939466666666, "fusion_lon": 0.0, "is_disabled": 0, "lat": 38.945182333333335, "bike_id": "10eaf2018ca0913c106ed1fbf55c4306", "name": "10eaf2018ca0913c106ed1fbf55c4306", "is_reserved": 0, "fusion_lat": 0.0}, {"type": "electric_scooter", "rental_uris": {"ios": "https://dc.lft.to/lastmile_qr_scan", "android": "https://dc.lft.to/lastmile_qr_scan"}, "lon": -77.04174383333333, "fusion_lon": 0.0, "is_disabled": 0, "lat": 38.901389, "bike_id": "107478f76eae01046e72aed6d33f8a00", "name": "107478f76eae01046e72aed6d33f8a00", "is_reserved": 0, "fusion_lat": 0.0}, {"type": "electric_scooter", "rental_uris": {"ios": "https://dc.lft.to/lastmile_qr_scan", "android": "https://dc.lft.to/lastmile_qr_scan"}, "lon": -77.0331465, "fusion_lon": 0.0, "is_disabled": 0, "lat": 38.900214166666665, "bike_id": "0ee29cce19d38da022b8a418801cbe5a", "name": "0ee29cce19d38da022b8a418801cbe5a", "is_reserved": 0, "fusion_lat": 0.0}, {"type": "electric_bike", "rental_uris": {"ios": "https://dc.lft.to/lastmile_qr_scan", "android": "https://dc.lft.to/lastmile_qr_scan"}, "lon": -77.09805016666667, "fusion_lon": 0.0, "is_disabled": 0, "lat": 38.85025316666667, "bike_id": "26d925d7401bab8d61cb0261c25f9af3", "name": "26d925d7401bab8d61cb0261c25f9af3", "is_reserved": 0, "fusion_lat": 0.0}, {"type": "electric_bike", "rental_uris": {"ios": "https://dc.lft.to/lastmile_qr_scan", "android": "https://dc.lft.to/lastmile_qr_scan"}, "lon": -77.020669, "fusion_lon": 0.0, "is_disabled": 0, "lat": 38.96437933333333, "bike_id": "db42477fcfc4229ae0936c9b314c4e4e", "name": "db42477fcfc4229ae0936c9b314c4e4e", "is_reserved": 0, "fusion_lat": 0.0}, {"type": "electric_scooter", "rental_uris": {"ios": "https://dc.lft.to/lastmile_qr_scan", "android": "https://dc.lft.to/lastmile_qr_scan"}, "lon": -77.03993416666667, "fusion_lon": 0.0, "is_disabled": 0, "lat": 38.907259333333336, "bike_id": "25c148bc594ed8bd0c1c9b40d18d4fc1", "name": "25c148bc594ed8bd0c1c9b40d18d4fc1", "is_reserved": 0, "fusion_lat": 0.0}, {"type": "electric_scooter", "rental_uris": {"ios": "https://dc.lft.to/lastmile_qr_scan", "android": "https://dc.lft.to/lastmile_qr_scan"}, "lon": -77.026006, "fusion_lon": 0.0, "is_disabled": 0, "lat": 38.9072795, "bike_id": "37e75040fe207bf68bdf9fda14ff7416", "name": "37e75040fe207bf68bdf9fda14ff7416", "is_reserved": 0, "fusion_lat": 0.0}, {"type": "electric_scooter", "rental_uris": {"ios": "https://dc.lft.to/lastmile_qr_scan", "android": "https://dc.lft.to/lastmile_qr_scan"}, "lon": -77.03068233333333, "fusion_lon": 0.0, "is_disabled": 0, "lat": 38.886162166666665, "bike_id": "c0ce515523350901945c6db51f320af5", "name": "c0ce515523350901945c6db51f320af5", "is_reserved": 0, "fusion_lat": 0.0}, {"type": "electric_scooter", "rental_uris": {"ios": "https://dc.lft.to/lastmile_qr_scan", "android": "https://dc.lft.to/lastmile_qr_scan"}, "lon": -77.034427, "fusion_lon": 0.0, "is_disabled": 0, "lat": 38.918196, "bike_id": "dc166ec3e18b085b1214ba0ea881ea3a", "name": "dc166ec3e18b085b1214ba0ea881ea3a", "is_reserved": 0, "fusion_lat": 0.0}, {"type": "electric_scooter", "rental_uris": {"ios": "https://dc.lft.to/lastmile_qr_scan", "android": "https://dc.lft.to/lastmile_qr_scan"}, "lon": -77.03447466666667, "fusion_lon": 0.0, "is_disabled": 0, "lat": 38.906725333333334, "bike_id": "66a9b86dea249903e75103fb4df5efee", "name": "66a9b86dea249903e75103fb4df5efee", "is_reserved": 0, "fusion_lat": 0.0}, {"type": "electric_scooter", "rental_uris": {"ios": "https://dc.lft.to/lastmile_qr_scan", "android": "https://dc.lft.to/lastmile_qr_scan"}, "lon": -77.02972783333334, "fusion_lon": 0.0, "is_disabled": 0, "lat": 38.93250916666667, "bike_id": "c77bfe2faae4398a44a89dc341867064", "name": "c77bfe2faae4398a44a89dc341867064", "is_reserved": 0, "fusion_lat": 0.0}, {"type": "electric_scooter", "rental_uris": {"ios": "https://dc.lft.to/lastmile_qr_scan", "android": "https://dc.lft.to/lastmile_qr_scan"}, "lon": -77.022094, "fusion_lon": 0.0, "is_disabled": 0, "lat": 38.887472833333334, "bike_id": "170666312b7920cf04ec6176695bf196", "name": "170666312b7920cf04ec6176695bf196", "is_reserved": 0, "fusion_lat": 0.0}, {"type": "electric_scooter", "rental_uris": {"ios": "https://dc.lft.to/lastmile_qr_scan", "android": "https://dc.lft.to/lastmile_qr_scan"}, "lon": -77.01736366666667, "fusion_lon": 0.0, "is_disabled": 0, "lat": 38.902433333333335, "bike_id": "9b194c1f4eae139f8b2dd5385520de81", "name": "9b194c1f4eae139f8b2dd5385520de81", "is_reserved": 0, "fusion_lat": 0.0}, {"type": "electric_scooter", "rental_uris": {"ios": "https://dc.lft.to/lastmile_qr_scan", "android": "https://dc.lft.to/lastmile_qr_scan"}, "lon": -76.97632466666667, "fusion_lon": 0.0, "is_disabled": 0, "lat": 38.8519425, "bike_id": "b5a19f32eda629597a5181d90c67ecd7", "name": "b5a19f32eda629597a5181d90c67ecd7", "is_reserved": 0, "fusion_lat": 0.0}, {"type": "electric_scooter", "rental_uris": {"ios": "https://dc.lft.to/lastmile_qr_scan", "android": "https://dc.lft.to/lastmile_qr_scan"}, "lon": -77.04362683333333, "fusion_lon": 0.0, "is_disabled": 0, "lat": 38.9206925, "bike_id": "c935136cf22a0172bac1484bebfe7fee", "name": "c935136cf22a0172bac1484bebfe7fee", "is_reserved": 0, "fusion_lat": 0.0}, {"type": "electric_scooter", "rental_uris": {"ios": "https://dc.lft.to/lastmile_qr_scan", "android": "https://dc.lft.to/lastmile_qr_scan"}, "lon": -77.030678, "fusion_lon": 0.0, "is_disabled": 0, "lat": 38.8997935, "bike_id": "eea5aef93019bd8b8ae2f3b8095b3ec8", "name": "eea5aef93019bd8b8ae2f3b8095b3ec8", "is_reserved": 0, "fusion_lat": 0.0}, {"type": "electric_bike", "rental_uris": {"ios": "https://dc.lft.to/lastmile_qr_scan", "android": "https://dc.lft.to/lastmile_qr_scan"}, "lon": -76.979794, "fusion_lon": 0.0, "is_disabled": 0, "lat": 38.95369633333333, "bike_id": "aa5577d3fb2b11fbaa44c7f7d821128c", "name": "aa5577d3fb2b11fbaa44c7f7d821128c", "is_reserved": 0, "fusion_lat": 0.0}, {"type": "electric_bike", "rental_uris": {"ios": "https://dc.lft.to/lastmile_qr_scan", "android": "https://dc.lft.to/lastmile_qr_scan"}, "lon": -76.89532583333333, "fusion_lon": 0.0, "is_disabled": 0, "lat": 38.945522, "bike_id": "5d8d9e38cea65ad64e508df4e2141232", "name": "5d8d9e38cea65ad64e508df4e2141232", "is_reserved": 0, "fusion_lat": 0.0}, {"type": "electric_scooter", "rental_uris": {"ios": "https://dc.lft.to/lastmile_qr_scan", "android": "https://dc.lft.to/lastmile_qr_scan"}, "lon": -77.028003, "fusion_lon": 0.0, "is_disabled": 0, "lat": 38.90267133333333, "bike_id": "a19967e8cf544afb7b617bfee4437554", "name": "a19967e8cf544afb7b617bfee4437554", "is_reserved": 0, "fusion_lat": 0.0}, {"type": "electric_scooter", "rental_uris": {"ios": "https://dc.lft.to/lastmile_qr_scan", "android": "https://dc.lft.to/lastmile_qr_scan"}, "lon": -76.98981933333333, "fusion_lon": 0.0, "is_disabled": 0, "lat": 38.86506983333334, "bike_id": "0bd288327bc38b6793df1d8c2f7afe97", "name": "0bd288327bc38b6793df1d8c2f7afe97", "is_reserved": 0, "fusion_lat": 0.0}, {"type": "electric_scooter", "rental_uris": {"ios": "https://dc.lft.to/lastmile_qr_scan", "android": "https://dc.lft.to/lastmile_qr_scan"}, "lon": -77.0415045, "fusion_lon": 0.0, "is_disabled": 0, "lat": 38.89344033333333, "bike_id": "fc0cfbf576085d42cc5d11263073e104", "name": "fc0cfbf576085d42cc5d11263073e104", "is_reserved": 0, "fusion_lat": 0.0}, {"type": "electric_scooter", "rental_uris": {"ios": "https://dc.lft.to/lastmile_qr_scan", "android": "https://dc.lft.to/lastmile_qr_scan"}, "lon": -77.04461683333334, "fusion_lon": 0.0, "is_disabled": 0, "lat": 38.91116533333334, "bike_id": "82ba0fade496b8b21c5ecdedeaa18baa", "name": "82ba0fade496b8b21c5ecdedeaa18baa", "is_reserved": 0, "fusion_lat": 0.0}, {"type": "electric_scooter", "rental_uris": {"ios": "https://dc.lft.to/lastmile_qr_scan", "android": "https://dc.lft.to/lastmile_qr_scan"}, "lon": -77.0378555, "fusion_lon": 0.0, "is_disabled": 0, "lat": 38.909744833333335, "bike_id": "a8b676e5fd175116c8d538d0fa2ea54c", "name": "a8b676e5fd175116c8d538d0fa2ea54c", "is_reserved": 0, "fusion_lat": 0.0}, {"type": "electric_scooter", "rental_uris": {"ios": "https://dc.lft.to/lastmile_qr_scan", "android": "https://dc.lft.to/lastmile_qr_scan"}, "lon": -77.044669, "fusion_lon": 0.0, "is_disabled": 0, "lat": 38.89611033333333, "bike_id": "137dd53c705c8c857f4c328fb9ad2f66", "name": "137dd53c705c8c857f4c328fb9ad2f66", "is_reserved": 0, "fusion_lat": 0.0}, {"type": "electric_scooter", "rental_uris": {"ios": "https://dc.lft.to/lastmile_qr_scan", "android": "https://dc.lft.to/lastmile_qr_scan"}, "lon": -77.0526725, "fusion_lon": 0.0, "is_disabled": 0, "lat": 38.925405833333336, "bike_id": "d22efe24a06dad84f0619d9d02236516", "name": "d22efe24a06dad84f0619d9d02236516", "is_reserved": 0, "fusion_lat": 0.0}, {"type": "electric_scooter", "rental_uris": {"ios": "https://dc.lft.to/lastmile_qr_scan", "android": "https://dc.lft.to/lastmile_qr_scan"}, "lon": -77.04233833333333, "fusion_lon": 0.0, "is_disabled": 0, "lat": 38.9219745, "bike_id": "914374c51661d57acc4936516156aee2", "name": "914374c51661d57acc4936516156aee2", "is_reserved": 0, "fusion_lat": 0.0}, {"type": "electric_bike", "rental_uris": {"ios": "https://dc.lft.to/lastmile_qr_scan", "android": "https://dc.lft.to/lastmile_qr_scan"}, "lon": -77.1273065, "fusion_lon": 0.0, "is_disabled": 0, "lat": 38.8956385, "bike_id": "eb3c6a2319f348869ddf9aec098d6a14", "name": "eb3c6a2319f348869ddf9aec098d6a14", "is_reserved": 0, "fusion_lat": 0.0}, {"type": "electric_scooter", "rental_uris": {"ios": "https://dc.lft.to/lastmile_qr_scan", "android": "https://dc.lft.to/lastmile_qr_scan"}, "lon": -77.05232366666667, "fusion_lon": 0.0, "is_disabled": 0, "lat": 38.92341833333333, "bike_id": "8fb58b2b374b20aba07384ef64285e92", "name": "8fb58b2b374b20aba07384ef64285e92", "is_reserved": 0, "fusion_lat": 0.0}, {"type": "electric_scooter", "rental_uris": {"ios": "https://dc.lft.to/lastmile_qr_scan", "android": "https://dc.lft.to/lastmile_qr_scan"}, "lon": -77.02692216666667, "fusion_lon": 0.0, "is_disabled": 0, "lat": 38.911211333333334, "bike_id": "0c9054df6964db3733ebfb6c0fc0f9f2", "name": "0c9054df6964db3733ebfb6c0fc0f9f2", "is_reserved": 0, "fusion_lat": 0.0}, {"type": "electric_scooter", "rental_uris": {"ios": "https://dc.lft.to/lastmile_qr_scan", "android": "https://dc.lft.to/lastmile_qr_scan"}, "lon": -77.0414625, "fusion_lon": 0.0, "is_disabled": 0, "lat": 38.892179666666664, "bike_id": "36c3a7c49725a8fe2ccc4df7766e0ffd", "name": "36c3a7c49725a8fe2ccc4df7766e0ffd", "is_reserved": 0, "fusion_lat": 0.0}, {"type": "electric_scooter", "rental_uris": {"ios": "https://dc.lft.to/lastmile_qr_scan", "android": "https://dc.lft.to/lastmile_qr_scan"}, "lon": -77.032944, "fusion_lon": 0.0, "is_disabled": 0, "lat": 38.956429166666666, "bike_id": "4d1b251e50f323e27542831cba9f380d", "name": "4d1b251e50f323e27542831cba9f380d", "is_reserved": 0, "fusion_lat": 0.0}, {"type": "electric_scooter", "rental_uris": {"ios": "https://dc.lft.to/lastmile_qr_scan", "android": "https://dc.lft.to/lastmile_qr_scan"}, "lon": -76.98882416666666, "fusion_lon": 0.0, "is_disabled": 0, "lat": 38.866419, "bike_id": "899fc02d52c8a7959fc424c575009550", "name": "899fc02d52c8a7959fc424c575009550", "is_reserved": 0, "fusion_lat": 0.0}, {"type": "electric_scooter", "rental_uris": {"ios": "https://dc.lft.to/lastmile_qr_scan", "android": "https://dc.lft.to/lastmile_qr_scan"}, "lon": -77.02730266666667, "fusion_lon": 0.0, "is_disabled": 0, "lat": 38.938677166666665, "bike_id": "6fa81e892c141faba6f026b5d5d99d22", "name": "6fa81e892c141faba6f026b5d5d99d22", "is_reserved": 0, "fusion_lat": 0.0}, {"type": "electric_scooter", "rental_uris": {"ios": "https://dc.lft.to/lastmile_qr_scan", "android": "https://dc.lft.to/lastmile_qr_scan"}, "lon": -76.96006083333333, "fusion_lon": 0.0, "is_disabled": 0, "lat": 38.8801745, "bike_id": "3412a07e668eb76f8122345216373391", "name": "3412a07e668eb76f8122345216373391", "is_reserved": 0, "fusion_lat": 0.0}, {"type": "electric_scooter", "rental_uris": {"ios": "https://dc.lft.to/lastmile_qr_scan", "android": "https://dc.lft.to/lastmile_qr_scan"}, "lon": -77.0315875, "fusion_lon": 0.0, "is_disabled": 0, "lat": 38.923722, "bike_id": "24fb2b1af32d68c80e884438008403ba", "name": "24fb2b1af32d68c80e884438008403ba", "is_reserved": 0, "fusion_lat": 0.0}, {"type": "electric_bike", "rental_uris": {"ios": "https://dc.lft.to/lastmile_qr_scan", "android": "https://dc.lft.to/lastmile_qr_scan"}, "lon": -77.114921, "fusion_lon": 0.0, "is_disabled": 0, "lat": 39.069267833333335, "bike_id": "8a99799ed820d6a40221371520343432", "name": "8a99799ed820d6a40221371520343432", "is_reserved": 0, "fusion_lat": 0.0}, {"type": "electric_scooter", "rental_uris": {"ios": "https://dc.lft.to/lastmile_qr_scan", "android": "https://dc.lft.to/lastmile_qr_scan"}, "lon": -77.02823716666667, "fusion_lon": 0.0, "is_disabled": 0, "lat": 38.931922166666666, "bike_id": "7c88c5148113862b662d2a1914f3bb55", "name": "7c88c5148113862b662d2a1914f3bb55", "is_reserved": 0, "fusion_lat": 0.0}, {"type": "electric_scooter", "rental_uris": {"ios": "https://dc.lft.to/lastmile_qr_scan", "android": "https://dc.lft.to/lastmile_qr_scan"}, "lon": -77.031491, "fusion_lon": 0.0, "is_disabled": 0, "lat": 38.9156235, "bike_id": "afdf1f4d3e0e37ce6c9378491a5cdb3a", "name": "afdf1f4d3e0e37ce6c9378491a5cdb3a", "is_reserved": 0, "fusion_lat": 0.0}, {"type": "electric_scooter", "rental_uris": {"ios": "https://dc.lft.to/lastmile_qr_scan", "android": "https://dc.lft.to/lastmile_qr_scan"}, "lon": -77.03800966666667, "fusion_lon": 0.0, "is_disabled": 0, "lat": 38.9126565, "bike_id": "bf777149db9afadc9ab65a62867d8ccd", "name": "bf777149db9afadc9ab65a62867d8ccd", "is_reserved": 0, "fusion_lat": 0.0}, {"type": "electric_scooter", "rental_uris": {"ios": "https://dc.lft.to/lastmile_qr_scan", "android": "https://dc.lft.to/lastmile_qr_scan"}, "lon": -77.03280983333333, "fusion_lon": 0.0, "is_disabled": 0, "lat": 38.938794, "bike_id": "8f52b73768123c78c301a3c3065f3314", "name": "8f52b73768123c78c301a3c3065f3314", "is_reserved": 0, "fusion_lat": 0.0}, {"type": "electric_scooter", "rental_uris": {"ios": "https://dc.lft.to/lastmile_qr_scan", "android": "https://dc.lft.to/lastmile_qr_scan"}, "lon": -77.032948, "fusion_lon": 0.0, "is_disabled": 0, "lat": 38.956372, "bike_id": "50ce0a17344415969e8936864070b150", "name": "50ce0a17344415969e8936864070b150", "is_reserved": 0, "fusion_lat": 0.0}, {"type": "electric_bike", "rental_uris": {"ios": "https://dc.lft.to/lastmile_qr_scan", "android": "https://dc.lft.to/lastmile_qr_scan"}, "lon": -77.0995915, "fusion_lon": 0.0, "is_disabled": 0, "lat": 38.93359133333333, "bike_id": "08bd7b477eab455eff629c3650722ea1", "name": "08bd7b477eab455eff629c3650722ea1", "is_reserved": 0, "fusion_lat": 0.0}, {"type": "electric_scooter", "rental_uris": {"ios": "https://dc.lft.to/lastmile_qr_scan", "android": "https://dc.lft.to/lastmile_qr_scan"}, "lon": -77.051208, "fusion_lon": 0.0, "is_disabled": 0, "lat": 38.90583483333333, "bike_id": "e75fb43e3c1ff7af28ce9935620b57f7", "name": "e75fb43e3c1ff7af28ce9935620b57f7", "is_reserved": 0, "fusion_lat": 0.0}, {"type": "electric_scooter", "rental_uris": {"ios": "https://dc.lft.to/lastmile_qr_scan", "android": "https://dc.lft.to/lastmile_qr_scan"}, "lon": -77.02406133333334, "fusion_lon": 0.0, "is_disabled": 0, "lat": 38.92896416666667, "bike_id": "292380776dd9e1508fa0eb57cc6d4f57", "name": "292380776dd9e1508fa0eb57cc6d4f57", "is_reserved": 0, "fusion_lat": 0.0}, {"type": "electric_bike", "rental_uris": {"ios": "https://dc.lft.to/lastmile_qr_scan", "android": "https://dc.lft.to/lastmile_qr_scan"}, "lon": -77.007986, "fusion_lon": 0.0, "is_disabled": 0, "lat": 38.949218333333334, "bike_id": "09b4c210926eef31aa1055fdcb1349ca", "name": "09b4c210926eef31aa1055fdcb1349ca", "is_reserved": 0, "fusion_lat": 0.0}, {"type": "electric_scooter", "rental_uris": {"ios": "https://dc.lft.to/lastmile_qr_scan", "android": "https://dc.lft.to/lastmile_qr_scan"}, "lon": -77.041535, "fusion_lon": 0.0, "is_disabled": 0, "lat": 38.92797916666667, "bike_id": "90ad9af9fbede8718d24a8522fea3347", "name": "90ad9af9fbede8718d24a8522fea3347", "is_reserved": 0, "fusion_lat": 0.0}, {"type": "electric_scooter", "rental_uris": {"ios": "https://dc.lft.to/lastmile_qr_scan", "android": "https://dc.lft.to/lastmile_qr_scan"}, "lon": -77.044223, "fusion_lon": 0.0, "is_disabled": 0, "lat": 38.910082, "bike_id": "9850e6c8cd8ec24be85ae3f80f78cdab", "name": "9850e6c8cd8ec24be85ae3f80f78cdab", "is_reserved": 0, "fusion_lat": 0.0}, {"type": "electric_scooter", "rental_uris": {"ios": "https://dc.lft.to/lastmile_qr_scan", "android": "https://dc.lft.to/lastmile_qr_scan"}, "lon": -77.0381235, "fusion_lon": 0.0, "is_disabled": 0, "lat": 38.9206645, "bike_id": "52d1d5d8ee7bf814b78b48cacc28cf59", "name": "52d1d5d8ee7bf814b78b48cacc28cf59", "is_reserved": 0, "fusion_lat": 0.0}, {"type": "electric_bike", "rental_uris": {"ios": "https://dc.lft.to/lastmile_qr_scan", "android": "https://dc.lft.to/lastmile_qr_scan"}, "lon": -77.02389966666667, "fusion_lon": 0.0, "is_disabled": 0, "lat": 38.96278916666667, "bike_id": "6c9ac2200cbcd8a715ffa6f1db58c38c", "name": "6c9ac2200cbcd8a715ffa6f1db58c38c", "is_reserved": 0, "fusion_lat": 0.0}, {"type": "electric_scooter", "rental_uris": {"ios": "https://dc.lft.to/lastmile_qr_scan", "android": "https://dc.lft.to/lastmile_qr_scan"}, "lon": -77.024213, "fusion_lon": 0.0, "is_disabled": 0, "lat": 38.90554933333333, "bike_id": "ed7260673c27cd9c677246e7708381e6", "name": "ed7260673c27cd9c677246e7708381e6", "is_reserved": 0, "fusion_lat": 0.0}, {"type": "electric_scooter", "rental_uris": {"ios": "https://dc.lft.to/lastmile_qr_scan", "android": "https://dc.lft.to/lastmile_qr_scan"}, "lon": -76.97234133333333, "fusion_lon": 0.0, "is_disabled": 0, "lat": 38.854567333333335, "bike_id": "8bab44b1c77a7aee5f5085adba50d98d", "name": "8bab44b1c77a7aee5f5085adba50d98d", "is_reserved": 0, "fusion_lat": 0.0}, {"type": "electric_scooter", "rental_uris": {"ios": "https://dc.lft.to/lastmile_qr_scan", "android": "https://dc.lft.to/lastmile_qr_scan"}, "lon": -77.02199766666666, "fusion_lon": 0.0, "is_disabled": 0, "lat": 38.9165915, "bike_id": "334a24ad392f31c8b8c9cd2870a0a691", "name": "334a24ad392f31c8b8c9cd2870a0a691", "is_reserved": 0, "fusion_lat": 0.0}, {"type": "electric_scooter", "rental_uris": {"ios": "https://dc.lft.to/lastmile_qr_scan", "android": "https://dc.lft.to/lastmile_qr_scan"}, "lon": -77.023781, "fusion_lon": 0.0, "is_disabled": 0, "lat": 38.9062305, "bike_id": "14121d64c0d5d604ced101a8ceaf7824", "name": "14121d64c0d5d604ced101a8ceaf7824", "is_reserved": 0, "fusion_lat": 0.0}, {"type": "electric_scooter", "rental_uris": {"ios": "https://dc.lft.to/lastmile_qr_scan", "android": "https://dc.lft.to/lastmile_qr_scan"}, "lon": -77.03254666666666, "fusion_lon": 0.0, "is_disabled": 0, "lat": 38.93968483333333, "bike_id": "9f4a0b696c9e5aff7f9cafcbf6d9e8f6", "name": "9f4a0b696c9e5aff7f9cafcbf6d9e8f6", "is_reserved": 0, "fusion_lat": 0.0}, {"type": "electric_scooter", "rental_uris": {"ios": "https://dc.lft.to/lastmile_qr_scan", "android": "https://dc.lft.to/lastmile_qr_scan"}, "lon": -76.99250233333333, "fusion_lon": 0.0, "is_disabled": 0, "lat": 38.863846, "bike_id": "7942d3f803f694f991901113de504cd3", "name": "7942d3f803f694f991901113de504cd3", "is_reserved": 0, "fusion_lat": 0.0}, {"type": "electric_scooter", "rental_uris": {"ios": "https://dc.lft.to/lastmile_qr_scan", "android": "https://dc.lft.to/lastmile_qr_scan"}, "lon": -77.02793016666666, "fusion_lon": 0.0, "is_disabled": 0, "lat": 38.93095233333333, "bike_id": "35aaa25e5b01f5ccb7ecfe5206d71970", "name": "35aaa25e5b01f5ccb7ecfe5206d71970", "is_reserved": 0, "fusion_lat": 0.0}, {"type": "electric_scooter", "rental_uris": {"ios": "https://dc.lft.to/lastmile_qr_scan", "android": "https://dc.lft.to/lastmile_qr_scan"}, "lon": -77.03469533333333, "fusion_lon": 0.0, "is_disabled": 0, "lat": 38.90957483333333, "bike_id": "510997288314c86546e10d20abee395e", "name": "510997288314c86546e10d20abee395e", "is_reserved": 0, "fusion_lat": 0.0}, {"type": "electric_scooter", "rental_uris": {"ios": "https://dc.lft.to/lastmile_qr_scan", "android": "https://dc.lft.to/lastmile_qr_scan"}, "lon": -76.9837315, "fusion_lon": 0.0, "is_disabled": 0, "lat": 38.86114166666667, "bike_id": "52310bfd5fa89f2bd150ba73c19e2c4a", "name": "52310bfd5fa89f2bd150ba73c19e2c4a", "is_reserved": 0, "fusion_lat": 0.0}, {"type": "electric_scooter", "rental_uris": {"ios": "https://dc.lft.to/lastmile_qr_scan", "android": "https://dc.lft.to/lastmile_qr_scan"}, "lon": -77.03421966666667, "fusion_lon": 0.0, "is_disabled": 0, "lat": 38.906215333333336, "bike_id": "14d357767d85da5d3e4c0272e4066cea", "name": "14d357767d85da5d3e4c0272e4066cea", "is_reserved": 0, "fusion_lat": 0.0}, {"type": "electric_scooter", "rental_uris": {"ios": "https://dc.lft.to/lastmile_qr_scan", "android": "https://dc.lft.to/lastmile_qr_scan"}, "lon": -77.026353, "fusion_lon": 0.0, "is_disabled": 0, "lat": 38.91067783333333, "bike_id": "9b8819d5b303cb2775e02152594b7d4e", "name": "9b8819d5b303cb2775e02152594b7d4e", "is_reserved": 0, "fusion_lat": 0.0}, {"type": "electric_scooter", "rental_uris": {"ios": "https://dc.lft.to/lastmile_qr_scan", "android": "https://dc.lft.to/lastmile_qr_scan"}, "lon": -77.04033316666667, "fusion_lon": 0.0, "is_disabled": 0, "lat": 38.918557666666665, "bike_id": "44db329be801e8fcb99325efcd319928", "name": "44db329be801e8fcb99325efcd319928", "is_reserved": 0, "fusion_lat": 0.0}, {"type": "electric_scooter", "rental_uris": {"ios": "https://dc.lft.to/lastmile_qr_scan", "android": "https://dc.lft.to/lastmile_qr_scan"}, "lon": -77.04404966666667, "fusion_lon": 0.0, "is_disabled": 0, "lat": 38.9245015, "bike_id": "126d5fcdd2ff3a9d0ab9b73ab0b9d563", "name": "126d5fcdd2ff3a9d0ab9b73ab0b9d563", "is_reserved": 0, "fusion_lat": 0.0}, {"type": "electric_scooter", "rental_uris": {"ios": "https://dc.lft.to/lastmile_qr_scan", "android": "https://dc.lft.to/lastmile_qr_scan"}, "lon": -77.02978233333333, "fusion_lon": 0.0, "is_disabled": 0, "lat": 38.930656666666664, "bike_id": "807005e1947229d698e82e27be842dc0", "name": "807005e1947229d698e82e27be842dc0", "is_reserved": 0, "fusion_lat": 0.0}, {"type": "electric_scooter", "rental_uris": {"ios": "https://dc.lft.to/lastmile_qr_scan", "android": "https://dc.lft.to/lastmile_qr_scan"}, "lon": -77.01067866666666, "fusion_lon": 0.0, "is_disabled": 0, "lat": 38.90731266666667, "bike_id": "b18a773a70b752c95651d4a226425210", "name": "b18a773a70b752c95651d4a226425210", "is_reserved": 0, "fusion_lat": 0.0}, {"type": "electric_scooter", "rental_uris": {"ios": "https://dc.lft.to/lastmile_qr_scan", "android": "https://dc.lft.to/lastmile_qr_scan"}, "lon": -76.95413616666667, "fusion_lon": 0.0, "is_disabled": 0, "lat": 38.89002333333333, "bike_id": "b80dcd1804257ff78749d7e4ba648604", "name": "b80dcd1804257ff78749d7e4ba648604", "is_reserved": 0, "fusion_lat": 0.0}, {"type": "electric_bike", "rental_uris": {"ios": "https://dc.lft.to/lastmile_qr_scan", "android": "https://dc.lft.to/lastmile_qr_scan"}, "lon": -77.03595033333333, "fusion_lon": 0.0, "is_disabled": 0, "lat": 38.9067755, "bike_id": "8e538d7fd37a67eb81aa64ba6be98916", "name": "8e538d7fd37a67eb81aa64ba6be98916", "is_reserved": 0, "fusion_lat": 0.0}, {"type": "electric_scooter", "rental_uris": {"ios": "https://dc.lft.to/lastmile_qr_scan", "android": "https://dc.lft.to/lastmile_qr_scan"}, "lon": -77.04171666666667, "fusion_lon": 0.0, "is_disabled": 0, "lat": 38.91551033333333, "bike_id": "025bbff43135cda2b79ef2564666dcbf", "name": "025bbff43135cda2b79ef2564666dcbf", "is_reserved": 0, "fusion_lat": 0.0}, {"type": "electric_scooter", "rental_uris": {"ios": "https://dc.lft.to/lastmile_qr_scan", "android": "https://dc.lft.to/lastmile_qr_scan"}, "lon": -76.98699266666667, "fusion_lon": 0.0, "is_disabled": 0, "lat": 38.866201, "bike_id": "6763f54922cf189868a319706243afd7", "name": "6763f54922cf189868a319706243afd7", "is_reserved": 0, "fusion_lat": 0.0}, {"type": "electric_scooter", "rental_uris": {"ios": "https://dc.lft.to/lastmile_qr_scan", "android": "https://dc.lft.to/lastmile_qr_scan"}, "lon": -77.03854216666667, "fusion_lon": 0.0, "is_disabled": 0, "lat": 38.91240033333333, "bike_id": "c2043ab1141436bd289e8662f1e58677", "name": "c2043ab1141436bd289e8662f1e58677", "is_reserved": 0, "fusion_lat": 0.0}, {"type": "electric_scooter", "rental_uris": {"ios": "https://dc.lft.to/lastmile_qr_scan", "android": "https://dc.lft.to/lastmile_qr_scan"}, "lon": -77.02403266666667, "fusion_lon": 0.0, "is_disabled": 0, "lat": 38.95711883333333, "bike_id": "8ede0b0aa3f9d03ad7f22f94d4564131", "name": "8ede0b0aa3f9d03ad7f22f94d4564131", "is_reserved": 0, "fusion_lat": 0.0}, {"type": "electric_scooter", "rental_uris": {"ios": "https://dc.lft.to/lastmile_qr_scan", "android": "https://dc.lft.to/lastmile_qr_scan"}, "lon": -77.02812016666667, "fusion_lon": 0.0, "is_disabled": 0, "lat": 38.899327666666665, "bike_id": "31ce3db0a100d3fa68e16db52e449043", "name": "31ce3db0a100d3fa68e16db52e449043", "is_reserved": 0, "fusion_lat": 0.0}, {"type": "electric_scooter", "rental_uris": {"ios": "https://dc.lft.to/lastmile_qr_scan", "android": "https://dc.lft.to/lastmile_qr_scan"}, "lon": -76.99505466666666, "fusion_lon": 0.0, "is_disabled": 0, "lat": 38.9266715, "bike_id": "5c83cafd1c4dd3f1eacf8f46611db3d9", "name": "5c83cafd1c4dd3f1eacf8f46611db3d9", "is_reserved": 0, "fusion_lat": 0.0}, {"type": "electric_scooter", "rental_uris": {"ios": "https://dc.lft.to/lastmile_qr_scan", "android": "https://dc.lft.to/lastmile_qr_scan"}, "lon": -77.04345583333334, "fusion_lon": 0.0, "is_disabled": 0, "lat": 38.90534016666667, "bike_id": "cfca42442d18db907495158016dcaa17", "name": "cfca42442d18db907495158016dcaa17", "is_reserved": 0, "fusion_lat": 0.0}, {"type": "electric_scooter", "rental_uris": {"ios": "https://dc.lft.to/lastmile_qr_scan", "android": "https://dc.lft.to/lastmile_qr_scan"}, "lon": -77.04186916666667, "fusion_lon": 0.0, "is_disabled": 0, "lat": 38.905190166666664, "bike_id": "0ab2a406891c6538038d92da91042735", "name": "0ab2a406891c6538038d92da91042735", "is_reserved": 0, "fusion_lat": 0.0}, {"type": "electric_scooter", "rental_uris": {"ios": "https://dc.lft.to/lastmile_qr_scan", "android": "https://dc.lft.to/lastmile_qr_scan"}, "lon": -77.00366566666666, "fusion_lon": 0.0, "is_disabled": 0, "lat": 38.88266633333333, "bike_id": "b21b5af917b21e1631abdd63a4d0b6db", "name": "b21b5af917b21e1631abdd63a4d0b6db", "is_reserved": 0, "fusion_lat": 0.0}, {"type": "electric_scooter", "rental_uris": {"ios": "https://dc.lft.to/lastmile_qr_scan", "android": "https://dc.lft.to/lastmile_qr_scan"}, "lon": -77.03656033333333, "fusion_lon": 0.0, "is_disabled": 0, "lat": 38.91863166666667, "bike_id": "d34b040db819b9f22ac932f8145533e6", "name": "d34b040db819b9f22ac932f8145533e6", "is_reserved": 0, "fusion_lat": 0.0}, {"type": "electric_scooter", "rental_uris": {"ios": "https://dc.lft.to/lastmile_qr_scan", "android": "https://dc.lft.to/lastmile_qr_scan"}, "lon": -77.0418835, "fusion_lon": 0.0, "is_disabled": 0, "lat": 38.9052455, "bike_id": "e9026463d76d1cabc023ffe295db60a4", "name": "e9026463d76d1cabc023ffe295db60a4", "is_reserved": 0, "fusion_lat": 0.0}, {"type": "electric_scooter", "rental_uris": {"ios": "https://dc.lft.to/lastmile_qr_scan", "android": "https://dc.lft.to/lastmile_qr_scan"}, "lon": -77.03282066666667, "fusion_lon": 0.0, "is_disabled": 0, "lat": 38.9274655, "bike_id": "24447c73e90264b500f80ab9c782e68e", "name": "24447c73e90264b500f80ab9c782e68e", "is_reserved": 0, "fusion_lat": 0.0}, {"type": "electric_scooter", "rental_uris": {"ios": "https://dc.lft.to/lastmile_qr_scan", "android": "https://dc.lft.to/lastmile_qr_scan"}, "lon": -77.04760383333333, "fusion_lon": 0.0, "is_disabled": 0, "lat": 38.90849083333333, "bike_id": "bb3f8f773ca24f6e38f09b0c5a8c7acd", "name": "bb3f8f773ca24f6e38f09b0c5a8c7acd", "is_reserved": 0, "fusion_lat": 0.0}, {"type": "electric_scooter", "rental_uris": {"ios": "https://dc.lft.to/lastmile_qr_scan", "android": "https://dc.lft.to/lastmile_qr_scan"}, "lon": -77.038401, "fusion_lon": 0.0, "is_disabled": 0, "lat": 38.910919166666666, "bike_id": "6c40855ccc9d4ff7a975d671164f8aac", "name": "6c40855ccc9d4ff7a975d671164f8aac", "is_reserved": 0, "fusion_lat": 0.0}, {"type": "electric_scooter", "rental_uris": {"ios": "https://dc.lft.to/lastmile_qr_scan", "android": "https://dc.lft.to/lastmile_qr_scan"}, "lon": -76.97704283333333, "fusion_lon": 0.0, "is_disabled": 0, "lat": 38.888095666666665, "bike_id": "a00d2ff36d40c240ca20bff53079ba61", "name": "a00d2ff36d40c240ca20bff53079ba61", "is_reserved": 0, "fusion_lat": 0.0}, {"type": "electric_scooter", "rental_uris": {"ios": "https://dc.lft.to/lastmile_qr_scan", "android": "https://dc.lft.to/lastmile_qr_scan"}, "lon": -77.02721583333333, "fusion_lon": 0.0, "is_disabled": 0, "lat": 38.92482483333333, "bike_id": "fc1203501b0ad5dc14806bce96a9a232", "name": "fc1203501b0ad5dc14806bce96a9a232", "is_reserved": 0, "fusion_lat": 0.0}, {"type": "electric_scooter", "rental_uris": {"ios": "https://dc.lft.to/lastmile_qr_scan", "android": "https://dc.lft.to/lastmile_qr_scan"}, "lon": -76.97725233333334, "fusion_lon": 0.0, "is_disabled": 0, "lat": 38.87241516666667, "bike_id": "5245d085b3291209aea0b56ecbf26784", "name": "5245d085b3291209aea0b56ecbf26784", "is_reserved": 0, "fusion_lat": 0.0}, {"type": "electric_scooter", "rental_uris": {"ios": "https://dc.lft.to/lastmile_qr_scan", "android": "https://dc.lft.to/lastmile_qr_scan"}, "lon": -76.96863033333334, "fusion_lon": 0.0, "is_disabled": 0, "lat": 38.87081716666667, "bike_id": "99d93fc7cace3cdc0c609ae143399319", "name": "99d93fc7cace3cdc0c609ae143399319", "is_reserved": 0, "fusion_lat": 0.0}, {"type": "electric_scooter", "rental_uris": {"ios": "https://dc.lft.to/lastmile_qr_scan", "android": "https://dc.lft.to/lastmile_qr_scan"}, "lon": -77.0122375, "fusion_lon": 0.0, "is_disabled": 0, "lat": 38.9149545, "bike_id": "2181fdc70304e93a2c876d3b30ed5b76", "name": "2181fdc70304e93a2c876d3b30ed5b76", "is_reserved": 0, "fusion_lat": 0.0}, {"type": "electric_scooter", "rental_uris": {"ios": "https://dc.lft.to/lastmile_qr_scan", "android": "https://dc.lft.to/lastmile_qr_scan"}, "lon": -77.02512433333334, "fusion_lon": 0.0, "is_disabled": 0, "lat": 38.9208985, "bike_id": "a4c67318c664abe74c5ea3ee239d2a29", "name": "a4c67318c664abe74c5ea3ee239d2a29", "is_reserved": 0, "fusion_lat": 0.0}, {"type": "electric_scooter", "rental_uris": {"ios": "https://dc.lft.to/lastmile_qr_scan", "android": "https://dc.lft.to/lastmile_qr_scan"}, "lon": -77.00963033333333, "fusion_lon": 0.0, "is_disabled": 0, "lat": 38.907933666666665, "bike_id": "9fe81f5872552b591793a7eac83ba401", "name": "9fe81f5872552b591793a7eac83ba401", "is_reserved": 0, "fusion_lat": 0.0}, {"type": "electric_scooter", "rental_uris": {"ios": "https://dc.lft.to/lastmile_qr_scan", "android": "https://dc.lft.to/lastmile_qr_scan"}, "lon": -77.03432783333334, "fusion_lon": 0.0, "is_disabled": 0, "lat": 38.90797516666667, "bike_id": "7d466df910df604b7771006dae332af9", "name": "7d466df910df604b7771006dae332af9", "is_reserved": 0, "fusion_lat": 0.0}, {"type": "electric_scooter", "rental_uris": {"ios": "https://dc.lft.to/lastmile_qr_scan", "android": "https://dc.lft.to/lastmile_qr_scan"}, "lon": -76.99773433333333, "fusion_lon": 0.0, "is_disabled": 0, "lat": 38.844320333333336, "bike_id": "5eb65d655f858199aae683c977b483ff", "name": "5eb65d655f858199aae683c977b483ff", "is_reserved": 0, "fusion_lat": 0.0}, {"type": "electric_scooter", "rental_uris": {"ios": "https://dc.lft.to/lastmile_qr_scan", "android": "https://dc.lft.to/lastmile_qr_scan"}, "lon": -77.03639133333333, "fusion_lon": 0.0, "is_disabled": 0, "lat": 38.923460666666664, "bike_id": "395ca53b5c68c72135dd50a33bc8c429", "name": "395ca53b5c68c72135dd50a33bc8c429", "is_reserved": 0, "fusion_lat": 0.0}, {"type": "electric_scooter", "rental_uris": {"ios": "https://dc.lft.to/lastmile_qr_scan", "android": "https://dc.lft.to/lastmile_qr_scan"}, "lon": -77.027971, "fusion_lon": 0.0, "is_disabled": 0, "lat": 38.953981166666665, "bike_id": "1e96995bd5320e1ad87dd485fb896f52", "name": "1e96995bd5320e1ad87dd485fb896f52", "is_reserved": 0, "fusion_lat": 0.0}, {"type": "electric_scooter", "rental_uris": {"ios": "https://dc.lft.to/lastmile_qr_scan", "android": "https://dc.lft.to/lastmile_qr_scan"}, "lon": -77.04171533333333, "fusion_lon": 0.0, "is_disabled": 0, "lat": 38.905126333333335, "bike_id": "6a7bf45adc25652f2d45fec7b08d9b9b", "name": "6a7bf45adc25652f2d45fec7b08d9b9b", "is_reserved": 0, "fusion_lat": 0.0}, {"type": "electric_scooter", "rental_uris": {"ios": "https://dc.lft.to/lastmile_qr_scan", "android": "https://dc.lft.to/lastmile_qr_scan"}, "lon": -77.02747483333333, "fusion_lon": 0.0, "is_disabled": 0, "lat": 38.95775733333333, "bike_id": "163d6347e3b7cb4e18ede71a90686908", "name": "163d6347e3b7cb4e18ede71a90686908", "is_reserved": 0, "fusion_lat": 0.0}, {"type": "electric_scooter", "rental_uris": {"ios": "https://dc.lft.to/lastmile_qr_scan", "android": "https://dc.lft.to/lastmile_qr_scan"}, "lon": -77.04172733333333, "fusion_lon": 0.0, "is_disabled": 0, "lat": 38.920076, "bike_id": "294443dcb070db9f7c27f47eafeae73e", "name": "294443dcb070db9f7c27f47eafeae73e", "is_reserved": 0, "fusion_lat": 0.0}, {"type": "electric_scooter", "rental_uris": {"ios": "https://dc.lft.to/lastmile_qr_scan", "android": "https://dc.lft.to/lastmile_qr_scan"}, "lon": -77.04144616666666, "fusion_lon": 0.0, "is_disabled": 0, "lat": 38.89218116666667, "bike_id": "4030ea49d8f1086024c3ca05dc3123de", "name": "4030ea49d8f1086024c3ca05dc3123de", "is_reserved": 0, "fusion_lat": 0.0}, {"type": "electric_scooter", "rental_uris": {"ios": "https://dc.lft.to/lastmile_qr_scan", "android": "https://dc.lft.to/lastmile_qr_scan"}, "lon": -76.96527483333334, "fusion_lon": 0.0, "is_disabled": 0, "lat": 38.8763015, "bike_id": "c54f2f98a7fd3607bd877976a693e627", "name": "c54f2f98a7fd3607bd877976a693e627", "is_reserved": 0, "fusion_lat": 0.0}, {"type": "electric_scooter", "rental_uris": {"ios": "https://dc.lft.to/lastmile_qr_scan", "android": "https://dc.lft.to/lastmile_qr_scan"}, "lon": -77.05582016666666, "fusion_lon": 0.0, "is_disabled": 0, "lat": 38.910502666666666, "bike_id": "61a64dd23c9ca3ee33c26d79970062a0", "name": "61a64dd23c9ca3ee33c26d79970062a0", "is_reserved": 0, "fusion_lat": 0.0}, {"type": "electric_scooter", "rental_uris": {"ios": "https://dc.lft.to/lastmile_qr_scan", "android": "https://dc.lft.to/lastmile_qr_scan"}, "lon": -77.034387, "fusion_lon": 0.0, "is_disabled": 0, "lat": 38.918455, "bike_id": "d98be7f5d02b6af979acc0114cab6f2a", "name": "d98be7f5d02b6af979acc0114cab6f2a", "is_reserved": 0, "fusion_lat": 0.0}, {"type": "electric_scooter", "rental_uris": {"ios": "https://dc.lft.to/lastmile_qr_scan", "android": "https://dc.lft.to/lastmile_qr_scan"}, "lon": -77.04591016666667, "fusion_lon": 0.0, "is_disabled": 0, "lat": 38.9086935, "bike_id": "41efdac14840e80c5889dd72b8ce96ab", "name": "41efdac14840e80c5889dd72b8ce96ab", "is_reserved": 0, "fusion_lat": 0.0}, {"type": "electric_scooter", "rental_uris": {"ios": "https://dc.lft.to/lastmile_qr_scan", "android": "https://dc.lft.to/lastmile_qr_scan"}, "lon": -77.02540783333333, "fusion_lon": 0.0, "is_disabled": 0, "lat": 38.924049333333336, "bike_id": "895e9d6b9eb8ca5575339f534ab17d15", "name": "895e9d6b9eb8ca5575339f534ab17d15", "is_reserved": 0, "fusion_lat": 0.0}, {"type": "electric_scooter", "rental_uris": {"ios": "https://dc.lft.to/lastmile_qr_scan", "android": "https://dc.lft.to/lastmile_qr_scan"}, "lon": -77.02204966666666, "fusion_lon": 0.0, "is_disabled": 0, "lat": 38.91255666666667, "bike_id": "8bad9aaf3f448b3a42100247d77cac86", "name": "8bad9aaf3f448b3a42100247d77cac86", "is_reserved": 0, "fusion_lat": 0.0}, {"type": "electric_scooter", "rental_uris": {"ios": "https://dc.lft.to/lastmile_qr_scan", "android": "https://dc.lft.to/lastmile_qr_scan"}, "lon": -76.97593833333333, "fusion_lon": 0.0, "is_disabled": 0, "lat": 38.903316, "bike_id": "359ba90afa283e0d29fce46d14a3487a", "name": "359ba90afa283e0d29fce46d14a3487a", "is_reserved": 0, "fusion_lat": 0.0}, {"type": "electric_scooter", "rental_uris": {"ios": "https://dc.lft.to/lastmile_qr_scan", "android": "https://dc.lft.to/lastmile_qr_scan"}, "lon": -77.02804783333333, "fusion_lon": 0.0, "is_disabled": 0, "lat": 38.950946, "bike_id": "b5991b17b80be235e5f9a3a1e5c38fe5", "name": "b5991b17b80be235e5f9a3a1e5c38fe5", "is_reserved": 0, "fusion_lat": 0.0}, {"type": "electric_scooter", "rental_uris": {"ios": "https://dc.lft.to/lastmile_qr_scan", "android": "https://dc.lft.to/lastmile_qr_scan"}, "lon": -77.0513085, "fusion_lon": 0.0, "is_disabled": 0, "lat": 38.92363116666667, "bike_id": "3d1e2e038a9dfbf9bc2bcdd4ed393683", "name": "3d1e2e038a9dfbf9bc2bcdd4ed393683", "is_reserved": 0, "fusion_lat": 0.0}, {"type": "electric_scooter", "rental_uris": {"ios": "https://dc.lft.to/lastmile_qr_scan", "android": "https://dc.lft.to/lastmile_qr_scan"}, "lon": -76.99631933333333, "fusion_lon": 0.0, "is_disabled": 0, "lat": 38.90886716666667, "bike_id": "6272975870507d4de26f5feadb78824b", "name": "6272975870507d4de26f5feadb78824b", "is_reserved": 0, "fusion_lat": 0.0}, {"type": "electric_scooter", "rental_uris": {"ios": "https://dc.lft.to/lastmile_qr_scan", "android": "https://dc.lft.to/lastmile_qr_scan"}, "lon": -77.022958, "fusion_lon": 0.0, "is_disabled": 0, "lat": 38.91595266666667, "bike_id": "a8cff98d97107474f59ffd07776dd712", "name": "a8cff98d97107474f59ffd07776dd712", "is_reserved": 0, "fusion_lat": 0.0}, {"type": "electric_scooter", "rental_uris": {"ios": "https://dc.lft.to/lastmile_qr_scan", "android": "https://dc.lft.to/lastmile_qr_scan"}, "lon": -77.0418785, "fusion_lon": 0.0, "is_disabled": 0, "lat": 38.905808, "bike_id": "856efb3700d2184f1ffda990b0735c9d", "name": "856efb3700d2184f1ffda990b0735c9d", "is_reserved": 0, "fusion_lat": 0.0}, {"type": "electric_scooter", "rental_uris": {"ios": "https://dc.lft.to/lastmile_qr_scan", "android": "https://dc.lft.to/lastmile_qr_scan"}, "lon": -77.0230085, "fusion_lon": 0.0, "is_disabled": 0, "lat": 38.92079533333333, "bike_id": "80287523259717e32799ca54401eb3a9", "name": "80287523259717e32799ca54401eb3a9", "is_reserved": 0, "fusion_lat": 0.0}, {"type": "electric_scooter", "rental_uris": {"ios": "https://dc.lft.to/lastmile_qr_scan", "android": "https://dc.lft.to/lastmile_qr_scan"}, "lon": -77.05906883333333, "fusion_lon": 0.0, "is_disabled": 0, "lat": 38.902276666666666, "bike_id": "d3dfcc7e0ba6b2a732bd1719585384d0", "name": "d3dfcc7e0ba6b2a732bd1719585384d0", "is_reserved": 0, "fusion_lat": 0.0}, {"type": "electric_scooter", "rental_uris": {"ios": "https://dc.lft.to/lastmile_qr_scan", "android": "https://dc.lft.to/lastmile_qr_scan"}, "lon": -76.97730783333333, "fusion_lon": 0.0, "is_disabled": 0, "lat": 38.87286266666667, "bike_id": "198679013f289f6626532f01fe7cafcc", "name": "198679013f289f6626532f01fe7cafcc", "is_reserved": 0, "fusion_lat": 0.0}, {"type": "electric_scooter", "rental_uris": {"ios": "https://dc.lft.to/lastmile_qr_scan", "android": "https://dc.lft.to/lastmile_qr_scan"}, "lon": -77.04574916666667, "fusion_lon": 0.0, "is_disabled": 0, "lat": 38.92239383333333, "bike_id": "9d6296a5d65a0139033fa6295d7cc0e8", "name": "9d6296a5d65a0139033fa6295d7cc0e8", "is_reserved": 0, "fusion_lat": 0.0}, {"type": "electric_scooter", "rental_uris": {"ios": "https://dc.lft.to/lastmile_qr_scan", "android": "https://dc.lft.to/lastmile_qr_scan"}, "lon": -77.03503466666666, "fusion_lon": 0.0, "is_disabled": 0, "lat": 38.91875183333333, "bike_id": "fe30748ff56ba91fb793b42b1ac46a60", "name": "fe30748ff56ba91fb793b42b1ac46a60", "is_reserved": 0, "fusion_lat": 0.0}, {"type": "electric_scooter", "rental_uris": {"ios": "https://dc.lft.to/lastmile_qr_scan", "android": "https://dc.lft.to/lastmile_qr_scan"}, "lon": -77.022001, "fusion_lon": 0.0, "is_disabled": 0, "lat": 38.9209635, "bike_id": "6087967f2ee84323e5e67f79278014fb", "name": "6087967f2ee84323e5e67f79278014fb", "is_reserved": 0, "fusion_lat": 0.0}, {"type": "electric_scooter", "rental_uris": {"ios": "https://dc.lft.to/lastmile_qr_scan", "android": "https://dc.lft.to/lastmile_qr_scan"}, "lon": -77.03208866666667, "fusion_lon": 0.0, "is_disabled": 0, "lat": 38.91850633333333, "bike_id": "36fe5a2952c0a29e9525aa8f4832bfe3", "name": "36fe5a2952c0a29e9525aa8f4832bfe3", "is_reserved": 0, "fusion_lat": 0.0}, {"type": "electric_scooter", "rental_uris": {"ios": "https://dc.lft.to/lastmile_qr_scan", "android": "https://dc.lft.to/lastmile_qr_scan"}, "lon": -77.04193716666667, "fusion_lon": 0.0, "is_disabled": 0, "lat": 38.905532, "bike_id": "f20b2b5f9b010792ffdb54b2f489b664", "name": "f20b2b5f9b010792ffdb54b2f489b664", "is_reserved": 0, "fusion_lat": 0.0}, {"type": "electric_scooter", "rental_uris": {"ios": "https://dc.lft.to/lastmile_qr_scan", "android": "https://dc.lft.to/lastmile_qr_scan"}, "lon": -76.9908445, "fusion_lon": 0.0, "is_disabled": 0, "lat": 38.882311666666666, "bike_id": "fb3c2528551e5b9db18d03dcbac0f660", "name": "fb3c2528551e5b9db18d03dcbac0f660", "is_reserved": 0, "fusion_lat": 0.0}, {"type": "electric_scooter", "rental_uris": {"ios": "https://dc.lft.to/lastmile_qr_scan", "android": "https://dc.lft.to/lastmile_qr_scan"}, "lon": -77.03663833333333, "fusion_lon": 0.0, "is_disabled": 0, "lat": 38.906881166666665, "bike_id": "dbc0c3782865d3e0014dfbe7dcecd6c9", "name": "dbc0c3782865d3e0014dfbe7dcecd6c9", "is_reserved": 0, "fusion_lat": 0.0}, {"type": "electric_scooter", "rental_uris": {"ios": "https://dc.lft.to/lastmile_qr_scan", "android": "https://dc.lft.to/lastmile_qr_scan"}, "lon": -77.00680683333333, "fusion_lon": 0.0, "is_disabled": 0, "lat": 38.90001933333333, "bike_id": "9a9f358d5359bd773b0fb0afca3d81db", "name": "9a9f358d5359bd773b0fb0afca3d81db", "is_reserved": 0, "fusion_lat": 0.0}, {"type": "electric_scooter", "rental_uris": {"ios": "https://dc.lft.to/lastmile_qr_scan", "android": "https://dc.lft.to/lastmile_qr_scan"}, "lon": -77.03289316666667, "fusion_lon": 0.0, "is_disabled": 0, "lat": 38.9471295, "bike_id": "02d68c7f7f5cdddb1b84ed86ac16f8ff", "name": "02d68c7f7f5cdddb1b84ed86ac16f8ff", "is_reserved": 0, "fusion_lat": 0.0}, {"type": "electric_scooter", "rental_uris": {"ios": "https://dc.lft.to/lastmile_qr_scan", "android": "https://dc.lft.to/lastmile_qr_scan"}, "lon": -77.04440483333333, "fusion_lon": 0.0, "is_disabled": 0, "lat": 38.9125475, "bike_id": "0e029907ca101a12b42270ed3f8ce821", "name": "0e029907ca101a12b42270ed3f8ce821", "is_reserved": 0, "fusion_lat": 0.0}, {"type": "electric_scooter", "rental_uris": {"ios": "https://dc.lft.to/lastmile_qr_scan", "android": "https://dc.lft.to/lastmile_qr_scan"}, "lon": -77.024634, "fusion_lon": 0.0, "is_disabled": 0, "lat": 38.9330145, "bike_id": "a6e5cf61ea5e40b5c91086f4670d7cc5", "name": "a6e5cf61ea5e40b5c91086f4670d7cc5", "is_reserved": 0, "fusion_lat": 0.0}, {"type": "electric_scooter", "rental_uris": {"ios": "https://dc.lft.to/lastmile_qr_scan", "android": "https://dc.lft.to/lastmile_qr_scan"}, "lon": -77.04005566666666, "fusion_lon": 0.0, "is_disabled": 0, "lat": 38.909964, "bike_id": "f146b5b5ca9a26ad34d5ad612f10a865", "name": "f146b5b5ca9a26ad34d5ad612f10a865", "is_reserved": 0, "fusion_lat": 0.0}, {"type": "electric_scooter", "rental_uris": {"ios": "https://dc.lft.to/lastmile_qr_scan", "android": "https://dc.lft.to/lastmile_qr_scan"}, "lon": -77.04123266666667, "fusion_lon": 0.0, "is_disabled": 0, "lat": 38.93404316666667, "bike_id": "08a2b78aeab8cf227feb2b4fda1b3e5a", "name": "08a2b78aeab8cf227feb2b4fda1b3e5a", "is_reserved": 0, "fusion_lat": 0.0}, {"type": "electric_bike", "rental_uris": {"ios": "https://dc.lft.to/lastmile_qr_scan", "android": "https://dc.lft.to/lastmile_qr_scan"}, "lon": -77.028309, "fusion_lon": 0.0, "is_disabled": 0, "lat": 38.96505666666667, "bike_id": "448bbbf5b3099abd680c701edeffbdf6", "name": "448bbbf5b3099abd680c701edeffbdf6", "is_reserved": 0, "fusion_lat": 0.0}, {"type": "electric_scooter", "rental_uris": {"ios": "https://dc.lft.to/lastmile_qr_scan", "android": "https://dc.lft.to/lastmile_qr_scan"}, "lon": -77.07711, "fusion_lon": 0.0, "is_disabled": 0, "lat": 38.9296855, "bike_id": "efda3169714e04f3d7fc43e5c3f350a4", "name": "efda3169714e04f3d7fc43e5c3f350a4", "is_reserved": 0, "fusion_lat": 0.0}, {"type": "electric_bike", "rental_uris": {"ios": "https://dc.lft.to/lastmile_qr_scan", "android": "https://dc.lft.to/lastmile_qr_scan"}, "lon": -77.03211616666667, "fusion_lon": 0.0, "is_disabled": 0, "lat": 38.915542, "bike_id": "33a3350d97148d0e44b91864780e4a42", "name": "33a3350d97148d0e44b91864780e4a42", "is_reserved": 0, "fusion_lat": 0.0}, {"type": "electric_bike", "rental_uris": {"ios": "https://dc.lft.to/lastmile_qr_scan", "android": "https://dc.lft.to/lastmile_qr_scan"}, "lon": -77.0450055, "fusion_lon": 0.0, "is_disabled": 0, "lat": 38.84284, "bike_id": "3fa7cb46970f7d48bc7624ac2c03c420", "name": "3fa7cb46970f7d48bc7624ac2c03c420", "is_reserved": 0, "fusion_lat": 0.0}, {"type": "electric_scooter", "rental_uris": {"ios": "https://dc.lft.to/lastmile_qr_scan", "android": "https://dc.lft.to/lastmile_qr_scan"}, "lon": -76.9984575, "fusion_lon": 0.0, "is_disabled": 0, "lat": 38.89995066666667, "bike_id": "196827a8aed27df389be17f8ecbf92f7", "name": "196827a8aed27df389be17f8ecbf92f7", "is_reserved": 0, "fusion_lat": 0.0}, {"type": "electric_scooter", "rental_uris": {"ios": "https://dc.lft.to/lastmile_qr_scan", "android": "https://dc.lft.to/lastmile_qr_scan"}, "lon": -77.03186916666667, "fusion_lon": 0.0, "is_disabled": 0, "lat": 38.91335133333333, "bike_id": "b0576e18a15bb7a772c4ade6c23d763c", "name": "b0576e18a15bb7a772c4ade6c23d763c", "is_reserved": 0, "fusion_lat": 0.0}, {"type": "electric_scooter", "rental_uris": {"ios": "https://dc.lft.to/lastmile_qr_scan", "android": "https://dc.lft.to/lastmile_qr_scan"}, "lon": -77.0221905, "fusion_lon": 0.0, "is_disabled": 0, "lat": 38.89220616666667, "bike_id": "76bbd565679def68c9cbaeaafe9c747c", "name": "76bbd565679def68c9cbaeaafe9c747c", "is_reserved": 0, "fusion_lat": 0.0}, {"type": "electric_scooter", "rental_uris": {"ios": "https://dc.lft.to/lastmile_qr_scan", "android": "https://dc.lft.to/lastmile_qr_scan"}, "lon": -77.021385, "fusion_lon": 0.0, "is_disabled": 0, "lat": 38.925917, "bike_id": "f1acab32ecb49db63116bd81615944d9", "name": "f1acab32ecb49db63116bd81615944d9", "is_reserved": 0, "fusion_lat": 0.0}, {"type": "electric_scooter", "rental_uris": {"ios": "https://dc.lft.to/lastmile_qr_scan", "android": "https://dc.lft.to/lastmile_qr_scan"}, "lon": -77.0443815, "fusion_lon": 0.0, "is_disabled": 0, "lat": 38.924091833333335, "bike_id": "c5f9cbdd350bcfdc66b60ef726046c8a", "name": "c5f9cbdd350bcfdc66b60ef726046c8a", "is_reserved": 0, "fusion_lat": 0.0}, {"type": "electric_scooter", "rental_uris": {"ios": "https://dc.lft.to/lastmile_qr_scan", "android": "https://dc.lft.to/lastmile_qr_scan"}, "lon": -76.9920755, "fusion_lon": 0.0, "is_disabled": 0, "lat": 38.90372683333333, "bike_id": "498178fb3ebe52de9359f1ccdcf1d891", "name": "498178fb3ebe52de9359f1ccdcf1d891", "is_reserved": 0, "fusion_lat": 0.0}, {"type": "electric_scooter", "rental_uris": {"ios": "https://dc.lft.to/lastmile_qr_scan", "android": "https://dc.lft.to/lastmile_qr_scan"}, "lon": -77.00912133333334, "fusion_lon": 0.0, "is_disabled": 0, "lat": 38.89547683333333, "bike_id": "5602e769e693c973558fee1dfbb423ab", "name": "5602e769e693c973558fee1dfbb423ab", "is_reserved": 0, "fusion_lat": 0.0}, {"type": "electric_scooter", "rental_uris": {"ios": "https://dc.lft.to/lastmile_qr_scan", "android": "https://dc.lft.to/lastmile_qr_scan"}, "lon": -77.02163833333333, "fusion_lon": 0.0, "is_disabled": 0, "lat": 38.930709, "bike_id": "b3c6f03d551259c0fe690f443f829461", "name": "b3c6f03d551259c0fe690f443f829461", "is_reserved": 0, "fusion_lat": 0.0}, {"type": "electric_scooter", "rental_uris": {"ios": "https://dc.lft.to/lastmile_qr_scan", "android": "https://dc.lft.to/lastmile_qr_scan"}, "lon": -77.075218, "fusion_lon": 0.0, "is_disabled": 0, "lat": 38.939389166666665, "bike_id": "d29d9e9a09d79be6acea28c101ae99fd", "name": "d29d9e9a09d79be6acea28c101ae99fd", "is_reserved": 0, "fusion_lat": 0.0}, {"type": "electric_scooter", "rental_uris": {"ios": "https://dc.lft.to/lastmile_qr_scan", "android": "https://dc.lft.to/lastmile_qr_scan"}, "lon": -77.02698116666667, "fusion_lon": 0.0, "is_disabled": 0, "lat": 38.92584866666667, "bike_id": "d5f5a31b7c84feff5bbccc16bb33f8d1", "name": "d5f5a31b7c84feff5bbccc16bb33f8d1", "is_reserved": 0, "fusion_lat": 0.0}, {"type": "electric_scooter", "rental_uris": {"ios": "https://dc.lft.to/lastmile_qr_scan", "android": "https://dc.lft.to/lastmile_qr_scan"}, "lon": -76.988826, "fusion_lon": 0.0, "is_disabled": 0, "lat": 38.866518, "bike_id": "dd2d30a33df332d77d61f09d91839856", "name": "dd2d30a33df332d77d61f09d91839856", "is_reserved": 0, "fusion_lat": 0.0}, {"type": "electric_scooter", "rental_uris": {"ios": "https://dc.lft.to/lastmile_qr_scan", "android": "https://dc.lft.to/lastmile_qr_scan"}, "lon": -77.04076966666666, "fusion_lon": 0.0, "is_disabled": 0, "lat": 38.91685283333333, "bike_id": "6ff5a062b086889f2a8470f815892409", "name": "6ff5a062b086889f2a8470f815892409", "is_reserved": 0, "fusion_lat": 0.0}, {"type": "electric_bike", "rental_uris": {"ios": "https://dc.lft.to/lastmile_qr_scan", "android": "https://dc.lft.to/lastmile_qr_scan"}, "lon": -77.07113716666667, "fusion_lon": 0.0, "is_disabled": 0, "lat": 38.80053566666667, "bike_id": "46ac3aa7b3b676da5209b82e65862cd1", "name": "46ac3aa7b3b676da5209b82e65862cd1", "is_reserved": 0, "fusion_lat": 0.0}, {"type": "electric_scooter", "rental_uris": {"ios": "https://dc.lft.to/lastmile_qr_scan", "android": "https://dc.lft.to/lastmile_qr_scan"}, "lon": -77.0249155, "fusion_lon": 0.0, "is_disabled": 0, "lat": 38.91947783333333, "bike_id": "b76b0a8fd2e3675c5eda500af4ba30cb", "name": "b76b0a8fd2e3675c5eda500af4ba30cb", "is_reserved": 0, "fusion_lat": 0.0}, {"type": "electric_scooter", "rental_uris": {"ios": "https://dc.lft.to/lastmile_qr_scan", "android": "https://dc.lft.to/lastmile_qr_scan"}, "lon": -77.0205695, "fusion_lon": 0.0, "is_disabled": 0, "lat": 38.908452, "bike_id": "e2d77d0eb34d1bcbbfb1907a3dd23987", "name": "e2d77d0eb34d1bcbbfb1907a3dd23987", "is_reserved": 0, "fusion_lat": 0.0}, {"type": "electric_scooter", "rental_uris": {"ios": "https://dc.lft.to/lastmile_qr_scan", "android": "https://dc.lft.to/lastmile_qr_scan"}, "lon": -76.9962515, "fusion_lon": 0.0, "is_disabled": 0, "lat": 38.90002166666667, "bike_id": "d2b8523de29cc1730f17541d6a5aac21", "name": "d2b8523de29cc1730f17541d6a5aac21", "is_reserved": 0, "fusion_lat": 0.0}, {"type": "electric_scooter", "rental_uris": {"ios": "https://dc.lft.to/lastmile_qr_scan", "android": "https://dc.lft.to/lastmile_qr_scan"}, "lon": -76.999131, "fusion_lon": 0.0, "is_disabled": 0, "lat": 38.8989105, "bike_id": "c551989cb6373afc9f2e97c0122cad29", "name": "c551989cb6373afc9f2e97c0122cad29", "is_reserved": 0, "fusion_lat": 0.0}, {"type": "electric_bike", "rental_uris": {"ios": "https://dc.lft.to/lastmile_qr_scan", "android": "https://dc.lft.to/lastmile_qr_scan"}, "lon": -77.0247095, "fusion_lon": 0.0, "is_disabled": 0, "lat": 38.95293066666667, "bike_id": "c035486a05a94f37d99d5df81cc3e97a", "name": "c035486a05a94f37d99d5df81cc3e97a", "is_reserved": 0, "fusion_lat": 0.0}, {"type": "electric_scooter", "rental_uris": {"ios": "https://dc.lft.to/lastmile_qr_scan", "android": "https://dc.lft.to/lastmile_qr_scan"}, "lon": -77.032135, "fusion_lon": 0.0, "is_disabled": 0, "lat": 38.918522, "bike_id": "83ca2cb0add6ed831996264035f8ffcf", "name": "83ca2cb0add6ed831996264035f8ffcf", "is_reserved": 0, "fusion_lat": 0.0}, {"type": "electric_bike", "rental_uris": {"ios": "https://dc.lft.to/lastmile_qr_scan", "android": "https://dc.lft.to/lastmile_qr_scan"}, "lon": -77.06332166666667, "fusion_lon": 0.0, "is_disabled": 0, "lat": 38.92108983333333, "bike_id": "9b0516b0be4326a66f5577117cd21beb", "name": "9b0516b0be4326a66f5577117cd21beb", "is_reserved": 0, "fusion_lat": 0.0}, {"type": "electric_bike", "rental_uris": {"ios": "https://dc.lft.to/lastmile_qr_scan", "android": "https://dc.lft.to/lastmile_qr_scan"}, "lon": -77.00568366666667, "fusion_lon": 0.0, "is_disabled": 0, "lat": 38.83983683333334, "bike_id": "fadfa76272fd22f2b1f25197b5c05253", "name": "fadfa76272fd22f2b1f25197b5c05253", "is_reserved": 0, "fusion_lat": 0.0}, {"type": "electric_scooter", "rental_uris": {"ios": "https://dc.lft.to/lastmile_qr_scan", "android": "https://dc.lft.to/lastmile_qr_scan"}, "lon": -77.03206383333334, "fusion_lon": 0.0, "is_disabled": 0, "lat": 38.90890066666667, "bike_id": "5dfd2e5bb398eb20fbe2ae8e37e40675", "name": "5dfd2e5bb398eb20fbe2ae8e37e40675", "is_reserved": 0, "fusion_lat": 0.0}, {"type": "electric_scooter", "rental_uris": {"ios": "https://dc.lft.to/lastmile_qr_scan", "android": "https://dc.lft.to/lastmile_qr_scan"}, "lon": -76.93344316666666, "fusion_lon": 0.0, "is_disabled": 0, "lat": 38.88810333333333, "bike_id": "d96ea64c25d9a4c54c8f5b603c4c998d", "name": "d96ea64c25d9a4c54c8f5b603c4c998d", "is_reserved": 0, "fusion_lat": 0.0}, {"type": "electric_scooter", "rental_uris": {"ios": "https://dc.lft.to/lastmile_qr_scan", "android": "https://dc.lft.to/lastmile_qr_scan"}, "lon": -77.0320845, "fusion_lon": 0.0, "is_disabled": 0, "lat": 38.909509, "bike_id": "37d6d37eacb50a305450e4bf2b6126ef", "name": "37d6d37eacb50a305450e4bf2b6126ef", "is_reserved": 0, "fusion_lat": 0.0}, {"type": "electric_scooter", "rental_uris": {"ios": "https://dc.lft.to/lastmile_qr_scan", "android": "https://dc.lft.to/lastmile_qr_scan"}, "lon": -77.07057166666667, "fusion_lon": 0.0, "is_disabled": 0, "lat": 38.931761, "bike_id": "200eb9570bea611a597857fb3bf50215", "name": "200eb9570bea611a597857fb3bf50215", "is_reserved": 0, "fusion_lat": 0.0}, {"type": "electric_scooter", "rental_uris": {"ios": "https://dc.lft.to/lastmile_qr_scan", "android": "https://dc.lft.to/lastmile_qr_scan"}, "lon": -76.985242, "fusion_lon": 0.0, "is_disabled": 0, "lat": 38.86685833333333, "bike_id": "b9f067c19f158bb3423ea09aeb396476", "name": "b9f067c19f158bb3423ea09aeb396476", "is_reserved": 0, "fusion_lat": 0.0}, {"type": "electric_scooter", "rental_uris": {"ios": "https://dc.lft.to/lastmile_qr_scan", "android": "https://dc.lft.to/lastmile_qr_scan"}, "lon": -77.03159583333333, "fusion_lon": 0.0, "is_disabled": 0, "lat": 38.8922445, "bike_id": "aebab7d70829b194e94e9843f212b47a", "name": "aebab7d70829b194e94e9843f212b47a", "is_reserved": 0, "fusion_lat": 0.0}, {"type": "electric_bike", "rental_uris": {"ios": "https://dc.lft.to/lastmile_qr_scan", "android": "https://dc.lft.to/lastmile_qr_scan"}, "lon": -77.03322766666666, "fusion_lon": 0.0, "is_disabled": 0, "lat": 38.920575166666666, "bike_id": "9f0ca601fdbc948bc5923c19e2418be8", "name": "9f0ca601fdbc948bc5923c19e2418be8", "is_reserved": 0, "fusion_lat": 0.0}, {"type": "electric_scooter", "rental_uris": {"ios": "https://dc.lft.to/lastmile_qr_scan", "android": "https://dc.lft.to/lastmile_qr_scan"}, "lon": -77.024918, "fusion_lon": 0.0, "is_disabled": 0, "lat": 38.91808133333333, "bike_id": "3baab39391fab0fafa271dfefb598f68", "name": "3baab39391fab0fafa271dfefb598f68", "is_reserved": 0, "fusion_lat": 0.0}, {"type": "electric_bike", "rental_uris": {"ios": "https://dc.lft.to/lastmile_qr_scan", "android": "https://dc.lft.to/lastmile_qr_scan"}, "lon": -77.01444783333334, "fusion_lon": 0.0, "is_disabled": 0, "lat": 38.876738, "bike_id": "dfa2bc0dc5ab9d192e4bf9ac6f2e90a0", "name": "dfa2bc0dc5ab9d192e4bf9ac6f2e90a0", "is_reserved": 0, "fusion_lat": 0.0}, {"type": "electric_scooter", "rental_uris": {"ios": "https://dc.lft.to/lastmile_qr_scan", "android": "https://dc.lft.to/lastmile_qr_scan"}, "lon": -77.03407966666667, "fusion_lon": 0.0, "is_disabled": 0, "lat": 38.9204845, "bike_id": "2ec307798e887e3f8f987b12028eb11e", "name": "2ec307798e887e3f8f987b12028eb11e", "is_reserved": 0, "fusion_lat": 0.0}, {"type": "electric_bike", "rental_uris": {"ios": "https://dc.lft.to/lastmile_qr_scan", "android": "https://dc.lft.to/lastmile_qr_scan"}, "lon": -76.99350966666667, "fusion_lon": 0.0, "is_disabled": 0, "lat": 38.845039, "bike_id": "cbab01a3ebab2576ce6a4443990ad252", "name": "cbab01a3ebab2576ce6a4443990ad252", "is_reserved": 0, "fusion_lat": 0.0}, {"type": "electric_scooter", "rental_uris": {"ios": "https://dc.lft.to/lastmile_qr_scan", "android": "https://dc.lft.to/lastmile_qr_scan"}, "lon": -77.02711666666667, "fusion_lon": 0.0, "is_disabled": 0, "lat": 38.9068615, "bike_id": "80b99b12f559f47cecd3686ced818abe", "name": "80b99b12f559f47cecd3686ced818abe", "is_reserved": 0, "fusion_lat": 0.0}, {"type": "electric_bike", "rental_uris": {"ios": "https://dc.lft.to/lastmile_qr_scan", "android": "https://dc.lft.to/lastmile_qr_scan"}, "lon": -77.02224916666667, "fusion_lon": 0.0, "is_disabled": 0, "lat": 38.956888666666664, "bike_id": "ef25d8777d779e3302d2595ea2388133", "name": "ef25d8777d779e3302d2595ea2388133", "is_reserved": 0, "fusion_lat": 0.0}, {"type": "electric_scooter", "rental_uris": {"ios": "https://dc.lft.to/lastmile_qr_scan", "android": "https://dc.lft.to/lastmile_qr_scan"}, "lon": -77.03235083333334, "fusion_lon": 0.0, "is_disabled": 0, "lat": 38.92534933333334, "bike_id": "0a89d52db7e8aadcafcdd0d1b3205328", "name": "0a89d52db7e8aadcafcdd0d1b3205328", "is_reserved": 0, "fusion_lat": 0.0}, {"type": "electric_scooter", "rental_uris": {"ios": "https://dc.lft.to/lastmile_qr_scan", "android": "https://dc.lft.to/lastmile_qr_scan"}, "lon": -77.0219625, "fusion_lon": 0.0, "is_disabled": 0, "lat": 38.91043033333333, "bike_id": "ea80bb32859d68be51d839be48ea5dc1", "name": "ea80bb32859d68be51d839be48ea5dc1", "is_reserved": 0, "fusion_lat": 0.0}, {"type": "electric_scooter", "rental_uris": {"ios": "https://dc.lft.to/lastmile_qr_scan", "android": "https://dc.lft.to/lastmile_qr_scan"}, "lon": -77.02591416666667, "fusion_lon": 0.0, "is_disabled": 0, "lat": 38.91409616666667, "bike_id": "776370da38ab63bc6b0de173c66a0ff7", "name": "776370da38ab63bc6b0de173c66a0ff7", "is_reserved": 0, "fusion_lat": 0.0}, {"type": "electric_scooter", "rental_uris": {"ios": "https://dc.lft.to/lastmile_qr_scan", "android": "https://dc.lft.to/lastmile_qr_scan"}, "lon": -76.987257, "fusion_lon": 0.0, "is_disabled": 0, "lat": 38.867072, "bike_id": "ddce3f9a806da4eb17b77d5db0259abb", "name": "ddce3f9a806da4eb17b77d5db0259abb", "is_reserved": 0, "fusion_lat": 0.0}, {"type": "electric_scooter", "rental_uris": {"ios": "https://dc.lft.to/lastmile_qr_scan", "android": "https://dc.lft.to/lastmile_qr_scan"}, "lon": -76.9982705, "fusion_lon": 0.0, "is_disabled": 0, "lat": 38.885346166666665, "bike_id": "8331840938fbf2ba71fddb48105abfff", "name": "8331840938fbf2ba71fddb48105abfff", "is_reserved": 0, "fusion_lat": 0.0}, {"type": "electric_scooter", "rental_uris": {"ios": "https://dc.lft.to/lastmile_qr_scan", "android": "https://dc.lft.to/lastmile_qr_scan"}, "lon": -77.031192, "fusion_lon": 0.0, "is_disabled": 0, "lat": 38.937696333333335, "bike_id": "91f765dab69ef85eae6682c1094ef32e", "name": "91f765dab69ef85eae6682c1094ef32e", "is_reserved": 0, "fusion_lat": 0.0}, {"type": "electric_scooter", "rental_uris": {"ios": "https://dc.lft.to/lastmile_qr_scan", "android": "https://dc.lft.to/lastmile_qr_scan"}, "lon": -77.05263716666667, "fusion_lon": 0.0, "is_disabled": 0, "lat": 38.92534966666667, "bike_id": "00bb23adad41af79fa859457970d6136", "name": "00bb23adad41af79fa859457970d6136", "is_reserved": 0, "fusion_lat": 0.0}, {"type": "electric_scooter", "rental_uris": {"ios": "https://dc.lft.to/lastmile_qr_scan", "android": "https://dc.lft.to/lastmile_qr_scan"}, "lon": -77.02495983333333, "fusion_lon": 0.0, "is_disabled": 0, "lat": 38.9198135, "bike_id": "01ccf7d7405812aee7e007046693609e", "name": "01ccf7d7405812aee7e007046693609e", "is_reserved": 0, "fusion_lat": 0.0}, {"type": "electric_scooter", "rental_uris": {"ios": "https://dc.lft.to/lastmile_qr_scan", "android": "https://dc.lft.to/lastmile_qr_scan"}, "lon": -77.0424585, "fusion_lon": 0.0, "is_disabled": 0, "lat": 38.9221825, "bike_id": "0b56c61d7b9cb2c30c4057f50f97f11f", "name": "0b56c61d7b9cb2c30c4057f50f97f11f", "is_reserved": 0, "fusion_lat": 0.0}, {"type": "electric_scooter", "rental_uris": {"ios": "https://dc.lft.to/lastmile_qr_scan", "android": "https://dc.lft.to/lastmile_qr_scan"}, "lon": -76.98694916666666, "fusion_lon": 0.0, "is_disabled": 0, "lat": 38.862524, "bike_id": "53671cf1bb3d29533d355e1dc8b6f589", "name": "53671cf1bb3d29533d355e1dc8b6f589", "is_reserved": 0, "fusion_lat": 0.0}, {"type": "electric_scooter", "rental_uris": {"ios": "https://dc.lft.to/lastmile_qr_scan", "android": "https://dc.lft.to/lastmile_qr_scan"}, "lon": -77.03191433333333, "fusion_lon": 0.0, "is_disabled": 0, "lat": 38.917414, "bike_id": "f1a436dfefd96e3a70aa39fcff08c8bf", "name": "f1a436dfefd96e3a70aa39fcff08c8bf", "is_reserved": 0, "fusion_lat": 0.0}, {"type": "electric_scooter", "rental_uris": {"ios": "https://dc.lft.to/lastmile_qr_scan", "android": "https://dc.lft.to/lastmile_qr_scan"}, "lon": -77.00983466666666, "fusion_lon": 0.0, "is_disabled": 0, "lat": 38.872882833333335, "bike_id": "cae1461eb042f3ae128df5d81c334cd4", "name": "cae1461eb042f3ae128df5d81c334cd4", "is_reserved": 0, "fusion_lat": 0.0}, {"type": "electric_bike", "rental_uris": {"ios": "https://dc.lft.to/lastmile_qr_scan", "android": "https://dc.lft.to/lastmile_qr_scan"}, "lon": -77.0533815, "fusion_lon": 0.0, "is_disabled": 0, "lat": 38.90228, "bike_id": "652243217d3b2d30f1b57cb745ae3057", "name": "652243217d3b2d30f1b57cb745ae3057", "is_reserved": 0, "fusion_lat": 0.0}, {"type": "electric_scooter", "rental_uris": {"ios": "https://dc.lft.to/lastmile_qr_scan", "android": "https://dc.lft.to/lastmile_qr_scan"}, "lon": -76.9872495, "fusion_lon": 0.0, "is_disabled": 0, "lat": 38.86709716666667, "bike_id": "d92eb4dd4dd93ff70fe9a47b88b3d666", "name": "d92eb4dd4dd93ff70fe9a47b88b3d666", "is_reserved": 0, "fusion_lat": 0.0}, {"type": "electric_scooter", "rental_uris": {"ios": "https://dc.lft.to/lastmile_qr_scan", "android": "https://dc.lft.to/lastmile_qr_scan"}, "lon": -77.026643, "fusion_lon": 0.0, "is_disabled": 0, "lat": 38.91710483333333, "bike_id": "8dfb610ad02d2224c22142f713f5faa5", "name": "8dfb610ad02d2224c22142f713f5faa5", "is_reserved": 0, "fusion_lat": 0.0}, {"type": "electric_scooter", "rental_uris": {"ios": "https://dc.lft.to/lastmile_qr_scan", "android": "https://dc.lft.to/lastmile_qr_scan"}, "lon": -77.036252, "fusion_lon": 0.0, "is_disabled": 0, "lat": 38.93683, "bike_id": "84d9c0417518625d828d1940ecd5c740", "name": "84d9c0417518625d828d1940ecd5c740", "is_reserved": 0, "fusion_lat": 0.0}, {"type": "electric_scooter", "rental_uris": {"ios": "https://dc.lft.to/lastmile_qr_scan", "android": "https://dc.lft.to/lastmile_qr_scan"}, "lon": -77.0280185, "fusion_lon": 0.0, "is_disabled": 0, "lat": 38.9109885, "bike_id": "28fa93432e45b17d72bbc59cb84a568c", "name": "28fa93432e45b17d72bbc59cb84a568c", "is_reserved": 0, "fusion_lat": 0.0}, {"type": "electric_scooter", "rental_uris": {"ios": "https://dc.lft.to/lastmile_qr_scan", "android": "https://dc.lft.to/lastmile_qr_scan"}, "lon": -77.03245416666667, "fusion_lon": 0.0, "is_disabled": 0, "lat": 38.929399, "bike_id": "c57fb47b6c501d02962518aaa5f0ddb2", "name": "c57fb47b6c501d02962518aaa5f0ddb2", "is_reserved": 0, "fusion_lat": 0.0}, {"type": "electric_scooter", "rental_uris": {"ios": "https://dc.lft.to/lastmile_qr_scan", "android": "https://dc.lft.to/lastmile_qr_scan"}, "lon": -77.03185316666666, "fusion_lon": 0.0, "is_disabled": 0, "lat": 38.897603333333336, "bike_id": "b0e3f5254f25e669e684936c49d017eb", "name": "b0e3f5254f25e669e684936c49d017eb", "is_reserved": 0, "fusion_lat": 0.0}, {"type": "electric_bike", "rental_uris": {"ios": "https://dc.lft.to/lastmile_qr_scan", "android": "https://dc.lft.to/lastmile_qr_scan"}, "lon": -76.97199683333334, "fusion_lon": 0.0, "is_disabled": 0, "lat": 38.917712333333334, "bike_id": "db7e188a3f79be37f4c4d853260bc0cf", "name": "db7e188a3f79be37f4c4d853260bc0cf", "is_reserved": 0, "fusion_lat": 0.0}, {"type": "electric_scooter", "rental_uris": {"ios": "https://dc.lft.to/lastmile_qr_scan", "android": "https://dc.lft.to/lastmile_qr_scan"}, "lon": -77.0245025, "fusion_lon": 0.0, "is_disabled": 0, "lat": 38.91829083333333, "bike_id": "aa08f9c1a182fae5aa24b76eb9669635", "name": "aa08f9c1a182fae5aa24b76eb9669635", "is_reserved": 0, "fusion_lat": 0.0}, {"type": "electric_scooter", "rental_uris": {"ios": "https://dc.lft.to/lastmile_qr_scan", "android": "https://dc.lft.to/lastmile_qr_scan"}, "lon": -77.00412033333333, "fusion_lon": 0.0, "is_disabled": 0, "lat": 38.87661966666667, "bike_id": "59e6f707a4ab11b18f372e366e4bb46b", "name": "59e6f707a4ab11b18f372e366e4bb46b", "is_reserved": 0, "fusion_lat": 0.0}, {"type": "electric_scooter", "rental_uris": {"ios": "https://dc.lft.to/lastmile_qr_scan", "android": "https://dc.lft.to/lastmile_qr_scan"}, "lon": -77.03191033333333, "fusion_lon": 0.0, "is_disabled": 0, "lat": 38.91218883333333, "bike_id": "2f1a6e8aca6418b44207c94fe220c924", "name": "2f1a6e8aca6418b44207c94fe220c924", "is_reserved": 0, "fusion_lat": 0.0}, {"type": "electric_scooter", "rental_uris": {"ios": "https://dc.lft.to/lastmile_qr_scan", "android": "https://dc.lft.to/lastmile_qr_scan"}, "lon": -77.04173333333334, "fusion_lon": 0.0, "is_disabled": 0, "lat": 38.91801733333333, "bike_id": "a728edccce59d35ce8d17b382f88d736", "name": "a728edccce59d35ce8d17b382f88d736", "is_reserved": 0, "fusion_lat": 0.0}, {"type": "electric_scooter", "rental_uris": {"ios": "https://dc.lft.to/lastmile_qr_scan", "android": "https://dc.lft.to/lastmile_qr_scan"}, "lon": -77.02688516666667, "fusion_lon": 0.0, "is_disabled": 0, "lat": 38.904438999999996, "bike_id": "6b0e27ff74371481cb92e43483142bd8", "name": "6b0e27ff74371481cb92e43483142bd8", "is_reserved": 0, "fusion_lat": 0.0}, {"type": "electric_scooter", "rental_uris": {"ios": "https://dc.lft.to/lastmile_qr_scan", "android": "https://dc.lft.to/lastmile_qr_scan"}, "lon": -77.0432695, "fusion_lon": 0.0, "is_disabled": 0, "lat": 38.892264, "bike_id": "ec3ad7fdc0ac3fdadbb1875e0497d6b0", "name": "ec3ad7fdc0ac3fdadbb1875e0497d6b0", "is_reserved": 0, "fusion_lat": 0.0}, {"type": "electric_scooter", "rental_uris": {"ios": "https://dc.lft.to/lastmile_qr_scan", "android": "https://dc.lft.to/lastmile_qr_scan"}, "lon": -77.03930083333333, "fusion_lon": 0.0, "is_disabled": 0, "lat": 38.90271216666667, "bike_id": "3dc04d7ffce5a5645ce8fd00b1fb9a9a", "name": "3dc04d7ffce5a5645ce8fd00b1fb9a9a", "is_reserved": 0, "fusion_lat": 0.0}, {"type": "electric_scooter", "rental_uris": {"ios": "https://dc.lft.to/lastmile_qr_scan", "android": "https://dc.lft.to/lastmile_qr_scan"}, "lon": -76.98203333333333, "fusion_lon": 0.0, "is_disabled": 0, "lat": 38.901988, "bike_id": "1f684e1545d45fa14f2ce2352cd29d93", "name": "1f684e1545d45fa14f2ce2352cd29d93", "is_reserved": 0, "fusion_lat": 0.0}, {"type": "electric_scooter", "rental_uris": {"ios": "https://dc.lft.to/lastmile_qr_scan", "android": "https://dc.lft.to/lastmile_qr_scan"}, "lon": -77.07332266666667, "fusion_lon": 0.0, "is_disabled": 0, "lat": 38.933582333333334, "bike_id": "edaedcd37c5150a51e4c504da272f2cc", "name": "edaedcd37c5150a51e4c504da272f2cc", "is_reserved": 0, "fusion_lat": 0.0}, {"type": "electric_scooter", "rental_uris": {"ios": "https://dc.lft.to/lastmile_qr_scan", "android": "https://dc.lft.to/lastmile_qr_scan"}, "lon": -77.0433435, "fusion_lon": 0.0, "is_disabled": 0, "lat": 38.8922675, "bike_id": "7b9fddb7bf033e8e3609f2ea27945198", "name": "7b9fddb7bf033e8e3609f2ea27945198", "is_reserved": 0, "fusion_lat": 0.0}, {"type": "electric_scooter", "rental_uris": {"ios": "https://dc.lft.to/lastmile_qr_scan", "android": "https://dc.lft.to/lastmile_qr_scan"}, "lon": -77.0345015, "fusion_lon": 0.0, "is_disabled": 0, "lat": 38.9182345, "bike_id": "4ce21a51ac74f5c672d9063ba275dd90", "name": "4ce21a51ac74f5c672d9063ba275dd90", "is_reserved": 0, "fusion_lat": 0.0}, {"type": "electric_scooter", "rental_uris": {"ios": "https://dc.lft.to/lastmile_qr_scan", "android": "https://dc.lft.to/lastmile_qr_scan"}, "lon": -77.038514, "fusion_lon": 0.0, "is_disabled": 0, "lat": 38.91015633333333, "bike_id": "45f27ba8e0641b869f81238b2cd745bf", "name": "45f27ba8e0641b869f81238b2cd745bf", "is_reserved": 0, "fusion_lat": 0.0}, {"type": "electric_scooter", "rental_uris": {"ios": "https://dc.lft.to/lastmile_qr_scan", "android": "https://dc.lft.to/lastmile_qr_scan"}, "lon": -77.03378516666666, "fusion_lon": 0.0, "is_disabled": 0, "lat": 38.9097245, "bike_id": "8e77c5b6d8a4e742f9804d41e41c4f7b", "name": "8e77c5b6d8a4e742f9804d41e41c4f7b", "is_reserved": 0, "fusion_lat": 0.0}, {"type": "electric_scooter", "rental_uris": {"ios": "https://dc.lft.to/lastmile_qr_scan", "android": "https://dc.lft.to/lastmile_qr_scan"}, "lon": -77.04476883333334, "fusion_lon": 0.0, "is_disabled": 0, "lat": 38.911056, "bike_id": "e5f77b1bea32d242f702b581bce6445f", "name": "e5f77b1bea32d242f702b581bce6445f", "is_reserved": 0, "fusion_lat": 0.0}, {"type": "electric_scooter", "rental_uris": {"ios": "https://dc.lft.to/lastmile_qr_scan", "android": "https://dc.lft.to/lastmile_qr_scan"}, "lon": -77.02004316666667, "fusion_lon": 0.0, "is_disabled": 0, "lat": 38.91568133333333, "bike_id": "6cba9fa5ae816c0af9e93550860dc539", "name": "6cba9fa5ae816c0af9e93550860dc539", "is_reserved": 0, "fusion_lat": 0.0}, {"type": "electric_scooter", "rental_uris": {"ios": "https://dc.lft.to/lastmile_qr_scan", "android": "https://dc.lft.to/lastmile_qr_scan"}, "lon": -76.99945233333334, "fusion_lon": 0.0, "is_disabled": 0, "lat": 38.842979, "bike_id": "8eaa3c1aff2c9d6c2a0c6ffa87c44996", "name": "8eaa3c1aff2c9d6c2a0c6ffa87c44996", "is_reserved": 0, "fusion_lat": 0.0}, {"type": "electric_scooter", "rental_uris": {"ios": "https://dc.lft.to/lastmile_qr_scan", "android": "https://dc.lft.to/lastmile_qr_scan"}, "lon": -77.02182016666667, "fusion_lon": 0.0, "is_disabled": 0, "lat": 38.90620633333333, "bike_id": "ffec5054894ed4c1f7752a3ba47f0dd0", "name": "ffec5054894ed4c1f7752a3ba47f0dd0", "is_reserved": 0, "fusion_lat": 0.0}, {"type": "electric_scooter", "rental_uris": {"ios": "https://dc.lft.to/lastmile_qr_scan", "android": "https://dc.lft.to/lastmile_qr_scan"}, "lon": -77.042456, "fusion_lon": 0.0, "is_disabled": 0, "lat": 38.92202233333333, "bike_id": "eecbe930a8e354be7824295dac54208c", "name": "eecbe930a8e354be7824295dac54208c", "is_reserved": 0, "fusion_lat": 0.0}, {"type": "electric_scooter", "rental_uris": {"ios": "https://dc.lft.to/lastmile_qr_scan", "android": "https://dc.lft.to/lastmile_qr_scan"}, "lon": -77.00705983333333, "fusion_lon": 0.0, "is_disabled": 0, "lat": 38.90554383333333, "bike_id": "7b0d8af1e7653af9d6a9b792a7ce397c", "name": "7b0d8af1e7653af9d6a9b792a7ce397c", "is_reserved": 0, "fusion_lat": 0.0}, {"type": "electric_scooter", "rental_uris": {"ios": "https://dc.lft.to/lastmile_qr_scan", "android": "https://dc.lft.to/lastmile_qr_scan"}, "lon": -77.03147833333334, "fusion_lon": 0.0, "is_disabled": 0, "lat": 38.9110945, "bike_id": "219b39319ef12b3ac85911e22f50c813", "name": "219b39319ef12b3ac85911e22f50c813", "is_reserved": 0, "fusion_lat": 0.0}, {"type": "electric_scooter", "rental_uris": {"ios": "https://dc.lft.to/lastmile_qr_scan", "android": "https://dc.lft.to/lastmile_qr_scan"}, "lon": -77.051337, "fusion_lon": 0.0, "is_disabled": 0, "lat": 38.9236125, "bike_id": "1435e43366c25376f70b57bcf2e796c6", "name": "1435e43366c25376f70b57bcf2e796c6", "is_reserved": 0, "fusion_lat": 0.0}, {"type": "electric_scooter", "rental_uris": {"ios": "https://dc.lft.to/lastmile_qr_scan", "android": "https://dc.lft.to/lastmile_qr_scan"}, "lon": -77.04027466666666, "fusion_lon": 0.0, "is_disabled": 0, "lat": 38.91807333333333, "bike_id": "4d14e92d27882475aba98d6b0e6c06af", "name": "4d14e92d27882475aba98d6b0e6c06af", "is_reserved": 0, "fusion_lat": 0.0}, {"type": "electric_scooter", "rental_uris": {"ios": "https://dc.lft.to/lastmile_qr_scan", "android": "https://dc.lft.to/lastmile_qr_scan"},