{"data": {"bikes": [{"type": "electric_scooter", "rental_uris": {"ios": "https://dc.lft.to/lastmile_qr_scan", "android": "https://dc.lft.to/lastmile_qr_scan"}, "lon": -77.00594416666667, "fusion_lon": 0.0, "is_disabled": 0, "lat": 38.90567983333333, "bike_id": "e08ac0bb8eb3f9de3a28ba721268ee74", "name": "e08ac0bb8eb3f9de3a28ba721268ee74", "is_reserved": 0, "fusion_lat": 0.0}, {"type": "electric_scooter", "rental_uris": {"ios": "https://dc.lft.to/lastmile_qr_scan", "android": "https://dc.lft.to/lastmile_qr_scan"}, "lon": -77.04127333333334, "fusion_lon": 0.0, "is_disabled": 0, "lat": 38.934011, "bike_id": "2ff5a1ee0d3b3d89db7cfb9e2ce8e0f7", "name": "2ff5a1ee0d3b3d89db7cfb9e2ce8e0f7", "is_reserved": 0, "fusion_lat": 0.0}, {"type": "electric_scooter", "rental_uris": {"ios": "https://dc.lft.to/lastmile_qr_scan", "android": "https://dc.lft.to/lastmile_qr_scan"}, "lon": -77.039559, "fusion_lon": 0.0, "is_disabled": 0, "lat": 38.899179, "bike_id": "b0bc07d6ec729c5185917fd7f2747e2a", "name": "b0bc07d6ec729c5185917fd7f2747e2a", "is_reserved": 0, "fusion_lat": 0.0}, {"type": "electric_scooter", "rental_uris": {"ios": "https://dc.lft.to/lastmile_qr_scan", "android": "https://dc.lft.to/lastmile_qr_scan"}, "lon": -77.07710716666666, "fusion_lon": 0.0, "is_disabled": 0, "lat": 38.92966966666667, "bike_id": "1843426bf51d3959a290559faa55411c", "name": "1843426bf51d3959a290559faa55411c", "is_reserved": 0, "fusion_lat": 0.0}, {"type": "electric_bike", "rental_uris": {"ios": "https://dc.lft.to/lastmile_qr_scan", "android": "https://dc.lft.to/lastmile_qr_scan"}, "lon": -77.02810983333333, "fusion_lon": 0.0, "is_disabled": 0, "lat": 38.96510816666667, "bike_id": "0c5b9069a61fa64152ba736318573bcc", "name": "0c5b9069a61fa64152ba736318573bcc", "is_reserved": 0, "fusion_lat": 0.0}, {"type": "electric_scooter", "rental_uris": {"ios": "https://dc.lft.to/lastmile_qr_scan", "android": "https://dc.lft.to/lastmile_qr_scan"}, "lon": -76.99842516666666, "fusion_lon": 0.0, "is_disabled": 0, "lat": 38.900053166666666, "bike_id": "2a089839ad475ef704bff04e8e2d4d26", "name": "2a089839ad475ef704bff04e8e2d4d26", "is_reserved": 0, "fusion_lat": 0.0}, {"type": "electric_bike", "rental_uris": {"ios": "https://dc.lft.to/lastmile_qr_scan", "android": "https://dc.lft.to/lastmile_qr_scan"}, "lon": -77.04488383333333, "fusion_lon": 0.0, "is_disabled": 0, "lat": 38.842920666666664, "bike_id": "1de3611d7721e69c47b672b73a7fc11b", "name": "1de3611d7721e69c47b672b73a7fc11b", "is_reserved": 0, "fusion_lat": 0.0}, {"type": "electric_scooter", "rental_uris": {"ios": "https://dc.lft.to/lastmile_qr_scan", "android": "https://dc.lft.to/lastmile_qr_scan"}, "lon": -77.02220366666667, "fusion_lon": 0.0, "is_disabled": 0, "lat": 38.89221666666667, "bike_id": "1d5a453c1163bf6e7a1c23fdfc26b9bc", "name": "1d5a453c1163bf6e7a1c23fdfc26b9bc", "is_reserved": 0, "fusion_lat": 0.0}, {"type": "electric_scooter", "rental_uris": {"ios": "https://dc.lft.to/lastmile_qr_scan", "android": "https://dc.lft.to/lastmile_qr_scan"}, "lon": -77.03192983333334, "fusion_lon": 0.0, "is_disabled": 0, "lat": 38.9133645, "bike_id": "e01677e958be9df1fb7360ebbf5086a5", "name": "e01677e958be9df1fb7360ebbf5086a5", "is_reserved": 0, "fusion_lat": 0.0}, {"type": "electric_scooter", "rental_uris": {"ios": "https://dc.lft.to/lastmile_qr_scan", "android": "https://dc.lft.to/lastmile_qr_scan"}, "lon": -77.0213665, "fusion_lon": 0.0, "is_disabled": 0, "lat": 38.925931166666665, "bike_id": "a39e39402d065c8ae912803235cdac16", "name": "a39e39402d065c8ae912803235cdac16", "is_reserved": 0, "fusion_lat": 0.0}, {"type": "electric_scooter", "rental_uris": {"ios": "https://dc.lft.to/lastmile_qr_scan", "android": "https://dc.lft.to/lastmile_qr_scan"}, "lon": -77.03295983333334, "fusion_lon": 0.0, "is_disabled": 0, "lat": 38.94714166666667, "bike_id": "9516cb0e35a55b40237abe28451104a8", "name": "9516cb0e35a55b40237abe28451104a8", "is_reserved": 0, "fusion_lat": 0.0}, {"type": "electric_scooter", "rental_uris": {"ios": "https://dc.lft.to/lastmile_qr_scan", "android": "https://dc.lft.to/lastmile_qr_scan"}, "lon": -77.04437383333334, "fusion_lon": 0.0, "is_disabled": 0, "lat": 38.91255116666667, "bike_id": "181bbd5284f82205a45a920249f01aca", "name": "181bbd5284f82205a45a920249f01aca", "is_reserved": 0, "fusion_lat": 0.0}, {"type": "electric_scooter", "rental_uris": {"ios": "https://dc.lft.to/lastmile_qr_scan", "android": "https://dc.lft.to/lastmile_qr_scan"}, "lon": -77.02460933333333, "fusion_lon": 0.0, "is_disabled": 0, "lat": 38.932915666666666, "bike_id": "6c9ec4ba68e1850c9394bd8446edcbdf", "name": "6c9ec4ba68e1850c9394bd8446edcbdf", "is_reserved": 0, "fusion_lat": 0.0}, {"type": "electric_bike", "rental_uris": {"ios": "https://dc.lft.to/lastmile_qr_scan", "android": "https://dc.lft.to/lastmile_qr_scan"}, "lon": -77.032162, "fusion_lon": 0.0, "is_disabled": 0, "lat": 38.91565333333333, "bike_id": "f47794c78db2e51d772950ca7cd18337", "name": "f47794c78db2e51d772950ca7cd18337", "is_reserved": 0, "fusion_lat": 0.0}, {"type": "electric_scooter", "rental_uris": {"ios": "https://dc.lft.to/lastmile_qr_scan", "android": "https://dc.lft.to/lastmile_qr_scan"}, "lon": -77.0385375, "fusion_lon": 0.0, "is_disabled": 0, "lat": 38.91549283333333, "bike_id": "b39d69fd9efc9d8b2777f46344dc8b2e", "name": "b39d69fd9efc9d8b2777f46344dc8b2e", "is_reserved": 0, "fusion_lat": 0.0}, {"type": "electric_scooter", "rental_uris": {"ios": "https://dc.lft.to/lastmile_qr_scan", "android": "https://dc.lft.to/lastmile_qr_scan"}, "lon": -77.04009716666667, "fusion_lon": 0.0, "is_disabled": 0, "lat": 38.90999733333334, "bike_id": "9bc2bf76de216ac5c09338ef114ab67e", "name": "9bc2bf76de216ac5c09338ef114ab67e", "is_reserved": 0, "fusion_lat": 0.0}, {"type": "electric_scooter", "rental_uris": {"ios": "https://dc.lft.to/lastmile_qr_scan", "android": "https://dc.lft.to/lastmile_qr_scan"}, "lon": -77.021568, "fusion_lon": 0.0, "is_disabled": 0, "lat": 38.92499183333334, "bike_id": "a0940f23734780b3cf48751ee62134c9", "name": "a0940f23734780b3cf48751ee62134c9", "is_reserved": 0, "fusion_lat": 0.0}, {"type": "electric_scooter", "rental_uris": {"ios": "https://dc.lft.to/lastmile_qr_scan", "android": "https://dc.lft.to/lastmile_qr_scan"}, "lon": -77.03978733333334, "fusion_lon": 0.0, "is_disabled": 0, "lat": 38.898971333333336, "bike_id": "38c530276e92fce21717c834163b3344", "name": "38c530276e92fce21717c834163b3344", "is_reserved": 0, "fusion_lat": 0.0}, {"type": "electric_scooter", "rental_uris": {"ios": "https://dc.lft.to/lastmile_qr_scan", "android": "https://dc.lft.to/lastmile_qr_scan"}, "lon": -77.02200616666667, "fusion_lon": 0.0, "is_disabled": 0, "lat": 38.894991833333336, "bike_id": "c0305f55a129881b164c3bafee6d9660", "name": "c0305f55a129881b164c3bafee6d9660", "is_reserved": 0, "fusion_lat": 0.0}, {"type": "electric_bike", "rental_uris": {"ios": "https://dc.lft.to/lastmile_qr_scan", "android": "https://dc.lft.to/lastmile_qr_scan"}, "lon": -76.9519525, "fusion_lon": 0.0, "is_disabled": 0, "lat": 38.93677266666667, "bike_id": "9e0c07556dc021797dadd2320c1c9925", "name": "9e0c07556dc021797dadd2320c1c9925", "is_reserved": 0, "fusion_lat": 0.0}, {"type": "electric_bike", "rental_uris": {"ios": "https://dc.lft.to/lastmile_qr_scan", "android": "https://dc.lft.to/lastmile_qr_scan"}, "lon": -76.97262933333333, "fusion_lon": 0.0, "is_disabled": 0, "lat": 38.91962, "bike_id": "0e02953808ace65a9ff172f89811336c", "name": "0e02953808ace65a9ff172f89811336c", "is_reserved": 0, "fusion_lat": 0.0}, {"type": "electric_scooter", "rental_uris": {"ios": "https://dc.lft.to/lastmile_qr_scan", "android": "https://dc.lft.to/lastmile_qr_scan"}, "lon": -77.03640083333333, "fusion_lon": 0.0, "is_disabled": 0, "lat": 38.903134333333334, "bike_id": "695b1c56ca85f32ca6d109b78a95b807", "name": "695b1c56ca85f32ca6d109b78a95b807", "is_reserved": 0, "fusion_lat": 0.0}, {"type": "electric_scooter", "rental_uris": {"ios": "https://dc.lft.to/lastmile_qr_scan", "android": "https://dc.lft.to/lastmile_qr_scan"}, "lon": -77.04131483333333, "fusion_lon": 0.0, "is_disabled": 0, "lat": 38.899257166666665, "bike_id": "89f00dbba5997e3d8fef78a46104e8d3", "name": "89f00dbba5997e3d8fef78a46104e8d3", "is_reserved": 0, "fusion_lat": 0.0}, {"type": "electric_scooter", "rental_uris": {"ios": "https://dc.lft.to/lastmile_qr_scan", "android": "https://dc.lft.to/lastmile_qr_scan"}, "lon": -77.0261825, "fusion_lon": 0.0, "is_disabled": 0, "lat": 38.9482265, "bike_id": "1d48ea0a757127f572db1627e1ee4a72", "name": "1d48ea0a757127f572db1627e1ee4a72", "is_reserved": 0, "fusion_lat": 0.0}, {"type": "electric_scooter", "rental_uris": {"ios": "https://dc.lft.to/lastmile_qr_scan", "android": "https://dc.lft.to/lastmile_qr_scan"}, "lon": -77.00988216666667, "fusion_lon": 0.0, "is_disabled": 0, "lat": 38.8729115, "bike_id": "b546cfb445fb4b83e26d765417695484", "name": "b546cfb445fb4b83e26d765417695484", "is_reserved": 0, "fusion_lat": 0.0}, {"type": "electric_scooter", "rental_uris": {"ios": "https://dc.lft.to/lastmile_qr_scan", "android": "https://dc.lft.to/lastmile_qr_scan"}, "lon": -76.99496833333333, "fusion_lon": 0.0, "is_disabled": 0, "lat": 38.862454, "bike_id": "5d3427f03c80c025b55ea6baa0e93a8a", "name": "5d3427f03c80c025b55ea6baa0e93a8a", "is_reserved": 0, "fusion_lat": 0.0}, {"type": "electric_bike", "rental_uris": {"ios": "https://dc.lft.to/lastmile_qr_scan", "android": "https://dc.lft.to/lastmile_qr_scan"}, "lon": -77.03139466666667, "fusion_lon": 0.0, "is_disabled": 0, "lat": 38.99445633333333, "bike_id": "6125261f4b854c5128ba62374f6e2c01", "name": "6125261f4b854c5128ba62374f6e2c01", "is_reserved": 0, "fusion_lat": 0.0}, {"type": "electric_bike", "rental_uris": {"ios": "https://dc.lft.to/lastmile_qr_scan", "android": "https://dc.lft.to/lastmile_qr_scan"}, "lon": -77.2164715, "fusion_lon": 0.0, "is_disabled": 0, "lat": 38.930139, "bike_id": "f413971b6e2a338008aa8840915995a4", "name": "f413971b6e2a338008aa8840915995a4", "is_reserved": 0, "fusion_lat": 0.0}, {"type": "electric_bike", "rental_uris": {"ios": "https://dc.lft.to/lastmile_qr_scan", "android": "https://dc.lft.to/lastmile_qr_scan"}, "lon": -76.9606525, "fusion_lon": 0.0, "is_disabled": 0, "lat": 38.88403566666667, "bike_id": "f82353e154b092bb30ca11037a4e5af4", "name": "f82353e154b092bb30ca11037a4e5af4", "is_reserved": 0, "fusion_lat": 0.0}, {"type": "electric_scooter", "rental_uris": {"ios": "https://dc.lft.to/lastmile_qr_scan", "android": "https://dc.lft.to/lastmile_qr_scan"}, "lon": -77.01938716666666, "fusion_lon": 0.0, "is_disabled": 0, "lat": 38.94854383333333, "bike_id": "b21c1038c46dafa013765ab2963c9ddb", "name": "b21c1038c46dafa013765ab2963c9ddb", "is_reserved": 0, "fusion_lat": 0.0}, {"type": "electric_bike", "rental_uris": {"ios": "https://dc.lft.to/lastmile_qr_scan", "android": "https://dc.lft.to/lastmile_qr_scan"}, "lon": -77.0587625, "fusion_lon": 0.0, "is_disabled": 0, "lat": 38.9589345, "bike_id": "3f59f7b3f187e7776bd5d2a2b09113ff", "name": "3f59f7b3f187e7776bd5d2a2b09113ff", "is_reserved": 0, "fusion_lat": 0.0}, {"type": "electric_scooter", "rental_uris": {"ios": "https://dc.lft.to/lastmile_qr_scan", "android": "https://dc.lft.to/lastmile_qr_scan"}, "lon": -77.0006895, "fusion_lon": 0.0, "is_disabled": 0, "lat": 38.925543833333336, "bike_id": "62b2d60b159525ed8cfc40555c84f7a1", "name": "62b2d60b159525ed8cfc40555c84f7a1", "is_reserved": 0, "fusion_lat": 0.0}, {"type": "electric_scooter", "rental_uris": {"ios": "https://dc.lft.to/lastmile_qr_scan", "android": "https://dc.lft.to/lastmile_qr_scan"}, "lon": -77.024011, "fusion_lon": 0.0, "is_disabled": 0, "lat": 38.9185525, "bike_id": "5555407fc641ff51ea64fd7a74953bdb", "name": "5555407fc641ff51ea64fd7a74953bdb", "is_reserved": 0, "fusion_lat": 0.0}, {"type": "electric_scooter", "rental_uris": {"ios": "https://dc.lft.to/lastmile_qr_scan", "android": "https://dc.lft.to/lastmile_qr_scan"}, "lon": -77.0296735, "fusion_lon": 0.0, "is_disabled": 0, "lat": 38.923329833333334, "bike_id": "9dd1f9cb62863c43b2436b23af7d7aca", "name": "9dd1f9cb62863c43b2436b23af7d7aca", "is_reserved": 0, "fusion_lat": 0.0}, {"type": "electric_scooter", "rental_uris": {"ios": "https://dc.lft.to/lastmile_qr_scan", "android": "https://dc.lft.to/lastmile_qr_scan"}, "lon": -77.03161616666667, "fusion_lon": 0.0, "is_disabled": 0, "lat": 38.91557266666667, "bike_id": "31fa5c25ec80d283efc6f6447668e1d7", "name": "31fa5c25ec80d283efc6f6447668e1d7", "is_reserved": 0, "fusion_lat": 0.0}, {"type": "electric_scooter", "rental_uris": {"ios": "https://dc.lft.to/lastmile_qr_scan", "android": "https://dc.lft.to/lastmile_qr_scan"}, "lon": -77.04361133333333, "fusion_lon": 0.0, "is_disabled": 0, "lat": 38.920685, "bike_id": "48b5289c852b832bcfe5e5393e9656cd", "name": "48b5289c852b832bcfe5e5393e9656cd", "is_reserved": 0, "fusion_lat": 0.0}, {"type": "electric_scooter", "rental_uris": {"ios": "https://dc.lft.to/lastmile_qr_scan", "android": "https://dc.lft.to/lastmile_qr_scan"}, "lon": -77.034812, "fusion_lon": 0.0, "is_disabled": 0, "lat": 38.92486383333333, "bike_id": "e143f2f2a4e7648ad8826937a0d67a0c", "name": "e143f2f2a4e7648ad8826937a0d67a0c", "is_reserved": 0, "fusion_lat": 0.0}, {"type": "electric_scooter", "rental_uris": {"ios": "https://dc.lft.to/lastmile_qr_scan", "android": "https://dc.lft.to/lastmile_qr_scan"}, "lon": -76.98517383333333, "fusion_lon": 0.0, "is_disabled": 0, "lat": 38.866850166666666, "bike_id": "d805303dcc89b4d8528cd35c2eb54f95", "name": "d805303dcc89b4d8528cd35c2eb54f95", "is_reserved": 0, "fusion_lat": 0.0}, {"type": "electric_scooter", "rental_uris": {"ios": "https://dc.lft.to/lastmile_qr_scan", "android": "https://dc.lft.to/lastmile_qr_scan"}, "lon": -77.02951883333333, "fusion_lon": 0.0, "is_disabled": 0, "lat": 38.92250216666667, "bike_id": "4449102c89c401645b412a05ec58d0cc", "name": "4449102c89c401645b412a05ec58d0cc", "is_reserved": 0, "fusion_lat": 0.0}, {"type": "electric_scooter", "rental_uris": {"ios": "https://dc.lft.to/lastmile_qr_scan", "android": "https://dc.lft.to/lastmile_qr_scan"}, "lon": -77.0345265, "fusion_lon": 0.0, "is_disabled": 0, "lat": 38.93742833333334, "bike_id": "45fbca1ef7aee13f303f956a2d78ba7e", "name": "45fbca1ef7aee13f303f956a2d78ba7e", "is_reserved": 0, "fusion_lat": 0.0}, {"type": "electric_scooter", "rental_uris": {"ios": "https://dc.lft.to/lastmile_qr_scan", "android": "https://dc.lft.to/lastmile_qr_scan"}, "lon": -77.03380516666667, "fusion_lon": 0.0, "is_disabled": 0, "lat": 38.90973183333333, "bike_id": "5b76d862cd1493bc84c31d313e6e59f4", "name": "5b76d862cd1493bc84c31d313e6e59f4", "is_reserved": 0, "fusion_lat": 0.0}, {"type": "electric_scooter", "rental_uris": {"ios": "https://dc.lft.to/lastmile_qr_scan", "android": "https://dc.lft.to/lastmile_qr_scan"}, "lon": -77.03930083333333, "fusion_lon": 0.0, "is_disabled": 0, "lat": 38.9169905, "bike_id": "66f24d5b19d6affd407fdbaf725a4776", "name": "66f24d5b19d6affd407fdbaf725a4776", "is_reserved": 0, "fusion_lat": 0.0}, {"type": "electric_scooter", "rental_uris": {"ios": "https://dc.lft.to/lastmile_qr_scan", "android": "https://dc.lft.to/lastmile_qr_scan"}, "lon": -77.01410483333333, "fusion_lon": 0.0, "is_disabled": 0, "lat": 38.881235, "bike_id": "34a47eb3d24dad15c9b0109bd730eaad", "name": "34a47eb3d24dad15c9b0109bd730eaad", "is_reserved": 0, "fusion_lat": 0.0}, {"type": "electric_scooter", "rental_uris": {"ios": "https://dc.lft.to/lastmile_qr_scan", "android": "https://dc.lft.to/lastmile_qr_scan"}, "lon": -77.0240925, "fusion_lon": 0.0, "is_disabled": 0, "lat": 38.9185, "bike_id": "881e752f9ad3db4c0ef3ca0f71ea9084", "name": "881e752f9ad3db4c0ef3ca0f71ea9084", "is_reserved": 0, "fusion_lat": 0.0}, {"type": "electric_scooter", "rental_uris": {"ios": "https://dc.lft.to/lastmile_qr_scan", "android": "https://dc.lft.to/lastmile_qr_scan"}, "lon": -77.03234733333333, "fusion_lon": 0.0, "is_disabled": 0, "lat": 38.92190566666667, "bike_id": "c63259841807285a6d92fdac21c0a7ad", "name": "c63259841807285a6d92fdac21c0a7ad", "is_reserved": 0, "fusion_lat": 0.0}, {"type": "electric_bike", "rental_uris": {"ios": "https://dc.lft.to/lastmile_qr_scan", "android": "https://dc.lft.to/lastmile_qr_scan"}, "lon": -77.1264895, "fusion_lon": 0.0, "is_disabled": 0, "lat": 38.815194, "bike_id": "f11c2301137f147d97b6a806d05157ac", "name": "f11c2301137f147d97b6a806d05157ac", "is_reserved": 0, "fusion_lat": 0.0}, {"type": "electric_scooter", "rental_uris": {"ios": "https://dc.lft.to/lastmile_qr_scan", "android": "https://dc.lft.to/lastmile_qr_scan"}, "lon": -77.0366035, "fusion_lon": 0.0, "is_disabled": 0, "lat": 38.92247033333334, "bike_id": "140674534920102adf0b439c9bbcc486", "name": "140674534920102adf0b439c9bbcc486", "is_reserved": 0, "fusion_lat": 0.0}, {"type": "electric_scooter", "rental_uris": {"ios": "https://dc.lft.to/lastmile_qr_scan", "android": "https://dc.lft.to/lastmile_qr_scan"}, "lon": -77.03891266666666, "fusion_lon": 0.0, "is_disabled": 0, "lat": 38.91704216666667, "bike_id": "4a442d6bb6bc17a17ee19c7b12036349", "name": "4a442d6bb6bc17a17ee19c7b12036349", "is_reserved": 0, "fusion_lat": 0.0}, {"type": "electric_bike", "rental_uris": {"ios": "https://dc.lft.to/lastmile_qr_scan", "android": "https://dc.lft.to/lastmile_qr_scan"}, "lon": -77.11296083333333, "fusion_lon": 0.0, "is_disabled": 0, "lat": 38.83169916666667, "bike_id": "c299e7c77d5cb188ecb5fca6214840f8", "name": "c299e7c77d5cb188ecb5fca6214840f8", "is_reserved": 0, "fusion_lat": 0.0}, {"type": "electric_scooter", "rental_uris": {"ios": "https://dc.lft.to/lastmile_qr_scan", "android": "https://dc.lft.to/lastmile_qr_scan"}, "lon": -77.02179383333333, "fusion_lon": 0.0, "is_disabled": 0, "lat": 38.910829, "bike_id": "a889d2e8a43ec15b32a25ef10deb7441", "name": "a889d2e8a43ec15b32a25ef10deb7441", "is_reserved": 0, "fusion_lat": 0.0}, {"type": "electric_scooter", "rental_uris": {"ios": "https://dc.lft.to/lastmile_qr_scan", "android": "https://dc.lft.to/lastmile_qr_scan"}, "lon": -77.04003133333333, "fusion_lon": 0.0, "is_disabled": 0, "lat": 38.915617166666664, "bike_id": "c51f86c0031949fc802cb8bb7a419caa", "name": "c51f86c0031949fc802cb8bb7a419caa", "is_reserved": 0, "fusion_lat": 0.0}, {"type": "electric_scooter", "rental_uris": {"ios": "https://dc.lft.to/lastmile_qr_scan", "android": "https://dc.lft.to/lastmile_qr_scan"}, "lon": -77.03251616666667, "fusion_lon": 0.0, "is_disabled": 0, "lat": 38.91712016666666, "bike_id": "dcfa0b38faba56d244f4b6d8e92a7049", "name": "dcfa0b38faba56d244f4b6d8e92a7049", "is_reserved": 0, "fusion_lat": 0.0}, {"type": "electric_scooter", "rental_uris": {"ios": "https://dc.lft.to/lastmile_qr_scan", "android": "https://dc.lft.to/lastmile_qr_scan"}, "lon": -77.02437266666666, "fusion_lon": 0.0, "is_disabled": 0, "lat": 38.9225805, "bike_id": "6bbd9f7d293043907cb4ecaf777be9ea", "name": "6bbd9f7d293043907cb4ecaf777be9ea", "is_reserved": 0, "fusion_lat": 0.0}, {"type": "electric_scooter", "rental_uris": {"ios": "https://dc.lft.to/lastmile_qr_scan", "android": "https://dc.lft.to/lastmile_qr_scan"}, "lon": -77.00606366666666, "fusion_lon": 0.0, "is_disabled": 0, "lat": 38.87181783333333, "bike_id": "577988186f4ea409c5251092bf8c4aa4", "name": "577988186f4ea409c5251092bf8c4aa4", "is_reserved": 0, "fusion_lat": 0.0}, {"type": "electric_scooter", "rental_uris": {"ios": "https://dc.lft.to/lastmile_qr_scan", "android": "https://dc.lft.to/lastmile_qr_scan"}, "lon": -77.04061883333334, "fusion_lon": 0.0, "is_disabled": 0, "lat": 38.91286, "bike_id": "3a080839ef0829e2cf3a8e5163d71281", "name": "3a080839ef0829e2cf3a8e5163d71281", "is_reserved": 0, "fusion_lat": 0.0}, {"type": "electric_bike", "rental_uris": {"ios": "https://dc.lft.to/lastmile_qr_scan", "android": "https://dc.lft.to/lastmile_qr_scan"}, "lon": -77.20837383333334, "fusion_lon": 0.0, "is_disabled": 0, "lat": 38.92470866666667, "bike_id": "2ae7aa49b2c6f96d160b876b11f5acf2", "name": "2ae7aa49b2c6f96d160b876b11f5acf2", "is_reserved": 0, "fusion_lat": 0.0}, {"type": "electric_scooter", "rental_uris": {"ios": "https://dc.lft.to/lastmile_qr_scan", "android": "https://dc.lft.to/lastmile_qr_scan"}, "lon": -77.023211, "fusion_lon": 0.0, "is_disabled": 0, "lat": 38.8922355, "bike_id": "a1b43c989bbdc15787fdb6035d86eb72", "name": "a1b43c989bbdc15787fdb6035d86eb72", "is_reserved": 0, "fusion_lat": 0.0}, {"type": "electric_scooter", "rental_uris": {"ios": "https://dc.lft.to/lastmile_qr_scan", "android": "https://dc.lft.to/lastmile_qr_scan"}, "lon": -77.02123416666667, "fusion_lon": 0.0, "is_disabled": 0, "lat": 38.887436, "bike_id": "46b6840c2e65db4eeb1c13c7091256bd", "name": "46b6840c2e65db4eeb1c13c7091256bd", "is_reserved": 0, "fusion_lat": 0.0}, {"type": "electric_scooter", "rental_uris": {"ios": "https://dc.lft.to/lastmile_qr_scan", "android": "https://dc.lft.to/lastmile_qr_scan"}, "lon": -77.03896966666667, "fusion_lon": 0.0, "is_disabled": 0, "lat": 38.90252233333333, "bike_id": "07b2990a13a1b92178ee5dceda8a43de", "name": "07b2990a13a1b92178ee5dceda8a43de", "is_reserved": 0, "fusion_lat": 0.0}, {"type": "electric_scooter", "rental_uris": {"ios": "https://dc.lft.to/lastmile_qr_scan", "android": "https://dc.lft.to/lastmile_qr_scan"}, "lon": -76.99705033333333, "fusion_lon": 0.0, "is_disabled": 0, "lat": 38.90833683333334, "bike_id": "f845d7031011e9ab4432023c52e04c84", "name": "f845d7031011e9ab4432023c52e04c84", "is_reserved": 0, "fusion_lat": 0.0}, {"type": "electric_scooter", "rental_uris": {"ios": "https://dc.lft.to/lastmile_qr_scan", "android": "https://dc.lft.to/lastmile_qr_scan"}, "lon": -77.034503, "fusion_lon": 0.0, "is_disabled": 0, "lat": 38.9081355, "bike_id": "5f40590bc164bcc1d58e817aca242ecd", "name": "5f40590bc164bcc1d58e817aca242ecd", "is_reserved": 0, "fusion_lat": 0.0}, {"type": "electric_scooter", "rental_uris": {"ios": "https://dc.lft.to/lastmile_qr_scan", "android": "https://dc.lft.to/lastmile_qr_scan"}, "lon": -77.03935516666667, "fusion_lon": 0.0, "is_disabled": 0, "lat": 38.9155925, "bike_id": "a2ace15dada5f53f083ff7a3dad586de", "name": "a2ace15dada5f53f083ff7a3dad586de", "is_reserved": 0, "fusion_lat": 0.0}, {"type": "electric_scooter", "rental_uris": {"ios": "https://dc.lft.to/lastmile_qr_scan", "android": "https://dc.lft.to/lastmile_qr_scan"}, "lon": -77.04059583333333, "fusion_lon": 0.0, "is_disabled": 0, "lat": 38.899001166666665, "bike_id": "d2ed5be60d764303e4d00cae523a48b9", "name": "d2ed5be60d764303e4d00cae523a48b9", "is_reserved": 0, "fusion_lat": 0.0}, {"type": "electric_scooter", "rental_uris": {"ios": "https://dc.lft.to/lastmile_qr_scan", "android": "https://dc.lft.to/lastmile_qr_scan"}, "lon": -77.03659316666666, "fusion_lon": 0.0, "is_disabled": 0, "lat": 38.90289683333334, "bike_id": "83f621382d2bd517394cb23990461683", "name": "83f621382d2bd517394cb23990461683", "is_reserved": 0, "fusion_lat": 0.0}, {"type": "electric_scooter", "rental_uris": {"ios": "https://dc.lft.to/lastmile_qr_scan", "android": "https://dc.lft.to/lastmile_qr_scan"}, "lon": -77.02162283333334, "fusion_lon": 0.0, "is_disabled": 0, "lat": 38.926155333333334, "bike_id": "c32484dc654a8fd8232d3c07f799bb36", "name": "c32484dc654a8fd8232d3c07f799bb36", "is_reserved": 0, "fusion_lat": 0.0}, {"type": "electric_scooter", "rental_uris": {"ios": "https://dc.lft.to/lastmile_qr_scan", "android": "https://dc.lft.to/lastmile_qr_scan"}, "lon": -77.0733455, "fusion_lon": 0.0, "is_disabled": 0, "lat": 38.9249555, "bike_id": "5c2f75417aac4cd67066c43d5aac44ad", "name": "5c2f75417aac4cd67066c43d5aac44ad", "is_reserved": 0, "fusion_lat": 0.0}, {"type": "electric_scooter", "rental_uris": {"ios": "https://dc.lft.to/lastmile_qr_scan", "android": "https://dc.lft.to/lastmile_qr_scan"}, "lon": -77.02800683333334, "fusion_lon": 0.0, "is_disabled": 0, "lat": 38.917123, "bike_id": "b01eae2743169b44f52332e459d3b92e", "name": "b01eae2743169b44f52332e459d3b92e", "is_reserved": 0, "fusion_lat": 0.0}, {"type": "electric_scooter", "rental_uris": {"ios": "https://dc.lft.to/lastmile_qr_scan", "android": "https://dc.lft.to/lastmile_qr_scan"}, "lon": -77.03183683333333, "fusion_lon": 0.0, "is_disabled": 0, "lat": 38.91327033333334, "bike_id": "09e3ad1d4b0e6d40ed98285a659051ed", "name": "09e3ad1d4b0e6d40ed98285a659051ed", "is_reserved": 0, "fusion_lat": 0.0}, {"type": "electric_scooter", "rental_uris": {"ios": "https://dc.lft.to/lastmile_qr_scan", "android": "https://dc.lft.to/lastmile_qr_scan"}, "lon": -77.02722466666667, "fusion_lon": 0.0, "is_disabled": 0, "lat": 38.95186533333333, "bike_id": "acb9c589479d65680e8f9b6edad70124", "name": "acb9c589479d65680e8f9b6edad70124", "is_reserved": 0, "fusion_lat": 0.0}, {"type": "electric_scooter", "rental_uris": {"ios": "https://dc.lft.to/lastmile_qr_scan", "android": "https://dc.lft.to/lastmile_qr_scan"}, "lon": -77.00336216666666, "fusion_lon": 0.0, "is_disabled": 0, "lat": 38.88742216666667, "bike_id": "cf9ab13c71683fd3cd88ed592576c110", "name": "cf9ab13c71683fd3cd88ed592576c110", "is_reserved": 0, "fusion_lat": 0.0}, {"type": "electric_scooter", "rental_uris": {"ios": "https://dc.lft.to/lastmile_qr_scan", "android": "https://dc.lft.to/lastmile_qr_scan"}, "lon": -77.03660233333333, "fusion_lon": 0.0, "is_disabled": 0, "lat": 38.91724583333333, "bike_id": "9c538ba04a70cd745f54c4876f6204f0", "name": "9c538ba04a70cd745f54c4876f6204f0", "is_reserved": 0, "fusion_lat": 0.0}, {"type": "electric_scooter", "rental_uris": {"ios": "https://dc.lft.to/lastmile_qr_scan", "android": "https://dc.lft.to/lastmile_qr_scan"}, "lon": -76.96530516666667, "fusion_lon": 0.0, "is_disabled": 0, "lat": 38.87628733333333, "bike_id": "beaa6f83e654cceede112cfb356abbe9", "name": "beaa6f83e654cceede112cfb356abbe9", "is_reserved": 0, "fusion_lat": 0.0}, {"type": "electric_scooter", "rental_uris": {"ios": "https://dc.lft.to/lastmile_qr_scan", "android": "https://dc.lft.to/lastmile_qr_scan"}, "lon": -77.02853116666667, "fusion_lon": 0.0, "is_disabled": 0, "lat": 38.927753, "bike_id": "d9c4c30309af6b347525178b9a0c3252", "name": "d9c4c30309af6b347525178b9a0c3252", "is_reserved": 0, "fusion_lat": 0.0}, {"type": "electric_scooter", "rental_uris": {"ios": "https://dc.lft.to/lastmile_qr_scan", "android": "https://dc.lft.to/lastmile_qr_scan"}, "lon": -76.99966766666667, "fusion_lon": 0.0, "is_disabled": 0, "lat": 38.901151, "bike_id": "952e1397fd546b5e260d29963a9388a4", "name": "952e1397fd546b5e260d29963a9388a4", "is_reserved": 0, "fusion_lat": 0.0}, {"type": "electric_scooter", "rental_uris": {"ios": "https://dc.lft.to/lastmile_qr_scan", "android": "https://dc.lft.to/lastmile_qr_scan"}, "lon": -76.9956235, "fusion_lon": 0.0, "is_disabled": 0, "lat": 38.9002415, "bike_id": "c8ff6171aab3a150805e5ac5126abe3c", "name": "c8ff6171aab3a150805e5ac5126abe3c", "is_reserved": 0, "fusion_lat": 0.0}, {"type": "electric_scooter", "rental_uris": {"ios": "https://dc.lft.to/lastmile_qr_scan", "android": "https://dc.lft.to/lastmile_qr_scan"}, "lon": -77.05128316666666, "fusion_lon": 0.0, "is_disabled": 0, "lat": 38.923639666666666, "bike_id": "2d9943c0ff5635b06c42fddb3503dfe9", "name": "2d9943c0ff5635b06c42fddb3503dfe9", "is_reserved": 0, "fusion_lat": 0.0}, {"type": "electric_scooter", "rental_uris": {"ios": "https://dc.lft.to/lastmile_qr_scan", "android": "https://dc.lft.to/lastmile_qr_scan"}, "lon": -77.0523665, "fusion_lon": 0.0, "is_disabled": 0, "lat": 38.924711333333335, "bike_id": "c0a2075bf66d812bed46d7a6e05c25c0", "name": "c0a2075bf66d812bed46d7a6e05c25c0", "is_reserved": 0, "fusion_lat": 0.0}, {"type": "electric_scooter", "rental_uris": {"ios": "https://dc.lft.to/lastmile_qr_scan", "android": "https://dc.lft.to/lastmile_qr_scan"}, "lon": -77.04497016666667, "fusion_lon": 0.0, "is_disabled": 0, "lat": 38.9192895, "bike_id": "83a0916678cf62b6143e9e52bc3dc202", "name": "83a0916678cf62b6143e9e52bc3dc202", "is_reserved": 0, "fusion_lat": 0.0}, {"type": "electric_bike", "rental_uris": {"ios": "https://dc.lft.to/lastmile_qr_scan", "android": "https://dc.lft.to/lastmile_qr_scan"}, "lon": -76.9859335, "fusion_lon": 0.0, "is_disabled": 0, "lat": 38.90622116666667, "bike_id": "6df29d5992201b12425447cfc05da415", "name": "6df29d5992201b12425447cfc05da415", "is_reserved": 0, "fusion_lat": 0.0}, {"type": "electric_scooter", "rental_uris": {"ios": "https://dc.lft.to/lastmile_qr_scan", "android": "https://dc.lft.to/lastmile_qr_scan"}, "lon": -77.01499116666666, "fusion_lon": 0.0, "is_disabled": 0, "lat": 38.94329116666667, "bike_id": "b4cc120c9a8ea89e36925ec4e5027bb7", "name": "b4cc120c9a8ea89e36925ec4e5027bb7", "is_reserved": 0, "fusion_lat": 0.0}, {"type": "electric_bike", "rental_uris": {"ios": "https://dc.lft.to/lastmile_qr_scan", "android": "https://dc.lft.to/lastmile_qr_scan"}, "lon": -76.90966833333333, "fusion_lon": 0.0, "is_disabled": 0, "lat": 38.85414, "bike_id": "e2d8aed7bb25ffe8a21ae29c0435288c", "name": "e2d8aed7bb25ffe8a21ae29c0435288c", "is_reserved": 0, "fusion_lat": 0.0}, {"type": "electric_scooter", "rental_uris": {"ios": "https://dc.lft.to/lastmile_qr_scan", "android": "https://dc.lft.to/lastmile_qr_scan"}, "lon": -77.04331066666667, "fusion_lon": 0.0, "is_disabled": 0, "lat": 38.89224816666667, "bike_id": "55098cf6fa0c2b341c177c9d6dfe53ad", "name": "55098cf6fa0c2b341c177c9d6dfe53ad", "is_reserved": 0, "fusion_lat": 0.0}, {"type": "electric_scooter", "rental_uris": {"ios": "https://dc.lft.to/lastmile_qr_scan", "android": "https://dc.lft.to/lastmile_qr_scan"}, "lon": -77.021657, "fusion_lon": 0.0, "is_disabled": 0, "lat": 38.8973075, "bike_id": "b875496e58bcbcad5292819e947c9e82", "name": "b875496e58bcbcad5292819e947c9e82", "is_reserved": 0, "fusion_lat": 0.0}, {"type": "electric_scooter", "rental_uris": {"ios": "https://dc.lft.to/lastmile_qr_scan", "android": "https://dc.lft.to/lastmile_qr_scan"}, "lon": -77.04162, "fusion_lon": 0.0, "is_disabled": 0, "lat": 38.902950833333335, "bike_id": "ca4dff77f0c9475dc3809a5b915f58be", "name": "ca4dff77f0c9475dc3809a5b915f58be", "is_reserved": 0, "fusion_lat": 0.0}, {"type": "electric_bike", "rental_uris": {"ios": "https://dc.lft.to/lastmile_qr_scan", "android": "https://dc.lft.to/lastmile_qr_scan"}, "lon": -77.09959333333333, "fusion_lon": 0.0, "is_disabled": 0, "lat": 38.857878666666664, "bike_id": "97abcae3e38bf818907b1d56df02a3cb", "name": "97abcae3e38bf818907b1d56df02a3cb", "is_reserved": 0, "fusion_lat": 0.0}, {"type": "electric_scooter", "rental_uris": {"ios": "https://dc.lft.to/lastmile_qr_scan", "android": "https://dc.lft.to/lastmile_qr_scan"}, "lon": -77.0328955, "fusion_lon": 0.0, "is_disabled": 0, "lat": 38.956514, "bike_id": "4838386af9b139a4c8205c8eac3720e2", "name": "4838386af9b139a4c8205c8eac3720e2", "is_reserved": 0, "fusion_lat": 0.0}, {"type": "electric_scooter", "rental_uris": {"ios": "https://dc.lft.to/lastmile_qr_scan", "android": "https://dc.lft.to/lastmile_qr_scan"}, "lon": -77.07050583333333, "fusion_lon": 0.0, "is_disabled": 0, "lat": 38.9192575, "bike_id": "3e187fa27d1b515eb1221ab83c6756c0", "name": "3e187fa27d1b515eb1221ab83c6756c0", "is_reserved": 0, "fusion_lat": 0.0}, {"type": "electric_scooter", "rental_uris": {"ios": "https://dc.lft.to/lastmile_qr_scan", "android": "https://dc.lft.to/lastmile_qr_scan"}, "lon": -77.050219, "fusion_lon": 0.0, "is_disabled": 0, "lat": 38.923576833333335, "bike_id": "875fc34f85b22d5d3f401fafbc9ae673", "name": "875fc34f85b22d5d3f401fafbc9ae673", "is_reserved": 0, "fusion_lat": 0.0}, {"type": "electric_scooter", "rental_uris": {"ios": "https://dc.lft.to/lastmile_qr_scan", "android": "https://dc.lft.to/lastmile_qr_scan"}, "lon": -77.034701, "fusion_lon": 0.0, "is_disabled": 0, "lat": 38.9225815, "bike_id": "9afd95df17f69bb6b0f47a928c452abd", "name": "9afd95df17f69bb6b0f47a928c452abd", "is_reserved": 0, "fusion_lat": 0.0}, {"type": "electric_scooter", "rental_uris": {"ios": "https://dc.lft.to/lastmile_qr_scan", "android": "https://dc.lft.to/lastmile_qr_scan"}, "lon": -77.05221216666666, "fusion_lon": 0.0, "is_disabled": 0, "lat": 38.92497816666667, "bike_id": "7b85523ecf1209621e4a4602105d6827", "name": "7b85523ecf1209621e4a4602105d6827", "is_reserved": 0, "fusion_lat": 0.0}, {"type": "electric_scooter", "rental_uris": {"ios": "https://dc.lft.to/lastmile_qr_scan", "android": "https://dc.lft.to/lastmile_qr_scan"}, "lon": -77.0229245, "fusion_lon": 0.0, "is_disabled": 0, "lat": 38.916289666666664, "bike_id": "8d9f1c43203d99fb9762fba8b570398c", "name": "8d9f1c43203d99fb9762fba8b570398c", "is_reserved": 0, "fusion_lat": 0.0}, {"type": "electric_scooter", "rental_uris": {"ios": "https://dc.lft.to/lastmile_qr_scan", "android": "https://dc.lft.to/lastmile_qr_scan"}, "lon": -76.97941666666667, "fusion_lon": 0.0, "is_disabled": 0, "lat": 38.9452715, "bike_id": "c4694f313c4f1ddda13025e154d14d13", "name": "c4694f313c4f1ddda13025e154d14d13", "is_reserved": 0, "fusion_lat": 0.0}, {"type": "electric_scooter", "rental_uris": {"ios": "https://dc.lft.to/lastmile_qr_scan", "android": "https://dc.lft.to/lastmile_qr_scan"}, "lon": -77.04184333333333, "fusion_lon": 0.0, "is_disabled": 0, "lat": 38.90159966666667, "bike_id": "bf5d4882ff5abfd28209cf363717a4e3", "name": "bf5d4882ff5abfd28209cf363717a4e3", "is_reserved": 0, "fusion_lat": 0.0}, {"type": "electric_scooter", "rental_uris": {"ios": "https://dc.lft.to/lastmile_qr_scan", "android": "https://dc.lft.to/lastmile_qr_scan"}, "lon": -77.03955666666667, "fusion_lon": 0.0, "is_disabled": 0, "lat": 38.907321333333336, "bike_id": "ade61125b43579647d8cd359c45c1446", "name": "ade61125b43579647d8cd359c45c1446", "is_reserved": 0, "fusion_lat": 0.0}, {"type": "electric_bike", "rental_uris": {"ios": "https://dc.lft.to/lastmile_qr_scan", "android": "https://dc.lft.to/lastmile_qr_scan"}, "lon": -77.097972, "fusion_lon": 0.0, "is_disabled": 0, "lat": 38.85029216666667, "bike_id": "3c238f529eb2f23552315a60ae4460bc", "name": "3c238f529eb2f23552315a60ae4460bc", "is_reserved": 0, "fusion_lat": 0.0}, {"type": "electric_scooter", "rental_uris": {"ios": "https://dc.lft.to/lastmile_qr_scan", "android": "https://dc.lft.to/lastmile_qr_scan"}, "lon": -77.01862116666666, "fusion_lon": 0.0, "is_disabled": 0, "lat": 38.93153266666667, "bike_id": "948837fc4e592b2d085de0388be35e72", "name": "948837fc4e592b2d085de0388be35e72", "is_reserved": 0, "fusion_lat": 0.0}, {"type": "electric_scooter", "rental_uris": {"ios": "https://dc.lft.to/lastmile_qr_scan", "android": "https://dc.lft.to/lastmile_qr_scan"}, "lon": -77.02223283333333, "fusion_lon": 0.0, "is_disabled": 0, "lat": 38.892216166666664, "bike_id": "ba446ff5386eb5c900817663a59302bc", "name": "ba446ff5386eb5c900817663a59302bc", "is_reserved": 0, "fusion_lat": 0.0}, {"type": "electric_scooter", "rental_uris": {"ios": "https://dc.lft.to/lastmile_qr_scan", "android": "https://dc.lft.to/lastmile_qr_scan"}, "lon": -76.92874733333333, "fusion_lon": 0.0, "is_disabled": 0, "lat": 38.88519066666667, "bike_id": "502b5c8400f8055e6491bff4987896ad", "name": "502b5c8400f8055e6491bff4987896ad", "is_reserved": 0, "fusion_lat": 0.0}, {"type": "electric_scooter", "rental_uris": {"ios": "https://dc.lft.to/lastmile_qr_scan", "android": "https://dc.lft.to/lastmile_qr_scan"}, "lon": -77.00247433333334, "fusion_lon": 0.0, "is_disabled": 0, "lat": 38.88021366666667, "bike_id": "1d5d191f1b5dd99799625d31c99d8bea", "name": "1d5d191f1b5dd99799625d31c99d8bea", "is_reserved": 0, "fusion_lat": 0.0}, {"type": "electric_bike", "rental_uris": {"ios": "https://dc.lft.to/lastmile_qr_scan", "android": "https://dc.lft.to/lastmile_qr_scan"}, "lon": -76.99668466666667, "fusion_lon": 0.0, "is_disabled": 0, "lat": 38.897447166666666, "bike_id": "dad48a9e353f03ddabec3d0f070d4226", "name": "dad48a9e353f03ddabec3d0f070d4226", "is_reserved": 0, "fusion_lat": 0.0}, {"type": "electric_bike", "rental_uris": {"ios": "https://dc.lft.to/lastmile_qr_scan", "android": "https://dc.lft.to/lastmile_qr_scan"}, "lon": -77.02066033333334, "fusion_lon": 0.0, "is_disabled": 0, "lat": 38.964469333333334, "bike_id": "06d0e4006e09aafb2fc75153e1f23625", "name": "06d0e4006e09aafb2fc75153e1f23625", "is_reserved": 0, "fusion_lat": 0.0}, {"type": "electric_scooter", "rental_uris": {"ios": "https://dc.lft.to/lastmile_qr_scan", "android": "https://dc.lft.to/lastmile_qr_scan"}, "lon": -77.037854, "fusion_lon": 0.0, "is_disabled": 0, "lat": 38.926316166666666, "bike_id": "cd84f4e2eecbad1348c1454ba45ff3b0", "name": "cd84f4e2eecbad1348c1454ba45ff3b0", "is_reserved": 0, "fusion_lat": 0.0}, {"type": "electric_scooter", "rental_uris": {"ios": "https://dc.lft.to/lastmile_qr_scan", "android": "https://dc.lft.to/lastmile_qr_scan"}, "lon": -77.011704, "fusion_lon": 0.0, "is_disabled": 0, "lat": 38.9001925, "bike_id": "8592782943030d924f5e976a5cee6fdb", "name": "8592782943030d924f5e976a5cee6fdb", "is_reserved": 0, "fusion_lat": 0.0}, {"type": "electric_scooter", "rental_uris": {"ios": "https://dc.lft.to/lastmile_qr_scan", "android": "https://dc.lft.to/lastmile_qr_scan"}, "lon": -77.0217135, "fusion_lon": 0.0, "is_disabled": 0, "lat": 38.897423, "bike_id": "bfa8d16395b6cf4acc16b9c13e45cbdd", "name": "bfa8d16395b6cf4acc16b9c13e45cbdd", "is_reserved": 0, "fusion_lat": 0.0}, {"type": "electric_scooter", "rental_uris": {"ios": "https://dc.lft.to/lastmile_qr_scan", "android": "https://dc.lft.to/lastmile_qr_scan"}, "lon": -77.02673666666666, "fusion_lon": 0.0, "is_disabled": 0, "lat": 38.91694116666667, "bike_id": "9b152254dbfb2ca2c80d270175adb86c", "name": "9b152254dbfb2ca2c80d270175adb86c", "is_reserved": 0, "fusion_lat": 0.0}, {"type": "electric_scooter", "rental_uris": {"ios": "https://dc.lft.to/lastmile_qr_scan", "android": "https://dc.lft.to/lastmile_qr_scan"}, "lon": -77.03344316666667, "fusion_lon": 0.0, "is_disabled": 0, "lat": 38.89227316666667, "bike_id": "6a2b7db3c302d665a12457327a2942a3", "name": "6a2b7db3c302d665a12457327a2942a3", "is_reserved": 0, "fusion_lat": 0.0}, {"type": "electric_scooter", "rental_uris": {"ios": "https://dc.lft.to/lastmile_qr_scan", "android": "https://dc.lft.to/lastmile_qr_scan"}, "lon": -77.0410575, "fusion_lon": 0.0, "is_disabled": 0, "lat": 38.9169825, "bike_id": "2ae50a60651f018cbe6f4213ac94d9ef", "name": "2ae50a60651f018cbe6f4213ac94d9ef", "is_reserved": 0, "fusion_lat": 0.0}, {"type": "electric_scooter", "rental_uris": {"ios": "https://dc.lft.to/lastmile_qr_scan", "android": "https://dc.lft.to/lastmile_qr_scan"}, "lon": -77.038422, "fusion_lon": 0.0, "is_disabled": 0, "lat": 38.917615166666664, "bike_id": "01a78e72b8f9e580307f5eb0db67f4a7", "name": "01a78e72b8f9e580307f5eb0db67f4a7", "is_reserved": 0, "fusion_lat": 0.0}, {"type": "electric_scooter", "rental_uris": {"ios": "https://dc.lft.to/lastmile_qr_scan", "android": "https://dc.lft.to/lastmile_qr_scan"}, "lon": -76.91907166666667, "fusion_lon": 0.0, "is_disabled": 0, "lat": 38.8857855, "bike_id": "d7f244ccc3f707a1fccb01be2886cdd0", "name": "d7f244ccc3f707a1fccb01be2886cdd0", "is_reserved": 0, "fusion_lat": 0.0}, {"type": "electric_scooter", "rental_uris": {"ios": "https://dc.lft.to/lastmile_qr_scan", "android": "https://dc.lft.to/lastmile_qr_scan"}, "lon": -77.03841183333333, "fusion_lon": 0.0, "is_disabled": 0, "lat": 38.917581, "bike_id": "a7215ec4e8985609a1878f2c94f375bc", "name": "a7215ec4e8985609a1878f2c94f375bc", "is_reserved": 0, "fusion_lat": 0.0}, {"type": "electric_scooter", "rental_uris": {"ios": "https://dc.lft.to/lastmile_qr_scan", "android": "https://dc.lft.to/lastmile_qr_scan"}, "lon": -77.04704, "fusion_lon": 0.0, "is_disabled": 0, "lat": 38.90973266666666, "bike_id": "fe966f74c100b3256035ff5b461b6814", "name": "fe966f74c100b3256035ff5b461b6814", "is_reserved": 0, "fusion_lat": 0.0}, {"type": "electric_scooter", "rental_uris": {"ios": "https://dc.lft.to/lastmile_qr_scan", "android": "https://dc.lft.to/lastmile_qr_scan"}, "lon": -77.040137, "fusion_lon": 0.0, "is_disabled": 0, "lat": 38.91841266666667, "bike_id": "edec10850431598244bdbc25b80f096a", "name": "edec10850431598244bdbc25b80f096a", "is_reserved": 0, "fusion_lat": 0.0}, {"type": "electric_bike", "rental_uris": {"ios": "https://dc.lft.to/lastmile_qr_scan", "android": "https://dc.lft.to/lastmile_qr_scan"}, "lon": -77.03946066666667, "fusion_lon": 0.0, "is_disabled": 0, "lat": 38.865064333333336, "bike_id": "673a447e97be94ba04dbc68b33dd34c2", "name": "673a447e97be94ba04dbc68b33dd34c2", "is_reserved": 0, "fusion_lat": 0.0}, {"type": "electric_scooter", "rental_uris": {"ios": "https://dc.lft.to/lastmile_qr_scan", "android": "https://dc.lft.to/lastmile_qr_scan"}, "lon": -77.018018, "fusion_lon": 0.0, "is_disabled": 0, "lat": 38.91341166666667, "bike_id": "44ac95632b106d5dbaafbca667ad5a1d", "name": "44ac95632b106d5dbaafbca667ad5a1d", "is_reserved": 0, "fusion_lat": 0.0}, {"type": "electric_bike", "rental_uris": {"ios": "https://dc.lft.to/lastmile_qr_scan", "android": "https://dc.lft.to/lastmile_qr_scan"}, "lon": -77.07517, "fusion_lon": 0.0, "is_disabled": 0, "lat": 38.848042166666666, "bike_id": "aca3a3cd9aa5114780e08a1e56892c2b", "name": "aca3a3cd9aa5114780e08a1e56892c2b", "is_reserved": 0, "fusion_lat": 0.0}, {"type": "electric_bike", "rental_uris": {"ios": "https://dc.lft.to/lastmile_qr_scan", "android": "https://dc.lft.to/lastmile_qr_scan"}, "lon": -77.11897766666667, "fusion_lon": 0.0, "is_disabled": 0, "lat": 39.075063, "bike_id": "a670e3e5204eb567b80b70e697598802", "name": "a670e3e5204eb567b80b70e697598802", "is_reserved": 0, "fusion_lat": 0.0}, {"type": "electric_scooter", "rental_uris": {"ios": "https://dc.lft.to/lastmile_qr_scan", "android": "https://dc.lft.to/lastmile_qr_scan"}, "lon": -77.0338115, "fusion_lon": 0.0, "is_disabled": 0, "lat": 38.9245315, "bike_id": "044abe3847728d310dd7ad565eef5cce", "name": "044abe3847728d310dd7ad565eef5cce", "is_reserved": 0, "fusion_lat": 0.0}, {"type": "electric_scooter", "rental_uris": {"ios": "https://dc.lft.to/lastmile_qr_scan", "android": "https://dc.lft.to/lastmile_qr_scan"}, "lon": -77.017733, "fusion_lon": 0.0, "is_disabled": 0, "lat": 38.88712183333333, "bike_id": "5e9ec59e34bede28addacb8b58b4f927", "name": "5e9ec59e34bede28addacb8b58b4f927", "is_reserved": 0, "fusion_lat": 0.0}, {"type": "electric_scooter", "rental_uris": {"ios": "https://dc.lft.to/lastmile_qr_scan", "android": "https://dc.lft.to/lastmile_qr_scan"}, "lon": -77.02220933333334, "fusion_lon": 0.0, "is_disabled": 0, "lat": 38.93551166666666, "bike_id": "cdbfb8f44f1933418ed466dee76aa7f3", "name": "cdbfb8f44f1933418ed466dee76aa7f3", "is_reserved": 0, "fusion_lat": 0.0}, {"type": "electric_scooter", "rental_uris": {"ios": "https://dc.lft.to/lastmile_qr_scan", "android": "https://dc.lft.to/lastmile_qr_scan"}, "lon": -76.95130166666667, "fusion_lon": 0.0, "is_disabled": 0, "lat": 38.89032366666667, "bike_id": "57033929ceaff54c98d9dc1135a3a1ae", "name": "57033929ceaff54c98d9dc1135a3a1ae", "is_reserved": 0, "fusion_lat": 0.0}, {"type": "electric_scooter", "rental_uris": {"ios": "https://dc.lft.to/lastmile_qr_scan", "android": "https://dc.lft.to/lastmile_qr_scan"}, "lon": -77.03634333333333, "fusion_lon": 0.0, "is_disabled": 0, "lat": 38.93056516666667, "bike_id": "4cb88fd031a60d358a91f3dcbeea8da2", "name": "4cb88fd031a60d358a91f3dcbeea8da2", "is_reserved": 0, "fusion_lat": 0.0}, {"type": "electric_bike", "rental_uris": {"ios": "https://dc.lft.to/lastmile_qr_scan", "android": "https://dc.lft.to/lastmile_qr_scan"}, "lon": -77.05093766666667, "fusion_lon": 0.0, "is_disabled": 0, "lat": 38.81332316666666, "bike_id": "644b0079e1cbadf6a638017452ad1801", "name": "644b0079e1cbadf6a638017452ad1801", "is_reserved": 0, "fusion_lat": 0.0}, {"type": "electric_scooter", "rental_uris": {"ios": "https://dc.lft.to/lastmile_qr_scan", "android": "https://dc.lft.to/lastmile_qr_scan"}, "lon": -77.03730766666666, "fusion_lon": 0.0, "is_disabled": 0, "lat": 38.930739333333335, "bike_id": "cda072baf840b5a7599f2a9e9e5251d8", "name": "cda072baf840b5a7599f2a9e9e5251d8", "is_reserved": 0, "fusion_lat": 0.0}, {"type": "electric_scooter", "rental_uris": {"ios": "https://dc.lft.to/lastmile_qr_scan", "android": "https://dc.lft.to/lastmile_qr_scan"}, "lon": -77.00583333333333, "fusion_lon": 0.0, "is_disabled": 0, "lat": 38.881896, "bike_id": "7a6ab134df7d9e2b552cef7a1129c13f", "name": "7a6ab134df7d9e2b552cef7a1129c13f", "is_reserved": 0, "fusion_lat": 0.0}, {"type": "electric_scooter", "rental_uris": {"ios": "https://dc.lft.to/lastmile_qr_scan", "android": "https://dc.lft.to/lastmile_qr_scan"}, "lon": -77.05017116666667, "fusion_lon": 0.0, "is_disabled": 0, "lat": 38.9067475, "bike_id": "1ea1741863b6829087b9c0ae3451d9e9", "name": "1ea1741863b6829087b9c0ae3451d9e9", "is_reserved": 0, "fusion_lat": 0.0}, {"type": "electric_scooter", "rental_uris": {"ios": "https://dc.lft.to/lastmile_qr_scan", "android": "https://dc.lft.to/lastmile_qr_scan"}, "lon": -77.01762433333333, "fusion_lon": 0.0, "is_disabled": 0, "lat": 38.881435, "bike_id": "e42c6532e920ab3bac9159d3a202e567", "name": "e42c6532e920ab3bac9159d3a202e567", "is_reserved": 0, "fusion_lat": 0.0}, {"type": "electric_scooter", "rental_uris": {"ios": "https://dc.lft.to/lastmile_qr_scan", "android": "https://dc.lft.to/lastmile_qr_scan"}, "lon": -77.028212, "fusion_lon": 0.0, "is_disabled": 0, "lat": 38.8873445, "bike_id": "6744c7195c9fd33e59fd5849ac29b486", "name": "6744c7195c9fd33e59fd5849ac29b486", "is_reserved": 0, "fusion_lat": 0.0}, {"type": "electric_scooter", "rental_uris": {"ios": "https://dc.lft.to/lastmile_qr_scan", "android": "https://dc.lft.to/lastmile_qr_scan"}, "lon": -76.985224, "fusion_lon": 0.0, "is_disabled": 0, "lat": 38.91545766666667, "bike_id": "7f47b13056e808818d7b3519ceb5af6c", "name": "7f47b13056e808818d7b3519ceb5af6c", "is_reserved": 0, "fusion_lat": 0.0}, {"type": "electric_scooter", "rental_uris": {"ios": "https://dc.lft.to/lastmile_qr_scan", "android": "https://dc.lft.to/lastmile_qr_scan"}, "lon": -77.03855683333333, "fusion_lon": 0.0, "is_disabled": 0, "lat": 38.911823, "bike_id": "a1056bcd73091585eb2e06a70e86b74a", "name": "a1056bcd73091585eb2e06a70e86b74a", "is_reserved": 0, "fusion_lat": 0.0}, {"type": "electric_scooter", "rental_uris": {"ios": "https://dc.lft.to/lastmile_qr_scan", "android": "https://dc.lft.to/lastmile_qr_scan"}, "lon": -77.05470433333333, "fusion_lon": 0.0, "is_disabled": 0, "lat": 38.8960975, "bike_id": "93eee30316e1f60baa4b38ca71b558a4", "name": "93eee30316e1f60baa4b38ca71b558a4", "is_reserved": 0, "fusion_lat": 0.0}, {"type": "electric_scooter", "rental_uris": {"ios": "https://dc.lft.to/lastmile_qr_scan", "android": "https://dc.lft.to/lastmile_qr_scan"}, "lon": -77.0261115, "fusion_lon": 0.0, "is_disabled": 0, "lat": 38.91412366666667, "bike_id": "7706e8811bb7acf287fea088ad93bf9b", "name": "7706e8811bb7acf287fea088ad93bf9b", "is_reserved": 0, "fusion_lat": 0.0}, {"type": "electric_scooter", "rental_uris": {"ios": "https://dc.lft.to/lastmile_qr_scan", "android": "https://dc.lft.to/lastmile_qr_scan"}, "lon": -77.02414716666667, "fusion_lon": 0.0, "is_disabled": 0, "lat": 38.91969533333334, "bike_id": "ad5c66b905a3783e9588bd6ee550f2c0", "name": "ad5c66b905a3783e9588bd6ee550f2c0", "is_reserved": 0, "fusion_lat": 0.0}, {"type": "electric_scooter", "rental_uris": {"ios": "https://dc.lft.to/lastmile_qr_scan", "android": "https://dc.lft.to/lastmile_qr_scan"}, "lon": -77.022823, "fusion_lon": 0.0, "is_disabled": 0, "lat": 38.92410733333333, "bike_id": "43ad7d6ee79e2b10fdce44606e83530a", "name": "43ad7d6ee79e2b10fdce44606e83530a", "is_reserved": 0, "fusion_lat": 0.0}, {"type": "electric_scooter", "rental_uris": {"ios": "https://dc.lft.to/lastmile_qr_scan", "android": "https://dc.lft.to/lastmile_qr_scan"}, "lon": -77.0489925, "fusion_lon": 0.0, "is_disabled": 0, "lat": 38.892262, "bike_id": "74089a2197c762a43b68f0a62fac0e0d", "name": "74089a2197c762a43b68f0a62fac0e0d", "is_reserved": 0, "fusion_lat": 0.0}, {"type": "electric_scooter", "rental_uris": {"ios": "https://dc.lft.to/lastmile_qr_scan", "android": "https://dc.lft.to/lastmile_qr_scan"}, "lon": -77.01222666666666, "fusion_lon": 0.0, "is_disabled": 0, "lat": 38.9150135, "bike_id": "f461dd3349702f8eb53718ce25c5f3d5", "name": "f461dd3349702f8eb53718ce25c5f3d5", "is_reserved": 0, "fusion_lat": 0.0}, {"type": "electric_scooter", "rental_uris": {"ios": "https://dc.lft.to/lastmile_qr_scan", "android": "https://dc.lft.to/lastmile_qr_scan"}, "lon": -77.02559816666667, "fusion_lon": 0.0, "is_disabled": 0, "lat": 38.92426583333334, "bike_id": "9bb694907a2c9113c9d01558a0d53d18", "name": "9bb694907a2c9113c9d01558a0d53d18", "is_reserved": 0, "fusion_lat": 0.0}, {"type": "electric_scooter", "rental_uris": {"ios": "https://dc.lft.to/lastmile_qr_scan", "android": "https://dc.lft.to/lastmile_qr_scan"}, "lon": -77.03915983333333, "fusion_lon": 0.0, "is_disabled": 0, "lat": 38.924809333333336, "bike_id": "29826f556ed1c81df96a2b3df79d49b8", "name": "29826f556ed1c81df96a2b3df79d49b8", "is_reserved": 0, "fusion_lat": 0.0}, {"type": "electric_scooter", "rental_uris": {"ios": "https://dc.lft.to/lastmile_qr_scan", "android": "https://dc.lft.to/lastmile_qr_scan"}, "lon": -77.04642016666666, "fusion_lon": 0.0, "is_disabled": 0, "lat": 38.89223066666667, "bike_id": "bb893603a3e06a15e1c6bfc8d2b35e24", "name": "bb893603a3e06a15e1c6bfc8d2b35e24", "is_reserved": 0, "fusion_lat": 0.0}, {"type": "electric_scooter", "rental_uris": {"ios": "https://dc.lft.to/lastmile_qr_scan", "android": "https://dc.lft.to/lastmile_qr_scan"}, "lon": -77.057546, "fusion_lon": 0.0, "is_disabled": 0, "lat": 38.9246705, "bike_id": "0e08a5e45b6f35c88919833f4e8540a3", "name": "0e08a5e45b6f35c88919833f4e8540a3", "is_reserved": 0, "fusion_lat": 0.0}, {"type": "electric_scooter", "rental_uris": {"ios": "https://dc.lft.to/lastmile_qr_scan", "android": "https://dc.lft.to/lastmile_qr_scan"}, "lon": -77.03641066666667, "fusion_lon": 0.0, "is_disabled": 0, "lat": 38.91689433333333, "bike_id": "ac5d447bc741b36000891454866a4507", "name": "ac5d447bc741b36000891454866a4507", "is_reserved": 0, "fusion_lat": 0.0}, {"type": "electric_bike", "rental_uris": {"ios": "https://dc.lft.to/lastmile_qr_scan", "android": "https://dc.lft.to/lastmile_qr_scan"}, "lon": -77.03727633333334, "fusion_lon": 0.0, "is_disabled": 0, "lat": 38.92030616666667, "bike_id": "28b823506a08b227deee9230168f094b", "name": "28b823506a08b227deee9230168f094b", "is_reserved": 0, "fusion_lat": 0.0}, {"type": "electric_scooter", "rental_uris": {"ios": "https://dc.lft.to/lastmile_qr_scan", "android": "https://dc.lft.to/lastmile_qr_scan"}, "lon": -77.03866466666666, "fusion_lon": 0.0, "is_disabled": 0, "lat": 38.910344333333335, "bike_id": "fcf240ca652734bafd1bf4f510672c55", "name": "fcf240ca652734bafd1bf4f510672c55", "is_reserved": 0, "fusion_lat": 0.0}, {"type": "electric_scooter", "rental_uris": {"ios": "https://dc.lft.to/lastmile_qr_scan", "android": "https://dc.lft.to/lastmile_qr_scan"}, "lon": -77.02983183333333, "fusion_lon": 0.0, "is_disabled": 0, "lat": 38.905077666666664, "bike_id": "0255d1926386e83f8cc3cda555ff282d", "name": "0255d1926386e83f8cc3cda555ff282d", "is_reserved": 0, "fusion_lat": 0.0}, {"type": "electric_scooter", "rental_uris": {"ios": "https://dc.lft.to/lastmile_qr_scan", "android": "https://dc.lft.to/lastmile_qr_scan"}, "lon": -77.01756066666667, "fusion_lon": 0.0, "is_disabled": 0, "lat": 38.9025295, "bike_id": "4e1fa2a056bd23857aa1f970fc7d3a93", "name": "4e1fa2a056bd23857aa1f970fc7d3a93", "is_reserved": 0, "fusion_lat": 0.0}, {"type": "electric_scooter", "rental_uris": {"ios": "https://dc.lft.to/lastmile_qr_scan", "android": "https://dc.lft.to/lastmile_qr_scan"}, "lon": -76.9762885, "fusion_lon": 0.0, "is_disabled": 0, "lat": 38.85197333333333, "bike_id": "d3e039d97523de25191c03cd155e0353", "name": "d3e039d97523de25191c03cd155e0353", "is_reserved": 0, "fusion_lat": 0.0}, {"type": "electric_scooter", "rental_uris": {"ios": "https://dc.lft.to/lastmile_qr_scan", "android": "https://dc.lft.to/lastmile_qr_scan"}, "lon": -77.043588, "fusion_lon": 0.0, "is_disabled": 0, "lat": 38.9206715, "bike_id": "5a4b5f7ba5ad9bb6374db54389541ecf", "name": "5a4b5f7ba5ad9bb6374db54389541ecf", "is_reserved": 0, "fusion_lat": 0.0}, {"type": "electric_scooter", "rental_uris": {"ios": "https://dc.lft.to/lastmile_qr_scan", "android": "https://dc.lft.to/lastmile_qr_scan"}, "lon": -77.03072466666667, "fusion_lon": 0.0, "is_disabled": 0, "lat": 38.899886333333335, "bike_id": "9bab5823e02a2c789f17671c15498425", "name": "9bab5823e02a2c789f17671c15498425", "is_reserved": 0, "fusion_lat": 0.0}, {"type": "electric_scooter", "rental_uris": {"ios": "https://dc.lft.to/lastmile_qr_scan", "android": "https://dc.lft.to/lastmile_qr_scan"}, "lon": -77.02817766666666, "fusion_lon": 0.0, "is_disabled": 0, "lat": 38.902640166666664, "bike_id": "e20959cc857af717da2cc84d1db6f9ce", "name": "e20959cc857af717da2cc84d1db6f9ce", "is_reserved": 0, "fusion_lat": 0.0}, {"type": "electric_scooter", "rental_uris": {"ios": "https://dc.lft.to/lastmile_qr_scan", "android": "https://dc.lft.to/lastmile_qr_scan"}, "lon": -76.98978266666667, "fusion_lon": 0.0, "is_disabled": 0, "lat": 38.865066, "bike_id": "f39180e9cd2247b747c2f72bac8fbe8a", "name": "f39180e9cd2247b747c2f72bac8fbe8a", "is_reserved": 0, "fusion_lat": 0.0}, {"type": "electric_bike", "rental_uris": {"ios": "https://dc.lft.to/lastmile_qr_scan", "android": "https://dc.lft.to/lastmile_qr_scan"}, "lon": -76.89535916666667, "fusion_lon": 0.0, "is_disabled": 0, "lat": 38.94551933333334, "bike_id": "48273d4c86008800ae9c6d70c67448a5", "name": "48273d4c86008800ae9c6d70c67448a5", "is_reserved": 0, "fusion_lat": 0.0}, {"type": "electric_bike", "rental_uris": {"ios": "https://dc.lft.to/lastmile_qr_scan", "android": "https://dc.lft.to/lastmile_qr_scan"}, "lon": -76.97978, "fusion_lon": 0.0, "is_disabled": 0, "lat": 38.953726333333336, "bike_id": "6ab22066f1c07040dcf40e455a7d5fe6", "name": "6ab22066f1c07040dcf40e455a7d5fe6", "is_reserved": 0, "fusion_lat": 0.0}, {"type": "electric_scooter", "rental_uris": {"ios": "https://dc.lft.to/lastmile_qr_scan", "android": "https://dc.lft.to/lastmile_qr_scan"}, "lon": -77.04141, "fusion_lon": 0.0, "is_disabled": 0, "lat": 38.89352216666666, "bike_id": "90fcadcae34efe2bc59e508d1409ca91", "name": "90fcadcae34efe2bc59e508d1409ca91", "is_reserved": 0, "fusion_lat": 0.0}, {"type": "electric_scooter", "rental_uris": {"ios": "https://dc.lft.to/lastmile_qr_scan", "android": "https://dc.lft.to/lastmile_qr_scan"}, "lon": -77.0378345, "fusion_lon": 0.0, "is_disabled": 0, "lat": 38.9097115, "bike_id": "ba51afa61d57ddeff80717cc9d4048ae", "name": "ba51afa61d57ddeff80717cc9d4048ae", "is_reserved": 0, "fusion_lat": 0.0}, {"type": "electric_scooter", "rental_uris": {"ios": "https://dc.lft.to/lastmile_qr_scan", "android": "https://dc.lft.to/lastmile_qr_scan"}, "lon": -77.044648, "fusion_lon": 0.0, "is_disabled": 0, "lat": 38.91116683333333, "bike_id": "afb3051588704a68b657ce73ed5407e1", "name": "afb3051588704a68b657ce73ed5407e1", "is_reserved": 0, "fusion_lat": 0.0}, {"type": "electric_scooter", "rental_uris": {"ios": "https://dc.lft.to/lastmile_qr_scan", "android": "https://dc.lft.to/lastmile_qr_scan"}, "lon": -77.04468666666666, "fusion_lon": 0.0, "is_disabled": 0, "lat": 38.89617366666667, "bike_id": "39a3b4c3ca4f13ed384f9aa17a5c62e5", "name": "39a3b4c3ca4f13ed384f9aa17a5c62e5", "is_reserved": 0, "fusion_lat": 0.0}, {"type": "electric_scooter", "rental_uris": {"ios": "https://dc.lft.to/lastmile_qr_scan", "android": "https://dc.lft.to/lastmile_qr_scan"}, "lon": -77.0308445, "fusion_lon": 0.0, "is_disabled": 0, "lat": 38.886051, "bike_id": "a2cba0421d377a5cb5afeb836b3734df", "name": "a2cba0421d377a5cb5afeb836b3734df", "is_reserved": 0, "fusion_lat": 0.0}, {"type": "electric_scooter", "rental_uris": {"ios": "https://dc.lft.to/lastmile_qr_scan", "android": "https://dc.lft.to/lastmile_qr_scan"}, "lon": -77.0259825, "fusion_lon": 0.0, "is_disabled": 0, "lat": 38.90734233333333, "bike_id": "1d3da271370b171e214e52799a83512a", "name": "1d3da271370b171e214e52799a83512a", "is_reserved": 0, "fusion_lat": 0.0}, {"type": "electric_scooter", "rental_uris": {"ios": "https://dc.lft.to/lastmile_qr_scan", "android": "https://dc.lft.to/lastmile_qr_scan"}, "lon": -77.03444033333334, "fusion_lon": 0.0, "is_disabled": 0, "lat": 38.90676533333333, "bike_id": "d2a843aa9b4e6512dc46e7d896e52e55", "name": "d2a843aa9b4e6512dc46e7d896e52e55", "is_reserved": 0, "fusion_lat": 0.0}, {"type": "electric_scooter", "rental_uris": {"ios": "https://dc.lft.to/lastmile_qr_scan", "android": "https://dc.lft.to/lastmile_qr_scan"}, "lon": -77.03444116666667, "fusion_lon": 0.0, "is_disabled": 0, "lat": 38.9180725, "bike_id": "95fca5863a545ffadff0e2d27ed37644", "name": "95fca5863a545ffadff0e2d27ed37644", "is_reserved": 0, "fusion_lat": 0.0}, {"type": "electric_scooter", "rental_uris": {"ios": "https://dc.lft.to/lastmile_qr_scan", "android": "https://dc.lft.to/lastmile_qr_scan"}, "lon": -77.02978316666666, "fusion_lon": 0.0, "is_disabled": 0, "lat": 38.93242716666666, "bike_id": "c0787ca8bd183769a79aa98477ff3195", "name": "c0787ca8bd183769a79aa98477ff3195", "is_reserved": 0, "fusion_lat": 0.0}, {"type": "electric_scooter", "rental_uris": {"ios": "https://dc.lft.to/lastmile_qr_scan", "android": "https://dc.lft.to/lastmile_qr_scan"}, "lon": -77.02213716666667, "fusion_lon": 0.0, "is_disabled": 0, "lat": 38.887494333333336, "bike_id": "9f5f69ffc5beed88f975608f066aadba", "name": "9f5f69ffc5beed88f975608f066aadba", "is_reserved": 0, "fusion_lat": 0.0}, {"type": "electric_scooter", "rental_uris": {"ios": "https://dc.lft.to/lastmile_qr_scan", "android": "https://dc.lft.to/lastmile_qr_scan"}, "lon": -77.03295283333334, "fusion_lon": 0.0, "is_disabled": 0, "lat": 38.95635983333333, "bike_id": "87b312c02e5fee4998ab8c7537b2955b", "name": "87b312c02e5fee4998ab8c7537b2955b", "is_reserved": 0, "fusion_lat": 0.0}, {"type": "electric_scooter", "rental_uris": {"ios": "https://dc.lft.to/lastmile_qr_scan", "android": "https://dc.lft.to/lastmile_qr_scan"}, "lon": -76.988896, "fusion_lon": 0.0, "is_disabled": 0, "lat": 38.8665315, "bike_id": "faffbcfb849b86ff7b6762e3bd122a3a", "name": "faffbcfb849b86ff7b6762e3bd122a3a", "is_reserved": 0, "fusion_lat": 0.0}, {"type": "electric_scooter", "rental_uris": {"ios": "https://dc.lft.to/lastmile_qr_scan", "android": "https://dc.lft.to/lastmile_qr_scan"}, "lon": -76.96012316666666, "fusion_lon": 0.0, "is_disabled": 0, "lat": 38.880190999999996, "bike_id": "f4ed82db8fdf0b92124c170a8130e69a", "name": "f4ed82db8fdf0b92124c170a8130e69a", "is_reserved": 0, "fusion_lat": 0.0}, {"type": "electric_scooter", "rental_uris": {"ios": "https://dc.lft.to/lastmile_qr_scan", "android": "https://dc.lft.to/lastmile_qr_scan"}, "lon": -77.02737933333333, "fusion_lon": 0.0, "is_disabled": 0, "lat": 38.9386605, "bike_id": "0e5c2f026cdbae736c5a21debb8c05f5", "name": "0e5c2f026cdbae736c5a21debb8c05f5", "is_reserved": 0, "fusion_lat": 0.0}, {"type": "electric_scooter", "rental_uris": {"ios": "https://dc.lft.to/lastmile_qr_scan", "android": "https://dc.lft.to/lastmile_qr_scan"}, "lon": -77.05272116666667, "fusion_lon": 0.0, "is_disabled": 0, "lat": 38.92543716666667, "bike_id": "a067493e94199a6703b6d12f1d203f06", "name": "a067493e94199a6703b6d12f1d203f06", "is_reserved": 0, "fusion_lat": 0.0}, {"type": "electric_scooter", "rental_uris": {"ios": "https://dc.lft.to/lastmile_qr_scan", "android": "https://dc.lft.to/lastmile_qr_scan"}, "lon": -77.052362, "fusion_lon": 0.0, "is_disabled": 0, "lat": 38.92341716666667, "bike_id": "bed51ee4ae6739acc4ff77041afeb12b", "name": "bed51ee4ae6739acc4ff77041afeb12b", "is_reserved": 0, "fusion_lat": 0.0}, {"type": "electric_bike", "rental_uris": {"ios": "https://dc.lft.to/lastmile_qr_scan", "android": "https://dc.lft.to/lastmile_qr_scan"}, "lon": -77.12728866666667, "fusion_lon": 0.0, "is_disabled": 0, "lat": 38.89562566666667, "bike_id": "2e46757bc536495a5911ee0f429376b4", "name": "2e46757bc536495a5911ee0f429376b4", "is_reserved": 0, "fusion_lat": 0.0}, {"type": "electric_scooter", "rental_uris": {"ios": "https://dc.lft.to/lastmile_qr_scan", "android": "https://dc.lft.to/lastmile_qr_scan"}, "lon": -77.0423725, "fusion_lon": 0.0, "is_disabled": 0, "lat": 38.92198616666667, "bike_id": "44f73f7ac6dc3f1e9ea1c9600b6b8679", "name": "44f73f7ac6dc3f1e9ea1c9600b6b8679", "is_reserved": 0, "fusion_lat": 0.0}, {"type": "electric_scooter", "rental_uris": {"ios": "https://dc.lft.to/lastmile_qr_scan", "android": "https://dc.lft.to/lastmile_qr_scan"}, "lon": -77.02694366666667, "fusion_lon": 0.0, "is_disabled": 0, "lat": 38.911221833333336, "bike_id": "3a7a0af38eecd01de38ff86ea148781b", "name": "3a7a0af38eecd01de38ff86ea148781b", "is_reserved": 0, "fusion_lat": 0.0}, {"type": "electric_scooter", "rental_uris": {"ios": "https://dc.lft.to/lastmile_qr_scan", "android": "https://dc.lft.to/lastmile_qr_scan"}, "lon": -77.04149783333334, "fusion_lon": 0.0, "is_disabled": 0, "lat": 38.892223333333334, "bike_id": "596dddccc02658a4dbd7e98378e8db82", "name": "596dddccc02658a4dbd7e98378e8db82", "is_reserved": 0, "fusion_lat": 0.0}, {"type": "electric_bike", "rental_uris": {"ios": "https://dc.lft.to/lastmile_qr_scan", "android": "https://dc.lft.to/lastmile_qr_scan"}, "lon": -76.96260083333334, "fusion_lon": 0.0, "is_disabled": 0, "lat": 38.882464666666664, "bike_id": "c068b190b4ae10f1c0991bbabbd9e537", "name": "c068b190b4ae10f1c0991bbabbd9e537", "is_reserved": 0, "fusion_lat": 0.0}, {"type": "electric_bike", "rental_uris": {"ios": "https://dc.lft.to/lastmile_qr_scan", "android": "https://dc.lft.to/lastmile_qr_scan"}, "lon": -77.006692, "fusion_lon": 0.0, "is_disabled": 0, "lat": 38.94505916666667, "bike_id": "e3481a7b99d1f7d25808047a33d2469e", "name": "e3481a7b99d1f7d25808047a33d2469e", "is_reserved": 0, "fusion_lat": 0.0}, {"type": "electric_scooter", "rental_uris": {"ios": "https://dc.lft.to/lastmile_qr_scan", "android": "https://dc.lft.to/lastmile_qr_scan"}, "lon": -77.0440085, "fusion_lon": 0.0, "is_disabled": 0, "lat": 38.910706, "bike_id": "f91225e98e73ac144d570d32aa285fbd", "name": "f91225e98e73ac144d570d32aa285fbd", "is_reserved": 0, "fusion_lat": 0.0}, {"type": "electric_scooter", "rental_uris": {"ios": "https://dc.lft.to/lastmile_qr_scan", "android": "https://dc.lft.to/lastmile_qr_scan"}, "lon": -77.03852933333333, "fusion_lon": 0.0, "is_disabled": 0, "lat": 38.8675265, "bike_id": "c0075bff9329ec4b8544828e5863fa7e", "name": "c0075bff9329ec4b8544828e5863fa7e", "is_reserved": 0, "fusion_lat": 0.0}, {"type": "electric_scooter", "rental_uris": {"ios": "https://dc.lft.to/lastmile_qr_scan", "android": "https://dc.lft.to/lastmile_qr_scan"}, "lon": -76.95413733333334, "fusion_lon": 0.0, "is_disabled": 0, "lat": 38.890681666666666, "bike_id": "3eb532789ab9faa5cc9034174ed17533", "name": "3eb532789ab9faa5cc9034174ed17533", "is_reserved": 0, "fusion_lat": 0.0}, {"type": "electric_scooter", "rental_uris": {"ios": "https://dc.lft.to/lastmile_qr_scan", "android": "https://dc.lft.to/lastmile_qr_scan"}, "lon": -77.04439533333333, "fusion_lon": 0.0, "is_disabled": 0, "lat": 38.9125185, "bike_id": "3d703c046980d2f765ecec86560b2670", "name": "3d703c046980d2f765ecec86560b2670", "is_reserved": 0, "fusion_lat": 0.0}, {"type": "electric_scooter", "rental_uris": {"ios": "https://dc.lft.to/lastmile_qr_scan", "android": "https://dc.lft.to/lastmile_qr_scan"}, "lon": -77.029642, "fusion_lon": 0.0, "is_disabled": 0, "lat": 38.925942666666664, "bike_id": "e000a68472486b9317cded23295891c3", "name": "e000a68472486b9317cded23295891c3", "is_reserved": 0, "fusion_lat": 0.0}, {"type": "electric_bike", "rental_uris": {"ios": "https://dc.lft.to/lastmile_qr_scan", "android": "https://dc.lft.to/lastmile_qr_scan"}, "lon": -76.97828733333333, "fusion_lon": 0.0, "is_disabled": 0, "lat": 38.870861166666664, "bike_id": "b8d2000b276d3f92765706a367a31719", "name": "b8d2000b276d3f92765706a367a31719", "is_reserved": 0, "fusion_lat": 0.0}, {"type": "electric_scooter", "rental_uris": {"ios": "https://dc.lft.to/lastmile_qr_scan", "android": "https://dc.lft.to/lastmile_qr_scan"}, "lon": -77.00606633333334, "fusion_lon": 0.0, "is_disabled": 0, "lat": 38.8718335, "bike_id": "964f77895d65881b8c3fa76451900b51", "name": "964f77895d65881b8c3fa76451900b51", "is_reserved": 0, "fusion_lat": 0.0}, {"type": "electric_bike", "rental_uris": {"ios": "https://dc.lft.to/lastmile_qr_scan", "android": "https://dc.lft.to/lastmile_qr_scan"}, "lon": -76.94794383333333, "fusion_lon": 0.0, "is_disabled": 0, "lat": 38.89400033333333, "bike_id": "cf5ff82c64545a1946935d75ca35485a", "name": "cf5ff82c64545a1946935d75ca35485a", "is_reserved": 0, "fusion_lat": 0.0}, {"type": "electric_bike", "rental_uris": {"ios": "https://dc.lft.to/lastmile_qr_scan", "android": "https://dc.lft.to/lastmile_qr_scan"}, "lon": -76.99018916666667, "fusion_lon": 0.0, "is_disabled": 0, "lat": 38.95478966666667, "bike_id": "245f6ee3ee8ce6d30ac2b8aa908e27cf", "name": "245f6ee3ee8ce6d30ac2b8aa908e27cf", "is_reserved": 0, "fusion_lat": 0.0}, {"type": "electric_scooter", "rental_uris": {"ios": "https://dc.lft.to/lastmile_qr_scan", "android": "https://dc.lft.to/lastmile_qr_scan"}, "lon": -77.0223045, "fusion_lon": 0.0, "is_disabled": 0, "lat": 38.912595833333334, "bike_id": "3041ab7eb9e9fab1e300f5424241b44b", "name": "3041ab7eb9e9fab1e300f5424241b44b", "is_reserved": 0, "fusion_lat": 0.0}, {"type": "electric_scooter", "rental_uris": {"ios": "https://dc.lft.to/lastmile_qr_scan", "android": "https://dc.lft.to/lastmile_qr_scan"}, "lon": -76.9834255, "fusion_lon": 0.0, "is_disabled": 0, "lat": 38.90745283333333, "bike_id": "c44a65635ea4f86e7c46d58fe5409237", "name": "c44a65635ea4f86e7c46d58fe5409237", "is_reserved": 0, "fusion_lat": 0.0}, {"type": "electric_scooter", "rental_uris": {"ios": "https://dc.lft.to/lastmile_qr_scan", "android": "https://dc.lft.to/lastmile_qr_scan"}, "lon": -77.03435833333333, "fusion_lon": 0.0, "is_disabled": 0, "lat": 38.90725483333333, "bike_id": "b1ea4aa2ba55b5bf96a9e59d9d6f6ae1", "name": "b1ea4aa2ba55b5bf96a9e59d9d6f6ae1", "is_reserved": 0, "fusion_lat": 0.0}, {"type": "electric_scooter", "rental_uris": {"ios": "https://dc.lft.to/lastmile_qr_scan", "android": "https://dc.lft.to/lastmile_qr_scan"}, "lon": -77.00594816666667, "fusion_lon": 0.0, "is_disabled": 0, "lat": 38.90571033333333, "bike_id": "e4b6302a6c93fa06074a714293d56e12", "name": "e4b6302a6c93fa06074a714293d56e12", "is_reserved": 0, "fusion_lat": 0.0}, {"type": "electric_scooter", "rental_uris": {"ios": "https://dc.lft.to/lastmile_qr_scan", "android": "https://dc.lft.to/lastmile_qr_scan"}, "lon": -77.029807, "fusion_lon": 0.0, "is_disabled": 0, "lat": 38.916922666666665, "bike_id": "48657bfe55630f7f5d68184631056d5d", "name": "48657bfe55630f7f5d68184631056d5d", "is_reserved": 0, "fusion_lat": 0.0}, {"type": "electric_scooter", "rental_uris": {"ios": "https://dc.lft.to/lastmile_qr_scan", "android": "https://dc.lft.to/lastmile_qr_scan"}, "lon": -77.02630483333333, "fusion_lon": 0.0, "is_disabled": 0, "lat": 38.92534766666667, "bike_id": "79d85f158f8a910beaf8b9c1c9b2fc64", "name": "79d85f158f8a910beaf8b9c1c9b2fc64", "is_reserved": 0, "fusion_lat": 0.0}, {"type": "electric_scooter", "rental_uris": {"ios": "https://dc.lft.to/lastmile_qr_scan", "android": "https://dc.lft.to/lastmile_qr_scan"}, "lon": -77.07883033333333, "fusion_lon": 0.0, "is_disabled": 0, "lat": 38.92062133333334, "bike_id": "4f8ebd24d4267556dbc2e4e247cb8c71", "name": "4f8ebd24d4267556dbc2e4e247cb8c71", "is_reserved": 0, "fusion_lat": 0.0}, {"type": "electric_scooter", "rental_uris": {"ios": "https://dc.lft.to/lastmile_qr_scan", "android": "https://dc.lft.to/lastmile_qr_scan"}, "lon": -77.0058875, "fusion_lon": 0.0, "is_disabled": 0, "lat": 38.905680333333336, "bike_id": "db7bf3ec7a00e10fa2008d5290017937", "name": "db7bf3ec7a00e10fa2008d5290017937", "is_reserved": 0, "fusion_lat": 0.0}, {"type": "electric_scooter", "rental_uris": {"ios": "https://dc.lft.to/lastmile_qr_scan", "android": "https://dc.lft.to/lastmile_qr_scan"}, "lon": -77.0217475, "fusion_lon": 0.0, "is_disabled": 0, "lat": 38.9428935, "bike_id": "b3a3796067b00663950ec6c6f7fef65e", "name": "b3a3796067b00663950ec6c6f7fef65e", "is_reserved": 0, "fusion_lat": 0.0}, {"type": "electric_scooter", "rental_uris": {"ios": "https://dc.lft.to/lastmile_qr_scan", "android": "https://dc.lft.to/lastmile_qr_scan"}, "lon": -77.0585425, "fusion_lon": 0.0, "is_disabled": 0, "lat": 38.936060499999996, "bike_id": "e58daf259ef00acbf060f0d0bac13ac6", "name": "e58daf259ef00acbf060f0d0bac13ac6", "is_reserved": 0, "fusion_lat": 0.0}, {"type": "electric_bike", "rental_uris": {"ios": "https://dc.lft.to/lastmile_qr_scan", "android": "https://dc.lft.to/lastmile_qr_scan"}, "lon": -76.92487283333334, "fusion_lon": 0.0, "is_disabled": 0, "lat": 38.95887366666667, "bike_id": "075c621e9b00301948174c0a5d9a605e", "name": "075c621e9b00301948174c0a5d9a605e", "is_reserved": 0, "fusion_lat": 0.0}, {"type": "electric_scooter", "rental_uris": {"ios": "https://dc.lft.to/lastmile_qr_scan", "android": "https://dc.lft.to/lastmile_qr_scan"}, "lon": -76.9762355, "fusion_lon": 0.0, "is_disabled": 0, "lat": 38.898762, "bike_id": "5c953db1d89f141f75904816aa2121e4", "name": "5c953db1d89f141f75904816aa2121e4", "is_reserved": 0, "fusion_lat": 0.0}, {"type": "electric_scooter", "rental_uris": {"ios": "https://dc.lft.to/lastmile_qr_scan", "android": "https://dc.lft.to/lastmile_qr_scan"}, "lon": -76.965278, "fusion_lon": 0.0, "is_disabled": 0, "lat": 38.876289666666665, "bike_id": "05a0c573362f823ec48a771117d43a2c", "name": "05a0c573362f823ec48a771117d43a2c", "is_reserved": 0, "fusion_lat": 0.0}, {"type": "electric_scooter", "rental_uris": {"ios": "https://dc.lft.to/lastmile_qr_scan", "android": "https://dc.lft.to/lastmile_qr_scan"}, "lon": -76.94153850000001, "fusion_lon": 0.0, "is_disabled": 0, "lat": 38.88362216666667, "bike_id": "d8d5fd5b386dd6fe15c239542583eb1b", "name": "d8d5fd5b386dd6fe15c239542583eb1b", "is_reserved": 0, "fusion_lat": 0.0}, {"type": "electric_scooter", "rental_uris": {"ios": "https://dc.lft.to/lastmile_qr_scan", "android": "https://dc.lft.to/lastmile_qr_scan"}, "lon": -77.039486, "fusion_lon": 0.0, "is_disabled": 0, "lat": 38.89910283333333, "bike_id": "4b65b3242fdfe82c7bd22803a92e6bce", "name": "4b65b3242fdfe82c7bd22803a92e6bce", "is_reserved": 0, "fusion_lat": 0.0}, {"type": "electric_scooter", "rental_uris": {"ios": "https://dc.lft.to/lastmile_qr_scan", "android": "https://dc.lft.to/lastmile_qr_scan"}, "lon": -77.04157516666666, "fusion_lon": 0.0, "is_disabled": 0, "lat": 38.934154, "bike_id": "a71b04e932d86ee97da21c7ea03d9e26", "name": "a71b04e932d86ee97da21c7ea03d9e26", "is_reserved": 0, "fusion_lat": 0.0}, {"type": "electric_scooter", "rental_uris": {"ios": "https://dc.lft.to/lastmile_qr_scan", "android": "https://dc.lft.to/lastmile_qr_scan"}, "lon": -77.02693183333334, "fusion_lon": 0.0, "is_disabled": 0, "lat": 38.911243666666664, "bike_id": "b17327ea6c99f35ead447b1c8c2258db", "name": "b17327ea6c99f35ead447b1c8c2258db", "is_reserved": 0, "fusion_lat": 0.0}, {"type": "electric_scooter", "rental_uris": {"ios": "https://dc.lft.to/lastmile_qr_scan", "android": "https://dc.lft.to/lastmile_qr_scan"}, "lon": -77.02156366666667, "fusion_lon": 0.0, "is_disabled": 0, "lat": 38.88642683333333, "bike_id": "4aa4e85da426a11074574d773bf646e6", "name": "4aa4e85da426a11074574d773bf646e6", "is_reserved": 0, "fusion_lat": 0.0}, {"type": "electric_bike", "rental_uris": {"ios": "https://dc.lft.to/lastmile_qr_scan", "android": "https://dc.lft.to/lastmile_qr_scan"}, "lon": -77.12027733333333, "fusion_lon": 0.0, "is_disabled": 0, "lat": 38.85493683333333, "bike_id": "872e8e2601043010bb0eba700540a0f1", "name": "872e8e2601043010bb0eba700540a0f1", "is_reserved": 0, "fusion_lat": 0.0}, {"type": "electric_bike", "rental_uris": {"ios": "https://dc.lft.to/lastmile_qr_scan", "android": "https://dc.lft.to/lastmile_qr_scan"}, "lon": -77.11612, "fusion_lon": 0.0, "is_disabled": 0, "lat": 38.85489883333334, "bike_id": "56e863a4ad8904b92fafa48fd78c30ea", "name": "56e863a4ad8904b92fafa48fd78c30ea", "is_reserved": 0, "fusion_lat": 0.0}, {"type": "electric_scooter", "rental_uris": {"ios": "https://dc.lft.to/lastmile_qr_scan", "android": "https://dc.lft.to/lastmile_qr_scan"}, "lon": -77.03788333333334, "fusion_lon": 0.0, "is_disabled": 0, "lat": 38.930228666666665, "bike_id": "8febba4c85baa6fc13202f751befa96a", "name": "8febba4c85baa6fc13202f751befa96a", "is_reserved": 0, "fusion_lat": 0.0}, {"type": "electric_bike", "rental_uris": {"ios": "https://dc.lft.to/lastmile_qr_scan", "android": "https://dc.lft.to/lastmile_qr_scan"}, "lon": -77.08842766666666, "fusion_lon": 0.0, "is_disabled": 0, "lat": 38.966923, "bike_id": "e60a537959ab7932ccc7a71c9220d444", "name": "e60a537959ab7932ccc7a71c9220d444", "is_reserved": 0, "fusion_lat": 0.0}, {"type": "electric_scooter", "rental_uris": {"ios": "https://dc.lft.to/lastmile_qr_scan", "android": "https://dc.lft.to/lastmile_qr_scan"}, "lon": -77.0401105, "fusion_lon": 0.0, "is_disabled": 0, "lat": 38.941928, "bike_id": "b69c91db3dd61564a481efc9a9de7e5f", "name": "b69c91db3dd61564a481efc9a9de7e5f", "is_reserved": 0, "fusion_lat": 0.0}, {"type": "electric_scooter", "rental_uris": {"ios": "https://dc.lft.to/lastmile_qr_scan", "android": "https://dc.lft.to/lastmile_qr_scan"}, "lon": -77.01559033333334, "fusion_lon": 0.0, "is_disabled": 0, "lat": 38.879918333333336, "bike_id": "959b300116591f739b33fc7a738e82d9", "name": "959b300116591f739b33fc7a738e82d9", "is_reserved": 0, "fusion_lat": 0.0}, {"type": "electric_bike", "rental_uris": {"ios": "https://dc.lft.to/lastmile_qr_scan", "android": "https://dc.lft.to/lastmile_qr_scan"}, "lon": -76.98811583333334, "fusion_lon": 0.0, "is_disabled": 0, "lat": 38.91138333333333, "bike_id": "c5572061b3d89bc38d210366c49a0009", "name": "c5572061b3d89bc38d210366c49a0009", "is_reserved": 0, "fusion_lat": 0.0}, {"type": "electric_scooter", "rental_uris": {"ios": "https://dc.lft.to/lastmile_qr_scan", "android": "https://dc.lft.to/lastmile_qr_scan"}, "lon": -77.02609833333334, "fusion_lon": 0.0, "is_disabled": 0, "lat": 38.9308335, "bike_id": "c8a7cfd71fead7c23a35690fb3b23a85", "name": "c8a7cfd71fead7c23a35690fb3b23a85", "is_reserved": 0, "fusion_lat": 0.0}, {"type": "electric_scooter", "rental_uris": {"ios": "https://dc.lft.to/lastmile_qr_scan", "android": "https://dc.lft.to/lastmile_qr_scan"}, "lon": -77.0077565, "fusion_lon": 0.0, "is_disabled": 0, "lat": 38.907353666666666, "bike_id": "68545560fd76b69ac78fc56f9d985f49", "name": "68545560fd76b69ac78fc56f9d985f49", "is_reserved": 0, "fusion_lat": 0.0}, {"type": "electric_scooter", "rental_uris": {"ios": "https://dc.lft.to/lastmile_qr_scan", "android": "https://dc.lft.to/lastmile_qr_scan"}, "lon": -77.03639333333334, "fusion_lon": 0.0, "is_disabled": 0, "lat": 38.9162095, "bike_id": "36076b0d349325a87595aaa76db76816", "name": "36076b0d349325a87595aaa76db76816", "is_reserved": 0, "fusion_lat": 0.0}, {"type": "electric_scooter", "rental_uris": {"ios": "https://dc.lft.to/lastmile_qr_scan", "android": "https://dc.lft.to/lastmile_qr_scan"}, "lon": -77.0469095, "fusion_lon": 0.0, "is_disabled": 0, "lat": 38.897347333333336, "bike_id": "a5b2d1078cb4e1548b7bbb3507f63a91", "name": "a5b2d1078cb4e1548b7bbb3507f63a91", "is_reserved": 0, "fusion_lat": 0.0}, {"type": "electric_scooter", "rental_uris": {"ios": "https://dc.lft.to/lastmile_qr_scan", "android": "https://dc.lft.to/lastmile_qr_scan"}, "lon": -77.03235066666667, "fusion_lon": 0.0, "is_disabled": 0, "lat": 38.908739, "bike_id": "40d3f4c0b4a51433951cb6bfc6beb946", "name": "40d3f4c0b4a51433951cb6bfc6beb946", "is_reserved": 0, "fusion_lat": 0.0}, {"type": "electric_scooter", "rental_uris": {"ios": "https://dc.lft.to/lastmile_qr_scan", "android": "https://dc.lft.to/lastmile_qr_scan"}, "lon": -77.0271825, "fusion_lon": 0.0, "is_disabled": 0, "lat": 38.90156666666667, "bike_id": "ef19a1f800a27c20a3735a93c022d7e5", "name": "ef19a1f800a27c20a3735a93c022d7e5", "is_reserved": 0, "fusion_lat": 0.0}, {"type": "electric_scooter", "rental_uris": {"ios": "https://dc.lft.to/lastmile_qr_scan", "android": "https://dc.lft.to/lastmile_qr_scan"}, "lon": -77.04855883333333, "fusion_lon": 0.0, "is_disabled": 0, "lat": 38.904760833333334, "bike_id": "0bb9a0109a93ea11195e7f7cf910bae5", "name": "0bb9a0109a93ea11195e7f7cf910bae5", "is_reserved": 0, "fusion_lat": 0.0}, {"type": "electric_scooter", "rental_uris": {"ios": "https://dc.lft.to/lastmile_qr_scan", "android": "https://dc.lft.to/lastmile_qr_scan"}, "lon": -77.03206483333334, "fusion_lon": 0.0, "is_disabled": 0, "lat": 38.90969583333333, "bike_id": "a2298be0abe3c9b80233ef5ae0aec21e", "name": "a2298be0abe3c9b80233ef5ae0aec21e", "is_reserved": 0, "fusion_lat": 0.0}, {"type": "electric_scooter", "rental_uris": {"ios": "https://dc.lft.to/lastmile_qr_scan", "android": "https://dc.lft.to/lastmile_qr_scan"}, "lon": -76.99903933333333, "fusion_lon": 0.0, "is_disabled": 0, "lat": 38.94825933333333, "bike_id": "0176dbc23d13770f749a674f2ad0a4ac", "name": "0176dbc23d13770f749a674f2ad0a4ac", "is_reserved": 0, "fusion_lat": 0.0}, {"type": "electric_scooter", "rental_uris": {"ios": "https://dc.lft.to/lastmile_qr_scan", "android": "https://dc.lft.to/lastmile_qr_scan"}, "lon": -77.05219666666666, "fusion_lon": 0.0, "is_disabled": 0, "lat": 38.925026333333335, "bike_id": "72b29a5acd4e8ba6542e508b8aeaeea0", "name": "72b29a5acd4e8ba6542e508b8aeaeea0", "is_reserved": 0, "fusion_lat": 0.0}, {"type": "electric_scooter", "rental_uris": {"ios": "https://dc.lft.to/lastmile_qr_scan", "android": "https://dc.lft.to/lastmile_qr_scan"}, "lon": -76.93609, "fusion_lon": 0.0, "is_disabled": 0, "lat": 38.89686183333333, "bike_id": "aefbd3fe513f583841d679db8310f5de", "name": "aefbd3fe513f583841d679db8310f5de", "is_reserved": 0, "fusion_lat": 0.0}, {"type": "electric_scooter", "rental_uris": {"ios": "https://dc.lft.to/lastmile_qr_scan", "android": "https://dc.lft.to/lastmile_qr_scan"}, "lon": -77.031887, "fusion_lon": 0.0, "is_disabled": 0, "lat": 38.91745, "bike_id": "c4c34603ae7547d3540fb3b8bb493a20", "name": "c4c34603ae7547d3540fb3b8bb493a20", "is_reserved": 0, "fusion_lat": 0.0}, {"type": "electric_scooter", "rental_uris": {"ios": "https://dc.lft.to/lastmile_qr_scan", "android": "https://dc.lft.to/lastmile_qr_scan"}, "lon": -77.0212625, "fusion_lon": 0.0, "is_disabled": 0, "lat": 38.887461, "bike_id": "75a55a7641f6d3da23d8093c73627f13", "name": "75a55a7641f6d3da23d8093c73627f13", "is_reserved": 0, "fusion_lat": 0.0}, {"type": "electric_scooter", "rental_uris": {"ios": "https://dc.lft.to/lastmile_qr_scan", "android": "https://dc.lft.to/lastmile_qr_scan"}, "lon": -77.02167816666666, "fusion_lon": 0.0, "is_disabled": 0, "lat": 38.91475333333333, "bike_id": "c553bee90aeb4a3a791cc6c7a58b7945", "name": "c553bee90aeb4a3a791cc6c7a58b7945", "is_reserved": 0, "fusion_lat": 0.0}, {"type": "electric_scooter", "rental_uris": {"ios": "https://dc.lft.to/lastmile_qr_scan", "android": "https://dc.lft.to/lastmile_qr_scan"}, "lon": -77.060344, "fusion_lon": 0.0, "is_disabled": 0, "lat": 38.944661333333336, "bike_id": "2aab9cd510a642e815dc6fe321074fa5", "name": "2aab9cd510a642e815dc6fe321074fa5", "is_reserved": 0, "fusion_lat": 0.0}, {"type": "electric_scooter", "rental_uris": {"ios": "https://dc.lft.to/lastmile_qr_scan", "android": "https://dc.lft.to/lastmile_qr_scan"}, "lon": -77.06065416666667, "fusion_lon": 0.0, "is_disabled": 0, "lat": 38.90237066666667, "bike_id": "80d714e7be3f206156e6d96fe3cd2755", "name": "80d714e7be3f206156e6d96fe3cd2755", "is_reserved": 0, "fusion_lat": 0.0}, {"type": "electric_scooter", "rental_uris": {"ios": "https://dc.lft.to/lastmile_qr_scan", "android": "https://dc.lft.to/lastmile_qr_scan"}, "lon": -77.041768, "fusion_lon": 0.0, "is_disabled": 0, "lat": 38.92015133333334, "bike_id": "59326bac72691841ed4dcec236cdb4d6", "name": "59326bac72691841ed4dcec236cdb4d6", "is_reserved": 0, "fusion_lat": 0.0}, {"type": "electric_scooter", "rental_uris": {"ios": "https://dc.lft.to/lastmile_qr_scan", "android": "https://dc.lft.to/lastmile_qr_scan"}, "lon": -77.04149033333333, "fusion_lon": 0.0, "is_disabled": 0, "lat": 38.892228, "bike_id": "d803c20535ce3ca770432a54f29d7a7d", "name": "d803c20535ce3ca770432a54f29d7a7d", "is_reserved": 0, "fusion_lat": 0.0}, {"type": "electric_scooter", "rental_uris": {"ios": "https://dc.lft.to/lastmile_qr_scan", "android": "https://dc.lft.to/lastmile_qr_scan"}, "lon": -76.96527616666667, "fusion_lon": 0.0, "is_disabled": 0, "lat": 38.87627333333333, "bike_id": "f90d334171b680f83c69815264311d92", "name": "f90d334171b680f83c69815264311d92", "is_reserved": 0, "fusion_lat": 0.0}, {"type": "electric_scooter", "rental_uris": {"ios": "https://dc.lft.to/lastmile_qr_scan", "android": "https://dc.lft.to/lastmile_qr_scan"}, "lon": -77.03643266666667, "fusion_lon": 0.0, "is_disabled": 0, "lat": 38.923454166666666, "bike_id": "0911b1b92f0ea47eb30823c899ed7a74", "name": "0911b1b92f0ea47eb30823c899ed7a74", "is_reserved": 0, "fusion_lat": 0.0}, {"type": "electric_scooter", "rental_uris": {"ios": "https://dc.lft.to/lastmile_qr_scan", "android": "https://dc.lft.to/lastmile_qr_scan"}, "lon": -77.02795783333333, "fusion_lon": 0.0, "is_disabled": 0, "lat": 38.954116, "bike_id": "3d10282d12b30844c7f770cbb1e01f60", "name": "3d10282d12b30844c7f770cbb1e01f60", "is_reserved": 0, "fusion_lat": 0.0}, {"type": "electric_scooter", "rental_uris": {"ios": "https://dc.lft.to/lastmile_qr_scan", "android": "https://dc.lft.to/lastmile_qr_scan"}, "lon": -77.041771, "fusion_lon": 0.0, "is_disabled": 0, "lat": 38.905254166666666, "bike_id": "b8cfeb064104d4eacf30090dade51f34", "name": "b8cfeb064104d4eacf30090dade51f34", "is_reserved": 0, "fusion_lat": 0.0}, {"type": "electric_scooter", "rental_uris": {"ios": "https://dc.lft.to/lastmile_qr_scan", "android": "https://dc.lft.to/lastmile_qr_scan"}, "lon": -77.0274375, "fusion_lon": 0.0, "is_disabled": 0, "lat": 38.957724, "bike_id": "f618cff91ac68ddeb86c7b72a83caa08", "name": "f618cff91ac68ddeb86c7b72a83caa08", "is_reserved": 0, "fusion_lat": 0.0}, {"type": "electric_scooter", "rental_uris": {"ios": "https://dc.lft.to/lastmile_qr_scan", "android": "https://dc.lft.to/lastmile_qr_scan"}, "lon": -76.99013516666666, "fusion_lon": 0.0, "is_disabled": 0, "lat": 38.833782666666664, "bike_id": "facaa24d5a1ea721e010df5d9f5b7900", "name": "facaa24d5a1ea721e010df5d9f5b7900", "is_reserved": 0, "fusion_lat": 0.0}, {"type": "electric_scooter", "rental_uris": {"ios": "https://dc.lft.to/lastmile_qr_scan", "android": "https://dc.lft.to/lastmile_qr_scan"}, "lon": -77.03155033333333, "fusion_lon": 0.0, "is_disabled": 0, "lat": 38.9279445, "bike_id": "e82a78fb6dc574121be2cba7512149e2", "name": "e82a78fb6dc574121be2cba7512149e2", "is_reserved": 0, "fusion_lat": 0.0}, {"type": "electric_scooter", "rental_uris": {"ios": "https://dc.lft.to/lastmile_qr_scan", "android": "https://dc.lft.to/lastmile_qr_scan"}, "lon": -76.99853033333333, "fusion_lon": 0.0, "is_disabled": 0, "lat": 38.90163416666667, "bike_id": "b1b0131ad35e7fbfb40b9a166cf4b1df", "name": "b1b0131ad35e7fbfb40b9a166cf4b1df", "is_reserved": 0, "fusion_lat": 0.0}, {"type": "electric_scooter", "rental_uris": {"ios": "https://dc.lft.to/lastmile_qr_scan", "android": "https://dc.lft.to/lastmile_qr_scan"}, "lon": -76.99833383333333, "fusion_lon": 0.0, "is_disabled": 0, "lat": 38.900307, "bike_id": "f63dd350fe40a464198150a5266548d0", "name": "f63dd350fe40a464198150a5266548d0", "is_reserved": 0, "fusion_lat": 0.0}, {"type": "electric_scooter", "rental_uris": {"ios": "https://dc.lft.to/lastmile_qr_scan", "android": "https://dc.lft.to/lastmile_qr_scan"}, "lon": -76.99163966666667, "fusion_lon": 0.0, "is_disabled": 0, "lat": 38.8595395, "bike_id": "3bda6fb7657a0768356b72fbe723fe4a", "name": "3bda6fb7657a0768356b72fbe723fe4a", "is_reserved": 0, "fusion_lat": 0.0}, {"type": "electric_scooter", "rental_uris": {"ios": "https://dc.lft.to/lastmile_qr_scan", "android": "https://dc.lft.to/lastmile_qr_scan"}, "lon": -77.047085, "fusion_lon": 0.0, "is_disabled": 0, "lat": 38.922400833333334, "bike_id": "e906b9259ff876ff282f6ba5aab1677d", "name": "e906b9259ff876ff282f6ba5aab1677d", "is_reserved": 0, "fusion_lat": 0.0}, {"type": "electric_scooter", "rental_uris": {"ios": "https://dc.lft.to/lastmile_qr_scan", "android": "https://dc.lft.to/lastmile_qr_scan"}, "lon": -77.03660416666666, "fusion_lon": 0.0, "is_disabled": 0, "lat": 38.91724883333333, "bike_id": "c3cb896281e828f5a06956d1eb4faec2", "name": "c3cb896281e828f5a06956d1eb4faec2", "is_reserved": 0, "fusion_lat": 0.0}, {"type": "electric_scooter", "rental_uris": {"ios": "https://dc.lft.to/lastmile_qr_scan", "android": "https://dc.lft.to/lastmile_qr_scan"}, "lon": -77.04335866666666, "fusion_lon": 0.0, "is_disabled": 0, "lat": 38.89225366666667, "bike_id": "b2ef79fc6953348c3c8cfd892d23f770", "name": "b2ef79fc6953348c3c8cfd892d23f770", "is_reserved": 0, "fusion_lat": 0.0}, {"type": "electric_scooter", "rental_uris": {"ios": "https://dc.lft.to/lastmile_qr_scan", "android": "https://dc.lft.to/lastmile_qr_scan"}, "lon": -77.03450816666667, "fusion_lon": 0.0, "is_disabled": 0, "lat": 38.90733766666666, "bike_id": "650f44f7779bd5659a567be3ee1299c6", "name": "650f44f7779bd5659a567be3ee1299c6", "is_reserved": 0, "fusion_lat": 0.0}, {"type": "electric_scooter", "rental_uris": {"ios": "https://dc.lft.to/lastmile_qr_scan", "android": "https://dc.lft.to/lastmile_qr_scan"}, "lon": -77.0111225, "fusion_lon": 0.0, "is_disabled": 0, "lat": 38.9035415, "bike_id": "6050285b19566d513802ab151a17d33b", "name": "6050285b19566d513802ab151a17d33b", "is_reserved": 0, "fusion_lat": 0.0}, {"type": "electric_scooter", "rental_uris": {"ios": "https://dc.lft.to/lastmile_qr_scan", "android": "https://dc.lft.to/lastmile_qr_scan"}, "lon": -77.0255855, "fusion_lon": 0.0, "is_disabled": 0, "lat": 38.9238345, "bike_id": "7511c9016f331fcd17cc82c7c9ccefa5", "name": "7511c9016f331fcd17cc82c7c9ccefa5", "is_reserved": 0, "fusion_lat": 0.0}, {"type": "electric_scooter", "rental_uris": {"ios": "https://dc.lft.to/lastmile_qr_scan", "android": "https://dc.lft.to/lastmile_qr_scan"}, "lon": -76.9836105, "fusion_lon": 0.0, "is_disabled": 0, "lat": 38.887475333333335, "bike_id": "eadc7d08858a65157de6be88548d11f9", "name": "eadc7d08858a65157de6be88548d11f9", "is_reserved": 0, "fusion_lat": 0.0}, {"type": "electric_bike", "rental_uris": {"ios": "https://dc.lft.to/lastmile_qr_scan", "android": "https://dc.lft.to/lastmile_qr_scan"}, "lon": -76.9758165, "fusion_lon": 0.0, "is_disabled": 0, "lat": 38.84032333333333, "bike_id": "b0eb06f839345e6b2ed0017537ed9982", "name": "b0eb06f839345e6b2ed0017537ed9982", "is_reserved": 0, "fusion_lat": 0.0}, {"type": "electric_scooter", "rental_uris": {"ios": "https://dc.lft.to/lastmile_qr_scan", "android": "https://dc.lft.to/lastmile_qr_scan"}, "lon": -77.05808816666666, "fusion_lon": 0.0, "is_disabled": 0, "lat": 38.9028165, "bike_id": "99f99031d898b32cd0de128169d953c9", "name": "99f99031d898b32cd0de128169d953c9", "is_reserved": 0, "fusion_lat": 0.0}, {"type": "electric_scooter", "rental_uris": {"ios": "https://dc.lft.to/lastmile_qr_scan", "android": "https://dc.lft.to/lastmile_qr_scan"}, "lon": -77.04027766666667, "fusion_lon": 0.0, "is_disabled": 0, "lat": 38.924399666666666, "bike_id": "17118b2eb92148435aa28c7b5c8b4897", "name": "17118b2eb92148435aa28c7b5c8b4897", "is_reserved": 0, "fusion_lat": 0.0}, {"type": "electric_scooter", "rental_uris": {"ios": "https://dc.lft.to/lastmile_qr_scan", "android": "https://dc.lft.to/lastmile_qr_scan"}, "lon": -76.98714683333333, "fusion_lon": 0.0, "is_disabled": 0, "lat": 38.867007666666666, "bike_id": "a7fbede452dd8f64cc4e38a1edbf2636", "name": "a7fbede452dd8f64cc4e38a1edbf2636", "is_reserved": 0, "fusion_lat": 0.0}, {"type": "electric_bike", "rental_uris": {"ios": "https://dc.lft.to/lastmile_qr_scan", "android": "https://dc.lft.to/lastmile_qr_scan"}, "lon": -76.99563833333333, "fusion_lon": 0.0, "is_disabled": 0, "lat": 38.88464916666667, "bike_id": "121086566e70362525108b6ae045f83f", "name": "121086566e70362525108b6ae045f83f", "is_reserved": 0, "fusion_lat": 0.0}, {"type": "electric_scooter", "rental_uris": {"ios": "https://dc.lft.to/lastmile_qr_scan", "android": "https://dc.lft.to/lastmile_qr_scan"}, "lon": -77.0325105, "fusion_lon": 0.0, "is_disabled": 0, "lat": 38.90446766666667, "bike_id": "5d6d47dc42ef3cb9d5da14b4d982ec20", "name": "5d6d47dc42ef3cb9d5da14b4d982ec20", "is_reserved": 0, "fusion_lat": 0.0}, {"type": "electric_scooter", "rental_uris": {"ios": "https://dc.lft.to/lastmile_qr_scan", "android": "https://dc.lft.to/lastmile_qr_scan"}, "lon": -77.0728965, "fusion_lon": 0.0, "is_disabled": 0, "lat": 38.93532166666667, "bike_id": "a4c9a843c9a42e2c31f48047cfaf94fb", "name": "a4c9a843c9a42e2c31f48047cfaf94fb", "is_reserved": 0, "fusion_lat": 0.0}, {"type": "electric_scooter", "rental_uris": {"ios": "https://dc.lft.to/lastmile_qr_scan", "android": "https://dc.lft.to/lastmile_qr_scan"}, "lon": -77.02716233333334, "fusion_lon": 0.0, "is_disabled": 0, "lat": 38.9009145, "bike_id": "ac77dc534e44bb8b3fea9c5d215b2a71", "name": "ac77dc534e44bb8b3fea9c5d215b2a71", "is_reserved": 0, "fusion_lat": 0.0}, {"type": "electric_scooter", "rental_uris": {"ios": "https://dc.lft.to/lastmile_qr_scan", "android": "https://dc.lft.to/lastmile_qr_scan"}, "lon": -77.011387, "fusion_lon": 0.0, "is_disabled": 0, "lat": 38.90648083333333, "bike_id": "b3a35c996aa7c6b684e6f0a6a59d6c1e", "name": "b3a35c996aa7c6b684e6f0a6a59d6c1e", "is_reserved": 0, "fusion_lat": 0.0}, {"type": "electric_scooter", "rental_uris": {"ios": "https://dc.lft.to/lastmile_qr_scan", "android": "https://dc.lft.to/lastmile_qr_scan"}, "lon": -76.98960966666667, "fusion_lon": 0.0, "is_disabled": 0, "lat": 38.909412, "bike_id": "a59f9c459b61ba60613dd82da060fcfc", "name": "a59f9c459b61ba60613dd82da060fcfc", "is_reserved": 0, "fusion_lat": 0.0}, {"type": "electric_scooter", "rental_uris": {"ios": "https://dc.lft.to/lastmile_qr_scan", "android": "https://dc.lft.to/lastmile_qr_scan"}, "lon": -76.93756733333333, "fusion_lon": 0.0, "is_disabled": 0, "lat": 38.89044966666667, "bike_id": "56be3beedb9f084ef27b459ff443fee1", "name": "56be3beedb9f084ef27b459ff443fee1", "is_reserved": 0, "fusion_lat": 0.0}, {"type": "electric_scooter", "rental_uris": {"ios": "https://dc.lft.to/lastmile_qr_scan", "android": "https://dc.lft.to/lastmile_qr_scan"}, "lon": -77.022547, "fusion_lon": 0.0, "is_disabled": 0, "lat": 38.878659166666665, "bike_id": "13134bdfbf53eb474d16ec66911ce732", "name": "13134bdfbf53eb474d16ec66911ce732", "is_reserved": 0, "fusion_lat": 0.0}, {"type": "electric_scooter", "rental_uris": {"ios": "https://dc.lft.to/lastmile_qr_scan", "android": "https://dc.lft.to/lastmile_qr_scan"}, "lon": -77.03662616666666, "fusion_lon": 0.0, "is_disabled": 0, "lat": 38.922551166666665, "bike_id": "46feb78d1f2d8966fa37df1057e6e575", "name": "46feb78d1f2d8966fa37df1057e6e575", "is_reserved": 0, "fusion_lat": 0.0}, {"type": "electric_scooter", "rental_uris": {"ios": "https://dc.lft.to/lastmile_qr_scan", "android": "https://dc.lft.to/lastmile_qr_scan"}, "lon": -77.04371533333334, "fusion_lon": 0.0, "is_disabled": 0, "lat": 38.90266416666667, "bike_id": "196a4f929a901a74824d4f5399fae409", "name": "196a4f929a901a74824d4f5399fae409", "is_reserved": 0, "fusion_lat": 0.0}, {"type": "electric_bike", "rental_uris": {"ios": "https://dc.lft.to/lastmile_qr_scan", "android": "https://dc.lft.to/lastmile_qr_scan"}, "lon": -77.0334865, "fusion_lon": 0.0, "is_disabled": 0, "lat": 38.969406666666664, "bike_id": "73093297bf997e08ea11f81ea55734b1", "name": "73093297bf997e08ea11f81ea55734b1", "is_reserved": 0, "fusion_lat": 0.0}, {"type": "electric_scooter", "rental_uris": {"ios": "https://dc.lft.to/lastmile_qr_scan", "android": "https://dc.lft.to/lastmile_qr_scan"}, "lon": -76.96531133333333, "fusion_lon": 0.0, "is_disabled": 0, "lat": 38.8763095, "bike_id": "56963d23114e55a8753925a550b2ab66", "name": "56963d23114e55a8753925a550b2ab66", "is_reserved": 0, "fusion_lat": 0.0}, {"type": "electric_scooter", "rental_uris": {"ios": "https://dc.lft.to/lastmile_qr_scan", "android": "https://dc.lft.to/lastmile_qr_scan"}, "lon": -76.93132333333334, "fusion_lon": 0.0, "is_disabled": 0, "lat": 38.8934485, "bike_id": "5bd132290ab708119d7f695e3d15d1fe", "name": "5bd132290ab708119d7f695e3d15d1fe", "is_reserved": 0, "fusion_lat": 0.0}, {"type": "electric_scooter", "rental_uris": {"ios": "https://dc.lft.to/lastmile_qr_scan", "android": "https://dc.lft.to/lastmile_qr_scan"}, "lon": -77.00574966666667, "fusion_lon": 0.0, "is_disabled": 0, "lat": 38.90887383333333, "bike_id": "c3419e83ec5d296b6020f1093259833c", "name": "c3419e83ec5d296b6020f1093259833c", "is_reserved": 0, "fusion_lat": 0.0}, {"type": "electric_scooter", "rental_uris": {"ios": "https://dc.lft.to/lastmile_qr_scan", "android": "https://dc.lft.to/lastmile_qr_scan"}, "lon": -77.00589366666667, "fusion_lon": 0.0, "is_disabled": 0, "lat": 38.906391166666666, "bike_id": "f403838781e4795fb2e56a9b45dcb8ce", "name": "f403838781e4795fb2e56a9b45dcb8ce", "is_reserved": 0, "fusion_lat": 0.0}, {"type": "electric_scooter", "rental_uris": {"ios": "https://dc.lft.to/lastmile_qr_scan", "android": "https://dc.lft.to/lastmile_qr_scan"}, "lon": -77.00462683333333, "fusion_lon": 0.0, "is_disabled": 0, "lat": 38.91138466666666, "bike_id": "a3cb3c9cef5e06475135942e7985c626", "name": "a3cb3c9cef5e06475135942e7985c626", "is_reserved": 0, "fusion_lat": 0.0}, {"type": "electric_scooter", "rental_uris": {"ios": "https://dc.lft.to/lastmile_qr_scan", "android": "https://dc.lft.to/lastmile_qr_scan"}, "lon": -77.02172033333333, "fusion_lon": 0.0, "is_disabled": 0, "lat": 38.94295316666667, "bike_id": "d99ec5d4bc28701bb77151ce760a3451", "name": "d99ec5d4bc28701bb77151ce760a3451", "is_reserved": 0, "fusion_lat": 0.0}, {"type": "electric_scooter", "rental_uris": {"ios": "https://dc.lft.to/lastmile_qr_scan", "android": "https://dc.lft.to/lastmile_qr_scan"}, "lon": -77.02318966666667, "fusion_lon": 0.0, "is_disabled": 0, "lat": 38.90224883333333, "bike_id": "c8c55aadaee643099571f6a6d4fb71db", "name": "c8c55aadaee643099571f6a6d4fb71db", "is_reserved": 0, "fusion_lat": 0.0}, {"type": "electric_bike", "rental_uris": {"ios": "https://dc.lft.to/lastmile_qr_scan", "android": "https://dc.lft.to/lastmile_qr_scan"}, "lon": -77.02629583333334, "fusion_lon": 0.0, "is_disabled": 0, "lat": 38.962301333333336, "bike_id": "1bf8997af357357ebb034e677ca40116", "name": "1bf8997af357357ebb034e677ca40116", "is_reserved": 0, "fusion_lat": 0.0}, {"type": "electric_scooter", "rental_uris": {"ios": "https://dc.lft.to/lastmile_qr_scan", "android": "https://dc.lft.to/lastmile_qr_scan"}, "lon": -77.03418683333334, "fusion_lon": 0.0, "is_disabled": 0, "lat": 38.935382, "bike_id": "13af74d87d044b16465edfcd1d13a44c", "name": "13af74d87d044b16465edfcd1d13a44c", "is_reserved": 0, "fusion_lat": 0.0}, {"type": "electric_bike", "rental_uris": {"ios": "https://dc.lft.to/lastmile_qr_scan", "android": "https://dc.lft.to/lastmile_qr_scan"}, "lon": -77.107826, "fusion_lon": 0.0, "is_disabled": 0, "lat": 38.8922315, "bike_id": "d3d54ddfa1e10248c39dac6d0c26f2cd", "name": "d3d54ddfa1e10248c39dac6d0c26f2cd", "is_reserved": 0, "fusion_lat": 0.0}, {"type": "electric_scooter", "rental_uris": {"ios": "https://dc.lft.to/lastmile_qr_scan", "android": "https://dc.lft.to/lastmile_qr_scan"}, "lon": -77.05751216666667, "fusion_lon": 0.0, "is_disabled": 0, "lat": 38.923808, "bike_id": "b6858ef547bce0f7fa2890a3496716dd", "name": "b6858ef547bce0f7fa2890a3496716dd", "is_reserved": 0, "fusion_lat": 0.0}, {"type": "electric_scooter", "rental_uris": {"ios": "https://dc.lft.to/lastmile_qr_scan", "android": "https://dc.lft.to/lastmile_qr_scan"}, "lon": -77.03655166666667, "fusion_lon": 0.0, "is_disabled": 0, "lat": 38.92278433333333, "bike_id": "3e49176f3d5891b140cb1fed26bc02b1", "name": "3e49176f3d5891b140cb1fed26bc02b1", "is_reserved": 0, "fusion_lat": 0.0}, {"type": "electric_scooter", "rental_uris": {"ios": "https://dc.lft.to/lastmile_qr_scan", "android": "https://dc.lft.to/lastmile_qr_scan"}, "lon": -76.99938066666667, "fusion_lon": 0.0, "is_disabled": 0, "lat": 38.889749333333334, "bike_id": "257c2ee41ae0123a8545d401b5b93e68", "name": "257c2ee41ae0123a8545d401b5b93e68", "is_reserved": 0, "fusion_lat": 0.0}, {"type": "electric_scooter", "rental_uris": {"ios": "https://dc.lft.to/lastmile_qr_scan", "android": "https://dc.lft.to/lastmile_qr_scan"}, "lon": -76.98578516666667, "fusion_lon": 0.0, "is_disabled": 0, "lat": 38.85452566666667, "bike_id": "e10d00b9aa3262c917fd629a10245616", "name": "e10d00b9aa3262c917fd629a10245616", "is_reserved": 0, "fusion_lat": 0.0}, {"type": "electric_scooter", "rental_uris": {"ios": "https://dc.lft.to/lastmile_qr_scan", "android": "https://dc.lft.to/lastmile_qr_scan"}, "lon": -77.013745, "fusion_lon": 0.0, "is_disabled": 0, "lat": 38.88662433333333, "bike_id": "63313b2f28250f897a3060d08f14d61e", "name": "63313b2f28250f897a3060d08f14d61e", "is_reserved": 0, "fusion_lat": 0.0}, {"type": "electric_scooter", "rental_uris": {"ios": "https://dc.lft.to/lastmile_qr_scan", "android": "https://dc.lft.to/lastmile_qr_scan"}, "lon": -77.020065, "fusion_lon": 0.0, "is_disabled": 0, "lat": 38.92419866666667, "bike_id": "0a0ab56f1a75467782104e9f48ede900", "name": "0a0ab56f1a75467782104e9f48ede900", "is_reserved": 0, "fusion_lat": 0.0}, {"type": "electric_scooter", "rental_uris": {"ios": "https://dc.lft.to/lastmile_qr_scan", "android": "https://dc.lft.to/lastmile_qr_scan"}, "lon": -77.02171383333334, "fusion_lon": 0.0, "is_disabled": 0, "lat": 38.9143975, "bike_id": "3a3583002e3be93e34f046706e422f30", "name": "3a3583002e3be93e34f046706e422f30", "is_reserved": 0, "fusion_lat": 0.0}, {"type": "electric_scooter", "rental_uris": {"ios": "https://dc.lft.to/lastmile_qr_scan", "android": "https://dc.lft.to/lastmile_qr_scan"}, "lon": -76.99034066666667, "fusion_lon": 0.0, "is_disabled": 0, "lat": 38.898532833333334, "bike_id": "701626b99a776f29656220a7d24eb5ca", "name": "701626b99a776f29656220a7d24eb5ca", "is_reserved": 0, "fusion_lat": 0.0}, {"type": "electric_scooter", "rental_uris": {"ios": "https://dc.lft.to/lastmile_qr_scan", "android": "https://dc.lft.to/lastmile_qr_scan"}, "lon": -77.02821783333333, "fusion_lon": 0.0, "is_disabled": 0, "lat": 38.887329666666666, "bike_id": "53ce1a33ab849ac4982d4e3ac871bf23", "name": "53ce1a33ab849ac4982d4e3ac871bf23", "is_reserved": 0, "fusion_lat": 0.0}, {"type": "electric_scooter", "rental_uris": {"ios": "https://dc.lft.to/lastmile_qr_scan", "android": "https://dc.lft.to/lastmile_qr_scan"}, "lon": -76.997782, "fusion_lon": 0.0, "is_disabled": 0, "lat": 38.84431633333333, "bike_id": "0499bd9667f6c92fc4f72676805f4cab", "name": "0499bd9667f6c92fc4f72676805f4cab", "is_reserved": 0, "fusion_lat": 0.0}, {"type": "electric_scooter", "rental_uris": {"ios": "https://dc.lft.to/lastmile_qr_scan", "android": "https://dc.lft.to/lastmile_qr_scan"}, "lon": -77.07984033333334, "fusion_lon": 0.0, "is_disabled": 0, "lat": 38.91952466666667, "bike_id": "7f64fe3b49a43dbf1ff3327791f31fb8", "name": "7f64fe3b49a43dbf1ff3327791f31fb8", "is_reserved": 0, "fusion_lat": 0.0}, {"type": "electric_scooter", "rental_uris": {"ios": "https://dc.lft.to/lastmile_qr_scan", "android": "https://dc.lft.to/lastmile_qr_scan"}, "lon": -76.93174083333334, "fusion_lon": 0.0, "is_disabled": 0, "lat": 38.89884, "bike_id": "60a616eae53420532114b03e2385bd8b", "name": "60a616eae53420532114b03e2385bd8b", "is_reserved": 0, "fusion_lat": 0.0}, {"type": "electric_scooter", "rental_uris": {"ios": "https://dc.lft.to/lastmile_qr_scan", "android": "https://dc.lft.to/lastmile_qr_scan"}, "lon": -77.0242185, "fusion_lon": 0.0, "is_disabled": 0, "lat": 38.922932333333335, "bike_id": "6d037a798ce615e58171ea0f0ff662c1", "name": "6d037a798ce615e58171ea0f0ff662c1", "is_reserved": 0, "fusion_lat": 0.0}, {"type": "electric_scooter", "rental_uris": {"ios": "https://dc.lft.to/lastmile_qr_scan", "android": "https://dc.lft.to/lastmile_qr_scan"}, "lon": -77.02990116666666, "fusion_lon": 0.0, "is_disabled": 0, "lat": 38.92045933333333, "bike_id": "4726ca12366f4a39a02969eba936ab02", "name": "4726ca12366f4a39a02969eba936ab02", "is_reserved": 0, "fusion_lat": 0.0}, {"type": "electric_bike", "rental_uris": {"ios": "https://dc.lft.to/lastmile_qr_scan", "android": "https://dc.lft.to/lastmile_qr_scan"}, "lon": -77.0092015, "fusion_lon": 0.0, "is_disabled": 0, "lat": 38.82787483333333, "bike_id": "865f53d84ae0476ecd0fb4fe9233bb2d", "name": "865f53d84ae0476ecd0fb4fe9233bb2d", "is_reserved": 0, "fusion_lat": 0.0}, {"type": "electric_scooter", "rental_uris": {"ios": "https://dc.lft.to/lastmile_qr_scan", "android": "https://dc.lft.to/lastmile_qr_scan"},