{"data": {"bikes": [{"is_disabled": 0, "fusion_lon": 0.0, "fusion_lat": 0.0, "lat": 38.90035783333333, "type": "electric_scooter", "lon": -76.99880516666667, "bike_id": "9ebce8723123e05a3caabd0519fac422", "rental_uris": {"android": "https://dc.lft.to/lastmile_qr_scan", "ios": "https://dc.lft.to/lastmile_qr_scan"}, "name": "9ebce8723123e05a3caabd0519fac422", "is_reserved": 0}, {"is_disabled": 0, "fusion_lon": 0.0, "fusion_lat": 0.0, "lat": 38.895398, "type": "electric_scooter", "lon": -77.04127316666667, "bike_id": "8ebe86043efdfbc4c974228c12cc1f8a", "rental_uris": {"android": "https://dc.lft.to/lastmile_qr_scan", "ios": "https://dc.lft.to/lastmile_qr_scan"}, "name": "8ebe86043efdfbc4c974228c12cc1f8a", "is_reserved": 0}, {"is_disabled": 0, "fusion_lon": 0.0, "fusion_lat": 0.0, "lat": 38.898340833333336, "type": "electric_scooter", "lon": -76.946342, "bike_id": "6dc0389f3753ea1ab1c8bc99be660001", "rental_uris": {"android": "https://dc.lft.to/lastmile_qr_scan", "ios": "https://dc.lft.to/lastmile_qr_scan"}, "name": "6dc0389f3753ea1ab1c8bc99be660001", "is_reserved": 0}, {"is_disabled": 0, "fusion_lon": 0.0, "fusion_lat": 0.0, "lat": 38.895996, "type": "electric_scooter", "lon": -77.0092235, "bike_id": "6eda37e49da36d13845d9dbb8f8b8dbd", "rental_uris": {"android": "https://dc.lft.to/lastmile_qr_scan", "ios": "https://dc.lft.to/lastmile_qr_scan"}, "name": "6eda37e49da36d13845d9dbb8f8b8dbd", "is_reserved": 0}, {"is_disabled": 0, "fusion_lon": 0.0, "fusion_lat": 0.0, "lat": 38.925282333333335, "type": "electric_scooter", "lon": -77.04429583333334, "bike_id": "505780a3bf956b257ff14ec367bff403", "rental_uris": {"android": "https://dc.lft.to/lastmile_qr_scan", "ios": "https://dc.lft.to/lastmile_qr_scan"}, "name": "505780a3bf956b257ff14ec367bff403", "is_reserved": 0}, {"is_disabled": 0, "fusion_lon": 0.0, "fusion_lat": 0.0, "lat": 38.88489766666667, "type": "electric_scooter", "lon": -76.92970216666667, "bike_id": "0eda09242f1fa17f80aa570f7ae45d35", "rental_uris": {"android": "https://dc.lft.to/lastmile_qr_scan", "ios": "https://dc.lft.to/lastmile_qr_scan"}, "name": "0eda09242f1fa17f80aa570f7ae45d35", "is_reserved": 0}, {"is_disabled": 0, "fusion_lon": 0.0, "fusion_lat": 0.0, "lat": 38.8930865, "type": "electric_scooter", "lon": -77.01978633333333, "bike_id": "838d5b33692b3474d88dd17e2b212caf", "rental_uris": {"android": "https://dc.lft.to/lastmile_qr_scan", "ios": "https://dc.lft.to/lastmile_qr_scan"}, "name": "838d5b33692b3474d88dd17e2b212caf", "is_reserved": 0}, {"is_disabled": 0, "fusion_lon": 0.0, "fusion_lat": 0.0, "lat": 38.91912416666667, "type": "electric_scooter", "lon": -77.04178066666667, "bike_id": "33bf2fb539eedcd66c486866fcb284cd", "rental_uris": {"android": "https://dc.lft.to/lastmile_qr_scan", "ios": "https://dc.lft.to/lastmile_qr_scan"}, "name": "33bf2fb539eedcd66c486866fcb284cd", "is_reserved": 0}, {"is_disabled": 0, "fusion_lon": 0.0, "fusion_lat": 0.0, "lat": 38.916327833333334, "type": "electric_scooter", "lon": -77.04022766666667, "bike_id": "8a5813de0791a031e67ded7f29643e3f", "rental_uris": {"android": "https://dc.lft.to/lastmile_qr_scan", "ios": "https://dc.lft.to/lastmile_qr_scan"}, "name": "8a5813de0791a031e67ded7f29643e3f", "is_reserved": 0}, {"is_disabled": 0, "fusion_lon": 0.0, "fusion_lat": 0.0, "lat": 38.902676, "type": "electric_scooter", "lon": -77.05320516666667, "bike_id": "622dc77e3cebfdead6d2e83548b7563d", "rental_uris": {"android": "https://dc.lft.to/lastmile_qr_scan", "ios": "https://dc.lft.to/lastmile_qr_scan"}, "name": "622dc77e3cebfdead6d2e83548b7563d", "is_reserved": 0}, {"is_disabled": 0, "fusion_lon": 0.0, "fusion_lat": 0.0, "lat": 38.911253333333335, "type": "electric_scooter", "lon": -77.05937433333334, "bike_id": "f2b2b7366ffce830bd663a37354e6bd1", "rental_uris": {"android": "https://dc.lft.to/lastmile_qr_scan", "ios": "https://dc.lft.to/lastmile_qr_scan"}, "name": "f2b2b7366ffce830bd663a37354e6bd1", "is_reserved": 0}, {"is_disabled": 0, "fusion_lon": 0.0, "fusion_lat": 0.0, "lat": 38.9156465, "type": "electric_scooter", "lon": -77.03147933333334, "bike_id": "1653543504f881f1c633bf98f34d4b35", "rental_uris": {"android": "https://dc.lft.to/lastmile_qr_scan", "ios": "https://dc.lft.to/lastmile_qr_scan"}, "name": "1653543504f881f1c633bf98f34d4b35", "is_reserved": 0}, {"is_disabled": 0, "fusion_lon": 0.0, "fusion_lat": 0.0, "lat": 38.90542133333334, "type": "electric_scooter", "lon": -77.02949333333333, "bike_id": "d30df827033108e4892ff6bc9f77cb8f", "rental_uris": {"android": "https://dc.lft.to/lastmile_qr_scan", "ios": "https://dc.lft.to/lastmile_qr_scan"}, "name": "d30df827033108e4892ff6bc9f77cb8f", "is_reserved": 0}, {"is_disabled": 0, "fusion_lon": 0.0, "fusion_lat": 0.0, "lat": 38.888619, "type": "electric_scooter", "lon": -76.97736966666666, "bike_id": "17ed5f1afb7c16cf53ef7a5fa48ce3db", "rental_uris": {"android": "https://dc.lft.to/lastmile_qr_scan", "ios": "https://dc.lft.to/lastmile_qr_scan"}, "name": "17ed5f1afb7c16cf53ef7a5fa48ce3db", "is_reserved": 0}, {"is_disabled": 0, "fusion_lon": 0.0, "fusion_lat": 0.0, "lat": 38.89501416666667, "type": "electric_scooter", "lon": -77.02205383333333, "bike_id": "ffa62fa63844b8aa8a8afb29189ca72c", "rental_uris": {"android": "https://dc.lft.to/lastmile_qr_scan", "ios": "https://dc.lft.to/lastmile_qr_scan"}, "name": "ffa62fa63844b8aa8a8afb29189ca72c", "is_reserved": 0}, {"is_disabled": 0, "fusion_lon": 0.0, "fusion_lat": 0.0, "lat": 38.9286025, "type": "electric_scooter", "lon": -77.03333783333333, "bike_id": "60797e0f88807dec8d266ebb26aa8333", "rental_uris": {"android": "https://dc.lft.to/lastmile_qr_scan", "ios": "https://dc.lft.to/lastmile_qr_scan"}, "name": "60797e0f88807dec8d266ebb26aa8333", "is_reserved": 0}, {"is_disabled": 0, "fusion_lon": 0.0, "fusion_lat": 0.0, "lat": 38.89307933333333, "type": "electric_scooter", "lon": -77.01965966666667, "bike_id": "ab12ffbfb1e37223756f938aa95857af", "rental_uris": {"android": "https://dc.lft.to/lastmile_qr_scan", "ios": "https://dc.lft.to/lastmile_qr_scan"}, "name": "ab12ffbfb1e37223756f938aa95857af", "is_reserved": 0}, {"is_disabled": 0, "fusion_lon": 0.0, "fusion_lat": 0.0, "lat": 38.827278666666665, "type": "electric_bike", "lon": -77.00863316666667, "bike_id": "01964e62e482f529dd6e3b8b2d04bfe9", "rental_uris": {"android": "https://dc.lft.to/lastmile_qr_scan", "ios": "https://dc.lft.to/lastmile_qr_scan"}, "name": "01964e62e482f529dd6e3b8b2d04bfe9", "is_reserved": 0}, {"is_disabled": 0, "fusion_lon": 0.0, "fusion_lat": 0.0, "lat": 38.831193999999996, "type": "electric_bike", "lon": -77.04322916666666, "bike_id": "0d1a92361396d84c2f21951d315f26b3", "rental_uris": {"android": "https://dc.lft.to/lastmile_qr_scan", "ios": "https://dc.lft.to/lastmile_qr_scan"}, "name": "0d1a92361396d84c2f21951d315f26b3", "is_reserved": 0}, {"is_disabled": 0, "fusion_lon": 0.0, "fusion_lat": 0.0, "lat": 38.901333, "type": "electric_scooter", "lon": -77.041654, "bike_id": "370140b6503228b4e622ca9c1ea50047", "rental_uris": {"android": "https://dc.lft.to/lastmile_qr_scan", "ios": "https://dc.lft.to/lastmile_qr_scan"}, "name": "370140b6503228b4e622ca9c1ea50047", "is_reserved": 0}, {"is_disabled": 0, "fusion_lon": 0.0, "fusion_lat": 0.0, "lat": 38.91967783333333, "type": "electric_scooter", "lon": -77.04171116666667, "bike_id": "bc3aef3eff5b2a81e1815d6e2e24b611", "rental_uris": {"android": "https://dc.lft.to/lastmile_qr_scan", "ios": "https://dc.lft.to/lastmile_qr_scan"}, "name": "bc3aef3eff5b2a81e1815d6e2e24b611", "is_reserved": 0}, {"is_disabled": 0, "fusion_lon": 0.0, "fusion_lat": 0.0, "lat": 38.8996225, "type": "electric_scooter", "lon": -77.0336335, "bike_id": "03ebabb6e7d0893fb7adb9d3a0f02181", "rental_uris": {"android": "https://dc.lft.to/lastmile_qr_scan", "ios": "https://dc.lft.to/lastmile_qr_scan"}, "name": "03ebabb6e7d0893fb7adb9d3a0f02181", "is_reserved": 0}, {"is_disabled": 0, "fusion_lon": 0.0, "fusion_lat": 0.0, "lat": 38.90736233333333, "type": "electric_scooter", "lon": -77.03473316666667, "bike_id": "3646f9154b348b3c35474596de0a8d59", "rental_uris": {"android": "https://dc.lft.to/lastmile_qr_scan", "ios": "https://dc.lft.to/lastmile_qr_scan"}, "name": "3646f9154b348b3c35474596de0a8d59", "is_reserved": 0}, {"is_disabled": 0, "fusion_lon": 0.0, "fusion_lat": 0.0, "lat": 38.901395666666666, "type": "electric_scooter", "lon": -77.0417585, "bike_id": "10bb6d886911792216406958f27ed6d6", "rental_uris": {"android": "https://dc.lft.to/lastmile_qr_scan", "ios": "https://dc.lft.to/lastmile_qr_scan"}, "name": "10bb6d886911792216406958f27ed6d6", "is_reserved": 0}, {"is_disabled": 0, "fusion_lon": 0.0, "fusion_lat": 0.0, "lat": 38.905729666666666, "type": "electric_scooter", "lon": -77.033521, "bike_id": "17f27fc09c82e66a17f4ee65aff45bde", "rental_uris": {"android": "https://dc.lft.to/lastmile_qr_scan", "ios": "https://dc.lft.to/lastmile_qr_scan"}, "name": "17f27fc09c82e66a17f4ee65aff45bde", "is_reserved": 0}, {"is_disabled": 0, "fusion_lon": 0.0, "fusion_lat": 0.0, "lat": 38.91334883333333, "type": "electric_scooter", "lon": -77.032519, "bike_id": "f49e85844d7ae94855c7a7a4c7109678", "rental_uris": {"android": "https://dc.lft.to/lastmile_qr_scan", "ios": "https://dc.lft.to/lastmile_qr_scan"}, "name": "f49e85844d7ae94855c7a7a4c7109678", "is_reserved": 0}, {"is_disabled": 0, "fusion_lon": 0.0, "fusion_lat": 0.0, "lat": 38.867831333333335, "type": "electric_bike", "lon": -77.01182233333333, "bike_id": "bde0b72364c5293339c4c098e7b6c2e2", "rental_uris": {"android": "https://dc.lft.to/lastmile_qr_scan", "ios": "https://dc.lft.to/lastmile_qr_scan"}, "name": "bde0b72364c5293339c4c098e7b6c2e2", "is_reserved": 0}, {"is_disabled": 0, "fusion_lon": 0.0, "fusion_lat": 0.0, "lat": 38.926596333333336, "type": "electric_scooter", "lon": -77.066308, "bike_id": "9022c16c2a9490031b36975960c994f0", "rental_uris": {"android": "https://dc.lft.to/lastmile_qr_scan", "ios": "https://dc.lft.to/lastmile_qr_scan"}, "name": "9022c16c2a9490031b36975960c994f0", "is_reserved": 0}, {"is_disabled": 0, "fusion_lon": 0.0, "fusion_lat": 0.0, "lat": 38.860342333333335, "type": "electric_bike", "lon": -77.0562975, "bike_id": "3571bee14465388df97cfc04482aba81", "rental_uris": {"android": "https://dc.lft.to/lastmile_qr_scan", "ios": "https://dc.lft.to/lastmile_qr_scan"}, "name": "3571bee14465388df97cfc04482aba81", "is_reserved": 0}, {"is_disabled": 0, "fusion_lon": 0.0, "fusion_lat": 0.0, "lat": 38.93489133333333, "type": "electric_scooter", "lon": -77.02412, "bike_id": "72ef754a3bd56b1e541a3eb912d1c9dc", "rental_uris": {"android": "https://dc.lft.to/lastmile_qr_scan", "ios": "https://dc.lft.to/lastmile_qr_scan"}, "name": "72ef754a3bd56b1e541a3eb912d1c9dc", "is_reserved": 0}, {"is_disabled": 0, "fusion_lon": 0.0, "fusion_lat": 0.0, "lat": 38.891906166666665, "type": "electric_scooter", "lon": -76.9883255, "bike_id": "b856440710f34a6866eb2fc1b1499fe1", "rental_uris": {"android": "https://dc.lft.to/lastmile_qr_scan", "ios": "https://dc.lft.to/lastmile_qr_scan"}, "name": "b856440710f34a6866eb2fc1b1499fe1", "is_reserved": 0}, {"is_disabled": 0, "fusion_lon": 0.0, "fusion_lat": 0.0, "lat": 38.902027, "type": "electric_scooter", "lon": -77.0612235, "bike_id": "741264db547790db348481eb9720d729", "rental_uris": {"android": "https://dc.lft.to/lastmile_qr_scan", "ios": "https://dc.lft.to/lastmile_qr_scan"}, "name": "741264db547790db348481eb9720d729", "is_reserved": 0}, {"is_disabled": 0, "fusion_lon": 0.0, "fusion_lat": 0.0, "lat": 38.901309166666664, "type": "electric_scooter", "lon": -77.0416775, "bike_id": "ac82c94ca3d4393b658f2205b8d31413", "rental_uris": {"android": "https://dc.lft.to/lastmile_qr_scan", "ios": "https://dc.lft.to/lastmile_qr_scan"}, "name": "ac82c94ca3d4393b658f2205b8d31413", "is_reserved": 0}, {"is_disabled": 0, "fusion_lon": 0.0, "fusion_lat": 0.0, "lat": 38.9450755, "type": "electric_bike", "lon": -77.006725, "bike_id": "f01f41ec70a8c51288d55de771fa3a41", "rental_uris": {"android": "https://dc.lft.to/lastmile_qr_scan", "ios": "https://dc.lft.to/lastmile_qr_scan"}, "name": "f01f41ec70a8c51288d55de771fa3a41", "is_reserved": 0}, {"is_disabled": 0, "fusion_lon": 0.0, "fusion_lat": 0.0, "lat": 38.916989666666666, "type": "electric_scooter", "lon": -77.0230365, "bike_id": "b5550a084ea9982b40a351626f5a2fb2", "rental_uris": {"android": "https://dc.lft.to/lastmile_qr_scan", "ios": "https://dc.lft.to/lastmile_qr_scan"}, "name": "b5550a084ea9982b40a351626f5a2fb2", "is_reserved": 0}, {"is_disabled": 0, "fusion_lon": 0.0, "fusion_lat": 0.0, "lat": 38.89605383333333, "type": "electric_scooter", "lon": -77.00921766666667, "bike_id": "c2295decbebd69c27e1c36912e994593", "rental_uris": {"android": "https://dc.lft.to/lastmile_qr_scan", "ios": "https://dc.lft.to/lastmile_qr_scan"}, "name": "c2295decbebd69c27e1c36912e994593", "is_reserved": 0}, {"is_disabled": 0, "fusion_lon": 0.0, "fusion_lat": 0.0, "lat": 38.903783833333335, "type": "electric_bike", "lon": -76.9955085, "bike_id": "cf0f0b79bebebcff8660bccc74c4c135", "rental_uris": {"android": "https://dc.lft.to/lastmile_qr_scan", "ios": "https://dc.lft.to/lastmile_qr_scan"}, "name": "cf0f0b79bebebcff8660bccc74c4c135", "is_reserved": 0}, {"is_disabled": 0, "fusion_lon": 0.0, "fusion_lat": 0.0, "lat": 38.875196, "type": "electric_scooter", "lon": -77.000766, "bike_id": "7e3baa2eb951cfbef5b3963a37bad6f0", "rental_uris": {"android": "https://dc.lft.to/lastmile_qr_scan", "ios": "https://dc.lft.to/lastmile_qr_scan"}, "name": "7e3baa2eb951cfbef5b3963a37bad6f0", "is_reserved": 0}, {"is_disabled": 0, "fusion_lon": 0.0, "fusion_lat": 0.0, "lat": 38.91522833333333, "type": "electric_scooter", "lon": -77.01982083333333, "bike_id": "8f0f685ab594aff490b24e6d8893012a", "rental_uris": {"android": "https://dc.lft.to/lastmile_qr_scan", "ios": "https://dc.lft.to/lastmile_qr_scan"}, "name": "8f0f685ab594aff490b24e6d8893012a", "is_reserved": 0}, {"is_disabled": 0, "fusion_lon": 0.0, "fusion_lat": 0.0, "lat": 38.931352, "type": "electric_scooter", "lon": -77.07846233333333, "bike_id": "e44913a829a5f1f7bf6a140d1fdbbaf9", "rental_uris": {"android": "https://dc.lft.to/lastmile_qr_scan", "ios": "https://dc.lft.to/lastmile_qr_scan"}, "name": "e44913a829a5f1f7bf6a140d1fdbbaf9", "is_reserved": 0}, {"is_disabled": 0, "fusion_lon": 0.0, "fusion_lat": 0.0, "lat": 38.9138485, "type": "electric_scooter", "lon": -77.01712183333333, "bike_id": "f30c7257a8f3e6d89a1d40f0e7686c06", "rental_uris": {"android": "https://dc.lft.to/lastmile_qr_scan", "ios": "https://dc.lft.to/lastmile_qr_scan"}, "name": "f30c7257a8f3e6d89a1d40f0e7686c06", "is_reserved": 0}, {"is_disabled": 0, "fusion_lon": 0.0, "fusion_lat": 0.0, "lat": 38.9000705, "type": "electric_scooter", "lon": -77.03317733333333, "bike_id": "bb6e61b8562029ea2f5b091b55490167", "rental_uris": {"android": "https://dc.lft.to/lastmile_qr_scan", "ios": "https://dc.lft.to/lastmile_qr_scan"}, "name": "bb6e61b8562029ea2f5b091b55490167", "is_reserved": 0}, {"is_disabled": 0, "fusion_lon": 0.0, "fusion_lat": 0.0, "lat": 38.91599866666667, "type": "electric_scooter", "lon": -77.023445, "bike_id": "afceab957968ac1cb3735718a55f8826", "rental_uris": {"android": "https://dc.lft.to/lastmile_qr_scan", "ios": "https://dc.lft.to/lastmile_qr_scan"}, "name": "afceab957968ac1cb3735718a55f8826", "is_reserved": 0}, {"is_disabled": 0, "fusion_lon": 0.0, "fusion_lat": 0.0, "lat": 38.885819833333336, "type": "electric_scooter", "lon": -77.0122615, "bike_id": "bc1dc75e8dffb051d1726672e1959cc6", "rental_uris": {"android": "https://dc.lft.to/lastmile_qr_scan", "ios": "https://dc.lft.to/lastmile_qr_scan"}, "name": "bc1dc75e8dffb051d1726672e1959cc6", "is_reserved": 0}, {"is_disabled": 0, "fusion_lon": 0.0, "fusion_lat": 0.0, "lat": 38.915647, "type": "electric_scooter", "lon": -77.0400805, "bike_id": "c66952923c4b671a90616640b16121e7", "rental_uris": {"android": "https://dc.lft.to/lastmile_qr_scan", "ios": "https://dc.lft.to/lastmile_qr_scan"}, "name": "c66952923c4b671a90616640b16121e7", "is_reserved": 0}, {"is_disabled": 0, "fusion_lon": 0.0, "fusion_lat": 0.0, "lat": 38.916461166666664, "type": "electric_scooter", "lon": -77.0477395, "bike_id": "e6a03bc64eddcc04d7e0de33fe5df43d", "rental_uris": {"android": "https://dc.lft.to/lastmile_qr_scan", "ios": "https://dc.lft.to/lastmile_qr_scan"}, "name": "e6a03bc64eddcc04d7e0de33fe5df43d", "is_reserved": 0}, {"is_disabled": 0, "fusion_lon": 0.0, "fusion_lat": 0.0, "lat": 38.9089795, "type": "electric_scooter", "lon": -77.00311966666666, "bike_id": "5c3a082d645cd5a746c031f0125eb10a", "rental_uris": {"android": "https://dc.lft.to/lastmile_qr_scan", "ios": "https://dc.lft.to/lastmile_qr_scan"}, "name": "5c3a082d645cd5a746c031f0125eb10a", "is_reserved": 0}, {"is_disabled": 0, "fusion_lon": 0.0, "fusion_lat": 0.0, "lat": 38.928609333333334, "type": "electric_scooter", "lon": -77.0329415, "bike_id": "ffaf9a04ff2f5416517c7ba9f2381782", "rental_uris": {"android": "https://dc.lft.to/lastmile_qr_scan", "ios": "https://dc.lft.to/lastmile_qr_scan"}, "name": "ffaf9a04ff2f5416517c7ba9f2381782", "is_reserved": 0}, {"is_disabled": 0, "fusion_lon": 0.0, "fusion_lat": 0.0, "lat": 38.903292, "type": "electric_bike", "lon": -76.97529283333333, "bike_id": "d816de9c1d6626eefeffc011f135f571", "rental_uris": {"android": "https://dc.lft.to/lastmile_qr_scan", "ios": "https://dc.lft.to/lastmile_qr_scan"}, "name": "d816de9c1d6626eefeffc011f135f571", "is_reserved": 0}, {"is_disabled": 0, "fusion_lon": 0.0, "fusion_lat": 0.0, "lat": 38.934936, "type": "electric_scooter", "lon": -77.02728, "bike_id": "4ce5706beef00b36e0188ec6d2dfef9f", "rental_uris": {"android": "https://dc.lft.to/lastmile_qr_scan", "ios": "https://dc.lft.to/lastmile_qr_scan"}, "name": "4ce5706beef00b36e0188ec6d2dfef9f", "is_reserved": 0}, {"is_disabled": 0, "fusion_lon": 0.0, "fusion_lat": 0.0, "lat": 38.922981166666666, "type": "electric_scooter", "lon": -77.04191883333333, "bike_id": "f3fbf773b9cc7d97851217a87d24e986", "rental_uris": {"android": "https://dc.lft.to/lastmile_qr_scan", "ios": "https://dc.lft.to/lastmile_qr_scan"}, "name": "f3fbf773b9cc7d97851217a87d24e986", "is_reserved": 0}, {"is_disabled": 0, "fusion_lon": 0.0, "fusion_lat": 0.0, "lat": 38.9198695, "type": "electric_scooter", "lon": -77.03270683333334, "bike_id": "b03881934357736397797d94f0d5f05f", "rental_uris": {"android": "https://dc.lft.to/lastmile_qr_scan", "ios": "https://dc.lft.to/lastmile_qr_scan"}, "name": "b03881934357736397797d94f0d5f05f", "is_reserved": 0}, {"is_disabled": 0, "fusion_lon": 0.0, "fusion_lat": 0.0, "lat": 38.896427833333334, "type": "electric_scooter", "lon": -77.011711, "bike_id": "18831ea5f2341e50f7f6552627595af3", "rental_uris": {"android": "https://dc.lft.to/lastmile_qr_scan", "ios": "https://dc.lft.to/lastmile_qr_scan"}, "name": "18831ea5f2341e50f7f6552627595af3", "is_reserved": 0}, {"is_disabled": 0, "fusion_lon": 0.0, "fusion_lat": 0.0, "lat": 38.920002833333335, "type": "electric_scooter", "lon": -77.025216, "bike_id": "d2dfb26a34095d8a4c1979c518e3afde", "rental_uris": {"android": "https://dc.lft.to/lastmile_qr_scan", "ios": "https://dc.lft.to/lastmile_qr_scan"}, "name": "d2dfb26a34095d8a4c1979c518e3afde", "is_reserved": 0}, {"is_disabled": 0, "fusion_lon": 0.0, "fusion_lat": 0.0, "lat": 38.9055905, "type": "electric_scooter", "lon": -77.03649783333333, "bike_id": "21d7c396d994f82298274eff79e2ba7a", "rental_uris": {"android": "https://dc.lft.to/lastmile_qr_scan", "ios": "https://dc.lft.to/lastmile_qr_scan"}, "name": "21d7c396d994f82298274eff79e2ba7a", "is_reserved": 0}, {"is_disabled": 0, "fusion_lon": 0.0, "fusion_lat": 0.0, "lat": 38.892351166666664, "type": "electric_scooter", "lon": -77.0258135, "bike_id": "090a065498887b13fb87abc370ab52bb", "rental_uris": {"android": "https://dc.lft.to/lastmile_qr_scan", "ios": "https://dc.lft.to/lastmile_qr_scan"}, "name": "090a065498887b13fb87abc370ab52bb", "is_reserved": 0}, {"is_disabled": 0, "fusion_lon": 0.0, "fusion_lat": 0.0, "lat": 38.937823, "type": "electric_scooter", "lon": -77.01878433333333, "bike_id": "5e04e221a911d08c4f96d9a3a8b2f29b", "rental_uris": {"android": "https://dc.lft.to/lastmile_qr_scan", "ios": "https://dc.lft.to/lastmile_qr_scan"}, "name": "5e04e221a911d08c4f96d9a3a8b2f29b", "is_reserved": 0}, {"is_disabled": 0, "fusion_lon": 0.0, "fusion_lat": 0.0, "lat": 38.92246766666667, "type": "electric_scooter", "lon": -77.04138033333334, "bike_id": "fcd662d609564e8bc3f2cf1de604d909", "rental_uris": {"android": "https://dc.lft.to/lastmile_qr_scan", "ios": "https://dc.lft.to/lastmile_qr_scan"}, "name": "fcd662d609564e8bc3f2cf1de604d909", "is_reserved": 0}, {"is_disabled": 0, "fusion_lon": 0.0, "fusion_lat": 0.0, "lat": 38.9222125, "type": "electric_scooter", "lon": -77.03293183333334, "bike_id": "b7ac6d7be6753e9c1cd48f63be9129c3", "rental_uris": {"android": "https://dc.lft.to/lastmile_qr_scan", "ios": "https://dc.lft.to/lastmile_qr_scan"}, "name": "b7ac6d7be6753e9c1cd48f63be9129c3", "is_reserved": 0}, {"is_disabled": 0, "fusion_lon": 0.0, "fusion_lat": 0.0, "lat": 38.88741133333333, "type": "electric_scooter", "lon": -77.01536833333333, "bike_id": "fc635094b1ca4cec7845001606abd854", "rental_uris": {"android": "https://dc.lft.to/lastmile_qr_scan", "ios": "https://dc.lft.to/lastmile_qr_scan"}, "name": "fc635094b1ca4cec7845001606abd854", "is_reserved": 0}, {"is_disabled": 0, "fusion_lon": 0.0, "fusion_lat": 0.0, "lat": 38.895650833333335, "type": "electric_bike", "lon": -77.127381, "bike_id": "038fe3588672c0e384dcf427410e7626", "rental_uris": {"android": "https://dc.lft.to/lastmile_qr_scan", "ios": "https://dc.lft.to/lastmile_qr_scan"}, "name": "038fe3588672c0e384dcf427410e7626", "is_reserved": 0}, {"is_disabled": 0, "fusion_lon": 0.0, "fusion_lat": 0.0, "lat": 38.910934833333336, "type": "electric_scooter", "lon": -77.0220145, "bike_id": "04e526922dcb8cc649b76b08d45e0d43", "rental_uris": {"android": "https://dc.lft.to/lastmile_qr_scan", "ios": "https://dc.lft.to/lastmile_qr_scan"}, "name": "04e526922dcb8cc649b76b08d45e0d43", "is_reserved": 0}, {"is_disabled": 0, "fusion_lon": 0.0, "fusion_lat": 0.0, "lat": 38.9257875, "type": "electric_scooter", "lon": -76.9949415, "bike_id": "67e50f1f0757e995c1f42fda219eaa53", "rental_uris": {"android": "https://dc.lft.to/lastmile_qr_scan", "ios": "https://dc.lft.to/lastmile_qr_scan"}, "name": "67e50f1f0757e995c1f42fda219eaa53", "is_reserved": 0}, {"is_disabled": 0, "fusion_lon": 0.0, "fusion_lat": 0.0, "lat": 38.907918, "type": "electric_scooter", "lon": -77.04986566666666, "bike_id": "f74862ab4f870221b893c2257017e361", "rental_uris": {"android": "https://dc.lft.to/lastmile_qr_scan", "ios": "https://dc.lft.to/lastmile_qr_scan"}, "name": "f74862ab4f870221b893c2257017e361", "is_reserved": 0}, {"is_disabled": 0, "fusion_lon": 0.0, "fusion_lat": 0.0, "lat": 38.8782255, "type": "electric_scooter", "lon": -76.96317116666667, "bike_id": "e5208376043fa5612615f06a0e017e36", "rental_uris": {"android": "https://dc.lft.to/lastmile_qr_scan", "ios": "https://dc.lft.to/lastmile_qr_scan"}, "name": "e5208376043fa5612615f06a0e017e36", "is_reserved": 0}, {"is_disabled": 0, "fusion_lon": 0.0, "fusion_lat": 0.0, "lat": 38.911072833333336, "type": "electric_scooter", "lon": -77.03737483333333, "bike_id": "e55bff9b9158b97ea351ea382b3bc3ec", "rental_uris": {"android": "https://dc.lft.to/lastmile_qr_scan", "ios": "https://dc.lft.to/lastmile_qr_scan"}, "name": "e55bff9b9158b97ea351ea382b3bc3ec", "is_reserved": 0}, {"is_disabled": 0, "fusion_lon": 0.0, "fusion_lat": 0.0, "lat": 38.89746733333333, "type": "electric_scooter", "lon": -77.04801416666666, "bike_id": "7681b1afe48699f5dc9f2a85455aa33d", "rental_uris": {"android": "https://dc.lft.to/lastmile_qr_scan", "ios": "https://dc.lft.to/lastmile_qr_scan"}, "name": "7681b1afe48699f5dc9f2a85455aa33d", "is_reserved": 0}, {"is_disabled": 0, "fusion_lon": 0.0, "fusion_lat": 0.0, "lat": 38.94997433333333, "type": "electric_bike", "lon": -77.35309183333334, "bike_id": "acf53f8a4aadbe3458d60c29cc59f427", "rental_uris": {"android": "https://dc.lft.to/lastmile_qr_scan", "ios": "https://dc.lft.to/lastmile_qr_scan"}, "name": "acf53f8a4aadbe3458d60c29cc59f427", "is_reserved": 0}, {"is_disabled": 0, "fusion_lon": 0.0, "fusion_lat": 0.0, "lat": 38.87668466666667, "type": "electric_scooter", "lon": -76.93199116666666, "bike_id": "d35d0212140a214410957b3c30659c3b", "rental_uris": {"android": "https://dc.lft.to/lastmile_qr_scan", "ios": "https://dc.lft.to/lastmile_qr_scan"}, "name": "d35d0212140a214410957b3c30659c3b", "is_reserved": 0}, {"is_disabled": 0, "fusion_lon": 0.0, "fusion_lat": 0.0, "lat": 38.89729916666667, "type": "electric_scooter", "lon": -77.00751266666667, "bike_id": "792638bdd3fcaff04104f58ca79376cc", "rental_uris": {"android": "https://dc.lft.to/lastmile_qr_scan", "ios": "https://dc.lft.to/lastmile_qr_scan"}, "name": "792638bdd3fcaff04104f58ca79376cc", "is_reserved": 0}, {"is_disabled": 0, "fusion_lon": 0.0, "fusion_lat": 0.0, "lat": 38.887036333333334, "type": "electric_scooter", "lon": -76.95361766666667, "bike_id": "bca7261e8aa0e5cbe76911e3190c803e", "rental_uris": {"android": "https://dc.lft.to/lastmile_qr_scan", "ios": "https://dc.lft.to/lastmile_qr_scan"}, "name": "bca7261e8aa0e5cbe76911e3190c803e", "is_reserved": 0}, {"is_disabled": 0, "fusion_lon": 0.0, "fusion_lat": 0.0, "lat": 38.91809283333333, "type": "electric_scooter", "lon": -77.0415785, "bike_id": "98098c62f49743ef110b38b2204c13c0", "rental_uris": {"android": "https://dc.lft.to/lastmile_qr_scan", "ios": "https://dc.lft.to/lastmile_qr_scan"}, "name": "98098c62f49743ef110b38b2204c13c0", "is_reserved": 0}, {"is_disabled": 0, "fusion_lon": 0.0, "fusion_lat": 0.0, "lat": 38.84292933333333, "type": "electric_scooter", "lon": -76.9995405, "bike_id": "e7cd63eafa5069e32fc42b2fe77ba8aa", "rental_uris": {"android": "https://dc.lft.to/lastmile_qr_scan", "ios": "https://dc.lft.to/lastmile_qr_scan"}, "name": "e7cd63eafa5069e32fc42b2fe77ba8aa", "is_reserved": 0}, {"is_disabled": 0, "fusion_lon": 0.0, "fusion_lat": 0.0, "lat": 38.905092333333336, "type": "electric_scooter", "lon": -77.05395283333333, "bike_id": "2301f61573f0aba233d959c894ad29fc", "rental_uris": {"android": "https://dc.lft.to/lastmile_qr_scan", "ios": "https://dc.lft.to/lastmile_qr_scan"}, "name": "2301f61573f0aba233d959c894ad29fc", "is_reserved": 0}, {"is_disabled": 0, "fusion_lon": 0.0, "fusion_lat": 0.0, "lat": 38.911925, "type": "electric_scooter", "lon": -77.04166516666666, "bike_id": "7a963adf917ecaf924e72a729aaf5ee7", "rental_uris": {"android": "https://dc.lft.to/lastmile_qr_scan", "ios": "https://dc.lft.to/lastmile_qr_scan"}, "name": "7a963adf917ecaf924e72a729aaf5ee7", "is_reserved": 0}, {"is_disabled": 0, "fusion_lon": 0.0, "fusion_lat": 0.0, "lat": 38.90878466666667, "type": "electric_scooter", "lon": -77.04136966666667, "bike_id": "94489bd584ba0edf6ab1ce52e11b5e9a", "rental_uris": {"android": "https://dc.lft.to/lastmile_qr_scan", "ios": "https://dc.lft.to/lastmile_qr_scan"}, "name": "94489bd584ba0edf6ab1ce52e11b5e9a", "is_reserved": 0}, {"is_disabled": 0, "fusion_lon": 0.0, "fusion_lat": 0.0, "lat": 38.9212415, "type": "electric_scooter", "lon": -77.036554, "bike_id": "eb3dc6e55779efc9fa236bb9e1730a94", "rental_uris": {"android": "https://dc.lft.to/lastmile_qr_scan", "ios": "https://dc.lft.to/lastmile_qr_scan"}, "name": "eb3dc6e55779efc9fa236bb9e1730a94", "is_reserved": 0}, {"is_disabled": 0, "fusion_lon": 0.0, "fusion_lat": 0.0, "lat": 38.89398216666667, "type": "electric_scooter", "lon": -76.949992, "bike_id": "853e2e9b2707f86cb5df82ff54b721c0", "rental_uris": {"android": "https://dc.lft.to/lastmile_qr_scan", "ios": "https://dc.lft.to/lastmile_qr_scan"}, "name": "853e2e9b2707f86cb5df82ff54b721c0", "is_reserved": 0}, {"is_disabled": 0, "fusion_lon": 0.0, "fusion_lat": 0.0, "lat": 38.911228333333334, "type": "electric_scooter", "lon": -77.04398516666667, "bike_id": "26ccd1b6055f827a98207265f659d216", "rental_uris": {"android": "https://dc.lft.to/lastmile_qr_scan", "ios": "https://dc.lft.to/lastmile_qr_scan"}, "name": "26ccd1b6055f827a98207265f659d216", "is_reserved": 0}, {"is_disabled": 0, "fusion_lon": 0.0, "fusion_lat": 0.0, "lat": 38.91263166666667, "type": "electric_scooter", "lon": -77.03755516666666, "bike_id": "da863bbc5274ad3a8a2c7aab2ee1e911", "rental_uris": {"android": "https://dc.lft.to/lastmile_qr_scan", "ios": "https://dc.lft.to/lastmile_qr_scan"}, "name": "da863bbc5274ad3a8a2c7aab2ee1e911", "is_reserved": 0}, {"is_disabled": 0, "fusion_lon": 0.0, "fusion_lat": 0.0, "lat": 38.919341333333335, "type": "electric_scooter", "lon": -77.04172616666666, "bike_id": "cbfc95fbe87d5676f9880dc8cfd568af", "rental_uris": {"android": "https://dc.lft.to/lastmile_qr_scan", "ios": "https://dc.lft.to/lastmile_qr_scan"}, "name": "cbfc95fbe87d5676f9880dc8cfd568af", "is_reserved": 0}, {"is_disabled": 0, "fusion_lon": 0.0, "fusion_lat": 0.0, "lat": 38.879998666666665, "type": "electric_bike", "lon": -76.91596433333333, "bike_id": "7df24b6832d94cf4e86addcc43505d5c", "rental_uris": {"android": "https://dc.lft.to/lastmile_qr_scan", "ios": "https://dc.lft.to/lastmile_qr_scan"}, "name": "7df24b6832d94cf4e86addcc43505d5c", "is_reserved": 0}, {"is_disabled": 0, "fusion_lon": 0.0, "fusion_lat": 0.0, "lat": 38.90797716666667, "type": "electric_scooter", "lon": -77.02965633333334, "bike_id": "3c413fa71ce9c39008541bee914ca922", "rental_uris": {"android": "https://dc.lft.to/lastmile_qr_scan", "ios": "https://dc.lft.to/lastmile_qr_scan"}, "name": "3c413fa71ce9c39008541bee914ca922", "is_reserved": 0}, {"is_disabled": 0, "fusion_lon": 0.0, "fusion_lat": 0.0, "lat": 38.90449, "type": "electric_scooter", "lon": -77.06123833333334, "bike_id": "0828a43c04400ee0d958d62db8ee34bb", "rental_uris": {"android": "https://dc.lft.to/lastmile_qr_scan", "ios": "https://dc.lft.to/lastmile_qr_scan"}, "name": "0828a43c04400ee0d958d62db8ee34bb", "is_reserved": 0}, {"is_disabled": 0, "fusion_lon": 0.0, "fusion_lat": 0.0, "lat": 38.90245633333333, "type": "electric_scooter", "lon": -77.02692516666667, "bike_id": "2324a8658565433cfeafc1d77415dc10", "rental_uris": {"android": "https://dc.lft.to/lastmile_qr_scan", "ios": "https://dc.lft.to/lastmile_qr_scan"}, "name": "2324a8658565433cfeafc1d77415dc10", "is_reserved": 0}, {"is_disabled": 0, "fusion_lon": 0.0, "fusion_lat": 0.0, "lat": 38.89239716666667, "type": "electric_scooter", "lon": -77.0503435, "bike_id": "96c70f6f8e8e6d632d9492bc71efb58b", "rental_uris": {"android": "https://dc.lft.to/lastmile_qr_scan", "ios": "https://dc.lft.to/lastmile_qr_scan"}, "name": "96c70f6f8e8e6d632d9492bc71efb58b", "is_reserved": 0}, {"is_disabled": 0, "fusion_lon": 0.0, "fusion_lat": 0.0, "lat": 38.923995833333336, "type": "electric_scooter", "lon": -77.04061466666667, "bike_id": "f761e083d7cb64ad2d3dffeb9a2b4dbf", "rental_uris": {"android": "https://dc.lft.to/lastmile_qr_scan", "ios": "https://dc.lft.to/lastmile_qr_scan"}, "name": "f761e083d7cb64ad2d3dffeb9a2b4dbf", "is_reserved": 0}, {"is_disabled": 0, "fusion_lon": 0.0, "fusion_lat": 0.0, "lat": 38.95612633333333, "type": "electric_scooter", "lon": -77.03277616666666, "bike_id": "85213595402680d3afb97162e405804d", "rental_uris": {"android": "https://dc.lft.to/lastmile_qr_scan", "ios": "https://dc.lft.to/lastmile_qr_scan"}, "name": "85213595402680d3afb97162e405804d", "is_reserved": 0}, {"is_disabled": 0, "fusion_lon": 0.0, "fusion_lat": 0.0, "lat": 38.917861, "type": "electric_scooter", "lon": -77.03466183333333, "bike_id": "d3a23e8e358f247b16d93853e58e4ac3", "rental_uris": {"android": "https://dc.lft.to/lastmile_qr_scan", "ios": "https://dc.lft.to/lastmile_qr_scan"}, "name": "d3a23e8e358f247b16d93853e58e4ac3", "is_reserved": 0}, {"is_disabled": 0, "fusion_lon": 0.0, "fusion_lat": 0.0, "lat": 38.922509833333336, "type": "electric_scooter", "lon": -77.03080516666667, "bike_id": "2bfc3b353784231472d2fbb0570c4667", "rental_uris": {"android": "https://dc.lft.to/lastmile_qr_scan", "ios": "https://dc.lft.to/lastmile_qr_scan"}, "name": "2bfc3b353784231472d2fbb0570c4667", "is_reserved": 0}, {"is_disabled": 0, "fusion_lon": 0.0, "fusion_lat": 0.0, "lat": 38.89731, "type": "electric_scooter", "lon": -77.04993283333333, "bike_id": "9c078faff07fde60c15b6c9c26e5fd79", "rental_uris": {"android": "https://dc.lft.to/lastmile_qr_scan", "ios": "https://dc.lft.to/lastmile_qr_scan"}, "name": "9c078faff07fde60c15b6c9c26e5fd79", "is_reserved": 0}, {"is_disabled": 0, "fusion_lon": 0.0, "fusion_lat": 0.0, "lat": 38.96650183333333, "type": "electric_bike", "lon": -76.93023983333333, "bike_id": "63e137cf7ca4e9e453e2d8bd69d20042", "rental_uris": {"android": "https://dc.lft.to/lastmile_qr_scan", "ios": "https://dc.lft.to/lastmile_qr_scan"}, "name": "63e137cf7ca4e9e453e2d8bd69d20042", "is_reserved": 0}, {"is_disabled": 0, "fusion_lon": 0.0, "fusion_lat": 0.0, "lat": 38.908269833333335, "type": "electric_scooter", "lon": -77.04876616666667, "bike_id": "e066aa298f8c70e6c00eb0d895a6d512", "rental_uris": {"android": "https://dc.lft.to/lastmile_qr_scan", "ios": "https://dc.lft.to/lastmile_qr_scan"}, "name": "e066aa298f8c70e6c00eb0d895a6d512", "is_reserved": 0}, {"is_disabled": 0, "fusion_lon": 0.0, "fusion_lat": 0.0, "lat": 38.92951466666667, "type": "electric_scooter", "lon": -77.05516166666666, "bike_id": "23d69fc2258f7bbb9369b945520ac4f9", "rental_uris": {"android": "https://dc.lft.to/lastmile_qr_scan", "ios": "https://dc.lft.to/lastmile_qr_scan"}, "name": "23d69fc2258f7bbb9369b945520ac4f9", "is_reserved": 0}, {"is_disabled": 0, "fusion_lon": 0.0, "fusion_lat": 0.0, "lat": 38.8583245, "type": "electric_bike", "lon": -76.99281866666666, "bike_id": "87ce4202b4959892b47717c674cae22f", "rental_uris": {"android": "https://dc.lft.to/lastmile_qr_scan", "ios": "https://dc.lft.to/lastmile_qr_scan"}, "name": "87ce4202b4959892b47717c674cae22f", "is_reserved": 0}, {"is_disabled": 0, "fusion_lon": 0.0, "fusion_lat": 0.0, "lat": 38.91563083333333, "type": "electric_scooter", "lon": -77.03146383333333, "bike_id": "c17a8cedee66d86916be8e55f98be69d", "rental_uris": {"android": "https://dc.lft.to/lastmile_qr_scan", "ios": "https://dc.lft.to/lastmile_qr_scan"}, "name": "c17a8cedee66d86916be8e55f98be69d", "is_reserved": 0}, {"is_disabled": 0, "fusion_lon": 0.0, "fusion_lat": 0.0, "lat": 38.93870616666667, "type": "electric_scooter", "lon": -77.03260683333333, "bike_id": "7ed53c6d6256cc9785f9b8399cfb9f45", "rental_uris": {"android": "https://dc.lft.to/lastmile_qr_scan", "ios": "https://dc.lft.to/lastmile_qr_scan"}, "name": "7ed53c6d6256cc9785f9b8399cfb9f45", "is_reserved": 0}, {"is_disabled": 0, "fusion_lon": 0.0, "fusion_lat": 0.0, "lat": 38.95396483333333, "type": "electric_scooter", "lon": -77.0275245, "bike_id": "99f43a340b0d4c4ae826bc2238febeb7", "rental_uris": {"android": "https://dc.lft.to/lastmile_qr_scan", "ios": "https://dc.lft.to/lastmile_qr_scan"}, "name": "99f43a340b0d4c4ae826bc2238febeb7", "is_reserved": 0}, {"is_disabled": 0, "fusion_lon": 0.0, "fusion_lat": 0.0, "lat": 38.90700616666667, "type": "electric_scooter", "lon": -76.98687316666667, "bike_id": "b1716b4de120737240d28e14d154b01a", "rental_uris": {"android": "https://dc.lft.to/lastmile_qr_scan", "ios": "https://dc.lft.to/lastmile_qr_scan"}, "name": "b1716b4de120737240d28e14d154b01a", "is_reserved": 0}, {"is_disabled": 0, "fusion_lon": 0.0, "fusion_lat": 0.0, "lat": 38.928594333333336, "type": "electric_scooter", "lon": -77.0141925, "bike_id": "fe99a5922551e42c398ed8f20ea603ef", "rental_uris": {"android": "https://dc.lft.to/lastmile_qr_scan", "ios": "https://dc.lft.to/lastmile_qr_scan"}, "name": "fe99a5922551e42c398ed8f20ea603ef", "is_reserved": 0}, {"is_disabled": 0, "fusion_lon": 0.0, "fusion_lat": 0.0, "lat": 38.92531916666667, "type": "electric_scooter", "lon": -77.076631, "bike_id": "bed8499a6d58fc3a9f21d3fc8fcdf51c", "rental_uris": {"android": "https://dc.lft.to/lastmile_qr_scan", "ios": "https://dc.lft.to/lastmile_qr_scan"}, "name": "bed8499a6d58fc3a9f21d3fc8fcdf51c", "is_reserved": 0}, {"is_disabled": 0, "fusion_lon": 0.0, "fusion_lat": 0.0, "lat": 38.90430283333333, "type": "electric_scooter", "lon": -77.03455883333334, "bike_id": "da520e710de7611ac3066689ecd6c737", "rental_uris": {"android": "https://dc.lft.to/lastmile_qr_scan", "ios": "https://dc.lft.to/lastmile_qr_scan"}, "name": "da520e710de7611ac3066689ecd6c737", "is_reserved": 0}, {"is_disabled": 0, "fusion_lon": 0.0, "fusion_lat": 0.0, "lat": 38.89474716666667, "type": "electric_scooter", "lon": -76.99415116666667, "bike_id": "ebc351bf9f0c721dc0a6e8e076e7c643", "rental_uris": {"android": "https://dc.lft.to/lastmile_qr_scan", "ios": "https://dc.lft.to/lastmile_qr_scan"}, "name": "ebc351bf9f0c721dc0a6e8e076e7c643", "is_reserved": 0}, {"is_disabled": 0, "fusion_lon": 0.0, "fusion_lat": 0.0, "lat": 38.899582, "type": "electric_scooter", "lon": -77.04786816666666, "bike_id": "4d4339d34cc80123032d92464c96ae9b", "rental_uris": {"android": "https://dc.lft.to/lastmile_qr_scan", "ios": "https://dc.lft.to/lastmile_qr_scan"}, "name": "4d4339d34cc80123032d92464c96ae9b", "is_reserved": 0}, {"is_disabled": 0, "fusion_lon": 0.0, "fusion_lat": 0.0, "lat": 38.89528166666667, "type": "electric_scooter", "lon": -77.03352933333333, "bike_id": "5f20f3846f20afd4d985e00e6d6a164c", "rental_uris": {"android": "https://dc.lft.to/lastmile_qr_scan", "ios": "https://dc.lft.to/lastmile_qr_scan"}, "name": "5f20f3846f20afd4d985e00e6d6a164c", "is_reserved": 0}, {"is_disabled": 0, "fusion_lon": 0.0, "fusion_lat": 0.0, "lat": 38.909362, "type": "electric_scooter", "lon": -77.03197066666667, "bike_id": "130445f2f12430a5a91dfd810ddcc2aa", "rental_uris": {"android": "https://dc.lft.to/lastmile_qr_scan", "ios": "https://dc.lft.to/lastmile_qr_scan"}, "name": "130445f2f12430a5a91dfd810ddcc2aa", "is_reserved": 0}, {"is_disabled": 0, "fusion_lon": 0.0, "fusion_lat": 0.0, "lat": 38.924117, "type": "electric_scooter", "lon": -77.020032, "bike_id": "69cdd96f35d520e5aebb09956813f55a", "rental_uris": {"android": "https://dc.lft.to/lastmile_qr_scan", "ios": "https://dc.lft.to/lastmile_qr_scan"}, "name": "69cdd96f35d520e5aebb09956813f55a", "is_reserved": 0}, {"is_disabled": 0, "fusion_lon": 0.0, "fusion_lat": 0.0, "lat": 38.9172035, "type": "electric_scooter", "lon": -77.03452733333333, "bike_id": "e376ae7f4edb5463948cd514eb7bd0f1", "rental_uris": {"android": "https://dc.lft.to/lastmile_qr_scan", "ios": "https://dc.lft.to/lastmile_qr_scan"}, "name": "e376ae7f4edb5463948cd514eb7bd0f1", "is_reserved": 0}, {"is_disabled": 0, "fusion_lon": 0.0, "fusion_lat": 0.0, "lat": 38.92118216666667, "type": "electric_scooter", "lon": -77.03665016666666, "bike_id": "4bf9115ac6f628d101284d15585bd0c5", "rental_uris": {"android": "https://dc.lft.to/lastmile_qr_scan", "ios": "https://dc.lft.to/lastmile_qr_scan"}, "name": "4bf9115ac6f628d101284d15585bd0c5", "is_reserved": 0}, {"is_disabled": 0, "fusion_lon": 0.0, "fusion_lat": 0.0, "lat": 39.022918833333335, "type": "electric_bike", "lon": -77.021052, "bike_id": "e750f1143984dfdcfb2794d6e74f9c74", "rental_uris": {"android": "https://dc.lft.to/lastmile_qr_scan", "ios": "https://dc.lft.to/lastmile_qr_scan"}, "name": "e750f1143984dfdcfb2794d6e74f9c74", "is_reserved": 0}, {"is_disabled": 0, "fusion_lon": 0.0, "fusion_lat": 0.0, "lat": 38.931531166666666, "type": "electric_scooter", "lon": -77.04133116666667, "bike_id": "9b77295be21a2ac08be33828d05a23ca", "rental_uris": {"android": "https://dc.lft.to/lastmile_qr_scan", "ios": "https://dc.lft.to/lastmile_qr_scan"}, "name": "9b77295be21a2ac08be33828d05a23ca", "is_reserved": 0}, {"is_disabled": 0, "fusion_lon": 0.0, "fusion_lat": 0.0, "lat": 38.897585, "type": "electric_scooter", "lon": -77.05160516666666, "bike_id": "842cd17c63ce516f5530a45012cfa7a7", "rental_uris": {"android": "https://dc.lft.to/lastmile_qr_scan", "ios": "https://dc.lft.to/lastmile_qr_scan"}, "name": "842cd17c63ce516f5530a45012cfa7a7", "is_reserved": 0}, {"is_disabled": 0, "fusion_lon": 0.0, "fusion_lat": 0.0, "lat": 38.89335116666667, "type": "electric_scooter", "lon": -77.021199, "bike_id": "291d4b16185077793f1317525bcc6e8a", "rental_uris": {"android": "https://dc.lft.to/lastmile_qr_scan", "ios": "https://dc.lft.to/lastmile_qr_scan"}, "name": "291d4b16185077793f1317525bcc6e8a", "is_reserved": 0}, {"is_disabled": 0, "fusion_lon": 0.0, "fusion_lat": 0.0, "lat": 38.8984245, "type": "electric_scooter", "lon": -76.94494083333333, "bike_id": "3eb153c975a07b55b2328f5232bb4dea", "rental_uris": {"android": "https://dc.lft.to/lastmile_qr_scan", "ios": "https://dc.lft.to/lastmile_qr_scan"}, "name": "3eb153c975a07b55b2328f5232bb4dea", "is_reserved": 0}, {"is_disabled": 0, "fusion_lon": 0.0, "fusion_lat": 0.0, "lat": 38.941877166666664, "type": "electric_scooter", "lon": -77.04257483333333, "bike_id": "2842b95fe09fa677216ab27d3fe3d7f6", "rental_uris": {"android": "https://dc.lft.to/lastmile_qr_scan", "ios": "https://dc.lft.to/lastmile_qr_scan"}, "name": "2842b95fe09fa677216ab27d3fe3d7f6", "is_reserved": 0}, {"is_disabled": 0, "fusion_lon": 0.0, "fusion_lat": 0.0, "lat": 38.89046583333333, "type": "electric_scooter", "lon": -76.9376005, "bike_id": "c57eba4b0b2cd34c5d66ab58c9454eb7", "rental_uris": {"android": "https://dc.lft.to/lastmile_qr_scan", "ios": "https://dc.lft.to/lastmile_qr_scan"}, "name": "c57eba4b0b2cd34c5d66ab58c9454eb7", "is_reserved": 0}, {"is_disabled": 0, "fusion_lon": 0.0, "fusion_lat": 0.0, "lat": 38.905969166666665, "type": "electric_scooter", "lon": -77.01616533333333, "bike_id": "5ccc33105698888608cba9351043d382", "rental_uris": {"android": "https://dc.lft.to/lastmile_qr_scan", "ios": "https://dc.lft.to/lastmile_qr_scan"}, "name": "5ccc33105698888608cba9351043d382", "is_reserved": 0}, {"is_disabled": 0, "fusion_lon": 0.0, "fusion_lat": 0.0, "lat": 38.96052316666667, "type": "electric_scooter", "lon": -77.08573566666666, "bike_id": "4e3e479b3938aacd186fcf548c7e3d4d", "rental_uris": {"android": "https://dc.lft.to/lastmile_qr_scan", "ios": "https://dc.lft.to/lastmile_qr_scan"}, "name": "4e3e479b3938aacd186fcf548c7e3d4d", "is_reserved": 0}, {"is_disabled": 0, "fusion_lon": 0.0, "fusion_lat": 0.0, "lat": 38.92311516666667, "type": "electric_scooter", "lon": -77.03924933333333, "bike_id": "97db1b3997358f4a867e993558882c8a", "rental_uris": {"android": "https://dc.lft.to/lastmile_qr_scan", "ios": "https://dc.lft.to/lastmile_qr_scan"}, "name": "97db1b3997358f4a867e993558882c8a", "is_reserved": 0}, {"is_disabled": 0, "fusion_lon": 0.0, "fusion_lat": 0.0, "lat": 38.9263135, "type": "electric_bike", "lon": -77.038338, "bike_id": "d0c2cab53731c40cbf6f156b1d03253e", "rental_uris": {"android": "https://dc.lft.to/lastmile_qr_scan", "ios": "https://dc.lft.to/lastmile_qr_scan"}, "name": "d0c2cab53731c40cbf6f156b1d03253e", "is_reserved": 0}, {"is_disabled": 0, "fusion_lon": 0.0, "fusion_lat": 0.0, "lat": 39.038840666666665, "type": "electric_bike", "lon": -77.1091065, "bike_id": "3aa642cc9ad7b6fe85d294cff6e9bd26", "rental_uris": {"android": "https://dc.lft.to/lastmile_qr_scan", "ios": "https://dc.lft.to/lastmile_qr_scan"}, "name": "3aa642cc9ad7b6fe85d294cff6e9bd26", "is_reserved": 0}, {"is_disabled": 0, "fusion_lon": 0.0, "fusion_lat": 0.0, "lat": 38.86946066666667, "type": "electric_scooter", "lon": -77.01376633333334, "bike_id": "b3cff7c35afb454e24ede7b612e108f0", "rental_uris": {"android": "https://dc.lft.to/lastmile_qr_scan", "ios": "https://dc.lft.to/lastmile_qr_scan"}, "name": "b3cff7c35afb454e24ede7b612e108f0", "is_reserved": 0}, {"is_disabled": 0, "fusion_lon": 0.0, "fusion_lat": 0.0, "lat": 38.922162666666665, "type": "electric_scooter", "lon": -77.0433245, "bike_id": "31fd1d64857e98039a3922719171ab78", "rental_uris": {"android": "https://dc.lft.to/lastmile_qr_scan", "ios": "https://dc.lft.to/lastmile_qr_scan"}, "name": "31fd1d64857e98039a3922719171ab78", "is_reserved": 0}, {"is_disabled": 0, "fusion_lon": 0.0, "fusion_lat": 0.0, "lat": 38.89209433333333, "type": "electric_bike", "lon": -76.98557, "bike_id": "9c2d6dd11fd61ee6b710d4d44f34d895", "rental_uris": {"android": "https://dc.lft.to/lastmile_qr_scan", "ios": "https://dc.lft.to/lastmile_qr_scan"}, "name": "9c2d6dd11fd61ee6b710d4d44f34d895", "is_reserved": 0}, {"is_disabled": 0, "fusion_lon": 0.0, "fusion_lat": 0.0, "lat": 38.88575633333333, "type": "electric_scooter", "lon": -76.91905016666666, "bike_id": "8fa909f7f0668ba126b07e62dbae57a1", "rental_uris": {"android": "https://dc.lft.to/lastmile_qr_scan", "ios": "https://dc.lft.to/lastmile_qr_scan"}, "name": "8fa909f7f0668ba126b07e62dbae57a1", "is_reserved": 0}, {"is_disabled": 0, "fusion_lon": 0.0, "fusion_lat": 0.0, "lat": 38.898200833333334, "type": "electric_scooter", "lon": -77.029429, "bike_id": "39674abc9a94821ddeb9da99a9a10951", "rental_uris": {"android": "https://dc.lft.to/lastmile_qr_scan", "ios": "https://dc.lft.to/lastmile_qr_scan"}, "name": "39674abc9a94821ddeb9da99a9a10951", "is_reserved": 0}, {"is_disabled": 0, "fusion_lon": 0.0, "fusion_lat": 0.0, "lat": 38.93672433333333, "type": "electric_bike", "lon": -76.95207283333333, "bike_id": "528920cdc512593532565ec0fe1c6f2d", "rental_uris": {"android": "https://dc.lft.to/lastmile_qr_scan", "ios": "https://dc.lft.to/lastmile_qr_scan"}, "name": "528920cdc512593532565ec0fe1c6f2d", "is_reserved": 0}, {"is_disabled": 0, "fusion_lon": 0.0, "fusion_lat": 0.0, "lat": 38.89735733333333, "type": "electric_scooter", "lon": -77.00373716666667, "bike_id": "3610c76264445d7019c15a955713c121", "rental_uris": {"android": "https://dc.lft.to/lastmile_qr_scan", "ios": "https://dc.lft.to/lastmile_qr_scan"}, "name": "3610c76264445d7019c15a955713c121", "is_reserved": 0}, {"is_disabled": 0, "fusion_lon": 0.0, "fusion_lat": 0.0, "lat": 38.9560855, "type": "electric_scooter", "lon": -77.02792116666667, "bike_id": "4faf53c19e7888139f7fe7bdc7ee6ca9", "rental_uris": {"android": "https://dc.lft.to/lastmile_qr_scan", "ios": "https://dc.lft.to/lastmile_qr_scan"}, "name": "4faf53c19e7888139f7fe7bdc7ee6ca9", "is_reserved": 0}, {"is_disabled": 0, "fusion_lon": 0.0, "fusion_lat": 0.0, "lat": 38.938612, "type": "electric_scooter", "lon": -77.026521, "bike_id": "af463400413767a98f4f37a5398009a0", "rental_uris": {"android": "https://dc.lft.to/lastmile_qr_scan", "ios": "https://dc.lft.to/lastmile_qr_scan"}, "name": "af463400413767a98f4f37a5398009a0", "is_reserved": 0}, {"is_disabled": 0, "fusion_lon": 0.0, "fusion_lat": 0.0, "lat": 38.953273833333334, "type": "electric_scooter", "lon": -77.068542, "bike_id": "05c5511f928b397a2b63779b4a3d3a42", "rental_uris": {"android": "https://dc.lft.to/lastmile_qr_scan", "ios": "https://dc.lft.to/lastmile_qr_scan"}, "name": "05c5511f928b397a2b63779b4a3d3a42", "is_reserved": 0}, {"is_disabled": 0, "fusion_lon": 0.0, "fusion_lat": 0.0, "lat": 38.91254683333333, "type": "electric_scooter", "lon": -77.009315, "bike_id": "25f44295144b92d2b19b1db5c81dd69a", "rental_uris": {"android": "https://dc.lft.to/lastmile_qr_scan", "ios": "https://dc.lft.to/lastmile_qr_scan"}, "name": "25f44295144b92d2b19b1db5c81dd69a", "is_reserved": 0}, {"is_disabled": 0, "fusion_lon": 0.0, "fusion_lat": 0.0, "lat": 38.8935365, "type": "electric_scooter", "lon": -76.939924, "bike_id": "ad495f205351729577421e66cf5f58fb", "rental_uris": {"android": "https://dc.lft.to/lastmile_qr_scan", "ios": "https://dc.lft.to/lastmile_qr_scan"}, "name": "ad495f205351729577421e66cf5f58fb", "is_reserved": 0}, {"is_disabled": 0, "fusion_lon": 0.0, "fusion_lat": 0.0, "lat": 38.95086833333333, "type": "electric_bike", "lon": -76.9656065, "bike_id": "59bff879b306b266fcf3213506de9e34", "rental_uris": {"android": "https://dc.lft.to/lastmile_qr_scan", "ios": "https://dc.lft.to/lastmile_qr_scan"}, "name": "59bff879b306b266fcf3213506de9e34", "is_reserved": 0}, {"is_disabled": 0, "fusion_lon": 0.0, "fusion_lat": 0.0, "lat": 38.90385083333334, "type": "electric_scooter", "lon": -77.03458566666667, "bike_id": "5e034fc3dbcca15abdb56bc111ae3a89", "rental_uris": {"android": "https://dc.lft.to/lastmile_qr_scan", "ios": "https://dc.lft.to/lastmile_qr_scan"}, "name": "5e034fc3dbcca15abdb56bc111ae3a89", "is_reserved": 0}, {"is_disabled": 0, "fusion_lon": 0.0, "fusion_lat": 0.0, "lat": 38.903137, "type": "electric_scooter", "lon": -76.982579, "bike_id": "ac175aad08815a9d82ad62559fae8705", "rental_uris": {"android": "https://dc.lft.to/lastmile_qr_scan", "ios": "https://dc.lft.to/lastmile_qr_scan"}, "name": "ac175aad08815a9d82ad62559fae8705", "is_reserved": 0}, {"is_disabled": 0, "fusion_lon": 0.0, "fusion_lat": 0.0, "lat": 38.9079245, "type": "electric_scooter", "lon": -77.041113, "bike_id": "109ffdb7dd2aa3f41c4f4131002e61b1", "rental_uris": {"android": "https://dc.lft.to/lastmile_qr_scan", "ios": "https://dc.lft.to/lastmile_qr_scan"}, "name": "109ffdb7dd2aa3f41c4f4131002e61b1", "is_reserved": 0}, {"is_disabled": 0, "fusion_lon": 0.0, "fusion_lat": 0.0, "lat": 38.918832, "type": "electric_scooter", "lon": -77.04181016666666, "bike_id": "3645f2b54061138ace1d613485b6da6a", "rental_uris": {"android": "https://dc.lft.to/lastmile_qr_scan", "ios": "https://dc.lft.to/lastmile_qr_scan"}, "name": "3645f2b54061138ace1d613485b6da6a", "is_reserved": 0}, {"is_disabled": 0, "fusion_lon": 0.0, "fusion_lat": 0.0, "lat": 38.907838166666664, "type": "electric_scooter", "lon": -77.04348566666667, "bike_id": "e559128debad44a2b07e2abf908b4a25", "rental_uris": {"android": "https://dc.lft.to/lastmile_qr_scan", "ios": "https://dc.lft.to/lastmile_qr_scan"}, "name": "e559128debad44a2b07e2abf908b4a25", "is_reserved": 0}, {"is_disabled": 0, "fusion_lon": 0.0, "fusion_lat": 0.0, "lat": 38.9094725, "type": "electric_scooter", "lon": -77.01526766666667, "bike_id": "2c41150a3855648e1da7c70dd39ef6c5", "rental_uris": {"android": "https://dc.lft.to/lastmile_qr_scan", "ios": "https://dc.lft.to/lastmile_qr_scan"}, "name": "2c41150a3855648e1da7c70dd39ef6c5", "is_reserved": 0}, {"is_disabled": 0, "fusion_lon": 0.0, "fusion_lat": 0.0, "lat": 38.92257016666667, "type": "electric_scooter", "lon": -77.03522316666667, "bike_id": "2e726170273b84235b8f67a7e0462299", "rental_uris": {"android": "https://dc.lft.to/lastmile_qr_scan", "ios": "https://dc.lft.to/lastmile_qr_scan"}, "name": "2e726170273b84235b8f67a7e0462299", "is_reserved": 0}, {"is_disabled": 0, "fusion_lon": 0.0, "fusion_lat": 0.0, "lat": 38.89218016666667, "type": "electric_scooter", "lon": -77.01556916666667, "bike_id": "6e28b3d1d8d2379ec14b565c9ad0f253", "rental_uris": {"android": "https://dc.lft.to/lastmile_qr_scan", "ios": "https://dc.lft.to/lastmile_qr_scan"}, "name": "6e28b3d1d8d2379ec14b565c9ad0f253", "is_reserved": 0}, {"is_disabled": 0, "fusion_lon": 0.0, "fusion_lat": 0.0, "lat": 38.88649566666667, "type": "electric_scooter", "lon": -77.022567, "bike_id": "1bbff9585fcd3fb8b2ec83101b64c9ed", "rental_uris": {"android": "https://dc.lft.to/lastmile_qr_scan", "ios": "https://dc.lft.to/lastmile_qr_scan"}, "name": "1bbff9585fcd3fb8b2ec83101b64c9ed", "is_reserved": 0}, {"is_disabled": 0, "fusion_lon": 0.0, "fusion_lat": 0.0, "lat": 38.89260183333333, "type": "electric_scooter", "lon": -76.94158733333333, "bike_id": "3726ede0c859acb0c736b32ad74083c1", "rental_uris": {"android": "https://dc.lft.to/lastmile_qr_scan", "ios": "https://dc.lft.to/lastmile_qr_scan"}, "name": "3726ede0c859acb0c736b32ad74083c1", "is_reserved": 0}, {"is_disabled": 0, "fusion_lon": 0.0, "fusion_lat": 0.0, "lat": 38.9056245, "type": "electric_scooter", "lon": -77.00747433333333, "bike_id": "38f48bb1074c75b8e6f7719a03245e04", "rental_uris": {"android": "https://dc.lft.to/lastmile_qr_scan", "ios": "https://dc.lft.to/lastmile_qr_scan"}, "name": "38f48bb1074c75b8e6f7719a03245e04", "is_reserved": 0}, {"is_disabled": 0, "fusion_lon": 0.0, "fusion_lat": 0.0, "lat": 38.91045666666667, "type": "electric_scooter", "lon": -77.043557, "bike_id": "4bc629c9f92effa34a168456b6e07e3e", "rental_uris": {"android": "https://dc.lft.to/lastmile_qr_scan", "ios": "https://dc.lft.to/lastmile_qr_scan"}, "name": "4bc629c9f92effa34a168456b6e07e3e", "is_reserved": 0}, {"is_disabled": 0, "fusion_lon": 0.0, "fusion_lat": 0.0, "lat": 38.919932333333335, "type": "electric_scooter", "lon": -77.03274983333333, "bike_id": "a71d08399db0bd187660fdd259f1d708", "rental_uris": {"android": "https://dc.lft.to/lastmile_qr_scan", "ios": "https://dc.lft.to/lastmile_qr_scan"}, "name": "a71d08399db0bd187660fdd259f1d708", "is_reserved": 0}, {"is_disabled": 0, "fusion_lon": 0.0, "fusion_lat": 0.0, "lat": 38.935972, "type": "electric_scooter", "lon": -77.036503, "bike_id": "913e446670b1266d076166479aa4a5f0", "rental_uris": {"android": "https://dc.lft.to/lastmile_qr_scan", "ios": "https://dc.lft.to/lastmile_qr_scan"}, "name": "913e446670b1266d076166479aa4a5f0", "is_reserved": 0}, {"is_disabled": 0, "fusion_lon": 0.0, "fusion_lat": 0.0, "lat": 38.9419065, "type": "electric_scooter", "lon": -77.0241175, "bike_id": "f10d073d44521c914c30470dc573c316", "rental_uris": {"android": "https://dc.lft.to/lastmile_qr_scan", "ios": "https://dc.lft.to/lastmile_qr_scan"}, "name": "f10d073d44521c914c30470dc573c316", "is_reserved": 0}, {"is_disabled": 0, "fusion_lon": 0.0, "fusion_lat": 0.0, "lat": 38.91517966666667, "type": "electric_scooter", "lon": -77.01987233333334, "bike_id": "2e5ab2471d9ba7ec491ec0dbb3155874", "rental_uris": {"android": "https://dc.lft.to/lastmile_qr_scan", "ios": "https://dc.lft.to/lastmile_qr_scan"}, "name": "2e5ab2471d9ba7ec491ec0dbb3155874", "is_reserved": 0}, {"is_disabled": 0, "fusion_lon": 0.0, "fusion_lat": 0.0, "lat": 38.899956, "type": "electric_scooter", "lon": -77.0396785, "bike_id": "08b681544a242047f4e689784cd8e5b2", "rental_uris": {"android": "https://dc.lft.to/lastmile_qr_scan", "ios": "https://dc.lft.to/lastmile_qr_scan"}, "name": "08b681544a242047f4e689784cd8e5b2", "is_reserved": 0}, {"is_disabled": 0, "fusion_lon": 0.0, "fusion_lat": 0.0, "lat": 38.905378666666664, "type": "electric_scooter", "lon": -77.05036983333333, "bike_id": "4c813850805112a2ede1c5db6e4ad06e", "rental_uris": {"android": "https://dc.lft.to/lastmile_qr_scan", "ios": "https://dc.lft.to/lastmile_qr_scan"}, "name": "4c813850805112a2ede1c5db6e4ad06e", "is_reserved": 0}, {"is_disabled": 0, "fusion_lon": 0.0, "fusion_lat": 0.0, "lat": 38.90019383333333, "type": "electric_scooter", "lon": -77.05237416666667, "bike_id": "e70803069cdbba393f381340c0687f7f", "rental_uris": {"android": "https://dc.lft.to/lastmile_qr_scan", "ios": "https://dc.lft.to/lastmile_qr_scan"}, "name": "e70803069cdbba393f381340c0687f7f", "is_reserved": 0}, {"is_disabled": 0, "fusion_lon": 0.0, "fusion_lat": 0.0, "lat": 38.92813233333333, "type": "electric_scooter", "lon": -77.02348733333334, "bike_id": "d9398f93b2f2abc5c771586154626438", "rental_uris": {"android": "https://dc.lft.to/lastmile_qr_scan", "ios": "https://dc.lft.to/lastmile_qr_scan"}, "name": "d9398f93b2f2abc5c771586154626438", "is_reserved": 0}, {"is_disabled": 0, "fusion_lon": 0.0, "fusion_lat": 0.0, "lat": 38.945543666666666, "type": "electric_bike", "lon": -77.05115433333333, "bike_id": "b4c71604468462ded1eacf18c6cab51f", "rental_uris": {"android": "https://dc.lft.to/lastmile_qr_scan", "ios": "https://dc.lft.to/lastmile_qr_scan"}, "name": "b4c71604468462ded1eacf18c6cab51f", "is_reserved": 0}, {"is_disabled": 0, "fusion_lon": 0.0, "fusion_lat": 0.0, "lat": 38.90676916666666, "type": "electric_scooter", "lon": -77.07588666666666, "bike_id": "941b832c2fd79cebb71e6f34d9523773", "rental_uris": {"android": "https://dc.lft.to/lastmile_qr_scan", "ios": "https://dc.lft.to/lastmile_qr_scan"}, "name": "941b832c2fd79cebb71e6f34d9523773", "is_reserved": 0}, {"is_disabled": 0, "fusion_lon": 0.0, "fusion_lat": 0.0, "lat": 38.915871833333334, "type": "electric_scooter", "lon": -77.02128033333334, "bike_id": "a9b91ab1791614dc5705ca51c8816351", "rental_uris": {"android": "https://dc.lft.to/lastmile_qr_scan", "ios": "https://dc.lft.to/lastmile_qr_scan"}, "name": "a9b91ab1791614dc5705ca51c8816351", "is_reserved": 0}, {"is_disabled": 0, "fusion_lon": 0.0, "fusion_lat": 0.0, "lat": 38.908103, "type": "electric_scooter", "lon": -77.04337016666666, "bike_id": "138c8f54acb67c41e1523ec485f4ca05", "rental_uris": {"android": "https://dc.lft.to/lastmile_qr_scan", "ios": "https://dc.lft.to/lastmile_qr_scan"}, "name": "138c8f54acb67c41e1523ec485f4ca05", "is_reserved": 0}, {"is_disabled": 0, "fusion_lon": 0.0, "fusion_lat": 0.0, "lat": 38.944742166666664, "type": "electric_bike", "lon": -77.00648583333333, "bike_id": "d0dc7c47868b1246ae1aefc2bbc4614f", "rental_uris": {"android": "https://dc.lft.to/lastmile_qr_scan", "ios": "https://dc.lft.to/lastmile_qr_scan"}, "name": "d0dc7c47868b1246ae1aefc2bbc4614f", "is_reserved": 0}, {"is_disabled": 0, "fusion_lon": 0.0, "fusion_lat": 0.0, "lat": 38.92467233333333, "type": "electric_scooter", "lon": -77.03730233333333, "bike_id": "0beeeb0f2061a08d14610290bf864c49", "rental_uris": {"android": "https://dc.lft.to/lastmile_qr_scan", "ios": "https://dc.lft.to/lastmile_qr_scan"}, "name": "0beeeb0f2061a08d14610290bf864c49", "is_reserved": 0}, {"is_disabled": 0, "fusion_lon": 0.0, "fusion_lat": 0.0, "lat": 38.886905, "type": "electric_scooter", "lon": -76.954822, "bike_id": "3d9d64edcb81c5a0cfc352fb1a64973a", "rental_uris": {"android": "https://dc.lft.to/lastmile_qr_scan", "ios": "https://dc.lft.to/lastmile_qr_scan"}, "name": "3d9d64edcb81c5a0cfc352fb1a64973a", "is_reserved": 0}, {"is_disabled": 0, "fusion_lon": 0.0, "fusion_lat": 0.0, "lat": 38.917258833333335, "type": "electric_scooter", "lon": -77.03203466666666, "bike_id": "e8c826fbfd0527070885c336cd215074", "rental_uris": {"android": "https://dc.lft.to/lastmile_qr_scan", "ios": "https://dc.lft.to/lastmile_qr_scan"}, "name": "e8c826fbfd0527070885c336cd215074", "is_reserved": 0}, {"is_disabled": 0, "fusion_lon": 0.0, "fusion_lat": 0.0, "lat": 38.924391666666665, "type": "electric_scooter", "lon": -77.02606, "bike_id": "a4901d8a8dfb3f7a665364a5e1840fff", "rental_uris": {"android": "https://dc.lft.to/lastmile_qr_scan", "ios": "https://dc.lft.to/lastmile_qr_scan"}, "name": "a4901d8a8dfb3f7a665364a5e1840fff", "is_reserved": 0}, {"is_disabled": 0, "fusion_lon": 0.0, "fusion_lat": 0.0, "lat": 38.90950733333333, "type": "electric_scooter", "lon": -77.0218395, "bike_id": "6e1a9de2d9952b2ac921578488dacf3a", "rental_uris": {"android": "https://dc.lft.to/lastmile_qr_scan", "ios": "https://dc.lft.to/lastmile_qr_scan"}, "name": "6e1a9de2d9952b2ac921578488dacf3a", "is_reserved": 0}, {"is_disabled": 0, "fusion_lon": 0.0, "fusion_lat": 0.0, "lat": 38.9211385, "type": "electric_scooter", "lon": -77.04385133333334, "bike_id": "ceb6b003c20b1050005e817b01ed4a5f", "rental_uris": {"android": "https://dc.lft.to/lastmile_qr_scan", "ios": "https://dc.lft.to/lastmile_qr_scan"}, "name": "ceb6b003c20b1050005e817b01ed4a5f", "is_reserved": 0}, {"is_disabled": 0, "fusion_lon": 0.0, "fusion_lat": 0.0, "lat": 38.906512166666666, "type": "electric_scooter", "lon": -77.0118345, "bike_id": "42516bc1de643236a30e90879f1c7fa7", "rental_uris": {"android": "https://dc.lft.to/lastmile_qr_scan", "ios": "https://dc.lft.to/lastmile_qr_scan"}, "name": "42516bc1de643236a30e90879f1c7fa7", "is_reserved": 0}, {"is_disabled": 0, "fusion_lon": 0.0, "fusion_lat": 0.0, "lat": 38.84619216666667, "type": "electric_scooter", "lon": -76.996308, "bike_id": "f706d68b0cbbf6b116c85b909a4ca680", "rental_uris": {"android": "https://dc.lft.to/lastmile_qr_scan", "ios": "https://dc.lft.to/lastmile_qr_scan"}, "name": "f706d68b0cbbf6b116c85b909a4ca680", "is_reserved": 0}, {"is_disabled": 0, "fusion_lon": 0.0, "fusion_lat": 0.0, "lat": 38.96733316666667, "type": "electric_scooter", "lon": -77.02764733333333, "bike_id": "ee6c12847dfa033634a2ed2dc64b4677", "rental_uris": {"android": "https://dc.lft.to/lastmile_qr_scan", "ios": "https://dc.lft.to/lastmile_qr_scan"}, "name": "ee6c12847dfa033634a2ed2dc64b4677", "is_reserved": 0}, {"is_disabled": 0, "fusion_lon": 0.0, "fusion_lat": 0.0, "lat": 38.923838833333335, "type": "electric_scooter", "lon": -77.02904283333334, "bike_id": "442adf351b6a5832faa80643b3457e85", "rental_uris": {"android": "https://dc.lft.to/lastmile_qr_scan", "ios": "https://dc.lft.to/lastmile_qr_scan"}, "name": "442adf351b6a5832faa80643b3457e85", "is_reserved": 0}, {"is_disabled": 0, "fusion_lon": 0.0, "fusion_lat": 0.0, "lat": 38.920863, "type": "electric_scooter", "lon": -77.03485666666667, "bike_id": "8a8894a1010e677fb40aab291af7ecaa", "rental_uris": {"android": "https://dc.lft.to/lastmile_qr_scan", "ios": "https://dc.lft.to/lastmile_qr_scan"}, "name": "8a8894a1010e677fb40aab291af7ecaa", "is_reserved": 0}, {"is_disabled": 0, "fusion_lon": 0.0, "fusion_lat": 0.0, "lat": 38.9103125, "type": "electric_scooter", "lon": -77.01379016666667, "bike_id": "fea0e8efea5e279e9414976f5ae3b0b9", "rental_uris": {"android": "https://dc.lft.to/lastmile_qr_scan", "ios": "https://dc.lft.to/lastmile_qr_scan"}, "name": "fea0e8efea5e279e9414976f5ae3b0b9", "is_reserved": 0}, {"is_disabled": 0, "fusion_lon": 0.0, "fusion_lat": 0.0, "lat": 38.9164475, "type": "electric_scooter", "lon": -77.02181666666667, "bike_id": "3b510b6207498f74ad831d8f6d489350", "rental_uris": {"android": "https://dc.lft.to/lastmile_qr_scan", "ios": "https://dc.lft.to/lastmile_qr_scan"}, "name": "3b510b6207498f74ad831d8f6d489350", "is_reserved": 0}, {"is_disabled": 0, "fusion_lon": 0.0, "fusion_lat": 0.0, "lat": 38.8950005, "type": "electric_scooter", "lon": -77.0111205, "bike_id": "49773fefd68b1fd0cd476e557514c630", "rental_uris": {"android": "https://dc.lft.to/lastmile_qr_scan", "ios": "https://dc.lft.to/lastmile_qr_scan"}, "name": "49773fefd68b1fd0cd476e557514c630", "is_reserved": 0}, {"is_disabled": 0, "fusion_lon": 0.0, "fusion_lat": 0.0, "lat": 38.919152, "type": "electric_scooter", "lon": -77.0302565, "bike_id": "da3398bca030ba3e91ddf30cc1ccb23c", "rental_uris": {"android": "https://dc.lft.to/lastmile_qr_scan", "ios": "https://dc.lft.to/lastmile_qr_scan"}, "name": "da3398bca030ba3e91ddf30cc1ccb23c", "is_reserved": 0}, {"is_disabled": 0, "fusion_lon": 0.0, "fusion_lat": 0.0, "lat": 38.90216616666667, "type": "electric_scooter", "lon": -77.0237835, "bike_id": "fa8d9c6367c413f46c9098dcac0ea862", "rental_uris": {"android": "https://dc.lft.to/lastmile_qr_scan", "ios": "https://dc.lft.to/lastmile_qr_scan"}, "name": "fa8d9c6367c413f46c9098dcac0ea862", "is_reserved": 0}, {"is_disabled": 0, "fusion_lon": 0.0, "fusion_lat": 0.0, "lat": 38.90924916666667, "type": "electric_scooter", "lon": -77.0319305, "bike_id": "567da475ce742833dac07fa1c6d8eb37", "rental_uris": {"android": "https://dc.lft.to/lastmile_qr_scan", "ios": "https://dc.lft.to/lastmile_qr_scan"}, "name": "567da475ce742833dac07fa1c6d8eb37", "is_reserved": 0}, {"is_disabled": 0, "fusion_lon": 0.0, "fusion_lat": 0.0, "lat": 38.9498585, "type": "electric_scooter", "lon": -77.02703366666667, "bike_id": "02b0d2d0531a369d1459fa1690a5f177", "rental_uris": {"android": "https://dc.lft.to/lastmile_qr_scan", "ios": "https://dc.lft.to/lastmile_qr_scan"}, "name": "02b0d2d0531a369d1459fa1690a5f177", "is_reserved": 0}, {"is_disabled": 0, "fusion_lon": 0.0, "fusion_lat": 0.0, "lat": 38.89163966666667, "type": "electric_scooter", "lon": -77.0154145, "bike_id": "95b2bd667685c464bc0963e91853fa01", "rental_uris": {"android": "https://dc.lft.to/lastmile_qr_scan", "ios": "https://dc.lft.to/lastmile_qr_scan"}, "name": "95b2bd667685c464bc0963e91853fa01", "is_reserved": 0}, {"is_disabled": 0, "fusion_lon": 0.0, "fusion_lat": 0.0, "lat": 38.8921945, "type": "electric_scooter", "lon": -77.02261666666666, "bike_id": "f527c72fafb81be2ec7d27bee008cff0", "rental_uris": {"android": "https://dc.lft.to/lastmile_qr_scan", "ios": "https://dc.lft.to/lastmile_qr_scan"}, "name": "f527c72fafb81be2ec7d27bee008cff0", "is_reserved": 0}, {"is_disabled": 0, "fusion_lon": 0.0, "fusion_lat": 0.0, "lat": 38.953117166666665, "type": "electric_scooter", "lon": -77.03603766666667, "bike_id": "272c338788a3eb80f37d29de4b32ab66", "rental_uris": {"android": "https://dc.lft.to/lastmile_qr_scan", "ios": "https://dc.lft.to/lastmile_qr_scan"}, "name": "272c338788a3eb80f37d29de4b32ab66", "is_reserved": 0}, {"is_disabled": 0, "fusion_lon": 0.0, "fusion_lat": 0.0, "lat": 38.910870333333335, "type": "electric_scooter", "lon": -77.03856066666667, "bike_id": "700fe4611039b9e9fb3f20b6027c9cbc", "rental_uris": {"android": "https://dc.lft.to/lastmile_qr_scan", "ios": "https://dc.lft.to/lastmile_qr_scan"}, "name": "700fe4611039b9e9fb3f20b6027c9cbc", "is_reserved": 0}, {"is_disabled": 0, "fusion_lon": 0.0, "fusion_lat": 0.0, "lat": 38.903105, "type": "electric_scooter", "lon": -77.019141, "bike_id": "890440e393f212d6cb0f37fbe2c865d7", "rental_uris": {"android": "https://dc.lft.to/lastmile_qr_scan", "ios": "https://dc.lft.to/lastmile_qr_scan"}, "name": "890440e393f212d6cb0f37fbe2c865d7", "is_reserved": 0}, {"is_disabled": 0, "fusion_lon": 0.0, "fusion_lat": 0.0, "lat": 38.89958933333333, "type": "electric_scooter", "lon": -77.0461065, "bike_id": "eb69b8074ebecf9444cb17c57bfb7ed4", "rental_uris": {"android": "https://dc.lft.to/lastmile_qr_scan", "ios": "https://dc.lft.to/lastmile_qr_scan"}, "name": "eb69b8074ebecf9444cb17c57bfb7ed4", "is_reserved": 0}, {"is_disabled": 0, "fusion_lon": 0.0, "fusion_lat": 0.0, "lat": 38.9209705, "type": "electric_scooter", "lon": -77.03057266666667, "bike_id": "a140ea5616855015dfedf394bcbaff4b", "rental_uris": {"android": "https://dc.lft.to/lastmile_qr_scan", "ios": "https://dc.lft.to/lastmile_qr_scan"}, "name": "a140ea5616855015dfedf394bcbaff4b", "is_reserved": 0}, {"is_disabled": 0, "fusion_lon": 0.0, "fusion_lat": 0.0, "lat": 38.908209, "type": "electric_scooter", "lon": -77.0416495, "bike_id": "88350960b7b1004a67485fa40e2826af", "rental_uris": {"android": "https://dc.lft.to/lastmile_qr_scan", "ios": "https://dc.lft.to/lastmile_qr_scan"}, "name": "88350960b7b1004a67485fa40e2826af", "is_reserved": 0}, {"is_disabled": 0, "fusion_lon": 0.0, "fusion_lat": 0.0, "lat": 38.87649866666667, "type": "electric_scooter", "lon": -77.01568183333333, "bike_id": "84dcde23c4dbd74f31a1bb613e703bac", "rental_uris": {"android": "https://dc.lft.to/lastmile_qr_scan", "ios": "https://dc.lft.to/lastmile_qr_scan"}, "name": "84dcde23c4dbd74f31a1bb613e703bac", "is_reserved": 0}, {"is_disabled": 0, "fusion_lon": 0.0, "fusion_lat": 0.0, "lat": 38.93137933333333, "type": "electric_scooter", "lon": -77.03453416666666, "bike_id": "228b334702bfdd34f1c75c80e234480d", "rental_uris": {"android": "https://dc.lft.to/lastmile_qr_scan", "ios": "https://dc.lft.to/lastmile_qr_scan"}, "name": "228b334702bfdd34f1c75c80e234480d", "is_reserved": 0}, {"is_disabled": 0, "fusion_lon": 0.0, "fusion_lat": 0.0, "lat": 38.909690499999996, "type": "electric_scooter", "lon": -77.08076866666667, "bike_id": "eed0935966999ff03b9db12673cf0a88", "rental_uris": {"android": "https://dc.lft.to/lastmile_qr_scan", "ios": "https://dc.lft.to/lastmile_qr_scan"}, "name": "eed0935966999ff03b9db12673cf0a88", "is_reserved": 0}, {"is_disabled": 0, "fusion_lon": 0.0, "fusion_lat": 0.0, "lat": 38.930741, "type": "electric_scooter", "lon": -77.02519316666667, "bike_id": "ecf6bdabbd3cf4e4634083184be4e6dc", "rental_uris": {"android": "https://dc.lft.to/lastmile_qr_scan", "ios": "https://dc.lft.to/lastmile_qr_scan"}, "name": "ecf6bdabbd3cf4e4634083184be4e6dc", "is_reserved": 0}, {"is_disabled": 0, "fusion_lon": 0.0, "fusion_lat": 0.0, "lat": 38.898272, "type": "electric_scooter", "lon": -76.94652183333334, "bike_id": "d1889d26fb73bc4436a695b806ed8cfa", "rental_uris": {"android": "https://dc.lft.to/lastmile_qr_scan", "ios": "https://dc.lft.to/lastmile_qr_scan"}, "name": "d1889d26fb73bc4436a695b806ed8cfa", "is_reserved": 0}, {"is_disabled": 0, "fusion_lon": 0.0, "fusion_lat": 0.0, "lat": 38.9004615, "type": "electric_scooter", "lon": -77.000666, "bike_id": "1c26e396006709f276176a93755a8382", "rental_uris": {"android": "https://dc.lft.to/lastmile_qr_scan", "ios": "https://dc.lft.to/lastmile_qr_scan"}, "name": "1c26e396006709f276176a93755a8382", "is_reserved": 0}, {"is_disabled": 0, "fusion_lon": 0.0, "fusion_lat": 0.0, "lat": 38.88215866666667, "type": "electric_bike", "lon": -77.1127655, "bike_id": "f9622686d7b2edfba612f4eb14ce44a6", "rental_uris": {"android": "https://dc.lft.to/lastmile_qr_scan", "ios": "https://dc.lft.to/lastmile_qr_scan"}, "name": "f9622686d7b2edfba612f4eb14ce44a6", "is_reserved": 0}, {"is_disabled": 0, "fusion_lon": 0.0, "fusion_lat": 0.0, "lat": 38.90388133333333, "type": "electric_scooter", "lon": -76.98999133333334, "bike_id": "c6eec4baad4aa62e3633ff03d55d6779", "rental_uris": {"android": "https://dc.lft.to/lastmile_qr_scan", "ios": "https://dc.lft.to/lastmile_qr_scan"}, "name": "c6eec4baad4aa62e3633ff03d55d6779", "is_reserved": 0}, {"is_disabled": 0, "fusion_lon": 0.0, "fusion_lat": 0.0, "lat": 38.92460416666667, "type": "electric_scooter", "lon": -77.029658, "bike_id": "a28e1eecb1ce59d53dd0855d4289f781", "rental_uris": {"android": "https://dc.lft.to/lastmile_qr_scan", "ios": "https://dc.lft.to/lastmile_qr_scan"}, "name": "a28e1eecb1ce59d53dd0855d4289f781", "is_reserved": 0}, {"is_disabled": 0, "fusion_lon": 0.0, "fusion_lat": 0.0, "lat": 38.92456166666667, "type": "electric_bike", "lon": -76.9755745, "bike_id": "6ed11c10641484113633b263ade8c926", "rental_uris": {"android": "https://dc.lft.to/lastmile_qr_scan", "ios": "https://dc.lft.to/lastmile_qr_scan"}, "name": "6ed11c10641484113633b263ade8c926", "is_reserved": 0}, {"is_disabled": 0, "fusion_lon": 0.0, "fusion_lat": 0.0, "lat": 38.902813, "type": "electric_scooter", "lon": -77.02407066666666, "bike_id": "93ef8c5ef32c7591373e19b41ff1ce74", "rental_uris": {"android": "https://dc.lft.to/lastmile_qr_scan", "ios": "https://dc.lft.to/lastmile_qr_scan"}, "name": "93ef8c5ef32c7591373e19b41ff1ce74", "is_reserved": 0}, {"is_disabled": 0, "fusion_lon": 0.0, "fusion_lat": 0.0, "lat": 38.93711183333333, "type": "electric_scooter", "lon": -77.024549, "bike_id": "322de26fe75085a79d60b94b26ef20b3", "rental_uris": {"android": "https://dc.lft.to/lastmile_qr_scan", "ios": "https://dc.lft.to/lastmile_qr_scan"}, "name": "322de26fe75085a79d60b94b26ef20b3", "is_reserved": 0}, {"is_disabled": 0, "fusion_lon": 0.0, "fusion_lat": 0.0, "lat": 38.9462285, "type": "electric_bike", "lon": -76.93411833333333, "bike_id": "7c68da33e746c5db2b50d34f7891664a", "rental_uris": {"android": "https://dc.lft.to/lastmile_qr_scan", "ios": "https://dc.lft.to/lastmile_qr_scan"}, "name": "7c68da33e746c5db2b50d34f7891664a", "is_reserved": 0}, {"is_disabled": 0, "fusion_lon": 0.0, "fusion_lat": 0.0, "lat": 38.931496333333335, "type": "electric_scooter", "lon": -77.0436315, "bike_id": "0f499d069583ed5051bff0c8e6b471c1", "rental_uris": {"android": "https://dc.lft.to/lastmile_qr_scan", "ios": "https://dc.lft.to/lastmile_qr_scan"}, "name": "0f499d069583ed5051bff0c8e6b471c1", "is_reserved": 0}, {"is_disabled": 0, "fusion_lon": 0.0, "fusion_lat": 0.0, "lat": 38.9170995, "type": "electric_scooter", "lon": -77.02500516666667, "bike_id": "85e555bbfb8a2c1e6c7b126ea6488295", "rental_uris": {"android": "https://dc.lft.to/lastmile_qr_scan", "ios": "https://dc.lft.to/lastmile_qr_scan"}, "name": "85e555bbfb8a2c1e6c7b126ea6488295", "is_reserved": 0}, {"is_disabled": 0, "fusion_lon": 0.0, "fusion_lat": 0.0, "lat": 38.910516, "type": "electric_scooter", "lon": -77.02296133333333, "bike_id": "7040a43583999fe69c33f7ef18a703d9", "rental_uris": {"android": "https://dc.lft.to/lastmile_qr_scan", "ios": "https://dc.lft.to/lastmile_qr_scan"}, "name": "7040a43583999fe69c33f7ef18a703d9", "is_reserved": 0}, {"is_disabled": 0, "fusion_lon": 0.0, "fusion_lat": 0.0, "lat": 38.923038, "type": "electric_scooter", "lon": -77.04037116666667, "bike_id": "68ade852ff0daeb7e9cf8d86b5b3624c", "rental_uris": {"android": "https://dc.lft.to/lastmile_qr_scan", "ios": "https://dc.lft.to/lastmile_qr_scan"}, "name": "68ade852ff0daeb7e9cf8d86b5b3624c", "is_reserved": 0}, {"is_disabled": 0, "fusion_lon": 0.0, "fusion_lat": 0.0, "lat": 38.87627716666667, "type": "electric_scooter", "lon": -77.01259333333333, "bike_id": "b7e343990d4afdcb7457576cfa491b0a", "rental_uris": {"android": "https://dc.lft.to/lastmile_qr_scan", "ios": "https://dc.lft.to/lastmile_qr_scan"}, "name": "b7e343990d4afdcb7457576cfa491b0a", "is_reserved": 0}, {"is_disabled": 0, "fusion_lon": 0.0, "fusion_lat": 0.0, "lat": 38.812689166666665, "type": "electric_bike", "lon": -77.061794, "bike_id": "977213185c74767019836a973a556d19", "rental_uris": {"android": "https://dc.lft.to/lastmile_qr_scan", "ios": "https://dc.lft.to/lastmile_qr_scan"}, "name": "977213185c74767019836a973a556d19", "is_reserved": 0}, {"is_disabled": 0, "fusion_lon": 0.0, "fusion_lat": 0.0, "lat": 38.934666, "type": "electric_scooter", "lon": -77.06876733333333, "bike_id": "67977b4d71e0bbfd13cadfbf859b02c4", "rental_uris": {"android": "https://dc.lft.to/lastmile_qr_scan", "ios": "https://dc.lft.to/lastmile_qr_scan"}, "name": "67977b4d71e0bbfd13cadfbf859b02c4", "is_reserved": 0}, {"is_disabled": 0, "fusion_lon": 0.0, "fusion_lat": 0.0, "lat": 38.89751066666667, "type": "electric_scooter", "lon": -77.01009466666666, "bike_id": "365e823aef36382e6f7ee76769c99013", "rental_uris": {"android": "https://dc.lft.to/lastmile_qr_scan", "ios": "https://dc.lft.to/lastmile_qr_scan"}, "name": "365e823aef36382e6f7ee76769c99013", "is_reserved": 0}, {"is_disabled": 0, "fusion_lon": 0.0, "fusion_lat": 0.0, "lat": 38.917935, "type": "electric_scooter", "lon": -77.034387, "bike_id": "5eaa0ac42547da222ae451e7617e4887", "rental_uris": {"android": "https://dc.lft.to/lastmile_qr_scan", "ios": "https://dc.lft.to/lastmile_qr_scan"}, "name": "5eaa0ac42547da222ae451e7617e4887", "is_reserved": 0}, {"is_disabled": 0, "fusion_lon": 0.0, "fusion_lat": 0.0, "lat": 38.9322485, "type": "electric_scooter", "lon": -76.99485933333334, "bike_id": "10e17938e2968272c617de506de365ef", "rental_uris": {"android": "https://dc.lft.to/lastmile_qr_scan", "ios": "https://dc.lft.to/lastmile_qr_scan"}, "name": "10e17938e2968272c617de506de365ef", "is_reserved": 0}, {"is_disabled": 0, "fusion_lon": 0.0, "fusion_lat": 0.0, "lat": 38.97257183333333, "type": "electric_bike", "lon": -76.99168533333334, "bike_id": "1820a8e90ceae20fb6071855b9ca233f", "rental_uris": {"android": "https://dc.lft.to/lastmile_qr_scan", "ios": "https://dc.lft.to/lastmile_qr_scan"}, "name": "1820a8e90ceae20fb6071855b9ca233f", "is_reserved": 0}, {"is_disabled": 0, "fusion_lon": 0.0, "fusion_lat": 0.0, "lat": 38.903955333333336, "type": "electric_scooter", "lon": -77.04048766666666, "bike_id": "edd2d809252c0766d9316079b29280a6", "rental_uris": {"android": "https://dc.lft.to/lastmile_qr_scan", "ios": "https://dc.lft.to/lastmile_qr_scan"}, "name": "edd2d809252c0766d9316079b29280a6", "is_reserved": 0}, {"is_disabled": 0, "fusion_lon": 0.0, "fusion_lat": 0.0, "lat": 38.9052595, "type": "electric_scooter", "lon": -77.0456705, "bike_id": "82bfc0d0cc4cb77ba5b67fd098aae891", "rental_uris": {"android": "https://dc.lft.to/lastmile_qr_scan", "ios": "https://dc.lft.to/lastmile_qr_scan"}, "name": "82bfc0d0cc4cb77ba5b67fd098aae891", "is_reserved": 0}, {"is_disabled": 0, "fusion_lon": 0.0, "fusion_lat": 0.0, "lat": 38.8393215, "type": "electric_bike", "lon": -77.07900916666667, "bike_id": "ebe86cdb5e7b78549b636ef8a052a477", "rental_uris": {"android": "https://dc.lft.to/lastmile_qr_scan", "ios": "https://dc.lft.to/lastmile_qr_scan"}, "name": "ebe86cdb5e7b78549b636ef8a052a477", "is_reserved": 0}, {"is_disabled": 0, "fusion_lon": 0.0, "fusion_lat": 0.0, "lat": 38.91753516666667, "type": "electric_scooter", "lon": -77.02789466666667, "bike_id": "2b3fc07b6c1ecce5734d14804be7fcab", "rental_uris": {"android": "https://dc.lft.to/lastmile_qr_scan", "ios": "https://dc.lft.to/lastmile_qr_scan"}, "name": "2b3fc07b6c1ecce5734d14804be7fcab", "is_reserved": 0}, {"is_disabled": 0, "fusion_lon": 0.0, "fusion_lat": 0.0, "lat": 38.928368166666665, "type": "electric_scooter", "lon": -77.0555105, "bike_id": "a3d8663c621497d9b68ef1d3d7b04e60", "rental_uris": {"android": "https://dc.lft.to/lastmile_qr_scan", "ios": "https://dc.lft.to/lastmile_qr_scan"}, "name": "a3d8663c621497d9b68ef1d3d7b04e60", "is_reserved": 0}, {"is_disabled": 0, "fusion_lon": 0.0, "fusion_lat": 0.0, "lat": 38.910317166666665, "type": "electric_scooter", "lon": -77.03799966666666, "bike_id": "f0ed99d24c7996c55808b8fe219786a6", "rental_uris": {"android": "https://dc.lft.to/lastmile_qr_scan", "ios": "https://dc.lft.to/lastmile_qr_scan"}, "name": "f0ed99d24c7996c55808b8fe219786a6", "is_reserved": 0}, {"is_disabled": 0, "fusion_lon": 0.0, "fusion_lat": 0.0, "lat": 38.8680305, "type": "electric_scooter", "lon": -77.0117095, "bike_id": "6e495b14bc925fa1ba957930f742b36e", "rental_uris": {"android": "https://dc.lft.to/lastmile_qr_scan", "ios": "https://dc.lft.to/lastmile_qr_scan"}, "name": "6e495b14bc925fa1ba957930f742b36e", "is_reserved": 0}, {"is_disabled": 0, "fusion_lon": 0.0, "fusion_lat": 0.0, "lat": 38.888517, "type": "electric_bike", "lon": -76.977023, "bike_id": "c73189f813ced4d39a96cbf152405b61", "rental_uris": {"android": "https://dc.lft.to/lastmile_qr_scan", "ios": "https://dc.lft.to/lastmile_qr_scan"}, "name": "c73189f813ced4d39a96cbf152405b61", "is_reserved": 0}, {"is_disabled": 0, "fusion_lon": 0.0, "fusion_lat": 0.0, "lat": 39.05458516666667, "type": "electric_bike", "lon": -77.14327983333334, "bike_id": "d807c5992030d7cfa3dfcb4e611a39b4", "rental_uris": {"android": "https://dc.lft.to/lastmile_qr_scan", "ios": "https://dc.lft.to/lastmile_qr_scan"}, "name": "d807c5992030d7cfa3dfcb4e611a39b4", "is_reserved": 0}, {"is_disabled": 0, "fusion_lon": 0.0, "fusion_lat": 0.0, "lat": 38.908500833333335, "type": "electric_scooter", "lon": -77.05508016666667, "bike_id": "f26e677a8263875ae26ba31e99fa17a2", "rental_uris": {"android": "https://dc.lft.to/lastmile_qr_scan", "ios": "https://dc.lft.to/lastmile_qr_scan"}, "name": "f26e677a8263875ae26ba31e99fa17a2", "is_reserved": 0}, {"is_disabled": 0, "fusion_lon": 0.0, "fusion_lat": 0.0, "lat": 38.776178, "type": "electric_bike", "lon": -77.0835465, "bike_id": "7553181d3ec7f5927ccbb2b0e4dedf3a", "rental_uris": {"android": "https://dc.lft.to/lastmile_qr_scan", "ios": "https://dc.lft.to/lastmile_qr_scan"}, "name": "7553181d3ec7f5927ccbb2b0e4dedf3a", "is_reserved": 0}, {"is_disabled": 0, "fusion_lon": 0.0, "fusion_lat": 0.0, "lat": 38.90507066666667, "type": "electric_scooter", "lon": -76.98239366666667, "bike_id": "1b562906d36fd202aefb0517ede3e42d", "rental_uris": {"android": "https://dc.lft.to/lastmile_qr_scan", "ios": "https://dc.lft.to/lastmile_qr_scan"}, "name": "1b562906d36fd202aefb0517ede3e42d", "is_reserved": 0}, {"is_disabled": 0, "fusion_lon": 0.0, "fusion_lat": 0.0, "lat": 38.887406, "type": "electric_scooter", "lon": -77.014301, "bike_id": "75a802311ebaf2196a3c02af30b0241c", "rental_uris": {"android": "https://dc.lft.to/lastmile_qr_scan", "ios": "https://dc.lft.to/lastmile_qr_scan"}, "name": "75a802311ebaf2196a3c02af30b0241c", "is_reserved": 0}, {"is_disabled": 0, "fusion_lon": 0.0, "fusion_lat": 0.0, "lat": 38.91765083333333, "type": "electric_scooter", "lon": -77.03204233333334, "bike_id": "99cd805e277467adcf922415ee088ad4", "rental_uris": {"android": "https://dc.lft.to/lastmile_qr_scan", "ios": "https://dc.lft.to/lastmile_qr_scan"}, "name": "99cd805e277467adcf922415ee088ad4", "is_reserved": 0}, {"is_disabled": 0, "fusion_lon": 0.0, "fusion_lat": 0.0, "lat": 38.89388533333333, "type": "electric_scooter", "lon": -76.94999266666667, "bike_id": "6542d7fab7af852ce1b1424dc6da6b88", "rental_uris": {"android": "https://dc.lft.to/lastmile_qr_scan", "ios": "https://dc.lft.to/lastmile_qr_scan"}, "name": "6542d7fab7af852ce1b1424dc6da6b88", "is_reserved": 0}, {"is_disabled": 0, "fusion_lon": 0.0, "fusion_lat": 0.0, "lat": 38.896111, "type": "electric_scooter", "lon": -77.00929216666667, "bike_id": "14aeacdfcf8dfc5f6bf5fdee2921c317", "rental_uris": {"android": "https://dc.lft.to/lastmile_qr_scan", "ios": "https://dc.lft.to/lastmile_qr_scan"}, "name": "14aeacdfcf8dfc5f6bf5fdee2921c317", "is_reserved": 0}, {"is_disabled": 0, "fusion_lon": 0.0, "fusion_lat": 0.0, "lat": 38.88959966666667, "type": "electric_scooter", "lon": -76.99143983333333, "bike_id": "2e65ef04a15337a495e5592d1faee97d", "rental_uris": {"android": "https://dc.lft.to/lastmile_qr_scan", "ios": "https://dc.lft.to/lastmile_qr_scan"}, "name": "2e65ef04a15337a495e5592d1faee97d", "is_reserved": 0}, {"is_disabled": 0, "fusion_lon": 0.0, "fusion_lat": 0.0, "lat": 38.89528716666667, "type": "electric_scooter", "lon": -77.03353633333333, "bike_id": "8772338635b8fa65d484289efd956a4b", "rental_uris": {"android": "https://dc.lft.to/lastmile_qr_scan", "ios": "https://dc.lft.to/lastmile_qr_scan"}, "name": "8772338635b8fa65d484289efd956a4b", "is_reserved": 0}, {"is_disabled": 0, "fusion_lon": 0.0, "fusion_lat": 0.0, "lat": 38.92587316666667, "type": "electric_scooter", "lon": -77.02286916666667, "bike_id": "ab2e6c8712a6543c66275ccfe50f0af9", "rental_uris": {"android": "https://dc.lft.to/lastmile_qr_scan", "ios": "https://dc.lft.to/lastmile_qr_scan"}, "name": "ab2e6c8712a6543c66275ccfe50f0af9", "is_reserved": 0}, {"is_disabled": 0, "fusion_lon": 0.0, "fusion_lat": 0.0, "lat": 38.9181445, "type": "electric_scooter", "lon": -77.040035, "bike_id": "b771f080290fc98da082606fff7dcfbf", "rental_uris": {"android": "https://dc.lft.to/lastmile_qr_scan", "ios": "https://dc.lft.to/lastmile_qr_scan"}, "name": "b771f080290fc98da082606fff7dcfbf", "is_reserved": 0}, {"is_disabled": 0, "fusion_lon": 0.0, "fusion_lat": 0.0, "lat": 38.9417755, "type": "electric_scooter", "lon": -77.03653183333333, "bike_id": "d09abbfe218c921b8e67fd5cb00f52c3", "rental_uris": {"android": "https://dc.lft.to/lastmile_qr_scan", "ios": "https://dc.lft.to/lastmile_qr_scan"}, "name": "d09abbfe218c921b8e67fd5cb00f52c3", "is_reserved": 0}, {"is_disabled": 0, "fusion_lon": 0.0, "fusion_lat": 0.0, "lat": 38.897620333333336, "type": "electric_scooter", "lon": -77.02470933333333, "bike_id": "70820c3b795f3733bc0b846cfc8e26fc", "rental_uris": {"android": "https://dc.lft.to/lastmile_qr_scan", "ios": "https://dc.lft.to/lastmile_qr_scan"}, "name": "70820c3b795f3733bc0b846cfc8e26fc", "is_reserved": 0}, {"is_disabled": 0, "fusion_lon": 0.0, "fusion_lat": 0.0, "lat": 38.95648883333333, "type": "electric_scooter", "lon": -77.01494983333333, "bike_id": "c80d472d70e897b3804105f4f6b86b6f", "rental_uris": {"android": "https://dc.lft.to/lastmile_qr_scan", "ios": "https://dc.lft.to/lastmile_qr_scan"}, "name": "c80d472d70e897b3804105f4f6b86b6f", "is_reserved": 0}, {"is_disabled": 0, "fusion_lon": 0.0, "fusion_lat": 0.0, "lat": 38.902127666666665, "type": "electric_scooter", "lon": -77.04782, "bike_id": "9470aea9cd35692bdf13a720b4be33ea", "rental_uris": {"android": "https://dc.lft.to/lastmile_qr_scan", "ios": "https://dc.lft.to/lastmile_qr_scan"}, "name": "9470aea9cd35692bdf13a720b4be33ea", "is_reserved": 0}, {"is_disabled": 0, "fusion_lon": 0.0, "fusion_lat": 0.0, "lat": 38.921547833333335, "type": "electric_scooter", "lon": -77.03394783333333, "bike_id": "baad7ddbc8cf0dd00bc7510a2da1885a", "rental_uris": {"android": "https://dc.lft.to/lastmile_qr_scan", "ios": "https://dc.lft.to/lastmile_qr_scan"}, "name": "baad7ddbc8cf0dd00bc7510a2da1885a", "is_reserved": 0}, {"is_disabled": 0, "fusion_lon": 0.0, "fusion_lat": 0.0, "lat": 38.900293833333336, "type": "electric_scooter", "lon": -76.99872166666667, "bike_id": "4a06de9d091bbb48d5c90238efafbec8", "rental_uris": {"android": "https://dc.lft.to/lastmile_qr_scan", "ios": "https://dc.lft.to/lastmile_qr_scan"}, "name": "4a06de9d091bbb48d5c90238efafbec8", "is_reserved": 0}, {"is_disabled": 0, "fusion_lon": 0.0, "fusion_lat": 0.0, "lat": 38.92899383333334, "type": "electric_scooter", "lon": -77.031714, "bike_id": "245b224b436be91338fb9c12abdd95c6", "rental_uris": {"android": "https://dc.lft.to/lastmile_qr_scan", "ios": "https://dc.lft.to/lastmile_qr_scan"}, "name": "245b224b436be91338fb9c12abdd95c6", "is_reserved": 0}, {"is_disabled": 0, "fusion_lon": 0.0, "fusion_lat": 0.0, "lat": 38.92251683333333, "type": "electric_scooter", "lon": -77.03071916666667, "bike_id": "7c7efa03d615de3eb27a515d406a14bc", "rental_uris": {"android": "https://dc.lft.to/lastmile_qr_scan", "ios": "https://dc.lft.to/lastmile_qr_scan"}, "name": "7c7efa03d615de3eb27a515d406a14bc", "is_reserved": 0}, {"is_disabled": 0, "fusion_lon": 0.0, "fusion_lat": 0.0, "lat": 38.945501666666665, "type": "electric_scooter", "lon": -77.04243266666667, "bike_id": "4fe6833d4ea8b9af92c6f11ea76818b2", "rental_uris": {"android": "https://dc.lft.to/lastmile_qr_scan", "ios": "https://dc.lft.to/lastmile_qr_scan"}, "name": "4fe6833d4ea8b9af92c6f11ea76818b2", "is_reserved": 0}, {"is_disabled": 0, "fusion_lon": 0.0, "fusion_lat": 0.0, "lat": 38.879214, "type": "electric_scooter", "lon": -77.00050916666666, "bike_id": "437f4819d3de779f88f0651bf819b977", "rental_uris": {"android": "https://dc.lft.to/lastmile_qr_scan", "ios": "https://dc.lft.to/lastmile_qr_scan"}, "name": "437f4819d3de779f88f0651bf819b977", "is_reserved": 0}, {"is_disabled": 0, "fusion_lon": 0.0, "fusion_lat": 0.0, "lat": 38.90468716666667, "type": "electric_scooter", "lon": -77.03837433333334, "bike_id": "8f33eee52029a6a6ee1a6382966b8af3", "rental_uris": {"android": "https://dc.lft.to/lastmile_qr_scan", "ios": "https://dc.lft.to/lastmile_qr_scan"}, "name": "8f33eee52029a6a6ee1a6382966b8af3", "is_reserved": 0}, {"is_disabled": 0, "fusion_lon": 0.0, "fusion_lat": 0.0, "lat": 38.833487166666664, "type": "electric_bike", "lon": -76.96556466666667, "bike_id": "bbc8e7ab0c3c129f7922e6e151f47bb1", "rental_uris": {"android": "https://dc.lft.to/lastmile_qr_scan", "ios": "https://dc.lft.to/lastmile_qr_scan"}, "name": "bbc8e7ab0c3c129f7922e6e151f47bb1", "is_reserved": 0}, {"is_disabled": 0, "fusion_lon": 0.0, "fusion_lat": 0.0, "lat": 38.950596, "type": "electric_bike", "lon": -76.9673605, "bike_id": "1d701f64609320926984c2fc02030156", "rental_uris": {"android": "https://dc.lft.to/lastmile_qr_scan", "ios": "https://dc.lft.to/lastmile_qr_scan"}, "name": "1d701f64609320926984c2fc02030156", "is_reserved": 0}, {"is_disabled": 0, "fusion_lon": 0.0, "fusion_lat": 0.0, "lat": 38.892251, "type": "electric_scooter", "lon": -77.03201283333334, "bike_id": "843cf667e3f0e05d828b8674bf9ad0e2", "rental_uris": {"android": "https://dc.lft.to/lastmile_qr_scan", "ios": "https://dc.lft.to/lastmile_qr_scan"}, "name": "843cf667e3f0e05d828b8674bf9ad0e2", "is_reserved": 0}, {"is_disabled": 0, "fusion_lon": 0.0, "fusion_lat": 0.0, "lat": 38.9185355, "type": "electric_bike", "lon": -76.96089216666667, "bike_id": "26191bd67a66a08fa96ecbeec1081676", "rental_uris": {"android": "https://dc.lft.to/lastmile_qr_scan", "ios": "https://dc.lft.to/lastmile_qr_scan"}, "name": "26191bd67a66a08fa96ecbeec1081676", "is_reserved": 0}, {"is_disabled": 0, "fusion_lon": 0.0, "fusion_lat": 0.0, "lat": 38.88253866666667, "type": "electric_scooter", "lon": -77.003427, "bike_id": "29cec146e46b1c0d53036d506a7f8d6d", "rental_uris": {"android": "https://dc.lft.to/lastmile_qr_scan", "ios": "https://dc.lft.to/lastmile_qr_scan"}, "name": "29cec146e46b1c0d53036d506a7f8d6d", "is_reserved": 0}, {"is_disabled": 0, "fusion_lon": 0.0, "fusion_lat": 0.0, "lat": 38.86910683333333, "type": "electric_scooter", "lon": -77.01370016666667, "bike_id": "7fde2918a799d4c9bdce947c5432b74f", "rental_uris": {"android": "https://dc.lft.to/lastmile_qr_scan", "ios": "https://dc.lft.to/lastmile_qr_scan"}, "name": "7fde2918a799d4c9bdce947c5432b74f", "is_reserved": 0}, {"is_disabled": 0, "fusion_lon": 0.0, "fusion_lat": 0.0, "lat": 38.8684665, "type": "electric_bike", "lon": -77.09732866666667, "bike_id": "9796cf19e173332c732626fc433bdcf0", "rental_uris": {"android": "https://dc.lft.to/lastmile_qr_scan", "ios": "https://dc.lft.to/lastmile_qr_scan"}, "name": "9796cf19e173332c732626fc433bdcf0", "is_reserved": 0}, {"is_disabled": 0, "fusion_lon": 0.0, "fusion_lat": 0.0, "lat": 38.901438666666664, "type": "electric_scooter", "lon": -77.03044033333333, "bike_id": "6e70a3b22b527c3caa8f5aeedfda0730", "rental_uris": {"android": "https://dc.lft.to/lastmile_qr_scan", "ios": "https://dc.lft.to/lastmile_qr_scan"}, "name": "6e70a3b22b527c3caa8f5aeedfda0730", "is_reserved": 0}, {"is_disabled": 0, "fusion_lon": 0.0, "fusion_lat": 0.0, "lat": 38.96303783333333, "type": "electric_bike", "lon": -77.05761, "bike_id": "851932d487745d18b9ee78c12e87d75c", "rental_uris": {"android": "https://dc.lft.to/lastmile_qr_scan", "ios": "https://dc.lft.to/lastmile_qr_scan"}, "name": "851932d487745d18b9ee78c12e87d75c", "is_reserved": 0}, {"is_disabled": 0, "fusion_lon": 0.0, "fusion_lat": 0.0, "lat": 38.913334666666664, "type": "electric_scooter", "lon": -77.048679, "bike_id": "cfe6d6c13ca3ee4601da53677f689b6c", "rental_uris": {"android": "https://dc.lft.to/lastmile_qr_scan", "ios": "https://dc.lft.to/lastmile_qr_scan"}, "name": "cfe6d6c13ca3ee4601da53677f689b6c", "is_reserved": 0}, {"is_disabled": 0, "fusion_lon": 0.0, "fusion_lat": 0.0, "lat": 38.83316716666667, "type": "electric_scooter", "lon": -77.00003833333334, "bike_id": "2932bdba3dc8dc3c4f892c33800ad48f", "rental_uris": {"android": "https://dc.lft.to/lastmile_qr_scan", "ios": "https://dc.lft.to/lastmile_qr_scan"}, "name": "2932bdba3dc8dc3c4f892c33800ad48f", "is_reserved": 0}, {"is_disabled": 0, "fusion_lon": 0.0, "fusion_lat": 0.0, "lat": 38.870312, "type": "electric_scooter", "lon": -77.010727, "bike_id": "f17cacff3fc7535d8a04bda4d74d2005", "rental_uris": {"android": "https://dc.lft.to/lastmile_qr_scan", "ios": "https://dc.lft.to/lastmile_qr_scan"}, "name": "f17cacff3fc7535d8a04bda4d74d2005", "is_reserved": 0}, {"is_disabled": 0, "fusion_lon": 0.0, "fusion_lat": 0.0, "lat": 38.92825916666666, "type": "electric_scooter", "lon": -77.03707466666667, "bike_id": "db634b107586de1f4f65f3933a79eb48", "rental_uris": {"android": "https://dc.lft.to/lastmile_qr_scan", "ios": "https://dc.lft.to/lastmile_qr_scan"}, "name": "db634b107586de1f4f65f3933a79eb48", "is_reserved": 0}, {"is_disabled": 0, "fusion_lon": 0.0, "fusion_lat": 0.0, "lat": 38.91712666666667, "type": "electric_scooter", "lon": -77.02429316666667, "bike_id": "75ee6b2725a6aa18e92dda27d898484e", "rental_uris": {"android": "https://dc.lft.to/lastmile_qr_scan", "ios": "https://dc.lft.to/lastmile_qr_scan"}, "name": "75ee6b2725a6aa18e92dda27d898484e", "is_reserved": 0}, {"is_disabled": 0, "fusion_lon": 0.0, "fusion_lat": 0.0, "lat": 38.92590333333333, "type": "electric_scooter", "lon": -77.05547816666666, "bike_id": "c036d74339de3faa61c2bc261e555573", "rental_uris": {"android": "https://dc.lft.to/lastmile_qr_scan", "ios": "https://dc.lft.to/lastmile_qr_scan"}, "name": "c036d74339de3faa61c2bc261e555573", "is_reserved": 0}, {"is_disabled": 0, "fusion_lon": 0.0, "fusion_lat": 0.0, "lat": 38.9073965, "type": "electric_scooter", "lon": -77.03458516666667, "bike_id": "dd7cfeb8dc81acfe570009631c45e61c", "rental_uris": {"android": "https://dc.lft.to/lastmile_qr_scan", "ios": "https://dc.lft.to/lastmile_qr_scan"}, "name": "dd7cfeb8dc81acfe570009631c45e61c", "is_reserved": 0}, {"is_disabled": 0, "fusion_lon": 0.0, "fusion_lat": 0.0, "lat": 38.90811583333333, "type": "electric_scooter", "lon": -77.03456133333333, "bike_id": "259edbeaa5519f9a18c3c54c12a36e26", "rental_uris": {"android": "https://dc.lft.to/lastmile_qr_scan", "ios": "https://dc.lft.to/lastmile_qr_scan"}, "name": "259edbeaa5519f9a18c3c54c12a36e26", "is_reserved": 0}, {"is_disabled": 0, "fusion_lon": 0.0, "fusion_lat": 0.0, "lat": 38.95178583333333, "type": "electric_scooter", "lon": -77.056603, "bike_id": "5e195e9dc5defea3644a654ea591d38f", "rental_uris": {"android": "https://dc.lft.to/lastmile_qr_scan", "ios": "https://dc.lft.to/lastmile_qr_scan"}, "name": "5e195e9dc5defea3644a654ea591d38f", "is_reserved": 0}, {"is_disabled": 0, "fusion_lon": 0.0, "fusion_lat": 0.0, "lat": 38.83192, "type": "electric_bike", "lon": -77.07683383333334, "bike_id": "42073982eefcd520ace7077787c14a10", "rental_uris": {"android": "https://dc.lft.to/lastmile_qr_scan", "ios": "https://dc.lft.to/lastmile_qr_scan"}, "name": "42073982eefcd520ace7077787c14a10", "is_reserved": 0}, {"is_disabled": 0, "fusion_lon": 0.0, "fusion_lat": 0.0, "lat": 38.95541816666667, "type": "electric_bike", "lon": -76.93507533333333, "bike_id": "dbf74194ea391d8bcc7539eb4a0d1d83", "rental_uris": {"android": "https://dc.lft.to/lastmile_qr_scan", "ios": "https://dc.lft.to/lastmile_qr_scan"}, "name": "dbf74194ea391d8bcc7539eb4a0d1d83", "is_reserved": 0}, {"is_disabled": 0, "fusion_lon": 0.0, "fusion_lat": 0.0, "lat": 38.828695333333336, "type": "electric_bike", "lon": -77.11220666666667, "bike_id": "d489980f276dd7e9bb425edfe842b3a4", "rental_uris": {"android": "https://dc.lft.to/lastmile_qr_scan", "ios": "https://dc.lft.to/lastmile_qr_scan"}, "name": "d489980f276dd7e9bb425edfe842b3a4", "is_reserved": 0}, {"is_disabled": 0, "fusion_lon": 0.0, "fusion_lat": 0.0, "lat": 38.89668116666667, "type": "electric_scooter", "lon": -76.94718983333334, "bike_id": "e6cbba65bcefbfbc227fe6fc4d7df879", "rental_uris": {"android": "https://dc.lft.to/lastmile_qr_scan", "ios": "https://dc.lft.to/lastmile_qr_scan"}, "name": "e6cbba65bcefbfbc227fe6fc4d7df879", "is_reserved": 0}, {"is_disabled": 0, "fusion_lon": 0.0, "fusion_lat": 0.0, "lat": 38.8926115, "type": "electric_scooter", "lon": -77.03178816666667, "bike_id": "c55d1dc1eee303e30624461c8aeac815", "rental_uris": {"android": "https://dc.lft.to/lastmile_qr_scan", "ios": "https://dc.lft.to/lastmile_qr_scan"}, "name": "c55d1dc1eee303e30624461c8aeac815", "is_reserved": 0}, {"is_disabled": 0, "fusion_lon": 0.0, "fusion_lat": 0.0, "lat": 38.915409, "type": "electric_scooter", "lon": -77.01969883333334, "bike_id": "4c9da746e6935e0a748bf80afc75de13", "rental_uris": {"android": "https://dc.lft.to/lastmile_qr_scan", "ios": "https://dc.lft.to/lastmile_qr_scan"}, "name": "4c9da746e6935e0a748bf80afc75de13", "is_reserved": 0}, {"is_disabled": 0, "fusion_lon": 0.0, "fusion_lat": 0.0, "lat": 38.918716, "type": "electric_scooter", "lon": -76.96551916666667, "bike_id": "a47b4a34fbe6b4415fd31f8599c63389", "rental_uris": {"android": "https://dc.lft.to/lastmile_qr_scan", "ios": "https://dc.lft.to/lastmile_qr_scan"}, "name": "a47b4a34fbe6b4415fd31f8599c63389", "is_reserved": 0}, {"is_disabled": 0, "fusion_lon": 0.0, "fusion_lat": 0.0, "lat": 38.90033, "type": "electric_scooter", "lon": -77.01225233333334, "bike_id": "65b8a3b3bf8ae28c3b8fdf459a5bac75", "rental_uris": {"android": "https://dc.lft.to/lastmile_qr_scan", "ios": "https://dc.lft.to/lastmile_qr_scan"}, "name": "65b8a3b3bf8ae28c3b8fdf459a5bac75", "is_reserved": 0}, {"is_disabled": 0, "fusion_lon": 0.0, "fusion_lat": 0.0, "lat": 38.93399333333333, "type": "electric_scooter", "lon": -77.02730666666666, "bike_id": "e615bcb016c8c32af43fc5cc0d67bc0d", "rental_uris": {"android": "https://dc.lft.to/lastmile_qr_scan", "ios": "https://dc.lft.to/lastmile_qr_scan"}, "name": "e615bcb016c8c32af43fc5cc0d67bc0d", "is_reserved": 0}, {"is_disabled": 0, "fusion_lon": 0.0, "fusion_lat": 0.0, "lat": 38.917296, "type": "electric_scooter", "lon": -77.04172133333333, "bike_id": "a3fa0409566ede6c5a7471c9ea83780e", "rental_uris": {"android": "https://dc.lft.to/lastmile_qr_scan", "ios": "https://dc.lft.to/lastmile_qr_scan"}, "name": "a3fa0409566ede6c5a7471c9ea83780e", "is_reserved": 0}, {"is_disabled": 0, "fusion_lon": 0.0, "fusion_lat": 0.0, "lat": 38.90057183333333, "type": "electric_scooter", "lon": -77.034489, "bike_id": "ebe3e8b89125d07d884a64fe41b02c87", "rental_uris": {"android": "https://dc.lft.to/lastmile_qr_scan", "ios": "https://dc.lft.to/lastmile_qr_scan"}, "name": "ebe3e8b89125d07d884a64fe41b02c87", "is_reserved": 0}, {"is_disabled": 0, "fusion_lon": 0.0, "fusion_lat": 0.0, "lat": 38.895288666666666, "type": "electric_scooter", "lon": -77.02819783333334, "bike_id": "551b46df2d530096bc6bc07ec144c9be", "rental_uris": {"android": "https://dc.lft.to/lastmile_qr_scan", "ios": "https://dc.lft.to/lastmile_qr_scan"}, "name": "551b46df2d530096bc6bc07ec144c9be", "is_reserved": 0}, {"is_disabled": 0, "fusion_lon": 0.0, "fusion_lat": 0.0, "lat": 38.96601866666666, "type": "electric_bike", "lon": -76.983308, "bike_id": "0503d03ebd6cebc904f70906c0bf2bbd", "rental_uris": {"android": "https://dc.lft.to/lastmile_qr_scan", "ios": "https://dc.lft.to/lastmile_qr_scan"}, "name": "0503d03ebd6cebc904f70906c0bf2bbd", "is_reserved": 0}, {"is_disabled": 0, "fusion_lon": 0.0, "fusion_lat": 0.0, "lat": 38.84844483333333, "type": "electric_bike", "lon": -77.080467, "bike_id": "3bf9fe668f7f8f949a1e393c35f37f89", "rental_uris": {"android": "https://dc.lft.to/lastmile_qr_scan", "ios": "https://dc.lft.to/lastmile_qr_scan"}, "name": "3bf9fe668f7f8f949a1e393c35f37f89", "is_reserved": 0}, {"is_disabled": 0, "fusion_lon": 0.0, "fusion_lat": 0.0, "lat": 38.93559666666667, "type": "electric_scooter", "lon": -77.07355466666667, "bike_id": "16aa97ab589ab21891ad742c1d205140", "rental_uris": {"android": "https://dc.lft.to/lastmile_qr_scan", "ios": "https://dc.lft.to/lastmile_qr_scan"}, "name": "16aa97ab589ab21891ad742c1d205140", "is_reserved": 0}, {"is_disabled": 0, "fusion_lon": 0.0, "fusion_lat": 0.0, "lat": 38.908474, "type": "electric_scooter", "lon": -77.02387083333333, "bike_id": "539ead6ed62a2624ddf3892ee5c78e14", "rental_uris": {"android": "https://dc.lft.to/lastmile_qr_scan", "ios": "https://dc.lft.to/lastmile_qr_scan"}, "name": "539ead6ed62a2624ddf3892ee5c78e14", "is_reserved": 0}, {"is_disabled": 0, "fusion_lon": 0.0, "fusion_lat": 0.0, "lat": 38.9026605, "type": "electric_scooter", "lon": -77.03652283333334, "bike_id": "0136fec8009f161012c1ae5b99ec6064", "rental_uris": {"android": "https://dc.lft.to/lastmile_qr_scan", "ios": "https://dc.lft.to/lastmile_qr_scan"}, "name": "0136fec8009f161012c1ae5b99ec6064", "is_reserved": 0}, {"is_disabled": 0, "fusion_lon": 0.0, "fusion_lat": 0.0, "lat": 38.90195116666666, "type": "electric_scooter", "lon": -77.0210625, "bike_id": "ddc7bf83832358680ee4717643f9aa11", "rental_uris": {"android": "https://dc.lft.to/lastmile_qr_scan", "ios": "https://dc.lft.to/lastmile_qr_scan"}, "name": "ddc7bf83832358680ee4717643f9aa11", "is_reserved": 0}, {"is_disabled": 0, "fusion_lon": 0.0, "fusion_lat": 0.0, "lat": 38.8757715, "type": "electric_scooter", "lon": -77.01994433333333, "bike_id": "b7ce2252f45c5382b02645cf0faff5ab", "rental_uris": {"android": "https://dc.lft.to/lastmile_qr_scan", "ios": "https://dc.lft.to/lastmile_qr_scan"}, "name": "b7ce2252f45c5382b02645cf0faff5ab", "is_reserved": 0}, {"is_disabled": 0, "fusion_lon": 0.0, "fusion_lat": 0.0, "lat": 38.9178865, "type": "electric_scooter", "lon": -77.03656966666667, "bike_id": "40a6a331116f7bd234ca255473838aaa", "rental_uris": {"android": "https://dc.lft.to/lastmile_qr_scan", "ios": "https://dc.lft.to/lastmile_qr_scan"}, "name": "40a6a331116f7bd234ca255473838aaa", "is_reserved": 0}, {"is_disabled": 0, "fusion_lon": 0.0, "fusion_lat": 0.0, "lat": 38.91702033333333, "type": "electric_scooter", "lon": -77.03232733333333, "bike_id": "30263b493f2eb301439f42c49af4611c", "rental_uris": {"android": "https://dc.lft.to/lastmile_qr_scan", "ios": "https://dc.lft.to/lastmile_qr_scan"}, "name": "30263b493f2eb301439f42c49af4611c", "is_reserved": 0}, {"is_disabled": 0, "fusion_lon": 0.0, "fusion_lat": 0.0, "lat": 38.90129483333333, "type": "electric_scooter", "lon": -77.01197183333333, "bike_id": "26f68842b69effeeff4a40ee546ccf4f", "rental_uris": {"android": "https://dc.lft.to/lastmile_qr_scan", "ios": "https://dc.lft.to/lastmile_qr_scan"}, "name": "26f68842b69effeeff4a40ee546ccf4f", "is_reserved": 0}, {"is_disabled": 0, "fusion_lon": 0.0, "fusion_lat": 0.0, "lat": 38.998695166666664, "type": "electric_bike", "lon": -77.02874716666666, "bike_id": "29ae6e29f0b0ce8105a7e077fa1efec0", "rental_uris": {"android": "https://dc.lft.to/lastmile_qr_scan", "ios": "https://dc.lft.to/lastmile_qr_scan"}, "name": "29ae6e29f0b0ce8105a7e077fa1efec0", "is_reserved": 0}, {"is_disabled": 0, "fusion_lon": 0.0, "fusion_lat": 0.0, "lat": 38.91562716666667, "type": "electric_scooter", "lon": -77.04171766666667, "bike_id": "2eb4b704a7e02a3281b038ec1265ff70", "rental_uris": {"android": "https://dc.lft.to/lastmile_qr_scan", "ios": "https://dc.lft.to/lastmile_qr_scan"}, "name": "2eb4b704a7e02a3281b038ec1265ff70", "is_reserved": 0},