{"data": {"bikes": [{"rental_uris": {"android": "https://dc.lft.to/lastmile_qr_scan", "ios": "https://dc.lft.to/lastmile_qr_scan"}, "is_reserved": 0, "is_disabled": 0, "name": "537b7de89eff3e8272a984d8727581d0", "bike_id": "537b7de89eff3e8272a984d8727581d0", "fusion_lat": 0.0, "lon": -77.0195915, "type": "electric_scooter", "fusion_lon": 0.0, "lat": 38.923257666666665}, {"rental_uris": {"android": "https://dc.lft.to/lastmile_qr_scan", "ios": "https://dc.lft.to/lastmile_qr_scan"}, "is_reserved": 0, "is_disabled": 0, "name": "d32a384aafd773b027c402df854f0a27", "bike_id": "d32a384aafd773b027c402df854f0a27", "fusion_lat": 0.0, "lon": -77.052757, "type": "electric_scooter", "fusion_lon": 0.0, "lat": 38.925538333333336}, {"rental_uris": {"android": "https://dc.lft.to/lastmile_qr_scan", "ios": "https://dc.lft.to/lastmile_qr_scan"}, "is_reserved": 0, "is_disabled": 0, "name": "a7e2b369abd220984a91f24d15b3abfe", "bike_id": "a7e2b369abd220984a91f24d15b3abfe", "fusion_lat": 0.0, "lon": -77.12837933333333, "type": "electric_bike", "fusion_lon": 0.0, "lat": 38.80054633333334}, {"rental_uris": {"android": "https://dc.lft.to/lastmile_qr_scan", "ios": "https://dc.lft.to/lastmile_qr_scan"}, "is_reserved": 0, "is_disabled": 0, "name": "b1692dc66e0f70163943aff9bb1a40b5", "bike_id": "b1692dc66e0f70163943aff9bb1a40b5", "fusion_lat": 0.0, "lon": -77.007958, "type": "electric_scooter", "fusion_lon": 0.0, "lat": 38.95247466666667}, {"rental_uris": {"android": "https://dc.lft.to/lastmile_qr_scan", "ios": "https://dc.lft.to/lastmile_qr_scan"}, "is_reserved": 0, "is_disabled": 0, "name": "56f86ce51edb975c6efc41a7770725a9", "bike_id": "56f86ce51edb975c6efc41a7770725a9", "fusion_lat": 0.0, "lon": -77.04500783333333, "type": "electric_bike", "fusion_lon": 0.0, "lat": 38.903468}, {"rental_uris": {"android": "https://dc.lft.to/lastmile_qr_scan", "ios": "https://dc.lft.to/lastmile_qr_scan"}, "is_reserved": 0, "is_disabled": 0, "name": "effc7de35f827f40ad5a79bd031d064d", "bike_id": "effc7de35f827f40ad5a79bd031d064d", "fusion_lat": 0.0, "lon": -77.00715383333333, "type": "electric_scooter", "fusion_lon": 0.0, "lat": 38.884903}, {"rental_uris": {"android": "https://dc.lft.to/lastmile_qr_scan", "ios": "https://dc.lft.to/lastmile_qr_scan"}, "is_reserved": 0, "is_disabled": 0, "name": "a52efb676a81a8f2767ed461bd8679e4", "bike_id": "a52efb676a81a8f2767ed461bd8679e4", "fusion_lat": 0.0, "lon": -77.00163966666666, "type": "electric_scooter", "fusion_lon": 0.0, "lat": 38.91915}, {"rental_uris": {"android": "https://dc.lft.to/lastmile_qr_scan", "ios": "https://dc.lft.to/lastmile_qr_scan"}, "is_reserved": 0, "is_disabled": 0, "name": "f52883c70078856a2950907f9eecf3ce", "bike_id": "f52883c70078856a2950907f9eecf3ce", "fusion_lat": 0.0, "lon": -77.03076333333334, "type": "electric_scooter", "fusion_lon": 0.0, "lat": 38.9000735}, {"rental_uris": {"android": "https://dc.lft.to/lastmile_qr_scan", "ios": "https://dc.lft.to/lastmile_qr_scan"}, "is_reserved": 0, "is_disabled": 0, "name": "55f9ba95dab22a8df164c9cfa4cac993", "bike_id": "55f9ba95dab22a8df164c9cfa4cac993", "fusion_lat": 0.0, "lon": -77.03782216666667, "type": "electric_scooter", "fusion_lon": 0.0, "lat": 38.9255275}, {"rental_uris": {"android": "https://dc.lft.to/lastmile_qr_scan", "ios": "https://dc.lft.to/lastmile_qr_scan"}, "is_reserved": 0, "is_disabled": 0, "name": "cca8d47f51c21dcc3c1cfcfbddb6fc03", "bike_id": "cca8d47f51c21dcc3c1cfcfbddb6fc03", "fusion_lat": 0.0, "lon": -77.04531666666666, "type": "electric_scooter", "fusion_lon": 0.0, "lat": 38.90243016666667}, {"rental_uris": {"android": "https://dc.lft.to/lastmile_qr_scan", "ios": "https://dc.lft.to/lastmile_qr_scan"}, "is_reserved": 0, "is_disabled": 0, "name": "00a4f01d00aa773975a9309872d2f527", "bike_id": "00a4f01d00aa773975a9309872d2f527", "fusion_lat": 0.0, "lon": -77.03832166666666, "type": "electric_scooter", "fusion_lon": 0.0, "lat": 38.9110545}, {"rental_uris": {"android": "https://dc.lft.to/lastmile_qr_scan", "ios": "https://dc.lft.to/lastmile_qr_scan"}, "is_reserved": 0, "is_disabled": 0, "name": "b586071e8ae62f0a7ba90da78f577304", "bike_id": "b586071e8ae62f0a7ba90da78f577304", "fusion_lat": 0.0, "lon": -76.94768966666666, "type": "electric_scooter", "fusion_lon": 0.0, "lat": 38.896857833333335}, {"rental_uris": {"android": "https://dc.lft.to/lastmile_qr_scan", "ios": "https://dc.lft.to/lastmile_qr_scan"}, "is_reserved": 0, "is_disabled": 0, "name": "3438d5cebfc27e10cbbb9d51c7213376", "bike_id": "3438d5cebfc27e10cbbb9d51c7213376", "fusion_lat": 0.0, "lon": -77.00898916666667, "type": "electric_scooter", "fusion_lon": 0.0, "lat": 38.909678}, {"rental_uris": {"android": "https://dc.lft.to/lastmile_qr_scan", "ios": "https://dc.lft.to/lastmile_qr_scan"}, "is_reserved": 0, "is_disabled": 0, "name": "ad6b6cb028a4baa393b785decfaedc9c", "bike_id": "ad6b6cb028a4baa393b785decfaedc9c", "fusion_lat": 0.0, "lon": -77.031706, "type": "electric_scooter", "fusion_lon": 0.0, "lat": 38.90000416666667}, {"rental_uris": {"android": "https://dc.lft.to/lastmile_qr_scan", "ios": "https://dc.lft.to/lastmile_qr_scan"}, "is_reserved": 0, "is_disabled": 0, "name": "a3413c4119081dc9b23efc07bbc50b8e", "bike_id": "a3413c4119081dc9b23efc07bbc50b8e", "fusion_lat": 0.0, "lon": -77.02275316666666, "type": "electric_scooter", "fusion_lon": 0.0, "lat": 38.89986783333333}, {"rental_uris": {"android": "https://dc.lft.to/lastmile_qr_scan", "ios": "https://dc.lft.to/lastmile_qr_scan"}, "is_reserved": 0, "is_disabled": 0, "name": "da4d46a20417fec9816d37e960045dea", "bike_id": "da4d46a20417fec9816d37e960045dea", "fusion_lat": 0.0, "lon": -77.0851035, "type": "electric_bike", "fusion_lon": 0.0, "lat": 38.8631585}, {"rental_uris": {"android": "https://dc.lft.to/lastmile_qr_scan", "ios": "https://dc.lft.to/lastmile_qr_scan"}, "is_reserved": 0, "is_disabled": 0, "name": "f38a9aa5cb3929dc6c2c4d17b072bf6c", "bike_id": "f38a9aa5cb3929dc6c2c4d17b072bf6c", "fusion_lat": 0.0, "lon": -77.09456583333333, "type": "electric_bike", "fusion_lon": 0.0, "lat": 38.80755466666667}, {"rental_uris": {"android": "https://dc.lft.to/lastmile_qr_scan", "ios": "https://dc.lft.to/lastmile_qr_scan"}, "is_reserved": 0, "is_disabled": 0, "name": "5fbed6309aefacdaf9113f3f259cf5ef", "bike_id": "5fbed6309aefacdaf9113f3f259cf5ef", "fusion_lat": 0.0, "lon": -77.06910583333334, "type": "electric_scooter", "fusion_lon": 0.0, "lat": 38.9166025}, {"rental_uris": {"android": "https://dc.lft.to/lastmile_qr_scan", "ios": "https://dc.lft.to/lastmile_qr_scan"}, "is_reserved": 0, "is_disabled": 0, "name": "6aadcfc721a232f1fbcd04015259acdc", "bike_id": "6aadcfc721a232f1fbcd04015259acdc", "fusion_lat": 0.0, "lon": -77.04682783333334, "type": "electric_scooter", "fusion_lon": 0.0, "lat": 38.89505916666667}, {"rental_uris": {"android": "https://dc.lft.to/lastmile_qr_scan", "ios": "https://dc.lft.to/lastmile_qr_scan"}, "is_reserved": 0, "is_disabled": 0, "name": "854e38942a474c4c2f3268a9f7516b3b", "bike_id": "854e38942a474c4c2f3268a9f7516b3b", "fusion_lat": 0.0, "lon": -77.0395085, "type": "electric_scooter", "fusion_lon": 0.0, "lat": 38.8984195}, {"rental_uris": {"android": "https://dc.lft.to/lastmile_qr_scan", "ios": "https://dc.lft.to/lastmile_qr_scan"}, "is_reserved": 0, "is_disabled": 0, "name": "74928638a5615c6ff7fa1da4b2e119da", "bike_id": "74928638a5615c6ff7fa1da4b2e119da", "fusion_lat": 0.0, "lon": -76.96089766666667, "type": "electric_scooter", "fusion_lon": 0.0, "lat": 38.91862416666667}, {"rental_uris": {"android": "https://dc.lft.to/lastmile_qr_scan", "ios": "https://dc.lft.to/lastmile_qr_scan"}, "is_reserved": 0, "is_disabled": 0, "name": "00f1e12517b1d28543175b6571f167a5", "bike_id": "00f1e12517b1d28543175b6571f167a5", "fusion_lat": 0.0, "lon": -77.03214983333334, "type": "electric_scooter", "fusion_lon": 0.0, "lat": 38.90724216666667}, {"rental_uris": {"android": "https://dc.lft.to/lastmile_qr_scan", "ios": "https://dc.lft.to/lastmile_qr_scan"}, "is_reserved": 0, "is_disabled": 0, "name": "dd0326d3ab10ab5a0827abfd0c10f22c", "bike_id": "dd0326d3ab10ab5a0827abfd0c10f22c", "fusion_lat": 0.0, "lon": -77.04409616666666, "type": "electric_scooter", "fusion_lon": 0.0, "lat": 38.89591633333333}, {"rental_uris": {"android": "https://dc.lft.to/lastmile_qr_scan", "ios": "https://dc.lft.to/lastmile_qr_scan"}, "is_reserved": 0, "is_disabled": 0, "name": "bb939e1cd24d8bcf8beb1baf5b7ad8aa", "bike_id": "bb939e1cd24d8bcf8beb1baf5b7ad8aa", "fusion_lat": 0.0, "lon": -77.02145583333333, "type": "electric_scooter", "fusion_lon": 0.0, "lat": 38.92746966666667}, {"rental_uris": {"android": "https://dc.lft.to/lastmile_qr_scan", "ios": "https://dc.lft.to/lastmile_qr_scan"}, "is_reserved": 0, "is_disabled": 0, "name": "5407254bfed74f620b7608630da145e3", "bike_id": "5407254bfed74f620b7608630da145e3", "fusion_lat": 0.0, "lon": -77.11415366666667, "type": "electric_bike", "fusion_lon": 0.0, "lat": 38.873187333333334}, {"rental_uris": {"android": "https://dc.lft.to/lastmile_qr_scan", "ios": "https://dc.lft.to/lastmile_qr_scan"}, "is_reserved": 0, "is_disabled": 0, "name": "60f89aa7cd83d5b081bf1b03bb38a8db", "bike_id": "60f89aa7cd83d5b081bf1b03bb38a8db", "fusion_lat": 0.0, "lon": -77.04172416666667, "type": "electric_scooter", "fusion_lon": 0.0, "lat": 38.89732216666667}, {"rental_uris": {"android": "https://dc.lft.to/lastmile_qr_scan", "ios": "https://dc.lft.to/lastmile_qr_scan"}, "is_reserved": 0, "is_disabled": 0, "name": "cb616eb044953f96ad0637cb7c4dfea4", "bike_id": "cb616eb044953f96ad0637cb7c4dfea4", "fusion_lat": 0.0, "lon": -77.00890833333334, "type": "electric_bike", "fusion_lon": 0.0, "lat": 38.92147033333333}, {"rental_uris": {"android": "https://dc.lft.to/lastmile_qr_scan", "ios": "https://dc.lft.to/lastmile_qr_scan"}, "is_reserved": 0, "is_disabled": 0, "name": "56db5b1f5280429eee831c074eb7db8e", "bike_id": "56db5b1f5280429eee831c074eb7db8e", "fusion_lat": 0.0, "lon": -77.03791616666666, "type": "electric_scooter", "fusion_lon": 0.0, "lat": 38.9332035}, {"rental_uris": {"android": "https://dc.lft.to/lastmile_qr_scan", "ios": "https://dc.lft.to/lastmile_qr_scan"}, "is_reserved": 0, "is_disabled": 0, "name": "299868d7441d6cee1184529e839095ae", "bike_id": "299868d7441d6cee1184529e839095ae", "fusion_lat": 0.0, "lon": -77.0450535, "type": "electric_scooter", "fusion_lon": 0.0, "lat": 38.8922305}, {"rental_uris": {"android": "https://dc.lft.to/lastmile_qr_scan", "ios": "https://dc.lft.to/lastmile_qr_scan"}, "is_reserved": 0, "is_disabled": 0, "name": "dc629614dbf38d1762bab2bd5d015c3d", "bike_id": "dc629614dbf38d1762bab2bd5d015c3d", "fusion_lat": 0.0, "lon": -77.03181966666666, "type": "electric_scooter", "fusion_lon": 0.0, "lat": 38.915881666666664}, {"rental_uris": {"android": "https://dc.lft.to/lastmile_qr_scan", "ios": "https://dc.lft.to/lastmile_qr_scan"}, "is_reserved": 0, "is_disabled": 0, "name": "94d7890c5cbf623fc5cdf530c4d3eab1", "bike_id": "94d7890c5cbf623fc5cdf530c4d3eab1", "fusion_lat": 0.0, "lon": -77.06702283333334, "type": "electric_scooter", "fusion_lon": 0.0, "lat": 38.94992233333333}, {"rental_uris": {"android": "https://dc.lft.to/lastmile_qr_scan", "ios": "https://dc.lft.to/lastmile_qr_scan"}, "is_reserved": 0, "is_disabled": 0, "name": "39d54b01ff2740997a06cb0ed7f55814", "bike_id": "39d54b01ff2740997a06cb0ed7f55814", "fusion_lat": 0.0, "lon": -77.01377533333333, "type": "electric_scooter", "fusion_lon": 0.0, "lat": 38.89913716666667}, {"rental_uris": {"android": "https://dc.lft.to/lastmile_qr_scan", "ios": "https://dc.lft.to/lastmile_qr_scan"}, "is_reserved": 0, "is_disabled": 0, "name": "335c849c85d8b64ddcc2a34c54e45f28", "bike_id": "335c849c85d8b64ddcc2a34c54e45f28", "fusion_lat": 0.0, "lon": -76.98338266666667, "type": "electric_scooter", "fusion_lon": 0.0, "lat": 38.8954635}, {"rental_uris": {"android": "https://dc.lft.to/lastmile_qr_scan", "ios": "https://dc.lft.to/lastmile_qr_scan"}, "is_reserved": 0, "is_disabled": 0, "name": "abd9dd799a3d1d30d4c43987a3f678ce", "bike_id": "abd9dd799a3d1d30d4c43987a3f678ce", "fusion_lat": 0.0, "lon": -77.034832, "type": "electric_scooter", "fusion_lon": 0.0, "lat": 38.9156525}, {"rental_uris": {"android": "https://dc.lft.to/lastmile_qr_scan", "ios": "https://dc.lft.to/lastmile_qr_scan"}, "is_reserved": 0, "is_disabled": 0, "name": "e8d1c4e0aaca2fbcd432f15334711554", "bike_id": "e8d1c4e0aaca2fbcd432f15334711554", "fusion_lat": 0.0, "lon": -77.0377215, "type": "electric_scooter", "fusion_lon": 0.0, "lat": 38.90703516666667}, {"rental_uris": {"android": "https://dc.lft.to/lastmile_qr_scan", "ios": "https://dc.lft.to/lastmile_qr_scan"}, "is_reserved": 0, "is_disabled": 0, "name": "b69808ad3d3c15ad530240decb96da65", "bike_id": "b69808ad3d3c15ad530240decb96da65", "fusion_lat": 0.0, "lon": -77.02158016666667, "type": "electric_scooter", "fusion_lon": 0.0, "lat": 38.924617166666664}, {"rental_uris": {"android": "https://dc.lft.to/lastmile_qr_scan", "ios": "https://dc.lft.to/lastmile_qr_scan"}, "is_reserved": 0, "is_disabled": 0, "name": "30fb7a5ed1baf24dd52b39ca38cef7c7", "bike_id": "30fb7a5ed1baf24dd52b39ca38cef7c7", "fusion_lat": 0.0, "lon": -77.02411116666667, "type": "electric_scooter", "fusion_lon": 0.0, "lat": 38.895076}, {"rental_uris": {"android": "https://dc.lft.to/lastmile_qr_scan", "ios": "https://dc.lft.to/lastmile_qr_scan"}, "is_reserved": 0, "is_disabled": 0, "name": "cc046c6a1a91bdcaa8ecf69808a05639", "bike_id": "cc046c6a1a91bdcaa8ecf69808a05639", "fusion_lat": 0.0, "lon": -77.03203433333333, "type": "electric_scooter", "fusion_lon": 0.0, "lat": 38.91784716666667}, {"rental_uris": {"android": "https://dc.lft.to/lastmile_qr_scan", "ios": "https://dc.lft.to/lastmile_qr_scan"}, "is_reserved": 0, "is_disabled": 0, "name": "1562238b7c77ff04f2f20a33d1364a75", "bike_id": "1562238b7c77ff04f2f20a33d1364a75", "fusion_lat": 0.0, "lon": -77.007463, "type": "electric_scooter", "fusion_lon": 0.0, "lat": 38.87133583333333}, {"rental_uris": {"android": "https://dc.lft.to/lastmile_qr_scan", "ios": "https://dc.lft.to/lastmile_qr_scan"}, "is_reserved": 0, "is_disabled": 0, "name": "9357d32c3f82262f4ac53a11eefd3b55", "bike_id": "9357d32c3f82262f4ac53a11eefd3b55", "fusion_lat": 0.0, "lon": -77.034389, "type": "electric_scooter", "fusion_lon": 0.0, "lat": 38.90305816666667}, {"rental_uris": {"android": "https://dc.lft.to/lastmile_qr_scan", "ios": "https://dc.lft.to/lastmile_qr_scan"}, "is_reserved": 0, "is_disabled": 0, "name": "089c710f78ade7ee3abfaad843456511", "bike_id": "089c710f78ade7ee3abfaad843456511", "fusion_lat": 0.0, "lon": -76.97070783333334, "type": "electric_bike", "fusion_lon": 0.0, "lat": 38.920617166666666}, {"rental_uris": {"android": "https://dc.lft.to/lastmile_qr_scan", "ios": "https://dc.lft.to/lastmile_qr_scan"}, "is_reserved": 0, "is_disabled": 0, "name": "4cc40027209b062619d26d8d608a38ce", "bike_id": "4cc40027209b062619d26d8d608a38ce", "fusion_lat": 0.0, "lon": -77.04691883333334, "type": "electric_scooter", "fusion_lon": 0.0, "lat": 38.90264666666667}, {"rental_uris": {"android": "https://dc.lft.to/lastmile_qr_scan", "ios": "https://dc.lft.to/lastmile_qr_scan"}, "is_reserved": 0, "is_disabled": 0, "name": "b5433b004016ad39b30900792dd705a0", "bike_id": "b5433b004016ad39b30900792dd705a0", "fusion_lat": 0.0, "lon": -77.04335083333334, "type": "electric_scooter", "fusion_lon": 0.0, "lat": 38.923157333333336}, {"rental_uris": {"android": "https://dc.lft.to/lastmile_qr_scan", "ios": "https://dc.lft.to/lastmile_qr_scan"}, "is_reserved": 0, "is_disabled": 0, "name": "7ef5f0b65fbc54020b5daec963db3a77", "bike_id": "7ef5f0b65fbc54020b5daec963db3a77", "fusion_lat": 0.0, "lon": -77.01767116666667, "type": "electric_scooter", "fusion_lon": 0.0, "lat": 38.87700916666667}, {"rental_uris": {"android": "https://dc.lft.to/lastmile_qr_scan", "ios": "https://dc.lft.to/lastmile_qr_scan"}, "is_reserved": 0, "is_disabled": 0, "name": "c4b1da7dee4a5c758dceeafe01a0fc59", "bike_id": "c4b1da7dee4a5c758dceeafe01a0fc59", "fusion_lat": 0.0, "lon": -77.05025183333333, "type": "electric_scooter", "fusion_lon": 0.0, "lat": 38.89698683333334}, {"rental_uris": {"android": "https://dc.lft.to/lastmile_qr_scan", "ios": "https://dc.lft.to/lastmile_qr_scan"}, "is_reserved": 0, "is_disabled": 0, "name": "490833ade8a3ec8d6d349f78d927897b", "bike_id": "490833ade8a3ec8d6d349f78d927897b", "fusion_lat": 0.0, "lon": -77.04132416666667, "type": "electric_scooter", "fusion_lon": 0.0, "lat": 38.923633333333335}, {"rental_uris": {"android": "https://dc.lft.to/lastmile_qr_scan", "ios": "https://dc.lft.to/lastmile_qr_scan"}, "is_reserved": 0, "is_disabled": 0, "name": "0bd3bda5a02e389d24416b03b87db77e", "bike_id": "0bd3bda5a02e389d24416b03b87db77e", "fusion_lat": 0.0, "lon": -77.08978666666667, "type": "electric_bike", "fusion_lon": 0.0, "lat": 38.841032}, {"rental_uris": {"android": "https://dc.lft.to/lastmile_qr_scan", "ios": "https://dc.lft.to/lastmile_qr_scan"}, "is_reserved": 0, "is_disabled": 0, "name": "c2991db3b212e0955e1f3fd0d7512dec", "bike_id": "c2991db3b212e0955e1f3fd0d7512dec", "fusion_lat": 0.0, "lon": -77.02719933333333, "type": "electric_scooter", "fusion_lon": 0.0, "lat": 38.94956883333333}, {"rental_uris": {"android": "https://dc.lft.to/lastmile_qr_scan", "ios": "https://dc.lft.to/lastmile_qr_scan"}, "is_reserved": 0, "is_disabled": 0, "name": "a2f8767807250e7f4c55fe043ea9ab43", "bike_id": "a2f8767807250e7f4c55fe043ea9ab43", "fusion_lat": 0.0, "lon": -77.04239383333334, "type": "electric_scooter", "fusion_lon": 0.0, "lat": 38.92147283333333}, {"rental_uris": {"android": "https://dc.lft.to/lastmile_qr_scan", "ios": "https://dc.lft.to/lastmile_qr_scan"}, "is_reserved": 0, "is_disabled": 0, "name": "34fab2e9f661e787c3a1009aea42ba5b", "bike_id": "34fab2e9f661e787c3a1009aea42ba5b", "fusion_lat": 0.0, "lon": -77.00618166666666, "type": "electric_scooter", "fusion_lon": 0.0, "lat": 38.9016655}, {"rental_uris": {"android": "https://dc.lft.to/lastmile_qr_scan", "ios": "https://dc.lft.to/lastmile_qr_scan"}, "is_reserved": 0, "is_disabled": 0, "name": "f2b7835e9a6d60f88b4e89513f2a5d93", "bike_id": "f2b7835e9a6d60f88b4e89513f2a5d93", "fusion_lat": 0.0, "lon": -76.95705416666667, "type": "electric_bike", "fusion_lon": 0.0, "lat": 38.8888065}, {"rental_uris": {"android": "https://dc.lft.to/lastmile_qr_scan", "ios": "https://dc.lft.to/lastmile_qr_scan"}, "is_reserved": 0, "is_disabled": 0, "name": "b11a00527390a208c97c71bd3232aab3", "bike_id": "b11a00527390a208c97c71bd3232aab3", "fusion_lat": 0.0, "lon": -76.94714616666667, "type": "electric_scooter", "fusion_lon": 0.0, "lat": 38.890853166666666}, {"rental_uris": {"android": "https://dc.lft.to/lastmile_qr_scan", "ios": "https://dc.lft.to/lastmile_qr_scan"}, "is_reserved": 0, "is_disabled": 0, "name": "23e3df89d2c2ef641f32dd8dae691b6e", "bike_id": "23e3df89d2c2ef641f32dd8dae691b6e", "fusion_lat": 0.0, "lon": -77.04514783333333, "type": "electric_scooter", "fusion_lon": 0.0, "lat": 38.912858666666665}, {"rental_uris": {"android": "https://dc.lft.to/lastmile_qr_scan", "ios": "https://dc.lft.to/lastmile_qr_scan"}, "is_reserved": 0, "is_disabled": 0, "name": "35178a614bbc2a32d6132883d7816851", "bike_id": "35178a614bbc2a32d6132883d7816851", "fusion_lat": 0.0, "lon": -77.02146933333333, "type": "electric_scooter", "fusion_lon": 0.0, "lat": 38.9250125}, {"rental_uris": {"android": "https://dc.lft.to/lastmile_qr_scan", "ios": "https://dc.lft.to/lastmile_qr_scan"}, "is_reserved": 0, "is_disabled": 0, "name": "0510e016038e6d35189e6e60a75ebd25", "bike_id": "0510e016038e6d35189e6e60a75ebd25", "fusion_lat": 0.0, "lon": -77.0461435, "type": "electric_scooter", "fusion_lon": 0.0, "lat": 38.9222765}, {"rental_uris": {"android": "https://dc.lft.to/lastmile_qr_scan", "ios": "https://dc.lft.to/lastmile_qr_scan"}, "is_reserved": 0, "is_disabled": 0, "name": "d34b87df64b82a0b70ce64c6ce4b8000", "bike_id": "d34b87df64b82a0b70ce64c6ce4b8000", "fusion_lat": 0.0, "lon": -77.03940066666667, "type": "electric_scooter", "fusion_lon": 0.0, "lat": 38.90835883333333}, {"rental_uris": {"android": "https://dc.lft.to/lastmile_qr_scan", "ios": "https://dc.lft.to/lastmile_qr_scan"}, "is_reserved": 0, "is_disabled": 0, "name": "df19ac17ec62bf4b233813872411122e", "bike_id": "df19ac17ec62bf4b233813872411122e", "fusion_lat": 0.0, "lon": -76.983568, "type": "electric_scooter", "fusion_lon": 0.0, "lat": 38.887333166666664}, {"rental_uris": {"android": "https://dc.lft.to/lastmile_qr_scan", "ios": "https://dc.lft.to/lastmile_qr_scan"}, "is_reserved": 0, "is_disabled": 0, "name": "e26bd06c8360de159576abafe8efa057", "bike_id": "e26bd06c8360de159576abafe8efa057", "fusion_lat": 0.0, "lon": -77.02002316666666, "type": "electric_scooter", "fusion_lon": 0.0, "lat": 38.89450266666667}, {"rental_uris": {"android": "https://dc.lft.to/lastmile_qr_scan", "ios": "https://dc.lft.to/lastmile_qr_scan"}, "is_reserved": 0, "is_disabled": 0, "name": "903e23ed0cea817f134c6b448883fa17", "bike_id": "903e23ed0cea817f134c6b448883fa17", "fusion_lat": 0.0, "lon": -76.952461, "type": "electric_bike", "fusion_lon": 0.0, "lat": 38.88463983333333}, {"rental_uris": {"android": "https://dc.lft.to/lastmile_qr_scan", "ios": "https://dc.lft.to/lastmile_qr_scan"}, "is_reserved": 0, "is_disabled": 0, "name": "7c5a7dac174dfa84de41fd3533c80684", "bike_id": "7c5a7dac174dfa84de41fd3533c80684", "fusion_lat": 0.0, "lon": -76.94546716666666, "type": "electric_bike", "fusion_lon": 0.0, "lat": 38.98303933333333}, {"rental_uris": {"android": "https://dc.lft.to/lastmile_qr_scan", "ios": "https://dc.lft.to/lastmile_qr_scan"}, "is_reserved": 0, "is_disabled": 0, "name": "3e113757efc5a05c31b64f9e781bfb5c", "bike_id": "3e113757efc5a05c31b64f9e781bfb5c", "fusion_lat": 0.0, "lon": -77.04024533333333, "type": "electric_scooter", "fusion_lon": 0.0, "lat": 38.898378}, {"rental_uris": {"android": "https://dc.lft.to/lastmile_qr_scan", "ios": "https://dc.lft.to/lastmile_qr_scan"}, "is_reserved": 0, "is_disabled": 0, "name": "8d6aa10d6b1f63aa6febd188df41d18e", "bike_id": "8d6aa10d6b1f63aa6febd188df41d18e", "fusion_lat": 0.0, "lon": -77.0091505, "type": "electric_scooter", "fusion_lon": 0.0, "lat": 38.90024583333334}, {"rental_uris": {"android": "https://dc.lft.to/lastmile_qr_scan", "ios": "https://dc.lft.to/lastmile_qr_scan"}, "is_reserved": 0, "is_disabled": 0, "name": "773fbbdd6f0e10d97439507f0b4a5b48", "bike_id": "773fbbdd6f0e10d97439507f0b4a5b48", "fusion_lat": 0.0, "lon": -77.0289165, "type": "electric_scooter", "fusion_lon": 0.0, "lat": 38.91403833333333}, {"rental_uris": {"android": "https://dc.lft.to/lastmile_qr_scan", "ios": "https://dc.lft.to/lastmile_qr_scan"}, "is_reserved": 0, "is_disabled": 0, "name": "e8834194208ad445baa8d9317b8af967", "bike_id": "e8834194208ad445baa8d9317b8af967", "fusion_lat": 0.0, "lon": -77.0006355, "type": "electric_scooter", "fusion_lon": 0.0, "lat": 38.876560833333336}, {"rental_uris": {"android": "https://dc.lft.to/lastmile_qr_scan", "ios": "https://dc.lft.to/lastmile_qr_scan"}, "is_reserved": 0, "is_disabled": 0, "name": "45a04c15e19f3dec56ff0154cc9e7ad5", "bike_id": "45a04c15e19f3dec56ff0154cc9e7ad5", "fusion_lat": 0.0, "lon": -76.93754316666667, "type": "electric_scooter", "fusion_lon": 0.0, "lat": 38.8786115}, {"rental_uris": {"android": "https://dc.lft.to/lastmile_qr_scan", "ios": "https://dc.lft.to/lastmile_qr_scan"}, "is_reserved": 0, "is_disabled": 0, "name": "f2c69a4779f8135bf1c39b9438133140", "bike_id": "f2c69a4779f8135bf1c39b9438133140", "fusion_lat": 0.0, "lon": -77.00315533333334, "type": "electric_scooter", "fusion_lon": 0.0, "lat": 38.889899}, {"rental_uris": {"android": "https://dc.lft.to/lastmile_qr_scan", "ios": "https://dc.lft.to/lastmile_qr_scan"}, "is_reserved": 0, "is_disabled": 0, "name": "682ff01629a40723325c0b58afb4b09a", "bike_id": "682ff01629a40723325c0b58afb4b09a", "fusion_lat": 0.0, "lon": -77.02795216666667, "type": "electric_scooter", "fusion_lon": 0.0, "lat": 38.954098}, {"rental_uris": {"android": "https://dc.lft.to/lastmile_qr_scan", "ios": "https://dc.lft.to/lastmile_qr_scan"}, "is_reserved": 0, "is_disabled": 0, "name": "787e22615e06914fb94dbecbddf14653", "bike_id": "787e22615e06914fb94dbecbddf14653", "fusion_lat": 0.0, "lon": -76.99840866666666, "type": "electric_bike", "fusion_lon": 0.0, "lat": 38.88383133333333}, {"rental_uris": {"android": "https://dc.lft.to/lastmile_qr_scan", "ios": "https://dc.lft.to/lastmile_qr_scan"}, "is_reserved": 0, "is_disabled": 0, "name": "893b1bc407a1ee5e10d647a40241a682", "bike_id": "893b1bc407a1ee5e10d647a40241a682", "fusion_lat": 0.0, "lon": -77.03935966666667, "type": "electric_bike", "fusion_lon": 0.0, "lat": 38.801610333333336}, {"rental_uris": {"android": "https://dc.lft.to/lastmile_qr_scan", "ios": "https://dc.lft.to/lastmile_qr_scan"}, "is_reserved": 0, "is_disabled": 0, "name": "b6526739502ada5bbcef6c560c62f6ac", "bike_id": "b6526739502ada5bbcef6c560c62f6ac", "fusion_lat": 0.0, "lon": -77.02868566666666, "type": "electric_bike", "fusion_lon": 0.0, "lat": 38.92135916666667}, {"rental_uris": {"android": "https://dc.lft.to/lastmile_qr_scan", "ios": "https://dc.lft.to/lastmile_qr_scan"}, "is_reserved": 0, "is_disabled": 0, "name": "d635cbcdb6e7ebc159d13c0a6146494f", "bike_id": "d635cbcdb6e7ebc159d13c0a6146494f", "fusion_lat": 0.0, "lon": -77.031884, "type": "electric_bike", "fusion_lon": 0.0, "lat": 38.899472833333334}, {"rental_uris": {"android": "https://dc.lft.to/lastmile_qr_scan", "ios": "https://dc.lft.to/lastmile_qr_scan"}, "is_reserved": 0, "is_disabled": 0, "name": "e79fd53c6c5b4efc8257c86a82e8ae02", "bike_id": "e79fd53c6c5b4efc8257c86a82e8ae02", "fusion_lat": 0.0, "lon": -77.04481866666667, "type": "electric_scooter", "fusion_lon": 0.0, "lat": 38.90239566666666}, {"rental_uris": {"android": "https://dc.lft.to/lastmile_qr_scan", "ios": "https://dc.lft.to/lastmile_qr_scan"}, "is_reserved": 0, "is_disabled": 0, "name": "90c67174bfd78bae77fa07d0f54873ad", "bike_id": "90c67174bfd78bae77fa07d0f54873ad", "fusion_lat": 0.0, "lon": -77.01653533333334, "type": "electric_scooter", "fusion_lon": 0.0, "lat": 38.87707183333333}, {"rental_uris": {"android": "https://dc.lft.to/lastmile_qr_scan", "ios": "https://dc.lft.to/lastmile_qr_scan"}, "is_reserved": 0, "is_disabled": 0, "name": "defd940dc4ae3db96b01b67554b7ca63", "bike_id": "defd940dc4ae3db96b01b67554b7ca63", "fusion_lat": 0.0, "lon": -77.00760666666666, "type": "electric_bike", "fusion_lon": 0.0, "lat": 38.99782366666667}, {"rental_uris": {"android": "https://dc.lft.to/lastmile_qr_scan", "ios": "https://dc.lft.to/lastmile_qr_scan"}, "is_reserved": 0, "is_disabled": 0, "name": "2f88a28c78fe30c732be456509a4bf79", "bike_id": "2f88a28c78fe30c732be456509a4bf79", "fusion_lat": 0.0, "lon": -77.04628533333333, "type": "electric_scooter", "fusion_lon": 0.0, "lat": 38.90967083333334}, {"rental_uris": {"android": "https://dc.lft.to/lastmile_qr_scan", "ios": "https://dc.lft.to/lastmile_qr_scan"}, "is_reserved": 0, "is_disabled": 0, "name": "8e24a7b3c9563135216b660dcbf56706", "bike_id": "8e24a7b3c9563135216b660dcbf56706", "fusion_lat": 0.0, "lon": -77.020307, "type": "electric_scooter", "fusion_lon": 0.0, "lat": 38.922120166666666}, {"rental_uris": {"android": "https://dc.lft.to/lastmile_qr_scan", "ios": "https://dc.lft.to/lastmile_qr_scan"}, "is_reserved": 0, "is_disabled": 0, "name": "e7236391483a35ae0850e868210d5c41", "bike_id": "e7236391483a35ae0850e868210d5c41", "fusion_lat": 0.0, "lon": -77.04244916666667, "type": "electric_scooter", "fusion_lon": 0.0, "lat": 38.92199883333333}, {"rental_uris": {"android": "https://dc.lft.to/lastmile_qr_scan", "ios": "https://dc.lft.to/lastmile_qr_scan"}, "is_reserved": 0, "is_disabled": 0, "name": "2085665e582a7cb14080a996ce5d75c9", "bike_id": "2085665e582a7cb14080a996ce5d75c9", "fusion_lat": 0.0, "lon": -77.04464316666666, "type": "electric_scooter", "fusion_lon": 0.0, "lat": 38.90977216666667}, {"rental_uris": {"android": "https://dc.lft.to/lastmile_qr_scan", "ios": "https://dc.lft.to/lastmile_qr_scan"}, "is_reserved": 0, "is_disabled": 0, "name": "b23e2a7cff171e25f6ad65f61d7b0e55", "bike_id": "b23e2a7cff171e25f6ad65f61d7b0e55", "fusion_lat": 0.0, "lon": -77.021284, "type": "electric_scooter", "fusion_lon": 0.0, "lat": 38.92410433333333}, {"rental_uris": {"android": "https://dc.lft.to/lastmile_qr_scan", "ios": "https://dc.lft.to/lastmile_qr_scan"}, "is_reserved": 0, "is_disabled": 0, "name": "30d73a180f7a9067b45b28f0ef405069", "bike_id": "30d73a180f7a9067b45b28f0ef405069", "fusion_lat": 0.0, "lon": -77.02476533333333, "type": "electric_scooter", "fusion_lon": 0.0, "lat": 38.91816433333334}, {"rental_uris": {"android": "https://dc.lft.to/lastmile_qr_scan", "ios": "https://dc.lft.to/lastmile_qr_scan"}, "is_reserved": 0, "is_disabled": 0, "name": "a369f95ec774b2a7555791bebcb498cb", "bike_id": "a369f95ec774b2a7555791bebcb498cb", "fusion_lat": 0.0, "lon": -77.043506, "type": "electric_scooter", "fusion_lon": 0.0, "lat": 38.910964166666666}, {"rental_uris": {"android": "https://dc.lft.to/lastmile_qr_scan", "ios": "https://dc.lft.to/lastmile_qr_scan"}, "is_reserved": 0, "is_disabled": 0, "name": "ccd79def69688310acbea112a1a85eb3", "bike_id": "ccd79def69688310acbea112a1a85eb3", "fusion_lat": 0.0, "lon": -77.03971583333333, "type": "electric_scooter", "fusion_lon": 0.0, "lat": 38.90138783333333}, {"rental_uris": {"android": "https://dc.lft.to/lastmile_qr_scan", "ios": "https://dc.lft.to/lastmile_qr_scan"}, "is_reserved": 0, "is_disabled": 0, "name": "058b989bc40584255fad208cb0fdabe2", "bike_id": "058b989bc40584255fad208cb0fdabe2", "fusion_lat": 0.0, "lon": -77.01888633333333, "type": "electric_scooter", "fusion_lon": 0.0, "lat": 38.897469666666666}, {"rental_uris": {"android": "https://dc.lft.to/lastmile_qr_scan", "ios": "https://dc.lft.to/lastmile_qr_scan"}, "is_reserved": 0, "is_disabled": 0, "name": "ed5037e2134df2fd874c0eaead564134", "bike_id": "ed5037e2134df2fd874c0eaead564134", "fusion_lat": 0.0, "lon": -77.0237455, "type": "electric_scooter", "fusion_lon": 0.0, "lat": 38.89218133333333}, {"rental_uris": {"android": "https://dc.lft.to/lastmile_qr_scan", "ios": "https://dc.lft.to/lastmile_qr_scan"}, "is_reserved": 0, "is_disabled": 0, "name": "476dabad21c54f4ff2ffc2bcc6bb5124", "bike_id": "476dabad21c54f4ff2ffc2bcc6bb5124", "fusion_lat": 0.0, "lon": -77.0058945, "type": "electric_scooter", "fusion_lon": 0.0, "lat": 38.9057055}, {"rental_uris": {"android": "https://dc.lft.to/lastmile_qr_scan", "ios": "https://dc.lft.to/lastmile_qr_scan"}, "is_reserved": 0, "is_disabled": 0, "name": "238a01ea507399203866f481c17e0c40", "bike_id": "238a01ea507399203866f481c17e0c40", "fusion_lat": 0.0, "lon": -77.032776, "type": "electric_scooter", "fusion_lon": 0.0, "lat": 38.898508166666666}, {"rental_uris": {"android": "https://dc.lft.to/lastmile_qr_scan", "ios": "https://dc.lft.to/lastmile_qr_scan"}, "is_reserved": 0, "is_disabled": 0, "name": "bfb912bb184ffb26940bd95f16124111", "bike_id": "bfb912bb184ffb26940bd95f16124111", "fusion_lat": 0.0, "lon": -77.027425, "type": "electric_scooter", "fusion_lon": 0.0, "lat": 38.9519735}, {"rental_uris": {"android": "https://dc.lft.to/lastmile_qr_scan", "ios": "https://dc.lft.to/lastmile_qr_scan"}, "is_reserved": 0, "is_disabled": 0, "name": "e1e72bd3b8b40bcf6afa253d67bc408f", "bike_id": "e1e72bd3b8b40bcf6afa253d67bc408f", "fusion_lat": 0.0, "lon": -77.04463083333333, "type": "electric_scooter", "fusion_lon": 0.0, "lat": 38.91120733333333}, {"rental_uris": {"android": "https://dc.lft.to/lastmile_qr_scan", "ios": "https://dc.lft.to/lastmile_qr_scan"}, "is_reserved": 0, "is_disabled": 0, "name": "79455518ec62b3eb963fc246e959548f", "bike_id": "79455518ec62b3eb963fc246e959548f", "fusion_lat": 0.0, "lon": -77.00916733333334, "type": "electric_scooter", "fusion_lon": 0.0, "lat": 38.89552783333333}, {"rental_uris": {"android": "https://dc.lft.to/lastmile_qr_scan", "ios": "https://dc.lft.to/lastmile_qr_scan"}, "is_reserved": 0, "is_disabled": 0, "name": "84bbd3a2a1aebd539a41d965b5b10edf", "bike_id": "84bbd3a2a1aebd539a41d965b5b10edf", "fusion_lat": 0.0, "lon": -76.983602, "type": "electric_scooter", "fusion_lon": 0.0, "lat": 38.89722183333333}, {"rental_uris": {"android": "https://dc.lft.to/lastmile_qr_scan", "ios": "https://dc.lft.to/lastmile_qr_scan"}, "is_reserved": 0, "is_disabled": 0, "name": "6a0f480f8689f1250a0fb4afdef5f619", "bike_id": "6a0f480f8689f1250a0fb4afdef5f619", "fusion_lat": 0.0, "lon": -77.0072335, "type": "electric_scooter", "fusion_lon": 0.0, "lat": 38.9118785}, {"rental_uris": {"android": "https://dc.lft.to/lastmile_qr_scan", "ios": "https://dc.lft.to/lastmile_qr_scan"}, "is_reserved": 0, "is_disabled": 0, "name": "1ab3151c75635473c522227981dd7fd3", "bike_id": "1ab3151c75635473c522227981dd7fd3", "fusion_lat": 0.0, "lon": -77.05913066666666, "type": "electric_scooter", "fusion_lon": 0.0, "lat": 38.90143716666667}, {"rental_uris": {"android": "https://dc.lft.to/lastmile_qr_scan", "ios": "https://dc.lft.to/lastmile_qr_scan"}, "is_reserved": 0, "is_disabled": 0, "name": "86814c084a0e5fb11ec0fa175dac4147", "bike_id": "86814c084a0e5fb11ec0fa175dac4147", "fusion_lat": 0.0, "lon": -77.03008466666667, "type": "electric_bike", "fusion_lon": 0.0, "lat": 38.90026266666667}, {"rental_uris": {"android": "https://dc.lft.to/lastmile_qr_scan", "ios": "https://dc.lft.to/lastmile_qr_scan"}, "is_reserved": 0, "is_disabled": 0, "name": "11d1019946403f9c7e10e51e33412c33", "bike_id": "11d1019946403f9c7e10e51e33412c33", "fusion_lat": 0.0, "lon": -77.03138133333333, "type": "electric_scooter", "fusion_lon": 0.0, "lat": 38.922367}, {"rental_uris": {"android": "https://dc.lft.to/lastmile_qr_scan", "ios": "https://dc.lft.to/lastmile_qr_scan"}, "is_reserved": 0, "is_disabled": 0, "name": "0a574598497316a187b35e4c4ee00be7", "bike_id": "0a574598497316a187b35e4c4ee00be7", "fusion_lat": 0.0, "lon": -77.03797966666667, "type": "electric_scooter", "fusion_lon": 0.0, "lat": 38.907865666666666}, {"rental_uris": {"android": "https://dc.lft.to/lastmile_qr_scan", "ios": "https://dc.lft.to/lastmile_qr_scan"}, "is_reserved": 0, "is_disabled": 0, "name": "26ef3b49ab210383f862b823ca4c167a", "bike_id": "26ef3b49ab210383f862b823ca4c167a", "fusion_lat": 0.0, "lon": -77.01766083333334, "type": "electric_scooter", "fusion_lon": 0.0, "lat": 38.87700566666667}, {"rental_uris": {"android": "https://dc.lft.to/lastmile_qr_scan", "ios": "https://dc.lft.to/lastmile_qr_scan"}, "is_reserved": 0, "is_disabled": 0, "name": "e7a3eff9a8fb1d5722cb6e1704c2dce1", "bike_id": "e7a3eff9a8fb1d5722cb6e1704c2dce1", "fusion_lat": 0.0, "lon": -76.95359233333333, "type": "electric_scooter", "fusion_lon": 0.0, "lat": 38.88953466666667}, {"rental_uris": {"android": "https://dc.lft.to/lastmile_qr_scan", "ios": "https://dc.lft.to/lastmile_qr_scan"}, "is_reserved": 0, "is_disabled": 0, "name": "62c55b71fba450e426f8a8e4fa6b063a", "bike_id": "62c55b71fba450e426f8a8e4fa6b063a", "fusion_lat": 0.0, "lon": -77.016281, "type": "electric_scooter", "fusion_lon": 0.0, "lat": 38.88758966666666}, {"rental_uris": {"android": "https://dc.lft.to/lastmile_qr_scan", "ios": "https://dc.lft.to/lastmile_qr_scan"}, "is_reserved": 0, "is_disabled": 0, "name": "4839a6a49659a15de13cf811a2fdd7c3", "bike_id": "4839a6a49659a15de13cf811a2fdd7c3", "fusion_lat": 0.0, "lon": -77.0033855, "type": "electric_scooter", "fusion_lon": 0.0, "lat": 38.89349833333333}, {"rental_uris": {"android": "https://dc.lft.to/lastmile_qr_scan", "ios": "https://dc.lft.to/lastmile_qr_scan"}, "is_reserved": 0, "is_disabled": 0, "name": "6c24de060e9cb64d7ffe9ebaa28c105c", "bike_id": "6c24de060e9cb64d7ffe9ebaa28c105c", "fusion_lat": 0.0, "lon": -77.02786783333333, "type": "electric_scooter", "fusion_lon": 0.0, "lat": 38.961619166666665}, {"rental_uris": {"android": "https://dc.lft.to/lastmile_qr_scan", "ios": "https://dc.lft.to/lastmile_qr_scan"}, "is_reserved": 0, "is_disabled": 0, "name": "49cd4f996bdad5eae04e261ad6b6ff08", "bike_id": "49cd4f996bdad5eae04e261ad6b6ff08", "fusion_lat": 0.0, "lon": -77.01814883333333, "type": "electric_scooter", "fusion_lon": 0.0, "lat": 38.91405233333333}, {"rental_uris": {"android": "https://dc.lft.to/lastmile_qr_scan", "ios": "https://dc.lft.to/lastmile_qr_scan"}, "is_reserved": 0, "is_disabled": 0, "name": "b65fb0c50cc33b8464eb0d699e0cfaf1", "bike_id": "b65fb0c50cc33b8464eb0d699e0cfaf1", "fusion_lat": 0.0, "lon": -77.039467, "type": "electric_scooter", "fusion_lon": 0.0, "lat": 38.908094166666665}, {"rental_uris": {"android": "https://dc.lft.to/lastmile_qr_scan", "ios": "https://dc.lft.to/lastmile_qr_scan"}, "is_reserved": 0, "is_disabled": 0, "name": "4199a1da77b5d2b1f77bd349e7ae6d54", "bike_id": "4199a1da77b5d2b1f77bd349e7ae6d54", "fusion_lat": 0.0, "lon": -77.02439666666666, "type": "electric_scooter", "fusion_lon": 0.0, "lat": 38.922646}, {"rental_uris": {"android": "https://dc.lft.to/lastmile_qr_scan", "ios": "https://dc.lft.to/lastmile_qr_scan"}, "is_reserved": 0, "is_disabled": 0, "name": "4c56aa54f5626d2aa1ce9489e278e161", "bike_id": "4c56aa54f5626d2aa1ce9489e278e161", "fusion_lat": 0.0, "lon": -77.01220966666666, "type": "electric_scooter", "fusion_lon": 0.0, "lat": 38.915451}, {"rental_uris": {"android": "https://dc.lft.to/lastmile_qr_scan", "ios": "https://dc.lft.to/lastmile_qr_scan"}, "is_reserved": 0, "is_disabled": 0, "name": "8d7628cf0a90280f5079620aaf96b134", "bike_id": "8d7628cf0a90280f5079620aaf96b134", "fusion_lat": 0.0, "lon": -77.03666033333333, "type": "electric_scooter", "fusion_lon": 0.0, "lat": 38.90325966666666}, {"rental_uris": {"android": "https://dc.lft.to/lastmile_qr_scan", "ios": "https://dc.lft.to/lastmile_qr_scan"}, "is_reserved": 0, "is_disabled": 0, "name": "93bd08d89afa8b5e78630c695f80d07f", "bike_id": "93bd08d89afa8b5e78630c695f80d07f", "fusion_lat": 0.0, "lon": -77.03317816666667, "type": "electric_scooter", "fusion_lon": 0.0, "lat": 38.899395}, {"rental_uris": {"android": "https://dc.lft.to/lastmile_qr_scan", "ios": "https://dc.lft.to/lastmile_qr_scan"}, "is_reserved": 0, "is_disabled": 0, "name": "ecac097c02c6042b972f9fdb24832c83", "bike_id": "ecac097c02c6042b972f9fdb24832c83", "fusion_lat": 0.0, "lon": -77.062988, "type": "electric_scooter", "fusion_lon": 0.0, "lat": 38.90396283333333}, {"rental_uris": {"android": "https://dc.lft.to/lastmile_qr_scan", "ios": "https://dc.lft.to/lastmile_qr_scan"}, "is_reserved": 0, "is_disabled": 0, "name": "e32bf60ff41e41456c91172f0a91791e", "bike_id": "e32bf60ff41e41456c91172f0a91791e", "fusion_lat": 0.0, "lon": -77.01966316666666, "type": "electric_scooter", "fusion_lon": 0.0, "lat": 38.901271}, {"rental_uris": {"android": "https://dc.lft.to/lastmile_qr_scan", "ios": "https://dc.lft.to/lastmile_qr_scan"}, "is_reserved": 0, "is_disabled": 0, "name": "eaa94a3d5b332b5022eba450a31aa502", "bike_id": "eaa94a3d5b332b5022eba450a31aa502", "fusion_lat": 0.0, "lon": -77.025652, "type": "electric_scooter", "fusion_lon": 0.0, "lat": 38.8874475}, {"rental_uris": {"android": "https://dc.lft.to/lastmile_qr_scan", "ios": "https://dc.lft.to/lastmile_qr_scan"}, "is_reserved": 0, "is_disabled": 0, "name": "6a72eca9e5f954f5077a1a05b0bf520b", "bike_id": "6a72eca9e5f954f5077a1a05b0bf520b", "fusion_lat": 0.0, "lon": -77.00750566666666, "type": "electric_scooter", "fusion_lon": 0.0, "lat": 38.90606783333333}, {"rental_uris": {"android": "https://dc.lft.to/lastmile_qr_scan", "ios": "https://dc.lft.to/lastmile_qr_scan"}, "is_reserved": 0, "is_disabled": 0, "name": "61d75cc1251efcc88959265a7b56a0ec", "bike_id": "61d75cc1251efcc88959265a7b56a0ec", "fusion_lat": 0.0, "lon": -77.0242015, "type": "electric_scooter", "fusion_lon": 0.0, "lat": 38.89221166666667}, {"rental_uris": {"android": "https://dc.lft.to/lastmile_qr_scan", "ios": "https://dc.lft.to/lastmile_qr_scan"}, "is_reserved": 0, "is_disabled": 0, "name": "a4ba91544c8293a3d10efb3d478bc6e4", "bike_id": "a4ba91544c8293a3d10efb3d478bc6e4", "fusion_lat": 0.0, "lon": -77.02797566666666, "type": "electric_scooter", "fusion_lon": 0.0, "lat": 38.90290433333333}, {"rental_uris": {"android": "https://dc.lft.to/lastmile_qr_scan", "ios": "https://dc.lft.to/lastmile_qr_scan"}, "is_reserved": 0, "is_disabled": 0, "name": "0478773518f39a7f06dbffd107c38611", "bike_id": "0478773518f39a7f06dbffd107c38611", "fusion_lat": 0.0, "lon": -77.04485033333333, "type": "electric_scooter", "fusion_lon": 0.0, "lat": 38.90237333333334}, {"rental_uris": {"android": "https://dc.lft.to/lastmile_qr_scan", "ios": "https://dc.lft.to/lastmile_qr_scan"}, "is_reserved": 0, "is_disabled": 0, "name": "b5bad5e0e0f44988bcd50265fe2fd8de", "bike_id": "b5bad5e0e0f44988bcd50265fe2fd8de", "fusion_lat": 0.0, "lon": -77.03520316666666, "type": "electric_scooter", "fusion_lon": 0.0, "lat": 38.9233305}, {"rental_uris": {"android": "https://dc.lft.to/lastmile_qr_scan", "ios": "https://dc.lft.to/lastmile_qr_scan"}, "is_reserved": 0, "is_disabled": 0, "name": "04a6f9050f2d06aa86f9601ad71baae8", "bike_id": "04a6f9050f2d06aa86f9601ad71baae8", "fusion_lat": 0.0, "lon": -77.0436305, "type": "electric_scooter", "fusion_lon": 0.0, "lat": 38.898243666666666}, {"rental_uris": {"android": "https://dc.lft.to/lastmile_qr_scan", "ios": "https://dc.lft.to/lastmile_qr_scan"}, "is_reserved": 0, "is_disabled": 0, "name": "9a9b98f57cfa564e730d7d41405b5ca3", "bike_id": "9a9b98f57cfa564e730d7d41405b5ca3", "fusion_lat": 0.0, "lon": -77.06348, "type": "electric_scooter", "fusion_lon": 0.0, "lat": 38.9443675}, {"rental_uris": {"android": "https://dc.lft.to/lastmile_qr_scan", "ios": "https://dc.lft.to/lastmile_qr_scan"}, "is_reserved": 0, "is_disabled": 0, "name": "21d2cefaf358b054671429255e75fa69", "bike_id": "21d2cefaf358b054671429255e75fa69", "fusion_lat": 0.0, "lon": -77.029913, "type": "electric_scooter", "fusion_lon": 0.0, "lat": 38.883155}, {"rental_uris": {"android": "https://dc.lft.to/lastmile_qr_scan", "ios": "https://dc.lft.to/lastmile_qr_scan"}, "is_reserved": 0, "is_disabled": 0, "name": "28859122832f1042fd70cf91b89614ba", "bike_id": "28859122832f1042fd70cf91b89614ba", "fusion_lat": 0.0, "lon": -77.0440195, "type": "electric_scooter", "fusion_lon": 0.0, "lat": 38.92586766666667}, {"rental_uris": {"android": "https://dc.lft.to/lastmile_qr_scan", "ios": "https://dc.lft.to/lastmile_qr_scan"}, "is_reserved": 0, "is_disabled": 0, "name": "5185860c64765098cdf379812d3c3404", "bike_id": "5185860c64765098cdf379812d3c3404", "fusion_lat": 0.0, "lon": -77.04177116666666, "type": "electric_scooter", "fusion_lon": 0.0, "lat": 38.92009483333333}, {"rental_uris": {"android": "https://dc.lft.to/lastmile_qr_scan", "ios": "https://dc.lft.to/lastmile_qr_scan"}, "is_reserved": 0, "is_disabled": 0, "name": "1e8a9e8ab72704887af45fe797801664", "bike_id": "1e8a9e8ab72704887af45fe797801664", "fusion_lat": 0.0, "lon": -77.02303233333333, "type": "electric_scooter", "fusion_lon": 0.0, "lat": 38.90901816666667}, {"rental_uris": {"android": "https://dc.lft.to/lastmile_qr_scan", "ios": "https://dc.lft.to/lastmile_qr_scan"}, "is_reserved": 0, "is_disabled": 0, "name": "5243a75a02f4f11569ed33f9f3a09f8c", "bike_id": "5243a75a02f4f11569ed33f9f3a09f8c", "fusion_lat": 0.0, "lon": -77.017343, "type": "electric_scooter", "fusion_lon": 0.0, "lat": 38.91419416666667}, {"rental_uris": {"android": "https://dc.lft.to/lastmile_qr_scan", "ios": "https://dc.lft.to/lastmile_qr_scan"}, "is_reserved": 0, "is_disabled": 0, "name": "b14f7d7442ef552bd28ad4fbd3f61730", "bike_id": "b14f7d7442ef552bd28ad4fbd3f61730", "fusion_lat": 0.0, "lon": -77.04498233333334, "type": "electric_scooter", "fusion_lon": 0.0, "lat": 38.897479}, {"rental_uris": {"android": "https://dc.lft.to/lastmile_qr_scan", "ios": "https://dc.lft.to/lastmile_qr_scan"}, "is_reserved": 0, "is_disabled": 0, "name": "782e7db9bd8eda03f0810f8bec26aecf", "bike_id": "782e7db9bd8eda03f0810f8bec26aecf", "fusion_lat": 0.0, "lon": -77.046698, "type": "electric_scooter", "fusion_lon": 0.0, "lat": 38.90018383333334}, {"rental_uris": {"android": "https://dc.lft.to/lastmile_qr_scan", "ios": "https://dc.lft.to/lastmile_qr_scan"}, "is_reserved": 0, "is_disabled": 0, "name": "29d8d257a404c06c0d33d8160e0e0c7f", "bike_id": "29d8d257a404c06c0d33d8160e0e0c7f", "fusion_lat": 0.0, "lon": -77.03546566666667, "type": "electric_scooter", "fusion_lon": 0.0, "lat": 38.90455983333333}, {"rental_uris": {"android": "https://dc.lft.to/lastmile_qr_scan", "ios": "https://dc.lft.to/lastmile_qr_scan"}, "is_reserved": 0, "is_disabled": 0, "name": "74004e4ae149aa35b5b2011391fbaa35", "bike_id": "74004e4ae149aa35b5b2011391fbaa35", "fusion_lat": 0.0, "lon": -77.0122315, "type": "electric_scooter", "fusion_lon": 0.0, "lat": 38.91545383333333}, {"rental_uris": {"android": "https://dc.lft.to/lastmile_qr_scan", "ios": "https://dc.lft.to/lastmile_qr_scan"}, "is_reserved": 0, "is_disabled": 0, "name": "f325b26e8658f0b22025865f73890de1", "bike_id": "f325b26e8658f0b22025865f73890de1", "fusion_lat": 0.0, "lon": -77.03155366666667, "type": "electric_scooter", "fusion_lon": 0.0, "lat": 38.90380583333334}, {"rental_uris": {"android": "https://dc.lft.to/lastmile_qr_scan", "ios": "https://dc.lft.to/lastmile_qr_scan"}, "is_reserved": 0, "is_disabled": 0, "name": "0aeadb907b6a4d8b8a4f00bbe1e183bb", "bike_id": "0aeadb907b6a4d8b8a4f00bbe1e183bb", "fusion_lat": 0.0, "lon": -77.00441466666666, "type": "electric_scooter", "fusion_lon": 0.0, "lat": 38.91565}, {"rental_uris": {"android": "https://dc.lft.to/lastmile_qr_scan", "ios": "https://dc.lft.to/lastmile_qr_scan"}, "is_reserved": 0, "is_disabled": 0, "name": "8c88abd11518d74763370d257e7c0f49", "bike_id": "8c88abd11518d74763370d257e7c0f49", "fusion_lat": 0.0, "lon": -77.0228505, "type": "electric_scooter", "fusion_lon": 0.0, "lat": 38.89505716666667}, {"rental_uris": {"android": "https://dc.lft.to/lastmile_qr_scan", "ios": "https://dc.lft.to/lastmile_qr_scan"}, "is_reserved": 0, "is_disabled": 0, "name": "a2a451dd797fc2f7ff68c4c43b05bb08", "bike_id": "a2a451dd797fc2f7ff68c4c43b05bb08", "fusion_lat": 0.0, "lon": -77.02232366666667, "type": "electric_scooter", "fusion_lon": 0.0, "lat": 38.92482416666667}, {"rental_uris": {"android": "https://dc.lft.to/lastmile_qr_scan", "ios": "https://dc.lft.to/lastmile_qr_scan"}, "is_reserved": 0, "is_disabled": 0, "name": "a526fb464cbb1e89450fcb8645c7febb", "bike_id": "a526fb464cbb1e89450fcb8645c7febb", "fusion_lat": 0.0, "lon": -77.03194166666667, "type": "electric_scooter", "fusion_lon": 0.0, "lat": 38.907487}, {"rental_uris": {"android": "https://dc.lft.to/lastmile_qr_scan", "ios": "https://dc.lft.to/lastmile_qr_scan"}, "is_reserved": 0, "is_disabled": 0, "name": "b87c2e452b45ecc1c949a60f5f4453bc", "bike_id": "b87c2e452b45ecc1c949a60f5f4453bc", "fusion_lat": 0.0, "lon": -77.01957083333333, "type": "electric_scooter", "fusion_lon": 0.0, "lat": 38.923183}, {"rental_uris": {"android": "https://dc.lft.to/lastmile_qr_scan", "ios": "https://dc.lft.to/lastmile_qr_scan"}, "is_reserved": 0, "is_disabled": 0, "name": "81fc7e02dfa1d79692b918e19527aa27", "bike_id": "81fc7e02dfa1d79692b918e19527aa27", "fusion_lat": 0.0, "lon": -77.0426005, "type": "electric_scooter", "fusion_lon": 0.0, "lat": 38.911834}, {"rental_uris": {"android": "https://dc.lft.to/lastmile_qr_scan", "ios": "https://dc.lft.to/lastmile_qr_scan"}, "is_reserved": 0, "is_disabled": 0, "name": "7d2a5bfdca8c1b82ef9a45b7729ea5e2", "bike_id": "7d2a5bfdca8c1b82ef9a45b7729ea5e2", "fusion_lat": 0.0, "lon": -77.01957633333333, "type": "electric_scooter", "fusion_lon": 0.0, "lat": 38.92332716666667}, {"rental_uris": {"android": "https://dc.lft.to/lastmile_qr_scan", "ios": "https://dc.lft.to/lastmile_qr_scan"}, "is_reserved": 0, "is_disabled": 0, "name": "3ea3ecd7d230ae1f006a0f8866592409", "bike_id": "3ea3ecd7d230ae1f006a0f8866592409", "fusion_lat": 0.0, "lon": -77.02916616666667, "type": "electric_scooter", "fusion_lon": 0.0, "lat": 38.8984235}, {"rental_uris": {"android": "https://dc.lft.to/lastmile_qr_scan", "ios": "https://dc.lft.to/lastmile_qr_scan"}, "is_reserved": 0, "is_disabled": 0, "name": "396ed60e5c267cd99732e82e0e12e8d2", "bike_id": "396ed60e5c267cd99732e82e0e12e8d2", "fusion_lat": 0.0, "lon": -77.03523616666666, "type": "electric_scooter", "fusion_lon": 0.0, "lat": 38.93279666666667}, {"rental_uris": {"android": "https://dc.lft.to/lastmile_qr_scan", "ios": "https://dc.lft.to/lastmile_qr_scan"}, "is_reserved": 0, "is_disabled": 0, "name": "d24bb45338fde50d781842872344b168", "bike_id": "d24bb45338fde50d781842872344b168", "fusion_lat": 0.0, "lon": -77.02508133333333, "type": "electric_scooter", "fusion_lon": 0.0, "lat": 38.93550466666667}, {"rental_uris": {"android": "https://dc.lft.to/lastmile_qr_scan", "ios": "https://dc.lft.to/lastmile_qr_scan"}, "is_reserved": 0, "is_disabled": 0, "name": "df38928120ea1d1050b09fe7224589c2", "bike_id": "df38928120ea1d1050b09fe7224589c2", "fusion_lat": 0.0, "lon": -77.09658766666666, "type": "electric_bike", "fusion_lon": 0.0, "lat": 38.95214683333333}, {"rental_uris": {"android": "https://dc.lft.to/lastmile_qr_scan", "ios": "https://dc.lft.to/lastmile_qr_scan"}, "is_reserved": 0, "is_disabled": 0, "name": "7f1a8081377d1d14055101f726fc08d7", "bike_id": "7f1a8081377d1d14055101f726fc08d7", "fusion_lat": 0.0, "lon": -76.99851016666666, "type": "electric_scooter", "fusion_lon": 0.0, "lat": 38.902647}, {"rental_uris": {"android": "https://dc.lft.to/lastmile_qr_scan", "ios": "https://dc.lft.to/lastmile_qr_scan"}, "is_reserved": 0, "is_disabled": 0, "name": "e1b7b62ad64179e4818c485bc610192b", "bike_id": "e1b7b62ad64179e4818c485bc610192b", "fusion_lat": 0.0, "lon": -77.02139433333333, "type": "electric_scooter", "fusion_lon": 0.0, "lat": 38.92320683333333}, {"rental_uris": {"android": "https://dc.lft.to/lastmile_qr_scan", "ios": "https://dc.lft.to/lastmile_qr_scan"}, "is_reserved": 0, "is_disabled": 0, "name": "542000440fc5a1d69d89c86b9d98f38b", "bike_id": "542000440fc5a1d69d89c86b9d98f38b", "fusion_lat": 0.0, "lon": -77.0521125, "type": "electric_scooter", "fusion_lon": 0.0, "lat": 38.90266233333333}, {"rental_uris": {"android": "https://dc.lft.to/lastmile_qr_scan", "ios": "https://dc.lft.to/lastmile_qr_scan"}, "is_reserved": 0, "is_disabled": 0, "name": "0ba4bee175819d3d5a1252ffc75029a8", "bike_id": "0ba4bee175819d3d5a1252ffc75029a8", "fusion_lat": 0.0, "lon": -77.05319766666666, "type": "electric_scooter", "fusion_lon": 0.0, "lat": 38.904944666666665}, {"rental_uris": {"android": "https://dc.lft.to/lastmile_qr_scan", "ios": "https://dc.lft.to/lastmile_qr_scan"}, "is_reserved": 0, "is_disabled": 0, "name": "373fcce277ba29d1446b92bd47dd75ee", "bike_id": "373fcce277ba29d1446b92bd47dd75ee", "fusion_lat": 0.0, "lon": -77.0591625, "type": "electric_scooter", "fusion_lon": 0.0, "lat": 38.903521166666664}, {"rental_uris": {"android": "https://dc.lft.to/lastmile_qr_scan", "ios": "https://dc.lft.to/lastmile_qr_scan"}, "is_reserved": 0, "is_disabled": 0, "name": "b5d40167d1391b05892485c8c44ce4c0", "bike_id": "b5d40167d1391b05892485c8c44ce4c0", "fusion_lat": 0.0, "lon": -77.044856, "type": "electric_scooter", "fusion_lon": 0.0, "lat": 38.90376833333333}, {"rental_uris": {"android": "https://dc.lft.to/lastmile_qr_scan", "ios": "https://dc.lft.to/lastmile_qr_scan"}, "is_reserved": 0, "is_disabled": 0, "name": "d0abdd91fe703fe3a910089b4afa8643", "bike_id": "d0abdd91fe703fe3a910089b4afa8643", "fusion_lat": 0.0, "lon": -77.02635516666666, "type": "electric_scooter", "fusion_lon": 0.0, "lat": 38.93030183333333}, {"rental_uris": {"android": "https://dc.lft.to/lastmile_qr_scan", "ios": "https://dc.lft.to/lastmile_qr_scan"}, "is_reserved": 0, "is_disabled": 0, "name": "8255d3a8ea2b37b5615955b6f50686f5", "bike_id": "8255d3a8ea2b37b5615955b6f50686f5", "fusion_lat": 0.0, "lon": -77.026971, "type": "electric_scooter", "fusion_lon": 0.0, "lat": 38.916766333333335}, {"rental_uris": {"android": "https://dc.lft.to/lastmile_qr_scan", "ios": "https://dc.lft.to/lastmile_qr_scan"}, "is_reserved": 0, "is_disabled": 0, "name": "e32ffee25b71279d1ea909853d60e37f", "bike_id": "e32ffee25b71279d1ea909853d60e37f", "fusion_lat": 0.0, "lon": -77.04591233333333, "type": "electric_scooter", "fusion_lon": 0.0, "lat": 38.91383916666667}, {"rental_uris": {"android": "https://dc.lft.to/lastmile_qr_scan", "ios": "https://dc.lft.to/lastmile_qr_scan"}, "is_reserved": 0, "is_disabled": 0, "name": "b33d219dc91c4c35b4eddecd3dce7f99", "bike_id": "b33d219dc91c4c35b4eddecd3dce7f99", "fusion_lat": 0.0, "lon": -77.03655483333333, "type": "electric_scooter", "fusion_lon": 0.0, "lat": 38.927600166666664}, {"rental_uris": {"android": "https://dc.lft.to/lastmile_qr_scan", "ios": "https://dc.lft.to/lastmile_qr_scan"}, "is_reserved": 0, "is_disabled": 0, "name": "f1c25a238429e153262d88c421d79f28", "bike_id": "f1c25a238429e153262d88c421d79f28", "fusion_lat": 0.0, "lon": -77.03738116666666, "type": "electric_scooter", "fusion_lon": 0.0, "lat": 38.9287775}, {"rental_uris": {"android": "https://dc.lft.to/lastmile_qr_scan", "ios": "https://dc.lft.to/lastmile_qr_scan"}, "is_reserved": 0, "is_disabled": 0, "name": "2230c607476aacb71c31ed84c3193eed", "bike_id": "2230c607476aacb71c31ed84c3193eed", "fusion_lat": 0.0, "lon": -77.03112733333333, "type": "electric_scooter", "fusion_lon": 0.0, "lat": 38.903667666666664}, {"rental_uris": {"android": "https://dc.lft.to/lastmile_qr_scan", "ios": "https://dc.lft.to/lastmile_qr_scan"}, "is_reserved": 0, "is_disabled": 0, "name": "acfd34515a98faa442441c6a1ed212f6", "bike_id": "acfd34515a98faa442441c6a1ed212f6", "fusion_lat": 0.0, "lon": -77.02390566666666, "type": "electric_scooter", "fusion_lon": 0.0, "lat": 38.919579}, {"rental_uris": {"android": "https://dc.lft.to/lastmile_qr_scan", "ios": "https://dc.lft.to/lastmile_qr_scan"}, "is_reserved": 0, "is_disabled": 0, "name": "d5aa8d35b6d0e83e0a0fce07e63b08e0", "bike_id": "d5aa8d35b6d0e83e0a0fce07e63b08e0", "fusion_lat": 0.0, "lon": -77.045476, "type": "electric_scooter", "fusion_lon": 0.0, "lat": 38.8982715}, {"rental_uris": {"android": "https://dc.lft.to/lastmile_qr_scan", "ios": "https://dc.lft.to/lastmile_qr_scan"}, "is_reserved": 0, "is_disabled": 0, "name": "2900c961df6e4a3a54654a4dc1b2f85e", "bike_id": "2900c961df6e4a3a54654a4dc1b2f85e", "fusion_lat": 0.0, "lon": -76.99848616666667, "type": "electric_scooter", "fusion_lon": 0.0, "lat": 38.896237666666664}, {"rental_uris": {"android": "https://dc.lft.to/lastmile_qr_scan", "ios": "https://dc.lft.to/lastmile_qr_scan"}, "is_reserved": 0, "is_disabled": 0, "name": "e93238e692806124bf721b7ed4fa3296", "bike_id": "e93238e692806124bf721b7ed4fa3296", "fusion_lat": 0.0, "lon": -77.0387145, "type": "electric_scooter", "fusion_lon": 0.0, "lat": 38.91263983333333}, {"rental_uris": {"android": "https://dc.lft.to/lastmile_qr_scan", "ios": "https://dc.lft.to/lastmile_qr_scan"}, "is_reserved": 0, "is_disabled": 0, "name": "6df87e89efa9dc758b324230e08da0f5", "bike_id": "6df87e89efa9dc758b324230e08da0f5", "fusion_lat": 0.0, "lon": -77.06565483333333, "type": "electric_bike", "fusion_lon": 0.0, "lat": 38.9326515}, {"rental_uris": {"android": "https://dc.lft.to/lastmile_qr_scan", "ios": "https://dc.lft.to/lastmile_qr_scan"}, "is_reserved": 0, "is_disabled": 0, "name": "7ad6d58900414481554a943d5d6545eb", "bike_id": "7ad6d58900414481554a943d5d6545eb", "fusion_lat": 0.0, "lon": -77.01993033333333, "type": "electric_scooter", "fusion_lon": 0.0, "lat": 38.876076166666664}, {"rental_uris": {"android": "https://dc.lft.to/lastmile_qr_scan", "ios": "https://dc.lft.to/lastmile_qr_scan"}, "is_reserved": 0, "is_disabled": 0, "name": "a2529924c785a23ac1d46bdcdf891fd7", "bike_id": "a2529924c785a23ac1d46bdcdf891fd7", "fusion_lat": 0.0, "lon": -76.99519933333333, "type": "electric_scooter", "fusion_lon": 0.0, "lat": 38.883714}, {"rental_uris": {"android": "https://dc.lft.to/lastmile_qr_scan", "ios": "https://dc.lft.to/lastmile_qr_scan"}, "is_reserved": 0, "is_disabled": 0, "name": "ee26cc4037c5f23aa9f7a4e3214ea744", "bike_id": "ee26cc4037c5f23aa9f7a4e3214ea744", "fusion_lat": 0.0, "lon": -77.02889866666666, "type": "electric_bike", "fusion_lon": 0.0, "lat": 38.99517433333333}, {"rental_uris": {"android": "https://dc.lft.to/lastmile_qr_scan", "ios": "https://dc.lft.to/lastmile_qr_scan"}, "is_reserved": 0, "is_disabled": 0, "name": "39ac6c9af057c6f8c405706640dd05fc", "bike_id": "39ac6c9af057c6f8c405706640dd05fc", "fusion_lat": 0.0, "lon": -77.03162683333333, "type": "electric_scooter", "fusion_lon": 0.0, "lat": 38.8996905}, {"rental_uris": {"android": "https://dc.lft.to/lastmile_qr_scan", "ios": "https://dc.lft.to/lastmile_qr_scan"}, "is_reserved": 0, "is_disabled": 0, "name": "ad0d42b77683f5670b4321eff24c9e8d", "bike_id": "ad0d42b77683f5670b4321eff24c9e8d", "fusion_lat": 0.0, "lon": -77.02978083333333, "type": "electric_scooter", "fusion_lon": 0.0, "lat": 38.892274}, {"rental_uris": {"android": "https://dc.lft.to/lastmile_qr_scan", "ios": "https://dc.lft.to/lastmile_qr_scan"}, "is_reserved": 0, "is_disabled": 0, "name": "57ab4493e0464d6c884e344f113ea3a6", "bike_id": "57ab4493e0464d6c884e344f113ea3a6", "fusion_lat": 0.0, "lon": -77.23410133333333, "type": "electric_bike", "fusion_lon": 0.0, "lat": 38.875809}, {"rental_uris": {"android": "https://dc.lft.to/lastmile_qr_scan", "ios": "https://dc.lft.to/lastmile_qr_scan"}, "is_reserved": 0, "is_disabled": 0, "name": "d28f1e5eb8ebf6e937e70389cc6093e0", "bike_id": "d28f1e5eb8ebf6e937e70389cc6093e0", "fusion_lat": 0.0, "lon": -76.903079, "type": "electric_bike", "fusion_lon": 0.0, "lat": 39.00295933333334}, {"rental_uris": {"android": "https://dc.lft.to/lastmile_qr_scan", "ios": "https://dc.lft.to/lastmile_qr_scan"}, "is_reserved": 0, "is_disabled": 0, "name": "5fc1b6ee28238c555c17e5eac0abe6d0", "bike_id": "5fc1b6ee28238c555c17e5eac0abe6d0", "fusion_lat": 0.0, "lon": -77.0129725, "type": "electric_scooter", "fusion_lon": 0.0, "lat": 38.898308166666666}, {"rental_uris": {"android": "https://dc.lft.to/lastmile_qr_scan", "ios": "https://dc.lft.to/lastmile_qr_scan"}, "is_reserved": 0, "is_disabled": 0, "name": "c5fba01865e5ed77b80f9a8f26217efa", "bike_id": "c5fba01865e5ed77b80f9a8f26217efa", "fusion_lat": 0.0, "lon": -77.04179933333333, "type": "electric_scooter", "fusion_lon": 0.0, "lat": 38.917241833333335}, {"rental_uris": {"android": "https://dc.lft.to/lastmile_qr_scan", "ios": "https://dc.lft.to/lastmile_qr_scan"}, "is_reserved": 0, "is_disabled": 0, "name": "011fe1d7c00f7bd6d5f1e817a964150a", "bike_id": "011fe1d7c00f7bd6d5f1e817a964150a", "fusion_lat": 0.0, "lon": -77.07434916666666, "type": "electric_bike", "fusion_lon": 0.0, "lat": 38.91267716666667}, {"rental_uris": {"android": "https://dc.lft.to/lastmile_qr_scan", "ios": "https://dc.lft.to/lastmile_qr_scan"}, "is_reserved": 0, "is_disabled": 0, "name": "c9989838f4a9bc9a48f6c3d219a4d7d5", "bike_id": "c9989838f4a9bc9a48f6c3d219a4d7d5", "fusion_lat": 0.0, "lon": -77.01013666666667, "type": "electric_bike", "fusion_lon": 0.0, "lat": 38.956006}, {"rental_uris": {"android": "https://dc.lft.to/lastmile_qr_scan", "ios": "https://dc.lft.to/lastmile_qr_scan"}, "is_reserved": 0, "is_disabled": 0, "name": "fe579eff3d405caa98d75a44efe06964", "bike_id": "fe579eff3d405caa98d75a44efe06964", "fusion_lat": 0.0, "lon": -77.03373516666667, "type": "electric_scooter", "fusion_lon": 0.0, "lat": 38.89952616666667}, {"rental_uris": {"android": "https://dc.lft.to/lastmile_qr_scan", "ios": "https://dc.lft.to/lastmile_qr_scan"}, "is_reserved": 0, "is_disabled": 0, "name": "57d94fedc1975e1ac4931e13c1acd3f7", "bike_id": "57d94fedc1975e1ac4931e13c1acd3f7", "fusion_lat": 0.0, "lon": -77.03228216666666, "type": "electric_scooter", "fusion_lon": 0.0, "lat": 38.9254315}, {"rental_uris": {"android": "https://dc.lft.to/lastmile_qr_scan", "ios": "https://dc.lft.to/lastmile_qr_scan"}, "is_reserved": 0, "is_disabled": 0, "name": "c7a462434b80d0cde9361ba214914778", "bike_id": "c7a462434b80d0cde9361ba214914778", "fusion_lat": 0.0, "lon": -77.01229966666666, "type": "electric_scooter", "fusion_lon": 0.0, "lat": 38.89803333333333}, {"rental_uris": {"android": "https://dc.lft.to/lastmile_qr_scan", "ios": "https://dc.lft.to/lastmile_qr_scan"}, "is_reserved": 0, "is_disabled": 0, "name": "a165e35acced6213b164f08d0514987d", "bike_id": "a165e35acced6213b164f08d0514987d", "fusion_lat": 0.0, "lon": -77.0515495, "type": "electric_scooter", "fusion_lon": 0.0, "lat": 38.923766666666666}, {"rental_uris": {"android": "https://dc.lft.to/lastmile_qr_scan", "ios": "https://dc.lft.to/lastmile_qr_scan"}, "is_reserved": 0, "is_disabled": 0, "name": "6f31db275e5e7897b541ed8b62d24d11", "bike_id": "6f31db275e5e7897b541ed8b62d24d11", "fusion_lat": 0.0, "lon": -77.03852033333334, "type": "electric_scooter", "fusion_lon": 0.0, "lat": 38.932127333333334}, {"rental_uris": {"android": "https://dc.lft.to/lastmile_qr_scan", "ios": "https://dc.lft.to/lastmile_qr_scan"}, "is_reserved": 0, "is_disabled": 0, "name": "8aadb9147fb8ea2107ee2ae41e812126", "bike_id": "8aadb9147fb8ea2107ee2ae41e812126", "fusion_lat": 0.0, "lon": -77.07251633333334, "type": "electric_scooter", "fusion_lon": 0.0, "lat": 38.939603166666664}, {"rental_uris": {"android": "https://dc.lft.to/lastmile_qr_scan", "ios": "https://dc.lft.to/lastmile_qr_scan"}, "is_reserved": 0, "is_disabled": 0, "name": "4c8c7a8529e4d7e4712dab37dde7731f", "bike_id": "4c8c7a8529e4d7e4712dab37dde7731f", "fusion_lat": 0.0, "lon": -77.0447335, "type": "electric_scooter", "fusion_lon": 0.0, "lat": 38.903831833333335}, {"rental_uris": {"android": "https://dc.lft.to/lastmile_qr_scan", "ios": "https://dc.lft.to/lastmile_qr_scan"}, "is_reserved": 0, "is_disabled": 0, "name": "d225f961d46606bad08532741e15a84b", "bike_id": "d225f961d46606bad08532741e15a84b", "fusion_lat": 0.0, "lon": -77.019583, "type": "electric_scooter", "fusion_lon": 0.0, "lat": 38.923263666666664}, {"rental_uris": {"android": "https://dc.lft.to/lastmile_qr_scan", "ios": "https://dc.lft.to/lastmile_qr_scan"}, "is_reserved": 0, "is_disabled": 0, "name": "1c4b215fa7b4cb00b5bf5a44a78c9e8d", "bike_id": "1c4b215fa7b4cb00b5bf5a44a78c9e8d", "fusion_lat": 0.0, "lon": -77.0060275, "type": "electric_scooter", "fusion_lon": 0.0, "lat": 38.8718315}, {"rental_uris": {"android": "https://dc.lft.to/lastmile_qr_scan", "ios": "https://dc.lft.to/lastmile_qr_scan"}, "is_reserved": 0, "is_disabled": 0, "name": "2b07971105cf7655c12778c807c225df", "bike_id": "2b07971105cf7655c12778c807c225df", "fusion_lat": 0.0, "lon": -77.03196633333333, "type": "electric_scooter", "fusion_lon": 0.0, "lat": 38.917878}, {"rental_uris": {"android": "https://dc.lft.to/lastmile_qr_scan", "ios": "https://dc.lft.to/lastmile_qr_scan"}, "is_reserved": 0, "is_disabled": 0, "name": "2ca05b2719fd17b6d166c0a5380ce959", "bike_id": "2ca05b2719fd17b6d166c0a5380ce959", "fusion_lat": 0.0, "lon": -77.077506, "type": "electric_bike", "fusion_lon": 0.0, "lat": 38.94366083333333}, {"rental_uris": {"android": "https://dc.lft.to/lastmile_qr_scan", "ios": "https://dc.lft.to/lastmile_qr_scan"}, "is_reserved": 0, "is_disabled": 0, "name": "19101fc793f34a5940375ac7bb9c0947", "bike_id": "19101fc793f34a5940375ac7bb9c0947", "fusion_lat": 0.0, "lon": -77.04492216666667, "type": "electric_scooter", "fusion_lon": 0.0, "lat": 38.914171833333334}, {"rental_uris": {"android": "https://dc.lft.to/lastmile_qr_scan", "ios": "https://dc.lft.to/lastmile_qr_scan"}, "is_reserved": 0, "is_disabled": 0, "name": "f17fe806cbcfff3017fa3b42ddbef5a4", "bike_id": "f17fe806cbcfff3017fa3b42ddbef5a4", "fusion_lat": 0.0, "lon": -77.05515583333333, "type": "electric_scooter", "fusion_lon": 0.0, "lat": 38.94412066666666}, {"rental_uris": {"android": "https://dc.lft.to/lastmile_qr_scan", "ios": "https://dc.lft.to/lastmile_qr_scan"}, "is_reserved": 0, "is_disabled": 0, "name": "ccb3247790dc2d73f4423c924aa46e59", "bike_id": "ccb3247790dc2d73f4423c924aa46e59", "fusion_lat": 0.0, "lon": -77.05345983333333, "type": "electric_scooter", "fusion_lon": 0.0, "lat": 38.904051}, {"rental_uris": {"android": "https://dc.lft.to/lastmile_qr_scan", "ios": "https://dc.lft.to/lastmile_qr_scan"}, "is_reserved": 0, "is_disabled": 0, "name": "112adae6ee4a879bf8bd1a85d2b1f2ea", "bike_id": "112adae6ee4a879bf8bd1a85d2b1f2ea", "fusion_lat": 0.0, "lon": -77.005978, "type": "electric_scooter", "fusion_lon": 0.0, "lat": 38.9062605}, {"rental_uris": {"android": "https://dc.lft.to/lastmile_qr_scan", "ios": "https://dc.lft.to/lastmile_qr_scan"}, "is_reserved": 0, "is_disabled": 0, "name": "3e60106bb0351392fc29b111390b22d9", "bike_id": "3e60106bb0351392fc29b111390b22d9", "fusion_lat": 0.0, "lon": -77.06588983333333, "type": "electric_scooter", "fusion_lon": 0.0, "lat": 38.904044166666665}, {"rental_uris": {"android": "https://dc.lft.to/lastmile_qr_scan", "ios": "https://dc.lft.to/lastmile_qr_scan"}, "is_reserved": 0, "is_disabled": 0, "name": "cba13641c003ee3c51c82d2b59c3fd9e", "bike_id": "cba13641c003ee3c51c82d2b59c3fd9e", "fusion_lat": 0.0, "lon": -77.049241, "type": "electric_scooter", "fusion_lon": 0.0, "lat": 38.89546133333333}, {"rental_uris": {"android": "https://dc.lft.to/lastmile_qr_scan", "ios": "https://dc.lft.to/lastmile_qr_scan"}, "is_reserved": 0, "is_disabled": 0, "name": "4809af2096f3cb2404c2ab2386395c33", "bike_id": "4809af2096f3cb2404c2ab2386395c33", "fusion_lat": 0.0, "lon": -77.04487966666667, "type": "electric_scooter", "fusion_lon": 0.0, "lat": 38.903395833333335}, {"rental_uris": {"android": "https://dc.lft.to/lastmile_qr_scan", "ios": "https://dc.lft.to/lastmile_qr_scan"}, "is_reserved": 0, "is_disabled": 0, "name": "e7e4541db8a0851ebf6b9d01211a302c", "bike_id": "e7e4541db8a0851ebf6b9d01211a302c", "fusion_lat": 0.0, "lon": -76.98544583333333, "type": "electric_bike", "fusion_lon": 0.0, "lat": 38.87964383333333}, {"rental_uris": {"android": "https://dc.lft.to/lastmile_qr_scan", "ios": "https://dc.lft.to/lastmile_qr_scan"}, "is_reserved": 0, "is_disabled": 0, "name": "82e393c869b9004719ec42706c4f3416", "bike_id": "82e393c869b9004719ec42706c4f3416", "fusion_lat": 0.0, "lon": -77.05023566666667, "type": "electric_scooter", "fusion_lon": 0.0, "lat": 38.8975345}, {"rental_uris": {"android": "https://dc.lft.to/lastmile_qr_scan", "ios": "https://dc.lft.to/lastmile_qr_scan"}, "is_reserved": 0, "is_disabled": 0, "name": "8f2e2ab52bf56eaa25dcd0b2e1bc5ae0", "bike_id": "8f2e2ab52bf56eaa25dcd0b2e1bc5ae0", "fusion_lat": 0.0, "lon": -77.02161133333334, "type": "electric_scooter", "fusion_lon": 0.0, "lat": 38.926113}, {"rental_uris": {"android": "https://dc.lft.to/lastmile_qr_scan", "ios": "https://dc.lft.to/lastmile_qr_scan"}, "is_reserved": 0, "is_disabled": 0, "name": "4ba6a3c1f3805fd0ef0fb7cf2ebc5df8", "bike_id": "4ba6a3c1f3805fd0ef0fb7cf2ebc5df8", "fusion_lat": 0.0, "lon": -77.00206633333333, "type": "electric_scooter", "fusion_lon": 0.0, "lat": 38.90281816666667}, {"rental_uris": {"android": "https://dc.lft.to/lastmile_qr_scan", "ios": "https://dc.lft.to/lastmile_qr_scan"}, "is_reserved": 0, "is_disabled": 0, "name": "794700255ade78272773ebfa67268974", "bike_id": "794700255ade78272773ebfa67268974", "fusion_lat": 0.0, "lon": -76.98338433333333, "type": "electric_scooter", "fusion_lon": 0.0, "lat": 38.90097733333333}, {"rental_uris": {"android": "https://dc.lft.to/lastmile_qr_scan", "ios": "https://dc.lft.to/lastmile_qr_scan"}, "is_reserved": 0, "is_disabled": 0, "name": "7e3e4b9bf49a2596b9b765b4cd5cbc0b", "bike_id": "7e3e4b9bf49a2596b9b765b4cd5cbc0b", "fusion_lat": 0.0, "lon": -77.01758583333333, "type": "electric_scooter", "fusion_lon": 0.0, "lat": 38.87684433333333}, {"rental_uris": {"android": "https://dc.lft.to/lastmile_qr_scan", "ios": "https://dc.lft.to/lastmile_qr_scan"}, "is_reserved": 0, "is_disabled": 0, "name": "120e076cb0bc29eab42e6f1d72b86c06", "bike_id": "120e076cb0bc29eab42e6f1d72b86c06", "fusion_lat": 0.0, "lon": -77.0716875, "type": "electric_scooter", "fusion_lon": 0.0, "lat": 38.9077505}, {"rental_uris": {"android": "https://dc.lft.to/lastmile_qr_scan", "ios": "https://dc.lft.to/lastmile_qr_scan"}, "is_reserved": 0, "is_disabled": 0, "name": "9eb13b669a082c5495b6cc4c814b0ade", "bike_id": "9eb13b669a082c5495b6cc4c814b0ade", "fusion_lat": 0.0, "lon": -77.027914, "type": "electric_scooter", "fusion_lon": 0.0, "lat": 38.96131916666667}, {"rental_uris": {"android": "https://dc.lft.to/lastmile_qr_scan", "ios": "https://dc.lft.to/lastmile_qr_scan"}, "is_reserved": 0, "is_disabled": 0, "name": "b08a327abb195402f41068af666e2bfb", "bike_id": "b08a327abb195402f41068af666e2bfb", "fusion_lat": 0.0, "lon": -77.0785185, "type": "electric_scooter", "fusion_lon": 0.0, "lat": 38.94594283333333}, {"rental_uris": {"android": "https://dc.lft.to/lastmile_qr_scan", "ios": "https://dc.lft.to/lastmile_qr_scan"}, "is_reserved": 0, "is_disabled": 0, "name": "3dae8f0b76f0838757adb928151675b5", "bike_id": "3dae8f0b76f0838757adb928151675b5", "fusion_lat": 0.0, "lon": -77.02813233333333, "type": "electric_scooter", "fusion_lon": 0.0, "lat": 38.9046225}, {"rental_uris": {"android": "https://dc.lft.to/lastmile_qr_scan", "ios": "https://dc.lft.to/lastmile_qr_scan"}, "is_reserved": 0, "is_disabled": 0, "name": "38981ee4fdf6e742e1e4fc1816745207", "bike_id": "38981ee4fdf6e742e1e4fc1816745207", "fusion_lat": 0.0, "lon": -77.01822633333333, "type": "electric_scooter", "fusion_lon": 0.0, "lat": 38.921439666666664}, {"rental_uris": {"android": "https://dc.lft.to/lastmile_qr_scan", "ios": "https://dc.lft.to/lastmile_qr_scan"}, "is_reserved": 0, "is_disabled": 0, "name": "9f42c19533aafc018670dec3774308de", "bike_id": "9f42c19533aafc018670dec3774308de", "fusion_lat": 0.0, "lon": -77.02420883333333, "type": "electric_scooter", "fusion_lon": 0.0, "lat": 38.902879666666664}, {"rental_uris": {"android": "https://dc.lft.to/lastmile_qr_scan", "ios": "https://dc.lft.to/lastmile_qr_scan"}, "is_reserved": 0, "is_disabled": 0, "name": "a08e71723bf38ec5aac3ebcf57015819", "bike_id": "a08e71723bf38ec5aac3ebcf57015819", "fusion_lat": 0.0, "lon": -77.03892116666667, "type": "electric_scooter", "fusion_lon": 0.0, "lat": 38.920416333333336}, {"rental_uris": {"android": "https://dc.lft.to/lastmile_qr_scan", "ios": "https://dc.lft.to/lastmile_qr_scan"}, "is_reserved": 0, "is_disabled": 0, "name": "44d4f1fd582b5056fdfb7424173260e0", "bike_id": "44d4f1fd582b5056fdfb7424173260e0", "fusion_lat": 0.0, "lon": -77.02003366666666, "type": "electric_scooter", "fusion_lon": 0.0, "lat": 38.901132}, {"rental_uris": {"android": "https://dc.lft.to/lastmile_qr_scan", "ios": "https://dc.lft.to/lastmile_qr_scan"}, "is_reserved": 0, "is_disabled": 0, "name": "08751ba386b60749ee1205397e473925", "bike_id": "08751ba386b60749ee1205397e473925", "fusion_lat": 0.0, "lon": -77.04492966666666, "type": "electric_scooter", "fusion_lon": 0.0, "lat": 38.915153833333335}, {"rental_uris": {"android": "https://dc.lft.to/lastmile_qr_scan", "ios": "https://dc.lft.to/lastmile_qr_scan"}, "is_reserved": 0, "is_disabled": 0, "name": "59f28e79fbede3c9d2af72681253b7f9", "bike_id": "59f28e79fbede3c9d2af72681253b7f9", "fusion_lat": 0.0, "lon": -77.04014033333333, "type": "electric_scooter", "fusion_lon": 0.0, "lat": 38.89838483333333}, {"rental_uris": {"android": "https://dc.lft.to/lastmile_qr_scan", "ios": "https://dc.lft.to/lastmile_qr_scan"}, "is_reserved": 0, "is_disabled": 0, "name": "31e5b8f5161a07c44dc061e0531d3ef4", "bike_id": "31e5b8f5161a07c44dc061e0531d3ef4", "fusion_lat": 0.0, "lon": -77.01034466666667, "type": "electric_scooter", "fusion_lon": 0.0, "lat": 38.92122783333333}, {"rental_uris": {"android": "https://dc.lft.to/lastmile_qr_scan", "ios": "https://dc.lft.to/lastmile_qr_scan"}, "is_reserved": 0, "is_disabled": 0, "name": "a30f6d04dc9bc7cda12c2f325b2298a7", "bike_id": "a30f6d04dc9bc7cda12c2f325b2298a7", "fusion_lat": 0.0, "lon": -77.050281, "type": "electric_scooter", "fusion_lon": 0.0, "lat": 38.8965905}, {"rental_uris": {"android": "https://dc.lft.to/lastmile_qr_scan", "ios": "https://dc.lft.to/lastmile_qr_scan"}, "is_reserved": 0, "is_disabled": 0, "name": "9cb4d80f63dc556daa7896f1828733e2", "bike_id": "9cb4d80f63dc556daa7896f1828733e2", "fusion_lat": 0.0, "lon": -77.046253, "type": "electric_scooter", "fusion_lon": 0.0, "lat": 38.91456683333333}, {"rental_uris": {"android": "https://dc.lft.to/lastmile_qr_scan", "ios": "https://dc.lft.to/lastmile_qr_scan"}, "is_reserved": 0, "is_disabled": 0, "name": "b6b27b3f6cb00bd981845ff7cd59bc62", "bike_id": "b6b27b3f6cb00bd981845ff7cd59bc62", "fusion_lat": 0.0, "lon": -76.98384, "type": "electric_scooter", "fusion_lon": 0.0, "lat": 38.879456833333336}, {"rental_uris": {"android": "https://dc.lft.to/lastmile_qr_scan", "ios": "https://dc.lft.to/lastmile_qr_scan"}, "is_reserved": 0, "is_disabled": 0, "name": "5959b996c208b7f11c72d12e7e99edba", "bike_id": "5959b996c208b7f11c72d12e7e99edba", "fusion_lat": 0.0, "lon": -76.9811075, "type": "electric_bike", "fusion_lon": 0.0, "lat": 38.9456945}, {"rental_uris": {"android": "https://dc.lft.to/lastmile_qr_scan", "ios": "https://dc.lft.to/lastmile_qr_scan"}, "is_reserved": 0, "is_disabled": 0, "name": "fd0e833cd1fdfa15fd258d3a7f48cd43", "bike_id": "fd0e833cd1fdfa15fd258d3a7f48cd43", "fusion_lat": 0.0, "lon": -77.03459183333334, "type": "electric_scooter", "fusion_lon": 0.0, "lat": 38.90147533333333}, {"rental_uris": {"android": "https://dc.lft.to/lastmile_qr_scan", "ios": "https://dc.lft.to/lastmile_qr_scan"}, "is_reserved": 0, "is_disabled": 0, "name": "0e915eca349fc1bab4dc824cbed02cb0", "bike_id": "0e915eca349fc1bab4dc824cbed02cb0", "fusion_lat": 0.0, "lon": -77.03082783333333, "type": "electric_scooter", "fusion_lon": 0.0, "lat": 38.90011533333333}, {"rental_uris": {"android": "https://dc.lft.to/lastmile_qr_scan", "ios": "https://dc.lft.to/lastmile_qr_scan"}, "is_reserved": 0, "is_disabled": 0, "name": "35e2fa41370b29555d298adcab55dd8b", "bike_id": "35e2fa41370b29555d298adcab55dd8b", "fusion_lat": 0.0, "lon": -77.0462585, "type": "electric_scooter", "fusion_lon": 0.0, "lat": 38.9045565}, {"rental_uris": {"android": "https://dc.lft.to/lastmile_qr_scan", "ios": "https://dc.lft.to/lastmile_qr_scan"}, "is_reserved": 0, "is_disabled": 0, "name": "184e965d93a2f6a7b16c168f83bb017b", "bike_id": "184e965d93a2f6a7b16c168f83bb017b", "fusion_lat": 0.0, "lon": -77.0500535, "type": "electric_scooter", "fusion_lon": 0.0, "lat": 38.89229383333333}, {"rental_uris": {"android": "https://dc.lft.to/lastmile_qr_scan", "ios": "https://dc.lft.to/lastmile_qr_scan"}, "is_reserved": 0, "is_disabled": 0, "name": "0021890b4d82e9d40f78d4728e6255ce", "bike_id": "0021890b4d82e9d40f78d4728e6255ce", "fusion_lat": 0.0, "lon": -77.0366085, "type": "electric_scooter", "fusion_lon": 0.0, "lat": 38.90379866666667}, {"rental_uris": {"android": "https://dc.lft.to/lastmile_qr_scan", "ios": "https://dc.lft.to/lastmile_qr_scan"}, "is_reserved": 0, "is_disabled": 0, "name": "b84f47bc73788bd18bd4025d0c2f0f66", "bike_id": "b84f47bc73788bd18bd4025d0c2f0f66", "fusion_lat": 0.0, "lon": -77.01889583333333, "type": "electric_scooter", "fusion_lon": 0.0, "lat": 38.914856}, {"rental_uris": {"android": "https://dc.lft.to/lastmile_qr_scan", "ios": "https://dc.lft.to/lastmile_qr_scan"}, "is_reserved": 0, "is_disabled": 0, "name": "e887970a51826ab82a98835c84f7762f", "bike_id": "e887970a51826ab82a98835c84f7762f", "fusion_lat": 0.0, "lon": -77.000695, "type": "electric_scooter", "fusion_lon": 0.0, "lat": 38.87662266666667}, {"rental_uris": {"android": "https://dc.lft.to/lastmile_qr_scan", "ios": "https://dc.lft.to/lastmile_qr_scan"}, "is_reserved": 0, "is_disabled": 0, "name": "7b2f7415803678769cf533d1faa58d42", "bike_id": "7b2f7415803678769cf533d1faa58d42", "fusion_lat": 0.0, "lon": -76.95203216666667, "type": "electric_scooter", "fusion_lon": 0.0, "lat": 38.9051125}, {"rental_uris": {"android": "https://dc.lft.to/lastmile_qr_scan", "ios": "https://dc.lft.to/lastmile_qr_scan"}, "is_reserved": 0, "is_disabled": 0, "name": "2f3cf8e18c95246a64e24083f0fbeba1", "bike_id": "2f3cf8e18c95246a64e24083f0fbeba1", "fusion_lat": 0.0, "lon": -77.0436385, "type": "electric_scooter", "fusion_lon": 0.0, "lat": 38.90430116666667}, {"rental_uris": {"android": "https://dc.lft.to/lastmile_qr_scan", "ios": "https://dc.lft.to/lastmile_qr_scan"}, "is_reserved": 0, "is_disabled": 0, "name": "a923c76850af9be4ecd3934026e4a1b0", "bike_id": "a923c76850af9be4ecd3934026e4a1b0", "fusion_lat": 0.0, "lon": -77.03651933333333, "type": "electric_scooter", "fusion_lon": 0.0, "lat": 38.9067625}, {"rental_uris": {"android": "https://dc.lft.to/lastmile_qr_scan", "ios": "https://dc.lft.to/lastmile_qr_scan"}, "is_reserved": 0, "is_disabled": 0, "name": "5342a24a3681345e9ed6b753b273e735", "bike_id": "5342a24a3681345e9ed6b753b273e735", "fusion_lat": 0.0, "lon": -76.99114583333333, "type": "electric_scooter", "fusion_lon": 0.0, "lat": 38.90897566666666}, {"rental_uris": {"android": "https://dc.lft.to/lastmile_qr_scan", "ios": "https://dc.lft.to/lastmile_qr_scan"}, "is_reserved": 0, "is_disabled": 0, "name": "352a547cbfabf9872fe637542cc59e1f", "bike_id": "352a547cbfabf9872fe637542cc59e1f", "fusion_lat": 0.0, "lon": -77.05262416666666, "type": "electric_scooter", "fusion_lon": 0.0, "lat": 38.90143}, {"rental_uris": {"android": "https://dc.lft.to/lastmile_qr_scan", "ios": "https://dc.lft.to/lastmile_qr_scan"}, "is_reserved": 0, "is_disabled": 0, "name": "53b0ceffe9c3546c8ee9d061869c3bfe", "bike_id": "53b0ceffe9c3546c8ee9d061869c3bfe", "fusion_lat": 0.0, "lon": -76.97530816666666, "type": "electric_bike", "fusion_lon": 0.0, "lat": 38.90329366666667}, {"rental_uris": {"android": "https://dc.lft.to/lastmile_qr_scan", "ios": "https://dc.lft.to/lastmile_qr_scan"}, "is_reserved": 0, "is_disabled": 0, "name": "bd545a35e26c4a6a316cd4709c0d03f2", "bike_id": "bd545a35e26c4a6a316cd4709c0d03f2", "fusion_lat": 0.0, "lon": -77.04101583333333, "type": "electric_scooter", "fusion_lon": 0.0, "lat": 38.9012375}, {"rental_uris": {"android": "https://dc.lft.to/lastmile_qr_scan", "ios": "https://dc.lft.to/lastmile_qr_scan"}, "is_reserved": 0, "is_disabled": 0, "name": "cd6cb073d38b55c3511bde69e8f5ef8b", "bike_id": "cd6cb073d38b55c3511bde69e8f5ef8b", "fusion_lat": 0.0, "lon": -77.002967, "type": "electric_scooter", "fusion_lon": 0.0, "lat": 38.891951666666664}, {"rental_uris": {"android": "https://dc.lft.to/lastmile_qr_scan", "ios": "https://dc.lft.to/lastmile_qr_scan"}, "is_reserved": 0, "is_disabled": 0, "name": "da6dd9cc465848d3a4e54e2dde6d6be3", "bike_id": "da6dd9cc465848d3a4e54e2dde6d6be3", "fusion_lat": 0.0, "lon": -77.05330733333334, "type": "electric_scooter", "fusion_lon": 0.0, "lat": 38.9016655}, {"rental_uris": {"android": "https://dc.lft.to/lastmile_qr_scan", "ios": "https://dc.lft.to/lastmile_qr_scan"}, "is_reserved": 0, "is_disabled": 0, "name": "fe40f31a0a44b16cfca1ab6cac7dbc26", "bike_id": "fe40f31a0a44b16cfca1ab6cac7dbc26", "fusion_lat": 0.0, "lon": -77.03047083333334, "type": "electric_scooter", "fusion_lon": 0.0, "lat": 38.90394416666667}, {"rental_uris": {"android": "https://dc.lft.to/lastmile_qr_scan", "ios": "https://dc.lft.to/lastmile_qr_scan"}, "is_reserved": 0, "is_disabled": 0, "name": "61ba76d17a00f44f648f1a0dfed69152", "bike_id": "61ba76d17a00f44f648f1a0dfed69152", "fusion_lat": 0.0, "lon": -77.02287366666667, "type": "electric_scooter", "fusion_lon": 0.0, "lat": 38.916887333333335}, {"rental_uris": {"android": "https://dc.lft.to/lastmile_qr_scan", "ios": "https://dc.lft.to/lastmile_qr_scan"}, "is_reserved": 0, "is_disabled": 0, "name": "16403b55d128ba65c0aa60d38fc6629c", "bike_id": "16403b55d128ba65c0aa60d38fc6629c", "fusion_lat": 0.0, "lon": -77.234112, "type": "electric_bike", "fusion_lon": 0.0, "lat": 38.87579366666667}, {"rental_uris": {"android": "https://dc.lft.to/lastmile_qr_scan", "ios": "https://dc.lft.to/lastmile_qr_scan"}, "is_reserved": 0, "is_disabled": 0, "name": "371b8b61dfa3410c74b36bcdc9bd930a", "bike_id": "371b8b61dfa3410c74b36bcdc9bd930a", "fusion_lat": 0.0, "lon": -76.988468, "type": "electric_scooter", "fusion_lon": 0.0, "lat": 38.90027383333333}, {"rental_uris": {"android": "https://dc.lft.to/lastmile_qr_scan", "ios": "https://dc.lft.to/lastmile_qr_scan"}, "is_reserved": 0, "is_disabled": 0, "name": "90d19513bdab5812a653f9d9518c7f7b", "bike_id": "90d19513bdab5812a653f9d9518c7f7b", "fusion_lat": 0.0, "lon": -76.968211, "type": "electric_scooter", "fusion_lon": 0.0, "lat": 38.84716366666667}, {"rental_uris": {"android": "https://dc.lft.to/lastmile_qr_scan", "ios": "https://dc.lft.to/lastmile_qr_scan"}, "is_reserved": 0, "is_disabled": 0, "name": "903f39c9713c3c693cb0f52ff77efd85", "bike_id": "903f39c9713c3c693cb0f52ff77efd85", "fusion_lat": 0.0, "lon": -77.06111666666666, "type": "electric_scooter", "fusion_lon": 0.0, "lat": 38.9023145}, {"rental_uris": {"android": "https://dc.lft.to/lastmile_qr_scan", "ios": "https://dc.lft.to/lastmile_qr_scan"}, "is_reserved": 0, "is_disabled": 0, "name": "2e4978d222bfc9fb423066a04d379823", "bike_id": "2e4978d222bfc9fb423066a04d379823", "fusion_lat": 0.0, "lon": -76.9632145, "type": "electric_bike", "fusion_lon": 0.0, "lat": 38.938953833333336}, {"rental_uris": {"android": "https://dc.lft.to/lastmile_qr_scan", "ios": "https://dc.lft.to/lastmile_qr_scan"}, "is_reserved": 0, "is_disabled": 0, "name": "957fe532c4e2259a5d75e5844ef2b33b", "bike_id": "957fe532c4e2259a5d75e5844ef2b33b", "fusion_lat": 0.0, "lon": -77.02370316666666, "type": "electric_scooter", "fusion_lon": 0.0, "lat": 38.90217766666667}, {"rental_uris": {"android": "https://dc.lft.to/lastmile_qr_scan", "ios": "https://dc.lft.to/lastmile_qr_scan"}, "is_reserved": 0, "is_disabled": 0, "name": "6b20036b423669a68b136ece0d11f0fc", "bike_id": "6b20036b423669a68b136ece0d11f0fc", "fusion_lat": 0.0, "lon": -77.03456233333333, "type": "electric_scooter", "fusion_lon": 0.0, "lat": 38.92156216666667}, {"rental_uris": {"android": "https://dc.lft.to/lastmile_qr_scan", "ios": "https://dc.lft.to/lastmile_qr_scan"}, "is_reserved": 0, "is_disabled": 0, "name": "507233b46c7a95bfd94dd3373c232fdf", "bike_id": "507233b46c7a95bfd94dd3373c232fdf", "fusion_lat": 0.0, "lon": -77.0137225, "type": "electric_scooter", "fusion_lon": 0.0, "lat": 38.876061666666665}, {"rental_uris": {"android": "https://dc.lft.to/lastmile_qr_scan", "ios": "https://dc.lft.to/lastmile_qr_scan"}, "is_reserved": 0, "is_disabled": 0, "name": "737d19cd47fc12c3a61636f529d0b212", "bike_id": "737d19cd47fc12c3a61636f529d0b212", "fusion_lat": 0.0, "lon": -77.00275716666667, "type": "electric_bike", "fusion_lon": 0.0, "lat": 38.838083833333336}, {"rental_uris": {"android": "https://dc.lft.to/lastmile_qr_scan", "ios": "https://dc.lft.to/lastmile_qr_scan"}, "is_reserved": 0, "is_disabled": 0, "name": "34d5f105e9c43355aa619fb316e3e184", "bike_id": "34d5f105e9c43355aa619fb316e3e184", "fusion_lat": 0.0, "lon": -77.00374616666667, "type": "electric_bike", "fusion_lon": 0.0, "lat": 38.83603433333333}, {"rental_uris": {"android": "https://dc.lft.to/lastmile_qr_scan", "ios": "https://dc.lft.to/lastmile_qr_scan"}, "is_reserved": 0, "is_disabled": 0, "name": "c607a347701221ed3293dc21d190f673", "bike_id": "c607a347701221ed3293dc21d190f673", "fusion_lat": 0.0, "lon": -77.01946066666666, "type": "electric_scooter", "fusion_lon": 0.0, "lat": 38.92421733333333}, {"rental_uris": {"android": "https://dc.lft.to/lastmile_qr_scan", "ios": "https://dc.lft.to/lastmile_qr_scan"}, "is_reserved": 0, "is_disabled": 0, "name": "d6dd519a28f7de04e27ec12788a43c5a", "bike_id": "d6dd519a28f7de04e27ec12788a43c5a", "fusion_lat": 0.0, "lon": -77.02748433333333, "type": "electric_scooter", "fusion_lon": 0.0, "lat": 38.966474833333336}, {"rental_uris": {"android": "https://dc.lft.to/lastmile_qr_scan", "ios": "https://dc.lft.to/lastmile_qr_scan"}, "is_reserved": 0, "is_disabled": 0, "name": "c0ddede5d45d46b3bb1fc37ddb0b6681", "bike_id": "c0ddede5d45d46b3bb1fc37ddb0b6681", "fusion_lat": 0.0, "lon": -77.02697066666667, "type": "electric_scooter", "fusion_lon": 0.0, "lat": 38.916720833333336}, {"rental_uris": {"android": "https://dc.lft.to/lastmile_qr_scan", "ios": "https://dc.lft.to/lastmile_qr_scan"}, "is_reserved": 0, "is_disabled": 0, "name": "38d81040013c3d37e28ca3e2adabb189", "bike_id": "38d81040013c3d37e28ca3e2adabb189", "fusion_lat": 0.0, "lon": -76.9853035, "type": "electric_scooter", "fusion_lon": 0.0, "lat": 38.90020583333333}, {"rental_uris": {"android": "https://dc.lft.to/lastmile_qr_scan", "ios": "https://dc.lft.to/lastmile_qr_scan"}, "is_reserved": 0, "is_disabled": 0, "name": "36cb9b98591b472676dad31594b13ada", "bike_id": "36cb9b98591b472676dad31594b13ada", "fusion_lat": 0.0, "lon": -77.03583866666666, "type": "electric_bike", "fusion_lon": 0.0, "lat": 38.992277333333334}, {"rental_uris": {"android": "https://dc.lft.to/lastmile_qr_scan", "ios": "https://dc.lft.to/lastmile_qr_scan"}, "is_reserved": 0, "is_disabled": 0, "name": "e8b81701fe7d17d0991ee0355bc71152", "bike_id": "e8b81701fe7d17d0991ee0355bc71152", "fusion_lat": 0.0, "lon": -77.01857533333333, "type": "electric_scooter", "fusion_lon": 0.0, "lat": 38.949195833333334}, {"rental_uris": {"android": "https://dc.lft.to/lastmile_qr_scan", "ios": "https://dc.lft.to/lastmile_qr_scan"}, "is_reserved": 0, "is_disabled": 0, "name": "0ba0dd9bcc839c9abf3c9ee12a8e340b", "bike_id": "0ba0dd9bcc839c9abf3c9ee12a8e340b", "fusion_lat": 0.0, "lon": -77.02951266666666, "type": "electric_scooter", "fusion_lon": 0.0, "lat": 38.943058}, {"rental_uris": {"android": "https://dc.lft.to/lastmile_qr_scan", "ios": "https://dc.lft.to/lastmile_qr_scan"}, "is_reserved": 0, "is_disabled": 0, "name": "18f0c3d738f896f3ee8fdccd7883b87f", "bike_id": "18f0c3d738f896f3ee8fdccd7883b87f", "fusion_lat": 0.0, "lon": -77.05918783333334, "type": "electric_scooter", "fusion_lon": 0.0, "lat": 38.90174616666667}, {"rental_uris": {"android": "https://dc.lft.to/lastmile_qr_scan", "ios": "https://dc.lft.to/lastmile_qr_scan"}, "is_reserved": 0, "is_disabled": 0, "name": "c9e4d28e4b9370eab0d8870e2941bf07", "bike_id": "c9e4d28e4b9370eab0d8870e2941bf07", "fusion_lat": 0.0, "lon": -77.024553, "type": "electric_scooter", "fusion_lon": 0.0, "lat": 38.9000885}, {"rental_uris": {"android": "https://dc.lft.to/lastmile_qr_scan", "ios": "https://dc.lft.to/lastmile_qr_scan"}, "is_reserved": 0, "is_disabled": 0, "name": "f1dfbe3fcae6ac197055d6d72d07ec72", "bike_id": "f1dfbe3fcae6ac197055d6d72d07ec72", "fusion_lat": 0.0, "lon": -77.03277, "type": "electric_scooter", "fusion_lon": 0.0, "lat": 38.899985666666666}, {"rental_uris": {"android": "https://dc.lft.to/lastmile_qr_scan", "ios": "https://dc.lft.to/lastmile_qr_scan"}, "is_reserved": 0, "is_disabled": 0, "name": "dd47c803cb321a41b1b8cc53482e0e12", "bike_id": "dd47c803cb321a41b1b8cc53482e0e12", "fusion_lat": 0.0, "lon": -77.028145, "type": "electric_scooter", "fusion_lon": 0.0, "lat": 38.8993105}, {"rental_uris": {"android": "https://dc.lft.to/lastmile_qr_scan", "ios": "https://dc.lft.to/lastmile_qr_scan"}, "is_reserved": 0, "is_disabled": 0, "name": "225a90976719e6ae416af8eed8c4efe1", "bike_id": "225a90976719e6ae416af8eed8c4efe1", "fusion_lat": 0.0, "lon": -77.02810483333333, "type": "electric_scooter", "fusion_lon": 0.0, "lat": 38.89781933333333}, {"rental_uris": {"android": "https://dc.lft.to/lastmile_qr_scan", "ios": "https://dc.lft.to/lastmile_qr_scan"}, "is_reserved": 0, "is_disabled": 0, "name": "29dccec9106a43eb50cd2323bde58d41", "bike_id": "29dccec9106a43eb50cd2323bde58d41", "fusion_lat": 0.0, "lon": -77.0350215, "type": "electric_scooter", "fusion_lon": 0.0, "lat": 38.9214675}, {"rental_uris": {"android": "https://dc.lft.to/lastmile_qr_scan", "ios": "https://dc.lft.to/lastmile_qr_scan"}, "is_reserved": 0, "is_disabled": 0, "name": "0fae2729341ffb2af6e34da591d0e17f", "bike_id": "0fae2729341ffb2af6e34da591d0e17f", "fusion_lat": 0.0, "lon": -77.04074833333334, "type": "electric_scooter", "fusion_lon": 0.0, "lat": 38.902482}, {"rental_uris": {"android": "https://dc.lft.to/lastmile_qr_scan", "ios": "https://dc.lft.to/lastmile_qr_scan"}, "is_reserved": 0, "is_disabled": 0, "name": "48119022d5eddf075a7a7d955a9e67ea", "bike_id": "48119022d5eddf075a7a7d955a9e67ea", "fusion_lat": 0.0, "lon": -77.03049033333333, "type": "electric_scooter", "fusion_lon": 0.0, "lat": 38.9031835}, {"rental_uris": {"android": "https://dc.lft.to/lastmile_qr_scan", "ios": "https://dc.lft.to/lastmile_qr_scan"}, "is_reserved": 0, "is_disabled": 0, "name": "aecc310bb4312e4f88d1fa9507b1f7a8", "bike_id": "aecc310bb4312e4f88d1fa9507b1f7a8", "fusion_lat": 0.0, "lon": -77.05321166666667, "type": "electric_scooter", "fusion_lon": 0.0, "lat": 38.915505}, {"rental_uris": {"android": "https://dc.lft.to/lastmile_qr_scan", "ios": "https://dc.lft.to/lastmile_qr_scan"}, "is_reserved": 0, "is_disabled": 0, "name": "9aa1252b98aa6816d4d2042ca4a9e403", "bike_id": "9aa1252b98aa6816d4d2042ca4a9e403", "fusion_lat": 0.0, "lon": -77.02195116666667, "type": "electric_scooter", "fusion_lon": 0.0, "lat": 38.90021616666667}, {"rental_uris": {"android": "https://dc.lft.to/lastmile_qr_scan", "ios": "https://dc.lft.to/lastmile_qr_scan"}, "is_reserved": 0, "is_disabled": 0, "name": "41e88aacf189f50db981c0c9c1785493", "bike_id": "41e88aacf189f50db981c0c9c1785493", "fusion_lat": 0.0, "lon": -77.04191633333333, "type": "electric_scooter", "fusion_lon": 0.0, "lat": 38.9205245}, {"rental_uris": {"android": "https://dc.lft.to/lastmile_qr_scan", "ios": "https://dc.lft.to/lastmile_qr_scan"}, "is_reserved": 0, "is_disabled": 0, "name": "488e3a083f69654885023871bae2d19e", "bike_id": "488e3a083f69654885023871bae2d19e", "fusion_lat": 0.0, "lon": -77.005747, "type": "electric_scooter", "fusion_lon": 0.0, "lat": 38.88510383333333}, {"rental_uris": {"android": "https://dc.lft.to/lastmile_qr_scan", "ios": "https://dc.lft.to/lastmile_qr_scan"}, "is_reserved": 0, "is_disabled": 0, "name": "3f2029412207e04f2400f5637ca6077e", "bike_id": "3f2029412207e04f2400f5637ca6077e", "fusion_lat": 0.0, "lon": -77.03112033333333, "type": "electric_scooter", "fusion_lon": 0.0, "lat": 38.933167833333336}, {"rental_uris": {"android": "https://dc.lft.to/lastmile_qr_scan", "ios": "https://dc.lft.to/lastmile_qr_scan"}, "is_reserved": 0, "is_disabled": 0, "name": "7aec97d9557faab31283920de0cf404f", "bike_id": "7aec97d9557faab31283920de0cf404f", "fusion_lat": 0.0, "lon": -77.02215133333333, "type": "electric_scooter", "fusion_lon": 0.0, "lat": 38.917884666666666}, {"rental_uris": {"android": "https://dc.lft.to/lastmile_qr_scan", "ios": "https://dc.lft.to/lastmile_qr_scan"}, "is_reserved": 0, "is_disabled": 0, "name": "32b2ebfecbd162a623dd4f7687248bfe", "bike_id": "32b2ebfecbd162a623dd4f7687248bfe", "fusion_lat": 0.0, "lon": -77.0316245, "type": "electric_scooter", "fusion_lon": 0.0, "lat": 38.89215383333333}, {"rental_uris": {"android": "https://dc.lft.to/lastmile_qr_scan", "ios": "https://dc.lft.to/lastmile_qr_scan"}, "is_reserved": 0, "is_disabled": 0, "name": "a3a4b4d830d93d32b1119cacf7ace389", "bike_id": "a3a4b4d830d93d32b1119cacf7ace389", "fusion_lat": 0.0, "lon": -77.04424583333333, "type": "electric_scooter", "fusion_lon": 0.0, "lat": 38.90379083333333}, {"rental_uris": {"android": "https://dc.lft.to/lastmile_qr_scan", "ios": "https://dc.lft.to/lastmile_qr_scan"}, "is_reserved": 0, "is_disabled": 0, "name": "a17421f193bb6ea013d72b0f14e2448e", "bike_id": "a17421f193bb6ea013d72b0f14e2448e", "fusion_lat": 0.0, "lon": -77.02446083333334, "type": "electric_scooter", "fusion_lon": 0.0, "lat": 38.937227}, {"rental_uris": {"android": "https://dc.lft.to/lastmile_qr_scan", "ios": "https://dc.lft.to/lastmile_qr_scan"}, "is_reserved": 0, "is_disabled": 0, "name": "cd547edff6f41c5828d22640cc1ea53d", "bike_id": "cd547edff6f41c5828d22640cc1ea53d", "fusion_lat": 0.0, "lon": -77.03416716666666, "type": "electric_scooter", "fusion_lon": 0.0, "lat": 38.92382533333333}, {"rental_uris": {"android": "https://dc.lft.to/lastmile_qr_scan", "ios": "https://dc.lft.to/lastmile_qr_scan"}, "is_reserved": 0, "is_disabled": 0, "name": "accb772879b5590618020c4a269d1ea9", "bike_id": "accb772879b5590618020c4a269d1ea9", "fusion_lat": 0.0, "lon": -77.02514933333333, "type": "electric_scooter", "fusion_lon": 0.0, "lat": 38.91759016666666}, {"rental_uris": {"android": "https://dc.lft.to/lastmile_qr_scan", "ios": "https://dc.lft.to/lastmile_qr_scan"}, "is_reserved": 0, "is_disabled": 0, "name": "6e7031b0f270ff8a517d1211fb2e0843", "bike_id": "6e7031b0f270ff8a517d1211fb2e0843", "fusion_lat": 0.0, "lon": -76.98797616666667, "type": "electric_scooter", "fusion_lon": 0.0, "lat": 38.9003165}, {"rental_uris": {"android": "https://dc.lft.to/lastmile_qr_scan", "ios": "https://dc.lft.to/lastmile_qr_scan"}, "is_reserved": 0, "is_disabled": 0, "name": "9c54b28f8feb1cd71cc63047915e9927", "bike_id": "9c54b28f8feb1cd71cc63047915e9927", "fusion_lat": 0.0, "lon": -76.98371783333333, "type": "electric_scooter", "fusion_lon": 0.0, "lat": 38.8926485}, {"rental_uris": {"android": "https://dc.lft.to/lastmile_qr_scan", "ios": "https://dc.lft.to/lastmile_qr_scan"}, "is_reserved": 0, "is_disabled": 0, "name": "dca238f15fd91bc293bcb65f27bf27e6", "bike_id": "dca238f15fd91bc293bcb65f27bf27e6", "fusion_lat": 0.0, "lon": -77.03084983333333, "type": "electric_scooter", "fusion_lon": 0.0, "lat": 38.89978216666667}, {"rental_uris": {"android": "https://dc.lft.to/lastmile_qr_scan", "ios": "https://dc.lft.to/lastmile_qr_scan"}, "is_reserved": 0, "is_disabled": 0, "name": "640e52041f8ab69186066a47ba05f902", "bike_id": "640e52041f8ab69186066a47ba05f902", "fusion_lat": 0.0, "lon": -77.07486433333334, "type": "electric_scooter", "fusion_lon": 0.0, "lat": 38.962019166666664}, {"rental_uris": {"android": "https://dc.lft.to/lastmile_qr_scan", "ios": "https://dc.lft.to/lastmile_qr_scan"}, "is_reserved": 0, "is_disabled": 0, "name": "22ed93eeaeeceec01ee53e05bed763b9", "bike_id": "22ed93eeaeeceec01ee53e05bed763b9", "fusion_lat": 0.0, "lon": -77.04327, "type": "electric_scooter", "fusion_lon": 0.0, "lat": 38.926140333333336}, {"rental_uris": {"android": "https://dc.lft.to/lastmile_qr_scan", "ios": "https://dc.lft.to/lastmile_qr_scan"}, "is_reserved": 0, "is_disabled": 0, "name": "85dc8ab2df2b3f68cb50ef62d02b09b1", "bike_id": "85dc8ab2df2b3f68cb50ef62d02b09b1", "fusion_lat": 0.0, "lon": -77.039435, "type": "electric_scooter", "fusion_lon": 0.0, "lat": 38.898292166666664}, {"rental_uris": {"android": "https://dc.lft.to/lastmile_qr_scan", "ios": "https://dc.lft.to/lastmile_qr_scan"}, "is_reserved": 0, "is_disabled": 0, "name": "82e58a61d9c40038bdf22cf8d8aad409", "bike_id": "82e58a61d9c40038bdf22cf8d8aad409", "fusion_lat": 0.0, "lon": -76.929543, "type": "electric_scooter", "fusion_lon": 0.0, "lat": 38.884333}, {"rental_uris": {"android": "https://dc.lft.to/lastmile_qr_scan", "ios": "https://dc.lft.to/lastmile_qr_scan"}, "is_reserved": 0, "is_disabled": 0, "name": "6ea69db7e6c373ffb89eea13867f1970", "bike_id": "6ea69db7e6c373ffb89eea13867f1970", "fusion_lat": 0.0, "lon": -77.0131935, "type": "electric_scooter", "fusion_lon": 0.0, "lat": 38.892268666666666}, {"rental_uris": {"android": "https://dc.lft.to/lastmile_qr_scan", "ios": "https://dc.lft.to/lastmile_qr_scan"}, "is_reserved": 0, "is_disabled": 0, "name": "56a53c810e79fb8ff3a0c4333a8aa029", "bike_id": "56a53c810e79fb8ff3a0c4333a8aa029", "fusion_lat": 0.0, "lon": -77.0520155, "type": "electric_scooter", "fusion_lon": 0.0, "lat": 38.9243515}, {"rental_uris": {"android": "https://dc.lft.to/lastmile_qr_scan", "ios": "https://dc.lft.to/lastmile_qr_scan"}, "is_reserved": 0, "is_disabled": 0, "name": "eccc6f95f1501b479adac3b6a2f81958", "bike_id": "eccc6f95f1501b479adac3b6a2f81958", "fusion_lat": 0.0, "lon": -76.98571183333334, "type": "electric_scooter", "fusion_lon": 0.0, "lat": 38.89623866666667}, {"rental_uris": {"android": "https://dc.lft.to/lastmile_qr_scan", "ios": "https://dc.lft.to/lastmile_qr_scan"}, "is_reserved": 0, "is_disabled": 0, "name": "a7b3ec6d20d13836f77bda10aa4d7190", "bike_id": "a7b3ec6d20d13836f77bda10aa4d7190", "fusion_lat": 0.0, "lon": -77.02825316666667, "type": "electric_scooter", "fusion_lon": 0.0, "lat": 38.887328333333336}, {"rental_uris": {"android": "https://dc.lft.to/lastmile_qr_scan", "ios": "https://dc.lft.to/lastmile_qr_scan"}, "is_reserved": 0, "is_disabled": 0, "name": "f9701aa4657a6916abb02457d76de23c", "bike_id": "f9701aa4657a6916abb02457d76de23c", "fusion_lat": 0.0, "lon": -77.0446445, "type": "electric_scooter", "fusion_lon": 0.0, "lat": 38.90271033333333}, {"rental_uris": {"android": "https://dc.lft.to/lastmile_qr_scan", "ios": "https://dc.lft.to/lastmile_qr_scan"}, "is_reserved": 0, "is_disabled": 0, "name": "1df4b1d9a623366e8787f52fa6c333af", "bike_id": "1df4b1d9a623366e8787f52fa6c333af", "fusion_lat": 0.0, "lon": -77.002763, "type": "electric_scooter", "fusion_lon": 0.0, "lat": 38.8921375}, {"rental_uris": {"android": "https://dc.lft.to/lastmile_qr_scan", "ios": "https://dc.lft.to/lastmile_qr_scan"}, "is_reserved": 0, "is_disabled": 0, "name": "35266647f0270d443ddb887986fd5b3a", "bike_id": "35266647f0270d443ddb887986fd5b3a", "fusion_lat": 0.0, "lon": -77.02907316666666, "type": "electric_scooter", "fusion_lon": 0.0, "lat": 38.95296183333333}, {"rental_uris": {"android": "https://dc.lft.to/lastmile_qr_scan", "ios": "https://dc.lft.to/lastmile_qr_scan"}, "is_reserved": 0, "is_disabled": 0, "name": "37ba9a04272220bff8af4deb870ecdf1", "bike_id": "37ba9a04272220bff8af4deb870ecdf1", "fusion_lat": 0.0, "lon": -77.01951183333334, "type": "electric_scooter", "fusion_lon": 0.0, "lat": 38.922755333333335}, {"rental_uris": {"android": "https://dc.lft.to/lastmile_qr_scan", "ios": "https://dc.lft.to/lastmile_qr_scan"}, "is_reserved": 0, "is_disabled": 0, "name": "eb026d30d88ea9ee4b23fbe38850fd7a", "bike_id": "eb026d30d88ea9ee4b23fbe38850fd7a", "fusion_lat": 0.0, "lon": -77.03590933333334, "type": "electric_scooter", "fusion_lon": 0.0, "lat": 38.903564}, {"rental_uris": {"android": "https://dc.lft.to/lastmile_qr_scan", "ios": "https://dc.lft.to/lastmile_qr_scan"}, "is_reserved": 0, "is_disabled": 0, "name": "a45f0de7eb879e3fbcf749231ff83abb", "bike_id": "a45f0de7eb879e3fbcf749231ff83abb", "fusion_lat": 0.0, "lon": -77.05350066666666, "type": "electric_scooter", "fusion_lon": 0.0, "lat": 38.9232735}, {"rental_uris": {"android": "https://dc.lft.to/lastmile_qr_scan", "ios": "https://dc.lft.to/lastmile_qr_scan"}, "is_reserved": 0, "is_disabled": 0, "name": "a7a33ee8854f031e08238f70a10bd1d3", "bike_id": "a7a33ee8854f031e08238f70a10bd1d3", "fusion_lat": 0.0, "lon": -76.99697733333333, "type": "electric_scooter", "fusion_lon": 0.0, "lat": 38.884217}, {"rental_uris": {"android": "https://dc.lft.to/lastmile_qr_scan", "ios": "https://dc.lft.to/lastmile_qr_scan"}, "is_reserved": 0, "is_disabled": 0, "name": "7d84cce1baf0d1be89725267a3c35171", "bike_id": "7d84cce1baf0d1be89725267a3c35171", "fusion_lat": 0.0, "lon": -77.01629366666667, "type": "electric_scooter", "fusion_lon": 0.0, "lat": 38.91690933333334}, {"rental_uris": {"android": "https://dc.lft.to/lastmile_qr_scan", "ios": "https://dc.lft.to/lastmile_qr_scan"}, "is_reserved": 0, "is_disabled": 0, "name": "c4aa5c558c35812eb9e3e0f62a1376a4", "bike_id": "c4aa5c558c35812eb9e3e0f62a1376a4", "fusion_lat": 0.0, "lon": -77.036772, "type": "electric_scooter", "fusion_lon": 0.0, "lat": 38.9156315}, {"rental_uris": {"android": "https://dc.lft.to/lastmile_qr_scan", "ios": "https://dc.lft.to/lastmile_qr_scan"}, "is_reserved": 0, "is_disabled": 0, "name": "add559ef3c2aed67ad8594405160bf55", "bike_id": "add559ef3c2aed67ad8594405160bf55", "fusion_lat": 0.0, "lon": -77.04408583333333, "type": "electric_bike", "fusion_lon": 0.0, "lat": 38.90135933333333}, {"rental_uris": {"android": "https://dc.lft.to/lastmile_qr_scan", "ios": "https://dc.lft.to/lastmile_qr_scan"}, "is_reserved": 0, "is_disabled": 0, "name": "c38b4849434ff0802270b0560ce6c022", "bike_id": "c38b4849434ff0802270b0560ce6c022", "fusion_lat": 0.0, "lon": -77.013347, "type": "electric_scooter", "fusion_lon": 0.0, "lat": 38.88131}, {"rental_uris": {"android": "https://dc.lft.to/lastmile_qr_scan", "ios": "https://dc.lft.to/lastmile_qr_scan"}, "is_reserved": 0, "is_disabled": 0, "name": "0ad92d59de4f0e0d1824cf494fe5a372", "bike_id": "0ad92d59de4f0e0d1824cf494fe5a372", "fusion_lat": 0.0, "lon": -76.979031, "type": "electric_bike", "fusion_lon": 0.0, "lat": 38.92695333333333}, {"rental_uris": {"android": "https://dc.lft.to/lastmile_qr_scan", "ios": "https://dc.lft.to/lastmile_qr_scan"}, "is_reserved": 0, "is_disabled": 0, "name": "925ef7784a0863c2e8bf55f6a18a5ec3", "bike_id": "925ef7784a0863c2e8bf55f6a18a5ec3", "fusion_lat": 0.0, "lon": -77.02130866666667, "type": "electric_scooter", "fusion_lon": 0.0, "lat": 38.899880833333334}, {"rental_uris": {"android": "https://dc.lft.to/lastmile_qr_scan", "ios": "https://dc.lft.to/lastmile_qr_scan"},