{"data": {"bikes": [{"fusion_lon": 0.0, "bike_id": "bf90054b35b108de8539a67742373e93", "name": "bf90054b35b108de8539a67742373e93", "type": "electric_scooter", "lon": -77.0215565, "rental_uris": {"android": "https://dc.lft.to/lastmile_qr_scan", "ios": "https://dc.lft.to/lastmile_qr_scan"}, "lat": 38.92604383333333, "is_reserved": 0, "is_disabled": 0, "fusion_lat": 0.0}, {"fusion_lon": 0.0, "bike_id": "2d589e1c150979e72c57ac40aad46115", "name": "2d589e1c150979e72c57ac40aad46115", "type": "electric_scooter", "lon": -77.03529533333334, "rental_uris": {"android": "https://dc.lft.to/lastmile_qr_scan", "ios": "https://dc.lft.to/lastmile_qr_scan"}, "lat": 38.924739333333335, "is_reserved": 0, "is_disabled": 0, "fusion_lat": 0.0}, {"fusion_lon": 0.0, "bike_id": "3618a66f799218bab2547c8aca7033b9", "name": "3618a66f799218bab2547c8aca7033b9", "type": "electric_scooter", "lon": -77.00890883333334, "rental_uris": {"android": "https://dc.lft.to/lastmile_qr_scan", "ios": "https://dc.lft.to/lastmile_qr_scan"}, "lat": 38.8733205, "is_reserved": 0, "is_disabled": 0, "fusion_lat": 0.0}, {"fusion_lon": 0.0, "bike_id": "e962b5a3cb38c3d154c9e6dad4ccb661", "name": "e962b5a3cb38c3d154c9e6dad4ccb661", "type": "electric_scooter", "lon": -77.01696916666667, "rental_uris": {"android": "https://dc.lft.to/lastmile_qr_scan", "ios": "https://dc.lft.to/lastmile_qr_scan"}, "lat": 38.90515416666667, "is_reserved": 0, "is_disabled": 0, "fusion_lat": 0.0}, {"fusion_lon": 0.0, "bike_id": "87e8ea94a98a5ed5116f23bfaf33d136", "name": "87e8ea94a98a5ed5116f23bfaf33d136", "type": "electric_scooter", "lon": -76.988132, "rental_uris": {"android": "https://dc.lft.to/lastmile_qr_scan", "ios": "https://dc.lft.to/lastmile_qr_scan"}, "lat": 38.887075, "is_reserved": 0, "is_disabled": 0, "fusion_lat": 0.0}, {"fusion_lon": 0.0, "bike_id": "de0f4158b2112bb5ba22e4483d7ee080", "name": "de0f4158b2112bb5ba22e4483d7ee080", "type": "electric_scooter", "lon": -76.9871535, "rental_uris": {"android": "https://dc.lft.to/lastmile_qr_scan", "ios": "https://dc.lft.to/lastmile_qr_scan"}, "lat": 38.867016166666666, "is_reserved": 0, "is_disabled": 0, "fusion_lat": 0.0}, {"fusion_lon": 0.0, "bike_id": "b5c1ea6dc62536e8a5957f4686f84faa", "name": "b5c1ea6dc62536e8a5957f4686f84faa", "type": "electric_scooter", "lon": -77.047706, "rental_uris": {"android": "https://dc.lft.to/lastmile_qr_scan", "ios": "https://dc.lft.to/lastmile_qr_scan"}, "lat": 38.908534333333336, "is_reserved": 0, "is_disabled": 0, "fusion_lat": 0.0}, {"fusion_lon": 0.0, "bike_id": "8837d2cfa30ffb61527cc7fb210f8d81", "name": "8837d2cfa30ffb61527cc7fb210f8d81", "type": "electric_bike", "lon": -77.12503483333333, "rental_uris": {"android": "https://dc.lft.to/lastmile_qr_scan", "ios": "https://dc.lft.to/lastmile_qr_scan"}, "lat": 39.0242665, "is_reserved": 0, "is_disabled": 0, "fusion_lat": 0.0}, {"fusion_lon": 0.0, "bike_id": "23f9f219c45afb7def1ccfacde9efb4c", "name": "23f9f219c45afb7def1ccfacde9efb4c", "type": "electric_scooter", "lon": -77.0266635, "rental_uris": {"android": "https://dc.lft.to/lastmile_qr_scan", "ios": "https://dc.lft.to/lastmile_qr_scan"}, "lat": 38.89610033333334, "is_reserved": 0, "is_disabled": 0, "fusion_lat": 0.0}, {"fusion_lon": 0.0, "bike_id": "008f88fdcb6bf173c4b5a3eae42caac2", "name": "008f88fdcb6bf173c4b5a3eae42caac2", "type": "electric_scooter", "lon": -77.032125, "rental_uris": {"android": "https://dc.lft.to/lastmile_qr_scan", "ios": "https://dc.lft.to/lastmile_qr_scan"}, "lat": 38.92581366666667, "is_reserved": 0, "is_disabled": 0, "fusion_lat": 0.0}, {"fusion_lon": 0.0, "bike_id": "54d334282cf2ad6a4fd950217eeca8d9", "name": "54d334282cf2ad6a4fd950217eeca8d9", "type": "electric_bike", "lon": -76.9956555, "rental_uris": {"android": "https://dc.lft.to/lastmile_qr_scan", "ios": "https://dc.lft.to/lastmile_qr_scan"}, "lat": 39.0078285, "is_reserved": 0, "is_disabled": 0, "fusion_lat": 0.0}, {"fusion_lon": 0.0, "bike_id": "8ed7d2a120d7ea74fe0cef4fcf4bfb9d", "name": "8ed7d2a120d7ea74fe0cef4fcf4bfb9d", "type": "electric_bike", "lon": -77.0956125, "rental_uris": {"android": "https://dc.lft.to/lastmile_qr_scan", "ios": "https://dc.lft.to/lastmile_qr_scan"}, "lat": 38.91706516666667, "is_reserved": 0, "is_disabled": 0, "fusion_lat": 0.0}, {"fusion_lon": 0.0, "bike_id": "bd86369867a90fb46abdc0fcf56c3e24", "name": "bd86369867a90fb46abdc0fcf56c3e24", "type": "electric_scooter", "lon": -77.03316333333333, "rental_uris": {"android": "https://dc.lft.to/lastmile_qr_scan", "ios": "https://dc.lft.to/lastmile_qr_scan"}, "lat": 38.91571166666667, "is_reserved": 0, "is_disabled": 0, "fusion_lat": 0.0}, {"fusion_lon": 0.0, "bike_id": "392b01d812766b096c5452db5e8391aa", "name": "392b01d812766b096c5452db5e8391aa", "type": "electric_scooter", "lon": -76.9916425, "rental_uris": {"android": "https://dc.lft.to/lastmile_qr_scan", "ios": "https://dc.lft.to/lastmile_qr_scan"}, "lat": 38.879162666666666, "is_reserved": 0, "is_disabled": 0, "fusion_lat": 0.0}, {"fusion_lon": 0.0, "bike_id": "a8dea0c25174246288be34ea93f45e4b", "name": "a8dea0c25174246288be34ea93f45e4b", "type": "electric_scooter", "lon": -77.047499, "rental_uris": {"android": "https://dc.lft.to/lastmile_qr_scan", "ios": "https://dc.lft.to/lastmile_qr_scan"}, "lat": 38.902378666666664, "is_reserved": 0, "is_disabled": 0, "fusion_lat": 0.0}, {"fusion_lon": 0.0, "bike_id": "e811c04de22e08163626bcd12c1d5b70", "name": "e811c04de22e08163626bcd12c1d5b70", "type": "electric_scooter", "lon": -77.045081, "rental_uris": {"android": "https://dc.lft.to/lastmile_qr_scan", "ios": "https://dc.lft.to/lastmile_qr_scan"}, "lat": 38.9128085, "is_reserved": 0, "is_disabled": 0, "fusion_lat": 0.0}, {"fusion_lon": 0.0, "bike_id": "4d56d7bfaf5fa5caffb7b2ff2ce020f4", "name": "4d56d7bfaf5fa5caffb7b2ff2ce020f4", "type": "electric_scooter", "lon": -76.998259, "rental_uris": {"android": "https://dc.lft.to/lastmile_qr_scan", "ios": "https://dc.lft.to/lastmile_qr_scan"}, "lat": 38.90718483333333, "is_reserved": 0, "is_disabled": 0, "fusion_lat": 0.0}, {"fusion_lon": 0.0, "bike_id": "650506695de55fb4bb9774f6200f8e19", "name": "650506695de55fb4bb9774f6200f8e19", "type": "electric_bike", "lon": -77.12258416666667, "rental_uris": {"android": "https://dc.lft.to/lastmile_qr_scan", "ios": "https://dc.lft.to/lastmile_qr_scan"}, "lat": 38.887699166666664, "is_reserved": 0, "is_disabled": 0, "fusion_lat": 0.0}, {"fusion_lon": 0.0, "bike_id": "8badf6cff80b57706a06d1abbb4d99f3", "name": "8badf6cff80b57706a06d1abbb4d99f3", "type": "electric_scooter", "lon": -77.0414515, "rental_uris": {"android": "https://dc.lft.to/lastmile_qr_scan", "ios": "https://dc.lft.to/lastmile_qr_scan"}, "lat": 38.91710633333334, "is_reserved": 0, "is_disabled": 0, "fusion_lat": 0.0}, {"fusion_lon": 0.0, "bike_id": "8ab17ccd0e6e8fcf7f0185e1ded03a2e", "name": "8ab17ccd0e6e8fcf7f0185e1ded03a2e", "type": "electric_scooter", "lon": -77.07861583333333, "rental_uris": {"android": "https://dc.lft.to/lastmile_qr_scan", "ios": "https://dc.lft.to/lastmile_qr_scan"}, "lat": 38.92465083333333, "is_reserved": 0, "is_disabled": 0, "fusion_lat": 0.0}, {"fusion_lon": 0.0, "bike_id": "4fc63a43345aaf8b7530b5e9e814e32b", "name": "4fc63a43345aaf8b7530b5e9e814e32b", "type": "electric_scooter", "lon": -77.0058675, "rental_uris": {"android": "https://dc.lft.to/lastmile_qr_scan", "ios": "https://dc.lft.to/lastmile_qr_scan"}, "lat": 38.87663116666667, "is_reserved": 0, "is_disabled": 0, "fusion_lat": 0.0}, {"fusion_lon": 0.0, "bike_id": "5cebd3ce1941c40c743c887bc63c0a7b", "name": "5cebd3ce1941c40c743c887bc63c0a7b", "type": "electric_scooter", "lon": -77.004417, "rental_uris": {"android": "https://dc.lft.to/lastmile_qr_scan", "ios": "https://dc.lft.to/lastmile_qr_scan"}, "lat": 38.876732833333335, "is_reserved": 0, "is_disabled": 0, "fusion_lat": 0.0}, {"fusion_lon": 0.0, "bike_id": "848f398219bec4ee04f19c0e5756e3e8", "name": "848f398219bec4ee04f19c0e5756e3e8", "type": "electric_scooter", "lon": -77.02872116666667, "rental_uris": {"android": "https://dc.lft.to/lastmile_qr_scan", "ios": "https://dc.lft.to/lastmile_qr_scan"}, "lat": 38.90036283333333, "is_reserved": 0, "is_disabled": 0, "fusion_lat": 0.0}, {"fusion_lon": 0.0, "bike_id": "cfc75dabf0f513361435e033b0b2ed2a", "name": "cfc75dabf0f513361435e033b0b2ed2a", "type": "electric_bike", "lon": -77.07682733333333, "rental_uris": {"android": "https://dc.lft.to/lastmile_qr_scan", "ios": "https://dc.lft.to/lastmile_qr_scan"}, "lat": 38.83194683333333, "is_reserved": 0, "is_disabled": 0, "fusion_lat": 0.0}, {"fusion_lon": 0.0, "bike_id": "29aa389f1885e41d2003063da04fbe1b", "name": "29aa389f1885e41d2003063da04fbe1b", "type": "electric_scooter", "lon": -77.04183183333333, "rental_uris": {"android": "https://dc.lft.to/lastmile_qr_scan", "ios": "https://dc.lft.to/lastmile_qr_scan"}, "lat": 38.91265466666667, "is_reserved": 0, "is_disabled": 0, "fusion_lat": 0.0}, {"fusion_lon": 0.0, "bike_id": "676c76a8b5c875662f0bf4ed6f679d92", "name": "676c76a8b5c875662f0bf4ed6f679d92", "type": "electric_scooter", "lon": -77.01094833333333, "rental_uris": {"android": "https://dc.lft.to/lastmile_qr_scan", "ios": "https://dc.lft.to/lastmile_qr_scan"}, "lat": 38.90561016666667, "is_reserved": 0, "is_disabled": 0, "fusion_lat": 0.0}, {"fusion_lon": 0.0, "bike_id": "22ab2eb23fc54f296aceb50fa3715648", "name": "22ab2eb23fc54f296aceb50fa3715648", "type": "electric_scooter", "lon": -77.0242095, "rental_uris": {"android": "https://dc.lft.to/lastmile_qr_scan", "ios": "https://dc.lft.to/lastmile_qr_scan"}, "lat": 38.905721666666665, "is_reserved": 0, "is_disabled": 0, "fusion_lat": 0.0}, {"fusion_lon": 0.0, "bike_id": "dd1e39411520fd9cdd220aede7016c2c", "name": "dd1e39411520fd9cdd220aede7016c2c", "type": "electric_bike", "lon": -77.1122115, "rental_uris": {"android": "https://dc.lft.to/lastmile_qr_scan", "ios": "https://dc.lft.to/lastmile_qr_scan"}, "lat": 38.828781166666666, "is_reserved": 0, "is_disabled": 0, "fusion_lat": 0.0}, {"fusion_lon": 0.0, "bike_id": "dac89492c0fd31ff3e0d242aa2af2522", "name": "dac89492c0fd31ff3e0d242aa2af2522", "type": "electric_scooter", "lon": -77.034546, "rental_uris": {"android": "https://dc.lft.to/lastmile_qr_scan", "ios": "https://dc.lft.to/lastmile_qr_scan"}, "lat": 38.905655, "is_reserved": 0, "is_disabled": 0, "fusion_lat": 0.0}, {"fusion_lon": 0.0, "bike_id": "613defa4298ed3090891bef3874e02a9", "name": "613defa4298ed3090891bef3874e02a9", "type": "electric_scooter", "lon": -77.03027083333333, "rental_uris": {"android": "https://dc.lft.to/lastmile_qr_scan", "ios": "https://dc.lft.to/lastmile_qr_scan"}, "lat": 38.92669183333334, "is_reserved": 0, "is_disabled": 0, "fusion_lat": 0.0}, {"fusion_lon": 0.0, "bike_id": "c14394adbbd1585beb6d245e0de7e884", "name": "c14394adbbd1585beb6d245e0de7e884", "type": "electric_scooter", "lon": -77.04788933333333, "rental_uris": {"android": "https://dc.lft.to/lastmile_qr_scan", "ios": "https://dc.lft.to/lastmile_qr_scan"}, "lat": 38.90252183333333, "is_reserved": 0, "is_disabled": 0, "fusion_lat": 0.0}, {"fusion_lon": 0.0, "bike_id": "9412bcf54ce0faa1f73325aa548311f5", "name": "9412bcf54ce0faa1f73325aa548311f5", "type": "electric_scooter", "lon": -77.04118966666667, "rental_uris": {"android": "https://dc.lft.to/lastmile_qr_scan", "ios": "https://dc.lft.to/lastmile_qr_scan"}, "lat": 38.933996, "is_reserved": 0, "is_disabled": 0, "fusion_lat": 0.0}, {"fusion_lon": 0.0, "bike_id": "0ce223fd49a46d978b363aa72618235f", "name": "0ce223fd49a46d978b363aa72618235f", "type": "electric_bike", "lon": -76.935426, "rental_uris": {"android": "https://dc.lft.to/lastmile_qr_scan", "ios": "https://dc.lft.to/lastmile_qr_scan"}, "lat": 38.95558183333333, "is_reserved": 0, "is_disabled": 0, "fusion_lat": 0.0}, {"fusion_lon": 0.0, "bike_id": "dffabcf436dfe4a7000ff7a38c2aaa30", "name": "dffabcf436dfe4a7000ff7a38c2aaa30", "type": "electric_scooter", "lon": -77.02962183333334, "rental_uris": {"android": "https://dc.lft.to/lastmile_qr_scan", "ios": "https://dc.lft.to/lastmile_qr_scan"}, "lat": 38.928474, "is_reserved": 0, "is_disabled": 0, "fusion_lat": 0.0}, {"fusion_lon": 0.0, "bike_id": "651903b5c3dd1d17e63c7d9690f201a4", "name": "651903b5c3dd1d17e63c7d9690f201a4", "type": "electric_scooter", "lon": -77.04338216666666, "rental_uris": {"android": "https://dc.lft.to/lastmile_qr_scan", "ios": "https://dc.lft.to/lastmile_qr_scan"}, "lat": 38.89839933333333, "is_reserved": 0, "is_disabled": 0, "fusion_lat": 0.0}, {"fusion_lon": 0.0, "bike_id": "538da13dbdd7e5bdd13032cb4d41fcc1", "name": "538da13dbdd7e5bdd13032cb4d41fcc1", "type": "electric_scooter", "lon": -77.01015866666667, "rental_uris": {"android": "https://dc.lft.to/lastmile_qr_scan", "ios": "https://dc.lft.to/lastmile_qr_scan"}, "lat": 38.906264666666665, "is_reserved": 0, "is_disabled": 0, "fusion_lat": 0.0}, {"fusion_lon": 0.0, "bike_id": "c1bc0c9a3dbb0e82f5b825908b731dbe", "name": "c1bc0c9a3dbb0e82f5b825908b731dbe", "type": "electric_scooter", "lon": -77.024663, "rental_uris": {"android": "https://dc.lft.to/lastmile_qr_scan", "ios": "https://dc.lft.to/lastmile_qr_scan"}, "lat": 38.938408333333335, "is_reserved": 0, "is_disabled": 0, "fusion_lat": 0.0}, {"fusion_lon": 0.0, "bike_id": "837e5131cc7a50d771efdaa74b487e8e", "name": "837e5131cc7a50d771efdaa74b487e8e", "type": "electric_scooter", "lon": -77.04483316666666, "rental_uris": {"android": "https://dc.lft.to/lastmile_qr_scan", "ios": "https://dc.lft.to/lastmile_qr_scan"}, "lat": 38.91874816666667, "is_reserved": 0, "is_disabled": 0, "fusion_lat": 0.0}, {"fusion_lon": 0.0, "bike_id": "848b7349f0b44593d3e4eafa2cae62bf", "name": "848b7349f0b44593d3e4eafa2cae62bf", "type": "electric_bike", "lon": -77.08808416666666, "rental_uris": {"android": "https://dc.lft.to/lastmile_qr_scan", "ios": "https://dc.lft.to/lastmile_qr_scan"}, "lat": 38.8317975, "is_reserved": 0, "is_disabled": 0, "fusion_lat": 0.0}, {"fusion_lon": 0.0, "bike_id": "79c66f46b9f8930bcd289a22591b2e95", "name": "79c66f46b9f8930bcd289a22591b2e95", "type": "electric_scooter", "lon": -77.04664416666667, "rental_uris": {"android": "https://dc.lft.to/lastmile_qr_scan", "ios": "https://dc.lft.to/lastmile_qr_scan"}, "lat": 38.9032635, "is_reserved": 0, "is_disabled": 0, "fusion_lat": 0.0}, {"fusion_lon": 0.0, "bike_id": "211afefcfed4d6571c4a9d4d82ae6383", "name": "211afefcfed4d6571c4a9d4d82ae6383", "type": "electric_scooter", "lon": -76.98729783333333, "rental_uris": {"android": "https://dc.lft.to/lastmile_qr_scan", "ios": "https://dc.lft.to/lastmile_qr_scan"}, "lat": 38.867146, "is_reserved": 0, "is_disabled": 0, "fusion_lat": 0.0}, {"fusion_lon": 0.0, "bike_id": "18cb638f0908f576f74dfe0e8a5ecdd9", "name": "18cb638f0908f576f74dfe0e8a5ecdd9", "type": "electric_scooter", "lon": -77.02411316666667, "rental_uris": {"android": "https://dc.lft.to/lastmile_qr_scan", "ios": "https://dc.lft.to/lastmile_qr_scan"}, "lat": 38.935004166666666, "is_reserved": 0, "is_disabled": 0, "fusion_lat": 0.0}, {"fusion_lon": 0.0, "bike_id": "27963da26e168ea7f6bddaf0ae5b05f2", "name": "27963da26e168ea7f6bddaf0ae5b05f2", "type": "electric_scooter", "lon": -77.0462545, "rental_uris": {"android": "https://dc.lft.to/lastmile_qr_scan", "ios": "https://dc.lft.to/lastmile_qr_scan"}, "lat": 38.918088, "is_reserved": 0, "is_disabled": 0, "fusion_lat": 0.0}, {"fusion_lon": 0.0, "bike_id": "4fc056095af0458d7a6ebd4e54cd30fd", "name": "4fc056095af0458d7a6ebd4e54cd30fd", "type": "electric_scooter", "lon": -76.98775083333334, "rental_uris": {"android": "https://dc.lft.to/lastmile_qr_scan", "ios": "https://dc.lft.to/lastmile_qr_scan"}, "lat": 38.89826883333333, "is_reserved": 0, "is_disabled": 0, "fusion_lat": 0.0}, {"fusion_lon": 0.0, "bike_id": "0093a553f999b581e0ab5fe602ff4922", "name": "0093a553f999b581e0ab5fe602ff4922", "type": "electric_bike", "lon": -76.952041, "rental_uris": {"android": "https://dc.lft.to/lastmile_qr_scan", "ios": "https://dc.lft.to/lastmile_qr_scan"}, "lat": 38.93671366666667, "is_reserved": 0, "is_disabled": 0, "fusion_lat": 0.0}, {"fusion_lon": 0.0, "bike_id": "89864fa21945146c4ffc24450ea8e452", "name": "89864fa21945146c4ffc24450ea8e452", "type": "electric_bike", "lon": -77.01437633333333, "rental_uris": {"android": "https://dc.lft.to/lastmile_qr_scan", "ios": "https://dc.lft.to/lastmile_qr_scan"}, "lat": 38.87675133333333, "is_reserved": 0, "is_disabled": 0, "fusion_lat": 0.0}, {"fusion_lon": 0.0, "bike_id": "95f5a66868a83c8855d1f9ed9427bb39", "name": "95f5a66868a83c8855d1f9ed9427bb39", "type": "electric_scooter", "lon": -77.03196666666666, "rental_uris": {"android": "https://dc.lft.to/lastmile_qr_scan", "ios": "https://dc.lft.to/lastmile_qr_scan"}, "lat": 38.92057366666667, "is_reserved": 0, "is_disabled": 0, "fusion_lat": 0.0}, {"fusion_lon": 0.0, "bike_id": "44ca621e207493d57880a747f996e2cf", "name": "44ca621e207493d57880a747f996e2cf", "type": "electric_scooter", "lon": -77.0234685, "rental_uris": {"android": "https://dc.lft.to/lastmile_qr_scan", "ios": "https://dc.lft.to/lastmile_qr_scan"}, "lat": 38.922608333333336, "is_reserved": 0, "is_disabled": 0, "fusion_lat": 0.0}, {"fusion_lon": 0.0, "bike_id": "673ef642cbb0b59363714711f365cb82", "name": "673ef642cbb0b59363714711f365cb82", "type": "electric_scooter", "lon": -77.02497666666666, "rental_uris": {"android": "https://dc.lft.to/lastmile_qr_scan", "ios": "https://dc.lft.to/lastmile_qr_scan"}, "lat": 38.92065766666666, "is_reserved": 0, "is_disabled": 0, "fusion_lat": 0.0}, {"fusion_lon": 0.0, "bike_id": "c533696c9698557dc88868393d38f3ac", "name": "c533696c9698557dc88868393d38f3ac", "type": "electric_scooter", "lon": -77.034573, "rental_uris": {"android": "https://dc.lft.to/lastmile_qr_scan", "ios": "https://dc.lft.to/lastmile_qr_scan"}, "lat": 38.91816583333333, "is_reserved": 0, "is_disabled": 0, "fusion_lat": 0.0}, {"fusion_lon": 0.0, "bike_id": "6cfa06acbabc7ff9b5dfc078e365bbd7", "name": "6cfa06acbabc7ff9b5dfc078e365bbd7", "type": "electric_scooter", "lon": -77.02223133333334, "rental_uris": {"android": "https://dc.lft.to/lastmile_qr_scan", "ios": "https://dc.lft.to/lastmile_qr_scan"}, "lat": 38.91269283333333, "is_reserved": 0, "is_disabled": 0, "fusion_lat": 0.0}, {"fusion_lon": 0.0, "bike_id": "f56108cf1ee3e9e610cfdde9e8f3ba3c", "name": "f56108cf1ee3e9e610cfdde9e8f3ba3c", "type": "electric_scooter", "lon": -77.0242115, "rental_uris": {"android": "https://dc.lft.to/lastmile_qr_scan", "ios": "https://dc.lft.to/lastmile_qr_scan"}, "lat": 38.918281666666665, "is_reserved": 0, "is_disabled": 0, "fusion_lat": 0.0}, {"fusion_lon": 0.0, "bike_id": "c41e78cdc16bc7517cec50e5b4171345", "name": "c41e78cdc16bc7517cec50e5b4171345", "type": "electric_scooter", "lon": -77.03642383333333, "rental_uris": {"android": "https://dc.lft.to/lastmile_qr_scan", "ios": "https://dc.lft.to/lastmile_qr_scan"}, "lat": 38.912251166666664, "is_reserved": 0, "is_disabled": 0, "fusion_lat": 0.0}, {"fusion_lon": 0.0, "bike_id": "a2d759c55d74e64ceb6d8fb1151d7775", "name": "a2d759c55d74e64ceb6d8fb1151d7775", "type": "electric_scooter", "lon": -77.014401, "rental_uris": {"android": "https://dc.lft.to/lastmile_qr_scan", "ios": "https://dc.lft.to/lastmile_qr_scan"}, "lat": 38.919638, "is_reserved": 0, "is_disabled": 0, "fusion_lat": 0.0}, {"fusion_lon": 0.0, "bike_id": "9cf5fce5da6ff494b3db9b3e5c00df06", "name": "9cf5fce5da6ff494b3db9b3e5c00df06", "type": "electric_scooter", "lon": -76.978232, "rental_uris": {"android": "https://dc.lft.to/lastmile_qr_scan", "ios": "https://dc.lft.to/lastmile_qr_scan"}, "lat": 38.84611066666667, "is_reserved": 0, "is_disabled": 0, "fusion_lat": 0.0}, {"fusion_lon": 0.0, "bike_id": "2c410a443834f927e29f3480f4ba0a64", "name": "2c410a443834f927e29f3480f4ba0a64", "type": "electric_bike", "lon": -76.87771683333334, "rental_uris": {"android": "https://dc.lft.to/lastmile_qr_scan", "ios": "https://dc.lft.to/lastmile_qr_scan"}, "lat": 38.992285, "is_reserved": 0, "is_disabled": 0, "fusion_lat": 0.0}, {"fusion_lon": 0.0, "bike_id": "c1a3cb22017a937591fb0a53b4b5803f", "name": "c1a3cb22017a937591fb0a53b4b5803f", "type": "electric_bike", "lon": -76.96386633333333, "rental_uris": {"android": "https://dc.lft.to/lastmile_qr_scan", "ios": "https://dc.lft.to/lastmile_qr_scan"}, "lat": 38.975805333333334, "is_reserved": 0, "is_disabled": 0, "fusion_lat": 0.0}, {"fusion_lon": 0.0, "bike_id": "3bce0538c49b6749051687144ea593b1", "name": "3bce0538c49b6749051687144ea593b1", "type": "electric_scooter", "lon": -77.0032675, "rental_uris": {"android": "https://dc.lft.to/lastmile_qr_scan", "ios": "https://dc.lft.to/lastmile_qr_scan"}, "lat": 38.9026205, "is_reserved": 0, "is_disabled": 0, "fusion_lat": 0.0}, {"fusion_lon": 0.0, "bike_id": "5f45a0a3ddb2698d2924f8c4e314d0f9", "name": "5f45a0a3ddb2698d2924f8c4e314d0f9", "type": "electric_bike", "lon": -76.9852155, "rental_uris": {"android": "https://dc.lft.to/lastmile_qr_scan", "ios": "https://dc.lft.to/lastmile_qr_scan"}, "lat": 38.919935333333335, "is_reserved": 0, "is_disabled": 0, "fusion_lat": 0.0}, {"fusion_lon": 0.0, "bike_id": "c338c1bdcea3b1303b6ae5b0a4afe572", "name": "c338c1bdcea3b1303b6ae5b0a4afe572", "type": "electric_bike", "lon": -76.94869083333333, "rental_uris": {"android": "https://dc.lft.to/lastmile_qr_scan", "ios": "https://dc.lft.to/lastmile_qr_scan"}, "lat": 38.8896625, "is_reserved": 0, "is_disabled": 0, "fusion_lat": 0.0}, {"fusion_lon": 0.0, "bike_id": "db06818f3bda7343d1a941492c609293", "name": "db06818f3bda7343d1a941492c609293", "type": "electric_bike", "lon": -76.98476083333334, "rental_uris": {"android": "https://dc.lft.to/lastmile_qr_scan", "ios": "https://dc.lft.to/lastmile_qr_scan"}, "lat": 38.89146, "is_reserved": 0, "is_disabled": 0, "fusion_lat": 0.0}, {"fusion_lon": 0.0, "bike_id": "f88ea45b47ae2eb238b6160e561154f7", "name": "f88ea45b47ae2eb238b6160e561154f7", "type": "electric_scooter", "lon": -77.041135, "rental_uris": {"android": "https://dc.lft.to/lastmile_qr_scan", "ios": "https://dc.lft.to/lastmile_qr_scan"}, "lat": 38.901482333333334, "is_reserved": 0, "is_disabled": 0, "fusion_lat": 0.0}, {"fusion_lon": 0.0, "bike_id": "504882ff763be40f20cb016cfba24408", "name": "504882ff763be40f20cb016cfba24408", "type": "electric_scooter", "lon": -76.99529083333333, "rental_uris": {"android": "https://dc.lft.to/lastmile_qr_scan", "ios": "https://dc.lft.to/lastmile_qr_scan"}, "lat": 38.90028233333334, "is_reserved": 0, "is_disabled": 0, "fusion_lat": 0.0}, {"fusion_lon": 0.0, "bike_id": "16703c9fe1aa85c28e177473c6a62301", "name": "16703c9fe1aa85c28e177473c6a62301", "type": "electric_scooter", "lon": -76.94942283333333, "rental_uris": {"android": "https://dc.lft.to/lastmile_qr_scan", "ios": "https://dc.lft.to/lastmile_qr_scan"}, "lat": 38.8832155, "is_reserved": 0, "is_disabled": 0, "fusion_lat": 0.0}, {"fusion_lon": 0.0, "bike_id": "9dfdec605e6560bb953a37d01525a9a5", "name": "9dfdec605e6560bb953a37d01525a9a5", "type": "electric_scooter", "lon": -76.947578, "rental_uris": {"android": "https://dc.lft.to/lastmile_qr_scan", "ios": "https://dc.lft.to/lastmile_qr_scan"}, "lat": 38.8962835, "is_reserved": 0, "is_disabled": 0, "fusion_lat": 0.0}, {"fusion_lon": 0.0, "bike_id": "d82e54b4e708134b766b27f0fcf2cfee", "name": "d82e54b4e708134b766b27f0fcf2cfee", "type": "electric_scooter", "lon": -77.00439933333334, "rental_uris": {"android": "https://dc.lft.to/lastmile_qr_scan", "ios": "https://dc.lft.to/lastmile_qr_scan"}, "lat": 38.90725966666667, "is_reserved": 0, "is_disabled": 0, "fusion_lat": 0.0}, {"fusion_lon": 0.0, "bike_id": "e934acffc24c2fdb47402683e445c398", "name": "e934acffc24c2fdb47402683e445c398", "type": "electric_scooter", "lon": -77.02301433333334, "rental_uris": {"android": "https://dc.lft.to/lastmile_qr_scan", "ios": "https://dc.lft.to/lastmile_qr_scan"}, "lat": 38.915697333333334, "is_reserved": 0, "is_disabled": 0, "fusion_lat": 0.0}, {"fusion_lon": 0.0, "bike_id": "057a00599d079f58bd5b8388933f1c5c", "name": "057a00599d079f58bd5b8388933f1c5c", "type": "electric_bike", "lon": -76.98838833333333, "rental_uris": {"android": "https://dc.lft.to/lastmile_qr_scan", "ios": "https://dc.lft.to/lastmile_qr_scan"}, "lat": 38.84277516666667, "is_reserved": 0, "is_disabled": 0, "fusion_lat": 0.0}, {"fusion_lon": 0.0, "bike_id": "0f0a48a3d253341caa0f0032e0ae4ef4", "name": "0f0a48a3d253341caa0f0032e0ae4ef4", "type": "electric_scooter", "lon": -77.05600483333333, "rental_uris": {"android": "https://dc.lft.to/lastmile_qr_scan", "ios": "https://dc.lft.to/lastmile_qr_scan"}, "lat": 38.93613166666667, "is_reserved": 0, "is_disabled": 0, "fusion_lat": 0.0}, {"fusion_lon": 0.0, "bike_id": "c66de96cad3c1a857a1ac9771c2919b6", "name": "c66de96cad3c1a857a1ac9771c2919b6", "type": "electric_bike", "lon": -77.0122445, "rental_uris": {"android": "https://dc.lft.to/lastmile_qr_scan", "ios": "https://dc.lft.to/lastmile_qr_scan"}, "lat": 38.89319483333333, "is_reserved": 0, "is_disabled": 0, "fusion_lat": 0.0}, {"fusion_lon": 0.0, "bike_id": "2f38e6af7874c3c02488b471f31d74d3", "name": "2f38e6af7874c3c02488b471f31d74d3", "type": "electric_scooter", "lon": -77.0229525, "rental_uris": {"android": "https://dc.lft.to/lastmile_qr_scan", "ios": "https://dc.lft.to/lastmile_qr_scan"}, "lat": 38.93762316666667, "is_reserved": 0, "is_disabled": 0, "fusion_lat": 0.0}, {"fusion_lon": 0.0, "bike_id": "139cb23b25624f264185789d36db92ca", "name": "139cb23b25624f264185789d36db92ca", "type": "electric_scooter", "lon": -77.0239135, "rental_uris": {"android": "https://dc.lft.to/lastmile_qr_scan", "ios": "https://dc.lft.to/lastmile_qr_scan"}, "lat": 38.90745783333333, "is_reserved": 0, "is_disabled": 0, "fusion_lat": 0.0}, {"fusion_lon": 0.0, "bike_id": "9eac779229c26619df691859b4fbfc8b", "name": "9eac779229c26619df691859b4fbfc8b", "type": "electric_scooter", "lon": -77.0436335, "rental_uris": {"android": "https://dc.lft.to/lastmile_qr_scan", "ios": "https://dc.lft.to/lastmile_qr_scan"}, "lat": 38.89237766666667, "is_reserved": 0, "is_disabled": 0, "fusion_lat": 0.0}, {"fusion_lon": 0.0, "bike_id": "7e80b0fe81c499d4226f4b5c775c9cd2", "name": "7e80b0fe81c499d4226f4b5c775c9cd2", "type": "electric_scooter", "lon": -77.038363, "rental_uris": {"android": "https://dc.lft.to/lastmile_qr_scan", "ios": "https://dc.lft.to/lastmile_qr_scan"}, "lat": 38.915668333333336, "is_reserved": 0, "is_disabled": 0, "fusion_lat": 0.0}, {"fusion_lon": 0.0, "bike_id": "cf16d52f9dea19bea4fe5c33ef59ba7a", "name": "cf16d52f9dea19bea4fe5c33ef59ba7a", "type": "electric_scooter", "lon": -77.04714766666666, "rental_uris": {"android": "https://dc.lft.to/lastmile_qr_scan", "ios": "https://dc.lft.to/lastmile_qr_scan"}, "lat": 38.922313833333334, "is_reserved": 0, "is_disabled": 0, "fusion_lat": 0.0}, {"fusion_lon": 0.0, "bike_id": "c12e085ac4c68b21a23fee614e9b5f90", "name": "c12e085ac4c68b21a23fee614e9b5f90", "type": "electric_scooter", "lon": -76.98464416666667, "rental_uris": {"android": "https://dc.lft.to/lastmile_qr_scan", "ios": "https://dc.lft.to/lastmile_qr_scan"}, "lat": 38.89773183333333, "is_reserved": 0, "is_disabled": 0, "fusion_lat": 0.0}, {"fusion_lon": 0.0, "bike_id": "5ba901e8c33c41e4d7606049ca7b14b2", "name": "5ba901e8c33c41e4d7606049ca7b14b2", "type": "electric_scooter", "lon": -77.0392355, "rental_uris": {"android": "https://dc.lft.to/lastmile_qr_scan", "ios": "https://dc.lft.to/lastmile_qr_scan"}, "lat": 38.91189466666667, "is_reserved": 0, "is_disabled": 0, "fusion_lat": 0.0}, {"fusion_lon": 0.0, "bike_id": "df8096e39a96baa435e5bc1d1a4b344e", "name": "df8096e39a96baa435e5bc1d1a4b344e", "type": "electric_scooter", "lon": -77.00440933333333, "rental_uris": {"android": "https://dc.lft.to/lastmile_qr_scan", "ios": "https://dc.lft.to/lastmile_qr_scan"}, "lat": 38.876681, "is_reserved": 0, "is_disabled": 0, "fusion_lat": 0.0}, {"fusion_lon": 0.0, "bike_id": "34f842f46d6594a3e847378d7a280da4", "name": "34f842f46d6594a3e847378d7a280da4", "type": "electric_scooter", "lon": -76.99007266666666, "rental_uris": {"android": "https://dc.lft.to/lastmile_qr_scan", "ios": "https://dc.lft.to/lastmile_qr_scan"}, "lat": 38.86506983333334, "is_reserved": 0, "is_disabled": 0, "fusion_lat": 0.0}, {"fusion_lon": 0.0, "bike_id": "0f301e5f7dc6c97279bd138d397b8994", "name": "0f301e5f7dc6c97279bd138d397b8994", "type": "electric_scooter", "lon": -77.001401, "rental_uris": {"android": "https://dc.lft.to/lastmile_qr_scan", "ios": "https://dc.lft.to/lastmile_qr_scan"}, "lat": 38.905141666666665, "is_reserved": 0, "is_disabled": 0, "fusion_lat": 0.0}, {"fusion_lon": 0.0, "bike_id": "f062b7439b8ab1305aa4cd577e89684e", "name": "f062b7439b8ab1305aa4cd577e89684e", "type": "electric_scooter", "lon": -77.02269466666667, "rental_uris": {"android": "https://dc.lft.to/lastmile_qr_scan", "ios": "https://dc.lft.to/lastmile_qr_scan"}, "lat": 38.94724, "is_reserved": 0, "is_disabled": 0, "fusion_lat": 0.0}, {"fusion_lon": 0.0, "bike_id": "772056bab67a7c225f1dc10a443c10e7", "name": "772056bab67a7c225f1dc10a443c10e7", "type": "electric_scooter", "lon": -77.02201516666666, "rental_uris": {"android": "https://dc.lft.to/lastmile_qr_scan", "ios": "https://dc.lft.to/lastmile_qr_scan"}, "lat": 38.915315666666665, "is_reserved": 0, "is_disabled": 0, "fusion_lat": 0.0}, {"fusion_lon": 0.0, "bike_id": "2314bc756f24c06b704ebcc9838bb6da", "name": "2314bc756f24c06b704ebcc9838bb6da", "type": "electric_scooter", "lon": -77.01712066666667, "rental_uris": {"android": "https://dc.lft.to/lastmile_qr_scan", "ios": "https://dc.lft.to/lastmile_qr_scan"}, "lat": 38.9051655, "is_reserved": 0, "is_disabled": 0, "fusion_lat": 0.0}, {"fusion_lon": 0.0, "bike_id": "29512253794993e5915c9c672e385ef5", "name": "29512253794993e5915c9c672e385ef5", "type": "electric_scooter", "lon": -77.03301766666667, "rental_uris": {"android": "https://dc.lft.to/lastmile_qr_scan", "ios": "https://dc.lft.to/lastmile_qr_scan"}, "lat": 38.9039945, "is_reserved": 0, "is_disabled": 0, "fusion_lat": 0.0}, {"fusion_lon": 0.0, "bike_id": "7964a289339b6ab7c53bc7da4ae26aac", "name": "7964a289339b6ab7c53bc7da4ae26aac", "type": "electric_scooter", "lon": -76.9499345, "rental_uris": {"android": "https://dc.lft.to/lastmile_qr_scan", "ios": "https://dc.lft.to/lastmile_qr_scan"}, "lat": 38.893924166666665, "is_reserved": 0, "is_disabled": 0, "fusion_lat": 0.0}, {"fusion_lon": 0.0, "bike_id": "26208ee751daf3c3a03d86ff5c4d64c2", "name": "26208ee751daf3c3a03d86ff5c4d64c2", "type": "electric_scooter", "lon": -77.03145933333333, "rental_uris": {"android": "https://dc.lft.to/lastmile_qr_scan", "ios": "https://dc.lft.to/lastmile_qr_scan"}, "lat": 38.887414, "is_reserved": 0, "is_disabled": 0, "fusion_lat": 0.0}, {"fusion_lon": 0.0, "bike_id": "5dbde5f993d88247d3fbb2fe6d446661", "name": "5dbde5f993d88247d3fbb2fe6d446661", "type": "electric_scooter", "lon": -77.02451566666667, "rental_uris": {"android": "https://dc.lft.to/lastmile_qr_scan", "ios": "https://dc.lft.to/lastmile_qr_scan"}, "lat": 38.928971, "is_reserved": 0, "is_disabled": 0, "fusion_lat": 0.0}, {"fusion_lon": 0.0, "bike_id": "01bee5629aa68a70d420ec6cd6336632", "name": "01bee5629aa68a70d420ec6cd6336632", "type": "electric_scooter", "lon": -77.04229416666666, "rental_uris": {"android": "https://dc.lft.to/lastmile_qr_scan", "ios": "https://dc.lft.to/lastmile_qr_scan"}, "lat": 38.917057, "is_reserved": 0, "is_disabled": 0, "fusion_lat": 0.0}, {"fusion_lon": 0.0, "bike_id": "857f2b7b616aadc1a7eb02db9c3dc3e8", "name": "857f2b7b616aadc1a7eb02db9c3dc3e8", "type": "electric_scooter", "lon": -77.038366, "rental_uris": {"android": "https://dc.lft.to/lastmile_qr_scan", "ios": "https://dc.lft.to/lastmile_qr_scan"}, "lat": 38.915690833333336, "is_reserved": 0, "is_disabled": 0, "fusion_lat": 0.0}, {"fusion_lon": 0.0, "bike_id": "6c5b5c576cfc0177aefdef207f91c616", "name": "6c5b5c576cfc0177aefdef207f91c616", "type": "electric_scooter", "lon": -77.04190766666666, "rental_uris": {"android": "https://dc.lft.to/lastmile_qr_scan", "ios": "https://dc.lft.to/lastmile_qr_scan"}, "lat": 38.9052285, "is_reserved": 0, "is_disabled": 0, "fusion_lat": 0.0}, {"fusion_lon": 0.0, "bike_id": "e2762ec14ef860bc172d26cd71fd0b00", "name": "e2762ec14ef860bc172d26cd71fd0b00", "type": "electric_bike", "lon": -76.983827, "rental_uris": {"android": "https://dc.lft.to/lastmile_qr_scan", "ios": "https://dc.lft.to/lastmile_qr_scan"}, "lat": 38.914743666666666, "is_reserved": 0, "is_disabled": 0, "fusion_lat": 0.0}, {"fusion_lon": 0.0, "bike_id": "9932342b9a03775e6f0177797ba87452", "name": "9932342b9a03775e6f0177797ba87452", "type": "electric_scooter", "lon": -77.03281766666667, "rental_uris": {"android": "https://dc.lft.to/lastmile_qr_scan", "ios": "https://dc.lft.to/lastmile_qr_scan"}, "lat": 38.93754766666667, "is_reserved": 0, "is_disabled": 0, "fusion_lat": 0.0}, {"fusion_lon": 0.0, "bike_id": "1fcbe11d860ee9ed6e8136a128ea6e79", "name": "1fcbe11d860ee9ed6e8136a128ea6e79", "type": "electric_scooter", "lon": -77.00744466666667, "rental_uris": {"android": "https://dc.lft.to/lastmile_qr_scan", "ios": "https://dc.lft.to/lastmile_qr_scan"}, "lat": 38.90373233333333, "is_reserved": 0, "is_disabled": 0, "fusion_lat": 0.0}, {"fusion_lon": 0.0, "bike_id": "d0b6d3f92ae1f29eb9a5fc46f89e6adb", "name": "d0b6d3f92ae1f29eb9a5fc46f89e6adb", "type": "electric_scooter", "lon": -77.04186016666667, "rental_uris": {"android": "https://dc.lft.to/lastmile_qr_scan", "ios": "https://dc.lft.to/lastmile_qr_scan"}, "lat": 38.9233275, "is_reserved": 0, "is_disabled": 0, "fusion_lat": 0.0}, {"fusion_lon": 0.0, "bike_id": "c9b0c218885310e2091cbfea2e913194", "name": "c9b0c218885310e2091cbfea2e913194", "type": "electric_scooter", "lon": -77.036428, "rental_uris": {"android": "https://dc.lft.to/lastmile_qr_scan", "ios": "https://dc.lft.to/lastmile_qr_scan"}, "lat": 38.917662666666665, "is_reserved": 0, "is_disabled": 0, "fusion_lat": 0.0}, {"fusion_lon": 0.0, "bike_id": "c2aa93d37936ea1f57eb95593b917a5e", "name": "c2aa93d37936ea1f57eb95593b917a5e", "type": "electric_scooter", "lon": -77.0317765, "rental_uris": {"android": "https://dc.lft.to/lastmile_qr_scan", "ios": "https://dc.lft.to/lastmile_qr_scan"}, "lat": 38.905192, "is_reserved": 0, "is_disabled": 0, "fusion_lat": 0.0}, {"fusion_lon": 0.0, "bike_id": "a92d414210edf309f22afe77e2bf5e78", "name": "a92d414210edf309f22afe77e2bf5e78", "type": "electric_scooter", "lon": -77.05517983333333, "rental_uris": {"android": "https://dc.lft.to/lastmile_qr_scan", "ios": "https://dc.lft.to/lastmile_qr_scan"}, "lat": 38.944177, "is_reserved": 0, "is_disabled": 0, "fusion_lat": 0.0}, {"fusion_lon": 0.0, "bike_id": "8edba3945295ce975309107c610980b3", "name": "8edba3945295ce975309107c610980b3", "type": "electric_scooter", "lon": -77.01191266666666, "rental_uris": {"android": "https://dc.lft.to/lastmile_qr_scan", "ios": "https://dc.lft.to/lastmile_qr_scan"}, "lat": 38.887711, "is_reserved": 0, "is_disabled": 0, "fusion_lat": 0.0}, {"fusion_lon": 0.0, "bike_id": "5fb619c7e95d3d5b43e9791ccafb03f3", "name": "5fb619c7e95d3d5b43e9791ccafb03f3", "type": "electric_scooter", "lon": -77.02952933333333, "rental_uris": {"android": "https://dc.lft.to/lastmile_qr_scan", "ios": "https://dc.lft.to/lastmile_qr_scan"}, "lat": 38.9050885, "is_reserved": 0, "is_disabled": 0, "fusion_lat": 0.0}, {"fusion_lon": 0.0, "bike_id": "dfa408d6dd430d551b5d920ff6940616", "name": "dfa408d6dd430d551b5d920ff6940616", "type": "electric_scooter", "lon": -76.98904883333333, "rental_uris": {"android": "https://dc.lft.to/lastmile_qr_scan", "ios": "https://dc.lft.to/lastmile_qr_scan"}, "lat": 38.902290666666666, "is_reserved": 0, "is_disabled": 0, "fusion_lat": 0.0}, {"fusion_lon": 0.0, "bike_id": "b141574c61833a08311487b93a465e71", "name": "b141574c61833a08311487b93a465e71", "type": "electric_scooter", "lon": -77.00189633333333, "rental_uris": {"android": "https://dc.lft.to/lastmile_qr_scan", "ios": "https://dc.lft.to/lastmile_qr_scan"}, "lat": 38.9000495, "is_reserved": 0, "is_disabled": 0, "fusion_lat": 0.0}, {"fusion_lon": 0.0, "bike_id": "4948ed7ce672a1872bca1861e4055e81", "name": "4948ed7ce672a1872bca1861e4055e81", "type": "electric_scooter", "lon": -76.98882983333333, "rental_uris": {"android": "https://dc.lft.to/lastmile_qr_scan", "ios": "https://dc.lft.to/lastmile_qr_scan"}, "lat": 38.86671, "is_reserved": 0, "is_disabled": 0, "fusion_lat": 0.0}, {"fusion_lon": 0.0, "bike_id": "7f7ad0a7721bbcb6c221d4ff5729d495", "name": "7f7ad0a7721bbcb6c221d4ff5729d495", "type": "electric_scooter", "lon": -76.9485195, "rental_uris": {"android": "https://dc.lft.to/lastmile_qr_scan", "ios": "https://dc.lft.to/lastmile_qr_scan"}, "lat": 38.883005, "is_reserved": 0, "is_disabled": 0, "fusion_lat": 0.0}, {"fusion_lon": 0.0, "bike_id": "2a0150bd8e7d92a5670f663c2c62cd59", "name": "2a0150bd8e7d92a5670f663c2c62cd59", "type": "electric_scooter", "lon": -76.99029416666667, "rental_uris": {"android": "https://dc.lft.to/lastmile_qr_scan", "ios": "https://dc.lft.to/lastmile_qr_scan"}, "lat": 38.860737, "is_reserved": 0, "is_disabled": 0, "fusion_lat": 0.0}, {"fusion_lon": 0.0, "bike_id": "fde969780b16bb388fdfce1e12e012cf", "name": "fde969780b16bb388fdfce1e12e012cf", "type": "electric_scooter", "lon": -77.0177515, "rental_uris": {"android": "https://dc.lft.to/lastmile_qr_scan", "ios": "https://dc.lft.to/lastmile_qr_scan"}, "lat": 38.90265433333333, "is_reserved": 0, "is_disabled": 0, "fusion_lat": 0.0}, {"fusion_lon": 0.0, "bike_id": "f68b52a776a19c73f861e2ae1f43fca8", "name": "f68b52a776a19c73f861e2ae1f43fca8", "type": "electric_scooter", "lon": -77.06189466666666, "rental_uris": {"android": "https://dc.lft.to/lastmile_qr_scan", "ios": "https://dc.lft.to/lastmile_qr_scan"}, "lat": 38.93013583333333, "is_reserved": 0, "is_disabled": 0, "fusion_lat": 0.0}, {"fusion_lon": 0.0, "bike_id": "952366fedd7729943ff91e44133d5881", "name": "952366fedd7729943ff91e44133d5881", "type": "electric_bike", "lon": -77.14326033333333, "rental_uris": {"android": "https://dc.lft.to/lastmile_qr_scan", "ios": "https://dc.lft.to/lastmile_qr_scan"}, "lat": 39.05458983333333, "is_reserved": 0, "is_disabled": 0, "fusion_lat": 0.0}, {"fusion_lon": 0.0, "bike_id": "01e6642c43cf15d7b2b8d30fb0007edc", "name": "01e6642c43cf15d7b2b8d30fb0007edc", "type": "electric_scooter", "lon": -77.03525233333333, "rental_uris": {"android": "https://dc.lft.to/lastmile_qr_scan", "ios": "https://dc.lft.to/lastmile_qr_scan"}, "lat": 38.927277833333335, "is_reserved": 0, "is_disabled": 0, "fusion_lat": 0.0}, {"fusion_lon": 0.0, "bike_id": "aebb0d12ced6a4bed4635e787b179208", "name": "aebb0d12ced6a4bed4635e787b179208", "type": "electric_bike", "lon": -77.3441185, "rental_uris": {"android": "https://dc.lft.to/lastmile_qr_scan", "ios": "https://dc.lft.to/lastmile_qr_scan"}, "lat": 38.94590066666667, "is_reserved": 0, "is_disabled": 0, "fusion_lat": 0.0}, {"fusion_lon": 0.0, "bike_id": "87d6b5f46fe53ecba6656a64757fcfe4", "name": "87d6b5f46fe53ecba6656a64757fcfe4", "type": "electric_scooter", "lon": -77.013795, "rental_uris": {"android": "https://dc.lft.to/lastmile_qr_scan", "ios": "https://dc.lft.to/lastmile_qr_scan"}, "lat": 38.88642183333333, "is_reserved": 0, "is_disabled": 0, "fusion_lat": 0.0}, {"fusion_lon": 0.0, "bike_id": "184cb4ae35ccc82a9d665722805fb168", "name": "184cb4ae35ccc82a9d665722805fb168", "type": "electric_scooter", "lon": -77.03419916666667, "rental_uris": {"android": "https://dc.lft.to/lastmile_qr_scan", "ios": "https://dc.lft.to/lastmile_qr_scan"}, "lat": 38.919286666666665, "is_reserved": 0, "is_disabled": 0, "fusion_lat": 0.0}, {"fusion_lon": 0.0, "bike_id": "63e3a629cd51f026e0ae942cac3ba7ff", "name": "63e3a629cd51f026e0ae942cac3ba7ff", "type": "electric_scooter", "lon": -77.00602133333334, "rental_uris": {"android": "https://dc.lft.to/lastmile_qr_scan", "ios": "https://dc.lft.to/lastmile_qr_scan"}, "lat": 38.91120033333333, "is_reserved": 0, "is_disabled": 0, "fusion_lat": 0.0}, {"fusion_lon": 0.0, "bike_id": "598898b90110f86a34c696596e3740ae", "name": "598898b90110f86a34c696596e3740ae", "type": "electric_scooter", "lon": -77.028435, "rental_uris": {"android": "https://dc.lft.to/lastmile_qr_scan", "ios": "https://dc.lft.to/lastmile_qr_scan"}, "lat": 38.92378816666667, "is_reserved": 0, "is_disabled": 0, "fusion_lat": 0.0}, {"fusion_lon": 0.0, "bike_id": "fbbb9eed9db9c8d7a017c123944a203d", "name": "fbbb9eed9db9c8d7a017c123944a203d", "type": "electric_scooter", "lon": -77.03764083333333, "rental_uris": {"android": "https://dc.lft.to/lastmile_qr_scan", "ios": "https://dc.lft.to/lastmile_qr_scan"}, "lat": 38.935851666666665, "is_reserved": 0, "is_disabled": 0, "fusion_lat": 0.0}, {"fusion_lon": 0.0, "bike_id": "90283ecfb1a52fd6253cb790e449b5d8", "name": "90283ecfb1a52fd6253cb790e449b5d8", "type": "electric_scooter", "lon": -77.023879, "rental_uris": {"android": "https://dc.lft.to/lastmile_qr_scan", "ios": "https://dc.lft.to/lastmile_qr_scan"}, "lat": 38.9573435, "is_reserved": 0, "is_disabled": 0, "fusion_lat": 0.0}, {"fusion_lon": 0.0, "bike_id": "73cd3f977f7b0bd30c8f0e8ff1e4f4bc", "name": "73cd3f977f7b0bd30c8f0e8ff1e4f4bc", "type": "electric_scooter", "lon": -77.00183766666666, "rental_uris": {"android": "https://dc.lft.to/lastmile_qr_scan", "ios": "https://dc.lft.to/lastmile_qr_scan"}, "lat": 38.90008233333333, "is_reserved": 0, "is_disabled": 0, "fusion_lat": 0.0}, {"fusion_lon": 0.0, "bike_id": "bb9d09703ce3fa08149741e20e2268fd", "name": "bb9d09703ce3fa08149741e20e2268fd", "type": "electric_scooter", "lon": -76.99466316666667, "rental_uris": {"android": "https://dc.lft.to/lastmile_qr_scan", "ios": "https://dc.lft.to/lastmile_qr_scan"}, "lat": 38.84034533333333, "is_reserved": 0, "is_disabled": 0, "fusion_lat": 0.0}, {"fusion_lon": 0.0, "bike_id": "1d115a5a883e7ddfc8a81808688a1f0b", "name": "1d115a5a883e7ddfc8a81808688a1f0b", "type": "electric_scooter", "lon": -77.04187166666667, "rental_uris": {"android": "https://dc.lft.to/lastmile_qr_scan", "ios": "https://dc.lft.to/lastmile_qr_scan"}, "lat": 38.924703, "is_reserved": 0, "is_disabled": 0, "fusion_lat": 0.0}, {"fusion_lon": 0.0, "bike_id": "5eac91cd04d2958ed3e205c5850cfae4", "name": "5eac91cd04d2958ed3e205c5850cfae4", "type": "electric_scooter", "lon": -77.02445916666667, "rental_uris": {"android": "https://dc.lft.to/lastmile_qr_scan", "ios": "https://dc.lft.to/lastmile_qr_scan"}, "lat": 38.927968166666666, "is_reserved": 0, "is_disabled": 0, "fusion_lat": 0.0}, {"fusion_lon": 0.0, "bike_id": "08d0860a45335cb75bbed1cf9a5db464", "name": "08d0860a45335cb75bbed1cf9a5db464", "type": "electric_scooter", "lon": -77.04784183333334, "rental_uris": {"android": "https://dc.lft.to/lastmile_qr_scan", "ios": "https://dc.lft.to/lastmile_qr_scan"}, "lat": 38.90797166666667, "is_reserved": 0, "is_disabled": 0, "fusion_lat": 0.0}, {"fusion_lon": 0.0, "bike_id": "dfad64dd76bd7755eca63dd4e745c5dc", "name": "dfad64dd76bd7755eca63dd4e745c5dc", "type": "electric_scooter", "lon": -77.040107, "rental_uris": {"android": "https://dc.lft.to/lastmile_qr_scan", "ios": "https://dc.lft.to/lastmile_qr_scan"}, "lat": 38.91796683333333, "is_reserved": 0, "is_disabled": 0, "fusion_lat": 0.0}, {"fusion_lon": 0.0, "bike_id": "ad78deca0e78dd2e6318c2603ec21e5a", "name": "ad78deca0e78dd2e6318c2603ec21e5a", "type": "electric_scooter", "lon": -77.03262366666667, "rental_uris": {"android": "https://dc.lft.to/lastmile_qr_scan", "ios": "https://dc.lft.to/lastmile_qr_scan"}, "lat": 38.93213883333333, "is_reserved": 0, "is_disabled": 0, "fusion_lat": 0.0}, {"fusion_lon": 0.0, "bike_id": "203dfceefdfee47e65a5dab5e3362c41", "name": "203dfceefdfee47e65a5dab5e3362c41", "type": "electric_scooter", "lon": -77.026606, "rental_uris": {"android": "https://dc.lft.to/lastmile_qr_scan", "ios": "https://dc.lft.to/lastmile_qr_scan"}, "lat": 38.97939933333333, "is_reserved": 0, "is_disabled": 0, "fusion_lat": 0.0}, {"fusion_lon": 0.0, "bike_id": "0bfc0f40d04476f6e59548a48542a23e", "name": "0bfc0f40d04476f6e59548a48542a23e", "type": "electric_scooter", "lon": -77.04693583333334, "rental_uris": {"android": "https://dc.lft.to/lastmile_qr_scan", "ios": "https://dc.lft.to/lastmile_qr_scan"}, "lat": 38.897342333333334, "is_reserved": 0, "is_disabled": 0, "fusion_lat": 0.0}, {"fusion_lon": 0.0, "bike_id": "457c3ef5e79364918fb9a570c47ff87b", "name": "457c3ef5e79364918fb9a570c47ff87b", "type": "electric_bike", "lon": -76.9882945, "rental_uris": {"android": "https://dc.lft.to/lastmile_qr_scan", "ios": "https://dc.lft.to/lastmile_qr_scan"}, "lat": 38.9856375, "is_reserved": 0, "is_disabled": 0, "fusion_lat": 0.0}, {"fusion_lon": 0.0, "bike_id": "eb36c1b625ff18698e8a573372f54bbe", "name": "eb36c1b625ff18698e8a573372f54bbe", "type": "electric_scooter", "lon": -77.02727383333334, "rental_uris": {"android": "https://dc.lft.to/lastmile_qr_scan", "ios": "https://dc.lft.to/lastmile_qr_scan"}, "lat": 38.93431066666667, "is_reserved": 0, "is_disabled": 0, "fusion_lat": 0.0}, {"fusion_lon": 0.0, "bike_id": "264c69de1e86d89b5db0dedc3b67e86d", "name": "264c69de1e86d89b5db0dedc3b67e86d", "type": "electric_scooter", "lon": -77.04160383333334, "rental_uris": {"android": "https://dc.lft.to/lastmile_qr_scan", "ios": "https://dc.lft.to/lastmile_qr_scan"}, "lat": 38.916094666666666, "is_reserved": 0, "is_disabled": 0, "fusion_lat": 0.0}, {"fusion_lon": 0.0, "bike_id": "73a1239f8cac776b9323f0471c0214d7", "name": "73a1239f8cac776b9323f0471c0214d7", "type": "electric_scooter", "lon": -77.02352483333334, "rental_uris": {"android": "https://dc.lft.to/lastmile_qr_scan", "ios": "https://dc.lft.to/lastmile_qr_scan"}, "lat": 38.92506766666666, "is_reserved": 0, "is_disabled": 0, "fusion_lat": 0.0}, {"fusion_lon": 0.0, "bike_id": "51877c0e1fec2b5bf903292286f5f56d", "name": "51877c0e1fec2b5bf903292286f5f56d", "type": "electric_scooter", "lon": -77.0228965, "rental_uris": {"android": "https://dc.lft.to/lastmile_qr_scan", "ios": "https://dc.lft.to/lastmile_qr_scan"}, "lat": 38.91762633333333, "is_reserved": 0, "is_disabled": 0, "fusion_lat": 0.0}, {"fusion_lon": 0.0, "bike_id": "0bceedbc30d52ea6051e1c46d3f6fd93", "name": "0bceedbc30d52ea6051e1c46d3f6fd93", "type": "electric_bike", "lon": -77.35312033333334, "rental_uris": {"android": "https://dc.lft.to/lastmile_qr_scan", "ios": "https://dc.lft.to/lastmile_qr_scan"}, "lat": 38.95006766666667, "is_reserved": 0, "is_disabled": 0, "fusion_lat": 0.0}, {"fusion_lon": 0.0, "bike_id": "204f0ba3f15c2bd58baff46684dab899", "name": "204f0ba3f15c2bd58baff46684dab899", "type": "electric_scooter", "lon": -77.063477, "rental_uris": {"android": "https://dc.lft.to/lastmile_qr_scan", "ios": "https://dc.lft.to/lastmile_qr_scan"}, "lat": 38.913410166666665, "is_reserved": 0, "is_disabled": 0, "fusion_lat": 0.0}, {"fusion_lon": 0.0, "bike_id": "c624f66a96740b5b28a675ccde83e053", "name": "c624f66a96740b5b28a675ccde83e053", "type": "electric_scooter", "lon": -77.02263633333334, "rental_uris": {"android": "https://dc.lft.to/lastmile_qr_scan", "ios": "https://dc.lft.to/lastmile_qr_scan"}, "lat": 38.92742766666667, "is_reserved": 0, "is_disabled": 0, "fusion_lat": 0.0}, {"fusion_lon": 0.0, "bike_id": "d1a00a365e596581637356faced9fcf6", "name": "d1a00a365e596581637356faced9fcf6", "type": "electric_scooter", "lon": -77.03998066666666, "rental_uris": {"android": "https://dc.lft.to/lastmile_qr_scan", "ios": "https://dc.lft.to/lastmile_qr_scan"}, "lat": 38.91414016666667, "is_reserved": 0, "is_disabled": 0, "fusion_lat": 0.0}, {"fusion_lon": 0.0, "bike_id": "02d1ed4cd56f5812a38412ca791bb3ce", "name": "02d1ed4cd56f5812a38412ca791bb3ce", "type": "electric_scooter", "lon": -77.03995316666666, "rental_uris": {"android": "https://dc.lft.to/lastmile_qr_scan", "ios": "https://dc.lft.to/lastmile_qr_scan"}, "lat": 38.9015655, "is_reserved": 0, "is_disabled": 0, "fusion_lat": 0.0}, {"fusion_lon": 0.0, "bike_id": "2b7a47075c0ebc0bf6ffb62ff134099f", "name": "2b7a47075c0ebc0bf6ffb62ff134099f", "type": "electric_scooter", "lon": -77.04507116666667, "rental_uris": {"android": "https://dc.lft.to/lastmile_qr_scan", "ios": "https://dc.lft.to/lastmile_qr_scan"}, "lat": 38.906742, "is_reserved": 0, "is_disabled": 0, "fusion_lat": 0.0}, {"fusion_lon": 0.0, "bike_id": "8facbfbcaa672d342685b66ad17e485c", "name": "8facbfbcaa672d342685b66ad17e485c", "type": "electric_scooter", "lon": -77.02480216666666, "rental_uris": {"android": "https://dc.lft.to/lastmile_qr_scan", "ios": "https://dc.lft.to/lastmile_qr_scan"}, "lat": 38.9390505, "is_reserved": 0, "is_disabled": 0, "fusion_lat": 0.0}, {"fusion_lon": 0.0, "bike_id": "164897a8adc9c4e9b651862e97312495", "name": "164897a8adc9c4e9b651862e97312495", "type": "electric_scooter", "lon": -76.99862283333333, "rental_uris": {"android": "https://dc.lft.to/lastmile_qr_scan", "ios": "https://dc.lft.to/lastmile_qr_scan"}, "lat": 38.908982, "is_reserved": 0, "is_disabled": 0, "fusion_lat": 0.0}, {"fusion_lon": 0.0, "bike_id": "3101678d64faabdf1c064fab153b7fed", "name": "3101678d64faabdf1c064fab153b7fed", "type": "electric_scooter", "lon": -76.94652616666667, "rental_uris": {"android": "https://dc.lft.to/lastmile_qr_scan", "ios": "https://dc.lft.to/lastmile_qr_scan"}, "lat": 38.898257666666666, "is_reserved": 0, "is_disabled": 0, "fusion_lat": 0.0}, {"fusion_lon": 0.0, "bike_id": "110317459419c04a1146c17ff74e074c", "name": "110317459419c04a1146c17ff74e074c", "type": "electric_scooter", "lon": -77.038794, "rental_uris": {"android": "https://dc.lft.to/lastmile_qr_scan", "ios": "https://dc.lft.to/lastmile_qr_scan"}, "lat": 38.934318833333336, "is_reserved": 0, "is_disabled": 0, "fusion_lat": 0.0}, {"fusion_lon": 0.0, "bike_id": "13f8e149616ca79687ab933557a54692", "name": "13f8e149616ca79687ab933557a54692", "type": "electric_bike", "lon": -77.05111683333334, "rental_uris": {"android": "https://dc.lft.to/lastmile_qr_scan", "ios": "https://dc.lft.to/lastmile_qr_scan"}, "lat": 38.94557116666667, "is_reserved": 0, "is_disabled": 0, "fusion_lat": 0.0}, {"fusion_lon": 0.0, "bike_id": "624b86222a78ab366b8bffc560133884", "name": "624b86222a78ab366b8bffc560133884", "type": "electric_scooter", "lon": -77.03930783333334, "rental_uris": {"android": "https://dc.lft.to/lastmile_qr_scan", "ios": "https://dc.lft.to/lastmile_qr_scan"}, "lat": 38.92494716666667, "is_reserved": 0, "is_disabled": 0, "fusion_lat": 0.0}, {"fusion_lon": 0.0, "bike_id": "ba18420c353f01247e90e9a30315023d", "name": "ba18420c353f01247e90e9a30315023d", "type": "electric_bike", "lon": -77.00007983333333, "rental_uris": {"android": "https://dc.lft.to/lastmile_qr_scan", "ios": "https://dc.lft.to/lastmile_qr_scan"}, "lat": 38.923945, "is_reserved": 0, "is_disabled": 0, "fusion_lat": 0.0}, {"fusion_lon": 0.0, "bike_id": "70b2badb62e3290cc03205ecf06148c3", "name": "70b2badb62e3290cc03205ecf06148c3", "type": "electric_scooter", "lon": -77.06364183333334, "rental_uris": {"android": "https://dc.lft.to/lastmile_qr_scan", "ios": "https://dc.lft.to/lastmile_qr_scan"}, "lat": 38.9441705, "is_reserved": 0, "is_disabled": 0, "fusion_lat": 0.0}, {"fusion_lon": 0.0, "bike_id": "108d04f952269c20b18992c8c9216d12", "name": "108d04f952269c20b18992c8c9216d12", "type": "electric_scooter", "lon": -77.03217033333334, "rental_uris": {"android": "https://dc.lft.to/lastmile_qr_scan", "ios": "https://dc.lft.to/lastmile_qr_scan"}, "lat": 38.91255366666667, "is_reserved": 0, "is_disabled": 0, "fusion_lat": 0.0}, {"fusion_lon": 0.0, "bike_id": "7df8a24c85cf082d8e3d51cb4a959692", "name": "7df8a24c85cf082d8e3d51cb4a959692", "type": "electric_bike", "lon": -77.0541185, "rental_uris": {"android": "https://dc.lft.to/lastmile_qr_scan", "ios": "https://dc.lft.to/lastmile_qr_scan"}, "lat": 38.848902333333335, "is_reserved": 0, "is_disabled": 0, "fusion_lat": 0.0}, {"fusion_lon": 0.0, "bike_id": "c98cc7c706410673a0c89209b7c33b69", "name": "c98cc7c706410673a0c89209b7c33b69", "type": "electric_bike", "lon": -77.107334, "rental_uris": {"android": "https://dc.lft.to/lastmile_qr_scan", "ios": "https://dc.lft.to/lastmile_qr_scan"}, "lat": 38.855307333333336, "is_reserved": 0, "is_disabled": 0, "fusion_lat": 0.0}, {"fusion_lon": 0.0, "bike_id": "f38d07f1de283d5119e71f2832c9e2e5", "name": "f38d07f1de283d5119e71f2832c9e2e5", "type": "electric_scooter", "lon": -77.0445145, "rental_uris": {"android": "https://dc.lft.to/lastmile_qr_scan", "ios": "https://dc.lft.to/lastmile_qr_scan"}, "lat": 38.90993, "is_reserved": 0, "is_disabled": 0, "fusion_lat": 0.0}, {"fusion_lon": 0.0, "bike_id": "ba760dd7e7ce054d214f47c792554dd0", "name": "ba760dd7e7ce054d214f47c792554dd0", "type": "electric_scooter", "lon": -77.02777083333334, "rental_uris": {"android": "https://dc.lft.to/lastmile_qr_scan", "ios": "https://dc.lft.to/lastmile_qr_scan"}, "lat": 38.892174833333335, "is_reserved": 0, "is_disabled": 0, "fusion_lat": 0.0}, {"fusion_lon": 0.0, "bike_id": "56a9ccdeb408d26e3be5ae8a90f6452f", "name": "56a9ccdeb408d26e3be5ae8a90f6452f", "type": "electric_scooter", "lon": -77.0414755, "rental_uris": {"android": "https://dc.lft.to/lastmile_qr_scan", "ios": "https://dc.lft.to/lastmile_qr_scan"}, "lat": 38.915624, "is_reserved": 0, "is_disabled": 0, "fusion_lat": 0.0}, {"fusion_lon": 0.0, "bike_id": "0c7e387f6e72a1faa529a9718b2c4db2", "name": "0c7e387f6e72a1faa529a9718b2c4db2", "type": "electric_scooter", "lon": -76.96437633333333, "rental_uris": {"android": "https://dc.lft.to/lastmile_qr_scan", "ios": "https://dc.lft.to/lastmile_qr_scan"}, "lat": 38.93466166666666, "is_reserved": 0, "is_disabled": 0, "fusion_lat": 0.0}, {"fusion_lon": 0.0, "bike_id": "2f8c64f7abdab00eabaad78c3d7cf974", "name": "2f8c64f7abdab00eabaad78c3d7cf974", "type": "electric_scooter", "lon": -77.04403, "rental_uris": {"android": "https://dc.lft.to/lastmile_qr_scan", "ios": "https://dc.lft.to/lastmile_qr_scan"}, "lat": 38.893991666666665, "is_reserved": 0, "is_disabled": 0, "fusion_lat": 0.0}, {"fusion_lon": 0.0, "bike_id": "1e7e64e84d060b91361831863d40522b", "name": "1e7e64e84d060b91361831863d40522b", "type": "electric_scooter", "lon": -77.04606083333333, "rental_uris": {"android": "https://dc.lft.to/lastmile_qr_scan", "ios": "https://dc.lft.to/lastmile_qr_scan"}, "lat": 38.90064183333333, "is_reserved": 0, "is_disabled": 0, "fusion_lat": 0.0}, {"fusion_lon": 0.0, "bike_id": "76a111c9352d629bfbad3805c18ca3a8", "name": "76a111c9352d629bfbad3805c18ca3a8", "type": "electric_scooter", "lon": -77.03706816666667, "rental_uris": {"android": "https://dc.lft.to/lastmile_qr_scan", "ios": "https://dc.lft.to/lastmile_qr_scan"}, "lat": 38.926395, "is_reserved": 0, "is_disabled": 0, "fusion_lat": 0.0}, {"fusion_lon": 0.0, "bike_id": "06277a948ea895309944f1d5c020abe0", "name": "06277a948ea895309944f1d5c020abe0", "type": "electric_bike", "lon": -76.98958016666667, "rental_uris": {"android": "https://dc.lft.to/lastmile_qr_scan", "ios": "https://dc.lft.to/lastmile_qr_scan"}, "lat": 38.8891025, "is_reserved": 0, "is_disabled": 0, "fusion_lat": 0.0}, {"fusion_lon": 0.0, "bike_id": "5ff22d0beeb34927e21aab5a659fd36b", "name": "5ff22d0beeb34927e21aab5a659fd36b", "type": "electric_scooter", "lon": -77.00532366666667, "rental_uris": {"android": "https://dc.lft.to/lastmile_qr_scan", "ios": "https://dc.lft.to/lastmile_qr_scan"}, "lat": 38.87963833333333, "is_reserved": 0, "is_disabled": 0, "fusion_lat": 0.0}, {"fusion_lon": 0.0, "bike_id": "bfbb02e39dfc9cb250f6e3dd23a4204e", "name": "bfbb02e39dfc9cb250f6e3dd23a4204e", "type": "electric_scooter", "lon": -77.02034466666667, "rental_uris": {"android": "https://dc.lft.to/lastmile_qr_scan", "ios": "https://dc.lft.to/lastmile_qr_scan"}, "lat": 38.881241833333334, "is_reserved": 0, "is_disabled": 0, "fusion_lat": 0.0}, {"fusion_lon": 0.0, "bike_id": "59fb740d1f5f4be54b1ee6a2a4e302d8", "name": "59fb740d1f5f4be54b1ee6a2a4e302d8", "type": "electric_scooter", "lon": -77.0259225, "rental_uris": {"android": "https://dc.lft.to/lastmile_qr_scan", "ios": "https://dc.lft.to/lastmile_qr_scan"}, "lat": 38.904923833333335, "is_reserved": 0, "is_disabled": 0, "fusion_lat": 0.0}, {"fusion_lon": 0.0, "bike_id": "b60e7dc5adbb127e715d911e5b46e76b", "name": "b60e7dc5adbb127e715d911e5b46e76b", "type": "electric_scooter", "lon": -77.032072, "rental_uris": {"android": "https://dc.lft.to/lastmile_qr_scan", "ios": "https://dc.lft.to/lastmile_qr_scan"}, "lat": 38.91748316666666, "is_reserved": 0, "is_disabled": 0, "fusion_lat": 0.0}, {"fusion_lon": 0.0, "bike_id": "b31c2bcde12e018e28fc4d86658e38fa", "name": "b31c2bcde12e018e28fc4d86658e38fa", "type": "electric_scooter", "lon": -76.986839, "rental_uris": {"android": "https://dc.lft.to/lastmile_qr_scan", "ios": "https://dc.lft.to/lastmile_qr_scan"}, "lat": 38.88531566666666, "is_reserved": 0, "is_disabled": 0, "fusion_lat": 0.0}, {"fusion_lon": 0.0, "bike_id": "fbef7e9008a0b6e25c4af80b159e1afc", "name": "fbef7e9008a0b6e25c4af80b159e1afc", "type": "electric_scooter", "lon": -77.0348725, "rental_uris": {"android": "https://dc.lft.to/lastmile_qr_scan", "ios": "https://dc.lft.to/lastmile_qr_scan"}, "lat": 38.9248345, "is_reserved": 0, "is_disabled": 0, "fusion_lat": 0.0}, {"fusion_lon": 0.0, "bike_id": "9865c2b15479467936171166acf7813d", "name": "9865c2b15479467936171166acf7813d", "type": "electric_bike", "lon": -76.97197683333333, "rental_uris": {"android": "https://dc.lft.to/lastmile_qr_scan", "ios": "https://dc.lft.to/lastmile_qr_scan"}, "lat": 38.892525666666664, "is_reserved": 0, "is_disabled": 0, "fusion_lat": 0.0}, {"fusion_lon": 0.0, "bike_id": "8a75db9e0dcd9f8a3dfc472b1a170b27", "name": "8a75db9e0dcd9f8a3dfc472b1a170b27", "type": "electric_scooter", "lon": -77.03438116666666, "rental_uris": {"android": "https://dc.lft.to/lastmile_qr_scan", "ios": "https://dc.lft.to/lastmile_qr_scan"}, "lat": 38.9072545, "is_reserved": 0, "is_disabled": 0, "fusion_lat": 0.0}, {"fusion_lon": 0.0, "bike_id": "a960376f274dde0c3f54d7772277414d", "name": "a960376f274dde0c3f54d7772277414d", "type": "electric_scooter", "lon": -77.0294035, "rental_uris": {"android": "https://dc.lft.to/lastmile_qr_scan", "ios": "https://dc.lft.to/lastmile_qr_scan"}, "lat": 38.90509183333333, "is_reserved": 0, "is_disabled": 0, "fusion_lat": 0.0}, {"fusion_lon": 0.0, "bike_id": "9b5ffc00903da5fb8e69f9f8b90b8ac6", "name": "9b5ffc00903da5fb8e69f9f8b90b8ac6", "type": "electric_scooter", "lon": -77.01369916666667, "rental_uris": {"android": "https://dc.lft.to/lastmile_qr_scan", "ios": "https://dc.lft.to/lastmile_qr_scan"}, "lat": 38.89227, "is_reserved": 0, "is_disabled": 0, "fusion_lat": 0.0}, {"fusion_lon": 0.0, "bike_id": "51cedac17ba352f9abc8732db6e925d5", "name": "51cedac17ba352f9abc8732db6e925d5", "type": "electric_scooter", "lon": -77.058282, "rental_uris": {"android": "https://dc.lft.to/lastmile_qr_scan", "ios": "https://dc.lft.to/lastmile_qr_scan"}, "lat": 38.93538616666667, "is_reserved": 0, "is_disabled": 0, "fusion_lat": 0.0}, {"fusion_lon": 0.0, "bike_id": "b55881fcd8962c062a4208fe4a541621", "name": "b55881fcd8962c062a4208fe4a541621", "type": "electric_scooter", "lon": -77.02684333333333, "rental_uris": {"android": "https://dc.lft.to/lastmile_qr_scan", "ios": "https://dc.lft.to/lastmile_qr_scan"}, "lat": 38.908764, "is_reserved": 0, "is_disabled": 0, "fusion_lat": 0.0}, {"fusion_lon": 0.0, "bike_id": "f508182a5aff2f87c53c814e1862efcf", "name": "f508182a5aff2f87c53c814e1862efcf", "type": "electric_scooter", "lon": -77.03442916666667, "rental_uris": {"android": "https://dc.lft.to/lastmile_qr_scan", "ios": "https://dc.lft.to/lastmile_qr_scan"}, "lat": 38.90674883333333, "is_reserved": 0, "is_disabled": 0, "fusion_lat": 0.0}, {"fusion_lon": 0.0, "bike_id": "85201e0043378d434ded258ee0930bf1", "name": "85201e0043378d434ded258ee0930bf1", "type": "electric_scooter", "lon": -77.0169245, "rental_uris": {"android": "https://dc.lft.to/lastmile_qr_scan", "ios": "https://dc.lft.to/lastmile_qr_scan"}, "lat": 38.97497383333334, "is_reserved": 0, "is_disabled": 0, "fusion_lat": 0.0}, {"fusion_lon": 0.0, "bike_id": "0b1c520df96b505cb74a4141cdbba6cd", "name": "0b1c520df96b505cb74a4141cdbba6cd", "type": "electric_scooter", "lon": -77.016947, "rental_uris": {"android": "https://dc.lft.to/lastmile_qr_scan", "ios": "https://dc.lft.to/lastmile_qr_scan"}, "lat": 38.97499416666667, "is_reserved": 0, "is_disabled": 0, "fusion_lat": 0.0}, {"fusion_lon": 0.0, "bike_id": "1f5665796c2ac3d10eecbc9fb2b8d946", "name": "1f5665796c2ac3d10eecbc9fb2b8d946", "type": "electric_scooter", "lon": -77.0216005, "rental_uris": {"android": "https://dc.lft.to/lastmile_qr_scan", "ios": "https://dc.lft.to/lastmile_qr_scan"}, "lat": 38.92606266666667, "is_reserved": 0, "is_disabled": 0, "fusion_lat": 0.0}, {"fusion_lon": 0.0, "bike_id": "a7b7671fcbac12925402af3396f5a065", "name": "a7b7671fcbac12925402af3396f5a065", "type": "electric_scooter", "lon": -77.02155916666666, "rental_uris": {"android": "https://dc.lft.to/lastmile_qr_scan", "ios": "https://dc.lft.to/lastmile_qr_scan"}, "lat": 38.9260445, "is_reserved": 0, "is_disabled": 0, "fusion_lat": 0.0}, {"fusion_lon": 0.0, "bike_id": "2ca8b0f3e00337691142e4240d8bdebe", "name": "2ca8b0f3e00337691142e4240d8bdebe", "type": "electric_scooter", "lon": -77.02800633333334, "rental_uris": {"android": "https://dc.lft.to/lastmile_qr_scan", "ios": "https://dc.lft.to/lastmile_qr_scan"}, "lat": 38.91681466666667, "is_reserved": 0, "is_disabled": 0, "fusion_lat": 0.0}, {"fusion_lon": 0.0, "bike_id": "b93c514e32cfb1f054e85571e0828bb8", "name": "b93c514e32cfb1f054e85571e0828bb8", "type": "electric_bike", "lon": -77.00357466666667, "rental_uris": {"android": "https://dc.lft.to/lastmile_qr_scan", "ios": "https://dc.lft.to/lastmile_qr_scan"}, "lat": 38.8794955, "is_reserved": 0, "is_disabled": 0, "fusion_lat": 0.0}, {"fusion_lon": 0.0, "bike_id": "0fb3cfa55905bde3088d6ed4f85f9e96", "name": "0fb3cfa55905bde3088d6ed4f85f9e96", "type": "electric_bike", "lon": -76.9722015, "rental_uris": {"android": "https://dc.lft.to/lastmile_qr_scan", "ios": "https://dc.lft.to/lastmile_qr_scan"}, "lat": 38.8447895, "is_reserved": 0, "is_disabled": 0, "fusion_lat": 0.0}, {"fusion_lon": 0.0, "bike_id": "6b1f64cc4af210f522981b98f062b820", "name": "6b1f64cc4af210f522981b98f062b820", "type": "electric_scooter", "lon": -76.97345116666666, "rental_uris": {"android": "https://dc.lft.to/lastmile_qr_scan", "ios": "https://dc.lft.to/lastmile_qr_scan"}, "lat": 38.865189, "is_reserved": 0, "is_disabled": 0, "fusion_lat": 0.0}, {"fusion_lon": 0.0, "bike_id": "ebecf49e6017e449180039f849eb14d8", "name": "ebecf49e6017e449180039f849eb14d8", "type": "electric_scooter", "lon": -77.06755433333333, "rental_uris": {"android": "https://dc.lft.to/lastmile_qr_scan", "ios": "https://dc.lft.to/lastmile_qr_scan"}, "lat": 38.94979983333333, "is_reserved": 0, "is_disabled": 0, "fusion_lat": 0.0}, {"fusion_lon": 0.0, "bike_id": "e408e4f5886064465d54d6a11f40dac7", "name": "e408e4f5886064465d54d6a11f40dac7", "type": "electric_scooter", "lon": -77.04173, "rental_uris": {"android": "https://dc.lft.to/lastmile_qr_scan", "ios": "https://dc.lft.to/lastmile_qr_scan"}, "lat": 38.915494833333334, "is_reserved": 0, "is_disabled": 0, "fusion_lat": 0.0}, {"fusion_lon": 0.0, "bike_id": "3422fdbd5d1cc2f6703dc2fd79acd234", "name": "3422fdbd5d1cc2f6703dc2fd79acd234", "type": "electric_scooter", "lon": -77.022226, "rental_uris": {"android": "https://dc.lft.to/lastmile_qr_scan", "ios": "https://dc.lft.to/lastmile_qr_scan"}, "lat": 38.912706, "is_reserved": 0, "is_disabled": 0, "fusion_lat": 0.0}, {"fusion_lon": 0.0, "bike_id": "fda372bcb10c514daa83525807f82e04", "name": "fda372bcb10c514daa83525807f82e04", "type": "electric_scooter", "lon": -77.0175475, "rental_uris": {"android": "https://dc.lft.to/lastmile_qr_scan", "ios": "https://dc.lft.to/lastmile_qr_scan"}, "lat": 38.90263266666667, "is_reserved": 0, "is_disabled": 0, "fusion_lat": 0.0}, {"fusion_lon": 0.0, "bike_id": "0458f27bd3d97ae63d688ec6e9d915b5", "name": "0458f27bd3d97ae63d688ec6e9d915b5", "type": "electric_scooter", "lon": -77.00293033333334, "rental_uris": {"android": "https://dc.lft.to/lastmile_qr_scan", "ios": "https://dc.lft.to/lastmile_qr_scan"}, "lat": 38.901559166666665, "is_reserved": 0, "is_disabled": 0, "fusion_lat": 0.0}, {"fusion_lon": 0.0, "bike_id": "ae5065efb40670e0dda7ca937a5e9216", "name": "ae5065efb40670e0dda7ca937a5e9216", "type": "electric_scooter", "lon": -77.04836883333333, "rental_uris": {"android": "https://dc.lft.to/lastmile_qr_scan", "ios": "https://dc.lft.to/lastmile_qr_scan"}, "lat": 38.91039383333333, "is_reserved": 0, "is_disabled": 0, "fusion_lat": 0.0}, {"fusion_lon": 0.0, "bike_id": "4422e9e24719b0caefb3dc8d81971990", "name": "4422e9e24719b0caefb3dc8d81971990", "type": "electric_scooter", "lon": -76.97542366666667, "rental_uris": {"android": "https://dc.lft.to/lastmile_qr_scan", "ios": "https://dc.lft.to/lastmile_qr_scan"}, "lat": 38.902580666666665, "is_reserved": 0, "is_disabled": 0, "fusion_lat": 0.0}, {"fusion_lon": 0.0, "bike_id": "3191b32c523ad872dc195e29d0dc36aa", "name": "3191b32c523ad872dc195e29d0dc36aa", "type": "electric_scooter", "lon": -77.001451, "rental_uris": {"android": "https://dc.lft.to/lastmile_qr_scan", "ios": "https://dc.lft.to/lastmile_qr_scan"}, "lat": 38.873805833333336, "is_reserved": 0, "is_disabled": 0, "fusion_lat": 0.0}, {"fusion_lon": 0.0, "bike_id": "dcaafcaf039dfa422717ef168e3a997c", "name": "dcaafcaf039dfa422717ef168e3a997c", "type": "electric_scooter", "lon": -76.98328783333334, "rental_uris": {"android": "https://dc.lft.to/lastmile_qr_scan", "ios": "https://dc.lft.to/lastmile_qr_scan"}, "lat": 38.88989566666667, "is_reserved": 0, "is_disabled": 0, "fusion_lat": 0.0}, {"fusion_lon": 0.0, "bike_id": "d71f220f9d1fb25f2f50e34172e158ac", "name": "d71f220f9d1fb25f2f50e34172e158ac", "type": "electric_bike", "lon": -77.00678633333334, "rental_uris": {"android": "https://dc.lft.to/lastmile_qr_scan", "ios": "https://dc.lft.to/lastmile_qr_scan"}, "lat": 38.945160666666666, "is_reserved": 0, "is_disabled": 0, "fusion_lat": 0.0}, {"fusion_lon": 0.0, "bike_id": "e00df8071c50e1f6da0babc913bbc9ff", "name": "e00df8071c50e1f6da0babc913bbc9ff", "type": "electric_scooter", "lon": -77.01957216666666, "rental_uris": {"android": "https://dc.lft.to/lastmile_qr_scan", "ios": "https://dc.lft.to/lastmile_qr_scan"}, "lat": 38.90567016666667, "is_reserved": 0, "is_disabled": 0, "fusion_lat": 0.0}, {"fusion_lon": 0.0, "bike_id": "5a1e20dd2dfa5afeff0dd6f364cf2246", "name": "5a1e20dd2dfa5afeff0dd6f364cf2246", "type": "electric_scooter", "lon": -77.02757783333334, "rental_uris": {"android": "https://dc.lft.to/lastmile_qr_scan", "ios": "https://dc.lft.to/lastmile_qr_scan"}, "lat": 38.92581633333333, "is_reserved": 0, "is_disabled": 0, "fusion_lat": 0.0}, {"fusion_lon": 0.0, "bike_id": "db9b0e9c6049e58f09b28b5493713bd8", "name": "db9b0e9c6049e58f09b28b5493713bd8", "type": "electric_scooter", "lon": -77.03836683333333, "rental_uris": {"android": "https://dc.lft.to/lastmile_qr_scan", "ios": "https://dc.lft.to/lastmile_qr_scan"}, "lat": 38.915645833333336, "is_reserved": 0, "is_disabled": 0, "fusion_lat": 0.0}, {"fusion_lon": 0.0, "bike_id": "c1b25d42f53c13093241417b2b44275a", "name": "c1b25d42f53c13093241417b2b44275a", "type": "electric_scooter", "lon": -77.02709266666666, "rental_uris": {"android": "https://dc.lft.to/lastmile_qr_scan", "ios": "https://dc.lft.to/lastmile_qr_scan"}, "lat": 38.9098775, "is_reserved": 0, "is_disabled": 0, "fusion_lat": 0.0}, {"fusion_lon": 0.0, "bike_id": "f3b6cc43a7eab9da258f5954a2e2910f", "name": "f3b6cc43a7eab9da258f5954a2e2910f", "type": "electric_scooter", "lon": -77.07255716666667, "rental_uris": {"android": "https://dc.lft.to/lastmile_qr_scan", "ios": "https://dc.lft.to/lastmile_qr_scan"}, "lat": 38.907859, "is_reserved": 0, "is_disabled": 0, "fusion_lat": 0.0}, {"fusion_lon": 0.0, "bike_id": "2661a3faf85e4029eb4e0fada0615b43", "name": "2661a3faf85e4029eb4e0fada0615b43", "type": "electric_scooter", "lon": -77.046679, "rental_uris": {"android": "https://dc.lft.to/lastmile_qr_scan", "ios": "https://dc.lft.to/lastmile_qr_scan"}, "lat": 38.90741666666667, "is_reserved": 0, "is_disabled": 0, "fusion_lat": 0.0}, {"fusion_lon": 0.0, "bike_id": "6cc3d3b15b0754622931923ac3abd653", "name": "6cc3d3b15b0754622931923ac3abd653", "type": "electric_scooter", "lon": -77.0200705, "rental_uris": {"android": "https://dc.lft.to/lastmile_qr_scan", "ios": "https://dc.lft.to/lastmile_qr_scan"}, "lat": 38.915691333333335, "is_reserved": 0, "is_disabled": 0, "fusion_lat": 0.0}, {"fusion_lon": 0.0, "bike_id": "cf4dfde280f4cf6645f6a27b10fba331", "name": "cf4dfde280f4cf6645f6a27b10fba331", "type": "electric_scooter", "lon": -77.00813166666667, "rental_uris": {"android": "https://dc.lft.to/lastmile_qr_scan", "ios": "https://dc.lft.to/lastmile_qr_scan"}, "lat": 38.915712666666664, "is_reserved": 0, "is_disabled": 0, "fusion_lat": 0.0}, {"fusion_lon": 0.0, "bike_id": "2d659858bfdb79efb12c8bc75fab44cd", "name": "2d659858bfdb79efb12c8bc75fab44cd", "type": "electric_scooter", "lon": -76.99791616666667, "rental_uris": {"android": "https://dc.lft.to/lastmile_qr_scan", "ios": "https://dc.lft.to/lastmile_qr_scan"}, "lat": 38.948318666666665, "is_reserved": 0, "is_disabled": 0, "fusion_lat": 0.0}, {"fusion_lon": 0.0, "bike_id": "11686fb2270a396d6e4b4ca501bdb9fc", "name": "11686fb2270a396d6e4b4ca501bdb9fc", "type": "electric_scooter", "lon": -77.00482916666667, "rental_uris": {"android": "https://dc.lft.to/lastmile_qr_scan", "ios": "https://dc.lft.to/lastmile_qr_scan"}, "lat": 38.880358, "is_reserved": 0, "is_disabled": 0, "fusion_lat": 0.0}, {"fusion_lon": 0.0, "bike_id": "5c2a6cb9c7223d17e8713b2a9a45d1dd", "name": "5c2a6cb9c7223d17e8713b2a9a45d1dd", "type": "electric_scooter", "lon": -77.06092316666667, "rental_uris": {"android": "https://dc.lft.to/lastmile_qr_scan", "ios": "https://dc.lft.to/lastmile_qr_scan"}, "lat": 38.943722666666666, "is_reserved": 0, "is_disabled": 0, "fusion_lat": 0.0}, {"fusion_lon": 0.0, "bike_id": "ed3ad8b0d37c84ff91b8a069906e34e9", "name": "ed3ad8b0d37c84ff91b8a069906e34e9", "type": "electric_scooter", "lon": -77.01807433333333, "rental_uris": {"android": "https://dc.lft.to/lastmile_qr_scan", "ios": "https://dc.lft.to/lastmile_qr_scan"}, "lat": 38.902762333333335, "is_reserved": 0, "is_disabled": 0, "fusion_lat": 0.0}, {"fusion_lon": 0.0, "bike_id": "1a8c84e99c238d9c7b98d15bab1aec43", "name": "1a8c84e99c238d9c7b98d15bab1aec43", "type": "electric_scooter", "lon": -77.00592516666667, "rental_uris": {"android": "https://dc.lft.to/lastmile_qr_scan", "ios": "https://dc.lft.to/lastmile_qr_scan"}, "lat": 38.905604, "is_reserved": 0, "is_disabled": 0, "fusion_lat": 0.0}, {"fusion_lon": 0.0, "bike_id": "891a4e4bdc9ef76f895c257bd6c92038", "name": "891a4e4bdc9ef76f895c257bd6c92038", "type": "electric_scooter", "lon": -77.04167083333333, "rental_uris": {"android": "https://dc.lft.to/lastmile_qr_scan", "ios": "https://dc.lft.to/lastmile_qr_scan"}, "lat": 38.91355266666667, "is_reserved": 0, "is_disabled": 0, "fusion_lat": 0.0}, {"fusion_lon": 0.0, "bike_id": "c14efaf71cc53fd5b8b52376d7be1004", "name": "c14efaf71cc53fd5b8b52376d7be1004", "type": "electric_scooter", "lon": -77.03491766666667, "rental_uris": {"android": "https://dc.lft.to/lastmile_qr_scan", "ios": "https://dc.lft.to/lastmile_qr_scan"}, "lat": 38.92155833333333, "is_reserved": 0, "is_disabled": 0, "fusion_lat": 0.0}, {"fusion_lon": 0.0, "bike_id": "d88327eb3406b0b098f7cf3442c10a78", "name": "d88327eb3406b0b098f7cf3442c10a78", "type": "electric_scooter", "lon": -77.03050816666666, "rental_uris": {"android": "https://dc.lft.to/lastmile_qr_scan", "ios": "https://dc.lft.to/lastmile_qr_scan"}, "lat": 38.884131833333335, "is_reserved": 0, "is_disabled": 0, "fusion_lat": 0.0}, {"fusion_lon": 0.0, "bike_id": "2341df07be91f3d9d112f34207dfecf6", "name": "2341df07be91f3d9d112f34207dfecf6", "type": "electric_scooter", "lon": -77.03258916666667, "rental_uris": {"android": "https://dc.lft.to/lastmile_qr_scan", "ios": "https://dc.lft.to/lastmile_qr_scan"}, "lat": 38.91813616666666, "is_reserved": 0, "is_disabled": 0, "fusion_lat": 0.0}, {"fusion_lon": 0.0, "bike_id": "b2e8f536c3e7411608db9d9cbaf53029", "name": "b2e8f536c3e7411608db9d9cbaf53029", "type": "electric_scooter", "lon": -77.02022683333334, "rental_uris": {"android": "https://dc.lft.to/lastmile_qr_scan", "ios": "https://dc.lft.to/lastmile_qr_scan"}, "lat": 38.92451916666667, "is_reserved": 0, "is_disabled": 0, "fusion_lat": 0.0}, {"fusion_lon": 0.0, "bike_id": "dde2d4dff5a13e4808185c6491bab21b", "name": "dde2d4dff5a13e4808185c6491bab21b", "type": "electric_scooter", "lon": -77.02782, "rental_uris": {"android": "https://dc.lft.to/lastmile_qr_scan", "ios": "https://dc.lft.to/lastmile_qr_scan"}, "lat": 38.89223916666667, "is_reserved": 0, "is_disabled": 0, "fusion_lat": 0.0}, {"fusion_lon": 0.0, "bike_id": "3a9e66355945a20c598f6829e8fc9f44", "name": "3a9e66355945a20c598f6829e8fc9f44", "type": "electric_scooter", "lon": -77.04338816666667, "rental_uris": {"android": "https://dc.lft.to/lastmile_qr_scan", "ios": "https://dc.lft.to/lastmile_qr_scan"}, "lat": 38.922061666666664, "is_reserved": 0, "is_disabled": 0, "fusion_lat": 0.0}, {"fusion_lon": 0.0, "bike_id": "219eeee41e9c59c6b74fc36d5501440d", "name": "219eeee41e9c59c6b74fc36d5501440d", "type": "electric_scooter", "lon": -77.02010683333333, "rental_uris": {"android": "https://dc.lft.to/lastmile_qr_scan", "ios": "https://dc.lft.to/lastmile_qr_scan"}, "lat": 38.924239666666665, "is_reserved": 0, "is_disabled": 0, "fusion_lat": 0.0}, {"fusion_lon": 0.0, "bike_id": "610f2e2ed15593d0d10ebf8e02d79b50", "name": "610f2e2ed15593d0d10ebf8e02d79b50", "type": "electric_scooter", "lon": -76.98105983333333, "rental_uris": {"android": "https://dc.lft.to/lastmile_qr_scan", "ios": "https://dc.lft.to/lastmile_qr_scan"}, "lat": 38.905728333333336, "is_reserved": 0, "is_disabled": 0, "fusion_lat": 0.0}, {"fusion_lon": 0.0, "bike_id": "65f4e3865f647452ec1ff96221a2dee6", "name": "65f4e3865f647452ec1ff96221a2dee6", "type": "electric_scooter", "lon": -77.00331583333333, "rental_uris": {"android": "https://dc.lft.to/lastmile_qr_scan", "ios": "https://dc.lft.to/lastmile_qr_scan"}, "lat": 38.875001166666664, "is_reserved": 0, "is_disabled": 0, "fusion_lat": 0.0}, {"fusion_lon": 0.0, "bike_id": "359de1efa552649aa0806f2e8c734ba0", "name": "359de1efa552649aa0806f2e8c734ba0", "type": "electric_scooter", "lon": -77.00344283333334, "rental_uris": {"android": "https://dc.lft.to/lastmile_qr_scan", "ios": "https://dc.lft.to/lastmile_qr_scan"}, "lat": 38.913489, "is_reserved": 0, "is_disabled": 0, "fusion_lat": 0.0}, {"fusion_lon": 0.0, "bike_id": "dd7ea35554930a3e9e00b249abd0986c", "name": "dd7ea35554930a3e9e00b249abd0986c", "type": "electric_scooter", "lon": -77.032085, "rental_uris": {"android": "https://dc.lft.to/lastmile_qr_scan", "ios": "https://dc.lft.to/lastmile_qr_scan"}, "lat": 38.91800966666667, "is_reserved": 0, "is_disabled": 0, "fusion_lat": 0.0}, {"fusion_lon": 0.0, "bike_id": "ad8eddfbf901323b2bf45829aac21864", "name": "ad8eddfbf901323b2bf45829aac21864", "type": "electric_scooter", "lon": -77.0769515, "rental_uris": {"android": "https://dc.lft.to/lastmile_qr_scan", "ios": "https://dc.lft.to/lastmile_qr_scan"}, "lat": 38.92172216666667, "is_reserved": 0, "is_disabled": 0, "fusion_lat": 0.0}, {"fusion_lon": 0.0, "bike_id": "8c66214e6121468948c6e8be8a178def", "name": "8c66214e6121468948c6e8be8a178def", "type": "electric_scooter", "lon": -77.03463466666666, "rental_uris": {"android": "https://dc.lft.to/lastmile_qr_scan", "ios": "https://dc.lft.to/lastmile_qr_scan"}, "lat": 38.918138666666664, "is_reserved": 0, "is_disabled": 0, "fusion_lat": 0.0}, {"fusion_lon": 0.0, "bike_id": "c879442837612f800bafb0c0b29745e5", "name": "c879442837612f800bafb0c0b29745e5", "type": "electric_scooter", "lon": -77.0414895, "rental_uris": {"android": "https://dc.lft.to/lastmile_qr_scan", "ios": "https://dc.lft.to/lastmile_qr_scan"}, "lat": 38.914548833333335, "is_reserved": 0, "is_disabled": 0, "fusion_lat": 0.0}, {"fusion_lon": 0.0, "bike_id": "2756ef6feb253cd8e8aa1583721cd7ee", "name": "2756ef6feb253cd8e8aa1583721cd7ee", "type": "electric_scooter", "lon": -77.01970983333334, "rental_uris": {"android": "https://dc.lft.to/lastmile_qr_scan", "ios": "https://dc.lft.to/lastmile_qr_scan"}, "lat": 38.884135666666666, "is_reserved": 0, "is_disabled": 0, "fusion_lat": 0.0}, {"fusion_lon": 0.0, "bike_id": "35cc74bc0a40297a10dfc8f91659a9ed", "name": "35cc74bc0a40297a10dfc8f91659a9ed", "type": "electric_bike", "lon": -76.93227866666666, "rental_uris": {"android": "https://dc.lft.to/lastmile_qr_scan", "ios": "https://dc.lft.to/lastmile_qr_scan"}, "lat": 38.86594866666667, "is_reserved": 0, "is_disabled": 0, "fusion_lat": 0.0}, {"fusion_lon": 0.0, "bike_id": "ef2a837b2d698a74810743d85faf578e", "name": "ef2a837b2d698a74810743d85faf578e", "type": "electric_scooter", "lon": -76.9841805, "rental_uris": {"android": "https://dc.lft.to/lastmile_qr_scan", "ios": "https://dc.lft.to/lastmile_qr_scan"}, "lat": 38.91998383333333, "is_reserved": 0, "is_disabled": 0, "fusion_lat": 0.0}, {"fusion_lon": 0.0, "bike_id": "b21f6cb3b2e3c4ceeb9089b0c9d212e5", "name": "b21f6cb3b2e3c4ceeb9089b0c9d212e5", "type": "electric_scooter", "lon": -77.03662533333333, "rental_uris": {"android": "https://dc.lft.to/lastmile_qr_scan", "ios": "https://dc.lft.to/lastmile_qr_scan"}, "lat": 38.90841266666666, "is_reserved": 0, "is_disabled": 0, "fusion_lat": 0.0}, {"fusion_lon": 0.0, "bike_id": "dd8f35d2fcf621c2b77888a01265179d", "name": "dd8f35d2fcf621c2b77888a01265179d", "type": "electric_scooter", "lon": -77.031841, "rental_uris": {"android": "https://dc.lft.to/lastmile_qr_scan", "ios": "https://dc.lft.to/lastmile_qr_scan"}, "lat": 38.91781116666667, "is_reserved": 0, "is_disabled": 0, "fusion_lat": 0.0}, {"fusion_lon": 0.0, "bike_id": "4ded183c761dafd5a397a80e3c8f2517", "name": "4ded183c761dafd5a397a80e3c8f2517", "type": "electric_bike", "lon": -77.03323416666667, "rental_uris": {"android": "https://dc.lft.to/lastmile_qr_scan", "ios": "https://dc.lft.to/lastmile_qr_scan"}, "lat": 38.91806483333333, "is_reserved": 0, "is_disabled": 0, "fusion_lat": 0.0}, {"fusion_lon": 0.0, "bike_id": "f24f5a06694e14962762fcd9f299d1bc", "name": "f24f5a06694e14962762fcd9f299d1bc", "type": "electric_scooter", "lon": -77.0225525, "rental_uris": {"android": "https://dc.lft.to/lastmile_qr_scan", "ios": "https://dc.lft.to/lastmile_qr_scan"}, "lat": 38.965618666666664, "is_reserved": 0, "is_disabled": 0, "fusion_lat": 0.0}, {"fusion_lon": 0.0, "bike_id": "5cae0124255ff698c95126ba39fa5c8d", "name": "5cae0124255ff698c95126ba39fa5c8d", "type": "electric_scooter", "lon": -76.9877315, "rental_uris": {"android": "https://dc.lft.to/lastmile_qr_scan", "ios": "https://dc.lft.to/lastmile_qr_scan"}, "lat": 38.91174633333333, "is_reserved": 0, "is_disabled": 0, "fusion_lat": 0.0}, {"fusion_lon": 0.0, "bike_id": "e383475f7f8ba3553d00d3b42c688dbe", "name": "e383475f7f8ba3553d00d3b42c688dbe", "type": "electric_scooter", "lon": -77.0180355, "rental_uris": {"android": "https://dc.lft.to/lastmile_qr_scan", "ios": "https://dc.lft.to/lastmile_qr_scan"}, "lat": 38.9222995, "is_reserved": 0, "is_disabled": 0, "fusion_lat": 0.0}, {"fusion_lon": 0.0, "bike_id": "4fe984f147ad3a525447d8f9ee902581", "name": "4fe984f147ad3a525447d8f9ee902581", "type": "electric_scooter", "lon": -77.04176166666667, "rental_uris": {"android": "https://dc.lft.to/lastmile_qr_scan", "ios": "https://dc.lft.to/lastmile_qr_scan"}, "lat": 38.9157555, "is_reserved": 0, "is_disabled": 0, "fusion_lat": 0.0}, {"fusion_lon": 0.0, "bike_id": "71fe5638e52f3795e8678381f4d37fbd", "name": "71fe5638e52f3795e8678381f4d37fbd", "type": "electric_scooter", "lon": -77.0260385, "rental_uris": {"android": "https://dc.lft.to/lastmile_qr_scan", "ios": "https://dc.lft.to/lastmile_qr_scan"}, "lat": 38.91638833333333, "is_reserved": 0, "is_disabled": 0, "fusion_lat": 0.0}, {"fusion_lon": 0.0, "bike_id": "910ae4dfdd770edbcf9e1e649f53b1ad", "name": "910ae4dfdd770edbcf9e1e649f53b1ad", "type": "electric_scooter", "lon": -77.04737283333333, "rental_uris": {"android": "https://dc.lft.to/lastmile_qr_scan", "ios": "https://dc.lft.to/lastmile_qr_scan"}, "lat": 38.90611783333333, "is_reserved": 0, "is_disabled": 0, "fusion_lat": 0.0}, {"fusion_lon": 0.0, "bike_id": "61cabe224a740ed66c18ae5036d894bc", "name": "61cabe224a740ed66c18ae5036d894bc", "type": "electric_scooter", "lon": -77.02695016666667, "rental_uris": {"android": "https://dc.lft.to/lastmile_qr_scan", "ios": "https://dc.lft.to/lastmile_qr_scan"}, "lat": 38.90841666666667, "is_reserved": 0, "is_disabled": 0, "fusion_lat": 0.0}, {"fusion_lon": 0.0, "bike_id": "1fce555fda72d4f628f4934377cd14ef", "name": "1fce555fda72d4f628f4934377cd14ef", "type": "electric_scooter", "lon": -77.0512845, "rental_uris": {"android": "https://dc.lft.to/lastmile_qr_scan", "ios": "https://dc.lft.to/lastmile_qr_scan"}, "lat": 38.92364366666666, "is_reserved": 0, "is_disabled": 0, "fusion_lat": 0.0}, {"fusion_lon": 0.0, "bike_id": "d91c46423ce2662505e34e7d7df8465b", "name": "d91c46423ce2662505e34e7d7df8465b", "type": "electric_bike", "lon": -77.12582066666667, "rental_uris": {"android": "https://dc.lft.to/lastmile_qr_scan", "ios": "https://dc.lft.to/lastmile_qr_scan"}, "lat": 38.851448833333336, "is_reserved": 0, "is_disabled": 0, "fusion_lat": 0.0}, {"fusion_lon": 0.0, "bike_id": "b9ca0e2760c3ea1e7ac9085758cb1f79", "name": "b9ca0e2760c3ea1e7ac9085758cb1f79", "type": "electric_scooter", "lon": -76.940594, "rental_uris": {"android": "https://dc.lft.to/lastmile_qr_scan", "ios": "https://dc.lft.to/lastmile_qr_scan"}, "lat": 38.890286, "is_reserved": 0, "is_disabled": 0, "fusion_lat": 0.0}, {"fusion_lon": 0.0, "bike_id": "faaa0bd68e2a52e1898a90f792da8e44", "name": "faaa0bd68e2a52e1898a90f792da8e44", "type": "electric_scooter", "lon": -77.02713633333333, "rental_uris": {"android": "https://dc.lft.to/lastmile_qr_scan", "ios": "https://dc.lft.to/lastmile_qr_scan"}, "lat": 38.907493, "is_reserved": 0, "is_disabled": 0, "fusion_lat": 0.0}, {"fusion_lon": 0.0, "bike_id": "3de6d2d9eb4e50c22a20df883402a19a", "name": "3de6d2d9eb4e50c22a20df883402a19a", "type": "electric_scooter", "lon": -76.97276483333333, "rental_uris": {"android": "https://dc.lft.to/lastmile_qr_scan", "ios": "https://dc.lft.to/lastmile_qr_scan"}, "lat": 38.93079633333333, "is_reserved": 0, "is_disabled": 0, "fusion_lat": 0.0}, {"fusion_lon": 0.0, "bike_id": "392bde48828845ca88b01ce10eb7d281", "name": "392bde48828845ca88b01ce10eb7d281", "type": "electric_scooter", "lon": -77.04011316666667, "rental_uris": {"android": "https://dc.lft.to/lastmile_qr_scan", "ios": "https://dc.lft.to/lastmile_qr_scan"}, "lat": 38.91631183333333, "is_reserved": 0, "is_disabled": 0, "fusion_lat": 0.0}, {"fusion_lon": 0.0, "bike_id": "75f59070736c7c05825c342d84e42a33", "name": "75f59070736c7c05825c342d84e42a33", "type": "electric_scooter", "lon": -77.03588133333334, "rental_uris": {"android": "https://dc.lft.to/lastmile_qr_scan", "ios": "https://dc.lft.to/lastmile_qr_scan"}, "lat": 38.906915166666664, "is_reserved": 0, "is_disabled": 0, "fusion_lat": 0.0}, {"fusion_lon": 0.0, "bike_id": "5f9209c64962339cf6ad460e1a237440", "name": "5f9209c64962339cf6ad460e1a237440", "type": "electric_scooter", "lon": -77.0343755, "rental_uris": {"android": "https://dc.lft.to/lastmile_qr_scan", "ios": "https://dc.lft.to/lastmile_qr_scan"}, "lat": 38.91585116666667, "is_reserved": 0, "is_disabled": 0, "fusion_lat": 0.0}, {"fusion_lon": 0.0, "bike_id": "1717836ca6477e1387c49d3dbaf66f5a", "name": "1717836ca6477e1387c49d3dbaf66f5a", "type": "electric_scooter", "lon": -76.98469416666667, "rental_uris": {"android": "https://dc.lft.to/lastmile_qr_scan", "ios": "https://dc.lft.to/lastmile_qr_scan"}, "lat": 38.89351816666667, "is_reserved": 0, "is_disabled": 0, "fusion_lat": 0.0}, {"fusion_lon": 0.0, "bike_id": "a95772808fd451b82ae41c22362c6a19", "name": "a95772808fd451b82ae41c22362c6a19", "type": "electric_scooter", "lon": -76.97994783333333, "rental_uris": {"android": "https://dc.lft.to/lastmile_qr_scan", "ios": "https://dc.lft.to/lastmile_qr_scan"}, "lat": 38.88876, "is_reserved": 0, "is_disabled": 0, "fusion_lat": 0.0}, {"fusion_lon": 0.0, "bike_id": "ab180746f8944a65a7404478064d5d27", "name": "ab180746f8944a65a7404478064d5d27", "type": "electric_scooter", "lon": -76.99874533333333, "rental_uris": {"android": "https://dc.lft.to/lastmile_qr_scan", "ios": "https://dc.lft.to/lastmile_qr_scan"}, "lat": 38.9003075, "is_reserved": 0, "is_disabled": 0, "fusion_lat": 0.0}, {"fusion_lon": 0.0, "bike_id": "a91f97d364e2a59c977119db88511fe3", "name": "a91f97d364e2a59c977119db88511fe3", "type": "electric_scooter", "lon": -77.03620583333333, "rental_uris": {"android": "https://dc.lft.to/lastmile_qr_scan", "ios": "https://dc.lft.to/lastmile_qr_scan"}, "lat": 38.9190885, "is_reserved": 0, "is_disabled": 0, "fusion_lat": 0.0}, {"fusion_lon": 0.0, "bike_id": "d8b7f6c73d4520d36b5e0b0728c9db3e", "name": "d8b7f6c73d4520d36b5e0b0728c9db3e", "type": "electric_scooter", "lon": -77.042739, "rental_uris": {"android": "https://dc.lft.to/lastmile_qr_scan", "ios": "https://dc.lft.to/lastmile_qr_scan"}, "lat": 38.916962, "is_reserved": 0, "is_disabled": 0, "fusion_lat": 0.0}, {"fusion_lon": 0.0, "bike_id": "12928b8ec748bfeeb47f1567460c3b11", "name": "12928b8ec748bfeeb47f1567460c3b11", "type": "electric_scooter", "lon": -77.02234616666667, "rental_uris": {"android": "https://dc.lft.to/lastmile_qr_scan", "ios": "https://dc.lft.to/lastmile_qr_scan"}, "lat": 38.914141666666666, "is_reserved": 0, "is_disabled": 0, "fusion_lat": 0.0}, {"fusion_lon": 0.0, "bike_id": "2e74e7c29cc621fa2d18eac784d13dab", "name": "2e74e7c29cc621fa2d18eac784d13dab", "type": "electric_scooter", "lon": -77.03120566666666, "rental_uris": {"android": "https://dc.lft.to/lastmile_qr_scan", "ios": "https://dc.lft.to/lastmile_qr_scan"}, "lat": 38.9055315, "is_reserved": 0, "is_disabled": 0, "fusion_lat": 0.0}, {"fusion_lon": 0.0, "bike_id": "1ce84a6038bae3ff6b0892c8b30bd85b", "name": "1ce84a6038bae3ff6b0892c8b30bd85b", "type": "electric_scooter", "lon": -77.03967666666667, "rental_uris": {"android": "https://dc.lft.to/lastmile_qr_scan", "ios": "https://dc.lft.to/lastmile_qr_scan"}, "lat": 38.919813833333336, "is_reserved": 0, "is_disabled": 0, "fusion_lat": 0.0}, {"fusion_lon": 0.0, "bike_id": "e12e63ec11037342fad9381f225610f2", "name": "e12e63ec11037342fad9381f225610f2", "type": "electric_scooter", "lon": -77.0592115, "rental_uris": {"android": "https://dc.lft.to/lastmile_qr_scan", "ios": "https://dc.lft.to/lastmile_qr_scan"}, "lat": 38.9008315, "is_reserved": 0, "is_disabled": 0, "fusion_lat": 0.0}, {"fusion_lon": 0.0, "bike_id": "27d48268e021158241ea41abd0f0df03", "name": "27d48268e021158241ea41abd0f0df03", "type": "electric_scooter", "lon": -77.07381816666667, "rental_uris": {"android": "https://dc.lft.to/lastmile_qr_scan", "ios": "https://dc.lft.to/lastmile_qr_scan"}, "lat": 38.933550833333335, "is_reserved": 0, "is_disabled": 0, "fusion_lat": 0.0}, {"fusion_lon": 0.0, "bike_id": "29a777714f5d080f67d00e47521b1704", "name": "29a777714f5d080f67d00e47521b1704", "type": "electric_scooter", "lon": -77.01220083333334, "rental_uris": {"android": "https://dc.lft.to/lastmile_qr_scan", "ios": "https://dc.lft.to/lastmile_qr_scan"}, "lat": 38.9134875, "is_reserved": 0, "is_disabled": 0, "fusion_lat": 0.0}, {"fusion_lon": 0.0, "bike_id": "05ad118e84ca3849a020542b843d99d2", "name": "05ad118e84ca3849a020542b843d99d2", "type": "electric_scooter", "lon": -76.99611466666667, "rental_uris": {"android": "https://dc.lft.to/lastmile_qr_scan", "ios": "https://dc.lft.to/lastmile_qr_scan"}, "lat": 38.901249, "is_reserved": 0, "is_disabled": 0, "fusion_lat": 0.0}, {"fusion_lon": 0.0, "bike_id": "5c0c4366122a149867e460142d039827", "name": "5c0c4366122a149867e460142d039827", "type": "electric_scooter", "lon": -77.03641033333334, "rental_uris": {"android": "https://dc.lft.to/lastmile_qr_scan", "ios": "https://dc.lft.to/lastmile_qr_scan"}, "lat": 38.91843733333333, "is_reserved": 0, "is_disabled": 0, "fusion_lat": 0.0}, {"fusion_lon": 0.0, "bike_id": "23ceddaadd86d974b422412efd08bfdd", "name": "23ceddaadd86d974b422412efd08bfdd", "type": "electric_scooter", "lon": -77.02441633333333, "rental_uris": {"android": "https://dc.lft.to/lastmile_qr_scan", "ios": "https://dc.lft.to/lastmile_qr_scan"}, "lat": 38.935897833333335, "is_reserved": 0, "is_disabled": 0, "fusion_lat": 0.0}, {"fusion_lon": 0.0, "bike_id": "1e2f846ca4737f774b875c73ec1424e1", "name": "1e2f846ca4737f774b875c73ec1424e1", "type": "electric_scooter", "lon": -76.99694233333334, "rental_uris": {"android": "https://dc.lft.to/lastmile_qr_scan", "ios": "https://dc.lft.to/lastmile_qr_scan"}, "lat": 38.88424, "is_reserved": 0, "is_disabled": 0, "fusion_lat": 0.0}, {"fusion_lon": 0.0, "bike_id": "72b6220710d7bb586177bc9ac1a8759d", "name": "72b6220710d7bb586177bc9ac1a8759d", "type": "electric_scooter", "lon": -77.0488255, "rental_uris": {"android": "https://dc.lft.to/lastmile_qr_scan", "ios": "https://dc.lft.to/lastmile_qr_scan"}, "lat": 38.905859, "is_reserved": 0, "is_disabled": 0, "fusion_lat": 0.0}, {"fusion_lon": 0.0, "bike_id": "a6556efe4e632b45cd8f95ae9856ea92", "name": "a6556efe4e632b45cd8f95ae9856ea92", "type": "electric_scooter", "lon": -77.03650533333334, "rental_uris": {"android": "https://dc.lft.to/lastmile_qr_scan", "ios": "https://dc.lft.to/lastmile_qr_scan"}, "lat": 38.941808, "is_reserved": 0, "is_disabled": 0, "fusion_lat": 0.0}, {"fusion_lon": 0.0, "bike_id": "ff56a7d18c44c5d11a0466deb79b93f0", "name": "ff56a7d18c44c5d11a0466deb79b93f0", "type": "electric_scooter", "lon": -77.02073266666666, "rental_uris": {"android": "https://dc.lft.to/lastmile_qr_scan", "ios": "https://dc.lft.to/lastmile_qr_scan"}, "lat": 38.949025166666665, "is_reserved": 0, "is_disabled": 0, "fusion_lat": 0.0}, {"fusion_lon": 0.0, "bike_id": "fd0f1713d85c1ad47aa403a8b504bc46", "name": "fd0f1713d85c1ad47aa403a8b504bc46", "type": "electric_scooter", "lon": -76.99701916666666, "rental_uris": {"android": "https://dc.lft.to/lastmile_qr_scan", "ios": "https://dc.lft.to/lastmile_qr_scan"}, "lat": 38.83869266666667, "is_reserved": 0, "is_disabled": 0, "fusion_lat": 0.0}, {"fusion_lon": 0.0, "bike_id": "842a5ab929f7894e1c30df3728566719", "name": "842a5ab929f7894e1c30df3728566719", "type": "electric_scooter", "lon": -77.04389266666666, "rental_uris": {"android": "https://dc.lft.to/lastmile_qr_scan", "ios": "https://dc.lft.to/lastmile_qr_scan"}, "lat": 38.87427566666667, "is_reserved": 0, "is_disabled": 0, "fusion_lat": 0.0}, {"fusion_lon": 0.0, "bike_id": "3c51bbd4bb0b8951c03e0c4c24967be5", "name": "3c51bbd4bb0b8951c03e0c4c24967be5", "type": "electric_scooter", "lon": -76.97235133333334, "rental_uris": {"android": "https://dc.lft.to/lastmile_qr_scan", "ios": "https://dc.lft.to/lastmile_qr_scan"}, "lat": 38.85460416666667, "is_reserved": 0, "is_disabled": 0, "fusion_lat": 0.0}, {"fusion_lon": 0.0, "bike_id": "9d061820c2d4bb688e992e927e59a992", "name": "9d061820c2d4bb688e992e927e59a992", "type": "electric_scooter", "lon": -77.0465485, "rental_uris": {"android": "https://dc.lft.to/lastmile_qr_scan", "ios": "https://dc.lft.to/lastmile_qr_scan"}, "lat": 38.89300133333333, "is_reserved": 0, "is_disabled": 0, "fusion_lat": 0.0}, {"fusion_lon": 0.0, "bike_id": "742b823908f6ff048091ff5aab9ffb5c", "name": "742b823908f6ff048091ff5aab9ffb5c", "type": "electric_scooter", "lon": -77.00517383333333, "rental_uris": {"android": "https://dc.lft.to/lastmile_qr_scan", "ios": "https://dc.lft.to/lastmile_qr_scan"}, "lat": 38.87473216666667, "is_reserved": 0, "is_disabled": 0, "fusion_lat": 0.0}, {"fusion_lon": 0.0, "bike_id": "f7b5509e03f8c430efa43d1295add505", "name": "f7b5509e03f8c430efa43d1295add505", "type": "electric_bike", "lon": -77.0916195, "rental_uris": {"android": "https://dc.lft.to/lastmile_qr_scan", "ios": "https://dc.lft.to/lastmile_qr_scan"}, "lat": 38.96759866666667, "is_reserved": 0, "is_disabled": 0, "fusion_lat": 0.0}, {"fusion_lon": 0.0, "bike_id": "9d631534be686a6f04fc3d2948afe19d", "name": "9d631534be686a6f04fc3d2948afe19d", "type": "electric_scooter", "lon": -77.04651616666666, "rental_uris": {"android": "https://dc.lft.to/lastmile_qr_scan", "ios": "https://dc.lft.to/lastmile_qr_scan"}, "lat": 38.914841, "is_reserved": 0, "is_disabled": 0, "fusion_lat": 0.0}, {"fusion_lon": 0.0, "bike_id": "2da6a8830c17541a0f94075652cdbfe7", "name": "2da6a8830c17541a0f94075652cdbfe7", "type": "electric_scooter", "lon": -77.02401833333333, "rental_uris": {"android": "https://dc.lft.to/lastmile_qr_scan", "ios": "https://dc.lft.to/lastmile_qr_scan"}, "lat": 38.9196265, "is_reserved": 0, "is_disabled": 0, "fusion_lat": 0.0}, {"fusion_lon": 0.0, "bike_id": "b67503cf39cc1846afc57a5cba4de027", "name": "b67503cf39cc1846afc57a5cba4de027", "type": "electric_scooter", "lon": -77.03736116666667, "rental_uris": {"android": "https://dc.lft.to/lastmile_qr_scan", "ios": "https://dc.lft.to/lastmile_qr_scan"}, "lat": 38.9181485, "is_reserved": 0, "is_disabled": 0, "fusion_lat": 0.0}, {"fusion_lon": 0.0, "bike_id": "fd72661ca5f48aba6e4924b96cc1ce50", "name": "fd72661ca5f48aba6e4924b96cc1ce50", "type": "electric_bike", "lon": -76.97997033333333, "rental_uris": {"android": "https://dc.lft.to/lastmile_qr_scan", "ios": "https://dc.lft.to/lastmile_qr_scan"}, "lat": 38.877560333333335, "is_reserved": 0, "is_disabled": 0, "fusion_lat": 0.0}, {"fusion_lon": 0.0, "bike_id": "eef5b0658f71a104b21ac90ea5cf6bea", "name": "eef5b0658f71a104b21ac90ea5cf6bea", "type": "electric_scooter", "lon": -77.04211966666666, "rental_uris": {"android": "https://dc.lft.to/lastmile_qr_scan", "ios": "https://dc.lft.to/lastmile_qr_scan"}, "lat": 38.923233333333336, "is_reserved": 0, "is_disabled": 0, "fusion_lat": 0.0}, {"fusion_lon": 0.0, "bike_id": "90d0cc82a5442800848ab17ef750b435", "name": "90d0cc82a5442800848ab17ef750b435", "type": "electric_scooter", "lon": -76.99959716666666, "rental_uris": {"android": "https://dc.lft.to/lastmile_qr_scan", "ios": "https://dc.lft.to/lastmile_qr_scan"}, "lat": 38.89322683333333, "is_reserved": 0, "is_disabled": 0, "fusion_lat": 0.0}, {"fusion_lon": 0.0, "bike_id": "5a9c5a47bc3df2871c456865e4096ad7", "name": "5a9c5a47bc3df2871c456865e4096ad7", "type": "electric_scooter", "lon": -77.01693583333333, "rental_uris": {"android": "https://dc.lft.to/lastmile_qr_scan", "ios": "https://dc.lft.to/lastmile_qr_scan"}, "lat": 38.974961666666665, "is_reserved": 0, "is_disabled": 0, "fusion_lat": 0.0}, {"fusion_lon": 0.0, "bike_id": "f0a11ebf3b5b2e88f6eb2f34f3a50f67", "name": "f0a11ebf3b5b2e88f6eb2f34f3a50f67", "type": "electric_scooter", "lon": -76.98583383333333, "rental_uris": {"android": "https://dc.lft.to/lastmile_qr_scan", "ios": "https://dc.lft.to/lastmile_qr_scan"}, "lat": 38.88400133333333, "is_reserved": 0, "is_disabled": 0, "fusion_lat": 0.0}, {"fusion_lon": 0.0, "bike_id": "0c13286372555bca9ecac99bf4b14e54", "name": "0c13286372555bca9ecac99bf4b14e54", "type": "electric_scooter", "lon": -77.04174266666666, "rental_uris": {"android": "https://dc.lft.to/lastmile_qr_scan", "ios": "https://dc.lft.to/lastmile_qr_scan"}, "lat": 38.91553966666667, "is_reserved": 0, "is_disabled": 0, "fusion_lat": 0.0}, {"fusion_lon": 0.0, "bike_id": "fbba201fd2f00931657d8858f53f55e7", "name": "fbba201fd2f00931657d8858f53f55e7", "type": "electric_scooter", "lon": -77.03323283333333, "rental_uris": {"android": "https://dc.lft.to/lastmile_qr_scan", "ios": "https://dc.lft.to/lastmile_qr_scan"}, "lat": 38.900222666666664, "is_reserved": 0, "is_disabled": 0, "fusion_lat": 0.0}, {"fusion_lon": 0.0, "bike_id": "366d9667b0c11ad1aaed844dde169714", "name": "366d9667b0c11ad1aaed844dde169714", "type": "electric_scooter", "lon": -77.02171116666666, "rental_uris": {"android": "https://dc.lft.to/lastmile_qr_scan", "ios": "https://dc.lft.to/lastmile_qr_scan"}, "lat": 38.942953333333335, "is_reserved": 0, "is_disabled": 0, "fusion_lat": 0.0}, {"fusion_lon": 0.0, "bike_id": "06fa8f5bca9d54cbf827a4edce0a6911", "name": "06fa8f5bca9d54cbf827a4edce0a6911", "type": "electric_scooter", "lon": -77.0318015, "rental_uris": {"android": "https://dc.lft.to/lastmile_qr_scan", "ios": "https://dc.lft.to/lastmile_qr_scan"}, "lat": 38.913549333333336, "is_reserved": 0, "is_disabled": 0, "fusion_lat": 0.0}, {"fusion_lon": 0.0, "bike_id": "d7cbaa7c173c66894feec2af9b161ac0", "name": "d7cbaa7c173c66894feec2af9b161ac0", "type": "electric_scooter", "lon": -77.037899, "rental_uris": {"android": "https://dc.lft.to/lastmile_qr_scan", "ios": "https://dc.lft.to/lastmile_qr_scan"}, "lat": 38.92625983333333, "is_reserved": 0, "is_disabled": 0, "fusion_lat": 0.0}, {"fusion_lon": 0.0, "bike_id": "10821e69c173ce190d04d4d9dc498e55", "name": "10821e69c173ce190d04d4d9dc498e55", "type": "electric_scooter", "lon": -77.022219, "rental_uris": {"android": "https://dc.lft.to/lastmile_qr_scan", "ios": "https://dc.lft.to/lastmile_qr_scan"}, "lat": 38.89222316666667, "is_reserved": 0, "is_disabled": 0, "fusion_lat": 0.0}, {"fusion_lon": 0.0, "bike_id": "770f74487200b43cbd616191daed571b", "name": "770f74487200b43cbd616191daed571b", "type": "electric_scooter", "lon": -77.030553, "rental_uris": {"android": "https://dc.lft.to/lastmile_qr_scan", "ios": "https://dc.lft.to/lastmile_qr_scan"}, "lat": 38.93987383333333, "is_reserved": 0, "is_disabled": 0, "fusion_lat": 0.0}, {"fusion_lon": 0.0, "bike_id": "9e6077bf8e805d250229503a37dc8605", "name": "9e6077bf8e805d250229503a37dc8605", "type": "electric_scooter", "lon": -77.034479, "rental_uris": {"android": "https://dc.lft.to/lastmile_qr_scan", "ios": "https://dc.lft.to/lastmile_qr_scan"}, "lat": 38.90734666666667, "is_reserved": 0, "is_disabled": 0, "fusion_lat": 0.0}, {"fusion_lon": 0.0, "bike_id": "d18ced857cb62b1c988521593e7a386c", "name": "d18ced857cb62b1c988521593e7a386c", "type": "electric_scooter", "lon": -77.02540583333334, "rental_uris": {"android": "https://dc.lft.to/lastmile_qr_scan", "ios": "https://dc.lft.to/lastmile_qr_scan"}, "lat": 38.930961, "is_reserved": 0, "is_disabled": 0, "fusion_lat": 0.0}, {"fusion_lon": 0.0, "bike_id": "a3acccad93ef8129e9e5359f725c5805", "name": "a3acccad93ef8129e9e5359f725c5805", "type": "electric_scooter", "lon": -77.01405833333334, "rental_uris": {"android": "https://dc.lft.to/lastmile_qr_scan", "ios": "https://dc.lft.to/lastmile_qr_scan"}, "lat": 38.879083333333334, "is_reserved": 0, "is_disabled": 0, "fusion_lat": 0.0}, {"fusion_lon": 0.0, "bike_id": "5c54c9f02733e3e1c24d5f3e28c6008a", "name": "5c54c9f02733e3e1c24d5f3e28c6008a", "type": "electric_scooter", "lon": -77.022737, "rental_uris": {"android": "https://dc.lft.to/lastmile_qr_scan", "ios": "https://dc.lft.to/lastmile_qr_scan"}, "lat": 38.916526833333336, "is_reserved": 0, "is_disabled": 0, "fusion_lat": 0.0}, {"fusion_lon": 0.0, "bike_id": "706f5efb14d1c0b89b617403b05975d4", "name": "706f5efb14d1c0b89b617403b05975d4", "type": "electric_scooter", "lon": -77.03159333333333, "rental_uris": {"android": "https://dc.lft.to/lastmile_qr_scan", "ios": "https://dc.lft.to/lastmile_qr_scan"}, "lat": 38.92721866666667, "is_reserved": 0, "is_disabled": 0, "fusion_lat": 0.0}, {"fusion_lon": 0.0, "bike_id": "cfefc5c3ee2700d2fefb7f9bfcab2058", "name": "cfefc5c3ee2700d2fefb7f9bfcab2058", "type": "electric_scooter", "lon": -77.0359845, "rental_uris": {"android": "https://dc.lft.to/lastmile_qr_scan", "ios": "https://dc.lft.to/lastmile_qr_scan"}, "lat": 38.92854833333333, "is_reserved": 0, "is_disabled": 0, "fusion_lat": 0.0}, {"fusion_lon": 0.0, "bike_id": "1cca763d2ce7295de1f0b3a9970a8554", "name": "1cca763d2ce7295de1f0b3a9970a8554", "type": "electric_bike", "lon": -77.36092916666666, "rental_uris": {"android": "https://dc.lft.to/lastmile_qr_scan", "ios": "https://dc.lft.to/lastmile_qr_scan"}, "lat": 38.939604, "is_reserved": 0, "is_disabled": 0, "fusion_lat": 0.0}, {"fusion_lon": 0.0, "bike_id": "842e47123eb3eeec6fd12b378acd0f1a", "name": "842e47123eb3eeec6fd12b378acd0f1a", "type": "electric_scooter", "lon": -76.99642933333334, "rental_uris": {"android": "https://dc.lft.to/lastmile_qr_scan", "ios": "https://dc.lft.to/lastmile_qr_scan"}, "lat": 38.887232, "is_reserved": 0, "is_disabled": 0, "fusion_lat": 0.0}, {"fusion_lon": 0.0, "bike_id": "26f9f50ecf0e54efe3207ef3fdf291f4", "name": "26f9f50ecf0e54efe3207ef3fdf291f4", "type": "electric_bike", "lon": -76.98654666666667, "rental_uris": {"android": "https://dc.lft.to/lastmile_qr_scan", "ios": "https://dc.lft.to/lastmile_qr_scan"}, "lat": 38.939743, "is_reserved": 0, "is_disabled": 0, "fusion_lat": 0.0},