{"data": {"bikes": [{"is_reserved": 0, "type": "electric_scooter", "fusion_lat": 0.0, "is_disabled": 0, "rental_uris": {"ios": "https://dc.lft.to/lastmile_qr_scan", "android": "https://dc.lft.to/lastmile_qr_scan"}, "bike_id": "e551d530fb55797633640490da5b1f0d", "lat": 38.920674166666664, "name": "e551d530fb55797633640490da5b1f0d", "lon": -77.04191683333333, "fusion_lon": 0.0}, {"is_reserved": 0, "type": "electric_scooter", "fusion_lat": 0.0, "is_disabled": 0, "rental_uris": {"ios": "https://dc.lft.to/lastmile_qr_scan", "android": "https://dc.lft.to/lastmile_qr_scan"}, "bike_id": "3300b8a274804e3c13f815cf6f935061", "lat": 38.92197933333333, "name": "3300b8a274804e3c13f815cf6f935061", "lon": -77.0183455, "fusion_lon": 0.0}, {"is_reserved": 0, "type": "electric_scooter", "fusion_lat": 0.0, "is_disabled": 0, "rental_uris": {"ios": "https://dc.lft.to/lastmile_qr_scan", "android": "https://dc.lft.to/lastmile_qr_scan"}, "bike_id": "4644f2d5fa2cfa283dc127677615d8e1", "lat": 38.91689233333334, "name": "4644f2d5fa2cfa283dc127677615d8e1", "lon": -77.0280855, "fusion_lon": 0.0}, {"is_reserved": 0, "type": "electric_scooter", "fusion_lat": 0.0, "is_disabled": 0, "rental_uris": {"ios": "https://dc.lft.to/lastmile_qr_scan", "android": "https://dc.lft.to/lastmile_qr_scan"}, "bike_id": "a184867ebc17a5dec6b3bc2d1a49b99f", "lat": 38.91298716666667, "name": "a184867ebc17a5dec6b3bc2d1a49b99f", "lon": -77.04565683333334, "fusion_lon": 0.0}, {"is_reserved": 0, "type": "electric_scooter", "fusion_lat": 0.0, "is_disabled": 0, "rental_uris": {"ios": "https://dc.lft.to/lastmile_qr_scan", "android": "https://dc.lft.to/lastmile_qr_scan"}, "bike_id": "25ce2619ea87ac3d00269d0d8375fcae", "lat": 38.9038205, "name": "25ce2619ea87ac3d00269d0d8375fcae", "lon": -77.05071283333334, "fusion_lon": 0.0}, {"is_reserved": 0, "type": "electric_scooter", "fusion_lat": 0.0, "is_disabled": 0, "rental_uris": {"ios": "https://dc.lft.to/lastmile_qr_scan", "android": "https://dc.lft.to/lastmile_qr_scan"}, "bike_id": "d7bce6a0ce8342d56febf2bb2d48a7fb", "lat": 38.95106066666666, "name": "d7bce6a0ce8342d56febf2bb2d48a7fb", "lon": -77.02195216666667, "fusion_lon": 0.0}, {"is_reserved": 0, "type": "electric_scooter", "fusion_lat": 0.0, "is_disabled": 0, "rental_uris": {"ios": "https://dc.lft.to/lastmile_qr_scan", "android": "https://dc.lft.to/lastmile_qr_scan"}, "bike_id": "09cbb1ba767b565222e548b5fb3c1ca3", "lat": 38.91215483333333, "name": "09cbb1ba767b565222e548b5fb3c1ca3", "lon": -77.032003, "fusion_lon": 0.0}, {"is_reserved": 0, "type": "electric_scooter", "fusion_lat": 0.0, "is_disabled": 0, "rental_uris": {"ios": "https://dc.lft.to/lastmile_qr_scan", "android": "https://dc.lft.to/lastmile_qr_scan"}, "bike_id": "d79b69581401866f68d7fdcbd87172c0", "lat": 38.90019566666667, "name": "d79b69581401866f68d7fdcbd87172c0", "lon": -77.01216383333333, "fusion_lon": 0.0}, {"is_reserved": 0, "type": "electric_scooter", "fusion_lat": 0.0, "is_disabled": 0, "rental_uris": {"ios": "https://dc.lft.to/lastmile_qr_scan", "android": "https://dc.lft.to/lastmile_qr_scan"}, "bike_id": "445500a558ee7b5330070ab40ff02c26", "lat": 38.923316, "name": "445500a558ee7b5330070ab40ff02c26", "lon": -77.02805183333334, "fusion_lon": 0.0}, {"is_reserved": 0, "type": "electric_scooter", "fusion_lat": 0.0, "is_disabled": 0, "rental_uris": {"ios": "https://dc.lft.to/lastmile_qr_scan", "android": "https://dc.lft.to/lastmile_qr_scan"}, "bike_id": "6e01588ffb0f8dce4993fd877715de03", "lat": 38.939347833333336, "name": "6e01588ffb0f8dce4993fd877715de03", "lon": -77.02587933333334, "fusion_lon": 0.0}, {"is_reserved": 0, "type": "electric_bike", "fusion_lat": 0.0, "is_disabled": 0, "rental_uris": {"ios": "https://dc.lft.to/lastmile_qr_scan", "android": "https://dc.lft.to/lastmile_qr_scan"}, "bike_id": "7bfe330c8270cda9de59200aaafa9bd9", "lat": 38.971661833333336, "name": "7bfe330c8270cda9de59200aaafa9bd9", "lon": -76.98361616666666, "fusion_lon": 0.0}, {"is_reserved": 0, "type": "electric_scooter", "fusion_lat": 0.0, "is_disabled": 0, "rental_uris": {"ios": "https://dc.lft.to/lastmile_qr_scan", "android": "https://dc.lft.to/lastmile_qr_scan"}, "bike_id": "cf54ce2ba0b58f2360698ba2e5b77239", "lat": 38.912676, "name": "cf54ce2ba0b58f2360698ba2e5b77239", "lon": -77.0455215, "fusion_lon": 0.0}, {"is_reserved": 0, "type": "electric_scooter", "fusion_lat": 0.0, "is_disabled": 0, "rental_uris": {"ios": "https://dc.lft.to/lastmile_qr_scan", "android": "https://dc.lft.to/lastmile_qr_scan"}, "bike_id": "b2c7e46bea47b9f12b595144e28bfea6", "lat": 38.91629483333333, "name": "b2c7e46bea47b9f12b595144e28bfea6", "lon": -77.00503433333333, "fusion_lon": 0.0}, {"is_reserved": 0, "type": "electric_scooter", "fusion_lat": 0.0, "is_disabled": 0, "rental_uris": {"ios": "https://dc.lft.to/lastmile_qr_scan", "android": "https://dc.lft.to/lastmile_qr_scan"}, "bike_id": "38fc1f403b84bd8089da014306f0bc55", "lat": 38.9184845, "name": "38fc1f403b84bd8089da014306f0bc55", "lon": -77.02326366666667, "fusion_lon": 0.0}, {"is_reserved": 0, "type": "electric_scooter", "fusion_lat": 0.0, "is_disabled": 0, "rental_uris": {"ios": "https://dc.lft.to/lastmile_qr_scan", "android": "https://dc.lft.to/lastmile_qr_scan"}, "bike_id": "8779c8457957a45ed0c91ca09b3c29d9", "lat": 38.91524, "name": "8779c8457957a45ed0c91ca09b3c29d9", "lon": -77.02180183333333, "fusion_lon": 0.0}, {"is_reserved": 0, "type": "electric_scooter", "fusion_lat": 0.0, "is_disabled": 0, "rental_uris": {"ios": "https://dc.lft.to/lastmile_qr_scan", "android": "https://dc.lft.to/lastmile_qr_scan"}, "bike_id": "d86395e8ca713495cef880da81a59e4e", "lat": 38.90345466666667, "name": "d86395e8ca713495cef880da81a59e4e", "lon": -76.9749225, "fusion_lon": 0.0}, {"is_reserved": 0, "type": "electric_scooter", "fusion_lat": 0.0, "is_disabled": 0, "rental_uris": {"ios": "https://dc.lft.to/lastmile_qr_scan", "android": "https://dc.lft.to/lastmile_qr_scan"}, "bike_id": "d7e18c9066f699f32fcd1dd0e71948ef", "lat": 38.9276635, "name": "d7e18c9066f699f32fcd1dd0e71948ef", "lon": -77.02787666666667, "fusion_lon": 0.0}, {"is_reserved": 0, "type": "electric_bike", "fusion_lat": 0.0, "is_disabled": 0, "rental_uris": {"ios": "https://dc.lft.to/lastmile_qr_scan", "android": "https://dc.lft.to/lastmile_qr_scan"}, "bike_id": "8711d43b70da02ab77a5e14028b27c38", "lat": 38.92661483333333, "name": "8711d43b70da02ab77a5e14028b27c38", "lon": -77.09024116666667, "fusion_lon": 0.0}, {"is_reserved": 0, "type": "electric_scooter", "fusion_lat": 0.0, "is_disabled": 0, "rental_uris": {"ios": "https://dc.lft.to/lastmile_qr_scan", "android": "https://dc.lft.to/lastmile_qr_scan"}, "bike_id": "33ef08dc2fe68c23ec2d6ee46f2ef423", "lat": 38.899062, "name": "33ef08dc2fe68c23ec2d6ee46f2ef423", "lon": -77.00384116666666, "fusion_lon": 0.0}, {"is_reserved": 0, "type": "electric_scooter", "fusion_lat": 0.0, "is_disabled": 0, "rental_uris": {"ios": "https://dc.lft.to/lastmile_qr_scan", "android": "https://dc.lft.to/lastmile_qr_scan"}, "bike_id": "d11f3eb905e2924d43cda004b703d869", "lat": 38.89842983333333, "name": "d11f3eb905e2924d43cda004b703d869", "lon": -77.0467545, "fusion_lon": 0.0}, {"is_reserved": 0, "type": "electric_scooter", "fusion_lat": 0.0, "is_disabled": 0, "rental_uris": {"ios": "https://dc.lft.to/lastmile_qr_scan", "android": "https://dc.lft.to/lastmile_qr_scan"}, "bike_id": "e83be4934a68d0c0ca64fde0ddb1f3d6", "lat": 38.900489, "name": "e83be4934a68d0c0ca64fde0ddb1f3d6", "lon": -77.0171495, "fusion_lon": 0.0}, {"is_reserved": 0, "type": "electric_scooter", "fusion_lat": 0.0, "is_disabled": 0, "rental_uris": {"ios": "https://dc.lft.to/lastmile_qr_scan", "android": "https://dc.lft.to/lastmile_qr_scan"}, "bike_id": "3d62d381428e133ec057e5c6b341e93e", "lat": 38.92480183333333, "name": "3d62d381428e133ec057e5c6b341e93e", "lon": -77.02217633333333, "fusion_lon": 0.0}, {"is_reserved": 0, "type": "electric_scooter", "fusion_lat": 0.0, "is_disabled": 0, "rental_uris": {"ios": "https://dc.lft.to/lastmile_qr_scan", "android": "https://dc.lft.to/lastmile_qr_scan"}, "bike_id": "5f1c1c942b172ae9037e5602334f997e", "lat": 38.8996225, "name": "5f1c1c942b172ae9037e5602334f997e", "lon": -76.926321, "fusion_lon": 0.0}, {"is_reserved": 0, "type": "electric_bike", "fusion_lat": 0.0, "is_disabled": 0, "rental_uris": {"ios": "https://dc.lft.to/lastmile_qr_scan", "android": "https://dc.lft.to/lastmile_qr_scan"}, "bike_id": "7a0bb2d388d15c509e0ad8b780966367", "lat": 39.025178333333336, "name": "7a0bb2d388d15c509e0ad8b780966367", "lon": -77.01966616666667, "fusion_lon": 0.0}, {"is_reserved": 0, "type": "electric_scooter", "fusion_lat": 0.0, "is_disabled": 0, "rental_uris": {"ios": "https://dc.lft.to/lastmile_qr_scan", "android": "https://dc.lft.to/lastmile_qr_scan"}, "bike_id": "08803ae0b4deee3f25fab2c26ef5f984", "lat": 38.8928265, "name": "08803ae0b4deee3f25fab2c26ef5f984", "lon": -77.019912, "fusion_lon": 0.0}, {"is_reserved": 0, "type": "electric_scooter", "fusion_lat": 0.0, "is_disabled": 0, "rental_uris": {"ios": "https://dc.lft.to/lastmile_qr_scan", "android": "https://dc.lft.to/lastmile_qr_scan"}, "bike_id": "1e369502cbb100b0bb4a56ab30705f5b", "lat": 38.864998666666665, "name": "1e369502cbb100b0bb4a56ab30705f5b", "lon": -76.9773065, "fusion_lon": 0.0}, {"is_reserved": 0, "type": "electric_bike", "fusion_lat": 0.0, "is_disabled": 0, "rental_uris": {"ios": "https://dc.lft.to/lastmile_qr_scan", "android": "https://dc.lft.to/lastmile_qr_scan"}, "bike_id": "1d354239137eb8458bfacecca6f798fd", "lat": 39.084747, "name": "1d354239137eb8458bfacecca6f798fd", "lon": -76.95070183333333, "fusion_lon": 0.0}, {"is_reserved": 0, "type": "electric_scooter", "fusion_lat": 0.0, "is_disabled": 0, "rental_uris": {"ios": "https://dc.lft.to/lastmile_qr_scan", "android": "https://dc.lft.to/lastmile_qr_scan"}, "bike_id": "2733dd44c3ff50b12bc9710b64a181a6", "lat": 38.936304, "name": "2733dd44c3ff50b12bc9710b64a181a6", "lon": -77.032907, "fusion_lon": 0.0}, {"is_reserved": 0, "type": "electric_scooter", "fusion_lat": 0.0, "is_disabled": 0, "rental_uris": {"ios": "https://dc.lft.to/lastmile_qr_scan", "android": "https://dc.lft.to/lastmile_qr_scan"}, "bike_id": "9b8d165bac5190b53d0eca0efb001967", "lat": 38.878858666666666, "name": "9b8d165bac5190b53d0eca0efb001967", "lon": -77.00052333333333, "fusion_lon": 0.0}, {"is_reserved": 0, "type": "electric_scooter", "fusion_lat": 0.0, "is_disabled": 0, "rental_uris": {"ios": "https://dc.lft.to/lastmile_qr_scan", "android": "https://dc.lft.to/lastmile_qr_scan"}, "bike_id": "22e8e9e75b836877be60751f5e511383", "lat": 38.91560916666667, "name": "22e8e9e75b836877be60751f5e511383", "lon": -77.0209625, "fusion_lon": 0.0}, {"is_reserved": 0, "type": "electric_scooter", "fusion_lat": 0.0, "is_disabled": 0, "rental_uris": {"ios": "https://dc.lft.to/lastmile_qr_scan", "android": "https://dc.lft.to/lastmile_qr_scan"}, "bike_id": "d508c81c5417b8c460861fab029dac24", "lat": 38.92063383333333, "name": "d508c81c5417b8c460861fab029dac24", "lon": -77.04229233333334, "fusion_lon": 0.0}, {"is_reserved": 0, "type": "electric_scooter", "fusion_lat": 0.0, "is_disabled": 0, "rental_uris": {"ios": "https://dc.lft.to/lastmile_qr_scan", "android": "https://dc.lft.to/lastmile_qr_scan"}, "bike_id": "2a821f476ebc7e274462d4cc80a2f151", "lat": 38.94080433333333, "name": "2a821f476ebc7e274462d4cc80a2f151", "lon": -77.02723383333333, "fusion_lon": 0.0}, {"is_reserved": 0, "type": "electric_scooter", "fusion_lat": 0.0, "is_disabled": 0, "rental_uris": {"ios": "https://dc.lft.to/lastmile_qr_scan", "android": "https://dc.lft.to/lastmile_qr_scan"}, "bike_id": "4354404aacc1da162f639ae94516ef77", "lat": 38.917043666666665, "name": "4354404aacc1da162f639ae94516ef77", "lon": -77.09202616666667, "fusion_lon": 0.0}, {"is_reserved": 0, "type": "electric_scooter", "fusion_lat": 0.0, "is_disabled": 0, "rental_uris": {"ios": "https://dc.lft.to/lastmile_qr_scan", "android": "https://dc.lft.to/lastmile_qr_scan"}, "bike_id": "cdf14afde4c87f24ecd296fb16d13429", "lat": 38.8988425, "name": "cdf14afde4c87f24ecd296fb16d13429", "lon": -77.0488575, "fusion_lon": 0.0}, {"is_reserved": 0, "type": "electric_scooter", "fusion_lat": 0.0, "is_disabled": 0, "rental_uris": {"ios": "https://dc.lft.to/lastmile_qr_scan", "android": "https://dc.lft.to/lastmile_qr_scan"}, "bike_id": "8804cd6909b2b68feccb5766cbd77a3f", "lat": 38.88578433333333, "name": "8804cd6909b2b68feccb5766cbd77a3f", "lon": -77.0004095, "fusion_lon": 0.0}, {"is_reserved": 0, "type": "electric_scooter", "fusion_lat": 0.0, "is_disabled": 0, "rental_uris": {"ios": "https://dc.lft.to/lastmile_qr_scan", "android": "https://dc.lft.to/lastmile_qr_scan"}, "bike_id": "da3cd6a737047551a0d8b3b9f48c6173", "lat": 38.91060783333333, "name": "da3cd6a737047551a0d8b3b9f48c6173", "lon": -77.02656516666667, "fusion_lon": 0.0}, {"is_reserved": 0, "type": "electric_scooter", "fusion_lat": 0.0, "is_disabled": 0, "rental_uris": {"ios": "https://dc.lft.to/lastmile_qr_scan", "android": "https://dc.lft.to/lastmile_qr_scan"}, "bike_id": "eccbbfc1cc5d5cbc0da348a855869a32", "lat": 38.930679833333336, "name": "eccbbfc1cc5d5cbc0da348a855869a32", "lon": -77.0298155, "fusion_lon": 0.0}, {"is_reserved": 0, "type": "electric_scooter", "fusion_lat": 0.0, "is_disabled": 0, "rental_uris": {"ios": "https://dc.lft.to/lastmile_qr_scan", "android": "https://dc.lft.to/lastmile_qr_scan"}, "bike_id": "07f0d7ddf48476b7c3aa3eca9c74a170", "lat": 38.894879333333336, "name": "07f0d7ddf48476b7c3aa3eca9c74a170", "lon": -77.05505916666667, "fusion_lon": 0.0}, {"is_reserved": 0, "type": "electric_scooter", "fusion_lat": 0.0, "is_disabled": 0, "rental_uris": {"ios": "https://dc.lft.to/lastmile_qr_scan", "android": "https://dc.lft.to/lastmile_qr_scan"}, "bike_id": "0794ff312aedffc9d283fa4c012ae00a", "lat": 38.908727166666665, "name": "0794ff312aedffc9d283fa4c012ae00a", "lon": -77.02353683333334, "fusion_lon": 0.0}, {"is_reserved": 0, "type": "electric_bike", "fusion_lat": 0.0, "is_disabled": 0, "rental_uris": {"ios": "https://dc.lft.to/lastmile_qr_scan", "android": "https://dc.lft.to/lastmile_qr_scan"}, "bike_id": "1558762e804f309ac18a5ce6010541b4", "lat": 38.945168, "name": "1558762e804f309ac18a5ce6010541b4", "lon": -76.96807616666666, "fusion_lon": 0.0}, {"is_reserved": 0, "type": "electric_scooter", "fusion_lat": 0.0, "is_disabled": 0, "rental_uris": {"ios": "https://dc.lft.to/lastmile_qr_scan", "android": "https://dc.lft.to/lastmile_qr_scan"}, "bike_id": "053e0dda087e6f98937367472e7c4423", "lat": 38.91389383333333, "name": "053e0dda087e6f98937367472e7c4423", "lon": -77.02957916666666, "fusion_lon": 0.0}, {"is_reserved": 0, "type": "electric_scooter", "fusion_lat": 0.0, "is_disabled": 0, "rental_uris": {"ios": "https://dc.lft.to/lastmile_qr_scan", "android": "https://dc.lft.to/lastmile_qr_scan"}, "bike_id": "2b08a71ce29b38030c099440956892f8", "lat": 38.924745, "name": "2b08a71ce29b38030c099440956892f8", "lon": -77.02218316666666, "fusion_lon": 0.0}, {"is_reserved": 0, "type": "electric_scooter", "fusion_lat": 0.0, "is_disabled": 0, "rental_uris": {"ios": "https://dc.lft.to/lastmile_qr_scan", "android": "https://dc.lft.to/lastmile_qr_scan"}, "bike_id": "8f8eb3bb9cfa76c8b8cb5e91f04ec45f", "lat": 38.908180333333334, "name": "8f8eb3bb9cfa76c8b8cb5e91f04ec45f", "lon": -77.08426816666666, "fusion_lon": 0.0}, {"is_reserved": 0, "type": "electric_scooter", "fusion_lat": 0.0, "is_disabled": 0, "rental_uris": {"ios": "https://dc.lft.to/lastmile_qr_scan", "android": "https://dc.lft.to/lastmile_qr_scan"}, "bike_id": "bf932999132b6975bd4535e277e44922", "lat": 38.9351465, "name": "bf932999132b6975bd4535e277e44922", "lon": -77.03673033333334, "fusion_lon": 0.0}, {"is_reserved": 0, "type": "electric_scooter", "fusion_lat": 0.0, "is_disabled": 0, "rental_uris": {"ios": "https://dc.lft.to/lastmile_qr_scan", "android": "https://dc.lft.to/lastmile_qr_scan"}, "bike_id": "6cdba9886148d0840f9f1bfc784c6c31", "lat": 38.915584, "name": "6cdba9886148d0840f9f1bfc784c6c31", "lon": -77.0326275, "fusion_lon": 0.0}, {"is_reserved": 0, "type": "electric_scooter", "fusion_lat": 0.0, "is_disabled": 0, "rental_uris": {"ios": "https://dc.lft.to/lastmile_qr_scan", "android": "https://dc.lft.to/lastmile_qr_scan"}, "bike_id": "d81dd9885a9b4bcc06f340002576d0c5", "lat": 38.915585, "name": "d81dd9885a9b4bcc06f340002576d0c5", "lon": -76.98502183333333, "fusion_lon": 0.0}, {"is_reserved": 0, "type": "electric_scooter", "fusion_lat": 0.0, "is_disabled": 0, "rental_uris": {"ios": "https://dc.lft.to/lastmile_qr_scan", "android": "https://dc.lft.to/lastmile_qr_scan"}, "bike_id": "11c1a10ef293df025860baef46cd799e", "lat": 38.920556, "name": "11c1a10ef293df025860baef46cd799e", "lon": -77.02300416666667, "fusion_lon": 0.0}, {"is_reserved": 0, "type": "electric_bike", "fusion_lat": 0.0, "is_disabled": 0, "rental_uris": {"ios": "https://dc.lft.to/lastmile_qr_scan", "android": "https://dc.lft.to/lastmile_qr_scan"}, "bike_id": "db91562b658088537548d6d6239c67f0", "lat": 38.846250833333336, "name": "db91562b658088537548d6d6239c67f0", "lon": -76.97838016666667, "fusion_lon": 0.0}, {"is_reserved": 0, "type": "electric_scooter", "fusion_lat": 0.0, "is_disabled": 0, "rental_uris": {"ios": "https://dc.lft.to/lastmile_qr_scan", "android": "https://dc.lft.to/lastmile_qr_scan"}, "bike_id": "9845e7a5418f884b074cba9981d17ef6", "lat": 38.91925966666667, "name": "9845e7a5418f884b074cba9981d17ef6", "lon": -77.03039266666667, "fusion_lon": 0.0}, {"is_reserved": 0, "type": "electric_scooter", "fusion_lat": 0.0, "is_disabled": 0, "rental_uris": {"ios": "https://dc.lft.to/lastmile_qr_scan", "android": "https://dc.lft.to/lastmile_qr_scan"}, "bike_id": "8693b42bdb68f1d6297e05dc24866ff5", "lat": 38.887157333333334, "name": "8693b42bdb68f1d6297e05dc24866ff5", "lon": -76.983401, "fusion_lon": 0.0}, {"is_reserved": 0, "type": "electric_scooter", "fusion_lat": 0.0, "is_disabled": 0, "rental_uris": {"ios": "https://dc.lft.to/lastmile_qr_scan", "android": "https://dc.lft.to/lastmile_qr_scan"}, "bike_id": "fb2e1d9a10ca1ef50d5b12dabe19fcf1", "lat": 38.885800833333334, "name": "fb2e1d9a10ca1ef50d5b12dabe19fcf1", "lon": -77.01216933333333, "fusion_lon": 0.0}, {"is_reserved": 0, "type": "electric_scooter", "fusion_lat": 0.0, "is_disabled": 0, "rental_uris": {"ios": "https://dc.lft.to/lastmile_qr_scan", "android": "https://dc.lft.to/lastmile_qr_scan"}, "bike_id": "bb88d9ee6131d41be19b5787bb156d75", "lat": 38.90999516666667, "name": "bb88d9ee6131d41be19b5787bb156d75", "lon": -77.02196916666666, "fusion_lon": 0.0}, {"is_reserved": 0, "type": "electric_scooter", "fusion_lat": 0.0, "is_disabled": 0, "rental_uris": {"ios": "https://dc.lft.to/lastmile_qr_scan", "android": "https://dc.lft.to/lastmile_qr_scan"}, "bike_id": "ceb84de0ce6753a6c7b2b45676f28e3f", "lat": 38.9088875, "name": "ceb84de0ce6753a6c7b2b45676f28e3f", "lon": -77.03443583333333, "fusion_lon": 0.0}, {"is_reserved": 0, "type": "electric_scooter", "fusion_lat": 0.0, "is_disabled": 0, "rental_uris": {"ios": "https://dc.lft.to/lastmile_qr_scan", "android": "https://dc.lft.to/lastmile_qr_scan"}, "bike_id": "61aa43b83bd5329061706e3ef3110874", "lat": 38.90510733333333, "name": "61aa43b83bd5329061706e3ef3110874", "lon": -76.99186933333333, "fusion_lon": 0.0}, {"is_reserved": 0, "type": "electric_scooter", "fusion_lat": 0.0, "is_disabled": 0, "rental_uris": {"ios": "https://dc.lft.to/lastmile_qr_scan", "android": "https://dc.lft.to/lastmile_qr_scan"}, "bike_id": "56eecf5b231d4f657bf22fad3f07b161", "lat": 38.92613166666667, "name": "56eecf5b231d4f657bf22fad3f07b161", "lon": -77.02498883333334, "fusion_lon": 0.0}, {"is_reserved": 0, "type": "electric_scooter", "fusion_lat": 0.0, "is_disabled": 0, "rental_uris": {"ios": "https://dc.lft.to/lastmile_qr_scan", "android": "https://dc.lft.to/lastmile_qr_scan"}, "bike_id": "9adaada271ba0a4a43cdec168680faca", "lat": 38.903968666666664, "name": "9adaada271ba0a4a43cdec168680faca", "lon": -77.04067016666667, "fusion_lon": 0.0}, {"is_reserved": 0, "type": "electric_scooter", "fusion_lat": 0.0, "is_disabled": 0, "rental_uris": {"ios": "https://dc.lft.to/lastmile_qr_scan", "android": "https://dc.lft.to/lastmile_qr_scan"}, "bike_id": "1f8d9f9b4b3a6dd8e31144834d617f10", "lat": 38.9196025, "name": "1f8d9f9b4b3a6dd8e31144834d617f10", "lon": -77.02408066666666, "fusion_lon": 0.0}, {"is_reserved": 0, "type": "electric_scooter", "fusion_lat": 0.0, "is_disabled": 0, "rental_uris": {"ios": "https://dc.lft.to/lastmile_qr_scan", "android": "https://dc.lft.to/lastmile_qr_scan"}, "bike_id": "7eea4932c3264335cc0e079da065f97a", "lat": 38.944956, "name": "7eea4932c3264335cc0e079da065f97a", "lon": -77.0073695, "fusion_lon": 0.0}, {"is_reserved": 0, "type": "electric_scooter", "fusion_lat": 0.0, "is_disabled": 0, "rental_uris": {"ios": "https://dc.lft.to/lastmile_qr_scan", "android": "https://dc.lft.to/lastmile_qr_scan"}, "bike_id": "0269f7f3e275c52effe715636c01cfa8", "lat": 38.9181795, "name": "0269f7f3e275c52effe715636c01cfa8", "lon": -77.029472, "fusion_lon": 0.0}, {"is_reserved": 0, "type": "electric_scooter", "fusion_lat": 0.0, "is_disabled": 0, "rental_uris": {"ios": "https://dc.lft.to/lastmile_qr_scan", "android": "https://dc.lft.to/lastmile_qr_scan"}, "bike_id": "eac4631fa36da8d31eaf496c5acb46b6", "lat": 38.90389233333333, "name": "eac4631fa36da8d31eaf496c5acb46b6", "lon": -77.03798183333333, "fusion_lon": 0.0}, {"is_reserved": 0, "type": "electric_scooter", "fusion_lat": 0.0, "is_disabled": 0, "rental_uris": {"ios": "https://dc.lft.to/lastmile_qr_scan", "android": "https://dc.lft.to/lastmile_qr_scan"}, "bike_id": "51604aec5f77ddf2a81e9a9ec11ff38c", "lat": 38.901804, "name": "51604aec5f77ddf2a81e9a9ec11ff38c", "lon": -76.92950316666666, "fusion_lon": 0.0}, {"is_reserved": 0, "type": "electric_scooter", "fusion_lat": 0.0, "is_disabled": 0, "rental_uris": {"ios": "https://dc.lft.to/lastmile_qr_scan", "android": "https://dc.lft.to/lastmile_qr_scan"}, "bike_id": "584e33504cea6fcc9f428f6b9b349527", "lat": 38.901155, "name": "584e33504cea6fcc9f428f6b9b349527", "lon": -77.03443616666667, "fusion_lon": 0.0}, {"is_reserved": 0, "type": "electric_scooter", "fusion_lat": 0.0, "is_disabled": 0, "rental_uris": {"ios": "https://dc.lft.to/lastmile_qr_scan", "android": "https://dc.lft.to/lastmile_qr_scan"}, "bike_id": "7a216c5fb3fac96e430182c76fd93d17", "lat": 38.933283833333334, "name": "7a216c5fb3fac96e430182c76fd93d17", "lon": -77.02401366666666, "fusion_lon": 0.0}, {"is_reserved": 0, "type": "electric_scooter", "fusion_lat": 0.0, "is_disabled": 0, "rental_uris": {"ios": "https://dc.lft.to/lastmile_qr_scan", "android": "https://dc.lft.to/lastmile_qr_scan"}, "bike_id": "7b0109e534d662fda725bab788687e39", "lat": 38.9126695, "name": "7b0109e534d662fda725bab788687e39", "lon": -77.0143755, "fusion_lon": 0.0}, {"is_reserved": 0, "type": "electric_scooter", "fusion_lat": 0.0, "is_disabled": 0, "rental_uris": {"ios": "https://dc.lft.to/lastmile_qr_scan", "android": "https://dc.lft.to/lastmile_qr_scan"}, "bike_id": "4288274f460773895b738ed220b77304", "lat": 38.90948516666667, "name": "4288274f460773895b738ed220b77304", "lon": -77.034484, "fusion_lon": 0.0}, {"is_reserved": 0, "type": "electric_scooter", "fusion_lat": 0.0, "is_disabled": 0, "rental_uris": {"ios": "https://dc.lft.to/lastmile_qr_scan", "android": "https://dc.lft.to/lastmile_qr_scan"}, "bike_id": "f17d40f0fde51c418a5b286ecd01d8c9", "lat": 38.919517666666664, "name": "f17d40f0fde51c418a5b286ecd01d8c9", "lon": -77.02307516666667, "fusion_lon": 0.0}, {"is_reserved": 0, "type": "electric_scooter", "fusion_lat": 0.0, "is_disabled": 0, "rental_uris": {"ios": "https://dc.lft.to/lastmile_qr_scan", "android": "https://dc.lft.to/lastmile_qr_scan"}, "bike_id": "cc0e16ce995af152eb2abdac72709721", "lat": 38.917722833333336, "name": "cc0e16ce995af152eb2abdac72709721", "lon": -77.047488, "fusion_lon": 0.0}, {"is_reserved": 0, "type": "electric_scooter", "fusion_lat": 0.0, "is_disabled": 0, "rental_uris": {"ios": "https://dc.lft.to/lastmile_qr_scan", "android": "https://dc.lft.to/lastmile_qr_scan"}, "bike_id": "15c5e52c348e46f22da8d7b7c77937a4", "lat": 38.95154016666667, "name": "15c5e52c348e46f22da8d7b7c77937a4", "lon": -77.01863266666666, "fusion_lon": 0.0}, {"is_reserved": 0, "type": "electric_scooter", "fusion_lat": 0.0, "is_disabled": 0, "rental_uris": {"ios": "https://dc.lft.to/lastmile_qr_scan", "android": "https://dc.lft.to/lastmile_qr_scan"}, "bike_id": "14252b8ec8dcd75fe45a2aca8e0689f8", "lat": 38.90367216666667, "name": "14252b8ec8dcd75fe45a2aca8e0689f8", "lon": -77.0098735, "fusion_lon": 0.0}, {"is_reserved": 0, "type": "electric_scooter", "fusion_lat": 0.0, "is_disabled": 0, "rental_uris": {"ios": "https://dc.lft.to/lastmile_qr_scan", "android": "https://dc.lft.to/lastmile_qr_scan"}, "bike_id": "c0ef6a47c374ed30f2c97e96030f4e59", "lat": 38.917223166666666, "name": "c0ef6a47c374ed30f2c97e96030f4e59", "lon": -77.03459766666667, "fusion_lon": 0.0}, {"is_reserved": 0, "type": "electric_scooter", "fusion_lat": 0.0, "is_disabled": 0, "rental_uris": {"ios": "https://dc.lft.to/lastmile_qr_scan", "android": "https://dc.lft.to/lastmile_qr_scan"}, "bike_id": "a67901b832b8ef5256a226e251a339f2", "lat": 38.90579566666667, "name": "a67901b832b8ef5256a226e251a339f2", "lon": -77.02988183333333, "fusion_lon": 0.0}, {"is_reserved": 0, "type": "electric_bike", "fusion_lat": 0.0, "is_disabled": 0, "rental_uris": {"ios": "https://dc.lft.to/lastmile_qr_scan", "android": "https://dc.lft.to/lastmile_qr_scan"}, "bike_id": "64e5770b92847a5366b459aed82be941", "lat": 38.86832716666667, "name": "64e5770b92847a5366b459aed82be941", "lon": -76.98019, "fusion_lon": 0.0}, {"is_reserved": 0, "type": "electric_scooter", "fusion_lat": 0.0, "is_disabled": 0, "rental_uris": {"ios": "https://dc.lft.to/lastmile_qr_scan", "android": "https://dc.lft.to/lastmile_qr_scan"}, "bike_id": "a9c8ec3682e184111aeabc0232c31016", "lat": 38.922861833333336, "name": "a9c8ec3682e184111aeabc0232c31016", "lon": -77.073403, "fusion_lon": 0.0}, {"is_reserved": 0, "type": "electric_scooter", "fusion_lat": 0.0, "is_disabled": 0, "rental_uris": {"ios": "https://dc.lft.to/lastmile_qr_scan", "android": "https://dc.lft.to/lastmile_qr_scan"}, "bike_id": "0e2700cff73b8552bd848b9fc542cba0", "lat": 38.90272066666667, "name": "0e2700cff73b8552bd848b9fc542cba0", "lon": -77.01994566666667, "fusion_lon": 0.0}, {"is_reserved": 0, "type": "electric_scooter", "fusion_lat": 0.0, "is_disabled": 0, "rental_uris": {"ios": "https://dc.lft.to/lastmile_qr_scan", "android": "https://dc.lft.to/lastmile_qr_scan"}, "bike_id": "012886eb1755d628521d4fb74921feac", "lat": 38.90598216666667, "name": "012886eb1755d628521d4fb74921feac", "lon": -77.041089, "fusion_lon": 0.0}, {"is_reserved": 0, "type": "electric_scooter", "fusion_lat": 0.0, "is_disabled": 0, "rental_uris": {"ios": "https://dc.lft.to/lastmile_qr_scan", "android": "https://dc.lft.to/lastmile_qr_scan"}, "bike_id": "9b77cfb7c1e5100f429640e91f0a1e6e", "lat": 38.90476316666667, "name": "9b77cfb7c1e5100f429640e91f0a1e6e", "lon": -77.0271625, "fusion_lon": 0.0}, {"is_reserved": 0, "type": "electric_scooter", "fusion_lat": 0.0, "is_disabled": 0, "rental_uris": {"ios": "https://dc.lft.to/lastmile_qr_scan", "android": "https://dc.lft.to/lastmile_qr_scan"}, "bike_id": "f91c8522c562b5200d1c2704efd56145", "lat": 38.92876866666667, "name": "f91c8522c562b5200d1c2704efd56145", "lon": -77.03996266666667, "fusion_lon": 0.0}, {"is_reserved": 0, "type": "electric_scooter", "fusion_lat": 0.0, "is_disabled": 0, "rental_uris": {"ios": "https://dc.lft.to/lastmile_qr_scan", "android": "https://dc.lft.to/lastmile_qr_scan"}, "bike_id": "faf90cab0bfbfb6a1a0c021be248e867", "lat": 38.913693, "name": "faf90cab0bfbfb6a1a0c021be248e867", "lon": -77.04491633333333, "fusion_lon": 0.0}, {"is_reserved": 0, "type": "electric_scooter", "fusion_lat": 0.0, "is_disabled": 0, "rental_uris": {"ios": "https://dc.lft.to/lastmile_qr_scan", "android": "https://dc.lft.to/lastmile_qr_scan"}, "bike_id": "3bb7214b437cb5638070264249496091", "lat": 38.893084333333334, "name": "3bb7214b437cb5638070264249496091", "lon": -77.01986883333333, "fusion_lon": 0.0}, {"is_reserved": 0, "type": "electric_scooter", "fusion_lat": 0.0, "is_disabled": 0, "rental_uris": {"ios": "https://dc.lft.to/lastmile_qr_scan", "android": "https://dc.lft.to/lastmile_qr_scan"}, "bike_id": "fb3f3bd4e376f50aebb03b1310cb0600", "lat": 38.9445005, "name": "fb3f3bd4e376f50aebb03b1310cb0600", "lon": -77.03282716666666, "fusion_lon": 0.0}, {"is_reserved": 0, "type": "electric_bike", "fusion_lat": 0.0, "is_disabled": 0, "rental_uris": {"ios": "https://dc.lft.to/lastmile_qr_scan", "android": "https://dc.lft.to/lastmile_qr_scan"}, "bike_id": "a1572235dd856706ea7abc45f65dd5bd", "lat": 38.96781583333333, "name": "a1572235dd856706ea7abc45f65dd5bd", "lon": -76.99648133333334, "fusion_lon": 0.0}, {"is_reserved": 0, "type": "electric_scooter", "fusion_lat": 0.0, "is_disabled": 0, "rental_uris": {"ios": "https://dc.lft.to/lastmile_qr_scan", "android": "https://dc.lft.to/lastmile_qr_scan"}, "bike_id": "01157a17e481fd0242f292827b4a30f8", "lat": 38.877542, "name": "01157a17e481fd0242f292827b4a30f8", "lon": -77.01866283333334, "fusion_lon": 0.0}, {"is_reserved": 0, "type": "electric_scooter", "fusion_lat": 0.0, "is_disabled": 0, "rental_uris": {"ios": "https://dc.lft.to/lastmile_qr_scan", "android": "https://dc.lft.to/lastmile_qr_scan"}, "bike_id": "9692e838fcb42764f35cbfca88987f12", "lat": 38.917091, "name": "9692e838fcb42764f35cbfca88987f12", "lon": -77.0386335, "fusion_lon": 0.0}, {"is_reserved": 0, "type": "electric_scooter", "fusion_lat": 0.0, "is_disabled": 0, "rental_uris": {"ios": "https://dc.lft.to/lastmile_qr_scan", "android": "https://dc.lft.to/lastmile_qr_scan"}, "bike_id": "8cee99a7ce7762214f2be505ac015ebb", "lat": 38.879321833333336, "name": "8cee99a7ce7762214f2be505ac015ebb", "lon": -77.0133485, "fusion_lon": 0.0}, {"is_reserved": 0, "type": "electric_bike", "fusion_lat": 0.0, "is_disabled": 0, "rental_uris": {"ios": "https://dc.lft.to/lastmile_qr_scan", "android": "https://dc.lft.to/lastmile_qr_scan"}, "bike_id": "b79a0a0089e9a37dfa411957785d92bd", "lat": 38.91881216666667, "name": "b79a0a0089e9a37dfa411957785d92bd", "lon": -77.0415575, "fusion_lon": 0.0}, {"is_reserved": 0, "type": "electric_bike", "fusion_lat": 0.0, "is_disabled": 0, "rental_uris": {"ios": "https://dc.lft.to/lastmile_qr_scan", "android": "https://dc.lft.to/lastmile_qr_scan"}, "bike_id": "a01aa2c4e042f672ac358d53919224d8", "lat": 38.90384383333333, "name": "a01aa2c4e042f672ac358d53919224d8", "lon": -76.93761516666666, "fusion_lon": 0.0}, {"is_reserved": 0, "type": "electric_scooter", "fusion_lat": 0.0, "is_disabled": 0, "rental_uris": {"ios": "https://dc.lft.to/lastmile_qr_scan", "android": "https://dc.lft.to/lastmile_qr_scan"}, "bike_id": "602ce25ac70c62d926272aade608d621", "lat": 38.900197, "name": "602ce25ac70c62d926272aade608d621", "lon": -77.011821, "fusion_lon": 0.0}, {"is_reserved": 0, "type": "electric_scooter", "fusion_lat": 0.0, "is_disabled": 0, "rental_uris": {"ios": "https://dc.lft.to/lastmile_qr_scan", "android": "https://dc.lft.to/lastmile_qr_scan"}, "bike_id": "b33579e257237f818a68379d84bb7893", "lat": 38.9157675, "name": "b33579e257237f818a68379d84bb7893", "lon": -77.02009083333333, "fusion_lon": 0.0}, {"is_reserved": 0, "type": "electric_scooter", "fusion_lat": 0.0, "is_disabled": 0, "rental_uris": {"ios": "https://dc.lft.to/lastmile_qr_scan", "android": "https://dc.lft.to/lastmile_qr_scan"}, "bike_id": "51265aec8eaa475e85c74818e8446960", "lat": 38.966900833333334, "name": "51265aec8eaa475e85c74818e8446960", "lon": -77.03406983333333, "fusion_lon": 0.0}, {"is_reserved": 0, "type": "electric_scooter", "fusion_lat": 0.0, "is_disabled": 0, "rental_uris": {"ios": "https://dc.lft.to/lastmile_qr_scan", "android": "https://dc.lft.to/lastmile_qr_scan"}, "bike_id": "39f9419ac0a99389a81774f87d93c0e0", "lat": 38.9237285, "name": "39f9419ac0a99389a81774f87d93c0e0", "lon": -77.07282566666666, "fusion_lon": 0.0}, {"is_reserved": 0, "type": "electric_scooter", "fusion_lat": 0.0, "is_disabled": 0, "rental_uris": {"ios": "https://dc.lft.to/lastmile_qr_scan", "android": "https://dc.lft.to/lastmile_qr_scan"}, "bike_id": "12498928b05fd1cc1e9a45ae5c37287d", "lat": 38.887030333333335, "name": "12498928b05fd1cc1e9a45ae5c37287d", "lon": -77.00067733333333, "fusion_lon": 0.0}, {"is_reserved": 0, "type": "electric_scooter", "fusion_lat": 0.0, "is_disabled": 0, "rental_uris": {"ios": "https://dc.lft.to/lastmile_qr_scan", "android": "https://dc.lft.to/lastmile_qr_scan"}, "bike_id": "8abd0d82cb7b2536c0e027b9df19098a", "lat": 38.91551283333333, "name": "8abd0d82cb7b2536c0e027b9df19098a", "lon": -77.03253633333334, "fusion_lon": 0.0}, {"is_reserved": 0, "type": "electric_scooter", "fusion_lat": 0.0, "is_disabled": 0, "rental_uris": {"ios": "https://dc.lft.to/lastmile_qr_scan", "android": "https://dc.lft.to/lastmile_qr_scan"}, "bike_id": "df62b059d56857ba233a352756cf2dc1", "lat": 38.9241925, "name": "df62b059d56857ba233a352756cf2dc1", "lon": -77.02008783333333, "fusion_lon": 0.0}, {"is_reserved": 0, "type": "electric_scooter", "fusion_lat": 0.0, "is_disabled": 0, "rental_uris": {"ios": "https://dc.lft.to/lastmile_qr_scan", "android": "https://dc.lft.to/lastmile_qr_scan"}, "bike_id": "2ea4670d54da95bee6b9081c5a068330", "lat": 38.924655333333334, "name": "2ea4670d54da95bee6b9081c5a068330", "lon": -77.02268266666667, "fusion_lon": 0.0}, {"is_reserved": 0, "type": "electric_scooter", "fusion_lat": 0.0, "is_disabled": 0, "rental_uris": {"ios": "https://dc.lft.to/lastmile_qr_scan", "android": "https://dc.lft.to/lastmile_qr_scan"}, "bike_id": "6aae72eb83fcf9df6c6813773affb441", "lat": 38.92056983333333, "name": "6aae72eb83fcf9df6c6813773affb441", "lon": -77.04175116666667, "fusion_lon": 0.0}, {"is_reserved": 0, "type": "electric_scooter", "fusion_lat": 0.0, "is_disabled": 0, "rental_uris": {"ios": "https://dc.lft.to/lastmile_qr_scan", "android": "https://dc.lft.to/lastmile_qr_scan"}, "bike_id": "78f533204a467748862ce133e374f15d", "lat": 38.94116783333333, "name": "78f533204a467748862ce133e374f15d", "lon": -77.02546016666666, "fusion_lon": 0.0}, {"is_reserved": 0, "type": "electric_scooter", "fusion_lat": 0.0, "is_disabled": 0, "rental_uris": {"ios": "https://dc.lft.to/lastmile_qr_scan", "android": "https://dc.lft.to/lastmile_qr_scan"}, "bike_id": "37fa897d827ed704df5ff423779aebf5", "lat": 38.89242616666667, "name": "37fa897d827ed704df5ff423779aebf5", "lon": -77.02612933333333, "fusion_lon": 0.0}, {"is_reserved": 0, "type": "electric_scooter", "fusion_lat": 0.0, "is_disabled": 0, "rental_uris": {"ios": "https://dc.lft.to/lastmile_qr_scan", "android": "https://dc.lft.to/lastmile_qr_scan"}, "bike_id": "f41598577268d133acf03c367872c831", "lat": 38.9024515, "name": "f41598577268d133acf03c367872c831", "lon": -77.03972866666666, "fusion_lon": 0.0}, {"is_reserved": 0, "type": "electric_scooter", "fusion_lat": 0.0, "is_disabled": 0, "rental_uris": {"ios": "https://dc.lft.to/lastmile_qr_scan", "android": "https://dc.lft.to/lastmile_qr_scan"}, "bike_id": "3b3aaf2a0fbc46132643934ff131e698", "lat": 38.913570166666666, "name": "3b3aaf2a0fbc46132643934ff131e698", "lon": -76.97140933333333, "fusion_lon": 0.0}, {"is_reserved": 0, "type": "electric_scooter", "fusion_lat": 0.0, "is_disabled": 0, "rental_uris": {"ios": "https://dc.lft.to/lastmile_qr_scan", "android": "https://dc.lft.to/lastmile_qr_scan"}, "bike_id": "1639f0be5847455694c0018260c6c0a4", "lat": 38.90003166666666, "name": "1639f0be5847455694c0018260c6c0a4", "lon": -77.006905, "fusion_lon": 0.0}, {"is_reserved": 0, "type": "electric_scooter", "fusion_lat": 0.0, "is_disabled": 0, "rental_uris": {"ios": "https://dc.lft.to/lastmile_qr_scan", "android": "https://dc.lft.to/lastmile_qr_scan"}, "bike_id": "e8ee5d658433e196b325e681d332da2f", "lat": 38.934102833333334, "name": "e8ee5d658433e196b325e681d332da2f", "lon": -77.04551666666667, "fusion_lon": 0.0}, {"is_reserved": 0, "type": "electric_bike", "fusion_lat": 0.0, "is_disabled": 0, "rental_uris": {"ios": "https://dc.lft.to/lastmile_qr_scan", "android": "https://dc.lft.to/lastmile_qr_scan"}, "bike_id": "4ca0f967d31b46e8a3262d30e4562c34", "lat": 38.91037033333333, "name": "4ca0f967d31b46e8a3262d30e4562c34", "lon": -76.92338, "fusion_lon": 0.0}, {"is_reserved": 0, "type": "electric_scooter", "fusion_lat": 0.0, "is_disabled": 0, "rental_uris": {"ios": "https://dc.lft.to/lastmile_qr_scan", "android": "https://dc.lft.to/lastmile_qr_scan"}, "bike_id": "16bc5f979f9244666f8159fc4655c193", "lat": 38.88454266666667, "name": "16bc5f979f9244666f8159fc4655c193", "lon": -77.02898833333333, "fusion_lon": 0.0}, {"is_reserved": 0, "type": "electric_scooter", "fusion_lat": 0.0, "is_disabled": 0, "rental_uris": {"ios": "https://dc.lft.to/lastmile_qr_scan", "android": "https://dc.lft.to/lastmile_qr_scan"}, "bike_id": "363d9b554ff198596e90a07170b7f019", "lat": 38.919632166666666, "name": "363d9b554ff198596e90a07170b7f019", "lon": -77.024016, "fusion_lon": 0.0}, {"is_reserved": 0, "type": "electric_scooter", "fusion_lat": 0.0, "is_disabled": 0, "rental_uris": {"ios": "https://dc.lft.to/lastmile_qr_scan", "android": "https://dc.lft.to/lastmile_qr_scan"}, "bike_id": "6e106db8054aebf518d5c444978e4b96", "lat": 38.930101666666665, "name": "6e106db8054aebf518d5c444978e4b96", "lon": -77.0377885, "fusion_lon": 0.0}, {"is_reserved": 0, "type": "electric_scooter", "fusion_lat": 0.0, "is_disabled": 0, "rental_uris": {"ios": "https://dc.lft.to/lastmile_qr_scan", "android": "https://dc.lft.to/lastmile_qr_scan"}, "bike_id": "32997cc4094b757219dbe7697ea977b6", "lat": 38.92159016666667, "name": "32997cc4094b757219dbe7697ea977b6", "lon": -77.0434905, "fusion_lon": 0.0}, {"is_reserved": 0, "type": "electric_scooter", "fusion_lat": 0.0, "is_disabled": 0, "rental_uris": {"ios": "https://dc.lft.to/lastmile_qr_scan", "android": "https://dc.lft.to/lastmile_qr_scan"}, "bike_id": "07e71d478e4bff6fc2a0a70cfdb53603", "lat": 38.919579, "name": "07e71d478e4bff6fc2a0a70cfdb53603", "lon": -77.041476, "fusion_lon": 0.0}, {"is_reserved": 0, "type": "electric_scooter", "fusion_lat": 0.0, "is_disabled": 0, "rental_uris": {"ios": "https://dc.lft.to/lastmile_qr_scan", "android": "https://dc.lft.to/lastmile_qr_scan"}, "bike_id": "341375127dd8dee3ef65f33866dc6d28", "lat": 38.938438166666664, "name": "341375127dd8dee3ef65f33866dc6d28", "lon": -77.019529, "fusion_lon": 0.0}, {"is_reserved": 0, "type": "electric_scooter", "fusion_lat": 0.0, "is_disabled": 0, "rental_uris": {"ios": "https://dc.lft.to/lastmile_qr_scan", "android": "https://dc.lft.to/lastmile_qr_scan"}, "bike_id": "ff4ba08cd347e54e52c273989bc18866", "lat": 38.897326, "name": "ff4ba08cd347e54e52c273989bc18866", "lon": -77.019094, "fusion_lon": 0.0}, {"is_reserved": 0, "type": "electric_scooter", "fusion_lat": 0.0, "is_disabled": 0, "rental_uris": {"ios": "https://dc.lft.to/lastmile_qr_scan", "android": "https://dc.lft.to/lastmile_qr_scan"}, "bike_id": "52707a34d75c364178e202faaf65dc28", "lat": 38.902650666666666, "name": "52707a34d75c364178e202faaf65dc28", "lon": -77.019741, "fusion_lon": 0.0}, {"is_reserved": 0, "type": "electric_scooter", "fusion_lat": 0.0, "is_disabled": 0, "rental_uris": {"ios": "https://dc.lft.to/lastmile_qr_scan", "android": "https://dc.lft.to/lastmile_qr_scan"}, "bike_id": "4b020510dca6d87dd4c422073aae4738", "lat": 38.899642, "name": "4b020510dca6d87dd4c422073aae4738", "lon": -77.019962, "fusion_lon": 0.0}, {"is_reserved": 0, "type": "electric_scooter", "fusion_lat": 0.0, "is_disabled": 0, "rental_uris": {"ios": "https://dc.lft.to/lastmile_qr_scan", "android": "https://dc.lft.to/lastmile_qr_scan"}, "bike_id": "6d049aad8a3305a650ffcbd971d75701", "lat": 38.89669083333333, "name": "6d049aad8a3305a650ffcbd971d75701", "lon": -76.932145, "fusion_lon": 0.0}, {"is_reserved": 0, "type": "electric_bike", "fusion_lat": 0.0, "is_disabled": 0, "rental_uris": {"ios": "https://dc.lft.to/lastmile_qr_scan", "android": "https://dc.lft.to/lastmile_qr_scan"}, "bike_id": "994219f43970556903ed20cf3dae8363", "lat": 38.8601255, "name": "994219f43970556903ed20cf3dae8363", "lon": -77.06525683333334, "fusion_lon": 0.0}, {"is_reserved": 0, "type": "electric_scooter", "fusion_lat": 0.0, "is_disabled": 0, "rental_uris": {"ios": "https://dc.lft.to/lastmile_qr_scan", "android": "https://dc.lft.to/lastmile_qr_scan"}, "bike_id": "859683735e0f44a337b0408f3b545233", "lat": 38.90512966666667, "name": "859683735e0f44a337b0408f3b545233", "lon": -76.95198216666667, "fusion_lon": 0.0}, {"is_reserved": 0, "type": "electric_scooter", "fusion_lat": 0.0, "is_disabled": 0, "rental_uris": {"ios": "https://dc.lft.to/lastmile_qr_scan", "android": "https://dc.lft.to/lastmile_qr_scan"}, "bike_id": "1c79403772713f832b9344188a37d9f6", "lat": 38.87208, "name": "1c79403772713f832b9344188a37d9f6", "lon": -76.9783535, "fusion_lon": 0.0}, {"is_reserved": 0, "type": "electric_scooter", "fusion_lat": 0.0, "is_disabled": 0, "rental_uris": {"ios": "https://dc.lft.to/lastmile_qr_scan", "android": "https://dc.lft.to/lastmile_qr_scan"}, "bike_id": "1c7b741488f8c5f47ce33d8b89e1f523", "lat": 38.91947416666667, "name": "1c7b741488f8c5f47ce33d8b89e1f523", "lon": -77.0139165, "fusion_lon": 0.0}, {"is_reserved": 0, "type": "electric_scooter", "fusion_lat": 0.0, "is_disabled": 0, "rental_uris": {"ios": "https://dc.lft.to/lastmile_qr_scan", "android": "https://dc.lft.to/lastmile_qr_scan"}, "bike_id": "c5fc473630c77978bda08ab10d25acd4", "lat": 38.8830655, "name": "c5fc473630c77978bda08ab10d25acd4", "lon": -76.99371416666666, "fusion_lon": 0.0}, {"is_reserved": 0, "type": "electric_scooter", "fusion_lat": 0.0, "is_disabled": 0, "rental_uris": {"ios": "https://dc.lft.to/lastmile_qr_scan", "android": "https://dc.lft.to/lastmile_qr_scan"}, "bike_id": "64ba49eb6803c1be0d198250e0a3e74a", "lat": 38.90711983333333, "name": "64ba49eb6803c1be0d198250e0a3e74a", "lon": -77.02383033333334, "fusion_lon": 0.0}, {"is_reserved": 0, "type": "electric_scooter", "fusion_lat": 0.0, "is_disabled": 0, "rental_uris": {"ios": "https://dc.lft.to/lastmile_qr_scan", "android": "https://dc.lft.to/lastmile_qr_scan"}, "bike_id": "159d8e3c7d4cfe7ac98e943ab00e8ce0", "lat": 38.88355833333333, "name": "159d8e3c7d4cfe7ac98e943ab00e8ce0", "lon": -76.95768466666667, "fusion_lon": 0.0}, {"is_reserved": 0, "type": "electric_scooter", "fusion_lat": 0.0, "is_disabled": 0, "rental_uris": {"ios": "https://dc.lft.to/lastmile_qr_scan", "android": "https://dc.lft.to/lastmile_qr_scan"}, "bike_id": "bcc88cd0d0c5544035ee2a34f05027d0", "lat": 38.898356, "name": "bcc88cd0d0c5544035ee2a34f05027d0", "lon": -77.05005866666667, "fusion_lon": 0.0}, {"is_reserved": 0, "type": "electric_scooter", "fusion_lat": 0.0, "is_disabled": 0, "rental_uris": {"ios": "https://dc.lft.to/lastmile_qr_scan", "android": "https://dc.lft.to/lastmile_qr_scan"}, "bike_id": "e3aece6853619e2fd3b08fe0f9dafa41", "lat": 38.88363866666667, "name": "e3aece6853619e2fd3b08fe0f9dafa41", "lon": -76.92790116666667, "fusion_lon": 0.0}, {"is_reserved": 0, "type": "electric_scooter", "fusion_lat": 0.0, "is_disabled": 0, "rental_uris": {"ios": "https://dc.lft.to/lastmile_qr_scan", "android": "https://dc.lft.to/lastmile_qr_scan"}, "bike_id": "58fd1ad0d4b1ded958cb20489728b9dd", "lat": 38.90194116666667, "name": "58fd1ad0d4b1ded958cb20489728b9dd", "lon": -76.93466133333334, "fusion_lon": 0.0}, {"is_reserved": 0, "type": "electric_scooter", "fusion_lat": 0.0, "is_disabled": 0, "rental_uris": {"ios": "https://dc.lft.to/lastmile_qr_scan", "android": "https://dc.lft.to/lastmile_qr_scan"}, "bike_id": "85b003edff9ca23599170820cdaa500c", "lat": 38.916302, "name": "85b003edff9ca23599170820cdaa500c", "lon": -77.03859783333333, "fusion_lon": 0.0}, {"is_reserved": 0, "type": "electric_bike", "fusion_lat": 0.0, "is_disabled": 0, "rental_uris": {"ios": "https://dc.lft.to/lastmile_qr_scan", "android": "https://dc.lft.to/lastmile_qr_scan"}, "bike_id": "9f7cad09bf891099c8b9864bb7b5165b", "lat": 38.947398166666666, "name": "9f7cad09bf891099c8b9864bb7b5165b", "lon": -76.995838, "fusion_lon": 0.0}, {"is_reserved": 0, "type": "electric_scooter", "fusion_lat": 0.0, "is_disabled": 0, "rental_uris": {"ios": "https://dc.lft.to/lastmile_qr_scan", "android": "https://dc.lft.to/lastmile_qr_scan"}, "bike_id": "f52489e6ee05dcfb50c81fecfd1fe552", "lat": 38.93188766666667, "name": "f52489e6ee05dcfb50c81fecfd1fe552", "lon": -77.01963916666666, "fusion_lon": 0.0}, {"is_reserved": 0, "type": "electric_scooter", "fusion_lat": 0.0, "is_disabled": 0, "rental_uris": {"ios": "https://dc.lft.to/lastmile_qr_scan", "android": "https://dc.lft.to/lastmile_qr_scan"}, "bike_id": "f8954f7afb028d8b944ebf16b03d84e5", "lat": 38.91654033333333, "name": "f8954f7afb028d8b944ebf16b03d84e5", "lon": -77.021788, "fusion_lon": 0.0}, {"is_reserved": 0, "type": "electric_bike", "fusion_lat": 0.0, "is_disabled": 0, "rental_uris": {"ios": "https://dc.lft.to/lastmile_qr_scan", "android": "https://dc.lft.to/lastmile_qr_scan"}, "bike_id": "1eb55dba9a0322e83ea500301cdadec9", "lat": 38.99504566666667, "name": "1eb55dba9a0322e83ea500301cdadec9", "lon": -77.00136283333333, "fusion_lon": 0.0}, {"is_reserved": 0, "type": "electric_scooter", "fusion_lat": 0.0, "is_disabled": 0, "rental_uris": {"ios": "https://dc.lft.to/lastmile_qr_scan", "android": "https://dc.lft.to/lastmile_qr_scan"}, "bike_id": "11ae883ef0c02ad211b263509e886cb3", "lat": 38.931038, "name": "11ae883ef0c02ad211b263509e886cb3", "lon": -77.02666283333333, "fusion_lon": 0.0}, {"is_reserved": 0, "type": "electric_scooter", "fusion_lat": 0.0, "is_disabled": 0, "rental_uris": {"ios": "https://dc.lft.to/lastmile_qr_scan", "android": "https://dc.lft.to/lastmile_qr_scan"}, "bike_id": "b118cb21ea078f8384122deb6882c680", "lat": 38.93790933333333, "name": "b118cb21ea078f8384122deb6882c680", "lon": -77.03264716666666, "fusion_lon": 0.0}, {"is_reserved": 0, "type": "electric_scooter", "fusion_lat": 0.0, "is_disabled": 0, "rental_uris": {"ios": "https://dc.lft.to/lastmile_qr_scan", "android": "https://dc.lft.to/lastmile_qr_scan"}, "bike_id": "184d40bc2146398390204398ef62de45", "lat": 38.90069833333333, "name": "184d40bc2146398390204398ef62de45", "lon": -77.01332166666667, "fusion_lon": 0.0}, {"is_reserved": 0, "type": "electric_scooter", "fusion_lat": 0.0, "is_disabled": 0, "rental_uris": {"ios": "https://dc.lft.to/lastmile_qr_scan", "android": "https://dc.lft.to/lastmile_qr_scan"}, "bike_id": "2ac93462e4144c0463662f1578ddbda6", "lat": 38.929058833333336, "name": "2ac93462e4144c0463662f1578ddbda6", "lon": -77.02349466666666, "fusion_lon": 0.0}, {"is_reserved": 0, "type": "electric_bike", "fusion_lat": 0.0, "is_disabled": 0, "rental_uris": {"ios": "https://dc.lft.to/lastmile_qr_scan", "android": "https://dc.lft.to/lastmile_qr_scan"}, "bike_id": "eaaae1a9c51b70c4982b4af73b7d01c9", "lat": 38.86565866666667, "name": "eaaae1a9c51b70c4982b4af73b7d01c9", "lon": -76.9748165, "fusion_lon": 0.0}, {"is_reserved": 0, "type": "electric_scooter", "fusion_lat": 0.0, "is_disabled": 0, "rental_uris": {"ios": "https://dc.lft.to/lastmile_qr_scan", "android": "https://dc.lft.to/lastmile_qr_scan"}, "bike_id": "8279022a5c023fcc0483e9c4a02cb3fc", "lat": 38.9116175, "name": "8279022a5c023fcc0483e9c4a02cb3fc", "lon": -77.04485333333334, "fusion_lon": 0.0}, {"is_reserved": 0, "type": "electric_bike", "fusion_lat": 0.0, "is_disabled": 0, "rental_uris": {"ios": "https://dc.lft.to/lastmile_qr_scan", "android": "https://dc.lft.to/lastmile_qr_scan"}, "bike_id": "f5c155a7dda2ef20d37604054003404c", "lat": 38.824303, "name": "f5c155a7dda2ef20d37604054003404c", "lon": -77.12038783333334, "fusion_lon": 0.0}, {"is_reserved": 0, "type": "electric_scooter", "fusion_lat": 0.0, "is_disabled": 0, "rental_uris": {"ios": "https://dc.lft.to/lastmile_qr_scan", "android": "https://dc.lft.to/lastmile_qr_scan"}, "bike_id": "c47d164890ba3cbef6829b75663ca149", "lat": 38.91111316666667, "name": "c47d164890ba3cbef6829b75663ca149", "lon": -77.022087, "fusion_lon": 0.0}, {"is_reserved": 0, "type": "electric_scooter", "fusion_lat": 0.0, "is_disabled": 0, "rental_uris": {"ios": "https://dc.lft.to/lastmile_qr_scan", "android": "https://dc.lft.to/lastmile_qr_scan"}, "bike_id": "a58bf8307472ff8703d8c2d5f369c4a1", "lat": 38.90033533333333, "name": "a58bf8307472ff8703d8c2d5f369c4a1", "lon": -77.00380333333334, "fusion_lon": 0.0}, {"is_reserved": 0, "type": "electric_scooter", "fusion_lat": 0.0, "is_disabled": 0, "rental_uris": {"ios": "https://dc.lft.to/lastmile_qr_scan", "android": "https://dc.lft.to/lastmile_qr_scan"}, "bike_id": "eafca6c58fa799bfd34d29d009241e70", "lat": 38.916000833333335, "name": "eafca6c58fa799bfd34d29d009241e70", "lon": -77.01212316666667, "fusion_lon": 0.0}, {"is_reserved": 0, "type": "electric_scooter", "fusion_lat": 0.0, "is_disabled": 0, "rental_uris": {"ios": "https://dc.lft.to/lastmile_qr_scan", "android": "https://dc.lft.to/lastmile_qr_scan"}, "bike_id": "bd7d5d5644443b9ec8d41a3e92674674", "lat": 38.88584016666667, "name": "bd7d5d5644443b9ec8d41a3e92674674", "lon": -77.01227366666667, "fusion_lon": 0.0}, {"is_reserved": 0, "type": "electric_scooter", "fusion_lat": 0.0, "is_disabled": 0, "rental_uris": {"ios": "https://dc.lft.to/lastmile_qr_scan", "android": "https://dc.lft.to/lastmile_qr_scan"}, "bike_id": "f975a3497ed084bb10aadc52abfd5294", "lat": 38.9218125, "name": "f975a3497ed084bb10aadc52abfd5294", "lon": -77.0400295, "fusion_lon": 0.0}, {"is_reserved": 0, "type": "electric_scooter", "fusion_lat": 0.0, "is_disabled": 0, "rental_uris": {"ios": "https://dc.lft.to/lastmile_qr_scan", "android": "https://dc.lft.to/lastmile_qr_scan"}, "bike_id": "7578a27d518e93064547af7c4f5f473f", "lat": 38.9046245, "name": "7578a27d518e93064547af7c4f5f473f", "lon": -77.0356105, "fusion_lon": 0.0}, {"is_reserved": 0, "type": "electric_scooter", "fusion_lat": 0.0, "is_disabled": 0, "rental_uris": {"ios": "https://dc.lft.to/lastmile_qr_scan", "android": "https://dc.lft.to/lastmile_qr_scan"}, "bike_id": "c27748123c56a0e2885cff86cf70f968", "lat": 38.918198833333335, "name": "c27748123c56a0e2885cff86cf70f968", "lon": -77.02709266666666, "fusion_lon": 0.0}, {"is_reserved": 0, "type": "electric_scooter", "fusion_lat": 0.0, "is_disabled": 0, "rental_uris": {"ios": "https://dc.lft.to/lastmile_qr_scan", "android": "https://dc.lft.to/lastmile_qr_scan"}, "bike_id": "2cd27375aba8c24d29a13d95523c73bf", "lat": 38.93606066666667, "name": "2cd27375aba8c24d29a13d95523c73bf", "lon": -77.05584333333333, "fusion_lon": 0.0}, {"is_reserved": 0, "type": "electric_scooter", "fusion_lat": 0.0, "is_disabled": 0, "rental_uris": {"ios": "https://dc.lft.to/lastmile_qr_scan", "android": "https://dc.lft.to/lastmile_qr_scan"}, "bike_id": "ee45b3a91671f43407c3f2b778cad87c", "lat": 38.90543066666667, "name": "ee45b3a91671f43407c3f2b778cad87c", "lon": -77.03139066666667, "fusion_lon": 0.0}, {"is_reserved": 0, "type": "electric_scooter", "fusion_lat": 0.0, "is_disabled": 0, "rental_uris": {"ios": "https://dc.lft.to/lastmile_qr_scan", "android": "https://dc.lft.to/lastmile_qr_scan"}, "bike_id": "67bd963adcd1d74ec101ef0a7735deb4", "lat": 38.9235655, "name": "67bd963adcd1d74ec101ef0a7735deb4", "lon": -77.0730915, "fusion_lon": 0.0}, {"is_reserved": 0, "type": "electric_scooter", "fusion_lat": 0.0, "is_disabled": 0, "rental_uris": {"ios": "https://dc.lft.to/lastmile_qr_scan", "android": "https://dc.lft.to/lastmile_qr_scan"}, "bike_id": "7585eb53380a2da34af690b2d45b80a0", "lat": 38.90119633333333, "name": "7585eb53380a2da34af690b2d45b80a0", "lon": -77.034452, "fusion_lon": 0.0}, {"is_reserved": 0, "type": "electric_scooter", "fusion_lat": 0.0, "is_disabled": 0, "rental_uris": {"ios": "https://dc.lft.to/lastmile_qr_scan", "android": "https://dc.lft.to/lastmile_qr_scan"}, "bike_id": "f23ed3abed8611d644b877a0cc9b7dc4", "lat": 38.91592933333333, "name": "f23ed3abed8611d644b877a0cc9b7dc4", "lon": -77.03208533333333, "fusion_lon": 0.0}, {"is_reserved": 0, "type": "electric_scooter", "fusion_lat": 0.0, "is_disabled": 0, "rental_uris": {"ios": "https://dc.lft.to/lastmile_qr_scan", "android": "https://dc.lft.to/lastmile_qr_scan"}, "bike_id": "0966a2a73ffd9b1fe25754de336df812", "lat": 38.90240683333333, "name": "0966a2a73ffd9b1fe25754de336df812", "lon": -77.01887983333333, "fusion_lon": 0.0}, {"is_reserved": 0, "type": "electric_bike", "fusion_lat": 0.0, "is_disabled": 0, "rental_uris": {"ios": "https://dc.lft.to/lastmile_qr_scan", "android": "https://dc.lft.to/lastmile_qr_scan"}, "bike_id": "29877ac9cc1174172089f12b0c870b38", "lat": 38.982819666666664, "name": "29877ac9cc1174172089f12b0c870b38", "lon": -76.97642916666666, "fusion_lon": 0.0}, {"is_reserved": 0, "type": "electric_scooter", "fusion_lat": 0.0, "is_disabled": 0, "rental_uris": {"ios": "https://dc.lft.to/lastmile_qr_scan", "android": "https://dc.lft.to/lastmile_qr_scan"}, "bike_id": "62e273ab1d2558dbbc7c23daf8d16e28", "lat": 38.89686966666667, "name": "62e273ab1d2558dbbc7c23daf8d16e28", "lon": -77.02766566666666, "fusion_lon": 0.0}, {"is_reserved": 0, "type": "electric_bike", "fusion_lat": 0.0, "is_disabled": 0, "rental_uris": {"ios": "https://dc.lft.to/lastmile_qr_scan", "android": "https://dc.lft.to/lastmile_qr_scan"}, "bike_id": "c193efc8f15037a3212c8dc37176c24a", "lat": 38.87738133333333, "name": "c193efc8f15037a3212c8dc37176c24a", "lon": -77.11849316666667, "fusion_lon": 0.0}, {"is_reserved": 0, "type": "electric_scooter", "fusion_lat": 0.0, "is_disabled": 0, "rental_uris": {"ios": "https://dc.lft.to/lastmile_qr_scan", "android": "https://dc.lft.to/lastmile_qr_scan"}, "bike_id": "cfa3f05ddab80b003bb770f52c45bbd6", "lat": 38.9427755, "name": "cfa3f05ddab80b003bb770f52c45bbd6", "lon": -77.02930483333333, "fusion_lon": 0.0}, {"is_reserved": 0, "type": "electric_scooter", "fusion_lat": 0.0, "is_disabled": 0, "rental_uris": {"ios": "https://dc.lft.to/lastmile_qr_scan", "android": "https://dc.lft.to/lastmile_qr_scan"}, "bike_id": "6ab20c6e759bb48928ee2f6c842a5c79", "lat": 38.94207266666667, "name": "6ab20c6e759bb48928ee2f6c842a5c79", "lon": -77.01331683333333, "fusion_lon": 0.0}, {"is_reserved": 0, "type": "electric_scooter", "fusion_lat": 0.0, "is_disabled": 0, "rental_uris": {"ios": "https://dc.lft.to/lastmile_qr_scan", "android": "https://dc.lft.to/lastmile_qr_scan"}, "bike_id": "cd82314a163b8cb9bfc90d2a0893e6a0", "lat": 38.9163305, "name": "cd82314a163b8cb9bfc90d2a0893e6a0", "lon": -77.02818166666667, "fusion_lon": 0.0}, {"is_reserved": 0, "type": "electric_scooter", "fusion_lat": 0.0, "is_disabled": 0, "rental_uris": {"ios": "https://dc.lft.to/lastmile_qr_scan", "android": "https://dc.lft.to/lastmile_qr_scan"}, "bike_id": "6854877c05870e0c36c8db1e9eb42335", "lat": 38.904147, "name": "6854877c05870e0c36c8db1e9eb42335", "lon": -76.97331583333333, "fusion_lon": 0.0}, {"is_reserved": 0, "type": "electric_scooter", "fusion_lat": 0.0, "is_disabled": 0, "rental_uris": {"ios": "https://dc.lft.to/lastmile_qr_scan", "android": "https://dc.lft.to/lastmile_qr_scan"}, "bike_id": "a92d47a7cef5ad74fa8451a0bb268a86", "lat": 38.921074, "name": "a92d47a7cef5ad74fa8451a0bb268a86", "lon": -77.017633, "fusion_lon": 0.0}, {"is_reserved": 0, "type": "electric_scooter", "fusion_lat": 0.0, "is_disabled": 0, "rental_uris": {"ios": "https://dc.lft.to/lastmile_qr_scan", "android": "https://dc.lft.to/lastmile_qr_scan"}, "bike_id": "2c3972acd86b7422898797ec00276489", "lat": 38.90597616666667, "name": "2c3972acd86b7422898797ec00276489", "lon": -77.0665785, "fusion_lon": 0.0}, {"is_reserved": 0, "type": "electric_scooter", "fusion_lat": 0.0, "is_disabled": 0, "rental_uris": {"ios": "https://dc.lft.to/lastmile_qr_scan", "android": "https://dc.lft.to/lastmile_qr_scan"}, "bike_id": "f20945fe0e6de11df5f0a6fbd3ff552e", "lat": 38.90542533333333, "name": "f20945fe0e6de11df5f0a6fbd3ff552e", "lon": -77.058022, "fusion_lon": 0.0}, {"is_reserved": 0, "type": "electric_scooter", "fusion_lat": 0.0, "is_disabled": 0, "rental_uris": {"ios": "https://dc.lft.to/lastmile_qr_scan", "android": "https://dc.lft.to/lastmile_qr_scan"}, "bike_id": "853561ae607685fb791288baeb9ffc69", "lat": 38.94647066666667, "name": "853561ae607685fb791288baeb9ffc69", "lon": -77.01744066666667, "fusion_lon": 0.0}, {"is_reserved": 0, "type": "electric_scooter", "fusion_lat": 0.0, "is_disabled": 0, "rental_uris": {"ios": "https://dc.lft.to/lastmile_qr_scan", "android": "https://dc.lft.to/lastmile_qr_scan"}, "bike_id": "d28522f3d7abac9be43127bf7a6cb645", "lat": 38.91564066666667, "name": "d28522f3d7abac9be43127bf7a6cb645", "lon": -77.031874, "fusion_lon": 0.0}, {"is_reserved": 0, "type": "electric_scooter", "fusion_lat": 0.0, "is_disabled": 0, "rental_uris": {"ios": "https://dc.lft.to/lastmile_qr_scan", "android": "https://dc.lft.to/lastmile_qr_scan"}, "bike_id": "54a5d5f9f688452b6851319a6e09fcc5", "lat": 38.842754666666664, "name": "54a5d5f9f688452b6851319a6e09fcc5", "lon": -76.9884665, "fusion_lon": 0.0}, {"is_reserved": 0, "type": "electric_scooter", "fusion_lat": 0.0, "is_disabled": 0, "rental_uris": {"ios": "https://dc.lft.to/lastmile_qr_scan", "android": "https://dc.lft.to/lastmile_qr_scan"}, "bike_id": "8fcb20e5bd4bf5a726d6c7ba535db608", "lat": 38.88006766666667, "name": "8fcb20e5bd4bf5a726d6c7ba535db608", "lon": -76.99836583333334, "fusion_lon": 0.0}, {"is_reserved": 0, "type": "electric_bike", "fusion_lat": 0.0, "is_disabled": 0, "rental_uris": {"ios": "https://dc.lft.to/lastmile_qr_scan", "android": "https://dc.lft.to/lastmile_qr_scan"}, "bike_id": "9b45bc6160292576375c687163dc8634", "lat": 38.852455666666664, "name": "9b45bc6160292576375c687163dc8634", "lon": -77.114155, "fusion_lon": 0.0}, {"is_reserved": 0, "type": "electric_scooter", "fusion_lat": 0.0, "is_disabled": 0, "rental_uris": {"ios": "https://dc.lft.to/lastmile_qr_scan", "android": "https://dc.lft.to/lastmile_qr_scan"}, "bike_id": "e1f22c0fde3192c64e11a61e50c6bb18", "lat": 38.903149166666665, "name": "e1f22c0fde3192c64e11a61e50c6bb18", "lon": -77.03308983333334, "fusion_lon": 0.0}, {"is_reserved": 0, "type": "electric_scooter", "fusion_lat": 0.0, "is_disabled": 0, "rental_uris": {"ios": "https://dc.lft.to/lastmile_qr_scan", "android": "https://dc.lft.to/lastmile_qr_scan"}, "bike_id": "1ef646bd606440ddbb68fc60f44f0162", "lat": 38.9232275, "name": "1ef646bd606440ddbb68fc60f44f0162", "lon": -77.029018, "fusion_lon": 0.0}, {"is_reserved": 0, "type": "electric_scooter", "fusion_lat": 0.0, "is_disabled": 0, "rental_uris": {"ios": "https://dc.lft.to/lastmile_qr_scan", "android": "https://dc.lft.to/lastmile_qr_scan"}, "bike_id": "f890a53759fa58bf582b58b1ca825fa2", "lat": 38.92424466666667, "name": "f890a53759fa58bf582b58b1ca825fa2", "lon": -77.04483416666666, "fusion_lon": 0.0}, {"is_reserved": 0, "type": "electric_scooter", "fusion_lat": 0.0, "is_disabled": 0, "rental_uris": {"ios": "https://dc.lft.to/lastmile_qr_scan", "android": "https://dc.lft.to/lastmile_qr_scan"}, "bike_id": "0eac7e32a78530cffeebf76011b01368", "lat": 38.883058, "name": "0eac7e32a78530cffeebf76011b01368", "lon": -76.9348645, "fusion_lon": 0.0}, {"is_reserved": 0, "type": "electric_scooter", "fusion_lat": 0.0, "is_disabled": 0, "rental_uris": {"ios": "https://dc.lft.to/lastmile_qr_scan", "android": "https://dc.lft.to/lastmile_qr_scan"}, "bike_id": "01fca1caf89eaa051077e81c27d8b6ee", "lat": 38.910486666666664, "name": "01fca1caf89eaa051077e81c27d8b6ee", "lon": -76.998068, "fusion_lon": 0.0}, {"is_reserved": 0, "type": "electric_bike", "fusion_lat": 0.0, "is_disabled": 0, "rental_uris": {"ios": "https://dc.lft.to/lastmile_qr_scan", "android": "https://dc.lft.to/lastmile_qr_scan"}, "bike_id": "fb21b83d19b5b515092849c1823314e3", "lat": 39.006529, "name": "fb21b83d19b5b515092849c1823314e3", "lon": -76.90022866666666, "fusion_lon": 0.0}, {"is_reserved": 0, "type": "electric_scooter", "fusion_lat": 0.0, "is_disabled": 0, "rental_uris": {"ios": "https://dc.lft.to/lastmile_qr_scan", "android": "https://dc.lft.to/lastmile_qr_scan"}, "bike_id": "29aafe77e095cae0c00ba0244277a763", "lat": 38.92419866666667, "name": "29aafe77e095cae0c00ba0244277a763", "lon": -77.02010966666667, "fusion_lon": 0.0}, {"is_reserved": 0, "type": "electric_scooter", "fusion_lat": 0.0, "is_disabled": 0, "rental_uris": {"ios": "https://dc.lft.to/lastmile_qr_scan", "android": "https://dc.lft.to/lastmile_qr_scan"}, "bike_id": "2521fa7cd4c822033c200771b066bc83", "lat": 38.90072033333333, "name": "2521fa7cd4c822033c200771b066bc83", "lon": -77.0175505, "fusion_lon": 0.0}, {"is_reserved": 0, "type": "electric_scooter", "fusion_lat": 0.0, "is_disabled": 0, "rental_uris": {"ios": "https://dc.lft.to/lastmile_qr_scan", "android": "https://dc.lft.to/lastmile_qr_scan"}, "bike_id": "f8c9a600df7263a83deb2f06745981ff", "lat": 38.9050825, "name": "f8c9a600df7263a83deb2f06745981ff", "lon": -77.01709666666666, "fusion_lon": 0.0}, {"is_reserved": 0, "type": "electric_scooter", "fusion_lat": 0.0, "is_disabled": 0, "rental_uris": {"ios": "https://dc.lft.to/lastmile_qr_scan", "android": "https://dc.lft.to/lastmile_qr_scan"}, "bike_id": "62acdd3221922cf724b00b77dddeb7bb", "lat": 38.90390416666666, "name": "62acdd3221922cf724b00b77dddeb7bb", "lon": -77.03959933333333, "fusion_lon": 0.0}, {"is_reserved": 0, "type": "electric_scooter", "fusion_lat": 0.0, "is_disabled": 0, "rental_uris": {"ios": "https://dc.lft.to/lastmile_qr_scan", "android": "https://dc.lft.to/lastmile_qr_scan"}, "bike_id": "21776b8aefa8887c6737119e7687e477", "lat": 38.9014485, "name": "21776b8aefa8887c6737119e7687e477", "lon": -76.9298395, "fusion_lon": 0.0}, {"is_reserved": 0, "type": "electric_bike", "fusion_lat": 0.0, "is_disabled": 0, "rental_uris": {"ios": "https://dc.lft.to/lastmile_qr_scan", "android": "https://dc.lft.to/lastmile_qr_scan"}, "bike_id": "6289a9e789e29a154a567b4f0b7ab831", "lat": 38.83272816666667, "name": "6289a9e789e29a154a567b4f0b7ab831", "lon": -77.08369266666666, "fusion_lon": 0.0}, {"is_reserved": 0, "type": "electric_scooter", "fusion_lat": 0.0, "is_disabled": 0, "rental_uris": {"ios": "https://dc.lft.to/lastmile_qr_scan", "android": "https://dc.lft.to/lastmile_qr_scan"}, "bike_id": "6031e3c644a050dc5b0e9b02b58ea3a4", "lat": 38.95641116666667, "name": "6031e3c644a050dc5b0e9b02b58ea3a4", "lon": -77.022145, "fusion_lon": 0.0}, {"is_reserved": 0, "type": "electric_scooter", "fusion_lat": 0.0, "is_disabled": 0, "rental_uris": {"ios": "https://dc.lft.to/lastmile_qr_scan", "android": "https://dc.lft.to/lastmile_qr_scan"}, "bike_id": "8358aa89101ff833427bea1562ef1e26", "lat": 38.907779, "name": "8358aa89101ff833427bea1562ef1e26", "lon": -77.00244816666667, "fusion_lon": 0.0}, {"is_reserved": 0, "type": "electric_scooter", "fusion_lat": 0.0, "is_disabled": 0, "rental_uris": {"ios": "https://dc.lft.to/lastmile_qr_scan", "android": "https://dc.lft.to/lastmile_qr_scan"}, "bike_id": "1995bc1d705215d4b671e50b0b9d2035", "lat": 38.926046, "name": "1995bc1d705215d4b671e50b0b9d2035", "lon": -77.02367483333333, "fusion_lon": 0.0}, {"is_reserved": 0, "type": "electric_scooter", "fusion_lat": 0.0, "is_disabled": 0, "rental_uris": {"ios": "https://dc.lft.to/lastmile_qr_scan", "android": "https://dc.lft.to/lastmile_qr_scan"}, "bike_id": "91181055020192d92e2fcc09721d973a", "lat": 38.930336833333335, "name": "91181055020192d92e2fcc09721d973a", "lon": -77.038102, "fusion_lon": 0.0}, {"is_reserved": 0, "type": "electric_scooter", "fusion_lat": 0.0, "is_disabled": 0, "rental_uris": {"ios": "https://dc.lft.to/lastmile_qr_scan", "android": "https://dc.lft.to/lastmile_qr_scan"}, "bike_id": "3872138f923309202958805cfced9b88", "lat": 38.8801095, "name": "3872138f923309202958805cfced9b88", "lon": -77.00214733333334, "fusion_lon": 0.0}, {"is_reserved": 0, "type": "electric_scooter", "fusion_lat": 0.0, "is_disabled": 0, "rental_uris": {"ios": "https://dc.lft.to/lastmile_qr_scan", "android": "https://dc.lft.to/lastmile_qr_scan"}, "bike_id": "38d6842b85cafb17406b455f07897b99", "lat": 38.89905683333333, "name": "38d6842b85cafb17406b455f07897b99", "lon": -77.05, "fusion_lon": 0.0}, {"is_reserved": 0, "type": "electric_scooter", "fusion_lat": 0.0, "is_disabled": 0, "rental_uris": {"ios": "https://dc.lft.to/lastmile_qr_scan", "android": "https://dc.lft.to/lastmile_qr_scan"}, "bike_id": "cb42c07b3c98caa516ebcc0a5e58b8f8", "lat": 38.89879066666666, "name": "cb42c07b3c98caa516ebcc0a5e58b8f8", "lon": -77.03313866666667, "fusion_lon": 0.0}, {"is_reserved": 0, "type": "electric_scooter", "fusion_lat": 0.0, "is_disabled": 0, "rental_uris": {"ios": "https://dc.lft.to/lastmile_qr_scan", "android": "https://dc.lft.to/lastmile_qr_scan"}, "bike_id": "ac5a00b6e51f3979298a6f5e82cf214a", "lat": 38.8874605, "name": "ac5a00b6e51f3979298a6f5e82cf214a", "lon": -77.01820483333333, "fusion_lon": 0.0}, {"is_reserved": 0, "type": "electric_scooter", "fusion_lat": 0.0, "is_disabled": 0, "rental_uris": {"ios": "https://dc.lft.to/lastmile_qr_scan", "android": "https://dc.lft.to/lastmile_qr_scan"}, "bike_id": "267dd2984dc58b56c33252fb196d5a53", "lat": 38.904490833333334, "name": "267dd2984dc58b56c33252fb196d5a53", "lon": -76.98160416666667, "fusion_lon": 0.0}, {"is_reserved": 0, "type": "electric_scooter", "fusion_lat": 0.0, "is_disabled": 0, "rental_uris": {"ios": "https://dc.lft.to/lastmile_qr_scan", "android": "https://dc.lft.to/lastmile_qr_scan"}, "bike_id": "bdd29fa032224b5988baf4d8777dea50", "lat": 38.93865383333333, "name": "bdd29fa032224b5988baf4d8777dea50", "lon": -77.07236666666667, "fusion_lon": 0.0}, {"is_reserved": 0, "type": "electric_scooter", "fusion_lat": 0.0, "is_disabled": 0, "rental_uris": {"ios": "https://dc.lft.to/lastmile_qr_scan", "android": "https://dc.lft.to/lastmile_qr_scan"}, "bike_id": "3db9b6201b390911e6084c7515a400c0", "lat": 38.91708033333333, "name": "3db9b6201b390911e6084c7515a400c0", "lon": -77.02484916666667, "fusion_lon": 0.0}, {"is_reserved": 0, "type": "electric_scooter", "fusion_lat": 0.0, "is_disabled": 0, "rental_uris": {"ios": "https://dc.lft.to/lastmile_qr_scan", "android": "https://dc.lft.to/lastmile_qr_scan"}, "bike_id": "7b122804f5119267e19b428f17d8988d", "lat": 38.920527, "name": "7b122804f5119267e19b428f17d8988d", "lon": -77.01670016666667, "fusion_lon": 0.0}, {"is_reserved": 0, "type": "electric_scooter", "fusion_lat": 0.0, "is_disabled": 0, "rental_uris": {"ios": "https://dc.lft.to/lastmile_qr_scan", "android": "https://dc.lft.to/lastmile_qr_scan"}, "bike_id": "60dfb74c81a5e24d599a48b318bb4427", "lat": 38.927152166666666, "name": "60dfb74c81a5e24d599a48b318bb4427", "lon": -77.04051066666666, "fusion_lon": 0.0}, {"is_reserved": 0, "type": "electric_scooter", "fusion_lat": 0.0, "is_disabled": 0, "rental_uris": {"ios": "https://dc.lft.to/lastmile_qr_scan", "android": "https://dc.lft.to/lastmile_qr_scan"}, "bike_id": "1ed684cfbadfef891154b81f362222d6", "lat": 38.9202105, "name": "1ed684cfbadfef891154b81f362222d6", "lon": -77.0169715, "fusion_lon": 0.0}, {"is_reserved": 0, "type": "electric_scooter", "fusion_lat": 0.0, "is_disabled": 0, "rental_uris": {"ios": "https://dc.lft.to/lastmile_qr_scan", "android": "https://dc.lft.to/lastmile_qr_scan"}, "bike_id": "ba3d14b2fb2b96168263c8a5d515e7ba", "lat": 38.9012975, "name": "ba3d14b2fb2b96168263c8a5d515e7ba", "lon": -77.01779583333334, "fusion_lon": 0.0}, {"is_reserved": 0, "type": "electric_scooter", "fusion_lat": 0.0, "is_disabled": 0, "rental_uris": {"ios": "https://dc.lft.to/lastmile_qr_scan", "android": "https://dc.lft.to/lastmile_qr_scan"}, "bike_id": "f519a3efd2f6be6a1b7646cdda1b0eed", "lat": 38.89532416666667, "name": "f519a3efd2f6be6a1b7646cdda1b0eed", "lon": -76.97732933333333, "fusion_lon": 0.0}, {"is_reserved": 0, "type": "electric_scooter", "fusion_lat": 0.0, "is_disabled": 0, "rental_uris": {"ios": "https://dc.lft.to/lastmile_qr_scan", "android": "https://dc.lft.to/lastmile_qr_scan"}, "bike_id": "a9c234d48a120320958d1e4e1ab00939", "lat": 38.899893666666664, "name": "a9c234d48a120320958d1e4e1ab00939", "lon": -77.04200833333333, "fusion_lon": 0.0}, {"is_reserved": 0, "type": "electric_scooter", "fusion_lat": 0.0, "is_disabled": 0, "rental_uris": {"ios": "https://dc.lft.to/lastmile_qr_scan", "android": "https://dc.lft.to/lastmile_qr_scan"}, "bike_id": "85cdc38ca97604d9cf8d109fc83fd097", "lat": 38.91061966666667, "name": "85cdc38ca97604d9cf8d109fc83fd097", "lon": -76.99803866666667, "fusion_lon": 0.0}, {"is_reserved": 0, "type": "electric_scooter", "fusion_lat": 0.0, "is_disabled": 0, "rental_uris": {"ios": "https://dc.lft.to/lastmile_qr_scan", "android": "https://dc.lft.to/lastmile_qr_scan"}, "bike_id": "0de0be715033f602cbbc9bef5900377b", "lat": 38.903825166666664, "name": "0de0be715033f602cbbc9bef5900377b", "lon": -77.05142683333334, "fusion_lon": 0.0}, {"is_reserved": 0, "type": "electric_scooter", "fusion_lat": 0.0, "is_disabled": 0, "rental_uris": {"ios": "https://dc.lft.to/lastmile_qr_scan", "android": "https://dc.lft.to/lastmile_qr_scan"}, "bike_id": "a90f3f3b7892b449647876bbacf83b39", "lat": 38.897068166666664, "name": "a90f3f3b7892b449647876bbacf83b39", "lon": -77.031391, "fusion_lon": 0.0}, {"is_reserved": 0, "type": "electric_scooter", "fusion_lat": 0.0, "is_disabled": 0, "rental_uris": {"ios": "https://dc.lft.to/lastmile_qr_scan", "android": "https://dc.lft.to/lastmile_qr_scan"}, "bike_id": "29f9144af055909f1317b1541baaed45", "lat": 38.916137166666665, "name": "29f9144af055909f1317b1541baaed45", "lon": -77.02388433333333, "fusion_lon": 0.0}, {"is_reserved": 0, "type": "electric_scooter", "fusion_lat": 0.0, "is_disabled": 0, "rental_uris": {"ios": "https://dc.lft.to/lastmile_qr_scan", "android": "https://dc.lft.to/lastmile_qr_scan"}, "bike_id": "542054fccf44ad5001ecae938be245bc", "lat": 38.911060666666664, "name": "542054fccf44ad5001ecae938be245bc", "lon": -77.011013, "fusion_lon": 0.0}, {"is_reserved": 0, "type": "electric_bike", "fusion_lat": 0.0, "is_disabled": 0, "rental_uris": {"ios": "https://dc.lft.to/lastmile_qr_scan", "android": "https://dc.lft.to/lastmile_qr_scan"}, "bike_id": "dd1ed4d7a06b2ca5ff2b603f5ecff12a", "lat": 38.92299516666667, "name": "dd1ed4d7a06b2ca5ff2b603f5ecff12a", "lon": -76.99779883333333, "fusion_lon": 0.0}, {"is_reserved": 0, "type": "electric_scooter", "fusion_lat": 0.0, "is_disabled": 0, "rental_uris": {"ios": "https://dc.lft.to/lastmile_qr_scan", "android": "https://dc.lft.to/lastmile_qr_scan"}, "bike_id": "2a342740efd811e48d70fe2103e7bc8c", "lat": 38.923393, "name": "2a342740efd811e48d70fe2103e7bc8c", "lon": -77.00888716666667, "fusion_lon": 0.0}, {"is_reserved": 0, "type": "electric_scooter", "fusion_lat": 0.0, "is_disabled": 0, "rental_uris": {"ios": "https://dc.lft.to/lastmile_qr_scan", "android": "https://dc.lft.to/lastmile_qr_scan"}, "bike_id": "5ad644985ca5752965cfadca9d03b8ad", "lat": 38.91843933333333, "name": "5ad644985ca5752965cfadca9d03b8ad", "lon": -77.04542083333334, "fusion_lon": 0.0}, {"is_reserved": 0, "type": "electric_scooter", "fusion_lat": 0.0, "is_disabled": 0, "rental_uris": {"ios": "https://dc.lft.to/lastmile_qr_scan", "android": "https://dc.lft.to/lastmile_qr_scan"}, "bike_id": "adee90d55b96abd56012a40b6d6d78b3", "lat": 38.91822033333333, "name": "adee90d55b96abd56012a40b6d6d78b3", "lon": -77.027119, "fusion_lon": 0.0}, {"is_reserved": 0, "type": "electric_bike", "fusion_lat": 0.0, "is_disabled": 0, "rental_uris": {"ios": "https://dc.lft.to/lastmile_qr_scan", "android": "https://dc.lft.to/lastmile_qr_scan"}, "bike_id": "60bc13e63491cf0e19cd395fe95fce07", "lat": 38.879976666666664, "name": "60bc13e63491cf0e19cd395fe95fce07", "lon": -76.9854405, "fusion_lon": 0.0}, {"is_reserved": 0, "type": "electric_scooter", "fusion_lat": 0.0, "is_disabled": 0, "rental_uris": {"ios": "https://dc.lft.to/lastmile_qr_scan", "android": "https://dc.lft.to/lastmile_qr_scan"}, "bike_id": "1fc6e057d1e5fc57707a41adb87b4a36", "lat": 38.917366333333334, "name": "1fc6e057d1e5fc57707a41adb87b4a36", "lon": -77.01777333333334, "fusion_lon": 0.0}, {"is_reserved": 0, "type": "electric_scooter", "fusion_lat": 0.0, "is_disabled": 0, "rental_uris": {"ios": "https://dc.lft.to/lastmile_qr_scan", "android": "https://dc.lft.to/lastmile_qr_scan"}, "bike_id": "64ccc5e9e62ac0ec09b1f816e87626e8", "lat": 38.92019033333333, "name": "64ccc5e9e62ac0ec09b1f816e87626e8", "lon": -77.07119283333333, "fusion_lon": 0.0}, {"is_reserved": 0, "type": "electric_scooter", "fusion_lat": 0.0, "is_disabled": 0, "rental_uris": {"ios": "https://dc.lft.to/lastmile_qr_scan", "android": "https://dc.lft.to/lastmile_qr_scan"}, "bike_id": "ca0257ff978658611061d54569732c85", "lat": 38.87462033333333, "name": "ca0257ff978658611061d54569732c85", "lon": -77.00483316666667, "fusion_lon": 0.0}, {"is_reserved": 0, "type": "electric_bike", "fusion_lat": 0.0, "is_disabled": 0, "rental_uris": {"ios": "https://dc.lft.to/lastmile_qr_scan", "android": "https://dc.lft.to/lastmile_qr_scan"}, "bike_id": "94210fb6813b443cf1e338fc56884b36", "lat": 38.83160083333333, "name": "94210fb6813b443cf1e338fc56884b36", "lon": -76.9959175, "fusion_lon": 0.0}, {"is_reserved": 0, "type": "electric_scooter", "fusion_lat": 0.0, "is_disabled": 0, "rental_uris": {"ios": "https://dc.lft.to/lastmile_qr_scan", "android": "https://dc.lft.to/lastmile_qr_scan"}, "bike_id": "9dcd2acd2b3763047578e04a066f7f51", "lat": 38.90571883333333, "name": "9dcd2acd2b3763047578e04a066f7f51", "lon": -76.97630916666667, "fusion_lon": 0.0}, {"is_reserved": 0, "type": "electric_scooter", "fusion_lat": 0.0, "is_disabled": 0, "rental_uris": {"ios": "https://dc.lft.to/lastmile_qr_scan", "android": "https://dc.lft.to/lastmile_qr_scan"}, "bike_id": "4827da00c9304d0de3303a85bd826444", "lat": 38.90730766666667, "name": "4827da00c9304d0de3303a85bd826444", "lon": -77.02893166666667, "fusion_lon": 0.0}, {"is_reserved": 0, "type": "electric_scooter", "fusion_lat": 0.0, "is_disabled": 0, "rental_uris": {"ios": "https://dc.lft.to/lastmile_qr_scan", "android": "https://dc.lft.to/lastmile_qr_scan"}, "bike_id": "784dc25a054c70251917249b97ec2cb1", "lat": 38.921629, "name": "784dc25a054c70251917249b97ec2cb1", "lon": -77.04028633333333, "fusion_lon": 0.0}, {"is_reserved": 0, "type": "electric_scooter", "fusion_lat": 0.0, "is_disabled": 0, "rental_uris": {"ios": "https://dc.lft.to/lastmile_qr_scan", "android": "https://dc.lft.to/lastmile_qr_scan"}, "bike_id": "9a6df68903dc31a8a983a61faababb19", "lat": 38.918273666666664, "name": "9a6df68903dc31a8a983a61faababb19", "lon": -77.041773, "fusion_lon": 0.0}, {"is_reserved": 0, "type": "electric_scooter", "fusion_lat": 0.0, "is_disabled": 0, "rental_uris": {"ios": "https://dc.lft.to/lastmile_qr_scan", "android": "https://dc.lft.to/lastmile_qr_scan"}, "bike_id": "9ac5038c99bf04b613b27d7bda09dbbe", "lat": 38.909074333333336, "name": "9ac5038c99bf04b613b27d7bda09dbbe", "lon": -77.04417183333334, "fusion_lon": 0.0}, {"is_reserved": 0, "type": "electric_scooter", "fusion_lat": 0.0, "is_disabled": 0, "rental_uris": {"ios": "https://dc.lft.to/lastmile_qr_scan", "android": "https://dc.lft.to/lastmile_qr_scan"}, "bike_id": "7feb77e52d0e1933905f241d40ed89bd", "lat": 38.876412, "name": "7feb77e52d0e1933905f241d40ed89bd", "lon": -76.99294883333333, "fusion_lon": 0.0}, {"is_reserved": 0, "type": "electric_scooter", "fusion_lat": 0.0, "is_disabled": 0, "rental_uris": {"ios": "https://dc.lft.to/lastmile_qr_scan", "android": "https://dc.lft.to/lastmile_qr_scan"}, "bike_id": "40ad23a4a47a7eafc32a589245da859e", "lat": 38.92605783333333, "name": "40ad23a4a47a7eafc32a589245da859e", "lon": -77.02391283333333, "fusion_lon": 0.0}, {"is_reserved": 0, "type": "electric_scooter", "fusion_lat": 0.0, "is_disabled": 0, "rental_uris": {"ios": "https://dc.lft.to/lastmile_qr_scan", "android": "https://dc.lft.to/lastmile_qr_scan"}, "bike_id": "ac45745de0e9134a7e50e9e6526c80f5", "lat": 38.9161585, "name": "ac45745de0e9134a7e50e9e6526c80f5", "lon": -77.045709, "fusion_lon": 0.0}, {"is_reserved": 0, "type": "electric_scooter", "fusion_lat": 0.0, "is_disabled": 0, "rental_uris": {"ios": "https://dc.lft.to/lastmile_qr_scan", "android": "https://dc.lft.to/lastmile_qr_scan"}, "bike_id": "96ae9d37ba02e8e175bf718c98ea1873", "lat": 38.89766616666667, "name": "96ae9d37ba02e8e175bf718c98ea1873", "lon": -77.05163566666667, "fusion_lon": 0.0}, {"is_reserved": 0, "type": "electric_bike", "fusion_lat": 0.0, "is_disabled": 0, "rental_uris": {"ios": "https://dc.lft.to/lastmile_qr_scan", "android": "https://dc.lft.to/lastmile_qr_scan"}, "bike_id": "e812fff0665a532809d95034dbae5f96", "lat": 38.84300866666667, "name": "e812fff0665a532809d95034dbae5f96", "lon": -76.98843083333334, "fusion_lon": 0.0}, {"is_reserved": 0, "type": "electric_scooter", "fusion_lat": 0.0, "is_disabled": 0, "rental_uris": {"ios": "https://dc.lft.to/lastmile_qr_scan", "android": "https://dc.lft.to/lastmile_qr_scan"}, "bike_id": "8ee0b8995b5d1819bfcc2ce3ef071d70", "lat": 38.91918366666667, "name": "8ee0b8995b5d1819bfcc2ce3ef071d70", "lon": -77.03312216666667, "fusion_lon": 0.0}, {"is_reserved": 0, "type": "electric_scooter", "fusion_lat": 0.0, "is_disabled": 0, "rental_uris": {"ios": "https://dc.lft.to/lastmile_qr_scan", "android": "https://dc.lft.to/lastmile_qr_scan"}, "bike_id": "ad83b369718a3331ea27824657882605", "lat": 38.9057065, "name": "ad83b369718a3331ea27824657882605", "lon": -77.01718283333334, "fusion_lon": 0.0}, {"is_reserved": 0, "type": "electric_scooter", "fusion_lat": 0.0, "is_disabled": 0, "rental_uris": {"ios": "https://dc.lft.to/lastmile_qr_scan", "android": "https://dc.lft.to/lastmile_qr_scan"}, "bike_id": "938983d0f74163e891ddcba95a3950b8", "lat": 38.919913333333334, "name": "938983d0f74163e891ddcba95a3950b8", "lon": -76.97306633333334, "fusion_lon": 0.0}, {"is_reserved": 0, "type": "electric_scooter", "fusion_lat": 0.0, "is_disabled": 0, "rental_uris": {"ios": "https://dc.lft.to/lastmile_qr_scan", "android": "https://dc.lft.to/lastmile_qr_scan"}, "bike_id": "33a40a169fbb1a9b0ac7f993bbe452e6", "lat": 38.90217366666667, "name": "33a40a169fbb1a9b0ac7f993bbe452e6", "lon": -76.9869975, "fusion_lon": 0.0}, {"is_reserved": 0, "type": "electric_scooter", "fusion_lat": 0.0, "is_disabled": 0, "rental_uris": {"ios": "https://dc.lft.to/lastmile_qr_scan", "android": "https://dc.lft.to/lastmile_qr_scan"}, "bike_id": "baceb0e092df8744f28ea70539e1ad86", "lat": 38.90954133333334, "name": "baceb0e092df8744f28ea70539e1ad86", "lon": -76.98540583333333, "fusion_lon": 0.0}, {"is_reserved": 0, "type": "electric_scooter", "fusion_lat": 0.0, "is_disabled": 0, "rental_uris": {"ios": "https://dc.lft.to/lastmile_qr_scan", "android": "https://dc.lft.to/lastmile_qr_scan"}, "bike_id": "920a4e002a985640f9c57e77fcd8c3c0", "lat": 38.9159855, "name": "920a4e002a985640f9c57e77fcd8c3c0", "lon": -76.98392183333333, "fusion_lon": 0.0}, {"is_reserved": 0, "type": "electric_scooter", "fusion_lat": 0.0, "is_disabled": 0, "rental_uris": {"ios": "https://dc.lft.to/lastmile_qr_scan", "android": "https://dc.lft.to/lastmile_qr_scan"}, "bike_id": "981abd15c4326a7c2b04b63c27de376f", "lat": 38.91264733333333, "name": "981abd15c4326a7c2b04b63c27de376f", "lon": -77.045987, "fusion_lon": 0.0}, {"is_reserved": 0, "type": "electric_scooter", "fusion_lat": 0.0, "is_disabled": 0, "rental_uris": {"ios": "https://dc.lft.to/lastmile_qr_scan", "android": "https://dc.lft.to/lastmile_qr_scan"}, "bike_id": "2592cc11ebc424cc7fa367659ecae1be", "lat": 38.912367833333334, "name": "2592cc11ebc424cc7fa367659ecae1be", "lon": -77.00918183333333, "fusion_lon": 0.0}, {"is_reserved": 0, "type": "electric_scooter", "fusion_lat": 0.0, "is_disabled": 0, "rental_uris": {"ios": "https://dc.lft.to/lastmile_qr_scan", "android": "https://dc.lft.to/lastmile_qr_scan"}, "bike_id": "fca9c34eb277fe27e5d7142b88c1db68", "lat": 38.9127915, "name": "fca9c34eb277fe27e5d7142b88c1db68", "lon": -77.06792683333333, "fusion_lon": 0.0}, {"is_reserved": 0, "type": "electric_scooter", "fusion_lat": 0.0, "is_disabled": 0, "rental_uris": {"ios": "https://dc.lft.to/lastmile_qr_scan", "android": "https://dc.lft.to/lastmile_qr_scan"}, "bike_id": "b4b3fb949d212acdc753e4d4daeca485", "lat": 38.8762895, "name": "b4b3fb949d212acdc753e4d4daeca485", "lon": -77.00209116666667, "fusion_lon": 0.0}, {"is_reserved": 0, "type": "electric_scooter", "fusion_lat": 0.0, "is_disabled": 0, "rental_uris": {"ios": "https://dc.lft.to/lastmile_qr_scan", "android": "https://dc.lft.to/lastmile_qr_scan"}, "bike_id": "42d43338e13f496ef2f73ea56dc59ce5", "lat": 38.912665833333335, "name": "42d43338e13f496ef2f73ea56dc59ce5", "lon": -77.04764716666666, "fusion_lon": 0.0}, {"is_reserved": 0, "type": "electric_scooter", "fusion_lat": 0.0, "is_disabled": 0, "rental_uris": {"ios": "https://dc.lft.to/lastmile_qr_scan", "android": "https://dc.lft.to/lastmile_qr_scan"}, "bike_id": "e098eb60e0bec4a46499c0d46400b192", "lat": 38.887701166666666, "name": "e098eb60e0bec4a46499c0d46400b192", "lon": -76.9772945, "fusion_lon": 0.0}, {"is_reserved": 0, "type": "electric_scooter", "fusion_lat": 0.0, "is_disabled": 0, "rental_uris": {"ios": "https://dc.lft.to/lastmile_qr_scan", "android": "https://dc.lft.to/lastmile_qr_scan"}, "bike_id": "43eff7995e6913afe78c2038ac0bdb26", "lat": 38.89941016666667, "name": "43eff7995e6913afe78c2038ac0bdb26", "lon": -76.93759466666667, "fusion_lon": 0.0}, {"is_reserved": 0, "type": "electric_scooter", "fusion_lat": 0.0, "is_disabled": 0, "rental_uris": {"ios": "https://dc.lft.to/lastmile_qr_scan", "android": "https://dc.lft.to/lastmile_qr_scan"}, "bike_id": "4d7f6fe1944f1834f1fe360e33a57cbd", "lat": 38.87186483333333, "name": "4d7f6fe1944f1834f1fe360e33a57cbd", "lon": -77.005813, "fusion_lon": 0.0}, {"is_reserved": 0, "type": "electric_scooter", "fusion_lat": 0.0, "is_disabled": 0, "rental_uris": {"ios": "https://dc.lft.to/lastmile_qr_scan", "android": "https://dc.lft.to/lastmile_qr_scan"}, "bike_id": "de74edc1571ead850cf47e44cf4f071f", "lat": 38.8876975, "name": "de74edc1571ead850cf47e44cf4f071f", "lon": -76.977314, "fusion_lon": 0.0}, {"is_reserved": 0, "type": "electric_scooter", "fusion_lat": 0.0, "is_disabled": 0, "rental_uris": {"ios": "https://dc.lft.to/lastmile_qr_scan", "android": "https://dc.lft.to/lastmile_qr_scan"}, "bike_id": "7a09867d10568e07fed1d63468be84b2", "lat": 38.92431533333333, "name": "7a09867d10568e07fed1d63468be84b2", "lon": -77.019518, "fusion_lon": 0.0}, {"is_reserved": 0, "type": "electric_scooter", "fusion_lat": 0.0, "is_disabled": 0, "rental_uris": {"ios": "https://dc.lft.to/lastmile_qr_scan", "android": "https://dc.lft.to/lastmile_qr_scan"}, "bike_id": "7d4d9cc74577ae7e05e4a05ee4052406", "lat": 38.90922233333333, "name": "7d4d9cc74577ae7e05e4a05ee4052406", "lon": -77.04942, "fusion_lon": 0.0}, {"is_reserved": 0, "type": "electric_scooter", "fusion_lat": 0.0, "is_disabled": 0, "rental_uris": {"ios": "https://dc.lft.to/lastmile_qr_scan", "android": "https://dc.lft.to/lastmile_qr_scan"}, "bike_id": "be959f96e02ded8338d62b58a9fa9bbb", "lat": 38.94173933333333, "name": "be959f96e02ded8338d62b58a9fa9bbb", "lon": -77.02538983333334, "fusion_lon": 0.0}, {"is_reserved": 0, "type": "electric_scooter", "fusion_lat": 0.0, "is_disabled": 0, "rental_uris": {"ios": "https://dc.lft.to/lastmile_qr_scan", "android": "https://dc.lft.to/lastmile_qr_scan"}, "bike_id": "67d291b500c2a02e8bedc3a09da524c1", "lat": 38.9217905, "name": "67d291b500c2a02e8bedc3a09da524c1", "lon": -77.0423005, "fusion_lon": 0.0}, {"is_reserved": 0, "type": "electric_scooter", "fusion_lat": 0.0, "is_disabled": 0, "rental_uris": {"ios": "https://dc.lft.to/lastmile_qr_scan", "android": "https://dc.lft.to/lastmile_qr_scan"}, "bike_id": "32489701c6b03e1651d5c5f2b30dbcff", "lat": 38.94706083333333, "name": "32489701c6b03e1651d5c5f2b30dbcff", "lon": -77.01942133333333, "fusion_lon": 0.0}, {"is_reserved": 0, "type": "electric_scooter", "fusion_lat": 0.0, "is_disabled": 0, "rental_uris": {"ios": "https://dc.lft.to/lastmile_qr_scan", "android": "https://dc.lft.to/lastmile_qr_scan"}, "bike_id": "213542ac6a46d61e484d082450b83ee9", "lat": 38.903599666666665, "name": "213542ac6a46d61e484d082450b83ee9", "lon": -77.03997433333333, "fusion_lon": 0.0}, {"is_reserved": 0, "type": "electric_scooter", "fusion_lat": 0.0, "is_disabled": 0, "rental_uris": {"ios": "https://dc.lft.to/lastmile_qr_scan", "android": "https://dc.lft.to/lastmile_qr_scan"}, "bike_id": "658efba2f6ad0867d54b2259daa7e24a", "lat": 38.900291833333334, "name": "658efba2f6ad0867d54b2259daa7e24a", "lon": -76.99837283333333, "fusion_lon": 0.0}, {"is_reserved": 0, "type": "electric_scooter", "fusion_lat": 0.0, "is_disabled": 0, "rental_uris": {"ios": "https://dc.lft.to/lastmile_qr_scan", "android": "https://dc.lft.to/lastmile_qr_scan"}, "bike_id": "d71d058df34e4c96a4ff0b04dbad2740", "lat": 38.94465183333333, "name": "d71d058df34e4c96a4ff0b04dbad2740", "lon": -77.00660616666667, "fusion_lon": 0.0}, {"is_reserved": 0, "type": "electric_scooter", "fusion_lat": 0.0, "is_disabled": 0, "rental_uris": {"ios": "https://dc.lft.to/lastmile_qr_scan", "android": "https://dc.lft.to/lastmile_qr_scan"}, "bike_id": "2df53bdb0fe2a09832cd58406473cccf", "lat": 38.9122345, "name": "2df53bdb0fe2a09832cd58406473cccf", "lon": -77.00663883333333, "fusion_lon": 0.0}, {"is_reserved": 0, "type": "electric_scooter", "fusion_lat": 0.0, "is_disabled": 0, "rental_uris": {"ios": "https://dc.lft.to/lastmile_qr_scan", "android": "https://dc.lft.to/lastmile_qr_scan"}, "bike_id": "8ca03fafec16d5a8866167bc737d33a7", "lat": 38.907823, "name": "8ca03fafec16d5a8866167bc737d33a7", "lon": -77.07248116666666, "fusion_lon": 0.0}, {"is_reserved": 0, "type": "electric_scooter", "fusion_lat": 0.0, "is_disabled": 0, "rental_uris": {"ios": "https://dc.lft.to/lastmile_qr_scan", "android": "https://dc.lft.to/lastmile_qr_scan"}, "bike_id": "8133ee575040e7c9e59559bd149bd26c", "lat": 38.902713166666665, "name": "8133ee575040e7c9e59559bd149bd26c", "lon": -76.9897765, "fusion_lon": 0.0}, {"is_reserved": 0, "type": "electric_scooter", "fusion_lat": 0.0, "is_disabled": 0, "rental_uris": {"ios": "https://dc.lft.to/lastmile_qr_scan", "android": "https://dc.lft.to/lastmile_qr_scan"}, "bike_id": "f2a6788b99d2b7e23d76f1605d4c742a", "lat": 38.91545833333333, "name": "f2a6788b99d2b7e23d76f1605d4c742a", "lon": -77.02968166666666, "fusion_lon": 0.0}, {"is_reserved": 0, "type": "electric_scooter", "fusion_lat": 0.0, "is_disabled": 0, "rental_uris": {"ios": "https://dc.lft.to/lastmile_qr_scan", "android": "https://dc.lft.to/lastmile_qr_scan"}, "bike_id": "03a610679d04a31159e319e7d836a331", "lat": 38.905063166666665, "name": "03a610679d04a31159e319e7d836a331", "lon": -77.04334466666667, "fusion_lon": 0.0}, {"is_reserved": 0, "type": "electric_scooter", "fusion_lat": 0.0, "is_disabled": 0, "rental_uris": {"ios": "https://dc.lft.to/lastmile_qr_scan", "android": "https://dc.lft.to/lastmile_qr_scan"}, "bike_id": "1c77a9cd33365d135deccb888f78257d", "lat": 38.928267, "name": "1c77a9cd33365d135deccb888f78257d", "lon": -77.02162966666667, "fusion_lon": 0.0}, {"is_reserved": 0, "type": "electric_scooter", "fusion_lat": 0.0, "is_disabled": 0, "rental_uris": {"ios": "https://dc.lft.to/lastmile_qr_scan", "android": "https://dc.lft.to/lastmile_qr_scan"}, "bike_id": "3c94a4f21a89721e124729ae291639f4", "lat": 38.91963833333333, "name": "3c94a4f21a89721e124729ae291639f4", "lon": -77.0711745, "fusion_lon": 0.0}, {"is_reserved": 0, "type": "electric_scooter", "fusion_lat": 0.0, "is_disabled": 0, "rental_uris": {"ios": "https://dc.lft.to/lastmile_qr_scan", "android": "https://dc.lft.to/lastmile_qr_scan"}, "bike_id": "452d30efdca5261804fb1782badb9164", "lat": 38.911825, "name": "452d30efdca5261804fb1782badb9164", "lon": -77.029574, "fusion_lon": 0.0}, {"is_reserved": 0, "type": "electric_scooter", "fusion_lat": 0.0, "is_disabled": 0, "rental_uris": {"ios": "https://dc.lft.to/lastmile_qr_scan", "android": "https://dc.lft.to/lastmile_qr_scan"}, "bike_id": "bc2db6a5b89a83ba76fc4707d3dfe1cd", "lat": 38.924834833333335, "name": "bc2db6a5b89a83ba76fc4707d3dfe1cd", "lon": -77.02546633333333, "fusion_lon": 0.0}, {"is_reserved": 0, "type": "electric_scooter", "fusion_lat": 0.0, "is_disabled": 0, "rental_uris": {"ios": "https://dc.lft.to/lastmile_qr_scan", "android": "https://dc.lft.to/lastmile_qr_scan"}, "bike_id": "a1ff6401d647e027062ced185948b27c", "lat": 38.91477233333333, "name": "a1ff6401d647e027062ced185948b27c", "lon": -77.03188766666666, "fusion_lon": 0.0}, {"is_reserved": 0, "type": "electric_scooter", "fusion_lat": 0.0, "is_disabled": 0, "rental_uris": {"ios": "https://dc.lft.to/lastmile_qr_scan", "android": "https://dc.lft.to/lastmile_qr_scan"}, "bike_id": "b42d7fd62a68eca3a4ba68e8f9dfbdc3", "lat": 38.90477716666667, "name": "b42d7fd62a68eca3a4ba68e8f9dfbdc3", "lon": -77.06022716666666, "fusion_lon": 0.0}, {"is_reserved": 0, "type": "electric_scooter", "fusion_lat": 0.0, "is_disabled": 0, "rental_uris": {"ios": "https://dc.lft.to/lastmile_qr_scan", "android": "https://dc.lft.to/lastmile_qr_scan"}, "bike_id": "fd70cd1f4754721f176193aa81f7e472", "lat": 38.915897333333334, "name": "fd70cd1f4754721f176193aa81f7e472", "lon": -76.98388833333334, "fusion_lon": 0.0}, {"is_reserved": 0, "type": "electric_scooter", "fusion_lat": 0.0, "is_disabled": 0, "rental_uris": {"ios": "https://dc.lft.to/lastmile_qr_scan", "android": "https://dc.lft.to/lastmile_qr_scan"}, "bike_id": "8e4e309cb5e43c6fb0ef8d752571e46f", "lat": 38.93982166666667, "name": "8e4e309cb5e43c6fb0ef8d752571e46f", "lon": -77.02878683333333, "fusion_lon": 0.0}, {"is_reserved": 0, "type": "electric_bike", "fusion_lat": 0.0, "is_disabled": 0, "rental_uris": {"ios": "https://dc.lft.to/lastmile_qr_scan", "android": "https://dc.lft.to/lastmile_qr_scan"}, "bike_id": "32b185fb91a4d16369ff3b89fbb81f10", "lat": 38.88290883333333, "name": "32b185fb91a4d16369ff3b89fbb81f10", "lon": -76.93231783333333, "fusion_lon": 0.0}, {"is_reserved": 0, "type": "electric_scooter", "fusion_lat": 0.0, "is_disabled": 0, "rental_uris": {"ios": "https://dc.lft.to/lastmile_qr_scan", "android": "https://dc.lft.to/lastmile_qr_scan"}, "bike_id": "7e703c63d17e44ac6e0bacb6b9efd4f8", "lat": 38.89486183333333, "name": "7e703c63d17e44ac6e0bacb6b9efd4f8", "lon": -77.02726366666667, "fusion_lon": 0.0}, {"is_reserved": 0, "type": "electric_scooter", "fusion_lat": 0.0, "is_disabled": 0, "rental_uris": {"ios": "https://dc.lft.to/lastmile_qr_scan", "android": "https://dc.lft.to/lastmile_qr_scan"}, "bike_id": "e3990158d216a94d71d69b4e64cef268", "lat": 38.916882, "name": "e3990158d216a94d71d69b4e64cef268", "lon": -77.0269675, "fusion_lon": 0.0}, {"is_reserved": 0, "type": "electric_scooter", "fusion_lat": 0.0, "is_disabled": 0, "rental_uris": {"ios": "https://dc.lft.to/lastmile_qr_scan", "android": "https://dc.lft.to/lastmile_qr_scan"}, "bike_id": "494359914818f2cdd86a4285d00a01b8", "lat": 38.922289166666665, "name": "494359914818f2cdd86a4285d00a01b8", "lon": -77.02834333333334, "fusion_lon": 0.0}, {"is_reserved": 0, "type": "electric_bike", "fusion_lat": 0.0, "is_disabled": 0, "rental_uris": {"ios": "https://dc.lft.to/lastmile_qr_scan", "android": "https://dc.lft.to/lastmile_qr_scan"}, "bike_id": "a12dd184b0dce36867572caf21ada968", "lat": 38.930264333333334, "name": "a12dd184b0dce36867572caf21ada968", "lon": -77.02056033333334, "fusion_lon": 0.0}, {"is_reserved": 0, "type": "electric_scooter", "fusion_lat": 0.0, "is_disabled": 0, "rental_uris": {"ios": "https://dc.lft.to/lastmile_qr_scan", "android": "https://dc.lft.to/lastmile_qr_scan"}, "bike_id": "ae99648ab9112e46f4944c5ad32b0115", "lat": 38.94175233333333, "name": "ae99648ab9112e46f4944c5ad32b0115", "lon": -77.025377, "fusion_lon": 0.0}, {"is_reserved": 0, "type": "electric_scooter", "fusion_lat": 0.0, "is_disabled": 0, "rental_uris": {"ios": "https://dc.lft.to/lastmile_qr_scan", "android": "https://dc.lft.to/lastmile_qr_scan"}, "bike_id": "2cf0b2fb0617c38bd2e408d7ddc0b398", "lat": 38.91000283333333, "name": "2cf0b2fb0617c38bd2e408d7ddc0b398", "lon": -77.026892, "fusion_lon": 0.0}, {"is_reserved": 0, "type": "electric_bike", "fusion_lat": 0.0, "is_disabled": 0, "rental_uris": {"ios": "https://dc.lft.to/lastmile_qr_scan", "android": "https://dc.lft.to/lastmile_qr_scan"}, "bike_id": "089ce653d2fb65dbe7fa07afd885533b", "lat": 38.925507, "name": "089ce653d2fb65dbe7fa07afd885533b", "lon": -77.00141783333333, "fusion_lon": 0.0}, {"is_reserved": 0, "type": "electric_scooter", "fusion_lat": 0.0, "is_disabled": 0, "rental_uris": {"ios": "https://dc.lft.to/lastmile_qr_scan", "android": "https://dc.lft.to/lastmile_qr_scan"}, "bike_id": "3cf16d8991018678a4b44b0e8974400b", "lat": 38.88767033333333, "name": "3cf16d8991018678a4b44b0e8974400b", "lon": -77.00045166666666, "fusion_lon": 0.0}, {"is_reserved": 0, "type": "electric_scooter", "fusion_lat": 0.0, "is_disabled": 0, "rental_uris": {"ios": "https://dc.lft.to/lastmile_qr_scan", "android": "https://dc.lft.to/lastmile_qr_scan"}, "bike_id": "8a4e7de4892941fef97d3113435188c5", "lat": 38.92077883333333, "name": "8a4e7de4892941fef97d3113435188c5", "lon": -77.0237975, "fusion_lon": 0.0}, {"is_reserved": 0, "type": "electric_scooter", "fusion_lat": 0.0, "is_disabled": 0, "rental_uris": {"ios": "https://dc.lft.to/lastmile_qr_scan", "android": "https://dc.lft.to/lastmile_qr_scan"}, "bike_id": "bf32bf7a4503ce708d623b8cfaccb3be", "lat": 38.920962333333335, "name": "bf32bf7a4503ce708d623b8cfaccb3be", "lon": -77.03660833333333, "fusion_lon": 0.0}, {"is_reserved": 0, "type": "electric_bike", "fusion_lat": 0.0, "is_disabled": 0, "rental_uris": {"ios": "https://dc.lft.to/lastmile_qr_scan", "android": "https://dc.lft.to/lastmile_qr_scan"}, "bike_id": "fe478b3b58fc06bcf8ad64028004caf6", "lat": 38.85087516666667, "name": "fe478b3b58fc06bcf8ad64028004caf6", "lon": -76.98158616666667, "fusion_lon": 0.0}, {"is_reserved": 0, "type": "electric_bike", "fusion_lat": 0.0, "is_disabled": 0, "rental_uris": {"ios": "https://dc.lft.to/lastmile_qr_scan", "android": "https://dc.lft.to/lastmile_qr_scan"}, "bike_id": "40b05da0a453b81ee05ae6230fce394a", "lat": 38.9673095, "name": "40b05da0a453b81ee05ae6230fce394a", "lon": -77.08909816666667, "fusion_lon": 0.0}, {"is_reserved": 0, "type": "electric_bike", "fusion_lat": 0.0, "is_disabled": 0, "rental_uris": {"ios": "https://dc.lft.to/lastmile_qr_scan", "android": "https://dc.lft.to/lastmile_qr_scan"}, "bike_id": "fab424a453e955e2fa8b61d66adfca5a", "lat": 38.91458466666667, "name": "fab424a453e955e2fa8b61d66adfca5a", "lon": -76.97282133333333, "fusion_lon": 0.0}, {"is_reserved": 0, "type": "electric_bike", "fusion_lat": 0.0, "is_disabled": 0, "rental_uris": {"ios": "https://dc.lft.to/lastmile_qr_scan", "android": "https://dc.lft.to/lastmile_qr_scan"}, "bike_id": "c4f3dc505d803dc08f6bb8c41334b14c", "lat": 38.835847, "name": "c4f3dc505d803dc08f6bb8c41334b14c", "lon": -76.99015566666667, "fusion_lon": 0.0}, {"is_reserved": 0, "type": "electric_scooter", "fusion_lat": 0.0, "is_disabled": 0, "rental_uris": {"ios": "https://dc.lft.to/lastmile_qr_scan", "android": "https://dc.lft.to/lastmile_qr_scan"}, "bike_id": "db05fed1a829e097dcbde2f75513fb42", "lat": 38.9332665, "name": "db05fed1a829e097dcbde2f75513fb42", "lon": -77.02916933333333, "fusion_lon": 0.0}, {"is_reserved": 0, "type": "electric_scooter", "fusion_lat": 0.0, "is_disabled": 0, "rental_uris": {"ios": "https://dc.lft.to/lastmile_qr_scan", "android": "https://dc.lft.to/lastmile_qr_scan"}, "bike_id": "7de8a34326ab208fb9b244c78f164aed", "lat": 38.90136583333334, "name": "7de8a34326ab208fb9b244c78f164aed", "lon": -76.97416533333333, "fusion_lon": 0.0}, {"is_reserved": 0, "type": "electric_scooter", "fusion_lat": 0.0, "is_disabled": 0, "rental_uris": {"ios": "https://dc.lft.to/lastmile_qr_scan", "android": "https://dc.lft.to/lastmile_qr_scan"}, "bike_id": "8372218f946fe75b5943a5713aef4841", "lat": 38.936270666666665, "name": "8372218f946fe75b5943a5713aef4841", "lon": -77.03660416666666, "fusion_lon": 0.0}, {"is_reserved": 0, "type": "electric_scooter", "fusion_lat": 0.0, "is_disabled": 0, "rental_uris": {"ios": "https://dc.lft.to/lastmile_qr_scan", "android": "https://dc.lft.to/lastmile_qr_scan"}, "bike_id": "a38e2efbe0b3391eb1d7caf1d3ebaa74", "lat": 38.900313, "name": "a38e2efbe0b3391eb1d7caf1d3ebaa74", "lon": -76.9983185, "fusion_lon": 0.0}, {"is_reserved": 0, "type": "electric_scooter", "fusion_lat": 0.0, "is_disabled": 0, "rental_uris": {"ios": "https://dc.lft.to/lastmile_qr_scan", "android": "https://dc.lft.to/lastmile_qr_scan"}, "bike_id": "caf75f270af9945b9960db29588df4a6", "lat": 38.926556166666664, "name": "caf75f270af9945b9960db29588df4a6", "lon": -77.024348, "fusion_lon": 0.0}, {"is_reserved": 0, "type": "electric_bike", "fusion_lat": 0.0, "is_disabled": 0, "rental_uris": {"ios": "https://dc.lft.to/lastmile_qr_scan", "android": "https://dc.lft.to/lastmile_qr_scan"}, "bike_id": "8b5b8e524d2102fd3f932c2e97153238", "lat": 38.9253955, "name": "8b5b8e524d2102fd3f932c2e97153238", "lon": -77.07337766666667, "fusion_lon": 0.0}, {"is_reserved": 0, "type": "electric_scooter", "fusion_lat": 0.0, "is_disabled": 0, "rental_uris": {"ios": "https://dc.lft.to/lastmile_qr_scan", "android": "https://dc.lft.to/lastmile_qr_scan"}, "bike_id": "455198b9b66be68cdff9337722e461fb", "lat": 38.909691333333335, "name": "455198b9b66be68cdff9337722e461fb", "lon": -77.04461183333333, "fusion_lon": 0.0}, {"is_reserved": 0, "type": "electric_scooter", "fusion_lat": 0.0, "is_disabled": 0, "rental_uris": {"ios": "https://dc.lft.to/lastmile_qr_scan", "android": "https://dc.lft.to/lastmile_qr_scan"}, "bike_id": "6b4f5feea8c3492bf2a56862347e29e4", "lat": 38.920175, "name": "6b4f5feea8c3492bf2a56862347e29e4", "lon": -76.99564183333334, "fusion_lon": 0.0}, {"is_reserved": 0, "type": "electric_bike", "fusion_lat": 0.0, "is_disabled": 0, "rental_uris": {"ios": "https://dc.lft.to/lastmile_qr_scan", "android": "https://dc.lft.to/lastmile_qr_scan"}, "bike_id": "5922fcb6cbbe8a009432821a3b4b0e03", "lat": 38.871740333333335, "name": "5922fcb6cbbe8a009432821a3b4b0e03", "lon": -77.23391933333333, "fusion_lon": 0.0}, {"is_reserved": 0, "type": "electric_scooter", "fusion_lat": 0.0, "is_disabled": 0, "rental_uris": {"ios": "https://dc.lft.to/lastmile_qr_scan", "android": "https://dc.lft.to/lastmile_qr_scan"}, "bike_id": "a5406b3802fa6686d07d72cb3c850ae1", "lat": 38.908744166666665, "name": "a5406b3802fa6686d07d72cb3c850ae1", "lon": -77.07152383333333, "fusion_lon": 0.0}, {"is_reserved": 0, "type": "electric_scooter", "fusion_lat": 0.0, "is_disabled": 0, "rental_uris": {"ios": "https://dc.lft.to/lastmile_qr_scan", "android": "https://dc.lft.to/lastmile_qr_scan"}, "bike_id": "abcd4ddce010705ede5663231d74d1a5", "lat": 38.916363833333335, "name": "abcd4ddce010705ede5663231d74d1a5", "lon": -77.02405183333333, "fusion_lon": 0.0}, {"is_reserved": 0, "type": "electric_scooter", "fusion_lat": 0.0, "is_disabled": 0, "rental_uris": {"ios": "https://dc.lft.to/lastmile_qr_scan", "android": "https://dc.lft.to/lastmile_qr_scan"}, "bike_id": "9471fa386c68926abd6d0694cedc78b7", "lat": 38.895505, "name": "9471fa386c68926abd6d0694cedc78b7", "lon": -76.9833965, "fusion_lon": 0.0}, {"is_reserved": 0, "type": "electric_bike", "fusion_lat": 0.0, "is_disabled": 0, "rental_uris": {"ios": "https://dc.lft.to/lastmile_qr_scan", "android": "https://dc.lft.to/lastmile_qr_scan"}, "bike_id": "d61a09cd262db3942764124eafd5bb76", "lat": 39.000099666666664, "name": "d61a09cd262db3942764124eafd5bb76", "lon": -76.9180045, "fusion_lon": 0.0}, {"is_reserved": 0, "type": "electric_scooter", "fusion_lat": 0.0, "is_disabled": 0, "rental_uris": {"ios": "https://dc.lft.to/lastmile_qr_scan", "android": "https://dc.lft.to/lastmile_qr_scan"}, "bike_id": "ffacee66be95cbb0cb657c8638bbccee", "lat": 38.89365083333333, "name": "ffacee66be95cbb0cb657c8638bbccee", "lon": -76.94113916666667, "fusion_lon": 0.0}, {"is_reserved": 0, "type": "electric_scooter", "fusion_lat": 0.0, "is_disabled": 0, "rental_uris": {"ios": "https://dc.lft.to/lastmile_qr_scan", "android": "https://dc.lft.to/lastmile_qr_scan"}, "bike_id": "ad40da4a36cbc3736812dd508f5676dc", "lat": 38.907317666666664, "name": "ad40da4a36cbc3736812dd508f5676dc", "lon": -77.0282125, "fusion_lon": 0.0}, {"is_reserved": 0, "type": "electric_bike", "fusion_lat": 0.0, "is_disabled": 0, "rental_uris": {"ios": "https://dc.lft.to/lastmile_qr_scan", "android": "https://dc.lft.to/lastmile_qr_scan"}, "bike_id": "51b544152427169c1ade2e79c08d0aa9", "lat": 38.80739716666667, "name": "51b544152427169c1ade2e79c08d0aa9", "lon": -77.096894, "fusion_lon": 0.0},