{"data": {"bikes": [{"rental_uris": {"android": "https://dc.lft.to/lastmile_qr_scan", "ios": "https://dc.lft.to/lastmile_qr_scan"}, "is_reserved": 0, "is_disabled": 0, "name": "1d297608742081e37478e0957d38b779", "bike_id": "1d297608742081e37478e0957d38b779", "fusion_lat": 0.0, "lon": -76.99114866666666, "type": "electric_scooter", "fusion_lon": 0.0, "lat": 38.9090175}, {"rental_uris": {"android": "https://dc.lft.to/lastmile_qr_scan", "ios": "https://dc.lft.to/lastmile_qr_scan"}, "is_reserved": 0, "is_disabled": 0, "name": "776ba6aba9bf3b1cbee8d780d5202562", "bike_id": "776ba6aba9bf3b1cbee8d780d5202562", "fusion_lat": 0.0, "lon": -77.05266333333333, "type": "electric_scooter", "fusion_lon": 0.0, "lat": 38.90150533333333}, {"rental_uris": {"android": "https://dc.lft.to/lastmile_qr_scan", "ios": "https://dc.lft.to/lastmile_qr_scan"}, "is_reserved": 0, "is_disabled": 0, "name": "6a7a85d29e745f2121e190ee1fad2371", "bike_id": "6a7a85d29e745f2121e190ee1fad2371", "fusion_lat": 0.0, "lon": -76.97535466666666, "type": "electric_bike", "fusion_lon": 0.0, "lat": 38.9033285}, {"rental_uris": {"android": "https://dc.lft.to/lastmile_qr_scan", "ios": "https://dc.lft.to/lastmile_qr_scan"}, "is_reserved": 0, "is_disabled": 0, "name": "f9d0e89508e5cbc4cb40ec3bf1dfbbbc", "bike_id": "f9d0e89508e5cbc4cb40ec3bf1dfbbbc", "fusion_lat": 0.0, "lon": -77.03093566666666, "type": "electric_scooter", "fusion_lon": 0.0, "lat": 38.90052083333333}, {"rental_uris": {"android": "https://dc.lft.to/lastmile_qr_scan", "ios": "https://dc.lft.to/lastmile_qr_scan"}, "is_reserved": 0, "is_disabled": 0, "name": "77a163f342237623d9e47605ae39e362", "bike_id": "77a163f342237623d9e47605ae39e362", "fusion_lat": 0.0, "lon": -77.046422, "type": "electric_scooter", "fusion_lon": 0.0, "lat": 38.90469983333333}, {"rental_uris": {"android": "https://dc.lft.to/lastmile_qr_scan", "ios": "https://dc.lft.to/lastmile_qr_scan"}, "is_reserved": 0, "is_disabled": 0, "name": "3b72506db36cf8b3a567b76a530565d0", "bike_id": "3b72506db36cf8b3a567b76a530565d0", "fusion_lat": 0.0, "lon": -77.050067, "type": "electric_scooter", "fusion_lon": 0.0, "lat": 38.892312833333335}, {"rental_uris": {"android": "https://dc.lft.to/lastmile_qr_scan", "ios": "https://dc.lft.to/lastmile_qr_scan"}, "is_reserved": 0, "is_disabled": 0, "name": "92ce09eadc8f7cafdfa681963ab12e12", "bike_id": "92ce09eadc8f7cafdfa681963ab12e12", "fusion_lat": 0.0, "lon": -77.03677133333333, "type": "electric_scooter", "fusion_lon": 0.0, "lat": 38.9038045}, {"rental_uris": {"android": "https://dc.lft.to/lastmile_qr_scan", "ios": "https://dc.lft.to/lastmile_qr_scan"}, "is_reserved": 0, "is_disabled": 0, "name": "cbe06fee89b8c36fa54c60bcc6c2a97f", "bike_id": "cbe06fee89b8c36fa54c60bcc6c2a97f", "fusion_lat": 0.0, "lon": -77.01888083333333, "type": "electric_scooter", "fusion_lon": 0.0, "lat": 38.91486033333334}, {"rental_uris": {"android": "https://dc.lft.to/lastmile_qr_scan", "ios": "https://dc.lft.to/lastmile_qr_scan"}, "is_reserved": 0, "is_disabled": 0, "name": "3d8928c10c7d686a7cd7e9f9303a6c62", "bike_id": "3d8928c10c7d686a7cd7e9f9303a6c62", "fusion_lat": 0.0, "lon": -76.95203166666667, "type": "electric_scooter", "fusion_lon": 0.0, "lat": 38.90511766666667}, {"rental_uris": {"android": "https://dc.lft.to/lastmile_qr_scan", "ios": "https://dc.lft.to/lastmile_qr_scan"}, "is_reserved": 0, "is_disabled": 0, "name": "41b4a15be3f031ba92b6d1ad9a9ffc7d", "bike_id": "41b4a15be3f031ba92b6d1ad9a9ffc7d", "fusion_lat": 0.0, "lon": -77.0006945, "type": "electric_scooter", "fusion_lon": 0.0, "lat": 38.8766525}, {"rental_uris": {"android": "https://dc.lft.to/lastmile_qr_scan", "ios": "https://dc.lft.to/lastmile_qr_scan"}, "is_reserved": 0, "is_disabled": 0, "name": "ad48aef2f4cdb923427532a28bc7cfca", "bike_id": "ad48aef2f4cdb923427532a28bc7cfca", "fusion_lat": 0.0, "lon": -77.04364216666667, "type": "electric_scooter", "fusion_lon": 0.0, "lat": 38.9045525}, {"rental_uris": {"android": "https://dc.lft.to/lastmile_qr_scan", "ios": "https://dc.lft.to/lastmile_qr_scan"}, "is_reserved": 0, "is_disabled": 0, "name": "b39d66ef54ed438910454230ade90976", "bike_id": "b39d66ef54ed438910454230ade90976", "fusion_lat": 0.0, "lon": -77.03657016666666, "type": "electric_scooter", "fusion_lon": 0.0, "lat": 38.906824}, {"rental_uris": {"android": "https://dc.lft.to/lastmile_qr_scan", "ios": "https://dc.lft.to/lastmile_qr_scan"}, "is_reserved": 0, "is_disabled": 0, "name": "35618e39d27a042cc560d2603724351f", "bike_id": "35618e39d27a042cc560d2603724351f", "fusion_lat": 0.0, "lon": -77.046114, "type": "electric_scooter", "fusion_lon": 0.0, "lat": 38.8982975}, {"rental_uris": {"android": "https://dc.lft.to/lastmile_qr_scan", "ios": "https://dc.lft.to/lastmile_qr_scan"}, "is_reserved": 0, "is_disabled": 0, "name": "c1624a3936f30f0614831b205c7c9907", "bike_id": "c1624a3936f30f0614831b205c7c9907", "fusion_lat": 0.0, "lon": -77.04184866666667, "type": "electric_scooter", "fusion_lon": 0.0, "lat": 38.90459116666667}, {"rental_uris": {"android": "https://dc.lft.to/lastmile_qr_scan", "ios": "https://dc.lft.to/lastmile_qr_scan"}, "is_reserved": 0, "is_disabled": 0, "name": "f8977cb71171b25e3d24450d5cbcc42c", "bike_id": "f8977cb71171b25e3d24450d5cbcc42c", "fusion_lat": 0.0, "lon": -76.99512083333333, "type": "electric_scooter", "fusion_lon": 0.0, "lat": 38.88243333333333}, {"rental_uris": {"android": "https://dc.lft.to/lastmile_qr_scan", "ios": "https://dc.lft.to/lastmile_qr_scan"}, "is_reserved": 0, "is_disabled": 0, "name": "79b3257e81190558954665a1ad53478d", "bike_id": "79b3257e81190558954665a1ad53478d", "fusion_lat": 0.0, "lon": -77.05262983333333, "type": "electric_scooter", "fusion_lon": 0.0, "lat": 38.92570383333333}, {"rental_uris": {"android": "https://dc.lft.to/lastmile_qr_scan", "ios": "https://dc.lft.to/lastmile_qr_scan"}, "is_reserved": 0, "is_disabled": 0, "name": "f9e2384ce06ef50097bc5977d12b6b55", "bike_id": "f9e2384ce06ef50097bc5977d12b6b55", "fusion_lat": 0.0, "lon": -77.14872233333334, "type": "electric_bike", "fusion_lon": 0.0, "lat": 38.87741583333333}, {"rental_uris": {"android": "https://dc.lft.to/lastmile_qr_scan", "ios": "https://dc.lft.to/lastmile_qr_scan"}, "is_reserved": 0, "is_disabled": 0, "name": "ca857719866c5e28c68efcce05cb5ba8", "bike_id": "ca857719866c5e28c68efcce05cb5ba8", "fusion_lat": 0.0, "lon": -77.037972, "type": "electric_scooter", "fusion_lon": 0.0, "lat": 38.924362}, {"rental_uris": {"android": "https://dc.lft.to/lastmile_qr_scan", "ios": "https://dc.lft.to/lastmile_qr_scan"}, "is_reserved": 0, "is_disabled": 0, "name": "7fcc4100b98856a9bf7f2e54538524ad", "bike_id": "7fcc4100b98856a9bf7f2e54538524ad", "fusion_lat": 0.0, "lon": -77.02179116666667, "type": "electric_scooter", "fusion_lon": 0.0, "lat": 38.892253}, {"rental_uris": {"android": "https://dc.lft.to/lastmile_qr_scan", "ios": "https://dc.lft.to/lastmile_qr_scan"}, "is_reserved": 0, "is_disabled": 0, "name": "6f03347212b9e36db8ce7ea8faf239f3", "bike_id": "6f03347212b9e36db8ce7ea8faf239f3", "fusion_lat": 0.0, "lon": -76.948753, "type": "electric_scooter", "fusion_lon": 0.0, "lat": 38.89501}, {"rental_uris": {"android": "https://dc.lft.to/lastmile_qr_scan", "ios": "https://dc.lft.to/lastmile_qr_scan"}, "is_reserved": 0, "is_disabled": 0, "name": "f5f52385d9a2e64d4e163770a4e4d40a", "bike_id": "f5f52385d9a2e64d4e163770a4e4d40a", "fusion_lat": 0.0, "lon": -77.0331695, "type": "electric_scooter", "fusion_lon": 0.0, "lat": 38.900265833333336}, {"rental_uris": {"android": "https://dc.lft.to/lastmile_qr_scan", "ios": "https://dc.lft.to/lastmile_qr_scan"}, "is_reserved": 0, "is_disabled": 0, "name": "efb43992fc969f8b0d89520117dad757", "bike_id": "efb43992fc969f8b0d89520117dad757", "fusion_lat": 0.0, "lon": -77.02698, "type": "electric_scooter", "fusion_lon": 0.0, "lat": 38.949792}, {"rental_uris": {"android": "https://dc.lft.to/lastmile_qr_scan", "ios": "https://dc.lft.to/lastmile_qr_scan"}, "is_reserved": 0, "is_disabled": 0, "name": "4396b0d502a8a62eb2124010275d8b92", "bike_id": "4396b0d502a8a62eb2124010275d8b92", "fusion_lat": 0.0, "lon": -77.03347633333334, "type": "electric_scooter", "fusion_lon": 0.0, "lat": 38.902915166666666}, {"rental_uris": {"android": "https://dc.lft.to/lastmile_qr_scan", "ios": "https://dc.lft.to/lastmile_qr_scan"}, "is_reserved": 0, "is_disabled": 0, "name": "d222e40df819296dc8d0bd7accf7dda9", "bike_id": "d222e40df819296dc8d0bd7accf7dda9", "fusion_lat": 0.0, "lon": -77.03853366666667, "type": "electric_scooter", "fusion_lon": 0.0, "lat": 38.903488833333334}, {"rental_uris": {"android": "https://dc.lft.to/lastmile_qr_scan", "ios": "https://dc.lft.to/lastmile_qr_scan"}, "is_reserved": 0, "is_disabled": 0, "name": "10660557265e68e427f8610efa6ab0ff", "bike_id": "10660557265e68e427f8610efa6ab0ff", "fusion_lat": 0.0, "lon": -77.020925, "type": "electric_scooter", "fusion_lon": 0.0, "lat": 38.927197166666666}, {"rental_uris": {"android": "https://dc.lft.to/lastmile_qr_scan", "ios": "https://dc.lft.to/lastmile_qr_scan"}, "is_reserved": 0, "is_disabled": 0, "name": "41908af7a9f4f93cfa3bc69e22b643f0", "bike_id": "41908af7a9f4f93cfa3bc69e22b643f0", "fusion_lat": 0.0, "lon": -77.020332, "type": "electric_scooter", "fusion_lon": 0.0, "lat": 38.9242365}, {"rental_uris": {"android": "https://dc.lft.to/lastmile_qr_scan", "ios": "https://dc.lft.to/lastmile_qr_scan"}, "is_reserved": 0, "is_disabled": 0, "name": "906879e2a096b473eda7017fc56ff4d8", "bike_id": "906879e2a096b473eda7017fc56ff4d8", "fusion_lat": 0.0, "lon": -77.042795, "type": "electric_scooter", "fusion_lon": 0.0, "lat": 38.923107333333334}, {"rental_uris": {"android": "https://dc.lft.to/lastmile_qr_scan", "ios": "https://dc.lft.to/lastmile_qr_scan"}, "is_reserved": 0, "is_disabled": 0, "name": "56e9478c6a1c2e94088b031aa92bb940", "bike_id": "56e9478c6a1c2e94088b031aa92bb940", "fusion_lat": 0.0, "lon": -77.04637333333334, "type": "electric_scooter", "fusion_lon": 0.0, "lat": 38.900443333333335}, {"rental_uris": {"android": "https://dc.lft.to/lastmile_qr_scan", "ios": "https://dc.lft.to/lastmile_qr_scan"}, "is_reserved": 0, "is_disabled": 0, "name": "a8f1c0e2c58b803f0ee8bbdb94d9b3d6", "bike_id": "a8f1c0e2c58b803f0ee8bbdb94d9b3d6", "fusion_lat": 0.0, "lon": -77.04176083333333, "type": "electric_scooter", "fusion_lon": 0.0, "lat": 38.9160485}, {"rental_uris": {"android": "https://dc.lft.to/lastmile_qr_scan", "ios": "https://dc.lft.to/lastmile_qr_scan"}, "is_reserved": 0, "is_disabled": 0, "name": "eb145526845df2c5d2b30193f80def8d", "bike_id": "eb145526845df2c5d2b30193f80def8d", "fusion_lat": 0.0, "lon": -76.99505283333333, "type": "electric_scooter", "fusion_lon": 0.0, "lat": 38.862479}, {"rental_uris": {"android": "https://dc.lft.to/lastmile_qr_scan", "ios": "https://dc.lft.to/lastmile_qr_scan"}, "is_reserved": 0, "is_disabled": 0, "name": "a46930e0520020cfb8b9a72215b77432", "bike_id": "a46930e0520020cfb8b9a72215b77432", "fusion_lat": 0.0, "lon": -77.022147, "type": "electric_scooter", "fusion_lon": 0.0, "lat": 38.89633933333333}, {"rental_uris": {"android": "https://dc.lft.to/lastmile_qr_scan", "ios": "https://dc.lft.to/lastmile_qr_scan"}, "is_reserved": 0, "is_disabled": 0, "name": "acbb07c038612270e75b7e617457afbd", "bike_id": "acbb07c038612270e75b7e617457afbd", "fusion_lat": 0.0, "lon": -77.03206833333333, "type": "electric_scooter", "fusion_lon": 0.0, "lat": 38.91611916666667}, {"rental_uris": {"android": "https://dc.lft.to/lastmile_qr_scan", "ios": "https://dc.lft.to/lastmile_qr_scan"}, "is_reserved": 0, "is_disabled": 0, "name": "a5304bdc98b45fec12899afe41d7e5e2", "bike_id": "a5304bdc98b45fec12899afe41d7e5e2", "fusion_lat": 0.0, "lon": -77.0513755, "type": "electric_scooter", "fusion_lon": 0.0, "lat": 38.90637666666667}, {"rental_uris": {"android": "https://dc.lft.to/lastmile_qr_scan", "ios": "https://dc.lft.to/lastmile_qr_scan"}, "is_reserved": 0, "is_disabled": 0, "name": "2f27e566005f677d768542b50412f509", "bike_id": "2f27e566005f677d768542b50412f509", "fusion_lat": 0.0, "lon": -77.03394983333334, "type": "electric_scooter", "fusion_lon": 0.0, "lat": 38.941779333333336}, {"rental_uris": {"android": "https://dc.lft.to/lastmile_qr_scan", "ios": "https://dc.lft.to/lastmile_qr_scan"}, "is_reserved": 0, "is_disabled": 0, "name": "7a627f4e67473c12a173bf8b20c7cc2d", "bike_id": "7a627f4e67473c12a173bf8b20c7cc2d", "fusion_lat": 0.0, "lon": -77.00569566666667, "type": "electric_scooter", "fusion_lon": 0.0, "lat": 38.885038}, {"rental_uris": {"android": "https://dc.lft.to/lastmile_qr_scan", "ios": "https://dc.lft.to/lastmile_qr_scan"}, "is_reserved": 0, "is_disabled": 0, "name": "0e13bb7946166d7f791cc25767673e76", "bike_id": "0e13bb7946166d7f791cc25767673e76", "fusion_lat": 0.0, "lon": -77.0436935, "type": "electric_scooter", "fusion_lon": 0.0, "lat": 38.900278166666666}, {"rental_uris": {"android": "https://dc.lft.to/lastmile_qr_scan", "ios": "https://dc.lft.to/lastmile_qr_scan"}, "is_reserved": 0, "is_disabled": 0, "name": "d781d9e66ee1c9f5fb2897ea13d52132", "bike_id": "d781d9e66ee1c9f5fb2897ea13d52132", "fusion_lat": 0.0, "lon": -77.0214845, "type": "electric_scooter", "fusion_lon": 0.0, "lat": 38.9048125}, {"rental_uris": {"android": "https://dc.lft.to/lastmile_qr_scan", "ios": "https://dc.lft.to/lastmile_qr_scan"}, "is_reserved": 0, "is_disabled": 0, "name": "59d0a0b8b8ea30f00e59fcc27fb0cd4d", "bike_id": "59d0a0b8b8ea30f00e59fcc27fb0cd4d", "fusion_lat": 0.0, "lon": -77.034332, "type": "electric_scooter", "fusion_lon": 0.0, "lat": 38.90566533333333}, {"rental_uris": {"android": "https://dc.lft.to/lastmile_qr_scan", "ios": "https://dc.lft.to/lastmile_qr_scan"}, "is_reserved": 0, "is_disabled": 0, "name": "b1bcd0ad0a6424e9a4ebc0b6fa5fe4d2", "bike_id": "b1bcd0ad0a6424e9a4ebc0b6fa5fe4d2", "fusion_lat": 0.0, "lon": -77.02117783333334, "type": "electric_scooter", "fusion_lon": 0.0, "lat": 38.923599833333334}, {"rental_uris": {"android": "https://dc.lft.to/lastmile_qr_scan", "ios": "https://dc.lft.to/lastmile_qr_scan"}, "is_reserved": 0, "is_disabled": 0, "name": "02dfa64d3681292fee68835e73b3ead4", "bike_id": "02dfa64d3681292fee68835e73b3ead4", "fusion_lat": 0.0, "lon": -77.01334883333334, "type": "electric_scooter", "fusion_lon": 0.0, "lat": 38.88125766666667}, {"rental_uris": {"android": "https://dc.lft.to/lastmile_qr_scan", "ios": "https://dc.lft.to/lastmile_qr_scan"}, "is_reserved": 0, "is_disabled": 0, "name": "3a059eab11c7e87258cacd28042128b2", "bike_id": "3a059eab11c7e87258cacd28042128b2", "fusion_lat": 0.0, "lon": -77.02195416666666, "type": "electric_scooter", "fusion_lon": 0.0, "lat": 38.91376116666667}, {"rental_uris": {"android": "https://dc.lft.to/lastmile_qr_scan", "ios": "https://dc.lft.to/lastmile_qr_scan"}, "is_reserved": 0, "is_disabled": 0, "name": "4dd4a1a32580ff3ef1df97ae5bbf1275", "bike_id": "4dd4a1a32580ff3ef1df97ae5bbf1275", "fusion_lat": 0.0, "lon": -76.97897733333333, "type": "electric_bike", "fusion_lon": 0.0, "lat": 38.9269625}, {"rental_uris": {"android": "https://dc.lft.to/lastmile_qr_scan", "ios": "https://dc.lft.to/lastmile_qr_scan"}, "is_reserved": 0, "is_disabled": 0, "name": "31b7f85278beb7b5f99e450b71ee9338", "bike_id": "31b7f85278beb7b5f99e450b71ee9338", "fusion_lat": 0.0, "lon": -77.05335433333333, "type": "electric_scooter", "fusion_lon": 0.0, "lat": 38.92317333333333}, {"rental_uris": {"android": "https://dc.lft.to/lastmile_qr_scan", "ios": "https://dc.lft.to/lastmile_qr_scan"}, "is_reserved": 0, "is_disabled": 0, "name": "d5a0a5be320c99ce42e12aefc58e4c42", "bike_id": "d5a0a5be320c99ce42e12aefc58e4c42", "fusion_lat": 0.0, "lon": -76.9969815, "type": "electric_scooter", "fusion_lon": 0.0, "lat": 38.884235333333336}, {"rental_uris": {"android": "https://dc.lft.to/lastmile_qr_scan", "ios": "https://dc.lft.to/lastmile_qr_scan"}, "is_reserved": 0, "is_disabled": 0, "name": "d60b8270c9ede6ffa0ce26edb0000ab9", "bike_id": "d60b8270c9ede6ffa0ce26edb0000ab9", "fusion_lat": 0.0, "lon": -77.04428, "type": "electric_bike", "fusion_lon": 0.0, "lat": 38.901606}, {"rental_uris": {"android": "https://dc.lft.to/lastmile_qr_scan", "ios": "https://dc.lft.to/lastmile_qr_scan"}, "is_reserved": 0, "is_disabled": 0, "name": "0d3100b5965be36eaf9cd8ccb214febe", "bike_id": "0d3100b5965be36eaf9cd8ccb214febe", "fusion_lat": 0.0, "lon": -77.04185316666667, "type": "electric_scooter", "fusion_lon": 0.0, "lat": 38.90570183333333}, {"rental_uris": {"android": "https://dc.lft.to/lastmile_qr_scan", "ios": "https://dc.lft.to/lastmile_qr_scan"}, "is_reserved": 0, "is_disabled": 0, "name": "92c9648b91fb23303cc18b70e38f4b11", "bike_id": "92c9648b91fb23303cc18b70e38f4b11", "fusion_lat": 0.0, "lon": -77.05440033333333, "type": "electric_scooter", "fusion_lon": 0.0, "lat": 38.896031}, {"rental_uris": {"android": "https://dc.lft.to/lastmile_qr_scan", "ios": "https://dc.lft.to/lastmile_qr_scan"}, "is_reserved": 0, "is_disabled": 0, "name": "441e43c9ee657d63232e6f34d9b192e1", "bike_id": "441e43c9ee657d63232e6f34d9b192e1", "fusion_lat": 0.0, "lon": -77.02360316666666, "type": "electric_scooter", "fusion_lon": 0.0, "lat": 38.920471166666665}, {"rental_uris": {"android": "https://dc.lft.to/lastmile_qr_scan", "ios": "https://dc.lft.to/lastmile_qr_scan"}, "is_reserved": 0, "is_disabled": 0, "name": "f3defbba5c84334f3283425f7f336820", "bike_id": "f3defbba5c84334f3283425f7f336820", "fusion_lat": 0.0, "lon": -76.9978935, "type": "electric_scooter", "fusion_lon": 0.0, "lat": 38.900158833333336}, {"rental_uris": {"android": "https://dc.lft.to/lastmile_qr_scan", "ios": "https://dc.lft.to/lastmile_qr_scan"}, "is_reserved": 0, "is_disabled": 0, "name": "74090f9b70a2d1cfc937929ab5e36df5", "bike_id": "74090f9b70a2d1cfc937929ab5e36df5", "fusion_lat": 0.0, "lon": -76.99113283333334, "type": "electric_scooter", "fusion_lon": 0.0, "lat": 38.90025683333333}, {"rental_uris": {"android": "https://dc.lft.to/lastmile_qr_scan", "ios": "https://dc.lft.to/lastmile_qr_scan"}, "is_reserved": 0, "is_disabled": 0, "name": "5c94435f65b20c0df4dffc1a5d8c66d4", "bike_id": "5c94435f65b20c0df4dffc1a5d8c66d4", "fusion_lat": 0.0, "lon": -77.03168916666667, "type": "electric_scooter", "fusion_lon": 0.0, "lat": 38.91564366666667}, {"rental_uris": {"android": "https://dc.lft.to/lastmile_qr_scan", "ios": "https://dc.lft.to/lastmile_qr_scan"}, "is_reserved": 0, "is_disabled": 0, "name": "726bc67508022f960835291c8ecceedb", "bike_id": "726bc67508022f960835291c8ecceedb", "fusion_lat": 0.0, "lon": -77.00379216666667, "type": "electric_scooter", "fusion_lon": 0.0, "lat": 38.90748683333333}, {"rental_uris": {"android": "https://dc.lft.to/lastmile_qr_scan", "ios": "https://dc.lft.to/lastmile_qr_scan"}, "is_reserved": 0, "is_disabled": 0, "name": "627d2f770f28606a2a08f782e368fb27", "bike_id": "627d2f770f28606a2a08f782e368fb27", "fusion_lat": 0.0, "lon": -77.00726283333333, "type": "electric_scooter", "fusion_lon": 0.0, "lat": 38.91189416666667}, {"rental_uris": {"android": "https://dc.lft.to/lastmile_qr_scan", "ios": "https://dc.lft.to/lastmile_qr_scan"}, "is_reserved": 0, "is_disabled": 0, "name": "2feee667bc27a896eb4436538b83e331", "bike_id": "2feee667bc27a896eb4436538b83e331", "fusion_lat": 0.0, "lon": -77.04216433333333, "type": "electric_scooter", "fusion_lon": 0.0, "lat": 38.909149166666666}, {"rental_uris": {"android": "https://dc.lft.to/lastmile_qr_scan", "ios": "https://dc.lft.to/lastmile_qr_scan"}, "is_reserved": 0, "is_disabled": 0, "name": "f39fd410cc06bd224c6af669f3a3bfd9", "bike_id": "f39fd410cc06bd224c6af669f3a3bfd9", "fusion_lat": 0.0, "lon": -77.016802, "type": "electric_scooter", "fusion_lon": 0.0, "lat": 38.92042516666667}, {"rental_uris": {"android": "https://dc.lft.to/lastmile_qr_scan", "ios": "https://dc.lft.to/lastmile_qr_scan"}, "is_reserved": 0, "is_disabled": 0, "name": "f601b505b1a59e8eacc0bded17818f40", "bike_id": "f601b505b1a59e8eacc0bded17818f40", "fusion_lat": 0.0, "lon": -77.02611016666667, "type": "electric_scooter", "fusion_lon": 0.0, "lat": 38.903794833333336}, {"rental_uris": {"android": "https://dc.lft.to/lastmile_qr_scan", "ios": "https://dc.lft.to/lastmile_qr_scan"}, "is_reserved": 0, "is_disabled": 0, "name": "74679e69329b9a68d5f20fd5637790d3", "bike_id": "74679e69329b9a68d5f20fd5637790d3", "fusion_lat": 0.0, "lon": -77.0210675, "type": "electric_scooter", "fusion_lon": 0.0, "lat": 38.9218085}, {"rental_uris": {"android": "https://dc.lft.to/lastmile_qr_scan", "ios": "https://dc.lft.to/lastmile_qr_scan"}, "is_reserved": 0, "is_disabled": 0, "name": "b8f4ef559bae2a9b5b135bf034babcf5", "bike_id": "b8f4ef559bae2a9b5b135bf034babcf5", "fusion_lat": 0.0, "lon": -77.0397745, "type": "electric_scooter", "fusion_lon": 0.0, "lat": 38.905584166666664}, {"rental_uris": {"android": "https://dc.lft.to/lastmile_qr_scan", "ios": "https://dc.lft.to/lastmile_qr_scan"}, "is_reserved": 0, "is_disabled": 0, "name": "addedb231ff96be8ef76b9c314facff6", "bike_id": "addedb231ff96be8ef76b9c314facff6", "fusion_lat": 0.0, "lon": -77.01727133333333, "type": "electric_scooter", "fusion_lon": 0.0, "lat": 38.97495283333333}, {"rental_uris": {"android": "https://dc.lft.to/lastmile_qr_scan", "ios": "https://dc.lft.to/lastmile_qr_scan"}, "is_reserved": 0, "is_disabled": 0, "name": "b1cfe483743ed837b24e751b74b33237", "bike_id": "b1cfe483743ed837b24e751b74b33237", "fusion_lat": 0.0, "lon": -77.05201183333334, "type": "electric_scooter", "fusion_lon": 0.0, "lat": 38.924382333333334}, {"rental_uris": {"android": "https://dc.lft.to/lastmile_qr_scan", "ios": "https://dc.lft.to/lastmile_qr_scan"}, "is_reserved": 0, "is_disabled": 0, "name": "09c73b40c0783a4610138722728d1898", "bike_id": "09c73b40c0783a4610138722728d1898", "fusion_lat": 0.0, "lon": -77.0088785, "type": "electric_scooter", "fusion_lon": 0.0, "lat": 38.924706}, {"rental_uris": {"android": "https://dc.lft.to/lastmile_qr_scan", "ios": "https://dc.lft.to/lastmile_qr_scan"}, "is_reserved": 0, "is_disabled": 0, "name": "1297b23ffc74243e3f46f33395acd731", "bike_id": "1297b23ffc74243e3f46f33395acd731", "fusion_lat": 0.0, "lon": -77.09689716666666, "type": "electric_bike", "fusion_lon": 0.0, "lat": 38.80741416666667}, {"rental_uris": {"android": "https://dc.lft.to/lastmile_qr_scan", "ios": "https://dc.lft.to/lastmile_qr_scan"}, "is_reserved": 0, "is_disabled": 0, "name": "266980d55633e9a199bd04ae5e737102", "bike_id": "266980d55633e9a199bd04ae5e737102", "fusion_lat": 0.0, "lon": -76.984363, "type": "electric_bike", "fusion_lon": 0.0, "lat": 38.855216166666665}, {"rental_uris": {"android": "https://dc.lft.to/lastmile_qr_scan", "ios": "https://dc.lft.to/lastmile_qr_scan"}, "is_reserved": 0, "is_disabled": 0, "name": "52414f98bf78ce5a1990667d1bffdf03", "bike_id": "52414f98bf78ce5a1990667d1bffdf03", "fusion_lat": 0.0, "lon": -77.0419325, "type": "electric_scooter", "fusion_lon": 0.0, "lat": 38.9205445}, {"rental_uris": {"android": "https://dc.lft.to/lastmile_qr_scan", "ios": "https://dc.lft.to/lastmile_qr_scan"}, "is_reserved": 0, "is_disabled": 0, "name": "779d4ee69cb7a609d537d72a4c1449da", "bike_id": "779d4ee69cb7a609d537d72a4c1449da", "fusion_lat": 0.0, "lon": -76.94873216666667, "type": "electric_scooter", "fusion_lon": 0.0, "lat": 38.89500116666667}, {"rental_uris": {"android": "https://dc.lft.to/lastmile_qr_scan", "ios": "https://dc.lft.to/lastmile_qr_scan"}, "is_reserved": 0, "is_disabled": 0, "name": "f66625774d51caea4aae5cafc94bcfe5", "bike_id": "f66625774d51caea4aae5cafc94bcfe5", "fusion_lat": 0.0, "lon": -77.023707, "type": "electric_scooter", "fusion_lon": 0.0, "lat": 38.90220016666667}, {"rental_uris": {"android": "https://dc.lft.to/lastmile_qr_scan", "ios": "https://dc.lft.to/lastmile_qr_scan"}, "is_reserved": 0, "is_disabled": 0, "name": "d8a29eb9f9fc1fed5cbda29f6d6d47d1", "bike_id": "d8a29eb9f9fc1fed5cbda29f6d6d47d1", "fusion_lat": 0.0, "lon": -77.05027566666666, "type": "electric_scooter", "fusion_lon": 0.0, "lat": 38.898162}, {"rental_uris": {"android": "https://dc.lft.to/lastmile_qr_scan", "ios": "https://dc.lft.to/lastmile_qr_scan"}, "is_reserved": 0, "is_disabled": 0, "name": "b1e22f99a30b95ec2fa5892be0e2508a", "bike_id": "b1e22f99a30b95ec2fa5892be0e2508a", "fusion_lat": 0.0, "lon": -77.04614, "type": "electric_scooter", "fusion_lon": 0.0, "lat": 38.8980825}, {"rental_uris": {"android": "https://dc.lft.to/lastmile_qr_scan", "ios": "https://dc.lft.to/lastmile_qr_scan"}, "is_reserved": 0, "is_disabled": 0, "name": "5ab92a042d479cb04683bee88fe266f8", "bike_id": "5ab92a042d479cb04683bee88fe266f8", "fusion_lat": 0.0, "lon": -77.04359766666667, "type": "electric_bike", "fusion_lon": 0.0, "lat": 38.89881183333333}, {"rental_uris": {"android": "https://dc.lft.to/lastmile_qr_scan", "ios": "https://dc.lft.to/lastmile_qr_scan"}, "is_reserved": 0, "is_disabled": 0, "name": "49f3db09b8b2c576525cf563b16b4e4f", "bike_id": "49f3db09b8b2c576525cf563b16b4e4f", "fusion_lat": 0.0, "lon": -77.005963, "type": "electric_scooter", "fusion_lon": 0.0, "lat": 38.8755105}, {"rental_uris": {"android": "https://dc.lft.to/lastmile_qr_scan", "ios": "https://dc.lft.to/lastmile_qr_scan"}, "is_reserved": 0, "is_disabled": 0, "name": "35495cfd0d33209b7afd67a01721898e", "bike_id": "35495cfd0d33209b7afd67a01721898e", "fusion_lat": 0.0, "lon": -77.04249533333333, "type": "electric_scooter", "fusion_lon": 0.0, "lat": 38.92067133333333}, {"rental_uris": {"android": "https://dc.lft.to/lastmile_qr_scan", "ios": "https://dc.lft.to/lastmile_qr_scan"}, "is_reserved": 0, "is_disabled": 0, "name": "3d1a52b527cf7acd18dc5f1799166111", "bike_id": "3d1a52b527cf7acd18dc5f1799166111", "fusion_lat": 0.0, "lon": -77.01522083333333, "type": "electric_scooter", "fusion_lon": 0.0, "lat": 38.8728085}, {"rental_uris": {"android": "https://dc.lft.to/lastmile_qr_scan", "ios": "https://dc.lft.to/lastmile_qr_scan"}, "is_reserved": 0, "is_disabled": 0, "name": "a1ae3d214aeeba75eed7f5b629a3c9ba", "bike_id": "a1ae3d214aeeba75eed7f5b629a3c9ba", "fusion_lat": 0.0, "lon": -76.98515883333333, "type": "electric_scooter", "fusion_lon": 0.0, "lat": 38.9004385}, {"rental_uris": {"android": "https://dc.lft.to/lastmile_qr_scan", "ios": "https://dc.lft.to/lastmile_qr_scan"}, "is_reserved": 0, "is_disabled": 0, "name": "506989c3eae2afe042b69adb4afef0fe", "bike_id": "506989c3eae2afe042b69adb4afef0fe", "fusion_lat": 0.0, "lon": -77.01943683333333, "type": "electric_scooter", "fusion_lon": 0.0, "lat": 38.92447633333333}, {"rental_uris": {"android": "https://dc.lft.to/lastmile_qr_scan", "ios": "https://dc.lft.to/lastmile_qr_scan"}, "is_reserved": 0, "is_disabled": 0, "name": "7de8c098db1486c3c0ef428f2ea86603", "bike_id": "7de8c098db1486c3c0ef428f2ea86603", "fusion_lat": 0.0, "lon": -77.23382083333334, "type": "electric_bike", "fusion_lon": 0.0, "lat": 38.871743333333335}, {"rental_uris": {"android": "https://dc.lft.to/lastmile_qr_scan", "ios": "https://dc.lft.to/lastmile_qr_scan"}, "is_reserved": 0, "is_disabled": 0, "name": "c4d0426903cf59434fc92aab0d1512a1", "bike_id": "c4d0426903cf59434fc92aab0d1512a1", "fusion_lat": 0.0, "lon": -77.03857866666667, "type": "electric_scooter", "fusion_lon": 0.0, "lat": 38.902685}, {"rental_uris": {"android": "https://dc.lft.to/lastmile_qr_scan", "ios": "https://dc.lft.to/lastmile_qr_scan"}, "is_reserved": 0, "is_disabled": 0, "name": "e127397daef7dde60a0363b284d89005", "bike_id": "e127397daef7dde60a0363b284d89005", "fusion_lat": 0.0, "lon": -77.02680466666666, "type": "electric_scooter", "fusion_lon": 0.0, "lat": 38.90665883333333}, {"rental_uris": {"android": "https://dc.lft.to/lastmile_qr_scan", "ios": "https://dc.lft.to/lastmile_qr_scan"}, "is_reserved": 0, "is_disabled": 0, "name": "455275d41ab1968a5866351eda9c9ff9", "bike_id": "455275d41ab1968a5866351eda9c9ff9", "fusion_lat": 0.0, "lon": -77.0212925, "type": "electric_scooter", "fusion_lon": 0.0, "lat": 38.92372533333333}, {"rental_uris": {"android": "https://dc.lft.to/lastmile_qr_scan", "ios": "https://dc.lft.to/lastmile_qr_scan"}, "is_reserved": 0, "is_disabled": 0, "name": "a4c7be7c57c0080df372deb8621780a2", "bike_id": "a4c7be7c57c0080df372deb8621780a2", "fusion_lat": 0.0, "lon": -77.022067, "type": "electric_bike", "fusion_lon": 0.0, "lat": 38.96490033333333}, {"rental_uris": {"android": "https://dc.lft.to/lastmile_qr_scan", "ios": "https://dc.lft.to/lastmile_qr_scan"}, "is_reserved": 0, "is_disabled": 0, "name": "b4e3ef2aaaf400bbd50abcd788b63807", "bike_id": "b4e3ef2aaaf400bbd50abcd788b63807", "fusion_lat": 0.0, "lon": -77.0178155, "type": "electric_bike", "fusion_lon": 0.0, "lat": 38.901337166666664}, {"rental_uris": {"android": "https://dc.lft.to/lastmile_qr_scan", "ios": "https://dc.lft.to/lastmile_qr_scan"}, "is_reserved": 0, "is_disabled": 0, "name": "ba68289d531ad7eda5ef876cd25c74c6", "bike_id": "ba68289d531ad7eda5ef876cd25c74c6", "fusion_lat": 0.0, "lon": -77.0249185, "type": "electric_scooter", "fusion_lon": 0.0, "lat": 38.917498333333334}, {"rental_uris": {"android": "https://dc.lft.to/lastmile_qr_scan", "ios": "https://dc.lft.to/lastmile_qr_scan"}, "is_reserved": 0, "is_disabled": 0, "name": "fe33abd68860f120444a86ccb6ddff99", "bike_id": "fe33abd68860f120444a86ccb6ddff99", "fusion_lat": 0.0, "lon": -77.0167535, "type": "electric_scooter", "fusion_lon": 0.0, "lat": 38.92038016666667}, {"rental_uris": {"android": "https://dc.lft.to/lastmile_qr_scan", "ios": "https://dc.lft.to/lastmile_qr_scan"}, "is_reserved": 0, "is_disabled": 0, "name": "93a42f46aa41d7589e2caa8737ade681", "bike_id": "93a42f46aa41d7589e2caa8737ade681", "fusion_lat": 0.0, "lon": -76.986366, "type": "electric_scooter", "fusion_lon": 0.0, "lat": 38.906798}, {"rental_uris": {"android": "https://dc.lft.to/lastmile_qr_scan", "ios": "https://dc.lft.to/lastmile_qr_scan"}, "is_reserved": 0, "is_disabled": 0, "name": "ea85145b13f81eee0892143baf78ec9a", "bike_id": "ea85145b13f81eee0892143baf78ec9a", "fusion_lat": 0.0, "lon": -77.02568833333333, "type": "electric_scooter", "fusion_lon": 0.0, "lat": 38.94196066666667}, {"rental_uris": {"android": "https://dc.lft.to/lastmile_qr_scan", "ios": "https://dc.lft.to/lastmile_qr_scan"}, "is_reserved": 0, "is_disabled": 0, "name": "f9f8d2f538be1866b9886e233a1b1e79", "bike_id": "f9f8d2f538be1866b9886e233a1b1e79", "fusion_lat": 0.0, "lon": -76.95535816666667, "type": "electric_scooter", "fusion_lon": 0.0, "lat": 38.887801}, {"rental_uris": {"android": "https://dc.lft.to/lastmile_qr_scan", "ios": "https://dc.lft.to/lastmile_qr_scan"}, "is_reserved": 0, "is_disabled": 0, "name": "82d9bfd079ed8436fd1e3ea5f5c2bcc1", "bike_id": "82d9bfd079ed8436fd1e3ea5f5c2bcc1", "fusion_lat": 0.0, "lon": -77.043392, "type": "electric_scooter", "fusion_lon": 0.0, "lat": 38.905474}, {"rental_uris": {"android": "https://dc.lft.to/lastmile_qr_scan", "ios": "https://dc.lft.to/lastmile_qr_scan"}, "is_reserved": 0, "is_disabled": 0, "name": "7ab1353a6b6b5269c159cf61e7c86102", "bike_id": "7ab1353a6b6b5269c159cf61e7c86102", "fusion_lat": 0.0, "lon": -77.04425916666666, "type": "electric_scooter", "fusion_lon": 0.0, "lat": 38.905617166666666}, {"rental_uris": {"android": "https://dc.lft.to/lastmile_qr_scan", "ios": "https://dc.lft.to/lastmile_qr_scan"}, "is_reserved": 0, "is_disabled": 0, "name": "1d2e970e03e1545375d4190523d1d07b", "bike_id": "1d2e970e03e1545375d4190523d1d07b", "fusion_lat": 0.0, "lon": -77.0034005, "type": "electric_scooter", "fusion_lon": 0.0, "lat": 38.876791}, {"rental_uris": {"android": "https://dc.lft.to/lastmile_qr_scan", "ios": "https://dc.lft.to/lastmile_qr_scan"}, "is_reserved": 0, "is_disabled": 0, "name": "0d200e4fbc5000ad817808093573c9e2", "bike_id": "0d200e4fbc5000ad817808093573c9e2", "fusion_lat": 0.0, "lon": -77.04109866666667, "type": "electric_scooter", "fusion_lon": 0.0, "lat": 38.90138533333333}, {"rental_uris": {"android": "https://dc.lft.to/lastmile_qr_scan", "ios": "https://dc.lft.to/lastmile_qr_scan"}, "is_reserved": 0, "is_disabled": 0, "name": "5f3aa64948fafa2e03c9d60264caecaf", "bike_id": "5f3aa64948fafa2e03c9d60264caecaf", "fusion_lat": 0.0, "lon": -77.046429, "type": "electric_scooter", "fusion_lon": 0.0, "lat": 38.8922315}, {"rental_uris": {"android": "https://dc.lft.to/lastmile_qr_scan", "ios": "https://dc.lft.to/lastmile_qr_scan"}, "is_reserved": 0, "is_disabled": 0, "name": "e1a60b47d80339ae56353cce50aeac72", "bike_id": "e1a60b47d80339ae56353cce50aeac72", "fusion_lat": 0.0, "lon": -77.02660516666667, "type": "electric_scooter", "fusion_lon": 0.0, "lat": 38.93097616666667}, {"rental_uris": {"android": "https://dc.lft.to/lastmile_qr_scan", "ios": "https://dc.lft.to/lastmile_qr_scan"}, "is_reserved": 0, "is_disabled": 0, "name": "0e2c62dc597870d7b477685e76ae9893", "bike_id": "0e2c62dc597870d7b477685e76ae9893", "fusion_lat": 0.0, "lon": -77.04198266666667, "type": "electric_scooter", "fusion_lon": 0.0, "lat": 38.922721333333335}, {"rental_uris": {"android": "https://dc.lft.to/lastmile_qr_scan", "ios": "https://dc.lft.to/lastmile_qr_scan"}, "is_reserved": 0, "is_disabled": 0, "name": "4e50bee362961bde3f7f05208e81845e", "bike_id": "4e50bee362961bde3f7f05208e81845e", "fusion_lat": 0.0, "lon": -76.99959866666667, "type": "electric_scooter", "fusion_lon": 0.0, "lat": 38.906837333333335}, {"rental_uris": {"android": "https://dc.lft.to/lastmile_qr_scan", "ios": "https://dc.lft.to/lastmile_qr_scan"}, "is_reserved": 0, "is_disabled": 0, "name": "be1ce74c28d8de95fd65032acb6d0e32", "bike_id": "be1ce74c28d8de95fd65032acb6d0e32", "fusion_lat": 0.0, "lon": -77.013305, "type": "electric_scooter", "fusion_lon": 0.0, "lat": 38.91255816666666}, {"rental_uris": {"android": "https://dc.lft.to/lastmile_qr_scan", "ios": "https://dc.lft.to/lastmile_qr_scan"}, "is_reserved": 0, "is_disabled": 0, "name": "aaf157b92784b6d764fd5a71b5221a39", "bike_id": "aaf157b92784b6d764fd5a71b5221a39", "fusion_lat": 0.0, "lon": -77.07027866666667, "type": "electric_bike", "fusion_lon": 0.0, "lat": 38.905318}, {"rental_uris": {"android": "https://dc.lft.to/lastmile_qr_scan", "ios": "https://dc.lft.to/lastmile_qr_scan"}, "is_reserved": 0, "is_disabled": 0, "name": "9f5c19fd9a1def521adfbb2ed3d446b6", "bike_id": "9f5c19fd9a1def521adfbb2ed3d446b6", "fusion_lat": 0.0, "lon": -77.03206233333333, "type": "electric_scooter", "fusion_lon": 0.0, "lat": 38.90744}, {"rental_uris": {"android": "https://dc.lft.to/lastmile_qr_scan", "ios": "https://dc.lft.to/lastmile_qr_scan"}, "is_reserved": 0, "is_disabled": 0, "name": "05e1bb575d079e079aca6ea4bd364d37", "bike_id": "05e1bb575d079e079aca6ea4bd364d37", "fusion_lat": 0.0, "lon": -77.0165975, "type": "electric_scooter", "fusion_lon": 0.0, "lat": 38.94204116666667}, {"rental_uris": {"android": "https://dc.lft.to/lastmile_qr_scan", "ios": "https://dc.lft.to/lastmile_qr_scan"}, "is_reserved": 0, "is_disabled": 0, "name": "4fe5af0aecd6c3f60ea310d77099f2ea", "bike_id": "4fe5af0aecd6c3f60ea310d77099f2ea", "fusion_lat": 0.0, "lon": -77.036961, "type": "electric_scooter", "fusion_lon": 0.0, "lat": 38.92634066666667}, {"rental_uris": {"android": "https://dc.lft.to/lastmile_qr_scan", "ios": "https://dc.lft.to/lastmile_qr_scan"}, "is_reserved": 0, "is_disabled": 0, "name": "ba5a2f41dd28986744927d177f03f4cc", "bike_id": "ba5a2f41dd28986744927d177f03f4cc", "fusion_lat": 0.0, "lon": -77.06113033333334, "type": "electric_scooter", "fusion_lon": 0.0, "lat": 38.902386}, {"rental_uris": {"android": "https://dc.lft.to/lastmile_qr_scan", "ios": "https://dc.lft.to/lastmile_qr_scan"}, "is_reserved": 0, "is_disabled": 0, "name": "c62a39dab8a2ded794b43e75dbfa670c", "bike_id": "c62a39dab8a2ded794b43e75dbfa670c", "fusion_lat": 0.0, "lon": -77.0303275, "type": "electric_scooter", "fusion_lon": 0.0, "lat": 38.9037345}, {"rental_uris": {"android": "https://dc.lft.to/lastmile_qr_scan", "ios": "https://dc.lft.to/lastmile_qr_scan"}, "is_reserved": 0, "is_disabled": 0, "name": "73674cfe345e35866b29e676819f493e", "bike_id": "73674cfe345e35866b29e676819f493e", "fusion_lat": 0.0, "lon": -77.041087, "type": "electric_scooter", "fusion_lon": 0.0, "lat": 38.901271}, {"rental_uris": {"android": "https://dc.lft.to/lastmile_qr_scan", "ios": "https://dc.lft.to/lastmile_qr_scan"}, "is_reserved": 0, "is_disabled": 0, "name": "cbe0384f1fedb7df1792769d4539f8af", "bike_id": "cbe0384f1fedb7df1792769d4539f8af", "fusion_lat": 0.0, "lon": -77.00294183333334, "type": "electric_scooter", "fusion_lon": 0.0, "lat": 38.89196066666667}, {"rental_uris": {"android": "https://dc.lft.to/lastmile_qr_scan", "ios": "https://dc.lft.to/lastmile_qr_scan"}, "is_reserved": 0, "is_disabled": 0, "name": "623060e3e8598b56d571b1cc76afbe3d", "bike_id": "623060e3e8598b56d571b1cc76afbe3d", "fusion_lat": 0.0, "lon": -77.053384, "type": "electric_scooter", "fusion_lon": 0.0, "lat": 38.901610833333336}, {"rental_uris": {"android": "https://dc.lft.to/lastmile_qr_scan", "ios": "https://dc.lft.to/lastmile_qr_scan"}, "is_reserved": 0, "is_disabled": 0, "name": "47f5262e4c7a51795c43f852f9a13a85", "bike_id": "47f5262e4c7a51795c43f852f9a13a85", "fusion_lat": 0.0, "lon": -77.02294733333333, "type": "electric_scooter", "fusion_lon": 0.0, "lat": 38.91683483333333}, {"rental_uris": {"android": "https://dc.lft.to/lastmile_qr_scan", "ios": "https://dc.lft.to/lastmile_qr_scan"}, "is_reserved": 0, "is_disabled": 0, "name": "a95a0905eadb38ade7dc739847e04934", "bike_id": "a95a0905eadb38ade7dc739847e04934", "fusion_lat": 0.0, "lon": -76.98842733333333, "type": "electric_scooter", "fusion_lon": 0.0, "lat": 38.900216666666665}, {"rental_uris": {"android": "https://dc.lft.to/lastmile_qr_scan", "ios": "https://dc.lft.to/lastmile_qr_scan"}, "is_reserved": 0, "is_disabled": 0, "name": "a09360763cd3807a6fb30fccf912fb62", "bike_id": "a09360763cd3807a6fb30fccf912fb62", "fusion_lat": 0.0, "lon": -77.234111, "type": "electric_bike", "fusion_lon": 0.0, "lat": 38.8757995}, {"rental_uris": {"android": "https://dc.lft.to/lastmile_qr_scan", "ios": "https://dc.lft.to/lastmile_qr_scan"}, "is_reserved": 0, "is_disabled": 0, "name": "b0e5f9941923b43f5d6cd97892307cad", "bike_id": "b0e5f9941923b43f5d6cd97892307cad", "fusion_lat": 0.0, "lon": -76.96811966666667, "type": "electric_scooter", "fusion_lon": 0.0, "lat": 38.84718616666667}, {"rental_uris": {"android": "https://dc.lft.to/lastmile_qr_scan", "ios": "https://dc.lft.to/lastmile_qr_scan"}, "is_reserved": 0, "is_disabled": 0, "name": "5b19b724e3de7744c43b29f1065c7896", "bike_id": "5b19b724e3de7744c43b29f1065c7896", "fusion_lat": 0.0, "lon": -77.03185533333334, "type": "electric_scooter", "fusion_lon": 0.0, "lat": 38.90776116666667}, {"rental_uris": {"android": "https://dc.lft.to/lastmile_qr_scan", "ios": "https://dc.lft.to/lastmile_qr_scan"}, "is_reserved": 0, "is_disabled": 0, "name": "b1ee57459ba4d526b8e2d691dacd11b2", "bike_id": "b1ee57459ba4d526b8e2d691dacd11b2", "fusion_lat": 0.0, "lon": -77.03042683333334, "type": "electric_scooter", "fusion_lon": 0.0, "lat": 38.898362166666665}, {"rental_uris": {"android": "https://dc.lft.to/lastmile_qr_scan", "ios": "https://dc.lft.to/lastmile_qr_scan"}, "is_reserved": 0, "is_disabled": 0, "name": "0186a9428794c2a8f7fc1afb89c4475f", "bike_id": "0186a9428794c2a8f7fc1afb89c4475f", "fusion_lat": 0.0, "lon": -76.99348683333334, "type": "electric_scooter", "fusion_lon": 0.0, "lat": 38.900134666666666}, {"rental_uris": {"android": "https://dc.lft.to/lastmile_qr_scan", "ios": "https://dc.lft.to/lastmile_qr_scan"}, "is_reserved": 0, "is_disabled": 0, "name": "3b3c33716b3a001423797f5783e241b0", "bike_id": "3b3c33716b3a001423797f5783e241b0", "fusion_lat": 0.0, "lon": -77.02549316666666, "type": "electric_scooter", "fusion_lon": 0.0, "lat": 38.948256}, {"rental_uris": {"android": "https://dc.lft.to/lastmile_qr_scan", "ios": "https://dc.lft.to/lastmile_qr_scan"}, "is_reserved": 0, "is_disabled": 0, "name": "cda658db66e25e9306f7bd681d5f619d", "bike_id": "cda658db66e25e9306f7bd681d5f619d", "fusion_lat": 0.0, "lon": -77.043479, "type": "electric_scooter", "fusion_lon": 0.0, "lat": 38.92349516666667}, {"rental_uris": {"android": "https://dc.lft.to/lastmile_qr_scan", "ios": "https://dc.lft.to/lastmile_qr_scan"}, "is_reserved": 0, "is_disabled": 0, "name": "9fc967bbb9d187b88151602bd32f9c5f", "bike_id": "9fc967bbb9d187b88151602bd32f9c5f", "fusion_lat": 0.0, "lon": -77.0209935, "type": "electric_scooter", "fusion_lon": 0.0, "lat": 38.92161616666667}, {"rental_uris": {"android": "https://dc.lft.to/lastmile_qr_scan", "ios": "https://dc.lft.to/lastmile_qr_scan"}, "is_reserved": 0, "is_disabled": 0, "name": "e54cb6a044ee49c3c0bc83a11b630478", "bike_id": "e54cb6a044ee49c3c0bc83a11b630478", "fusion_lat": 0.0, "lon": -77.05076733333334, "type": "electric_scooter", "fusion_lon": 0.0, "lat": 38.911356}, {"rental_uris": {"android": "https://dc.lft.to/lastmile_qr_scan", "ios": "https://dc.lft.to/lastmile_qr_scan"}, "is_reserved": 0, "is_disabled": 0, "name": "2b6287c0da7da0fa5d144e85b6adfa99", "bike_id": "2b6287c0da7da0fa5d144e85b6adfa99", "fusion_lat": 0.0, "lon": -77.06455716666666, "type": "electric_scooter", "fusion_lon": 0.0, "lat": 38.94882066666667}, {"rental_uris": {"android": "https://dc.lft.to/lastmile_qr_scan", "ios": "https://dc.lft.to/lastmile_qr_scan"}, "is_reserved": 0, "is_disabled": 0, "name": "a0013f35e94dde252d31c91f9a533013", "bike_id": "a0013f35e94dde252d31c91f9a533013", "fusion_lat": 0.0, "lon": -77.0449755, "type": "electric_scooter", "fusion_lon": 0.0, "lat": 38.89223366666667}, {"rental_uris": {"android": "https://dc.lft.to/lastmile_qr_scan", "ios": "https://dc.lft.to/lastmile_qr_scan"}, "is_reserved": 0, "is_disabled": 0, "name": "be680c6bf37097b7ea433faa94d69c2e", "bike_id": "be680c6bf37097b7ea433faa94d69c2e", "fusion_lat": 0.0, "lon": -77.0128295, "type": "electric_scooter", "fusion_lon": 0.0, "lat": 38.9005945}, {"rental_uris": {"android": "https://dc.lft.to/lastmile_qr_scan", "ios": "https://dc.lft.to/lastmile_qr_scan"}, "is_reserved": 0, "is_disabled": 0, "name": "5d1731fc3874cf366cb614387af6aa00", "bike_id": "5d1731fc3874cf366cb614387af6aa00", "fusion_lat": 0.0, "lon": -77.01696, "type": "electric_scooter", "fusion_lon": 0.0, "lat": 38.9064575}, {"rental_uris": {"android": "https://dc.lft.to/lastmile_qr_scan", "ios": "https://dc.lft.to/lastmile_qr_scan"}, "is_reserved": 0, "is_disabled": 0, "name": "b1f423b43fd830b211667466e94f74b5", "bike_id": "b1f423b43fd830b211667466e94f74b5", "fusion_lat": 0.0, "lon": -77.02825983333334, "type": "electric_scooter", "fusion_lon": 0.0, "lat": 38.902649333333336}, {"rental_uris": {"android": "https://dc.lft.to/lastmile_qr_scan", "ios": "https://dc.lft.to/lastmile_qr_scan"}, "is_reserved": 0, "is_disabled": 0, "name": "ce0c63e4da294a0c4cb0fad3af702b5a", "bike_id": "ce0c63e4da294a0c4cb0fad3af702b5a", "fusion_lat": 0.0, "lon": -77.06522183333334, "type": "electric_scooter", "fusion_lon": 0.0, "lat": 38.905815833333335}, {"rental_uris": {"android": "https://dc.lft.to/lastmile_qr_scan", "ios": "https://dc.lft.to/lastmile_qr_scan"}, "is_reserved": 0, "is_disabled": 0, "name": "35d89043d4f5b1fa44ad31abca24c3dd", "bike_id": "35d89043d4f5b1fa44ad31abca24c3dd", "fusion_lat": 0.0, "lon": -77.03081966666667, "type": "electric_scooter", "fusion_lon": 0.0, "lat": 38.8981445}, {"rental_uris": {"android": "https://dc.lft.to/lastmile_qr_scan", "ios": "https://dc.lft.to/lastmile_qr_scan"}, "is_reserved": 0, "is_disabled": 0, "name": "dc512e4c46ec93794fab20a3070fabf9", "bike_id": "dc512e4c46ec93794fab20a3070fabf9", "fusion_lat": 0.0, "lon": -77.03168133333334, "type": "electric_scooter", "fusion_lon": 0.0, "lat": 38.892215666666665}, {"rental_uris": {"android": "https://dc.lft.to/lastmile_qr_scan", "ios": "https://dc.lft.to/lastmile_qr_scan"}, "is_reserved": 0, "is_disabled": 0, "name": "2ce710e7ff9312905b850e09177285cb", "bike_id": "2ce710e7ff9312905b850e09177285cb", "fusion_lat": 0.0, "lon": -77.02822416666666, "type": "electric_scooter", "fusion_lon": 0.0, "lat": 38.8873795}, {"rental_uris": {"android": "https://dc.lft.to/lastmile_qr_scan", "ios": "https://dc.lft.to/lastmile_qr_scan"}, "is_reserved": 0, "is_disabled": 0, "name": "cfc670f6c582179cfd8d26a86244c22d", "bike_id": "cfc670f6c582179cfd8d26a86244c22d", "fusion_lat": 0.0, "lon": -76.983578, "type": "electric_scooter", "fusion_lon": 0.0, "lat": 38.8873475}, {"rental_uris": {"android": "https://dc.lft.to/lastmile_qr_scan", "ios": "https://dc.lft.to/lastmile_qr_scan"}, "is_reserved": 0, "is_disabled": 0, "name": "591c9a6470118a304f32633ceb40bd28", "bike_id": "591c9a6470118a304f32633ceb40bd28", "fusion_lat": 0.0, "lon": -76.9250135, "type": "electric_scooter", "fusion_lon": 0.0, "lat": 38.886043}, {"rental_uris": {"android": "https://dc.lft.to/lastmile_qr_scan", "ios": "https://dc.lft.to/lastmile_qr_scan"}, "is_reserved": 0, "is_disabled": 0, "name": "94042a54466f5dd7de03aeb72d99d0d4", "bike_id": "94042a54466f5dd7de03aeb72d99d0d4", "fusion_lat": 0.0, "lon": -77.02682666666666, "type": "electric_scooter", "fusion_lon": 0.0, "lat": 38.902582833333334}, {"rental_uris": {"android": "https://dc.lft.to/lastmile_qr_scan", "ios": "https://dc.lft.to/lastmile_qr_scan"}, "is_reserved": 0, "is_disabled": 0, "name": "2a4ad4e79903da2854bef49b699612c7", "bike_id": "2a4ad4e79903da2854bef49b699612c7", "fusion_lat": 0.0, "lon": -77.0272005, "type": "electric_scooter", "fusion_lon": 0.0, "lat": 38.90671233333333}, {"rental_uris": {"android": "https://dc.lft.to/lastmile_qr_scan", "ios": "https://dc.lft.to/lastmile_qr_scan"}, "is_reserved": 0, "is_disabled": 0, "name": "a2654254855cb333a49fd257c98bc9f6", "bike_id": "a2654254855cb333a49fd257c98bc9f6", "fusion_lat": 0.0, "lon": -77.014114, "type": "electric_scooter", "fusion_lon": 0.0, "lat": 38.928452}, {"rental_uris": {"android": "https://dc.lft.to/lastmile_qr_scan", "ios": "https://dc.lft.to/lastmile_qr_scan"}, "is_reserved": 0, "is_disabled": 0, "name": "e084426937c9ea7a04ec5b1a128f0b02", "bike_id": "e084426937c9ea7a04ec5b1a128f0b02", "fusion_lat": 0.0, "lon": -77.01911766666667, "type": "electric_scooter", "fusion_lon": 0.0, "lat": 38.9218085}, {"rental_uris": {"android": "https://dc.lft.to/lastmile_qr_scan", "ios": "https://dc.lft.to/lastmile_qr_scan"}, "is_reserved": 0, "is_disabled": 0, "name": "566f49d8bbc11daa704246ba0bc32750", "bike_id": "566f49d8bbc11daa704246ba0bc32750", "fusion_lat": 0.0, "lon": -77.03947983333333, "type": "electric_scooter", "fusion_lon": 0.0, "lat": 38.9081905}, {"rental_uris": {"android": "https://dc.lft.to/lastmile_qr_scan", "ios": "https://dc.lft.to/lastmile_qr_scan"}, "is_reserved": 0, "is_disabled": 0, "name": "a0df5e6dddef625f728a7cd109dc1153", "bike_id": "a0df5e6dddef625f728a7cd109dc1153", "fusion_lat": 0.0, "lon": -77.027221, "type": "electric_scooter", "fusion_lon": 0.0, "lat": 38.940879333333335}, {"rental_uris": {"android": "https://dc.lft.to/lastmile_qr_scan", "ios": "https://dc.lft.to/lastmile_qr_scan"}, "is_reserved": 0, "is_disabled": 0, "name": "de6b2fc2809c81684f24c3972a0a3ebf", "bike_id": "de6b2fc2809c81684f24c3972a0a3ebf", "fusion_lat": 0.0, "lon": -77.04348416666667, "type": "electric_bike", "fusion_lon": 0.0, "lat": 38.8952005}, {"rental_uris": {"android": "https://dc.lft.to/lastmile_qr_scan", "ios": "https://dc.lft.to/lastmile_qr_scan"}, "is_reserved": 0, "is_disabled": 0, "name": "57ae3b7c8f5da119567d351fa88608b6", "bike_id": "57ae3b7c8f5da119567d351fa88608b6", "fusion_lat": 0.0, "lon": -77.004854, "type": "electric_scooter", "fusion_lon": 0.0, "lat": 38.874609666666665}, {"rental_uris": {"android": "https://dc.lft.to/lastmile_qr_scan", "ios": "https://dc.lft.to/lastmile_qr_scan"}, "is_reserved": 0, "is_disabled": 0, "name": "05d7436b3bc1b83001eb10f42063aae9", "bike_id": "05d7436b3bc1b83001eb10f42063aae9", "fusion_lat": 0.0, "lon": -76.97719866666667, "type": "electric_scooter", "fusion_lon": 0.0, "lat": 38.888187}, {"rental_uris": {"android": "https://dc.lft.to/lastmile_qr_scan", "ios": "https://dc.lft.to/lastmile_qr_scan"}, "is_reserved": 0, "is_disabled": 0, "name": "b33a8f773df2cb9fce8ed5d3f79b9489", "bike_id": "b33a8f773df2cb9fce8ed5d3f79b9489", "fusion_lat": 0.0, "lon": -77.04995116666667, "type": "electric_scooter", "fusion_lon": 0.0, "lat": 38.8982745}, {"rental_uris": {"android": "https://dc.lft.to/lastmile_qr_scan", "ios": "https://dc.lft.to/lastmile_qr_scan"}, "is_reserved": 0, "is_disabled": 0, "name": "7b040de95a699763238d31f57f2264a4", "bike_id": "7b040de95a699763238d31f57f2264a4", "fusion_lat": 0.0, "lon": -77.042294, "type": "electric_scooter", "fusion_lon": 0.0, "lat": 38.899957}, {"rental_uris": {"android": "https://dc.lft.to/lastmile_qr_scan", "ios": "https://dc.lft.to/lastmile_qr_scan"}, "is_reserved": 0, "is_disabled": 0, "name": "68553aebbf68ddff04818f049e57f865", "bike_id": "68553aebbf68ddff04818f049e57f865", "fusion_lat": 0.0, "lon": -76.98359083333334, "type": "electric_scooter", "fusion_lon": 0.0, "lat": 38.88732}, {"rental_uris": {"android": "https://dc.lft.to/lastmile_qr_scan", "ios": "https://dc.lft.to/lastmile_qr_scan"}, "is_reserved": 0, "is_disabled": 0, "name": "97b58aff495bcb5e73f92d141c0ec834", "bike_id": "97b58aff495bcb5e73f92d141c0ec834", "fusion_lat": 0.0, "lon": -77.04332583333333, "type": "electric_scooter", "fusion_lon": 0.0, "lat": 38.89874016666667}, {"rental_uris": {"android": "https://dc.lft.to/lastmile_qr_scan", "ios": "https://dc.lft.to/lastmile_qr_scan"}, "is_reserved": 0, "is_disabled": 0, "name": "af4188196af9297a71ce9b3ed96be280", "bike_id": "af4188196af9297a71ce9b3ed96be280", "fusion_lat": 0.0, "lon": -77.03679283333334, "type": "electric_scooter", "fusion_lon": 0.0, "lat": 38.91568766666666}, {"rental_uris": {"android": "https://dc.lft.to/lastmile_qr_scan", "ios": "https://dc.lft.to/lastmile_qr_scan"}, "is_reserved": 0, "is_disabled": 0, "name": "a1dac6a7618aef3e1a8b652cd0d6526d", "bike_id": "a1dac6a7618aef3e1a8b652cd0d6526d", "fusion_lat": 0.0, "lon": -77.05894183333334, "type": "electric_scooter", "fusion_lon": 0.0, "lat": 38.93610566666667}, {"rental_uris": {"android": "https://dc.lft.to/lastmile_qr_scan", "ios": "https://dc.lft.to/lastmile_qr_scan"}, "is_reserved": 0, "is_disabled": 0, "name": "685fc4de4255e1f68e6ee0fe75604cdf", "bike_id": "685fc4de4255e1f68e6ee0fe75604cdf", "fusion_lat": 0.0, "lon": -77.02353683333334, "type": "electric_scooter", "fusion_lon": 0.0, "lat": 38.881516500000004}, {"rental_uris": {"android": "https://dc.lft.to/lastmile_qr_scan", "ios": "https://dc.lft.to/lastmile_qr_scan"}, "is_reserved": 0, "is_disabled": 0, "name": "aff47bd8047d345e2e78ca2561543ef4", "bike_id": "aff47bd8047d345e2e78ca2561543ef4", "fusion_lat": 0.0, "lon": -77.04571616666667, "type": "electric_scooter", "fusion_lon": 0.0, "lat": 38.900638}, {"rental_uris": {"android": "https://dc.lft.to/lastmile_qr_scan", "ios": "https://dc.lft.to/lastmile_qr_scan"}, "is_reserved": 0, "is_disabled": 0, "name": "dd4a0bb404dbd56b080ea40d5ee76e4b", "bike_id": "dd4a0bb404dbd56b080ea40d5ee76e4b", "fusion_lat": 0.0, "lon": -77.04409383333333, "type": "electric_scooter", "fusion_lon": 0.0, "lat": 38.929515}, {"rental_uris": {"android": "https://dc.lft.to/lastmile_qr_scan", "ios": "https://dc.lft.to/lastmile_qr_scan"}, "is_reserved": 0, "is_disabled": 0, "name": "0a09a00b80f4e25d08db61aa514ae2f5", "bike_id": "0a09a00b80f4e25d08db61aa514ae2f5", "fusion_lat": 0.0, "lon": -77.02666333333333, "type": "electric_scooter", "fusion_lon": 0.0, "lat": 38.938751833333335}, {"rental_uris": {"android": "https://dc.lft.to/lastmile_qr_scan", "ios": "https://dc.lft.to/lastmile_qr_scan"}, "is_reserved": 0, "is_disabled": 0, "name": "c339d2ac627fa52b85cfb9d8f1afd76d", "bike_id": "c339d2ac627fa52b85cfb9d8f1afd76d", "fusion_lat": 0.0, "lon": -77.00275433333333, "type": "electric_scooter", "fusion_lon": 0.0, "lat": 38.89212033333333}, {"rental_uris": {"android": "https://dc.lft.to/lastmile_qr_scan", "ios": "https://dc.lft.to/lastmile_qr_scan"}, "is_reserved": 0, "is_disabled": 0, "name": "6f2ec6ee07c8deaa409fcb918d53e2bf", "bike_id": "6f2ec6ee07c8deaa409fcb918d53e2bf", "fusion_lat": 0.0, "lon": -77.029085, "type": "electric_scooter", "fusion_lon": 0.0, "lat": 38.9529185}, {"rental_uris": {"android": "https://dc.lft.to/lastmile_qr_scan", "ios": "https://dc.lft.to/lastmile_qr_scan"}, "is_reserved": 0, "is_disabled": 0, "name": "1fcfd52110bff235906952cc1b95b9ae", "bike_id": "1fcfd52110bff235906952cc1b95b9ae", "fusion_lat": 0.0, "lon": -77.0362595, "type": "electric_scooter", "fusion_lon": 0.0, "lat": 38.903751666666665}, {"rental_uris": {"android": "https://dc.lft.to/lastmile_qr_scan", "ios": "https://dc.lft.to/lastmile_qr_scan"}, "is_reserved": 0, "is_disabled": 0, "name": "063c9fa04bf003ff4d4a816954b8cd8f", "bike_id": "063c9fa04bf003ff4d4a816954b8cd8f", "fusion_lat": 0.0, "lon": -76.98798416666666, "type": "electric_scooter", "fusion_lon": 0.0, "lat": 38.9003305}, {"rental_uris": {"android": "https://dc.lft.to/lastmile_qr_scan", "ios": "https://dc.lft.to/lastmile_qr_scan"}, "is_reserved": 0, "is_disabled": 0, "name": "a4db3fd20ce984787a90432a6e7f69ed", "bike_id": "a4db3fd20ce984787a90432a6e7f69ed", "fusion_lat": 0.0, "lon": -76.98371733333333, "type": "electric_scooter", "fusion_lon": 0.0, "lat": 38.89262016666667}, {"rental_uris": {"android": "https://dc.lft.to/lastmile_qr_scan", "ios": "https://dc.lft.to/lastmile_qr_scan"}, "is_reserved": 0, "is_disabled": 0, "name": "87bc8c3111ad87b095aa79a5d88e0152", "bike_id": "87bc8c3111ad87b095aa79a5d88e0152", "fusion_lat": 0.0, "lon": -77.030782, "type": "electric_scooter", "fusion_lon": 0.0, "lat": 38.89970983333333}, {"rental_uris": {"android": "https://dc.lft.to/lastmile_qr_scan", "ios": "https://dc.lft.to/lastmile_qr_scan"}, "is_reserved": 0, "is_disabled": 0, "name": "2f3a7b1d39ad5ea10529d39ce8642ad5", "bike_id": "2f3a7b1d39ad5ea10529d39ce8642ad5", "fusion_lat": 0.0, "lon": -77.0195, "type": "electric_scooter", "fusion_lon": 0.0, "lat": 38.92251683333333}, {"rental_uris": {"android": "https://dc.lft.to/lastmile_qr_scan", "ios": "https://dc.lft.to/lastmile_qr_scan"}, "is_reserved": 0, "is_disabled": 0, "name": "7bfd53caf54423c67c0f1974dc8c098b", "bike_id": "7bfd53caf54423c67c0f1974dc8c098b", "fusion_lat": 0.0, "lon": -77.074911, "type": "electric_scooter", "fusion_lon": 0.0, "lat": 38.96203766666667}, {"rental_uris": {"android": "https://dc.lft.to/lastmile_qr_scan", "ios": "https://dc.lft.to/lastmile_qr_scan"}, "is_reserved": 0, "is_disabled": 0, "name": "dd8e58792e0f5599ca0a563494e6e70c", "bike_id": "dd8e58792e0f5599ca0a563494e6e70c", "fusion_lat": 0.0, "lon": -77.04321683333333, "type": "electric_scooter", "fusion_lon": 0.0, "lat": 38.92621366666667}, {"rental_uris": {"android": "https://dc.lft.to/lastmile_qr_scan", "ios": "https://dc.lft.to/lastmile_qr_scan"}, "is_reserved": 0, "is_disabled": 0, "name": "f906f0f9d38a74035e62ce56e0434e99", "bike_id": "f906f0f9d38a74035e62ce56e0434e99", "fusion_lat": 0.0, "lon": -77.0395995, "type": "electric_scooter", "fusion_lon": 0.0, "lat": 38.8984095}, {"rental_uris": {"android": "https://dc.lft.to/lastmile_qr_scan", "ios": "https://dc.lft.to/lastmile_qr_scan"}, "is_reserved": 0, "is_disabled": 0, "name": "f38d9f88f15ee09efc3d55947ebfce76", "bike_id": "f38d9f88f15ee09efc3d55947ebfce76", "fusion_lat": 0.0, "lon": -76.92958083333333, "type": "electric_scooter", "fusion_lon": 0.0, "lat": 38.88449633333333}, {"rental_uris": {"android": "https://dc.lft.to/lastmile_qr_scan", "ios": "https://dc.lft.to/lastmile_qr_scan"}, "is_reserved": 0, "is_disabled": 0, "name": "011bd2556b740ee82f1c698b9622ed4c", "bike_id": "011bd2556b740ee82f1c698b9622ed4c", "fusion_lat": 0.0, "lon": -77.0520075, "type": "electric_scooter", "fusion_lon": 0.0, "lat": 38.92440833333333}, {"rental_uris": {"android": "https://dc.lft.to/lastmile_qr_scan", "ios": "https://dc.lft.to/lastmile_qr_scan"}, "is_reserved": 0, "is_disabled": 0, "name": "87364619621617ab10ef83e4ab78eb8b", "bike_id": "87364619621617ab10ef83e4ab78eb8b", "fusion_lat": 0.0, "lon": -77.01318716666667, "type": "electric_scooter", "fusion_lon": 0.0, "lat": 38.8922715}, {"rental_uris": {"android": "https://dc.lft.to/lastmile_qr_scan", "ios": "https://dc.lft.to/lastmile_qr_scan"}, "is_reserved": 0, "is_disabled": 0, "name": "04b875cf68daa7eb6ad62d4cb56c6b96", "bike_id": "04b875cf68daa7eb6ad62d4cb56c6b96", "fusion_lat": 0.0, "lon": -76.9857235, "type": "electric_scooter", "fusion_lon": 0.0, "lat": 38.89619233333333}, {"rental_uris": {"android": "https://dc.lft.to/lastmile_qr_scan", "ios": "https://dc.lft.to/lastmile_qr_scan"}, "is_reserved": 0, "is_disabled": 0, "name": "7cd7b3cbd4dbc0694434274159889e0e", "bike_id": "7cd7b3cbd4dbc0694434274159889e0e", "fusion_lat": 0.0, "lon": -77.0282615, "type": "electric_scooter", "fusion_lon": 0.0, "lat": 38.8873645}, {"rental_uris": {"android": "https://dc.lft.to/lastmile_qr_scan", "ios": "https://dc.lft.to/lastmile_qr_scan"}, "is_reserved": 0, "is_disabled": 0, "name": "7e0388168b011dd20ab8769c7d1e4950", "bike_id": "7e0388168b011dd20ab8769c7d1e4950", "fusion_lat": 0.0, "lon": -77.0447125, "type": "electric_scooter", "fusion_lon": 0.0, "lat": 38.90266483333333}, {"rental_uris": {"android": "https://dc.lft.to/lastmile_qr_scan", "ios": "https://dc.lft.to/lastmile_qr_scan"}, "is_reserved": 0, "is_disabled": 0, "name": "55adc32884e049acdef68ab947ee103a", "bike_id": "55adc32884e049acdef68ab947ee103a", "fusion_lat": 0.0, "lon": -77.02786383333333, "type": "electric_scooter", "fusion_lon": 0.0, "lat": 38.962221166666666}, {"rental_uris": {"android": "https://dc.lft.to/lastmile_qr_scan", "ios": "https://dc.lft.to/lastmile_qr_scan"}, "is_reserved": 0, "is_disabled": 0, "name": "eeaa37a3d5bd737ef9b2792e9895f648", "bike_id": "eeaa37a3d5bd737ef9b2792e9895f648", "fusion_lat": 0.0, "lon": -76.99095566666666, "type": "electric_bike", "fusion_lon": 0.0, "lat": 38.8048215}, {"rental_uris": {"android": "https://dc.lft.to/lastmile_qr_scan", "ios": "https://dc.lft.to/lastmile_qr_scan"}, "is_reserved": 0, "is_disabled": 0, "name": "1745643e11d8868fece4a8c325bce9f1", "bike_id": "1745643e11d8868fece4a8c325bce9f1", "fusion_lat": 0.0, "lon": -76.98690416666666, "type": "electric_bike", "fusion_lon": 0.0, "lat": 38.94473466666667}, {"rental_uris": {"android": "https://dc.lft.to/lastmile_qr_scan", "ios": "https://dc.lft.to/lastmile_qr_scan"}, "is_reserved": 0, "is_disabled": 0, "name": "1434235935faf13e69846abb1c4dc482", "bike_id": "1434235935faf13e69846abb1c4dc482", "fusion_lat": 0.0, "lon": -77.04518666666667, "type": "electric_scooter", "fusion_lon": 0.0, "lat": 38.89951333333333}, {"rental_uris": {"android": "https://dc.lft.to/lastmile_qr_scan", "ios": "https://dc.lft.to/lastmile_qr_scan"}, "is_reserved": 0, "is_disabled": 0, "name": "f8c9fd2916881b8b25c2db1fca4ca13f", "bike_id": "f8c9fd2916881b8b25c2db1fca4ca13f", "fusion_lat": 0.0, "lon": -77.04689316666666, "type": "electric_bike", "fusion_lon": 0.0, "lat": 38.901247833333336}, {"rental_uris": {"android": "https://dc.lft.to/lastmile_qr_scan", "ios": "https://dc.lft.to/lastmile_qr_scan"}, "is_reserved": 0, "is_disabled": 0, "name": "44930a4130465561e53180ec5beae072", "bike_id": "44930a4130465561e53180ec5beae072", "fusion_lat": 0.0, "lon": -77.05116183333334, "type": "electric_scooter", "fusion_lon": 0.0, "lat": 38.923440666666664}, {"rental_uris": {"android": "https://dc.lft.to/lastmile_qr_scan", "ios": "https://dc.lft.to/lastmile_qr_scan"}, "is_reserved": 0, "is_disabled": 0, "name": "23e201af96566237e768aa124d9f7b2e", "bike_id": "23e201af96566237e768aa124d9f7b2e", "fusion_lat": 0.0, "lon": -77.0071825, "type": "electric_bike", "fusion_lon": 0.0, "lat": 38.94596466666667}, {"rental_uris": {"android": "https://dc.lft.to/lastmile_qr_scan", "ios": "https://dc.lft.to/lastmile_qr_scan"}, "is_reserved": 0, "is_disabled": 0, "name": "4655769858ced12f432c3e68d2c47d77", "bike_id": "4655769858ced12f432c3e68d2c47d77", "fusion_lat": 0.0, "lon": -77.033189, "type": "electric_scooter", "fusion_lon": 0.0, "lat": 38.921494}, {"rental_uris": {"android": "https://dc.lft.to/lastmile_qr_scan", "ios": "https://dc.lft.to/lastmile_qr_scan"}, "is_reserved": 0, "is_disabled": 0, "name": "376cdc895ee0aaaf5da67e64cc5efe48", "bike_id": "376cdc895ee0aaaf5da67e64cc5efe48", "fusion_lat": 0.0, "lon": -77.033842, "type": "electric_scooter", "fusion_lon": 0.0, "lat": 38.92151533333333}, {"rental_uris": {"android": "https://dc.lft.to/lastmile_qr_scan", "ios": "https://dc.lft.to/lastmile_qr_scan"}, "is_reserved": 0, "is_disabled": 0, "name": "3a22d4dc23bf59f1ef935760de659702", "bike_id": "3a22d4dc23bf59f1ef935760de659702", "fusion_lat": 0.0, "lon": -77.02279833333333, "type": "electric_scooter", "fusion_lon": 0.0, "lat": 38.89614666666667}, {"rental_uris": {"android": "https://dc.lft.to/lastmile_qr_scan", "ios": "https://dc.lft.to/lastmile_qr_scan"}, "is_reserved": 0, "is_disabled": 0, "name": "bf5456086ae2875e5b645ee455a049cc", "bike_id": "bf5456086ae2875e5b645ee455a049cc", "fusion_lat": 0.0, "lon": -77.0802495, "type": "electric_bike", "fusion_lon": 0.0, "lat": 38.957747499999996}, {"rental_uris": {"android": "https://dc.lft.to/lastmile_qr_scan", "ios": "https://dc.lft.to/lastmile_qr_scan"}, "is_reserved": 0, "is_disabled": 0, "name": "92c46ba89447ae4985e2729207b15d64", "bike_id": "92c46ba89447ae4985e2729207b15d64", "fusion_lat": 0.0, "lon": -77.04276416666667, "type": "electric_scooter", "fusion_lon": 0.0, "lat": 38.91783733333333}, {"rental_uris": {"android": "https://dc.lft.to/lastmile_qr_scan", "ios": "https://dc.lft.to/lastmile_qr_scan"}, "is_reserved": 0, "is_disabled": 0, "name": "1f3461cd9437d7fce70eca5fab78c795", "bike_id": "1f3461cd9437d7fce70eca5fab78c795", "fusion_lat": 0.0, "lon": -77.098245, "type": "electric_bike", "fusion_lon": 0.0, "lat": 38.850184}, {"rental_uris": {"android": "https://dc.lft.to/lastmile_qr_scan", "ios": "https://dc.lft.to/lastmile_qr_scan"}, "is_reserved": 0, "is_disabled": 0, "name": "29663ca686f0f2ffa5bb78b0eb5f800d", "bike_id": "29663ca686f0f2ffa5bb78b0eb5f800d", "fusion_lat": 0.0, "lon": -76.93211883333333, "type": "electric_scooter", "fusion_lon": 0.0, "lat": 38.89668183333333}, {"rental_uris": {"android": "https://dc.lft.to/lastmile_qr_scan", "ios": "https://dc.lft.to/lastmile_qr_scan"}, "is_reserved": 0, "is_disabled": 0, "name": "8c8b947d1dab6dc1e73005d21855c057", "bike_id": "8c8b947d1dab6dc1e73005d21855c057", "fusion_lat": 0.0, "lon": -76.98631466666667, "type": "electric_scooter", "fusion_lon": 0.0, "lat": 38.880451666666666}, {"rental_uris": {"android": "https://dc.lft.to/lastmile_qr_scan", "ios": "https://dc.lft.to/lastmile_qr_scan"}, "is_reserved": 0, "is_disabled": 0, "name": "6b30d4f3d876927e4138b72c4d7faeb1", "bike_id": "6b30d4f3d876927e4138b72c4d7faeb1", "fusion_lat": 0.0, "lon": -77.0060965, "type": "electric_scooter", "fusion_lon": 0.0, "lat": 38.90558133333333}, {"rental_uris": {"android": "https://dc.lft.to/lastmile_qr_scan", "ios": "https://dc.lft.to/lastmile_qr_scan"}, "is_reserved": 0, "is_disabled": 0, "name": "9101858d73da4fd2fd0d6c09774d5164", "bike_id": "9101858d73da4fd2fd0d6c09774d5164", "fusion_lat": 0.0, "lon": -77.08528566666666, "type": "electric_bike", "fusion_lon": 0.0, "lat": 38.856517}, {"rental_uris": {"android": "https://dc.lft.to/lastmile_qr_scan", "ios": "https://dc.lft.to/lastmile_qr_scan"}, "is_reserved": 0, "is_disabled": 0, "name": "2d870c2f10faddd9b27a55d291604a01", "bike_id": "2d870c2f10faddd9b27a55d291604a01", "fusion_lat": 0.0, "lon": -77.07669583333333, "type": "electric_bike", "fusion_lon": 0.0, "lat": 38.8647995}, {"rental_uris": {"android": "https://dc.lft.to/lastmile_qr_scan", "ios": "https://dc.lft.to/lastmile_qr_scan"}, "is_reserved": 0, "is_disabled": 0, "name": "848f40ecc6f4a6bfd2384db895a75893", "bike_id": "848f40ecc6f4a6bfd2384db895a75893", "fusion_lat": 0.0, "lon": -77.0338195, "type": "electric_scooter", "fusion_lon": 0.0, "lat": 38.901156}, {"rental_uris": {"android": "https://dc.lft.to/lastmile_qr_scan", "ios": "https://dc.lft.to/lastmile_qr_scan"}, "is_reserved": 0, "is_disabled": 0, "name": "11aa6f89aa266f5a05d0ef854b3b732b", "bike_id": "11aa6f89aa266f5a05d0ef854b3b732b", "fusion_lat": 0.0, "lon": -76.991127, "type": "electric_scooter", "fusion_lon": 0.0, "lat": 38.910567}, {"rental_uris": {"android": "https://dc.lft.to/lastmile_qr_scan", "ios": "https://dc.lft.to/lastmile_qr_scan"}, "is_reserved": 0, "is_disabled": 0, "name": "035432c53b79f8259073fe3eecdf9c91", "bike_id": "035432c53b79f8259073fe3eecdf9c91", "fusion_lat": 0.0, "lon": -77.04516, "type": "electric_scooter", "fusion_lon": 0.0, "lat": 38.912887833333336}, {"rental_uris": {"android": "https://dc.lft.to/lastmile_qr_scan", "ios": "https://dc.lft.to/lastmile_qr_scan"}, "is_reserved": 0, "is_disabled": 0, "name": "5858ad672c644b6e8036482d2e0805f9", "bike_id": "5858ad672c644b6e8036482d2e0805f9", "fusion_lat": 0.0, "lon": -77.02522333333333, "type": "electric_scooter", "fusion_lon": 0.0, "lat": 38.89953166666667}, {"rental_uris": {"android": "https://dc.lft.to/lastmile_qr_scan", "ios": "https://dc.lft.to/lastmile_qr_scan"}, "is_reserved": 0, "is_disabled": 0, "name": "f8da484b70ce0f3ba44e257b7f8afd5d", "bike_id": "f8da484b70ce0f3ba44e257b7f8afd5d", "fusion_lat": 0.0, "lon": -77.02125433333333, "type": "electric_scooter", "fusion_lon": 0.0, "lat": 38.89971766666667}, {"rental_uris": {"android": "https://dc.lft.to/lastmile_qr_scan", "ios": "https://dc.lft.to/lastmile_qr_scan"}, "is_reserved": 0, "is_disabled": 0, "name": "27181f9d9f11ab5523c7f8f1563f936d", "bike_id": "27181f9d9f11ab5523c7f8f1563f936d", "fusion_lat": 0.0, "lon": -77.04009566666667, "type": "electric_scooter", "fusion_lon": 0.0, "lat": 38.9184055}, {"rental_uris": {"android": "https://dc.lft.to/lastmile_qr_scan", "ios": "https://dc.lft.to/lastmile_qr_scan"}, "is_reserved": 0, "is_disabled": 0, "name": "50f76fcf7bd0efea4eb23889562b64a3", "bike_id": "50f76fcf7bd0efea4eb23889562b64a3", "fusion_lat": 0.0, "lon": -77.033516, "type": "electric_scooter", "fusion_lon": 0.0, "lat": 38.93577283333333}, {"rental_uris": {"android": "https://dc.lft.to/lastmile_qr_scan", "ios": "https://dc.lft.to/lastmile_qr_scan"}, "is_reserved": 0, "is_disabled": 0, "name": "2675f79436711042b14d9fe43799fe02", "bike_id": "2675f79436711042b14d9fe43799fe02", "fusion_lat": 0.0, "lon": -77.06803166666667, "type": "electric_scooter", "fusion_lon": 0.0, "lat": 38.9155975}, {"rental_uris": {"android": "https://dc.lft.to/lastmile_qr_scan", "ios": "https://dc.lft.to/lastmile_qr_scan"}, "is_reserved": 0, "is_disabled": 0, "name": "b58fc68270c051bd67aba4ef9da6a261", "bike_id": "b58fc68270c051bd67aba4ef9da6a261", "fusion_lat": 0.0, "lon": -77.03175066666667, "type": "electric_scooter", "fusion_lon": 0.0, "lat": 38.9142335}, {"rental_uris": {"android": "https://dc.lft.to/lastmile_qr_scan", "ios": "https://dc.lft.to/lastmile_qr_scan"}, "is_reserved": 0, "is_disabled": 0, "name": "0224961168a9dbea5bf85c5957a065cd", "bike_id": "0224961168a9dbea5bf85c5957a065cd", "fusion_lat": 0.0, "lon": -77.038633, "type": "electric_scooter", "fusion_lon": 0.0, "lat": 38.902848666666664}, {"rental_uris": {"android": "https://dc.lft.to/lastmile_qr_scan", "ios": "https://dc.lft.to/lastmile_qr_scan"}, "is_reserved": 0, "is_disabled": 0, "name": "8f35a0c02607015d919bc31817890d8d", "bike_id": "8f35a0c02607015d919bc31817890d8d", "fusion_lat": 0.0, "lon": -76.99058516666666, "type": "electric_bike", "fusion_lon": 0.0, "lat": 38.93759333333333}, {"rental_uris": {"android": "https://dc.lft.to/lastmile_qr_scan", "ios": "https://dc.lft.to/lastmile_qr_scan"}, "is_reserved": 0, "is_disabled": 0, "name": "cc8d6626cdf7da7dd596f136f042422d", "bike_id": "cc8d6626cdf7da7dd596f136f042422d", "fusion_lat": 0.0, "lon": -77.02475066666666, "type": "electric_scooter", "fusion_lon": 0.0, "lat": 38.918158}, {"rental_uris": {"android": "https://dc.lft.to/lastmile_qr_scan", "ios": "https://dc.lft.to/lastmile_qr_scan"}, "is_reserved": 0, "is_disabled": 0, "name": "8b27ed4e1aaa896c68f3af7872dd49c0", "bike_id": "8b27ed4e1aaa896c68f3af7872dd49c0", "fusion_lat": 0.0, "lon": -77.0486945, "type": "electric_scooter", "fusion_lon": 0.0, "lat": 38.89958266666667}, {"rental_uris": {"android": "https://dc.lft.to/lastmile_qr_scan", "ios": "https://dc.lft.to/lastmile_qr_scan"}, "is_reserved": 0, "is_disabled": 0, "name": "6a1220fafb5db8fd2c83dd8a3658d4aa", "bike_id": "6a1220fafb5db8fd2c83dd8a3658d4aa", "fusion_lat": 0.0, "lon": -76.982306, "type": "electric_scooter", "fusion_lon": 0.0, "lat": 38.86891283333333}, {"rental_uris": {"android": "https://dc.lft.to/lastmile_qr_scan", "ios": "https://dc.lft.to/lastmile_qr_scan"}, "is_reserved": 0, "is_disabled": 0, "name": "8a77970754e0030b686872a250ef8f5b", "bike_id": "8a77970754e0030b686872a250ef8f5b", "fusion_lat": 0.0, "lon": -77.03416766666666, "type": "electric_scooter", "fusion_lon": 0.0, "lat": 38.930839666666664}, {"rental_uris": {"android": "https://dc.lft.to/lastmile_qr_scan", "ios": "https://dc.lft.to/lastmile_qr_scan"}, "is_reserved": 0, "is_disabled": 0, "name": "4eb4c9f7c9da97d04d8556f1c5013ff2", "bike_id": "4eb4c9f7c9da97d04d8556f1c5013ff2", "fusion_lat": 0.0, "lon": -77.04104516666666, "type": "electric_scooter", "fusion_lon": 0.0, "lat": 38.90141283333333}, {"rental_uris": {"android": "https://dc.lft.to/lastmile_qr_scan", "ios": "https://dc.lft.to/lastmile_qr_scan"}, "is_reserved": 0, "is_disabled": 0, "name": "b81f5c2208f7dd044815705648517337", "bike_id": "b81f5c2208f7dd044815705648517337", "fusion_lat": 0.0, "lon": -76.97700333333333, "type": "electric_bike", "fusion_lon": 0.0, "lat": 38.82197516666667}, {"rental_uris": {"android": "https://dc.lft.to/lastmile_qr_scan", "ios": "https://dc.lft.to/lastmile_qr_scan"}, "is_reserved": 0, "is_disabled": 0, "name": "bf1002cc4b90a1a4fa5efdeb00a2d8b5", "bike_id": "bf1002cc4b90a1a4fa5efdeb00a2d8b5", "fusion_lat": 0.0, "lon": -77.04212016666666, "type": "electric_scooter", "fusion_lon": 0.0, "lat": 38.90909683333334}, {"rental_uris": {"android": "https://dc.lft.to/lastmile_qr_scan", "ios": "https://dc.lft.to/lastmile_qr_scan"}, "is_reserved": 0, "is_disabled": 0, "name": "7c4a1741d680d5f584dda89abe72f009", "bike_id": "7c4a1741d680d5f584dda89abe72f009", "fusion_lat": 0.0, "lon": -77.00740133333333, "type": "electric_scooter", "fusion_lon": 0.0, "lat": 38.8984485}, {"rental_uris": {"android": "https://dc.lft.to/lastmile_qr_scan", "ios": "https://dc.lft.to/lastmile_qr_scan"}, "is_reserved": 0, "is_disabled": 0, "name": "02b775aae82ca7bb88063d90a27e315d", "bike_id": "02b775aae82ca7bb88063d90a27e315d", "fusion_lat": 0.0, "lon": -77.03541616666666, "type": "electric_scooter", "fusion_lon": 0.0, "lat": 38.926314}, {"rental_uris": {"android": "https://dc.lft.to/lastmile_qr_scan", "ios": "https://dc.lft.to/lastmile_qr_scan"}, "is_reserved": 0, "is_disabled": 0, "name": "480727737c7115b70fbcb6e992e85c70", "bike_id": "480727737c7115b70fbcb6e992e85c70", "fusion_lat": 0.0, "lon": -77.02789866666667, "type": "electric_scooter", "fusion_lon": 0.0, "lat": 38.96131666666667}, {"rental_uris": {"android": "https://dc.lft.to/lastmile_qr_scan", "ios": "https://dc.lft.to/lastmile_qr_scan"}, "is_reserved": 0, "is_disabled": 0, "name": "14e5a9c631e4baf040d87c9087524320", "bike_id": "14e5a9c631e4baf040d87c9087524320", "fusion_lat": 0.0, "lon": -77.06385483333334, "type": "electric_scooter", "fusion_lon": 0.0, "lat": 38.90917966666667}, {"rental_uris": {"android": "https://dc.lft.to/lastmile_qr_scan", "ios": "https://dc.lft.to/lastmile_qr_scan"}, "is_reserved": 0, "is_disabled": 0, "name": "a4839b16ec32b62a093fdfe7e82f5027", "bike_id": "a4839b16ec32b62a093fdfe7e82f5027", "fusion_lat": 0.0, "lon": -77.04498833333334, "type": "electric_scooter", "fusion_lon": 0.0, "lat": 38.8922585}, {"rental_uris": {"android": "https://dc.lft.to/lastmile_qr_scan", "ios": "https://dc.lft.to/lastmile_qr_scan"}, "is_reserved": 0, "is_disabled": 0, "name": "2bda3252349f7a8c62bff26bee7489f1", "bike_id": "2bda3252349f7a8c62bff26bee7489f1", "fusion_lat": 0.0, "lon": -77.037652, "type": "electric_scooter", "fusion_lon": 0.0, "lat": 38.90356883333333}, {"rental_uris": {"android": "https://dc.lft.to/lastmile_qr_scan", "ios": "https://dc.lft.to/lastmile_qr_scan"}, "is_reserved": 0, "is_disabled": 0, "name": "983d8082cc14f02f05c20f0b8c3fac18", "bike_id": "983d8082cc14f02f05c20f0b8c3fac18", "fusion_lat": 0.0, "lon": -76.98356033333333, "type": "electric_scooter", "fusion_lon": 0.0, "lat": 38.91544916666667}, {"rental_uris": {"android": "https://dc.lft.to/lastmile_qr_scan", "ios": "https://dc.lft.to/lastmile_qr_scan"}, "is_reserved": 0, "is_disabled": 0, "name": "a682c15d22290068a630b14d56c5682b", "bike_id": "a682c15d22290068a630b14d56c5682b", "fusion_lat": 0.0, "lon": -76.98546183333333, "type": "electric_scooter", "fusion_lon": 0.0, "lat": 38.905949166666666}, {"rental_uris": {"android": "https://dc.lft.to/lastmile_qr_scan", "ios": "https://dc.lft.to/lastmile_qr_scan"}, "is_reserved": 0, "is_disabled": 0, "name": "493ad6dd8d41f93089a265faeeea31ed", "bike_id": "493ad6dd8d41f93089a265faeeea31ed", "fusion_lat": 0.0, "lon": -76.93524733333334, "type": "electric_scooter", "fusion_lon": 0.0, "lat": 38.878983833333336}, {"rental_uris": {"android": "https://dc.lft.to/lastmile_qr_scan", "ios": "https://dc.lft.to/lastmile_qr_scan"}, "is_reserved": 0, "is_disabled": 0, "name": "c0b2ff43ef4f832fb783d469362cc978", "bike_id": "c0b2ff43ef4f832fb783d469362cc978", "fusion_lat": 0.0, "lon": -77.03848433333333, "type": "electric_scooter", "fusion_lon": 0.0, "lat": 38.90346016666667}, {"rental_uris": {"android": "https://dc.lft.to/lastmile_qr_scan", "ios": "https://dc.lft.to/lastmile_qr_scan"}, "is_reserved": 0, "is_disabled": 0, "name": "31ad7d96ab11440625a56e40c251cca7", "bike_id": "31ad7d96ab11440625a56e40c251cca7", "fusion_lat": 0.0, "lon": -77.02408566666666, "type": "electric_scooter", "fusion_lon": 0.0, "lat": 38.91706033333333}, {"rental_uris": {"android": "https://dc.lft.to/lastmile_qr_scan", "ios": "https://dc.lft.to/lastmile_qr_scan"}, "is_reserved": 0, "is_disabled": 0, "name": "ee4f38a47f60db145a3f97a8ad813dc8", "bike_id": "ee4f38a47f60db145a3f97a8ad813dc8", "fusion_lat": 0.0, "lon": -77.035892, "type": "electric_scooter", "fusion_lon": 0.0, "lat": 38.90811633333333}, {"rental_uris": {"android": "https://dc.lft.to/lastmile_qr_scan", "ios": "https://dc.lft.to/lastmile_qr_scan"}, "is_reserved": 0, "is_disabled": 0, "name": "bfa1a0a1e5e12387dccd08916c0ba714", "bike_id": "bfa1a0a1e5e12387dccd08916c0ba714", "fusion_lat": 0.0, "lon": -77.02964733333333, "type": "electric_scooter", "fusion_lon": 0.0, "lat": 38.917163}, {"rental_uris": {"android": "https://dc.lft.to/lastmile_qr_scan", "ios": "https://dc.lft.to/lastmile_qr_scan"}, "is_reserved": 0, "is_disabled": 0, "name": "8a373450367526b11916ffc316263bb0", "bike_id": "8a373450367526b11916ffc316263bb0", "fusion_lat": 0.0, "lon": -77.059982, "type": "electric_bike", "fusion_lon": 0.0, "lat": 38.862117166666664}, {"rental_uris": {"android": "https://dc.lft.to/lastmile_qr_scan", "ios": "https://dc.lft.to/lastmile_qr_scan"}, "is_reserved": 0, "is_disabled": 0, "name": "f28fbacbcaab8ab8ffabb816667e2eda", "bike_id": "f28fbacbcaab8ab8ffabb816667e2eda", "fusion_lat": 0.0, "lon": -77.02863083333334, "type": "electric_bike", "fusion_lon": 0.0, "lat": 38.9212955}, {"rental_uris": {"android": "https://dc.lft.to/lastmile_qr_scan", "ios": "https://dc.lft.to/lastmile_qr_scan"}, "is_reserved": 0, "is_disabled": 0, "name": "4b0bb721de545dc2bc7bfb688dd1e194", "bike_id": "4b0bb721de545dc2bc7bfb688dd1e194", "fusion_lat": 0.0, "lon": -76.9733305, "type": "electric_scooter", "fusion_lon": 0.0, "lat": 38.8653085}, {"rental_uris": {"android": "https://dc.lft.to/lastmile_qr_scan", "ios": "https://dc.lft.to/lastmile_qr_scan"}, "is_reserved": 0, "is_disabled": 0, "name": "aa9dc2e4a795ce1e86cc8c99b0b1790a", "bike_id": "aa9dc2e4a795ce1e86cc8c99b0b1790a", "fusion_lat": 0.0, "lon": -77.0500475, "type": "electric_scooter", "fusion_lon": 0.0, "lat": 38.8991175}, {"rental_uris": {"android": "https://dc.lft.to/lastmile_qr_scan", "ios": "https://dc.lft.to/lastmile_qr_scan"}, "is_reserved": 0, "is_disabled": 0, "name": "0341d758fef27f74270a7d89d4ce7e0a", "bike_id": "0341d758fef27f74270a7d89d4ce7e0a", "fusion_lat": 0.0, "lon": -77.02489916666667, "type": "electric_scooter", "fusion_lon": 0.0, "lat": 38.941858833333335}, {"rental_uris": {"android": "https://dc.lft.to/lastmile_qr_scan", "ios": "https://dc.lft.to/lastmile_qr_scan"}, "is_reserved": 0, "is_disabled": 0, "name": "14ef8b8c596a6212299af72f0750a22f", "bike_id": "14ef8b8c596a6212299af72f0750a22f", "fusion_lat": 0.0, "lon": -77.04358583333334, "type": "electric_scooter", "fusion_lon": 0.0, "lat": 38.90622116666667}, {"rental_uris": {"android": "https://dc.lft.to/lastmile_qr_scan", "ios": "https://dc.lft.to/lastmile_qr_scan"}, "is_reserved": 0, "is_disabled": 0, "name": "5c52c0d6b36c161979dd5f0dd012b7be", "bike_id": "5c52c0d6b36c161979dd5f0dd012b7be", "fusion_lat": 0.0, "lon": -77.01064133333334, "type": "electric_scooter", "fusion_lon": 0.0, "lat": 38.91912516666667}, {"rental_uris": {"android": "https://dc.lft.to/lastmile_qr_scan", "ios": "https://dc.lft.to/lastmile_qr_scan"}, "is_reserved": 0, "is_disabled": 0, "name": "bebb5bba3c8fda115f1d3c95dc9f1111", "bike_id": "bebb5bba3c8fda115f1d3c95dc9f1111", "fusion_lat": 0.0, "lon": -76.932292, "type": "electric_scooter", "fusion_lon": 0.0, "lat": 38.888477}, {"rental_uris": {"android": "https://dc.lft.to/lastmile_qr_scan", "ios": "https://dc.lft.to/lastmile_qr_scan"}, "is_reserved": 0, "is_disabled": 0, "name": "9dfb530760a7c254580594440a1d6c3a", "bike_id": "9dfb530760a7c254580594440a1d6c3a", "fusion_lat": 0.0, "lon": -76.9966125, "type": "electric_bike", "fusion_lon": 0.0, "lat": 38.96770983333333}, {"rental_uris": {"android": "https://dc.lft.to/lastmile_qr_scan", "ios": "https://dc.lft.to/lastmile_qr_scan"}, "is_reserved": 0, "is_disabled": 0, "name": "500ce9c61d585b9b5b78e44286524639", "bike_id": "500ce9c61d585b9b5b78e44286524639", "fusion_lat": 0.0, "lon": -76.9907105, "type": "electric_bike", "fusion_lon": 0.0, "lat": 38.898072166666665}, {"rental_uris": {"android": "https://dc.lft.to/lastmile_qr_scan", "ios": "https://dc.lft.to/lastmile_qr_scan"}, "is_reserved": 0, "is_disabled": 0, "name": "4883f0f9ddc8774f64be786da3021c83", "bike_id": "4883f0f9ddc8774f64be786da3021c83", "fusion_lat": 0.0, "lon": -77.04940733333333, "type": "electric_scooter", "fusion_lon": 0.0, "lat": 38.905342}, {"rental_uris": {"android": "https://dc.lft.to/lastmile_qr_scan", "ios": "https://dc.lft.to/lastmile_qr_scan"}, "is_reserved": 0, "is_disabled": 0, "name": "de766c973ede320adc91ffe539b81ced", "bike_id": "de766c973ede320adc91ffe539b81ced", "fusion_lat": 0.0, "lon": -77.0387105, "type": "electric_scooter", "fusion_lon": 0.0, "lat": 38.92151}, {"rental_uris": {"android": "https://dc.lft.to/lastmile_qr_scan", "ios": "https://dc.lft.to/lastmile_qr_scan"}, "is_reserved": 0, "is_disabled": 0, "name": "36652cea1da062d4a3a161f3fcf8e18e", "bike_id": "36652cea1da062d4a3a161f3fcf8e18e", "fusion_lat": 0.0, "lon": -76.98842016666667, "type": "electric_scooter", "fusion_lon": 0.0, "lat": 38.900390333333334}, {"rental_uris": {"android": "https://dc.lft.to/lastmile_qr_scan", "ios": "https://dc.lft.to/lastmile_qr_scan"}, "is_reserved": 0, "is_disabled": 0, "name": "c6ceecada231a03bb2956834cf44829a", "bike_id": "c6ceecada231a03bb2956834cf44829a", "fusion_lat": 0.0, "lon": -77.00592616666667, "type": "electric_scooter", "fusion_lon": 0.0, "lat": 38.90641}, {"rental_uris": {"android": "https://dc.lft.to/lastmile_qr_scan", "ios": "https://dc.lft.to/lastmile_qr_scan"}, "is_reserved": 0, "is_disabled": 0, "name": "c82ad68d43a5819a3416ea6ba0ac9be2", "bike_id": "c82ad68d43a5819a3416ea6ba0ac9be2", "fusion_lat": 0.0, "lon": -76.973046, "type": "electric_scooter", "fusion_lon": 0.0, "lat": 38.919906166666664}, {"rental_uris": {"android": "https://dc.lft.to/lastmile_qr_scan", "ios": "https://dc.lft.to/lastmile_qr_scan"}, "is_reserved": 0, "is_disabled": 0, "name": "33952c70068f0bb65c85c668ba49da95", "bike_id": "33952c70068f0bb65c85c668ba49da95", "fusion_lat": 0.0, "lon": -77.0467375, "type": "electric_scooter", "fusion_lon": 0.0, "lat": 38.9000705}, {"rental_uris": {"android": "https://dc.lft.to/lastmile_qr_scan", "ios": "https://dc.lft.to/lastmile_qr_scan"}, "is_reserved": 0, "is_disabled": 0, "name": "cd2e3471804b5a5624c07b0aae8e439e", "bike_id": "cd2e3471804b5a5624c07b0aae8e439e", "fusion_lat": 0.0, "lon": -77.04217183333333, "type": "electric_scooter", "fusion_lon": 0.0, "lat": 38.8961295}, {"rental_uris": {"android": "https://dc.lft.to/lastmile_qr_scan", "ios": "https://dc.lft.to/lastmile_qr_scan"}, "is_reserved": 0, "is_disabled": 0, "name": "cf46ffd41ad5b47af7f0932487b6f65d", "bike_id": "cf46ffd41ad5b47af7f0932487b6f65d", "fusion_lat": 0.0, "lon": -77.01761833333333, "type": "electric_scooter", "fusion_lon": 0.0, "lat": 38.876772833333334}, {"rental_uris": {"android": "https://dc.lft.to/lastmile_qr_scan", "ios": "https://dc.lft.to/lastmile_qr_scan"}, "is_reserved": 0, "is_disabled": 0, "name": "2ad0b5e5e58222c7d50bfad2ca71c37f", "bike_id": "2ad0b5e5e58222c7d50bfad2ca71c37f", "fusion_lat": 0.0, "lon": -77.005701, "type": "electric_scooter", "fusion_lon": 0.0, "lat": 38.885118166666665}, {"rental_uris": {"android": "https://dc.lft.to/lastmile_qr_scan", "ios": "https://dc.lft.to/lastmile_qr_scan"}, "is_reserved": 0, "is_disabled": 0, "name": "634eb4282d9e2ba303f2c1923471cddc", "bike_id": "634eb4282d9e2ba303f2c1923471cddc", "fusion_lat": 0.0, "lon": -77.04306866666667, "type": "electric_bike", "fusion_lon": 0.0, "lat": 39.0342475}, {"rental_uris": {"android": "https://dc.lft.to/lastmile_qr_scan", "ios": "https://dc.lft.to/lastmile_qr_scan"}, "is_reserved": 0, "is_disabled": 0, "name": "91b9a37265284f111b61ea5e85a46923", "bike_id": "91b9a37265284f111b61ea5e85a46923", "fusion_lat": 0.0, "lon": -77.01676, "type": "electric_scooter", "fusion_lon": 0.0, "lat": 38.92038983333333}, {"rental_uris": {"android": "https://dc.lft.to/lastmile_qr_scan", "ios": "https://dc.lft.to/lastmile_qr_scan"}, "is_reserved": 0, "is_disabled": 0, "name": "b38fd55a45fe986022c178f258c23a0b", "bike_id": "b38fd55a45fe986022c178f258c23a0b", "fusion_lat": 0.0, "lon": -77.0268845, "type": "electric_scooter", "fusion_lon": 0.0, "lat": 38.94699516666667}, {"rental_uris": {"android": "https://dc.lft.to/lastmile_qr_scan", "ios": "https://dc.lft.to/lastmile_qr_scan"}, "is_reserved": 0, "is_disabled": 0, "name": "2474649b27cb8f47fc2c70c42fcfe924", "bike_id": "2474649b27cb8f47fc2c70c42fcfe924", "fusion_lat": 0.0, "lon": -77.04014033333333, "type": "electric_scooter", "fusion_lon": 0.0, "lat": 38.9073145}, {"rental_uris": {"android": "https://dc.lft.to/lastmile_qr_scan", "ios": "https://dc.lft.to/lastmile_qr_scan"}, "is_reserved": 0, "is_disabled": 0, "name": "da5ef07876f4034799796643e1346a4f", "bike_id": "da5ef07876f4034799796643e1346a4f", "fusion_lat": 0.0, "lon": -77.01859433333334, "type": "electric_scooter", "fusion_lon": 0.0, "lat": 38.929159}, {"rental_uris": {"android": "https://dc.lft.to/lastmile_qr_scan", "ios": "https://dc.lft.to/lastmile_qr_scan"}, "is_reserved": 0, "is_disabled": 0, "name": "698edac328bcfa904cf69620fd52b7cd", "bike_id": "698edac328bcfa904cf69620fd52b7cd", "fusion_lat": 0.0, "lon": -77.00622183333333, "type": "electric_scooter", "fusion_lon": 0.0, "lat": 38.87172566666667}, {"rental_uris": {"android": "https://dc.lft.to/lastmile_qr_scan", "ios": "https://dc.lft.to/lastmile_qr_scan"}, "is_reserved": 0, "is_disabled": 0, "name": "a836d0ffcab743e274208e3c4971ce8d", "bike_id": "a836d0ffcab743e274208e3c4971ce8d", "fusion_lat": 0.0, "lon": -77.02087716666666, "type": "electric_scooter", "fusion_lon": 0.0, "lat": 38.901119666666666}, {"rental_uris": {"android": "https://dc.lft.to/lastmile_qr_scan", "ios": "https://dc.lft.to/lastmile_qr_scan"}, "is_reserved": 0, "is_disabled": 0, "name": "31928cad8d0b776c94de87266df7f9e3", "bike_id": "31928cad8d0b776c94de87266df7f9e3", "fusion_lat": 0.0, "lon": -77.0220455, "type": "electric_scooter", "fusion_lon": 0.0, "lat": 38.92465}, {"rental_uris": {"android": "https://dc.lft.to/lastmile_qr_scan", "ios": "https://dc.lft.to/lastmile_qr_scan"}, "is_reserved": 0, "is_disabled": 0, "name": "4b0132a42481806f588f5d9df4417b87", "bike_id": "4b0132a42481806f588f5d9df4417b87", "fusion_lat": 0.0, "lon": -77.03658716666666, "type": "electric_scooter", "fusion_lon": 0.0, "lat": 38.92297083333333}, {"rental_uris": {"android": "https://dc.lft.to/lastmile_qr_scan", "ios": "https://dc.lft.to/lastmile_qr_scan"}, "is_reserved": 0, "is_disabled": 0, "name": "b37b307d3f0f8d4d6c43e5623064a828", "bike_id": "b37b307d3f0f8d4d6c43e5623064a828", "fusion_lat": 0.0, "lon": -76.99073833333334, "type": "electric_bike", "fusion_lon": 0.0, "lat": 38.9426505}, {"rental_uris": {"android": "https://dc.lft.to/lastmile_qr_scan", "ios": "https://dc.lft.to/lastmile_qr_scan"}, "is_reserved": 0, "is_disabled": 0, "name": "98ce0e172377ff191edc27df04cfa98b", "bike_id": "98ce0e172377ff191edc27df04cfa98b", "fusion_lat": 0.0, "lon": -77.04348816666666, "type": "electric_scooter", "fusion_lon": 0.0, "lat": 38.900629}, {"rental_uris": {"android": "https://dc.lft.to/lastmile_qr_scan", "ios": "https://dc.lft.to/lastmile_qr_scan"}, "is_reserved": 0, "is_disabled": 0, "name": "b636ac8c63db509fdb85da35f68236f6", "bike_id": "b636ac8c63db509fdb85da35f68236f6", "fusion_lat": 0.0, "lon": -77.00675966666667, "type": "electric_scooter", "fusion_lon": 0.0, "lat": 38.9111815}, {"rental_uris": {"android": "https://dc.lft.to/lastmile_qr_scan", "ios": "https://dc.lft.to/lastmile_qr_scan"}, "is_reserved": 0, "is_disabled": 0, "name": "e5610ba9280d72b725ed6ed7eaf4b482", "bike_id": "e5610ba9280d72b725ed6ed7eaf4b482", "fusion_lat": 0.0, "lon": -77.0745445, "type": "electric_scooter", "fusion_lon": 0.0, "lat": 38.93783666666667}, {"rental_uris": {"android": "https://dc.lft.to/lastmile_qr_scan", "ios": "https://dc.lft.to/lastmile_qr_scan"}, "is_reserved": 0, "is_disabled": 0, "name": "2defae93e9f0eb480ef6bab248a9bbd9", "bike_id": "2defae93e9f0eb480ef6bab248a9bbd9", "fusion_lat": 0.0, "lon": -77.0208485, "type": "electric_scooter", "fusion_lon": 0.0, "lat": 38.92166566666667}, {"rental_uris": {"android": "https://dc.lft.to/lastmile_qr_scan", "ios": "https://dc.lft.to/lastmile_qr_scan"}, "is_reserved": 0, "is_disabled": 0, "name": "799eb70494c7e26a90c965c7fa51f633", "bike_id": "799eb70494c7e26a90c965c7fa51f633", "fusion_lat": 0.0, "lon": -76.98770966666666, "type": "electric_bike", "fusion_lon": 0.0, "lat": 38.8577125}, {"rental_uris": {"android": "https://dc.lft.to/lastmile_qr_scan", "ios": "https://dc.lft.to/lastmile_qr_scan"}, "is_reserved": 0, "is_disabled": 0, "name": "28b9e4e7421b77b2a9734ce38feef42a", "bike_id": "28b9e4e7421b77b2a9734ce38feef42a", "fusion_lat": 0.0, "lon": -77.00378783333333, "type": "electric_scooter", "fusion_lon": 0.0, "lat": 38.908800166666666}, {"rental_uris": {"android": "https://dc.lft.to/lastmile_qr_scan", "ios": "https://dc.lft.to/lastmile_qr_scan"}, "is_reserved": 0, "is_disabled": 0, "name": "05a93e24adb28bc0f9df086b254ee5ef", "bike_id": "05a93e24adb28bc0f9df086b254ee5ef", "fusion_lat": 0.0, "lon": -77.01677916666667, "type": "electric_scooter", "fusion_lon": 0.0, "lat": 38.920444333333336}, {"rental_uris": {"android": "https://dc.lft.to/lastmile_qr_scan", "ios": "https://dc.lft.to/lastmile_qr_scan"}, "is_reserved": 0, "is_disabled": 0, "name": "00b8a2d280fd91315f469c3a697257c5", "bike_id": "00b8a2d280fd91315f469c3a697257c5", "fusion_lat": 0.0, "lon": -77.03456383333334, "type": "electric_scooter", "fusion_lon": 0.0, "lat": 38.904478166666664}, {"rental_uris": {"android": "https://dc.lft.to/lastmile_qr_scan", "ios": "https://dc.lft.to/lastmile_qr_scan"}, "is_reserved": 0, "is_disabled": 0, "name": "916fa8a4508e2526c86348f9d6e31918", "bike_id": "916fa8a4508e2526c86348f9d6e31918", "fusion_lat": 0.0, "lon": -77.07280366666667, "type": "electric_scooter", "fusion_lon": 0.0, "lat": 38.934744333333335}, {"rental_uris": {"android": "https://dc.lft.to/lastmile_qr_scan", "ios": "https://dc.lft.to/lastmile_qr_scan"}, "is_reserved": 0, "is_disabled": 0, "name": "15ee939d80b92a6564b4faa163b612fe", "bike_id": "15ee939d80b92a6564b4faa163b612fe", "fusion_lat": 0.0, "lon": -77.01121616666667, "type": "electric_scooter", "fusion_lon": 0.0, "lat": 38.885129166666665}, {"rental_uris": {"android": "https://dc.lft.to/lastmile_qr_scan", "ios": "https://dc.lft.to/lastmile_qr_scan"}, "is_reserved": 0, "is_disabled": 0, "name": "5f32e5de9ec9c8cea770b166f3bfffba", "bike_id": "5f32e5de9ec9c8cea770b166f3bfffba", "fusion_lat": 0.0, "lon": -76.97805083333333, "type": "electric_scooter", "fusion_lon": 0.0, "lat": 38.920382000000004}, {"rental_uris": {"android": "https://dc.lft.to/lastmile_qr_scan", "ios": "https://dc.lft.to/lastmile_qr_scan"}, "is_reserved": 0, "is_disabled": 0, "name": "c038dfb2db9e6f92ed30097b2740c6c0", "bike_id": "c038dfb2db9e6f92ed30097b2740c6c0", "fusion_lat": 0.0, "lon": -77.05931466666667, "type": "electric_scooter", "fusion_lon": 0.0, "lat": 38.9430865}, {"rental_uris": {"android": "https://dc.lft.to/lastmile_qr_scan", "ios": "https://dc.lft.to/lastmile_qr_scan"}, "is_reserved": 0, "is_disabled": 0, "name": "1b376f70982f39ef54079ae72333a5c6", "bike_id": "1b376f70982f39ef54079ae72333a5c6", "fusion_lat": 0.0, "lon": -77.0201945, "type": "electric_scooter", "fusion_lon": 0.0, "lat": 38.915665}, {"rental_uris": {"android": "https://dc.lft.to/lastmile_qr_scan", "ios": "https://dc.lft.to/lastmile_qr_scan"}, "is_reserved": 0, "is_disabled": 0, "name": "701550d56b8e14945092c7adeb05dc09", "bike_id": "701550d56b8e14945092c7adeb05dc09", "fusion_lat": 0.0, "lon": -77.0202195, "type": "electric_scooter", "fusion_lon": 0.0, "lat": 38.9244155}, {"rental_uris": {"android": "https://dc.lft.to/lastmile_qr_scan", "ios": "https://dc.lft.to/lastmile_qr_scan"}, "is_reserved": 0, "is_disabled": 0, "name": "7674325dda0b6b4cd02018afd8f373bf", "bike_id": "7674325dda0b6b4cd02018afd8f373bf", "fusion_lat": 0.0, "lon": -76.97331233333334, "type": "electric_scooter", "fusion_lon": 0.0, "lat": 38.90405833333333}, {"rental_uris": {"android": "https://dc.lft.to/lastmile_qr_scan", "ios": "https://dc.lft.to/lastmile_qr_scan"}, "is_reserved": 0, "is_disabled": 0, "name": "3bd67ff8ab5c7a02680e2d66379bcb51", "bike_id": "3bd67ff8ab5c7a02680e2d66379bcb51", "fusion_lat": 0.0, "lon": -77.04676666666667, "type": "electric_scooter", "fusion_lon": 0.0, "lat": 38.895594}, {"rental_uris": {"android": "https://dc.lft.to/lastmile_qr_scan", "ios": "https://dc.lft.to/lastmile_qr_scan"}, "is_reserved": 0, "is_disabled": 0, "name": "9f1e8a085284de8644aa4fe61f8dccb0", "bike_id": "9f1e8a085284de8644aa4fe61f8dccb0", "fusion_lat": 0.0, "lon": -77.0282395, "type": "electric_scooter", "fusion_lon": 0.0, "lat": 38.92977033333333}, {"rental_uris": {"android": "https://dc.lft.to/lastmile_qr_scan", "ios": "https://dc.lft.to/lastmile_qr_scan"}, "is_reserved": 0, "is_disabled": 0, "name": "5ae3a34961b548f6d3a0c04d95a334e3", "bike_id": "5ae3a34961b548f6d3a0c04d95a334e3", "fusion_lat": 0.0, "lon": -77.12976333333333, "type": "electric_bike", "fusion_lon": 0.0, "lat": 38.79987466666667}, {"rental_uris": {"android": "https://dc.lft.to/lastmile_qr_scan", "ios": "https://dc.lft.to/lastmile_qr_scan"}, "is_reserved": 0, "is_disabled": 0, "name": "1486f79e5c5345d6ce140d5e3ab1a8e9", "bike_id": "1486f79e5c5345d6ce140d5e3ab1a8e9", "fusion_lat": 0.0, "lon": -77.02798383333334, "type": "electric_scooter", "fusion_lon": 0.0, "lat": 38.88427933333333}, {"rental_uris": {"android": "https://dc.lft.to/lastmile_qr_scan", "ios": "https://dc.lft.to/lastmile_qr_scan"}, "is_reserved": 0, "is_disabled": 0, "name": "cec4f71e56a4d33f9bcb42b40ed512f1", "bike_id": "cec4f71e56a4d33f9bcb42b40ed512f1", "fusion_lat": 0.0, "lon": -77.01956316666667, "type": "electric_scooter", "fusion_lon": 0.0, "lat": 38.923291166666665}, {"rental_uris": {"android": "https://dc.lft.to/lastmile_qr_scan", "ios": "https://dc.lft.to/lastmile_qr_scan"}, "is_reserved": 0, "is_disabled": 0, "name": "a893e1784661ddfc2c87f8600f929f2d", "bike_id": "a893e1784661ddfc2c87f8600f929f2d", "fusion_lat": 0.0, "lon": -77.12882216666667, "type": "electric_bike", "fusion_lon": 0.0, "lat": 38.9061165}, {"rental_uris": {"android": "https://dc.lft.to/lastmile_qr_scan", "ios": "https://dc.lft.to/lastmile_qr_scan"}, "is_reserved": 0, "is_disabled": 0, "name": "c8bf5ac085f33867e8a658dfe7efda1a", "bike_id": "c8bf5ac085f33867e8a658dfe7efda1a", "fusion_lat": 0.0, "lon": -77.00738566666666, "type": "electric_scooter", "fusion_lon": 0.0, "lat": 38.89846683333333}, {"rental_uris": {"android": "https://dc.lft.to/lastmile_qr_scan", "ios": "https://dc.lft.to/lastmile_qr_scan"}, "is_reserved": 0, "is_disabled": 0, "name": "14190fbae2ec125ff39b57487c2550dd", "bike_id": "14190fbae2ec125ff39b57487c2550dd", "fusion_lat": 0.0, "lon": -77.0173415, "type": "electric_scooter", "fusion_lon": 0.0, "lat": 38.87704466666667}, {"rental_uris": {"android": "https://dc.lft.to/lastmile_qr_scan", "ios": "https://dc.lft.to/lastmile_qr_scan"}, "is_reserved": 0, "is_disabled": 0, "name": "dbdef85cd18d027748356e0f38bf0c87", "bike_id": "dbdef85cd18d027748356e0f38bf0c87", "fusion_lat": 0.0, "lon": -77.04004033333334, "type": "electric_scooter", "fusion_lon": 0.0, "lat": 38.9342795}, {"rental_uris": {"android": "https://dc.lft.to/lastmile_qr_scan", "ios": "https://dc.lft.to/lastmile_qr_scan"}, "is_reserved": 0, "is_disabled": 0, "name": "6abff523e56ab24f62cbea1d5cf636b2", "bike_id": "6abff523e56ab24f62cbea1d5cf636b2", "fusion_lat": 0.0, "lon": -77.02373433333334, "type": "electric_scooter", "fusion_lon": 0.0, "lat": 38.892193}, {"rental_uris": {"android": "https://dc.lft.to/lastmile_qr_scan", "ios": "https://dc.lft.to/lastmile_qr_scan"}, "is_reserved": 0, "is_disabled": 0, "name": "709015a426e1442269cc9643036bab4b", "bike_id": "709015a426e1442269cc9643036bab4b", "fusion_lat": 0.0, "lon": -77.0152865, "type": "electric_scooter", "fusion_lon": 0.0, "lat": 38.893520333333335}, {"rental_uris": {"android": "https://dc.lft.to/lastmile_qr_scan", "ios": "https://dc.lft.to/lastmile_qr_scan"}, "is_reserved": 0, "is_disabled": 0, "name": "68a555e0ae230391d6a21436ec137235", "bike_id": "68a555e0ae230391d6a21436ec137235", "fusion_lat": 0.0, "lon": -77.01958983333333, "type": "electric_scooter", "fusion_lon": 0.0, "lat": 38.923269166666664}, {"rental_uris": {"android": "https://dc.lft.to/lastmile_qr_scan", "ios": "https://dc.lft.to/lastmile_qr_scan"}, "is_reserved": 0, "is_disabled": 0, "name": "6a90bf9028c0bac3e41558ce9846b95f", "bike_id": "6a90bf9028c0bac3e41558ce9846b95f", "fusion_lat": 0.0, "lon": -77.03665183333334, "type": "electric_scooter", "fusion_lon": 0.0, "lat": 38.9234035}, {"rental_uris": {"android": "https://dc.lft.to/lastmile_qr_scan", "ios": "https://dc.lft.to/lastmile_qr_scan"}, "is_reserved": 0, "is_disabled": 0, "name": "d2767d3cc37c2b3d02781a32176bc26b", "bike_id": "d2767d3cc37c2b3d02781a32176bc26b", "fusion_lat": 0.0, "lon": -77.003266, "type": "electric_scooter", "fusion_lon": 0.0, "lat": 38.880522}, {"rental_uris": {"android": "https://dc.lft.to/lastmile_qr_scan", "ios": "https://dc.lft.to/lastmile_qr_scan"}, "is_reserved": 0, "is_disabled": 0, "name": "5439d846dc481bd3e5c1d22269bd503e", "bike_id": "5439d846dc481bd3e5c1d22269bd503e", "fusion_lat": 0.0, "lon": -77.02452433333333, "type": "electric_scooter", "fusion_lon": 0.0, "lat": 38.9366635}, {"rental_uris": {"android": "https://dc.lft.to/lastmile_qr_scan", "ios": "https://dc.lft.to/lastmile_qr_scan"}, "is_reserved": 0, "is_disabled": 0, "name": "ffaafd7e392fa959f2851107b1a14ae7", "bike_id": "ffaafd7e392fa959f2851107b1a14ae7", "fusion_lat": 0.0, "lon": -76.96892783333334, "type": "electric_bike", "fusion_lon": 0.0, "lat": 38.86988}, {"rental_uris": {"android": "https://dc.lft.to/lastmile_qr_scan", "ios": "https://dc.lft.to/lastmile_qr_scan"}, "is_reserved": 0, "is_disabled": 0, "name": "7c5be872c016228a5ef704a260d7911d", "bike_id": "7c5be872c016228a5ef704a260d7911d", "fusion_lat": 0.0, "lon": -77.04183133333333, "type": "electric_scooter", "fusion_lon": 0.0, "lat": 38.9201705}, {"rental_uris": {"android": "https://dc.lft.to/lastmile_qr_scan", "ios": "https://dc.lft.to/lastmile_qr_scan"}, "is_reserved": 0, "is_disabled": 0, "name": "96dbb2a8bd5f376dc015fd55770a4d66", "bike_id": "96dbb2a8bd5f376dc015fd55770a4d66", "fusion_lat": 0.0, "lon": -77.01733583333333, "type": "electric_scooter", "fusion_lon": 0.0, "lat": 38.914229666666664}, {"rental_uris": {"android": "https://dc.lft.to/lastmile_qr_scan", "ios": "https://dc.lft.to/lastmile_qr_scan"}, "is_reserved": 0, "is_disabled": 0, "name": "7e4c5b2599f43de4717636755e4886d7", "bike_id": "7e4c5b2599f43de4717636755e4886d7", "fusion_lat": 0.0, "lon": -77.045018, "type": "electric_scooter", "fusion_lon": 0.0, "lat": 38.8975005}, {"rental_uris": {"android": "https://dc.lft.to/lastmile_qr_scan", "ios": "https://dc.lft.to/lastmile_qr_scan"}, "is_reserved": 0, "is_disabled": 0, "name": "cbabca17e578ef4ad8f913511c2ce69c", "bike_id": "cbabca17e578ef4ad8f913511c2ce69c", "fusion_lat": 0.0, "lon": -77.01223783333333, "type": "electric_scooter", "fusion_lon": 0.0, "lat": 38.91546066666667}, {"rental_uris": {"android": "https://dc.lft.to/lastmile_qr_scan", "ios": "https://dc.lft.to/lastmile_qr_scan"}, "is_reserved": 0, "is_disabled": 0, "name": "5a5b5035cd53bea3ec8bde6559603742", "bike_id": "5a5b5035cd53bea3ec8bde6559603742", "fusion_lat": 0.0, "lon": -77.0467355, "type": "electric_scooter", "fusion_lon": 0.0, "lat": 38.90014}, {"rental_uris": {"android": "https://dc.lft.to/lastmile_qr_scan", "ios": "https://dc.lft.to/lastmile_qr_scan"}, "is_reserved": 0, "is_disabled": 0, "name": "d1e1a2e331e29404c791ff7fe234e2b0", "bike_id": "d1e1a2e331e29404c791ff7fe234e2b0", "fusion_lat": 0.0, "lon": -77.03228166666666, "type": "electric_scooter", "fusion_lon": 0.0, "lat": 38.903825}, {"rental_uris": {"android": "https://dc.lft.to/lastmile_qr_scan", "ios": "https://dc.lft.to/lastmile_qr_scan"}, "is_reserved": 0, "is_disabled": 0, "name": "401826ee0b8354f27a9e9cc7e9df6bf2", "bike_id": "401826ee0b8354f27a9e9cc7e9df6bf2", "fusion_lat": 0.0, "lon": -77.03562516666666, "type": "electric_scooter", "fusion_lon": 0.0, "lat": 38.904702}, {"rental_uris": {"android": "https://dc.lft.to/lastmile_qr_scan", "ios": "https://dc.lft.to/lastmile_qr_scan"}, "is_reserved": 0, "is_disabled": 0, "name": "c07940066bf7f5e5cd066b365a48635b", "bike_id": "c07940066bf7f5e5cd066b365a48635b", "fusion_lat": 0.0, "lon": -77.01972333333333, "type": "electric_scooter", "fusion_lon": 0.0, "lat": 38.90127716666667}, {"rental_uris": {"android": "https://dc.lft.to/lastmile_qr_scan", "ios": "https://dc.lft.to/lastmile_qr_scan"}, "is_reserved": 0, "is_disabled": 0, "name": "945f842f0dcfd62b4e3e4298a46be8b0", "bike_id": "945f842f0dcfd62b4e3e4298a46be8b0", "fusion_lat": 0.0, "lon": -77.025667, "type": "electric_scooter", "fusion_lon": 0.0, "lat": 38.887449833333335}, {"rental_uris": {"android": "https://dc.lft.to/lastmile_qr_scan", "ios": "https://dc.lft.to/lastmile_qr_scan"}, "is_reserved": 0, "is_disabled": 0, "name": "767ea8a11554d65da1ea324ba938fae4", "bike_id": "767ea8a11554d65da1ea324ba938fae4", "fusion_lat": 0.0, "lon": -77.00787883333334, "type": "electric_scooter", "fusion_lon": 0.0, "lat": 38.90613366666667}, {"rental_uris": {"android": "https://dc.lft.to/lastmile_qr_scan", "ios": "https://dc.lft.to/lastmile_qr_scan"}, "is_reserved": 0, "is_disabled": 0, "name": "1b2322ae9e448862791518da0308ac7c", "bike_id": "1b2322ae9e448862791518da0308ac7c", "fusion_lat": 0.0, "lon": -77.02420316666667, "type": "electric_scooter", "fusion_lon": 0.0, "lat": 38.8922515}, {"rental_uris": {"android": "https://dc.lft.to/lastmile_qr_scan", "ios": "https://dc.lft.to/lastmile_qr_scan"}, "is_reserved": 0, "is_disabled": 0, "name": "6d5036549b738a7ca38901e8302a6308", "bike_id": "6d5036549b738a7ca38901e8302a6308", "fusion_lat": 0.0, "lon": -77.0448215, "type": "electric_scooter", "fusion_lon": 0.0, "lat": 38.90260033333333}, {"rental_uris": {"android": "https://dc.lft.to/lastmile_qr_scan", "ios": "https://dc.lft.to/lastmile_qr_scan"}, "is_reserved": 0, "is_disabled": 0, "name": "e8420e63acc17cb9218c44ee52f24b22", "bike_id": "e8420e63acc17cb9218c44ee52f24b22", "fusion_lat": 0.0, "lon": -77.03520666666667, "type": "electric_scooter", "fusion_lon": 0.0, "lat": 38.923402}, {"rental_uris": {"android": "https://dc.lft.to/lastmile_qr_scan", "ios": "https://dc.lft.to/lastmile_qr_scan"}, "is_reserved": 0, "is_disabled": 0, "name": "57da26040b23111850a465241ab515d7", "bike_id": "57da26040b23111850a465241ab515d7", "fusion_lat": 0.0, "lon": -77.04337433333333, "type": "electric_scooter", "fusion_lon": 0.0, "lat": 38.898439},