{"data": {"bikes": [{"lat": 39.01591916666667, "is_disabled": 0, "type": "electric_bike", "lon": -77.044281, "bike_id": "7a28ae51140002d6b4d5386c3fb9b7d4", "fusion_lat": 0.0, "name": "7a28ae51140002d6b4d5386c3fb9b7d4", "is_reserved": 0, "rental_uris": {"android": "https://dc.lft.to/lastmile_qr_scan", "ios": "https://dc.lft.to/lastmile_qr_scan"}, "fusion_lon": 0.0}, {"lat": 38.902233833333334, "is_disabled": 0, "type": "electric_scooter", "lon": -77.0192645, "bike_id": "2d42cbe48a55323e970e67d7fdc4c78a", "fusion_lat": 0.0, "name": "2d42cbe48a55323e970e67d7fdc4c78a", "is_reserved": 0, "rental_uris": {"android": "https://dc.lft.to/lastmile_qr_scan", "ios": "https://dc.lft.to/lastmile_qr_scan"}, "fusion_lon": 0.0}, {"lat": 38.960958, "is_disabled": 0, "type": "electric_scooter", "lon": -77.08286033333333, "bike_id": "fabd47b80b1df2092f2ac9b828e02392", "fusion_lat": 0.0, "name": "fabd47b80b1df2092f2ac9b828e02392", "is_reserved": 0, "rental_uris": {"android": "https://dc.lft.to/lastmile_qr_scan", "ios": "https://dc.lft.to/lastmile_qr_scan"}, "fusion_lon": 0.0}, {"lat": 38.902717833333334, "is_disabled": 0, "type": "electric_scooter", "lon": -77.01766166666667, "bike_id": "562a02c8274b28e2a72bd6df69010f83", "fusion_lat": 0.0, "name": "562a02c8274b28e2a72bd6df69010f83", "is_reserved": 0, "rental_uris": {"android": "https://dc.lft.to/lastmile_qr_scan", "ios": "https://dc.lft.to/lastmile_qr_scan"}, "fusion_lon": 0.0}, {"lat": 38.9221405, "is_disabled": 0, "type": "electric_scooter", "lon": -77.03289866666667, "bike_id": "e5d80236de5049f6ab05ee0cc1cb8447", "fusion_lat": 0.0, "name": "e5d80236de5049f6ab05ee0cc1cb8447", "is_reserved": 0, "rental_uris": {"android": "https://dc.lft.to/lastmile_qr_scan", "ios": "https://dc.lft.to/lastmile_qr_scan"}, "fusion_lon": 0.0}, {"lat": 38.924434166666664, "is_disabled": 0, "type": "electric_scooter", "lon": -77.0420265, "bike_id": "0e1a8124a44afc5c3c78af6e5578cb2e", "fusion_lat": 0.0, "name": "0e1a8124a44afc5c3c78af6e5578cb2e", "is_reserved": 0, "rental_uris": {"android": "https://dc.lft.to/lastmile_qr_scan", "ios": "https://dc.lft.to/lastmile_qr_scan"}, "fusion_lon": 0.0}, {"lat": 38.901414, "is_disabled": 0, "type": "electric_scooter", "lon": -77.0007355, "bike_id": "f6ef92997e8d665959e23fa02089aeda", "fusion_lat": 0.0, "name": "f6ef92997e8d665959e23fa02089aeda", "is_reserved": 0, "rental_uris": {"android": "https://dc.lft.to/lastmile_qr_scan", "ios": "https://dc.lft.to/lastmile_qr_scan"}, "fusion_lon": 0.0}, {"lat": 38.93653716666667, "is_disabled": 0, "type": "electric_bike", "lon": -77.055893, "bike_id": "359997e4057c1d5040d33857a2d5ebb1", "fusion_lat": 0.0, "name": "359997e4057c1d5040d33857a2d5ebb1", "is_reserved": 0, "rental_uris": {"android": "https://dc.lft.to/lastmile_qr_scan", "ios": "https://dc.lft.to/lastmile_qr_scan"}, "fusion_lon": 0.0}, {"lat": 38.90775383333333, "is_disabled": 0, "type": "electric_scooter", "lon": -77.03858333333334, "bike_id": "d1afbf0870b1455ce86e2a3364ebcb0a", "fusion_lat": 0.0, "name": "d1afbf0870b1455ce86e2a3364ebcb0a", "is_reserved": 0, "rental_uris": {"android": "https://dc.lft.to/lastmile_qr_scan", "ios": "https://dc.lft.to/lastmile_qr_scan"}, "fusion_lon": 0.0}, {"lat": 38.86889633333333, "is_disabled": 0, "type": "electric_scooter", "lon": -76.98314466666666, "bike_id": "1191ee29d81f95c6b68d5fe9e74e4dc1", "fusion_lat": 0.0, "name": "1191ee29d81f95c6b68d5fe9e74e4dc1", "is_reserved": 0, "rental_uris": {"android": "https://dc.lft.to/lastmile_qr_scan", "ios": "https://dc.lft.to/lastmile_qr_scan"}, "fusion_lon": 0.0}, {"lat": 38.90030566666667, "is_disabled": 0, "type": "electric_scooter", "lon": -77.04045766666667, "bike_id": "0eb6a5831289ec0d4e22f1613d442b8d", "fusion_lat": 0.0, "name": "0eb6a5831289ec0d4e22f1613d442b8d", "is_reserved": 0, "rental_uris": {"android": "https://dc.lft.to/lastmile_qr_scan", "ios": "https://dc.lft.to/lastmile_qr_scan"}, "fusion_lon": 0.0}, {"lat": 38.882637833333334, "is_disabled": 0, "type": "electric_scooter", "lon": -77.00435483333334, "bike_id": "ee4c23784dd0789f8cb2aa54dd79be33", "fusion_lat": 0.0, "name": "ee4c23784dd0789f8cb2aa54dd79be33", "is_reserved": 0, "rental_uris": {"android": "https://dc.lft.to/lastmile_qr_scan", "ios": "https://dc.lft.to/lastmile_qr_scan"}, "fusion_lon": 0.0}, {"lat": 38.898950166666665, "is_disabled": 0, "type": "electric_scooter", "lon": -76.99730166666667, "bike_id": "f64909b65f68d241ec9d5b0949642709", "fusion_lat": 0.0, "name": "f64909b65f68d241ec9d5b0949642709", "is_reserved": 0, "rental_uris": {"android": "https://dc.lft.to/lastmile_qr_scan", "ios": "https://dc.lft.to/lastmile_qr_scan"}, "fusion_lon": 0.0}, {"lat": 38.90373683333333, "is_disabled": 0, "type": "electric_scooter", "lon": -77.0164625, "bike_id": "51ea65dfe66c6f21dd74a93b8df868ac", "fusion_lat": 0.0, "name": "51ea65dfe66c6f21dd74a93b8df868ac", "is_reserved": 0, "rental_uris": {"android": "https://dc.lft.to/lastmile_qr_scan", "ios": "https://dc.lft.to/lastmile_qr_scan"}, "fusion_lon": 0.0}, {"lat": 38.90590183333333, "is_disabled": 0, "type": "electric_scooter", "lon": -77.00841483333333, "bike_id": "2abd0fa8e5fcb0dd2ea9a1f91fbf4d67", "fusion_lat": 0.0, "name": "2abd0fa8e5fcb0dd2ea9a1f91fbf4d67", "is_reserved": 0, "rental_uris": {"android": "https://dc.lft.to/lastmile_qr_scan", "ios": "https://dc.lft.to/lastmile_qr_scan"}, "fusion_lon": 0.0}, {"lat": 38.961920666666664, "is_disabled": 0, "type": "electric_bike", "lon": -77.0188965, "bike_id": "7a7202349b35d19b2bb4b7f3cf24a8a6", "fusion_lat": 0.0, "name": "7a7202349b35d19b2bb4b7f3cf24a8a6", "is_reserved": 0, "rental_uris": {"android": "https://dc.lft.to/lastmile_qr_scan", "ios": "https://dc.lft.to/lastmile_qr_scan"}, "fusion_lon": 0.0}, {"lat": 38.900492, "is_disabled": 0, "type": "electric_scooter", "lon": -77.01278, "bike_id": "e94b7e9b0e08a16c898e61e6140892b9", "fusion_lat": 0.0, "name": "e94b7e9b0e08a16c898e61e6140892b9", "is_reserved": 0, "rental_uris": {"android": "https://dc.lft.to/lastmile_qr_scan", "ios": "https://dc.lft.to/lastmile_qr_scan"}, "fusion_lon": 0.0}, {"lat": 38.91190066666667, "is_disabled": 0, "type": "electric_scooter", "lon": -77.0025965, "bike_id": "eb2abfa80959ec99ef795405083f707d", "fusion_lat": 0.0, "name": "eb2abfa80959ec99ef795405083f707d", "is_reserved": 0, "rental_uris": {"android": "https://dc.lft.to/lastmile_qr_scan", "ios": "https://dc.lft.to/lastmile_qr_scan"}, "fusion_lon": 0.0}, {"lat": 38.90291783333333, "is_disabled": 0, "type": "electric_scooter", "lon": -77.00198483333334, "bike_id": "1c9e8d2848a32cf74ad4f25246156e2c", "fusion_lat": 0.0, "name": "1c9e8d2848a32cf74ad4f25246156e2c", "is_reserved": 0, "rental_uris": {"android": "https://dc.lft.to/lastmile_qr_scan", "ios": "https://dc.lft.to/lastmile_qr_scan"}, "fusion_lon": 0.0}, {"lat": 38.909743, "is_disabled": 0, "type": "electric_scooter", "lon": -77.03205416666667, "bike_id": "d76ed8ededafeb1eb76c19299d0e3e59", "fusion_lat": 0.0, "name": "d76ed8ededafeb1eb76c19299d0e3e59", "is_reserved": 0, "rental_uris": {"android": "https://dc.lft.to/lastmile_qr_scan", "ios": "https://dc.lft.to/lastmile_qr_scan"}, "fusion_lon": 0.0}, {"lat": 38.91694916666667, "is_disabled": 0, "type": "electric_bike", "lon": -77.02737533333334, "bike_id": "ea9973a462b8d676f0c450d3196ca884", "fusion_lat": 0.0, "name": "ea9973a462b8d676f0c450d3196ca884", "is_reserved": 0, "rental_uris": {"android": "https://dc.lft.to/lastmile_qr_scan", "ios": "https://dc.lft.to/lastmile_qr_scan"}, "fusion_lon": 0.0}, {"lat": 38.90582916666666, "is_disabled": 0, "type": "electric_scooter", "lon": -77.02940133333334, "bike_id": "8372ec3c7e29ed83fd34296acaabb6d6", "fusion_lat": 0.0, "name": "8372ec3c7e29ed83fd34296acaabb6d6", "is_reserved": 0, "rental_uris": {"android": "https://dc.lft.to/lastmile_qr_scan", "ios": "https://dc.lft.to/lastmile_qr_scan"}, "fusion_lon": 0.0}, {"lat": 38.897143166666666, "is_disabled": 0, "type": "electric_scooter", "lon": -77.0079965, "bike_id": "b4cae449a06df287691f7149c3905026", "fusion_lat": 0.0, "name": "b4cae449a06df287691f7149c3905026", "is_reserved": 0, "rental_uris": {"android": "https://dc.lft.to/lastmile_qr_scan", "ios": "https://dc.lft.to/lastmile_qr_scan"}, "fusion_lon": 0.0}, {"lat": 38.910475, "is_disabled": 0, "type": "electric_scooter", "lon": -77.01515566666667, "bike_id": "60592d72776501f6a9f182a7850e33c3", "fusion_lat": 0.0, "name": "60592d72776501f6a9f182a7850e33c3", "is_reserved": 0, "rental_uris": {"android": "https://dc.lft.to/lastmile_qr_scan", "ios": "https://dc.lft.to/lastmile_qr_scan"}, "fusion_lon": 0.0}, {"lat": 38.869081666666666, "is_disabled": 0, "type": "electric_bike", "lon": -77.13186766666666, "bike_id": "e128994265dd656a2eae559b4588dcf5", "fusion_lat": 0.0, "name": "e128994265dd656a2eae559b4588dcf5", "is_reserved": 0, "rental_uris": {"android": "https://dc.lft.to/lastmile_qr_scan", "ios": "https://dc.lft.to/lastmile_qr_scan"}, "fusion_lon": 0.0}, {"lat": 38.9220365, "is_disabled": 0, "type": "electric_scooter", "lon": -77.04010166666667, "bike_id": "c9a1b00fe8b84293448b22f03ee39ccc", "fusion_lat": 0.0, "name": "c9a1b00fe8b84293448b22f03ee39ccc", "is_reserved": 0, "rental_uris": {"android": "https://dc.lft.to/lastmile_qr_scan", "ios": "https://dc.lft.to/lastmile_qr_scan"}, "fusion_lon": 0.0}, {"lat": 38.9540105, "is_disabled": 0, "type": "electric_scooter", "lon": -77.0363605, "bike_id": "1c125c849573f3d230d0657f6762e4b0", "fusion_lat": 0.0, "name": "1c125c849573f3d230d0657f6762e4b0", "is_reserved": 0, "rental_uris": {"android": "https://dc.lft.to/lastmile_qr_scan", "ios": "https://dc.lft.to/lastmile_qr_scan"}, "fusion_lon": 0.0}, {"lat": 38.90572066666667, "is_disabled": 0, "type": "electric_scooter", "lon": -77.03405216666667, "bike_id": "7bcc8f50c6e379f8677b0dc8d1525ec7", "fusion_lat": 0.0, "name": "7bcc8f50c6e379f8677b0dc8d1525ec7", "is_reserved": 0, "rental_uris": {"android": "https://dc.lft.to/lastmile_qr_scan", "ios": "https://dc.lft.to/lastmile_qr_scan"}, "fusion_lon": 0.0}, {"lat": 38.914722, "is_disabled": 0, "type": "electric_scooter", "lon": -77.03250833333334, "bike_id": "207c249fc70406cf2406885566692d1f", "fusion_lat": 0.0, "name": "207c249fc70406cf2406885566692d1f", "is_reserved": 0, "rental_uris": {"android": "https://dc.lft.to/lastmile_qr_scan", "ios": "https://dc.lft.to/lastmile_qr_scan"}, "fusion_lon": 0.0}, {"lat": 38.88600183333333, "is_disabled": 0, "type": "electric_scooter", "lon": -77.022071, "bike_id": "a2080acbf06fff2c199e3e181f8722b6", "fusion_lat": 0.0, "name": "a2080acbf06fff2c199e3e181f8722b6", "is_reserved": 0, "rental_uris": {"android": "https://dc.lft.to/lastmile_qr_scan", "ios": "https://dc.lft.to/lastmile_qr_scan"}, "fusion_lon": 0.0}, {"lat": 38.93171866666667, "is_disabled": 0, "type": "electric_scooter", "lon": -77.02819283333334, "bike_id": "30d6eff0d1a23d49a5b82a9fa681d2ac", "fusion_lat": 0.0, "name": "30d6eff0d1a23d49a5b82a9fa681d2ac", "is_reserved": 0, "rental_uris": {"android": "https://dc.lft.to/lastmile_qr_scan", "ios": "https://dc.lft.to/lastmile_qr_scan"}, "fusion_lon": 0.0}, {"lat": 38.89044633333334, "is_disabled": 0, "type": "electric_scooter", "lon": -76.951411, "bike_id": "29c66ffd8308c912b1d71624ab02a7f2", "fusion_lat": 0.0, "name": "29c66ffd8308c912b1d71624ab02a7f2", "is_reserved": 0, "rental_uris": {"android": "https://dc.lft.to/lastmile_qr_scan", "ios": "https://dc.lft.to/lastmile_qr_scan"}, "fusion_lon": 0.0}, {"lat": 38.8403165, "is_disabled": 0, "type": "electric_bike", "lon": -76.97616383333333, "bike_id": "f21883f4ff28049d6ab5c5f701ed9d1e", "fusion_lat": 0.0, "name": "f21883f4ff28049d6ab5c5f701ed9d1e", "is_reserved": 0, "rental_uris": {"android": "https://dc.lft.to/lastmile_qr_scan", "ios": "https://dc.lft.to/lastmile_qr_scan"}, "fusion_lon": 0.0}, {"lat": 38.9078125, "is_disabled": 0, "type": "electric_scooter", "lon": -77.04239666666666, "bike_id": "2139071dda0401cc1be85967166fbddf", "fusion_lat": 0.0, "name": "2139071dda0401cc1be85967166fbddf", "is_reserved": 0, "rental_uris": {"android": "https://dc.lft.to/lastmile_qr_scan", "ios": "https://dc.lft.to/lastmile_qr_scan"}, "fusion_lon": 0.0}, {"lat": 38.906531666666666, "is_disabled": 0, "type": "electric_scooter", "lon": -77.0259685, "bike_id": "c0d10e01a38f5c5763dca51f854e745b", "fusion_lat": 0.0, "name": "c0d10e01a38f5c5763dca51f854e745b", "is_reserved": 0, "rental_uris": {"android": "https://dc.lft.to/lastmile_qr_scan", "ios": "https://dc.lft.to/lastmile_qr_scan"}, "fusion_lon": 0.0}, {"lat": 38.91779233333333, "is_disabled": 0, "type": "electric_scooter", "lon": -77.0230985, "bike_id": "a7122784069fdec7e96c2f8e19a7d093", "fusion_lat": 0.0, "name": "a7122784069fdec7e96c2f8e19a7d093", "is_reserved": 0, "rental_uris": {"android": "https://dc.lft.to/lastmile_qr_scan", "ios": "https://dc.lft.to/lastmile_qr_scan"}, "fusion_lon": 0.0}, {"lat": 38.916042833333336, "is_disabled": 0, "type": "electric_scooter", "lon": -77.02128716666667, "bike_id": "61e9742ab31b78fef9061401907ed931", "fusion_lat": 0.0, "name": "61e9742ab31b78fef9061401907ed931", "is_reserved": 0, "rental_uris": {"android": "https://dc.lft.to/lastmile_qr_scan", "ios": "https://dc.lft.to/lastmile_qr_scan"}, "fusion_lon": 0.0}, {"lat": 38.9200605, "is_disabled": 0, "type": "electric_scooter", "lon": -77.020589, "bike_id": "c68f3f6e2a059214a9795e88f9c363e8", "fusion_lat": 0.0, "name": "c68f3f6e2a059214a9795e88f9c363e8", "is_reserved": 0, "rental_uris": {"android": "https://dc.lft.to/lastmile_qr_scan", "ios": "https://dc.lft.to/lastmile_qr_scan"}, "fusion_lon": 0.0}, {"lat": 38.9037265, "is_disabled": 0, "type": "electric_scooter", "lon": -77.043297, "bike_id": "c2f70f8f717b3a19edcb775eb278a049", "fusion_lat": 0.0, "name": "c2f70f8f717b3a19edcb775eb278a049", "is_reserved": 0, "rental_uris": {"android": "https://dc.lft.to/lastmile_qr_scan", "ios": "https://dc.lft.to/lastmile_qr_scan"}, "fusion_lon": 0.0}, {"lat": 38.945792, "is_disabled": 0, "type": "electric_scooter", "lon": -77.06456783333333, "bike_id": "336fb34ecc876a2743c06675ae734331", "fusion_lat": 0.0, "name": "336fb34ecc876a2743c06675ae734331", "is_reserved": 0, "rental_uris": {"android": "https://dc.lft.to/lastmile_qr_scan", "ios": "https://dc.lft.to/lastmile_qr_scan"}, "fusion_lon": 0.0}, {"lat": 38.892818166666665, "is_disabled": 0, "type": "electric_scooter", "lon": -76.95851166666667, "bike_id": "9697e5c8c881b2809ff0f9656fac68c9", "fusion_lat": 0.0, "name": "9697e5c8c881b2809ff0f9656fac68c9", "is_reserved": 0, "rental_uris": {"android": "https://dc.lft.to/lastmile_qr_scan", "ios": "https://dc.lft.to/lastmile_qr_scan"}, "fusion_lon": 0.0}, {"lat": 38.881006166666666, "is_disabled": 0, "type": "electric_scooter", "lon": -76.99505583333334, "bike_id": "d4681c816ca5d9f36b2abb81bb7f6bc0", "fusion_lat": 0.0, "name": "d4681c816ca5d9f36b2abb81bb7f6bc0", "is_reserved": 0, "rental_uris": {"android": "https://dc.lft.to/lastmile_qr_scan", "ios": "https://dc.lft.to/lastmile_qr_scan"}, "fusion_lon": 0.0}, {"lat": 38.8999235, "is_disabled": 0, "type": "electric_scooter", "lon": -76.99957316666666, "bike_id": "479475be1a951d50bcc782fb62914155", "fusion_lat": 0.0, "name": "479475be1a951d50bcc782fb62914155", "is_reserved": 0, "rental_uris": {"android": "https://dc.lft.to/lastmile_qr_scan", "ios": "https://dc.lft.to/lastmile_qr_scan"}, "fusion_lon": 0.0}, {"lat": 38.9167325, "is_disabled": 0, "type": "electric_scooter", "lon": -77.0295685, "bike_id": "8b3b13d15e77321c9453db69609e0ebd", "fusion_lat": 0.0, "name": "8b3b13d15e77321c9453db69609e0ebd", "is_reserved": 0, "rental_uris": {"android": "https://dc.lft.to/lastmile_qr_scan", "ios": "https://dc.lft.to/lastmile_qr_scan"}, "fusion_lon": 0.0}, {"lat": 38.892668, "is_disabled": 0, "type": "electric_scooter", "lon": -77.0202655, "bike_id": "73b062dd9b82a27575008b6518ad97d6", "fusion_lat": 0.0, "name": "73b062dd9b82a27575008b6518ad97d6", "is_reserved": 0, "rental_uris": {"android": "https://dc.lft.to/lastmile_qr_scan", "ios": "https://dc.lft.to/lastmile_qr_scan"}, "fusion_lon": 0.0}, {"lat": 38.92462833333333, "is_disabled": 0, "type": "electric_scooter", "lon": -77.080432, "bike_id": "d0dcefdbef270ec787dbeadd45a4c5aa", "fusion_lat": 0.0, "name": "d0dcefdbef270ec787dbeadd45a4c5aa", "is_reserved": 0, "rental_uris": {"android": "https://dc.lft.to/lastmile_qr_scan", "ios": "https://dc.lft.to/lastmile_qr_scan"}, "fusion_lon": 0.0}, {"lat": 38.929546333333334, "is_disabled": 0, "type": "electric_scooter", "lon": -76.99088083333334, "bike_id": "b3c2a63f77a87e9322a38f0260110456", "fusion_lat": 0.0, "name": "b3c2a63f77a87e9322a38f0260110456", "is_reserved": 0, "rental_uris": {"android": "https://dc.lft.to/lastmile_qr_scan", "ios": "https://dc.lft.to/lastmile_qr_scan"}, "fusion_lon": 0.0}, {"lat": 38.917922833333336, "is_disabled": 0, "type": "electric_scooter", "lon": -77.02313233333334, "bike_id": "ceddf7a540f20926646e88571dce96b7", "fusion_lat": 0.0, "name": "ceddf7a540f20926646e88571dce96b7", "is_reserved": 0, "rental_uris": {"android": "https://dc.lft.to/lastmile_qr_scan", "ios": "https://dc.lft.to/lastmile_qr_scan"}, "fusion_lon": 0.0}, {"lat": 38.91514433333333, "is_disabled": 0, "type": "electric_scooter", "lon": -77.03843316666666, "bike_id": "39a525e6744650b6b83b548b1be81875", "fusion_lat": 0.0, "name": "39a525e6744650b6b83b548b1be81875", "is_reserved": 0, "rental_uris": {"android": "https://dc.lft.to/lastmile_qr_scan", "ios": "https://dc.lft.to/lastmile_qr_scan"}, "fusion_lon": 0.0}, {"lat": 38.901473333333335, "is_disabled": 0, "type": "electric_scooter", "lon": -77.05107466666666, "bike_id": "7993e721996bc04d3b0d5dda86a0cc5b", "fusion_lat": 0.0, "name": "7993e721996bc04d3b0d5dda86a0cc5b", "is_reserved": 0, "rental_uris": {"android": "https://dc.lft.to/lastmile_qr_scan", "ios": "https://dc.lft.to/lastmile_qr_scan"}, "fusion_lon": 0.0}, {"lat": 38.894215833333334, "is_disabled": 0, "type": "electric_scooter", "lon": -77.020868, "bike_id": "aec5d997269321e7752ff964b23e6098", "fusion_lat": 0.0, "name": "aec5d997269321e7752ff964b23e6098", "is_reserved": 0, "rental_uris": {"android": "https://dc.lft.to/lastmile_qr_scan", "ios": "https://dc.lft.to/lastmile_qr_scan"}, "fusion_lon": 0.0}, {"lat": 38.95077333333333, "is_disabled": 0, "type": "electric_bike", "lon": -77.012015, "bike_id": "7d25a2b61089ebb4919badde94a2ec14", "fusion_lat": 0.0, "name": "7d25a2b61089ebb4919badde94a2ec14", "is_reserved": 0, "rental_uris": {"android": "https://dc.lft.to/lastmile_qr_scan", "ios": "https://dc.lft.to/lastmile_qr_scan"}, "fusion_lon": 0.0}, {"lat": 38.90577283333333, "is_disabled": 0, "type": "electric_scooter", "lon": -77.02204283333333, "bike_id": "8316e2be3c2ac7952892e091ecfd4f93", "fusion_lat": 0.0, "name": "8316e2be3c2ac7952892e091ecfd4f93", "is_reserved": 0, "rental_uris": {"android": "https://dc.lft.to/lastmile_qr_scan", "ios": "https://dc.lft.to/lastmile_qr_scan"}, "fusion_lon": 0.0}, {"lat": 38.935763666666666, "is_disabled": 0, "type": "electric_scooter", "lon": -77.037574, "bike_id": "8377502b054ca03309166a475833e03d", "fusion_lat": 0.0, "name": "8377502b054ca03309166a475833e03d", "is_reserved": 0, "rental_uris": {"android": "https://dc.lft.to/lastmile_qr_scan", "ios": "https://dc.lft.to/lastmile_qr_scan"}, "fusion_lon": 0.0}, {"lat": 38.88278966666667, "is_disabled": 0, "type": "electric_bike", "lon": -76.93246183333333, "bike_id": "5374ca3ba29e4d7fcfd0b6bdcc36a3b7", "fusion_lat": 0.0, "name": "5374ca3ba29e4d7fcfd0b6bdcc36a3b7", "is_reserved": 0, "rental_uris": {"android": "https://dc.lft.to/lastmile_qr_scan", "ios": "https://dc.lft.to/lastmile_qr_scan"}, "fusion_lon": 0.0}, {"lat": 38.90746083333333, "is_disabled": 0, "type": "electric_scooter", "lon": -77.04164566666667, "bike_id": "c4e6dec6403224ae5722acb5394829da", "fusion_lat": 0.0, "name": "c4e6dec6403224ae5722acb5394829da", "is_reserved": 0, "rental_uris": {"android": "https://dc.lft.to/lastmile_qr_scan", "ios": "https://dc.lft.to/lastmile_qr_scan"}, "fusion_lon": 0.0}, {"lat": 38.901942166666664, "is_disabled": 0, "type": "electric_scooter", "lon": -77.02162116666666, "bike_id": "26c962ae31b6b228acee1fb0fe86abd2", "fusion_lat": 0.0, "name": "26c962ae31b6b228acee1fb0fe86abd2", "is_reserved": 0, "rental_uris": {"android": "https://dc.lft.to/lastmile_qr_scan", "ios": "https://dc.lft.to/lastmile_qr_scan"}, "fusion_lon": 0.0}, {"lat": 38.899707666666664, "is_disabled": 0, "type": "electric_scooter", "lon": -77.05273216666667, "bike_id": "471cd08c23d8a4105ea1361e0446bb99", "fusion_lat": 0.0, "name": "471cd08c23d8a4105ea1361e0446bb99", "is_reserved": 0, "rental_uris": {"android": "https://dc.lft.to/lastmile_qr_scan", "ios": "https://dc.lft.to/lastmile_qr_scan"}, "fusion_lon": 0.0}, {"lat": 38.903329666666664, "is_disabled": 0, "type": "electric_scooter", "lon": -76.97056983333333, "bike_id": "cf67339207667daa0599466a8684912e", "fusion_lat": 0.0, "name": "cf67339207667daa0599466a8684912e", "is_reserved": 0, "rental_uris": {"android": "https://dc.lft.to/lastmile_qr_scan", "ios": "https://dc.lft.to/lastmile_qr_scan"}, "fusion_lon": 0.0}, {"lat": 38.91502633333333, "is_disabled": 0, "type": "electric_scooter", "lon": -76.98361366666667, "bike_id": "8fd0ba82f0cb9034f6bc06a12c7d6e13", "fusion_lat": 0.0, "name": "8fd0ba82f0cb9034f6bc06a12c7d6e13", "is_reserved": 0, "rental_uris": {"android": "https://dc.lft.to/lastmile_qr_scan", "ios": "https://dc.lft.to/lastmile_qr_scan"}, "fusion_lon": 0.0}, {"lat": 38.957339166666664, "is_disabled": 0, "type": "electric_scooter", "lon": -77.0238635, "bike_id": "765d2a4e22d054bcb00f82cd3ece8dc8", "fusion_lat": 0.0, "name": "765d2a4e22d054bcb00f82cd3ece8dc8", "is_reserved": 0, "rental_uris": {"android": "https://dc.lft.to/lastmile_qr_scan", "ios": "https://dc.lft.to/lastmile_qr_scan"}, "fusion_lon": 0.0}, {"lat": 38.908842166666666, "is_disabled": 0, "type": "electric_scooter", "lon": -77.0366605, "bike_id": "d7300c3b11b1806f4af889b2e82a419f", "fusion_lat": 0.0, "name": "d7300c3b11b1806f4af889b2e82a419f", "is_reserved": 0, "rental_uris": {"android": "https://dc.lft.to/lastmile_qr_scan", "ios": "https://dc.lft.to/lastmile_qr_scan"}, "fusion_lon": 0.0}, {"lat": 38.86617066666667, "is_disabled": 0, "type": "electric_scooter", "lon": -76.9866455, "bike_id": "cf72b45a0c5c541392f7aea25c33b319", "fusion_lat": 0.0, "name": "cf72b45a0c5c541392f7aea25c33b319", "is_reserved": 0, "rental_uris": {"android": "https://dc.lft.to/lastmile_qr_scan", "ios": "https://dc.lft.to/lastmile_qr_scan"}, "fusion_lon": 0.0}, {"lat": 38.91197533333333, "is_disabled": 0, "type": "electric_scooter", "lon": -77.04476716666667, "bike_id": "2735cb7ef3428e9212595e980ddfb9f8", "fusion_lat": 0.0, "name": "2735cb7ef3428e9212595e980ddfb9f8", "is_reserved": 0, "rental_uris": {"android": "https://dc.lft.to/lastmile_qr_scan", "ios": "https://dc.lft.to/lastmile_qr_scan"}, "fusion_lon": 0.0}, {"lat": 38.90092416666667, "is_disabled": 0, "type": "electric_scooter", "lon": -77.04927583333334, "bike_id": "33ce8019d4a176ed8faad5e9c6a5cbe6", "fusion_lat": 0.0, "name": "33ce8019d4a176ed8faad5e9c6a5cbe6", "is_reserved": 0, "rental_uris": {"android": "https://dc.lft.to/lastmile_qr_scan", "ios": "https://dc.lft.to/lastmile_qr_scan"}, "fusion_lon": 0.0}, {"lat": 38.93972216666667, "is_disabled": 0, "type": "electric_scooter", "lon": -77.03590566666666, "bike_id": "f35274609cae14bb0c22c67c3719b906", "fusion_lat": 0.0, "name": "f35274609cae14bb0c22c67c3719b906", "is_reserved": 0, "rental_uris": {"android": "https://dc.lft.to/lastmile_qr_scan", "ios": "https://dc.lft.to/lastmile_qr_scan"}, "fusion_lon": 0.0}, {"lat": 38.932832166666664, "is_disabled": 0, "type": "electric_scooter", "lon": -77.03554816666667, "bike_id": "d4eb26c8de1ac31b0e337be606f6a8fc", "fusion_lat": 0.0, "name": "d4eb26c8de1ac31b0e337be606f6a8fc", "is_reserved": 0, "rental_uris": {"android": "https://dc.lft.to/lastmile_qr_scan", "ios": "https://dc.lft.to/lastmile_qr_scan"}, "fusion_lon": 0.0}, {"lat": 38.957807333333335, "is_disabled": 0, "type": "electric_scooter", "lon": -77.027591, "bike_id": "78132d94347e7d2ab74e3642087f4ff7", "fusion_lat": 0.0, "name": "78132d94347e7d2ab74e3642087f4ff7", "is_reserved": 0, "rental_uris": {"android": "https://dc.lft.to/lastmile_qr_scan", "ios": "https://dc.lft.to/lastmile_qr_scan"}, "fusion_lon": 0.0}, {"lat": 38.9564635, "is_disabled": 0, "type": "electric_scooter", "lon": -77.02394266666667, "bike_id": "667e539385c410a95430698bbcf7867a", "fusion_lat": 0.0, "name": "667e539385c410a95430698bbcf7867a", "is_reserved": 0, "rental_uris": {"android": "https://dc.lft.to/lastmile_qr_scan", "ios": "https://dc.lft.to/lastmile_qr_scan"}, "fusion_lon": 0.0}, {"lat": 38.90879666666667, "is_disabled": 0, "type": "electric_scooter", "lon": -77.03673933333333, "bike_id": "5baf91a8ae0a359b1e0e70a8cc953515", "fusion_lat": 0.0, "name": "5baf91a8ae0a359b1e0e70a8cc953515", "is_reserved": 0, "rental_uris": {"android": "https://dc.lft.to/lastmile_qr_scan", "ios": "https://dc.lft.to/lastmile_qr_scan"}, "fusion_lon": 0.0}, {"lat": 38.92587566666667, "is_disabled": 0, "type": "electric_scooter", "lon": -77.02273216666667, "bike_id": "d255f920dedab3f043ca1a85a6fc6451", "fusion_lat": 0.0, "name": "d255f920dedab3f043ca1a85a6fc6451", "is_reserved": 0, "rental_uris": {"android": "https://dc.lft.to/lastmile_qr_scan", "ios": "https://dc.lft.to/lastmile_qr_scan"}, "fusion_lon": 0.0}, {"lat": 38.919097666666666, "is_disabled": 0, "type": "electric_scooter", "lon": -77.033762, "bike_id": "47b443e8f62a019e07ae60383255e591", "fusion_lat": 0.0, "name": "47b443e8f62a019e07ae60383255e591", "is_reserved": 0, "rental_uris": {"android": "https://dc.lft.to/lastmile_qr_scan", "ios": "https://dc.lft.to/lastmile_qr_scan"}, "fusion_lon": 0.0}, {"lat": 38.9334065, "is_disabled": 0, "type": "electric_scooter", "lon": -76.99311033333333, "bike_id": "9e8bac515b39877f63c49cfc652e0947", "fusion_lat": 0.0, "name": "9e8bac515b39877f63c49cfc652e0947", "is_reserved": 0, "rental_uris": {"android": "https://dc.lft.to/lastmile_qr_scan", "ios": "https://dc.lft.to/lastmile_qr_scan"}, "fusion_lon": 0.0}, {"lat": 38.9000985, "is_disabled": 0, "type": "electric_scooter", "lon": -76.9223525, "bike_id": "aec6bf0a0fdf9884d4da9360d1397f31", "fusion_lat": 0.0, "name": "aec6bf0a0fdf9884d4da9360d1397f31", "is_reserved": 0, "rental_uris": {"android": "https://dc.lft.to/lastmile_qr_scan", "ios": "https://dc.lft.to/lastmile_qr_scan"}, "fusion_lon": 0.0}, {"lat": 38.93146683333333, "is_disabled": 0, "type": "electric_scooter", "lon": -77.02145633333333, "bike_id": "cb99622e0d10fea444a289528ee8f72a", "fusion_lat": 0.0, "name": "cb99622e0d10fea444a289528ee8f72a", "is_reserved": 0, "rental_uris": {"android": "https://dc.lft.to/lastmile_qr_scan", "ios": "https://dc.lft.to/lastmile_qr_scan"}, "fusion_lon": 0.0}, {"lat": 38.90073733333333, "is_disabled": 0, "type": "electric_scooter", "lon": -77.02595, "bike_id": "f14b4971339e8cf13d65ab9015b1b649", "fusion_lat": 0.0, "name": "f14b4971339e8cf13d65ab9015b1b649", "is_reserved": 0, "rental_uris": {"android": "https://dc.lft.to/lastmile_qr_scan", "ios": "https://dc.lft.to/lastmile_qr_scan"}, "fusion_lon": 0.0}, {"lat": 38.90106433333333, "is_disabled": 0, "type": "electric_scooter", "lon": -76.98643933333334, "bike_id": "e1c4466cf1efc310fc7c18ff1078bfb9", "fusion_lat": 0.0, "name": "e1c4466cf1efc310fc7c18ff1078bfb9", "is_reserved": 0, "rental_uris": {"android": "https://dc.lft.to/lastmile_qr_scan", "ios": "https://dc.lft.to/lastmile_qr_scan"}, "fusion_lon": 0.0}, {"lat": 38.9274645, "is_disabled": 0, "type": "electric_scooter", "lon": -77.0296665, "bike_id": "c94a51e2eb6116da65cd672ab3c9523e", "fusion_lat": 0.0, "name": "c94a51e2eb6116da65cd672ab3c9523e", "is_reserved": 0, "rental_uris": {"android": "https://dc.lft.to/lastmile_qr_scan", "ios": "https://dc.lft.to/lastmile_qr_scan"}, "fusion_lon": 0.0}, {"lat": 38.91554166666667, "is_disabled": 0, "type": "electric_scooter", "lon": -77.02427466666667, "bike_id": "5eb1c79f2867a70b1caf54bc40da3634", "fusion_lat": 0.0, "name": "5eb1c79f2867a70b1caf54bc40da3634", "is_reserved": 0, "rental_uris": {"android": "https://dc.lft.to/lastmile_qr_scan", "ios": "https://dc.lft.to/lastmile_qr_scan"}, "fusion_lon": 0.0}, {"lat": 38.8849205, "is_disabled": 0, "type": "electric_scooter", "lon": -77.00726066666667, "bike_id": "1fe12a2299e2ed6f5feb1c0fe73c3071", "fusion_lat": 0.0, "name": "1fe12a2299e2ed6f5feb1c0fe73c3071", "is_reserved": 0, "rental_uris": {"android": "https://dc.lft.to/lastmile_qr_scan", "ios": "https://dc.lft.to/lastmile_qr_scan"}, "fusion_lon": 0.0}, {"lat": 38.9144735, "is_disabled": 0, "type": "electric_scooter", "lon": -77.02970116666667, "bike_id": "d245224058c713402cb9cf1b3bf37f47", "fusion_lat": 0.0, "name": "d245224058c713402cb9cf1b3bf37f47", "is_reserved": 0, "rental_uris": {"android": "https://dc.lft.to/lastmile_qr_scan", "ios": "https://dc.lft.to/lastmile_qr_scan"}, "fusion_lon": 0.0}, {"lat": 38.90361583333333, "is_disabled": 0, "type": "electric_scooter", "lon": -77.025153, "bike_id": "08105a1d5eeaaf3a9c07d7ac8d373a9a", "fusion_lat": 0.0, "name": "08105a1d5eeaaf3a9c07d7ac8d373a9a", "is_reserved": 0, "rental_uris": {"android": "https://dc.lft.to/lastmile_qr_scan", "ios": "https://dc.lft.to/lastmile_qr_scan"}, "fusion_lon": 0.0}, {"lat": 38.892597, "is_disabled": 0, "type": "electric_scooter", "lon": -76.94160083333334, "bike_id": "6943516a6c6a649c547fa3443bc939ff", "fusion_lat": 0.0, "name": "6943516a6c6a649c547fa3443bc939ff", "is_reserved": 0, "rental_uris": {"android": "https://dc.lft.to/lastmile_qr_scan", "ios": "https://dc.lft.to/lastmile_qr_scan"}, "fusion_lon": 0.0}, {"lat": 38.93988566666667, "is_disabled": 0, "type": "electric_scooter", "lon": -77.07178616666667, "bike_id": "91e55bfec828fef55b2c0de1a1c653b2", "fusion_lat": 0.0, "name": "91e55bfec828fef55b2c0de1a1c653b2", "is_reserved": 0, "rental_uris": {"android": "https://dc.lft.to/lastmile_qr_scan", "ios": "https://dc.lft.to/lastmile_qr_scan"}, "fusion_lon": 0.0}, {"lat": 38.93190083333333, "is_disabled": 0, "type": "electric_scooter", "lon": -77.0375065, "bike_id": "4ad3c8d1b4a11385ce69b8737548f9db", "fusion_lat": 0.0, "name": "4ad3c8d1b4a11385ce69b8737548f9db", "is_reserved": 0, "rental_uris": {"android": "https://dc.lft.to/lastmile_qr_scan", "ios": "https://dc.lft.to/lastmile_qr_scan"}, "fusion_lon": 0.0}, {"lat": 38.874087, "is_disabled": 0, "type": "electric_scooter", "lon": -76.97307916666666, "bike_id": "2a31816156556cc5f1e12d5d0a65a100", "fusion_lat": 0.0, "name": "2a31816156556cc5f1e12d5d0a65a100", "is_reserved": 0, "rental_uris": {"android": "https://dc.lft.to/lastmile_qr_scan", "ios": "https://dc.lft.to/lastmile_qr_scan"}, "fusion_lon": 0.0}, {"lat": 38.89912783333333, "is_disabled": 0, "type": "electric_scooter", "lon": -76.93350833333334, "bike_id": "845a54e120fdf75d0a3656e5b5975d51", "fusion_lat": 0.0, "name": "845a54e120fdf75d0a3656e5b5975d51", "is_reserved": 0, "rental_uris": {"android": "https://dc.lft.to/lastmile_qr_scan", "ios": "https://dc.lft.to/lastmile_qr_scan"}, "fusion_lon": 0.0}, {"lat": 38.89741316666667, "is_disabled": 0, "type": "electric_scooter", "lon": -77.04533783333333, "bike_id": "eb25d67016bae4ca753cfcab5b34cdac", "fusion_lat": 0.0, "name": "eb25d67016bae4ca753cfcab5b34cdac", "is_reserved": 0, "rental_uris": {"android": "https://dc.lft.to/lastmile_qr_scan", "ios": "https://dc.lft.to/lastmile_qr_scan"}, "fusion_lon": 0.0}, {"lat": 38.806816166666664, "is_disabled": 0, "type": "electric_bike", "lon": -77.081222, "bike_id": "bbfb04b3dc84536fbc64ec5173a19de0", "fusion_lat": 0.0, "name": "bbfb04b3dc84536fbc64ec5173a19de0", "is_reserved": 0, "rental_uris": {"android": "https://dc.lft.to/lastmile_qr_scan", "ios": "https://dc.lft.to/lastmile_qr_scan"}, "fusion_lon": 0.0}, {"lat": 38.91271166666667, "is_disabled": 0, "type": "electric_bike", "lon": -77.01219683333333, "bike_id": "99f2ad221a5ff17adff3c6b4d291dc69", "fusion_lat": 0.0, "name": "99f2ad221a5ff17adff3c6b4d291dc69", "is_reserved": 0, "rental_uris": {"android": "https://dc.lft.to/lastmile_qr_scan", "ios": "https://dc.lft.to/lastmile_qr_scan"}, "fusion_lon": 0.0}, {"lat": 38.917829, "is_disabled": 0, "type": "electric_scooter", "lon": -77.04335866666666, "bike_id": "bf909e78bf743589e2e4516d0ba90a49", "fusion_lat": 0.0, "name": "bf909e78bf743589e2e4516d0ba90a49", "is_reserved": 0, "rental_uris": {"android": "https://dc.lft.to/lastmile_qr_scan", "ios": "https://dc.lft.to/lastmile_qr_scan"}, "fusion_lon": 0.0}, {"lat": 38.86662466666667, "is_disabled": 0, "type": "electric_scooter", "lon": -76.9888535, "bike_id": "032cb0e9f25efa6e00f147559ea8bd8d", "fusion_lat": 0.0, "name": "032cb0e9f25efa6e00f147559ea8bd8d", "is_reserved": 0, "rental_uris": {"android": "https://dc.lft.to/lastmile_qr_scan", "ios": "https://dc.lft.to/lastmile_qr_scan"}, "fusion_lon": 0.0}, {"lat": 38.925632666666665, "is_disabled": 0, "type": "electric_scooter", "lon": -77.05752633333333, "bike_id": "c6cc968a1ee5081805847feedb9024a7", "fusion_lat": 0.0, "name": "c6cc968a1ee5081805847feedb9024a7", "is_reserved": 0, "rental_uris": {"android": "https://dc.lft.to/lastmile_qr_scan", "ios": "https://dc.lft.to/lastmile_qr_scan"}, "fusion_lon": 0.0}, {"lat": 38.91785633333333, "is_disabled": 0, "type": "electric_scooter", "lon": -77.04542666666667, "bike_id": "3c8021d528d3159185f40faea2b66221", "fusion_lat": 0.0, "name": "3c8021d528d3159185f40faea2b66221", "is_reserved": 0, "rental_uris": {"android": "https://dc.lft.to/lastmile_qr_scan", "ios": "https://dc.lft.to/lastmile_qr_scan"}, "fusion_lon": 0.0}, {"lat": 38.92144916666667, "is_disabled": 0, "type": "electric_scooter", "lon": -77.04350066666667, "bike_id": "591ecbd5df6c7b71622214a8d98cf6ec", "fusion_lat": 0.0, "name": "591ecbd5df6c7b71622214a8d98cf6ec", "is_reserved": 0, "rental_uris": {"android": "https://dc.lft.to/lastmile_qr_scan", "ios": "https://dc.lft.to/lastmile_qr_scan"}, "fusion_lon": 0.0}, {"lat": 38.90331166666667, "is_disabled": 0, "type": "electric_scooter", "lon": -76.97595683333333, "bike_id": "5d5f845a83a0fc9728b2774bc05f1cfc", "fusion_lat": 0.0, "name": "5d5f845a83a0fc9728b2774bc05f1cfc", "is_reserved": 0, "rental_uris": {"android": "https://dc.lft.to/lastmile_qr_scan", "ios": "https://dc.lft.to/lastmile_qr_scan"}, "fusion_lon": 0.0}, {"lat": 38.914129833333334, "is_disabled": 0, "type": "electric_scooter", "lon": -77.02023833333334, "bike_id": "37ed8c2fdd3769ab41f9bbea8553baea", "fusion_lat": 0.0, "name": "37ed8c2fdd3769ab41f9bbea8553baea", "is_reserved": 0, "rental_uris": {"android": "https://dc.lft.to/lastmile_qr_scan", "ios": "https://dc.lft.to/lastmile_qr_scan"}, "fusion_lon": 0.0}, {"lat": 38.90696416666667, "is_disabled": 0, "type": "electric_scooter", "lon": -77.0035985, "bike_id": "232e90021169a62446cd4ec6ea29bbff", "fusion_lat": 0.0, "name": "232e90021169a62446cd4ec6ea29bbff", "is_reserved": 0, "rental_uris": {"android": "https://dc.lft.to/lastmile_qr_scan", "ios": "https://dc.lft.to/lastmile_qr_scan"}, "fusion_lon": 0.0}, {"lat": 38.949049333333335, "is_disabled": 0, "type": "electric_bike", "lon": -76.9723895, "bike_id": "b58700197a1609d1a9cbf7f5e99a6124", "fusion_lat": 0.0, "name": "b58700197a1609d1a9cbf7f5e99a6124", "is_reserved": 0, "rental_uris": {"android": "https://dc.lft.to/lastmile_qr_scan", "ios": "https://dc.lft.to/lastmile_qr_scan"}, "fusion_lon": 0.0}, {"lat": 38.926821333333336, "is_disabled": 0, "type": "electric_scooter", "lon": -77.0157675, "bike_id": "ec26dd31d5b0b635b0ff43cc7f86e05a", "fusion_lat": 0.0, "name": "ec26dd31d5b0b635b0ff43cc7f86e05a", "is_reserved": 0, "rental_uris": {"android": "https://dc.lft.to/lastmile_qr_scan", "ios": "https://dc.lft.to/lastmile_qr_scan"}, "fusion_lon": 0.0}, {"lat": 38.883353666666665, "is_disabled": 0, "type": "electric_scooter", "lon": -77.00932483333334, "bike_id": "7ae49d66d8745dda967e059a9799ac3a", "fusion_lat": 0.0, "name": "7ae49d66d8745dda967e059a9799ac3a", "is_reserved": 0, "rental_uris": {"android": "https://dc.lft.to/lastmile_qr_scan", "ios": "https://dc.lft.to/lastmile_qr_scan"}, "fusion_lon": 0.0}, {"lat": 38.92187783333333, "is_disabled": 0, "type": "electric_scooter", "lon": -77.04353416666666, "bike_id": "4bb9ce3d931d3b8c39d1c410075ca7ff", "fusion_lat": 0.0, "name": "4bb9ce3d931d3b8c39d1c410075ca7ff", "is_reserved": 0, "rental_uris": {"android": "https://dc.lft.to/lastmile_qr_scan", "ios": "https://dc.lft.to/lastmile_qr_scan"}, "fusion_lon": 0.0}, {"lat": 38.89821366666666, "is_disabled": 0, "type": "electric_scooter", "lon": -77.0501735, "bike_id": "b798cc4bac683a338a7169128e39c8a5", "fusion_lat": 0.0, "name": "b798cc4bac683a338a7169128e39c8a5", "is_reserved": 0, "rental_uris": {"android": "https://dc.lft.to/lastmile_qr_scan", "ios": "https://dc.lft.to/lastmile_qr_scan"}, "fusion_lon": 0.0}, {"lat": 38.939786833333336, "is_disabled": 0, "type": "electric_scooter", "lon": -77.02888766666666, "bike_id": "0cff0a32be499f6a0a290d015629d72b", "fusion_lat": 0.0, "name": "0cff0a32be499f6a0a290d015629d72b", "is_reserved": 0, "rental_uris": {"android": "https://dc.lft.to/lastmile_qr_scan", "ios": "https://dc.lft.to/lastmile_qr_scan"}, "fusion_lon": 0.0}, {"lat": 38.90598266666667, "is_disabled": 0, "type": "electric_scooter", "lon": -77.034138, "bike_id": "7515aa896aef7d2195d8ec2e11cca3a7", "fusion_lat": 0.0, "name": "7515aa896aef7d2195d8ec2e11cca3a7", "is_reserved": 0, "rental_uris": {"android": "https://dc.lft.to/lastmile_qr_scan", "ios": "https://dc.lft.to/lastmile_qr_scan"}, "fusion_lon": 0.0}, {"lat": 38.9085715, "is_disabled": 0, "type": "electric_scooter", "lon": -77.00376133333333, "bike_id": "ad1646c820276ff54ebbf3ee77f86876", "fusion_lat": 0.0, "name": "ad1646c820276ff54ebbf3ee77f86876", "is_reserved": 0, "rental_uris": {"android": "https://dc.lft.to/lastmile_qr_scan", "ios": "https://dc.lft.to/lastmile_qr_scan"}, "fusion_lon": 0.0}, {"lat": 38.9111625, "is_disabled": 0, "type": "electric_scooter", "lon": -77.0373225, "bike_id": "f81e5fbd7b7949652a37e73039443eb2", "fusion_lat": 0.0, "name": "f81e5fbd7b7949652a37e73039443eb2", "is_reserved": 0, "rental_uris": {"android": "https://dc.lft.to/lastmile_qr_scan", "ios": "https://dc.lft.to/lastmile_qr_scan"}, "fusion_lon": 0.0}, {"lat": 38.927948666666666, "is_disabled": 0, "type": "electric_scooter", "lon": -77.05251766666666, "bike_id": "9a96a4ac6d6a99f8f203660c6dd5c098", "fusion_lat": 0.0, "name": "9a96a4ac6d6a99f8f203660c6dd5c098", "is_reserved": 0, "rental_uris": {"android": "https://dc.lft.to/lastmile_qr_scan", "ios": "https://dc.lft.to/lastmile_qr_scan"}, "fusion_lon": 0.0}, {"lat": 38.91926933333333, "is_disabled": 0, "type": "electric_scooter", "lon": -77.02385766666667, "bike_id": "f2f788e4657bcb04dbb0126c71bb23a4", "fusion_lat": 0.0, "name": "f2f788e4657bcb04dbb0126c71bb23a4", "is_reserved": 0, "rental_uris": {"android": "https://dc.lft.to/lastmile_qr_scan", "ios": "https://dc.lft.to/lastmile_qr_scan"}, "fusion_lon": 0.0}, {"lat": 38.937049, "is_disabled": 0, "type": "electric_scooter", "lon": -77.06104833333333, "bike_id": "a746b5fd52d42a4df191c451da4856c4", "fusion_lat": 0.0, "name": "a746b5fd52d42a4df191c451da4856c4", "is_reserved": 0, "rental_uris": {"android": "https://dc.lft.to/lastmile_qr_scan", "ios": "https://dc.lft.to/lastmile_qr_scan"}, "fusion_lon": 0.0}, {"lat": 38.896079, "is_disabled": 0, "type": "electric_scooter", "lon": -77.00927633333333, "bike_id": "034b9c55c655ba8439338c5ebd060aff", "fusion_lat": 0.0, "name": "034b9c55c655ba8439338c5ebd060aff", "is_reserved": 0, "rental_uris": {"android": "https://dc.lft.to/lastmile_qr_scan", "ios": "https://dc.lft.to/lastmile_qr_scan"}, "fusion_lon": 0.0}, {"lat": 38.93383133333333, "is_disabled": 0, "type": "electric_scooter", "lon": -76.99516333333334, "bike_id": "fb0f6eac431336b89c239047aff0fb63", "fusion_lat": 0.0, "name": "fb0f6eac431336b89c239047aff0fb63", "is_reserved": 0, "rental_uris": {"android": "https://dc.lft.to/lastmile_qr_scan", "ios": "https://dc.lft.to/lastmile_qr_scan"}, "fusion_lon": 0.0}, {"lat": 38.919204, "is_disabled": 0, "type": "electric_scooter", "lon": -77.02420716666667, "bike_id": "77ed128418149183de7c426f03deb101", "fusion_lat": 0.0, "name": "77ed128418149183de7c426f03deb101", "is_reserved": 0, "rental_uris": {"android": "https://dc.lft.to/lastmile_qr_scan", "ios": "https://dc.lft.to/lastmile_qr_scan"}, "fusion_lon": 0.0}, {"lat": 38.89850216666667, "is_disabled": 0, "type": "electric_bike", "lon": -76.931921, "bike_id": "221c2f34a8c5b31ed34bbcbf6968c7ad", "fusion_lat": 0.0, "name": "221c2f34a8c5b31ed34bbcbf6968c7ad", "is_reserved": 0, "rental_uris": {"android": "https://dc.lft.to/lastmile_qr_scan", "ios": "https://dc.lft.to/lastmile_qr_scan"}, "fusion_lon": 0.0}, {"lat": 38.935674166666665, "is_disabled": 0, "type": "electric_scooter", "lon": -77.03265966666666, "bike_id": "9e4597c37956a0997002424d46b20359", "fusion_lat": 0.0, "name": "9e4597c37956a0997002424d46b20359", "is_reserved": 0, "rental_uris": {"android": "https://dc.lft.to/lastmile_qr_scan", "ios": "https://dc.lft.to/lastmile_qr_scan"}, "fusion_lon": 0.0}, {"lat": 38.910478833333336, "is_disabled": 0, "type": "electric_scooter", "lon": -77.0434735, "bike_id": "e0932acbe084ae0a4e5ad43e6c0ed940", "fusion_lat": 0.0, "name": "e0932acbe084ae0a4e5ad43e6c0ed940", "is_reserved": 0, "rental_uris": {"android": "https://dc.lft.to/lastmile_qr_scan", "ios": "https://dc.lft.to/lastmile_qr_scan"}, "fusion_lon": 0.0}, {"lat": 38.90560466666667, "is_disabled": 0, "type": "electric_scooter", "lon": -77.03621383333333, "bike_id": "62165666b1cd6b1e9329dbf328378338", "fusion_lat": 0.0, "name": "62165666b1cd6b1e9329dbf328378338", "is_reserved": 0, "rental_uris": {"android": "https://dc.lft.to/lastmile_qr_scan", "ios": "https://dc.lft.to/lastmile_qr_scan"}, "fusion_lon": 0.0}, {"lat": 38.9281055, "is_disabled": 0, "type": "electric_scooter", "lon": -77.02616466666667, "bike_id": "db8806c156429a980d6da4781f0f51f8", "fusion_lat": 0.0, "name": "db8806c156429a980d6da4781f0f51f8", "is_reserved": 0, "rental_uris": {"android": "https://dc.lft.to/lastmile_qr_scan", "ios": "https://dc.lft.to/lastmile_qr_scan"}, "fusion_lon": 0.0}, {"lat": 38.915290666666664, "is_disabled": 0, "type": "electric_scooter", "lon": -77.03207033333334, "bike_id": "c54b86e53d78b18280524d02403a6152", "fusion_lat": 0.0, "name": "c54b86e53d78b18280524d02403a6152", "is_reserved": 0, "rental_uris": {"android": "https://dc.lft.to/lastmile_qr_scan", "ios": "https://dc.lft.to/lastmile_qr_scan"}, "fusion_lon": 0.0}, {"lat": 38.90348633333333, "is_disabled": 0, "type": "electric_scooter", "lon": -77.044959, "bike_id": "e3377e4ba264c8cdfff0711b37014fbb", "fusion_lat": 0.0, "name": "e3377e4ba264c8cdfff0711b37014fbb", "is_reserved": 0, "rental_uris": {"android": "https://dc.lft.to/lastmile_qr_scan", "ios": "https://dc.lft.to/lastmile_qr_scan"}, "fusion_lon": 0.0}, {"lat": 38.89706483333333, "is_disabled": 0, "type": "electric_scooter", "lon": -77.00840583333333, "bike_id": "bfc5fa51041c8744cb71d02af6bafbdd", "fusion_lat": 0.0, "name": "bfc5fa51041c8744cb71d02af6bafbdd", "is_reserved": 0, "rental_uris": {"android": "https://dc.lft.to/lastmile_qr_scan", "ios": "https://dc.lft.to/lastmile_qr_scan"}, "fusion_lon": 0.0}, {"lat": 38.90092516666667, "is_disabled": 0, "type": "electric_scooter", "lon": -77.049084, "bike_id": "8c83f3615bd2eefbfa7cf95e24acc0b5", "fusion_lat": 0.0, "name": "8c83f3615bd2eefbfa7cf95e24acc0b5", "is_reserved": 0, "rental_uris": {"android": "https://dc.lft.to/lastmile_qr_scan", "ios": "https://dc.lft.to/lastmile_qr_scan"}, "fusion_lon": 0.0}, {"lat": 38.927932, "is_disabled": 0, "type": "electric_scooter", "lon": -77.05528166666667, "bike_id": "8b580688f06958df2b11a0cd58bea2b0", "fusion_lat": 0.0, "name": "8b580688f06958df2b11a0cd58bea2b0", "is_reserved": 0, "rental_uris": {"android": "https://dc.lft.to/lastmile_qr_scan", "ios": "https://dc.lft.to/lastmile_qr_scan"}, "fusion_lon": 0.0}, {"lat": 38.863897333333334, "is_disabled": 0, "type": "electric_bike", "lon": -76.98990716666667, "bike_id": "e94719f4cd3bc9b657f19cfdf8181849", "fusion_lat": 0.0, "name": "e94719f4cd3bc9b657f19cfdf8181849", "is_reserved": 0, "rental_uris": {"android": "https://dc.lft.to/lastmile_qr_scan", "ios": "https://dc.lft.to/lastmile_qr_scan"}, "fusion_lon": 0.0}, {"lat": 38.93876316666667, "is_disabled": 0, "type": "electric_scooter", "lon": -77.02012116666667, "bike_id": "a030e338d51dbea8c8f12e964dfa298b", "fusion_lat": 0.0, "name": "a030e338d51dbea8c8f12e964dfa298b", "is_reserved": 0, "rental_uris": {"android": "https://dc.lft.to/lastmile_qr_scan", "ios": "https://dc.lft.to/lastmile_qr_scan"}, "fusion_lon": 0.0}, {"lat": 38.90295866666666, "is_disabled": 0, "type": "electric_scooter", "lon": -77.0332855, "bike_id": "d4c91cdedf9e4bce2e6d7320fb3e5300", "fusion_lat": 0.0, "name": "d4c91cdedf9e4bce2e6d7320fb3e5300", "is_reserved": 0, "rental_uris": {"android": "https://dc.lft.to/lastmile_qr_scan", "ios": "https://dc.lft.to/lastmile_qr_scan"}, "fusion_lon": 0.0}, {"lat": 38.93371033333333, "is_disabled": 0, "type": "electric_scooter", "lon": -77.0238395, "bike_id": "9b323ebfbd7598e89639cc1bab3cd0d7", "fusion_lat": 0.0, "name": "9b323ebfbd7598e89639cc1bab3cd0d7", "is_reserved": 0, "rental_uris": {"android": "https://dc.lft.to/lastmile_qr_scan", "ios": "https://dc.lft.to/lastmile_qr_scan"}, "fusion_lon": 0.0}, {"lat": 38.9533285, "is_disabled": 0, "type": "electric_bike", "lon": -76.97364916666666, "bike_id": "5c10a61850a70316b926a81a68c1a59a", "fusion_lat": 0.0, "name": "5c10a61850a70316b926a81a68c1a59a", "is_reserved": 0, "rental_uris": {"android": "https://dc.lft.to/lastmile_qr_scan", "ios": "https://dc.lft.to/lastmile_qr_scan"}, "fusion_lon": 0.0}, {"lat": 38.925818666666665, "is_disabled": 0, "type": "electric_scooter", "lon": -77.028321, "bike_id": "a4e89878422a42ac51ac5447e83e8489", "fusion_lat": 0.0, "name": "a4e89878422a42ac51ac5447e83e8489", "is_reserved": 0, "rental_uris": {"android": "https://dc.lft.to/lastmile_qr_scan", "ios": "https://dc.lft.to/lastmile_qr_scan"}, "fusion_lon": 0.0}, {"lat": 39.00005066666667, "is_disabled": 0, "type": "electric_bike", "lon": -76.91081616666666, "bike_id": "4d8a6c27d7a8425ca8984f6cc1fea64f", "fusion_lat": 0.0, "name": "4d8a6c27d7a8425ca8984f6cc1fea64f", "is_reserved": 0, "rental_uris": {"android": "https://dc.lft.to/lastmile_qr_scan", "ios": "https://dc.lft.to/lastmile_qr_scan"}, "fusion_lon": 0.0}, {"lat": 38.865572, "is_disabled": 0, "type": "electric_scooter", "lon": -76.974245, "bike_id": "3c5bc5e02262d10a00dc1c5497340cba", "fusion_lat": 0.0, "name": "3c5bc5e02262d10a00dc1c5497340cba", "is_reserved": 0, "rental_uris": {"android": "https://dc.lft.to/lastmile_qr_scan", "ios": "https://dc.lft.to/lastmile_qr_scan"}, "fusion_lon": 0.0}, {"lat": 38.93300116666666, "is_disabled": 0, "type": "electric_scooter", "lon": -77.02849133333333, "bike_id": "1f0a31d630868b3dd0c9eba240995699", "fusion_lat": 0.0, "name": "1f0a31d630868b3dd0c9eba240995699", "is_reserved": 0, "rental_uris": {"android": "https://dc.lft.to/lastmile_qr_scan", "ios": "https://dc.lft.to/lastmile_qr_scan"}, "fusion_lon": 0.0}, {"lat": 38.903621, "is_disabled": 0, "type": "electric_scooter", "lon": -77.0034345, "bike_id": "50cb3b3beeafc9540a1051a58893bf91", "fusion_lat": 0.0, "name": "50cb3b3beeafc9540a1051a58893bf91", "is_reserved": 0, "rental_uris": {"android": "https://dc.lft.to/lastmile_qr_scan", "ios": "https://dc.lft.to/lastmile_qr_scan"}, "fusion_lon": 0.0}, {"lat": 38.9256155, "is_disabled": 0, "type": "electric_scooter", "lon": -77.0574945, "bike_id": "0cdda3578d9797dcf403fe2e88451ba5", "fusion_lat": 0.0, "name": "0cdda3578d9797dcf403fe2e88451ba5", "is_reserved": 0, "rental_uris": {"android": "https://dc.lft.to/lastmile_qr_scan", "ios": "https://dc.lft.to/lastmile_qr_scan"}, "fusion_lon": 0.0}, {"lat": 38.8809515, "is_disabled": 0, "type": "electric_scooter", "lon": -76.9985695, "bike_id": "082c3a89f3e62b9481d49c34747ba6ef", "fusion_lat": 0.0, "name": "082c3a89f3e62b9481d49c34747ba6ef", "is_reserved": 0, "rental_uris": {"android": "https://dc.lft.to/lastmile_qr_scan", "ios": "https://dc.lft.to/lastmile_qr_scan"}, "fusion_lon": 0.0}, {"lat": 38.89773683333333, "is_disabled": 0, "type": "electric_bike", "lon": -76.90434883333333, "bike_id": "eb6589e5eada1ca4f43e25d24ec62cac", "fusion_lat": 0.0, "name": "eb6589e5eada1ca4f43e25d24ec62cac", "is_reserved": 0, "rental_uris": {"android": "https://dc.lft.to/lastmile_qr_scan", "ios": "https://dc.lft.to/lastmile_qr_scan"}, "fusion_lon": 0.0}, {"lat": 38.919652, "is_disabled": 0, "type": "electric_scooter", "lon": -77.0121445, "bike_id": "dcd9b4b832779ba07e90a5ef468b0361", "fusion_lat": 0.0, "name": "dcd9b4b832779ba07e90a5ef468b0361", "is_reserved": 0, "rental_uris": {"android": "https://dc.lft.to/lastmile_qr_scan", "ios": "https://dc.lft.to/lastmile_qr_scan"}, "fusion_lon": 0.0}, {"lat": 38.8980355, "is_disabled": 0, "type": "electric_scooter", "lon": -77.00056816666667, "bike_id": "34b3ce78392bdaaee85ab9046dafa69e", "fusion_lat": 0.0, "name": "34b3ce78392bdaaee85ab9046dafa69e", "is_reserved": 0, "rental_uris": {"android": "https://dc.lft.to/lastmile_qr_scan", "ios": "https://dc.lft.to/lastmile_qr_scan"}, "fusion_lon": 0.0}, {"lat": 38.90201416666667, "is_disabled": 0, "type": "electric_scooter", "lon": -77.021808, "bike_id": "06991d1d20c03011510a5ed3ad275bc6", "fusion_lat": 0.0, "name": "06991d1d20c03011510a5ed3ad275bc6", "is_reserved": 0, "rental_uris": {"android": "https://dc.lft.to/lastmile_qr_scan", "ios": "https://dc.lft.to/lastmile_qr_scan"}, "fusion_lon": 0.0}, {"lat": 38.900844166666666, "is_disabled": 0, "type": "electric_scooter", "lon": -77.049577, "bike_id": "34fd20832f20c91aa4640114bd56c8df", "fusion_lat": 0.0, "name": "34fd20832f20c91aa4640114bd56c8df", "is_reserved": 0, "rental_uris": {"android": "https://dc.lft.to/lastmile_qr_scan", "ios": "https://dc.lft.to/lastmile_qr_scan"}, "fusion_lon": 0.0}, {"lat": 38.9562325, "is_disabled": 0, "type": "electric_bike", "lon": -76.9388485, "bike_id": "6e790b3d9125c325cd563529d6c9c811", "fusion_lat": 0.0, "name": "6e790b3d9125c325cd563529d6c9c811", "is_reserved": 0, "rental_uris": {"android": "https://dc.lft.to/lastmile_qr_scan", "ios": "https://dc.lft.to/lastmile_qr_scan"}, "fusion_lon": 0.0}, {"lat": 38.90611116666667, "is_disabled": 0, "type": "electric_scooter", "lon": -77.01526966666667, "bike_id": "d17cedc7d24c03274022399a43277cb4", "fusion_lat": 0.0, "name": "d17cedc7d24c03274022399a43277cb4", "is_reserved": 0, "rental_uris": {"android": "https://dc.lft.to/lastmile_qr_scan", "ios": "https://dc.lft.to/lastmile_qr_scan"}, "fusion_lon": 0.0}, {"lat": 38.92747216666667, "is_disabled": 0, "type": "electric_scooter", "lon": -76.99714716666666, "bike_id": "12800def44999990d213268efb3519e5", "fusion_lat": 0.0, "name": "12800def44999990d213268efb3519e5", "is_reserved": 0, "rental_uris": {"android": "https://dc.lft.to/lastmile_qr_scan", "ios": "https://dc.lft.to/lastmile_qr_scan"}, "fusion_lon": 0.0}, {"lat": 38.842726166666665, "is_disabled": 0, "type": "electric_bike", "lon": -76.9884765, "bike_id": "b872a2ad79e6e67de4290acd8a8ae5bc", "fusion_lat": 0.0, "name": "b872a2ad79e6e67de4290acd8a8ae5bc", "is_reserved": 0, "rental_uris": {"android": "https://dc.lft.to/lastmile_qr_scan", "ios": "https://dc.lft.to/lastmile_qr_scan"}, "fusion_lon": 0.0}, {"lat": 38.93279116666667, "is_disabled": 0, "type": "electric_scooter", "lon": -77.026762, "bike_id": "939b212e139b90304cf5ef39ff87218b", "fusion_lat": 0.0, "name": "939b212e139b90304cf5ef39ff87218b", "is_reserved": 0, "rental_uris": {"android": "https://dc.lft.to/lastmile_qr_scan", "ios": "https://dc.lft.to/lastmile_qr_scan"}, "fusion_lon": 0.0}, {"lat": 38.802288833333336, "is_disabled": 0, "type": "electric_bike", "lon": -77.0791775, "bike_id": "4fd2a7dd66f0857271bd778d621fe79f", "fusion_lat": 0.0, "name": "4fd2a7dd66f0857271bd778d621fe79f", "is_reserved": 0, "rental_uris": {"android": "https://dc.lft.to/lastmile_qr_scan", "ios": "https://dc.lft.to/lastmile_qr_scan"}, "fusion_lon": 0.0}, {"lat": 38.92099316666667, "is_disabled": 0, "type": "electric_scooter", "lon": -77.04684616666667, "bike_id": "5397ba86c3e7e8d1b7fe494c7397dbb9", "fusion_lat": 0.0, "name": "5397ba86c3e7e8d1b7fe494c7397dbb9", "is_reserved": 0, "rental_uris": {"android": "https://dc.lft.to/lastmile_qr_scan", "ios": "https://dc.lft.to/lastmile_qr_scan"}, "fusion_lon": 0.0}, {"lat": 38.86365766666667, "is_disabled": 0, "type": "electric_scooter", "lon": -76.99030366666666, "bike_id": "fbc016dff4085b42894be2a8ea59d5c2", "fusion_lat": 0.0, "name": "fbc016dff4085b42894be2a8ea59d5c2", "is_reserved": 0, "rental_uris": {"android": "https://dc.lft.to/lastmile_qr_scan", "ios": "https://dc.lft.to/lastmile_qr_scan"}, "fusion_lon": 0.0}, {"lat": 38.88535266666667, "is_disabled": 0, "type": "electric_scooter", "lon": -76.98270333333333, "bike_id": "5b81a5517fb188fdcf7adb0a8affe2d4", "fusion_lat": 0.0, "name": "5b81a5517fb188fdcf7adb0a8affe2d4", "is_reserved": 0, "rental_uris": {"android": "https://dc.lft.to/lastmile_qr_scan", "ios": "https://dc.lft.to/lastmile_qr_scan"}, "fusion_lon": 0.0}, {"lat": 38.93382166666667, "is_disabled": 0, "type": "electric_scooter", "lon": -76.99515933333333, "bike_id": "c2e868183e3e71883db5b20a7b6ac328", "fusion_lat": 0.0, "name": "c2e868183e3e71883db5b20a7b6ac328", "is_reserved": 0, "rental_uris": {"android": "https://dc.lft.to/lastmile_qr_scan", "ios": "https://dc.lft.to/lastmile_qr_scan"}, "fusion_lon": 0.0}, {"lat": 38.9812815, "is_disabled": 0, "type": "electric_bike", "lon": -77.0951435, "bike_id": "27e4de714b1a01de8156efaaa479fc27", "fusion_lat": 0.0, "name": "27e4de714b1a01de8156efaaa479fc27", "is_reserved": 0, "rental_uris": {"android": "https://dc.lft.to/lastmile_qr_scan", "ios": "https://dc.lft.to/lastmile_qr_scan"}, "fusion_lon": 0.0}, {"lat": 38.91761483333333, "is_disabled": 0, "type": "electric_scooter", "lon": -77.044256, "bike_id": "2035e6fb0cfb5da6be7ae1af35ff3166", "fusion_lat": 0.0, "name": "2035e6fb0cfb5da6be7ae1af35ff3166", "is_reserved": 0, "rental_uris": {"android": "https://dc.lft.to/lastmile_qr_scan", "ios": "https://dc.lft.to/lastmile_qr_scan"}, "fusion_lon": 0.0}, {"lat": 38.924518, "is_disabled": 0, "type": "electric_scooter", "lon": -77.03968216666667, "bike_id": "afdeafc7f640a8e47755c5620435e2ad", "fusion_lat": 0.0, "name": "afdeafc7f640a8e47755c5620435e2ad", "is_reserved": 0, "rental_uris": {"android": "https://dc.lft.to/lastmile_qr_scan", "ios": "https://dc.lft.to/lastmile_qr_scan"}, "fusion_lon": 0.0}, {"lat": 38.903515666666664, "is_disabled": 0, "type": "electric_scooter", "lon": -77.04483516666667, "bike_id": "aef2542cf3362ad002c333b0b7162816", "fusion_lat": 0.0, "name": "aef2542cf3362ad002c333b0b7162816", "is_reserved": 0, "rental_uris": {"android": "https://dc.lft.to/lastmile_qr_scan", "ios": "https://dc.lft.to/lastmile_qr_scan"}, "fusion_lon": 0.0}, {"lat": 38.89702466666667, "is_disabled": 0, "type": "electric_scooter", "lon": -77.0222375, "bike_id": "2d285723dc970024c250a67bde3df885", "fusion_lat": 0.0, "name": "2d285723dc970024c250a67bde3df885", "is_reserved": 0, "rental_uris": {"android": "https://dc.lft.to/lastmile_qr_scan", "ios": "https://dc.lft.to/lastmile_qr_scan"}, "fusion_lon": 0.0}, {"lat": 38.9279785, "is_disabled": 0, "type": "electric_scooter", "lon": -77.0259885, "bike_id": "565524c6f6ef59a4377a489b61c61389", "fusion_lat": 0.0, "name": "565524c6f6ef59a4377a489b61c61389", "is_reserved": 0, "rental_uris": {"android": "https://dc.lft.to/lastmile_qr_scan", "ios": "https://dc.lft.to/lastmile_qr_scan"}, "fusion_lon": 0.0}, {"lat": 38.9182515, "is_disabled": 0, "type": "electric_scooter", "lon": -77.01212816666667, "bike_id": "aa7b11e5a701d63992c479bee898b0af", "fusion_lat": 0.0, "name": "aa7b11e5a701d63992c479bee898b0af", "is_reserved": 0, "rental_uris": {"android": "https://dc.lft.to/lastmile_qr_scan", "ios": "https://dc.lft.to/lastmile_qr_scan"}, "fusion_lon": 0.0}, {"lat": 38.920631, "is_disabled": 0, "type": "electric_scooter", "lon": -77.0244015, "bike_id": "7d3707b4fbb7d221a79f5554a6247c0a", "fusion_lat": 0.0, "name": "7d3707b4fbb7d221a79f5554a6247c0a", "is_reserved": 0, "rental_uris": {"android": "https://dc.lft.to/lastmile_qr_scan", "ios": "https://dc.lft.to/lastmile_qr_scan"}, "fusion_lon": 0.0}, {"lat": 38.90000966666667, "is_disabled": 0, "type": "electric_scooter", "lon": -77.02157216666667, "bike_id": "200f7bc6361f38964ab501b743019f33", "fusion_lat": 0.0, "name": "200f7bc6361f38964ab501b743019f33", "is_reserved": 0, "rental_uris": {"android": "https://dc.lft.to/lastmile_qr_scan", "ios": "https://dc.lft.to/lastmile_qr_scan"}, "fusion_lon": 0.0}, {"lat": 38.87065916666667, "is_disabled": 0, "type": "electric_scooter", "lon": -77.00841433333333, "bike_id": "82b07a853b780b61059a6b7c598806bb", "fusion_lat": 0.0, "name": "82b07a853b780b61059a6b7c598806bb", "is_reserved": 0, "rental_uris": {"android": "https://dc.lft.to/lastmile_qr_scan", "ios": "https://dc.lft.to/lastmile_qr_scan"}, "fusion_lon": 0.0}, {"lat": 38.88197616666667, "is_disabled": 0, "type": "electric_scooter", "lon": -76.9961275, "bike_id": "459ca7a9073832cbe80f1c6ca129ceb0", "fusion_lat": 0.0, "name": "459ca7a9073832cbe80f1c6ca129ceb0", "is_reserved": 0, "rental_uris": {"android": "https://dc.lft.to/lastmile_qr_scan", "ios": "https://dc.lft.to/lastmile_qr_scan"}, "fusion_lon": 0.0}, {"lat": 38.87913566666667, "is_disabled": 0, "type": "electric_scooter", "lon": -77.00885733333334, "bike_id": "749c722a67e08e16282840fc2ab25ccd", "fusion_lat": 0.0, "name": "749c722a67e08e16282840fc2ab25ccd", "is_reserved": 0, "rental_uris": {"android": "https://dc.lft.to/lastmile_qr_scan", "ios": "https://dc.lft.to/lastmile_qr_scan"}, "fusion_lon": 0.0}, {"lat": 38.8950385, "is_disabled": 0, "type": "electric_scooter", "lon": -77.00326883333334, "bike_id": "a24b3f2797aa11790fbb3736994c483b", "fusion_lat": 0.0, "name": "a24b3f2797aa11790fbb3736994c483b", "is_reserved": 0, "rental_uris": {"android": "https://dc.lft.to/lastmile_qr_scan", "ios": "https://dc.lft.to/lastmile_qr_scan"}, "fusion_lon": 0.0}, {"lat": 38.90724266666667, "is_disabled": 0, "type": "electric_scooter", "lon": -77.04227883333333, "bike_id": "597b324b32389c69ada1144bd8f18f26", "fusion_lat": 0.0, "name": "597b324b32389c69ada1144bd8f18f26", "is_reserved": 0, "rental_uris": {"android": "https://dc.lft.to/lastmile_qr_scan", "ios": "https://dc.lft.to/lastmile_qr_scan"}, "fusion_lon": 0.0}, {"lat": 38.898518, "is_disabled": 0, "type": "electric_scooter", "lon": -76.99030983333333, "bike_id": "9670d78b8c469e178aa72d61274e98e2", "fusion_lat": 0.0, "name": "9670d78b8c469e178aa72d61274e98e2", "is_reserved": 0, "rental_uris": {"android": "https://dc.lft.to/lastmile_qr_scan", "ios": "https://dc.lft.to/lastmile_qr_scan"}, "fusion_lon": 0.0}, {"lat": 38.925946833333334, "is_disabled": 0, "type": "electric_scooter", "lon": -77.0440225, "bike_id": "986e64ac18eb59499d7318ff78363a66", "fusion_lat": 0.0, "name": "986e64ac18eb59499d7318ff78363a66", "is_reserved": 0, "rental_uris": {"android": "https://dc.lft.to/lastmile_qr_scan", "ios": "https://dc.lft.to/lastmile_qr_scan"}, "fusion_lon": 0.0}, {"lat": 38.84429883333333, "is_disabled": 0, "type": "electric_scooter", "lon": -76.99662116666667, "bike_id": "5177edb587a24c7389b4dd0e24409783", "fusion_lat": 0.0, "name": "5177edb587a24c7389b4dd0e24409783", "is_reserved": 0, "rental_uris": {"android": "https://dc.lft.to/lastmile_qr_scan", "ios": "https://dc.lft.to/lastmile_qr_scan"}, "fusion_lon": 0.0}, {"lat": 38.906096, "is_disabled": 0, "type": "electric_scooter", "lon": -77.05132366666666, "bike_id": "f9bb3108094cb592ec3283caff194aa2", "fusion_lat": 0.0, "name": "f9bb3108094cb592ec3283caff194aa2", "is_reserved": 0, "rental_uris": {"android": "https://dc.lft.to/lastmile_qr_scan", "ios": "https://dc.lft.to/lastmile_qr_scan"}, "fusion_lon": 0.0}, {"lat": 38.89729, "is_disabled": 0, "type": "electric_scooter", "lon": -77.04989333333333, "bike_id": "ebfd2e9475f3d3f8917ddc1670ef608c", "fusion_lat": 0.0, "name": "ebfd2e9475f3d3f8917ddc1670ef608c", "is_reserved": 0, "rental_uris": {"android": "https://dc.lft.to/lastmile_qr_scan", "ios": "https://dc.lft.to/lastmile_qr_scan"}, "fusion_lon": 0.0}, {"lat": 38.90961266666667, "is_disabled": 0, "type": "electric_scooter", "lon": -77.047912, "bike_id": "df8f691a72a753c48435f21e44442089", "fusion_lat": 0.0, "name": "df8f691a72a753c48435f21e44442089", "is_reserved": 0, "rental_uris": {"android": "https://dc.lft.to/lastmile_qr_scan", "ios": "https://dc.lft.to/lastmile_qr_scan"}, "fusion_lon": 0.0}, {"lat": 38.90553166666667, "is_disabled": 0, "type": "electric_scooter", "lon": -77.005541, "bike_id": "850dae5b38c5c1cee9e113eac1ab35d3", "fusion_lat": 0.0, "name": "850dae5b38c5c1cee9e113eac1ab35d3", "is_reserved": 0, "rental_uris": {"android": "https://dc.lft.to/lastmile_qr_scan", "ios": "https://dc.lft.to/lastmile_qr_scan"}, "fusion_lon": 0.0}, {"lat": 38.9925575, "is_disabled": 0, "type": "electric_scooter", "lon": -77.03657116666666, "bike_id": "161b04420877ea0de38202904de3cc02", "fusion_lat": 0.0, "name": "161b04420877ea0de38202904de3cc02", "is_reserved": 0, "rental_uris": {"android": "https://dc.lft.to/lastmile_qr_scan", "ios": "https://dc.lft.to/lastmile_qr_scan"}, "fusion_lon": 0.0}, {"lat": 38.905275833333334, "is_disabled": 0, "type": "electric_scooter", "lon": -77.06306116666667, "bike_id": "cd3619445bc2af5f91ec5ba0bd56a9ee", "fusion_lat": 0.0, "name": "cd3619445bc2af5f91ec5ba0bd56a9ee", "is_reserved": 0, "rental_uris": {"android": "https://dc.lft.to/lastmile_qr_scan", "ios": "https://dc.lft.to/lastmile_qr_scan"}, "fusion_lon": 0.0}, {"lat": 38.910508, "is_disabled": 0, "type": "electric_scooter", "lon": -77.043796, "bike_id": "a3ebeea5b7e7a3339f6619c01535bc90", "fusion_lat": 0.0, "name": "a3ebeea5b7e7a3339f6619c01535bc90", "is_reserved": 0, "rental_uris": {"android": "https://dc.lft.to/lastmile_qr_scan", "ios": "https://dc.lft.to/lastmile_qr_scan"}, "fusion_lon": 0.0}, {"lat": 38.945517333333335, "is_disabled": 0, "type": "electric_bike", "lon": -76.895411, "bike_id": "7bcca249c799340f1f7e33d089e4cea7", "fusion_lat": 0.0, "name": "7bcca249c799340f1f7e33d089e4cea7", "is_reserved": 0, "rental_uris": {"android": "https://dc.lft.to/lastmile_qr_scan", "ios": "https://dc.lft.to/lastmile_qr_scan"}, "fusion_lon": 0.0}, {"lat": 38.9365885, "is_disabled": 0, "type": "electric_bike", "lon": -76.9522235, "bike_id": "a5d3db0e622f646f984549389c6b55e2", "fusion_lat": 0.0, "name": "a5d3db0e622f646f984549389c6b55e2", "is_reserved": 0, "rental_uris": {"android": "https://dc.lft.to/lastmile_qr_scan", "ios": "https://dc.lft.to/lastmile_qr_scan"}, "fusion_lon": 0.0}, {"lat": 39.03424183333333, "is_disabled": 0, "type": "electric_bike", "lon": -77.043041, "bike_id": "d56d52e5ab4aab9d2faa97b77e94654c", "fusion_lat": 0.0, "name": "d56d52e5ab4aab9d2faa97b77e94654c", "is_reserved": 0, "rental_uris": {"android": "https://dc.lft.to/lastmile_qr_scan", "ios": "https://dc.lft.to/lastmile_qr_scan"}, "fusion_lon": 0.0}, {"lat": 38.903575333333336, "is_disabled": 0, "type": "electric_scooter", "lon": -77.03856216666667, "bike_id": "1ac274951de100eab613afc19b1b8037", "fusion_lat": 0.0, "name": "1ac274951de100eab613afc19b1b8037", "is_reserved": 0, "rental_uris": {"android": "https://dc.lft.to/lastmile_qr_scan", "ios": "https://dc.lft.to/lastmile_qr_scan"}, "fusion_lon": 0.0}, {"lat": 38.862557333333335, "is_disabled": 0, "type": "electric_scooter", "lon": -76.9951875, "bike_id": "483d4361bb884ca94801391221362f85", "fusion_lat": 0.0, "name": "483d4361bb884ca94801391221362f85", "is_reserved": 0, "rental_uris": {"android": "https://dc.lft.to/lastmile_qr_scan", "ios": "https://dc.lft.to/lastmile_qr_scan"}, "fusion_lon": 0.0}, {"lat": 38.85190166666667, "is_disabled": 0, "type": "electric_scooter", "lon": -76.97625083333334, "bike_id": "5c46693317caae4da09272d1597451a5", "fusion_lat": 0.0, "name": "5c46693317caae4da09272d1597451a5", "is_reserved": 0, "rental_uris": {"android": "https://dc.lft.to/lastmile_qr_scan", "ios": "https://dc.lft.to/lastmile_qr_scan"}, "fusion_lon": 0.0}, {"lat": 38.93735816666667, "is_disabled": 0, "type": "electric_scooter", "lon": -77.03621666666666, "bike_id": "318b6720947adf6f11a9bb1d7e18d49a", "fusion_lat": 0.0, "name": "318b6720947adf6f11a9bb1d7e18d49a", "is_reserved": 0, "rental_uris": {"android": "https://dc.lft.to/lastmile_qr_scan", "ios": "https://dc.lft.to/lastmile_qr_scan"}, "fusion_lon": 0.0}, {"lat": 38.990017, "is_disabled": 0, "type": "electric_bike", "lon": -77.00444083333333, "bike_id": "aad40e8fe6cf544f03cf98d1562db56c", "fusion_lat": 0.0, "name": "aad40e8fe6cf544f03cf98d1562db56c", "is_reserved": 0, "rental_uris": {"android": "https://dc.lft.to/lastmile_qr_scan", "ios": "https://dc.lft.to/lastmile_qr_scan"}, "fusion_lon": 0.0}, {"lat": 38.85512766666667, "is_disabled": 0, "type": "electric_bike", "lon": -77.12015283333334, "bike_id": "6a03f1ef863749996b57e612611c28a2", "fusion_lat": 0.0, "name": "6a03f1ef863749996b57e612611c28a2", "is_reserved": 0, "rental_uris": {"android": "https://dc.lft.to/lastmile_qr_scan", "ios": "https://dc.lft.to/lastmile_qr_scan"}, "fusion_lon": 0.0}, {"lat": 38.944357333333336, "is_disabled": 0, "type": "electric_scooter", "lon": -77.01505816666666, "bike_id": "ab057a910f71373f978380584c449137", "fusion_lat": 0.0, "name": "ab057a910f71373f978380584c449137", "is_reserved": 0, "rental_uris": {"android": "https://dc.lft.to/lastmile_qr_scan", "ios": "https://dc.lft.to/lastmile_qr_scan"}, "fusion_lon": 0.0}, {"lat": 38.94391516666666, "is_disabled": 0, "type": "electric_scooter", "lon": -77.0198625, "bike_id": "b7df2ea3bcc852f443cf5bf2d338a4f8", "fusion_lat": 0.0, "name": "b7df2ea3bcc852f443cf5bf2d338a4f8", "is_reserved": 0, "rental_uris": {"android": "https://dc.lft.to/lastmile_qr_scan", "ios": "https://dc.lft.to/lastmile_qr_scan"}, "fusion_lon": 0.0}, {"lat": 38.911092333333336, "is_disabled": 0, "type": "electric_scooter", "lon": -77.03832616666666, "bike_id": "e98d2d1393e79832f05a93068f6fb01a", "fusion_lat": 0.0, "name": "e98d2d1393e79832f05a93068f6fb01a", "is_reserved": 0, "rental_uris": {"android": "https://dc.lft.to/lastmile_qr_scan", "ios": "https://dc.lft.to/lastmile_qr_scan"}, "fusion_lon": 0.0}, {"lat": 38.90099983333333, "is_disabled": 0, "type": "electric_scooter", "lon": -77.02528966666667, "bike_id": "b4cda7a0d1fdede1bc7b6f357bf9917f", "fusion_lat": 0.0, "name": "b4cda7a0d1fdede1bc7b6f357bf9917f", "is_reserved": 0, "rental_uris": {"android": "https://dc.lft.to/lastmile_qr_scan", "ios": "https://dc.lft.to/lastmile_qr_scan"}, "fusion_lon": 0.0}, {"lat": 38.90061816666667, "is_disabled": 0, "type": "electric_scooter", "lon": -77.00211966666667, "bike_id": "8dd0b4e56c1ed44bbc758d865ee43309", "fusion_lat": 0.0, "name": "8dd0b4e56c1ed44bbc758d865ee43309", "is_reserved": 0, "rental_uris": {"android": "https://dc.lft.to/lastmile_qr_scan", "ios": "https://dc.lft.to/lastmile_qr_scan"}, "fusion_lon": 0.0}, {"lat": 38.85189916666667, "is_disabled": 0, "type": "electric_bike", "lon": -76.96111266666666, "bike_id": "52a5e33ac514190127f1076eea30e9b0", "fusion_lat": 0.0, "name": "52a5e33ac514190127f1076eea30e9b0", "is_reserved": 0, "rental_uris": {"android": "https://dc.lft.to/lastmile_qr_scan", "ios": "https://dc.lft.to/lastmile_qr_scan"}, "fusion_lon": 0.0}, {"lat": 38.92842133333333, "is_disabled": 0, "type": "electric_scooter", "lon": -77.01381916666666, "bike_id": "bc0c70aeef884adfbfe81a3fdca2b008", "fusion_lat": 0.0, "name": "bc0c70aeef884adfbfe81a3fdca2b008", "is_reserved": 0, "rental_uris": {"android": "https://dc.lft.to/lastmile_qr_scan", "ios": "https://dc.lft.to/lastmile_qr_scan"}, "fusion_lon": 0.0}, {"lat": 38.92346333333333, "is_disabled": 0, "type": "electric_scooter", "lon": -77.03395866666666, "bike_id": "631feee39df26bdaeaa41471334c046d", "fusion_lat": 0.0, "name": "631feee39df26bdaeaa41471334c046d", "is_reserved": 0, "rental_uris": {"android": "https://dc.lft.to/lastmile_qr_scan", "ios": "https://dc.lft.to/lastmile_qr_scan"}, "fusion_lon": 0.0}, {"lat": 38.91677116666666, "is_disabled": 0, "type": "electric_scooter", "lon": -77.02954316666667, "bike_id": "251c49448d37faa47474ca997852a8c3", "fusion_lat": 0.0, "name": "251c49448d37faa47474ca997852a8c3", "is_reserved": 0, "rental_uris": {"android": "https://dc.lft.to/lastmile_qr_scan", "ios": "https://dc.lft.to/lastmile_qr_scan"}, "fusion_lon": 0.0}, {"lat": 38.892342166666666, "is_disabled": 0, "type": "electric_scooter", "lon": -77.05004116666667, "bike_id": "b515afdc1b387285d53be41441c2d0bb", "fusion_lat": 0.0, "name": "b515afdc1b387285d53be41441c2d0bb", "is_reserved": 0, "rental_uris": {"android": "https://dc.lft.to/lastmile_qr_scan", "ios": "https://dc.lft.to/lastmile_qr_scan"}, "fusion_lon": 0.0}, {"lat": 39.0519565, "is_disabled": 0, "type": "electric_bike", "lon": -77.10922283333333, "bike_id": "c3057d78489c3d1bd84e25990af5fe29", "fusion_lat": 0.0, "name": "c3057d78489c3d1bd84e25990af5fe29", "is_reserved": 0, "rental_uris": {"android": "https://dc.lft.to/lastmile_qr_scan", "ios": "https://dc.lft.to/lastmile_qr_scan"}, "fusion_lon": 0.0}, {"lat": 38.9171255, "is_disabled": 0, "type": "electric_scooter", "lon": -77.02917833333333, "bike_id": "fd76e75ff770ff8d2b7bd06d170ee59c", "fusion_lat": 0.0, "name": "fd76e75ff770ff8d2b7bd06d170ee59c", "is_reserved": 0, "rental_uris": {"android": "https://dc.lft.to/lastmile_qr_scan", "ios": "https://dc.lft.to/lastmile_qr_scan"}, "fusion_lon": 0.0}, {"lat": 38.923307666666666, "is_disabled": 0, "type": "electric_scooter", "lon": -77.02694566666666, "bike_id": "1a1ca72e6114346489a8f3bd202a4bd3", "fusion_lat": 0.0, "name": "1a1ca72e6114346489a8f3bd202a4bd3", "is_reserved": 0, "rental_uris": {"android": "https://dc.lft.to/lastmile_qr_scan", "ios": "https://dc.lft.to/lastmile_qr_scan"}, "fusion_lon": 0.0}, {"lat": 38.9110195, "is_disabled": 0, "type": "electric_scooter", "lon": -77.034062, "bike_id": "97ffc578fa7063d8caee4d5c929cb9cb", "fusion_lat": 0.0, "name": "97ffc578fa7063d8caee4d5c929cb9cb", "is_reserved": 0, "rental_uris": {"android": "https://dc.lft.to/lastmile_qr_scan", "ios": "https://dc.lft.to/lastmile_qr_scan"}, "fusion_lon": 0.0}, {"lat": 38.917062, "is_disabled": 0, "type": "electric_scooter", "lon": -77.03865716666667, "bike_id": "303175ca285576fc13a1f970fc82fa91", "fusion_lat": 0.0, "name": "303175ca285576fc13a1f970fc82fa91", "is_reserved": 0, "rental_uris": {"android": "https://dc.lft.to/lastmile_qr_scan", "ios": "https://dc.lft.to/lastmile_qr_scan"}, "fusion_lon": 0.0}, {"lat": 38.901982, "is_disabled": 0, "type": "electric_scooter", "lon": -77.02376233333334, "bike_id": "69f698bb36ad8453de3de9284d6a844b", "fusion_lat": 0.0, "name": "69f698bb36ad8453de3de9284d6a844b", "is_reserved": 0, "rental_uris": {"android": "https://dc.lft.to/lastmile_qr_scan", "ios": "https://dc.lft.to/lastmile_qr_scan"}, "fusion_lon": 0.0}, {"lat": 38.90491166666666, "is_disabled": 0, "type": "electric_scooter", "lon": -77.0296075, "bike_id": "9fd3a204dca976d2e6467798046959e5", "fusion_lat": 0.0, "name": "9fd3a204dca976d2e6467798046959e5", "is_reserved": 0, "rental_uris": {"android": "https://dc.lft.to/lastmile_qr_scan", "ios": "https://dc.lft.to/lastmile_qr_scan"}, "fusion_lon": 0.0}, {"lat": 38.9231075, "is_disabled": 0, "type": "electric_scooter", "lon": -77.03862683333334, "bike_id": "bc4b0c5b1b45a5cf50e54035bd2df6af", "fusion_lat": 0.0, "name": "bc4b0c5b1b45a5cf50e54035bd2df6af", "is_reserved": 0, "rental_uris": {"android": "https://dc.lft.to/lastmile_qr_scan", "ios": "https://dc.lft.to/lastmile_qr_scan"}, "fusion_lon": 0.0}, {"lat": 38.89970183333333, "is_disabled": 0, "type": "electric_scooter", "lon": -76.926602, "bike_id": "605857969d5aa3a23727938f76c98355", "fusion_lat": 0.0, "name": "605857969d5aa3a23727938f76c98355", "is_reserved": 0, "rental_uris": {"android": "https://dc.lft.to/lastmile_qr_scan", "ios": "https://dc.lft.to/lastmile_qr_scan"}, "fusion_lon": 0.0}, {"lat": 38.903721166666664, "is_disabled": 0, "type": "electric_bike", "lon": -77.03971, "bike_id": "7baa178182c6df9ee55c726ea8759395", "fusion_lat": 0.0, "name": "7baa178182c6df9ee55c726ea8759395", "is_reserved": 0, "rental_uris": {"android": "https://dc.lft.to/lastmile_qr_scan", "ios": "https://dc.lft.to/lastmile_qr_scan"}, "fusion_lon": 0.0}, {"lat": 38.900728666666666, "is_disabled": 0, "type": "electric_scooter", "lon": -77.00221683333334, "bike_id": "66870991384394394a7c8e2b2623e675", "fusion_lat": 0.0, "name": "66870991384394394a7c8e2b2623e675", "is_reserved": 0, "rental_uris": {"android": "https://dc.lft.to/lastmile_qr_scan", "ios": "https://dc.lft.to/lastmile_qr_scan"}, "fusion_lon": 0.0}, {"lat": 38.90082183333333, "is_disabled": 0, "type": "electric_scooter", "lon": -77.01222, "bike_id": "569a7b513b222554772d935ed6b3f314", "fusion_lat": 0.0, "name": "569a7b513b222554772d935ed6b3f314", "is_reserved": 0, "rental_uris": {"android": "https://dc.lft.to/lastmile_qr_scan", "ios": "https://dc.lft.to/lastmile_qr_scan"}, "fusion_lon": 0.0}, {"lat": 38.8005285, "is_disabled": 0, "type": "electric_bike", "lon": -77.07126066666666, "bike_id": "7514f44e2aeb53d7ec01177e4d97594d", "fusion_lat": 0.0, "name": "7514f44e2aeb53d7ec01177e4d97594d", "is_reserved": 0, "rental_uris": {"android": "https://dc.lft.to/lastmile_qr_scan", "ios": "https://dc.lft.to/lastmile_qr_scan"}, "fusion_lon": 0.0}, {"lat": 38.886754333333336, "is_disabled": 0, "type": "electric_scooter", "lon": -77.0137475, "bike_id": "d7eb3063fc3fb3cde5d2e77c184d9518", "fusion_lat": 0.0, "name": "d7eb3063fc3fb3cde5d2e77c184d9518", "is_reserved": 0, "rental_uris": {"android": "https://dc.lft.to/lastmile_qr_scan", "ios": "https://dc.lft.to/lastmile_qr_scan"}, "fusion_lon": 0.0}, {"lat": 38.88491333333333, "is_disabled": 0, "type": "electric_scooter", "lon": -77.0071065, "bike_id": "4e75a991d5605d796e979c97117c503f", "fusion_lat": 0.0, "name": "4e75a991d5605d796e979c97117c503f", "is_reserved": 0, "rental_uris": {"android": "https://dc.lft.to/lastmile_qr_scan", "ios": "https://dc.lft.to/lastmile_qr_scan"}, "fusion_lon": 0.0}, {"lat": 38.86650783333333, "is_disabled": 0, "type": "electric_scooter", "lon": -76.98885633333333, "bike_id": "60836e49539fd9c43717ba1447edef79", "fusion_lat": 0.0, "name": "60836e49539fd9c43717ba1447edef79", "is_reserved": 0, "rental_uris": {"android": "https://dc.lft.to/lastmile_qr_scan", "ios": "https://dc.lft.to/lastmile_qr_scan"}, "fusion_lon": 0.0}, {"lat": 38.9190595, "is_disabled": 0, "type": "electric_scooter", "lon": -77.04165566666667, "bike_id": "83893c2df6fe50510b40b8c8206d69cd", "fusion_lat": 0.0, "name": "83893c2df6fe50510b40b8c8206d69cd", "is_reserved": 0, "rental_uris": {"android": "https://dc.lft.to/lastmile_qr_scan", "ios": "https://dc.lft.to/lastmile_qr_scan"}, "fusion_lon": 0.0}, {"lat": 38.9027665, "is_disabled": 0, "type": "electric_scooter", "lon": -77.02714333333333, "bike_id": "99bc49b7ca1b660f4e40ff72f4bdac72", "fusion_lat": 0.0, "name": "99bc49b7ca1b660f4e40ff72f4bdac72", "is_reserved": 0, "rental_uris": {"android": "https://dc.lft.to/lastmile_qr_scan", "ios": "https://dc.lft.to/lastmile_qr_scan"}, "fusion_lon": 0.0}, {"lat": 38.907276833333334, "is_disabled": 0, "type": "electric_scooter", "lon": -77.04335733333333, "bike_id": "2568f5e79a301fa44802a935fc9886e0", "fusion_lat": 0.0, "name": "2568f5e79a301fa44802a935fc9886e0", "is_reserved": 0, "rental_uris": {"android": "https://dc.lft.to/lastmile_qr_scan", "ios": "https://dc.lft.to/lastmile_qr_scan"}, "fusion_lon": 0.0}, {"lat": 38.92004266666667, "is_disabled": 0, "type": "electric_scooter", "lon": -77.02382766666666, "bike_id": "a55cfc40267b920706deedbb5a089392", "fusion_lat": 0.0, "name": "a55cfc40267b920706deedbb5a089392", "is_reserved": 0, "rental_uris": {"android": "https://dc.lft.to/lastmile_qr_scan", "ios": "https://dc.lft.to/lastmile_qr_scan"}, "fusion_lon": 0.0}, {"lat": 38.923344666666665, "is_disabled": 0, "type": "electric_scooter", "lon": -77.03580083333334, "bike_id": "f189732d332e7dd158e1c8bbbb6a1520", "fusion_lat": 0.0, "name": "f189732d332e7dd158e1c8bbbb6a1520", "is_reserved": 0, "rental_uris": {"android": "https://dc.lft.to/lastmile_qr_scan", "ios": "https://dc.lft.to/lastmile_qr_scan"}, "fusion_lon": 0.0}, {"lat": 38.9267435, "is_disabled": 0, "type": "electric_scooter", "lon": -77.02864366666667, "bike_id": "63fae161bcadbd66d9b9ba9d5bb1a8af", "fusion_lat": 0.0, "name": "63fae161bcadbd66d9b9ba9d5bb1a8af", "is_reserved": 0, "rental_uris": {"android": "https://dc.lft.to/lastmile_qr_scan", "ios": "https://dc.lft.to/lastmile_qr_scan"}, "fusion_lon": 0.0}, {"lat": 38.9708705, "is_disabled": 0, "type": "electric_bike", "lon": -77.0696705, "bike_id": "bbffdacad1672805529adb908e9ab90b", "fusion_lat": 0.0, "name": "bbffdacad1672805529adb908e9ab90b", "is_reserved": 0, "rental_uris": {"android": "https://dc.lft.to/lastmile_qr_scan", "ios": "https://dc.lft.to/lastmile_qr_scan"}, "fusion_lon": 0.0}, {"lat": 38.85205833333333, "is_disabled": 0, "type": "electric_bike", "lon": -77.101337, "bike_id": "7bd9b7326ce4d802610d668440a204e8", "fusion_lat": 0.0, "name": "7bd9b7326ce4d802610d668440a204e8", "is_reserved": 0, "rental_uris": {"android": "https://dc.lft.to/lastmile_qr_scan", "ios": "https://dc.lft.to/lastmile_qr_scan"}, "fusion_lon": 0.0}, {"lat": 38.9112875, "is_disabled": 0, "type": "electric_scooter", "lon": -77.043485, "bike_id": "f0869c77800fd640110680f4732a14cc", "fusion_lat": 0.0, "name": "f0869c77800fd640110680f4732a14cc", "is_reserved": 0, "rental_uris": {"android": "https://dc.lft.to/lastmile_qr_scan", "ios": "https://dc.lft.to/lastmile_qr_scan"}, "fusion_lon": 0.0}, {"lat": 38.912932, "is_disabled": 0, "type": "electric_scooter", "lon": -77.040112, "bike_id": "3c659da947b8c86c8206bfaf3ac8c96f", "fusion_lat": 0.0, "name": "3c659da947b8c86c8206bfaf3ac8c96f", "is_reserved": 0, "rental_uris": {"android": "https://dc.lft.to/lastmile_qr_scan", "ios": "https://dc.lft.to/lastmile_qr_scan"}, "fusion_lon": 0.0}, {"lat": 38.9011965, "is_disabled": 0, "type": "electric_scooter", "lon": -77.049917, "bike_id": "c69ecca74b9b7a3a54fa6cd1652766e6", "fusion_lat": 0.0, "name": "c69ecca74b9b7a3a54fa6cd1652766e6", "is_reserved": 0, "rental_uris": {"android": "https://dc.lft.to/lastmile_qr_scan", "ios": "https://dc.lft.to/lastmile_qr_scan"}, "fusion_lon": 0.0}, {"lat": 38.89549433333333, "is_disabled": 0, "type": "electric_scooter", "lon": -77.02282516666666, "bike_id": "4be8ae6abe149521d91f1760cdbcc879", "fusion_lat": 0.0, "name": "4be8ae6abe149521d91f1760cdbcc879", "is_reserved": 0, "rental_uris": {"android": "https://dc.lft.to/lastmile_qr_scan", "ios": "https://dc.lft.to/lastmile_qr_scan"}, "fusion_lon": 0.0}, {"lat": 38.90266466666667, "is_disabled": 0, "type": "electric_scooter", "lon": -77.01848766666667, "bike_id": "99897c657c5564c5cae1bcdf9deddba2", "fusion_lat": 0.0, "name": "99897c657c5564c5cae1bcdf9deddba2", "is_reserved": 0, "rental_uris": {"android": "https://dc.lft.to/lastmile_qr_scan", "ios": "https://dc.lft.to/lastmile_qr_scan"}, "fusion_lon": 0.0}, {"lat": 38.9193485, "is_disabled": 0, "type": "electric_scooter", "lon": -77.03191183333334, "bike_id": "0ee26524d23210c9acef1138b52d3dc2", "fusion_lat": 0.0, "name": "0ee26524d23210c9acef1138b52d3dc2", "is_reserved": 0, "rental_uris": {"android": "https://dc.lft.to/lastmile_qr_scan", "ios": "https://dc.lft.to/lastmile_qr_scan"}, "fusion_lon": 0.0}, {"lat": 38.9204825, "is_disabled": 0, "type": "electric_scooter", "lon": -77.02422833333334, "bike_id": "66d1454084d7bddf6010f1491cdbe44f", "fusion_lat": 0.0, "name": "66d1454084d7bddf6010f1491cdbe44f", "is_reserved": 0, "rental_uris": {"android": "https://dc.lft.to/lastmile_qr_scan", "ios": "https://dc.lft.to/lastmile_qr_scan"}, "fusion_lon": 0.0}, {"lat": 38.93083683333333, "is_disabled": 0, "type": "electric_scooter", "lon": -77.03412583333333, "bike_id": "fed28f83b6e195ece18e549c0403bec3", "fusion_lat": 0.0, "name": "fed28f83b6e195ece18e549c0403bec3", "is_reserved": 0, "rental_uris": {"android": "https://dc.lft.to/lastmile_qr_scan", "ios": "https://dc.lft.to/lastmile_qr_scan"}, "fusion_lon": 0.0}, {"lat": 38.805748, "is_disabled": 0, "type": "electric_bike", "lon": -77.06861333333333, "bike_id": "ff5bc02f93af959ad282b7cf98639691", "fusion_lat": 0.0, "name": "ff5bc02f93af959ad282b7cf98639691", "is_reserved": 0, "rental_uris": {"android": "https://dc.lft.to/lastmile_qr_scan", "ios": "https://dc.lft.to/lastmile_qr_scan"}, "fusion_lon": 0.0}, {"lat": 38.9850515, "is_disabled": 0, "type": "electric_bike", "lon": -76.98206283333333, "bike_id": "7431d1a17e534bedf7d399dce18aa3b4", "fusion_lat": 0.0, "name": "7431d1a17e534bedf7d399dce18aa3b4", "is_reserved": 0, "rental_uris": {"android": "https://dc.lft.to/lastmile_qr_scan", "ios": "https://dc.lft.to/lastmile_qr_scan"}, "fusion_lon": 0.0}, {"lat": 38.90015483333333, "is_disabled": 0, "type": "electric_scooter", "lon": -76.9956935, "bike_id": "555880c0866760ef423f5257ead91e3b", "fusion_lat": 0.0, "name": "555880c0866760ef423f5257ead91e3b", "is_reserved": 0, "rental_uris": {"android": "https://dc.lft.to/lastmile_qr_scan", "ios": "https://dc.lft.to/lastmile_qr_scan"}, "fusion_lon": 0.0}, {"lat": 38.92344, "is_disabled": 0, "type": "electric_scooter", "lon": -77.03421066666667, "bike_id": "17a1e919ef1ae1d923c326abd48383d5", "fusion_lat": 0.0, "name": "17a1e919ef1ae1d923c326abd48383d5", "is_reserved": 0, "rental_uris": {"android": "https://dc.lft.to/lastmile_qr_scan", "ios": "https://dc.lft.to/lastmile_qr_scan"}, "fusion_lon": 0.0}, {"lat": 38.92736466666667, "is_disabled": 0, "type": "electric_scooter", "lon": -77.03449266666667, "bike_id": "048cb9123b9baf15a061723a5c93bb51", "fusion_lat": 0.0, "name": "048cb9123b9baf15a061723a5c93bb51", "is_reserved": 0, "rental_uris": {"android": "https://dc.lft.to/lastmile_qr_scan", "ios": "https://dc.lft.to/lastmile_qr_scan"}, "fusion_lon": 0.0}, {"lat": 38.894166, "is_disabled": 0, "type": "electric_scooter", "lon": -77.02424166666667, "bike_id": "35161618660b507084fef71e704d8501", "fusion_lat": 0.0, "name": "35161618660b507084fef71e704d8501", "is_reserved": 0, "rental_uris": {"android": "https://dc.lft.to/lastmile_qr_scan", "ios": "https://dc.lft.to/lastmile_qr_scan"}, "fusion_lon": 0.0}, {"lat": 38.98273783333333, "is_disabled": 0, "type": "electric_bike", "lon": -77.0177545, "bike_id": "bc2d45bbf39c6371484ca93c510e036e", "fusion_lat": 0.0, "name": "bc2d45bbf39c6371484ca93c510e036e", "is_reserved": 0, "rental_uris": {"android": "https://dc.lft.to/lastmile_qr_scan", "ios": "https://dc.lft.to/lastmile_qr_scan"}, "fusion_lon": 0.0}, {"lat": 38.891126, "is_disabled": 0, "type": "electric_scooter", "lon": -76.94387433333333, "bike_id": "c3a136305bc3e3e9574832547cbfa4fd", "fusion_lat": 0.0, "name": "c3a136305bc3e3e9574832547cbfa4fd", "is_reserved": 0, "rental_uris": {"android": "https://dc.lft.to/lastmile_qr_scan", "ios": "https://dc.lft.to/lastmile_qr_scan"}, "fusion_lon": 0.0}, {"lat": 38.859068666666666, "is_disabled": 0, "type": "electric_scooter", "lon": -76.99149166666666, "bike_id": "2e829f7a028fed4880743a95ec8bbfd1", "fusion_lat": 0.0, "name": "2e829f7a028fed4880743a95ec8bbfd1", "is_reserved": 0, "rental_uris": {"android": "https://dc.lft.to/lastmile_qr_scan", "ios": "https://dc.lft.to/lastmile_qr_scan"}, "fusion_lon": 0.0}, {"lat": 38.895401666666665, "is_disabled": 0, "type": "electric_scooter", "lon": -77.02821783333333, "bike_id": "8cb90ce830005fc1a1db7a80732a36ec", "fusion_lat": 0.0, "name": "8cb90ce830005fc1a1db7a80732a36ec", "is_reserved": 0, "rental_uris": {"android": "https://dc.lft.to/lastmile_qr_scan", "ios": "https://dc.lft.to/lastmile_qr_scan"}, "fusion_lon": 0.0}, {"lat": 38.911038, "is_disabled": 0, "type": "electric_scooter", "lon": -77.042285, "bike_id": "1b0ab08c633e7ffd9aa6ab163de72e78", "fusion_lat": 0.0, "name": "1b0ab08c633e7ffd9aa6ab163de72e78", "is_reserved": 0, "rental_uris": {"android": "https://dc.lft.to/lastmile_qr_scan", "ios": "https://dc.lft.to/lastmile_qr_scan"}, "fusion_lon": 0.0}, {"lat": 38.94739783333333, "is_disabled": 0, "type": "electric_scooter", "lon": -77.06523316666667, "bike_id": "c289fe833924ebac4e3c678f6bc872c4", "fusion_lat": 0.0, "name": "c289fe833924ebac4e3c678f6bc872c4", "is_reserved": 0, "rental_uris": {"android": "https://dc.lft.to/lastmile_qr_scan", "ios": "https://dc.lft.to/lastmile_qr_scan"}, "fusion_lon": 0.0}, {"lat": 38.866540666666666, "is_disabled": 0, "type": "electric_scooter", "lon": -76.98885166666666, "bike_id": "e8255a39d06fc07ccbcc6edd47525379", "fusion_lat": 0.0, "name": "e8255a39d06fc07ccbcc6edd47525379", "is_reserved": 0, "rental_uris": {"android": "https://dc.lft.to/lastmile_qr_scan", "ios": "https://dc.lft.to/lastmile_qr_scan"}, "fusion_lon": 0.0}, {"lat": 38.9002375, "is_disabled": 0, "type": "electric_scooter", "lon": -76.9973885, "bike_id": "18663515900d5f470966f31950c5f6aa", "fusion_lat": 0.0, "name": "18663515900d5f470966f31950c5f6aa", "is_reserved": 0, "rental_uris": {"android": "https://dc.lft.to/lastmile_qr_scan", "ios": "https://dc.lft.to/lastmile_qr_scan"}, "fusion_lon": 0.0}, {"lat": 38.899086833333335, "is_disabled": 0, "type": "electric_scooter", "lon": -76.9335115, "bike_id": "813fbd333e3646181509617323186d14", "fusion_lat": 0.0, "name": "813fbd333e3646181509617323186d14", "is_reserved": 0, "rental_uris": {"android": "https://dc.lft.to/lastmile_qr_scan", "ios": "https://dc.lft.to/lastmile_qr_scan"}, "fusion_lon": 0.0}, {"lat": 38.93063816666667, "is_disabled": 0, "type": "electric_scooter", "lon": -77.0417735, "bike_id": "6b33d9e7f8a7561802af2eead9182442", "fusion_lat": 0.0, "name": "6b33d9e7f8a7561802af2eead9182442", "is_reserved": 0, "rental_uris": {"android": "https://dc.lft.to/lastmile_qr_scan", "ios": "https://dc.lft.to/lastmile_qr_scan"}, "fusion_lon": 0.0}, {"lat": 38.90863483333333, "is_disabled": 0, "type": "electric_scooter", "lon": -76.9916745, "bike_id": "68daeb512e2af27f8fb98ff71e5a97a1", "fusion_lat": 0.0, "name": "68daeb512e2af27f8fb98ff71e5a97a1", "is_reserved": 0, "rental_uris": {"android": "https://dc.lft.to/lastmile_qr_scan", "ios": "https://dc.lft.to/lastmile_qr_scan"}, "fusion_lon": 0.0}, {"lat": 38.901326833333336, "is_disabled": 0, "type": "electric_scooter", "lon": -77.04979716666666, "bike_id": "ebfb1d06ad68464a7ddf8c8e050d4673", "fusion_lat": 0.0, "name": "ebfb1d06ad68464a7ddf8c8e050d4673", "is_reserved": 0, "rental_uris": {"android": "https://dc.lft.to/lastmile_qr_scan", "ios": "https://dc.lft.to/lastmile_qr_scan"}, "fusion_lon": 0.0}, {"lat": 38.9003845, "is_disabled": 0, "type": "electric_scooter", "lon": -76.993836, "bike_id": "caa6eecb0d587586b44e27761a90d38a", "fusion_lat": 0.0, "name": "caa6eecb0d587586b44e27761a90d38a", "is_reserved": 0, "rental_uris": {"android": "https://dc.lft.to/lastmile_qr_scan", "ios": "https://dc.lft.to/lastmile_qr_scan"}, "fusion_lon": 0.0}, {"lat": 38.96164266666667, "is_disabled": 0, "type": "electric_bike", "lon": -77.07386516666666, "bike_id": "32325c8cbaf5b5e158c185e93cd394d5", "fusion_lat": 0.0, "name": "32325c8cbaf5b5e158c185e93cd394d5", "is_reserved": 0, "rental_uris": {"android": "https://dc.lft.to/lastmile_qr_scan", "ios": "https://dc.lft.to/lastmile_qr_scan"}, "fusion_lon": 0.0}, {"lat": 38.927509, "is_disabled": 0, "type": "electric_scooter", "lon": -77.02536216666667, "bike_id": "ad0e9aeb8579526b838b71c5a56418e3", "fusion_lat": 0.0, "name": "ad0e9aeb8579526b838b71c5a56418e3", "is_reserved": 0, "rental_uris": {"android": "https://dc.lft.to/lastmile_qr_scan", "ios": "https://dc.lft.to/lastmile_qr_scan"}, "fusion_lon": 0.0}, {"lat": 38.9061835, "is_disabled": 0, "type": "electric_scooter", "lon": -76.989794, "bike_id": "bcea33dcd8dae73d6bf96c1d6ac3ddb1", "fusion_lat": 0.0, "name": "bcea33dcd8dae73d6bf96c1d6ac3ddb1", "is_reserved": 0, "rental_uris": {"android": "https://dc.lft.to/lastmile_qr_scan", "ios": "https://dc.lft.to/lastmile_qr_scan"}, "fusion_lon": 0.0}, {"lat": 38.914807833333334, "is_disabled": 0, "type": "electric_scooter", "lon": -77.021946, "bike_id": "7cfbededc4f3b4b265369b549e3e6b97", "fusion_lat": 0.0, "name": "7cfbededc4f3b4b265369b549e3e6b97", "is_reserved": 0, "rental_uris": {"android": "https://dc.lft.to/lastmile_qr_scan", "ios": "https://dc.lft.to/lastmile_qr_scan"}, "fusion_lon": 0.0}, {"lat": 38.916025833333336, "is_disabled": 0, "type": "electric_scooter", "lon": -77.0384565, "bike_id": "1e38c92c42f4cba516a2af149aa667d4", "fusion_lat": 0.0, "name": "1e38c92c42f4cba516a2af149aa667d4", "is_reserved": 0, "rental_uris": {"android": "https://dc.lft.to/lastmile_qr_scan", "ios": "https://dc.lft.to/lastmile_qr_scan"}, "fusion_lon": 0.0}, {"lat": 38.90391966666667, "is_disabled": 0, "type": "electric_scooter", "lon": -77.03869883333333, "bike_id": "44db30a9a09df235aca35dede3ad75b7", "fusion_lat": 0.0, "name": "44db30a9a09df235aca35dede3ad75b7", "is_reserved": 0, "rental_uris": {"android": "https://dc.lft.to/lastmile_qr_scan", "ios": "https://dc.lft.to/lastmile_qr_scan"}, "fusion_lon": 0.0}, {"lat": 38.8757315, "is_disabled": 0, "type": "electric_scooter", "lon": -77.0207205, "bike_id": "8a6003952c1088e6979cfe10c462ddbc", "fusion_lat": 0.0, "name": "8a6003952c1088e6979cfe10c462ddbc", "is_reserved": 0, "rental_uris": {"android": "https://dc.lft.to/lastmile_qr_scan", "ios": "https://dc.lft.to/lastmile_qr_scan"}, "fusion_lon": 0.0}, {"lat": 38.91710466666667, "is_disabled": 0, "type": "electric_scooter", "lon": -77.03865366666666, "bike_id": "baee459ea239c22224e37b50211bc16a", "fusion_lat": 0.0, "name": "baee459ea239c22224e37b50211bc16a", "is_reserved": 0, "rental_uris": {"android": "https://dc.lft.to/lastmile_qr_scan", "ios": "https://dc.lft.to/lastmile_qr_scan"}, "fusion_lon": 0.0}, {"lat": 38.93838383333333, "is_disabled": 0, "type": "electric_bike", "lon": -76.98862633333333, "bike_id": "6724c6364c48a6a9d53049d6b2560c33", "fusion_lat": 0.0, "name": "6724c6364c48a6a9d53049d6b2560c33", "is_reserved": 0, "rental_uris": {"android": "https://dc.lft.to/lastmile_qr_scan", "ios": "https://dc.lft.to/lastmile_qr_scan"}, "fusion_lon": 0.0}, {"lat": 38.9171695, "is_disabled": 0, "type": "electric_scooter", "lon": -77.0372245, "bike_id": "353038a5026069cee47f3c964b528543", "fusion_lat": 0.0, "name": "353038a5026069cee47f3c964b528543", "is_reserved": 0, "rental_uris": {"android": "https://dc.lft.to/lastmile_qr_scan", "ios": "https://dc.lft.to/lastmile_qr_scan"}, "fusion_lon": 0.0}, {"lat": 38.88513733333333, "is_disabled": 0, "type": "electric_scooter", "lon": -77.00679766666667, "bike_id": "4b0ae9ee40d6b080741bf70c08a37c37", "fusion_lat": 0.0, "name": "4b0ae9ee40d6b080741bf70c08a37c37", "is_reserved": 0, "rental_uris": {"android": "https://dc.lft.to/lastmile_qr_scan", "ios": "https://dc.lft.to/lastmile_qr_scan"}, "fusion_lon": 0.0}, {"lat": 38.9274375, "is_disabled": 0, "type": "electric_scooter", "lon": -76.99727066666667, "bike_id": "eff4a5f25dca17fb4ccd95f98bd1caf7", "fusion_lat": 0.0, "name": "eff4a5f25dca17fb4ccd95f98bd1caf7", "is_reserved": 0, "rental_uris": {"android": "https://dc.lft.to/lastmile_qr_scan", "ios": "https://dc.lft.to/lastmile_qr_scan"}, "fusion_lon": 0.0}, {"lat": 38.863640333333336, "is_disabled": 0, "type": "electric_scooter", "lon": -76.99032516666666, "bike_id": "f921b137803de869e75c8ad63fcbde39", "fusion_lat": 0.0, "name": "f921b137803de869e75c8ad63fcbde39", "is_reserved": 0, "rental_uris": {"android": "https://dc.lft.to/lastmile_qr_scan", "ios": "https://dc.lft.to/lastmile_qr_scan"}, "fusion_lon": 0.0}, {"lat": 38.907903833333336, "is_disabled": 0, "type": "electric_scooter", "lon": -77.03474133333333, "bike_id": "7679e8293a3dbeed91494ff8d6e1edbf", "fusion_lat": 0.0, "name": "7679e8293a3dbeed91494ff8d6e1edbf", "is_reserved": 0, "rental_uris": {"android": "https://dc.lft.to/lastmile_qr_scan", "ios": "https://dc.lft.to/lastmile_qr_scan"}, "fusion_lon": 0.0}, {"lat": 39.03051466666667, "is_disabled": 0, "type": "electric_bike", "lon": -77.09486233333334, "bike_id": "88064338f1be7ce20d8b765e22f857f2", "fusion_lat": 0.0, "name": "88064338f1be7ce20d8b765e22f857f2", "is_reserved": 0, "rental_uris": {"android": "https://dc.lft.to/lastmile_qr_scan", "ios": "https://dc.lft.to/lastmile_qr_scan"}, "fusion_lon": 0.0}, {"lat": 38.90631783333333, "is_disabled": 0, "type": "electric_scooter", "lon": -77.039557, "bike_id": "e3027b6498b3e0228540f95d433c5632", "fusion_lat": 0.0, "name": "e3027b6498b3e0228540f95d433c5632", "is_reserved": 0, "rental_uris": {"android": "https://dc.lft.to/lastmile_qr_scan", "ios": "https://dc.lft.to/lastmile_qr_scan"}, "fusion_lon": 0.0}, {"lat": 38.8773165, "is_disabled": 0, "type": "electric_scooter", "lon": -77.00340333333334, "bike_id": "8af9170e74be3bcdf17aa0e373ebc6da", "fusion_lat": 0.0, "name": "8af9170e74be3bcdf17aa0e373ebc6da", "is_reserved": 0, "rental_uris": {"android": "https://dc.lft.to/lastmile_qr_scan", "ios": "https://dc.lft.to/lastmile_qr_scan"}, "fusion_lon": 0.0}, {"lat": 38.914664333333334, "is_disabled": 0, "type": "electric_scooter", "lon": -77.01432183333333, "bike_id": "212bb94247e69446ccebeb4f2848ed06", "fusion_lat": 0.0, "name": "212bb94247e69446ccebeb4f2848ed06", "is_reserved": 0, "rental_uris": {"android": "https://dc.lft.to/lastmile_qr_scan", "ios": "https://dc.lft.to/lastmile_qr_scan"}, "fusion_lon": 0.0}, {"lat": 38.92110233333333, "is_disabled": 0, "type": "electric_scooter", "lon": -77.03180083333334, "bike_id": "034d88612c2bf68757b721fa5682c5dc", "fusion_lat": 0.0, "name": "034d88612c2bf68757b721fa5682c5dc", "is_reserved": 0, "rental_uris": {"android": "https://dc.lft.to/lastmile_qr_scan", "ios": "https://dc.lft.to/lastmile_qr_scan"}, "fusion_lon": 0.0}, {"lat": 38.887973833333334, "is_disabled": 0, "type": "electric_scooter", "lon": -76.933635, "bike_id": "f75fe871e950e34281aead39b46a7742", "fusion_lat": 0.0, "name": "f75fe871e950e34281aead39b46a7742", "is_reserved": 0, "rental_uris": {"android": "https://dc.lft.to/lastmile_qr_scan", "ios": "https://dc.lft.to/lastmile_qr_scan"}, "fusion_lon": 0.0}, {"lat": 38.870718, "is_disabled": 0, "type": "electric_bike", "lon": -76.97846466666667, "bike_id": "47c57c89fe17272ec9a37c12087dac84", "fusion_lat": 0.0, "name": "47c57c89fe17272ec9a37c12087dac84", "is_reserved": 0, "rental_uris": {"android": "https://dc.lft.to/lastmile_qr_scan", "ios": "https://dc.lft.to/lastmile_qr_scan"}, "fusion_lon": 0.0}, {"lat": 38.92352366666667, "is_disabled": 0, "type": "electric_scooter", "lon": -77.05425983333333, "bike_id": "7b136afcf9460a340dd5fcf71c48544a", "fusion_lat": 0.0, "name": "7b136afcf9460a340dd5fcf71c48544a", "is_reserved": 0, "rental_uris": {"android": "https://dc.lft.to/lastmile_qr_scan", "ios": "https://dc.lft.to/lastmile_qr_scan"}, "fusion_lon": 0.0}, {"lat": 38.91559133333333, "is_disabled": 0, "type": "electric_scooter", "lon": -77.01046733333334, "bike_id": "ce3100892ed14926492b1570f7d6f21d", "fusion_lat": 0.0, "name": "ce3100892ed14926492b1570f7d6f21d", "is_reserved": 0, "rental_uris": {"android": "https://dc.lft.to/lastmile_qr_scan", "ios": "https://dc.lft.to/lastmile_qr_scan"}, "fusion_lon": 0.0}, {"lat": 38.932965333333335, "is_disabled": 0, "type": "electric_scooter", "lon": -77.04535333333334, "bike_id": "ede099d7bec00bd4918fe00617e8f3af", "fusion_lat": 0.0, "name": "ede099d7bec00bd4918fe00617e8f3af", "is_reserved": 0, "rental_uris": {"android": "https://dc.lft.to/lastmile_qr_scan", "ios": "https://dc.lft.to/lastmile_qr_scan"}, "fusion_lon": 0.0}, {"lat": 38.82786983333333, "is_disabled": 0, "type": "electric_bike", "lon": -77.00917733333333, "bike_id": "8bf7736bfcb6487272ef8ccc561f97f5", "fusion_lat": 0.0, "name": "8bf7736bfcb6487272ef8ccc561f97f5", "is_reserved": 0, "rental_uris": {"android": "https://dc.lft.to/lastmile_qr_scan", "ios": "https://dc.lft.to/lastmile_qr_scan"}, "fusion_lon": 0.0}, {"lat": 38.913602, "is_disabled": 0, "type": "electric_scooter", "lon": -77.04662416666666, "bike_id": "47e2d05d72a4d4ae5e65b5d54277d624", "fusion_lat": 0.0, "name": "47e2d05d72a4d4ae5e65b5d54277d624", "is_reserved": 0, "rental_uris": {"android": "https://dc.lft.to/lastmile_qr_scan", "ios": "https://dc.lft.to/lastmile_qr_scan"}, "fusion_lon": 0.0}, {"lat": 38.895071, "is_disabled": 0, "type": "electric_scooter", "lon": -77.01614266666667, "bike_id": "83a22dad040c594992aa86ce31d25734", "fusion_lat": 0.0, "name": "83a22dad040c594992aa86ce31d25734", "is_reserved": 0, "rental_uris": {"android": "https://dc.lft.to/lastmile_qr_scan", "ios": "https://dc.lft.to/lastmile_qr_scan"}, "fusion_lon": 0.0}, {"lat": 38.921186666666664, "is_disabled": 0, "type": "electric_scooter", "lon": -77.04196616666667, "bike_id": "36c6b0f0c353dbc468c9809afd8f2f62", "fusion_lat": 0.0, "name": "36c6b0f0c353dbc468c9809afd8f2f62", "is_reserved": 0, "rental_uris": {"android": "https://dc.lft.to/lastmile_qr_scan", "ios": "https://dc.lft.to/lastmile_qr_scan"}, "fusion_lon": 0.0}, {"lat": 38.9216645, "is_disabled": 0, "type": "electric_scooter", "lon": -77.04025466666667, "bike_id": "7f840a376264ee43057ca2784c74a4e2", "fusion_lat": 0.0, "name": "7f840a376264ee43057ca2784c74a4e2", "is_reserved": 0, "rental_uris": {"android": "https://dc.lft.to/lastmile_qr_scan", "ios": "https://dc.lft.to/lastmile_qr_scan"}, "fusion_lon": 0.0}, {"lat": 38.92478, "is_disabled": 0, "type": "electric_scooter", "lon": -77.03483416666667, "bike_id": "b0d72894e0c5611f9f11ae8d15787a03", "fusion_lat": 0.0, "name": "b0d72894e0c5611f9f11ae8d15787a03", "is_reserved": 0, "rental_uris": {"android": "https://dc.lft.to/lastmile_qr_scan", "ios": "https://dc.lft.to/lastmile_qr_scan"}, "fusion_lon": 0.0}, {"lat": 38.965612, "is_disabled": 0, "type": "electric_scooter", "lon": -77.01626683333333, "bike_id": "0479e3f8db7b2553e9519b74142abea2", "fusion_lat": 0.0, "name": "0479e3f8db7b2553e9519b74142abea2", "is_reserved": 0, "rental_uris": {"android": "https://dc.lft.to/lastmile_qr_scan", "ios": "https://dc.lft.to/lastmile_qr_scan"}, "fusion_lon": 0.0}, {"lat": 38.90276433333333, "is_disabled": 0, "type": "electric_scooter", "lon": -77.033825, "bike_id": "36b41d1891f1519c92c715bb949d029e", "fusion_lat": 0.0, "name": "36b41d1891f1519c92c715bb949d029e", "is_reserved": 0, "rental_uris": {"android": "https://dc.lft.to/lastmile_qr_scan", "ios": "https://dc.lft.to/lastmile_qr_scan"}, "fusion_lon": 0.0}, {"lat": 38.9430825, "is_disabled": 0, "type": "electric_scooter", "lon": -77.06136966666666, "bike_id": "b6681bfe40dcc9ca996010fd6309b66c", "fusion_lat": 0.0, "name": "b6681bfe40dcc9ca996010fd6309b66c", "is_reserved": 0, "rental_uris": {"android": "https://dc.lft.to/lastmile_qr_scan", "ios": "https://dc.lft.to/lastmile_qr_scan"}, "fusion_lon": 0.0}, {"lat": 38.926776, "is_disabled": 0, "type": "electric_scooter", "lon": -77.01511783333333, "bike_id": "695f66342d0cfec0078662f6602cc36d", "fusion_lat": 0.0, "name": "695f66342d0cfec0078662f6602cc36d", "is_reserved": 0, "rental_uris": {"android": "https://dc.lft.to/lastmile_qr_scan", "ios": "https://dc.lft.to/lastmile_qr_scan"}, "fusion_lon": 0.0}, {"lat": 38.886403666666666, "is_disabled": 0, "type": "electric_scooter", "lon": -76.9549115, "bike_id": "db83cebe130e42c4ce0ae708d0f2e491", "fusion_lat": 0.0, "name": "db83cebe130e42c4ce0ae708d0f2e491", "is_reserved": 0, "rental_uris": {"android": "https://dc.lft.to/lastmile_qr_scan", "ios": "https://dc.lft.to/lastmile_qr_scan"}, "fusion_lon": 0.0}, {"lat": 38.915767333333335, "is_disabled": 0, "type": "electric_scooter", "lon": -77.05029316666666, "bike_id": "8f2b8e3780562c4a5d4dbc7a15493d9f", "fusion_lat": 0.0, "name": "8f2b8e3780562c4a5d4dbc7a15493d9f", "is_reserved": 0, "rental_uris": {"android": "https://dc.lft.to/lastmile_qr_scan", "ios": "https://dc.lft.to/lastmile_qr_scan"}, "fusion_lon": 0.0}, {"lat": 38.896619333333334, "is_disabled": 0, "type": "electric_scooter", "lon": -77.046688, "bike_id": "eacc8f224c51a1a71790d3bbae88f949", "fusion_lat": 0.0, "name": "eacc8f224c51a1a71790d3bbae88f949", "is_reserved": 0, "rental_uris": {"android": "https://dc.lft.to/lastmile_qr_scan", "ios": "https://dc.lft.to/lastmile_qr_scan"}, "fusion_lon": 0.0}, {"lat": 38.894913833333334, "is_disabled": 0, "type": "electric_scooter", "lon": -77.00255066666666, "bike_id": "7634ee1de7d5d5b76bb0eb340589f17d", "fusion_lat": 0.0, "name": "7634ee1de7d5d5b76bb0eb340589f17d", "is_reserved": 0, "rental_uris": {"android": "https://dc.lft.to/lastmile_qr_scan", "ios": "https://dc.lft.to/lastmile_qr_scan"}, "fusion_lon": 0.0},