{"data": {"bikes": [{"is_reserved": 0, "type": "electric_bike", "bike_id": "965f01b94220b17797f85cf54a1bbcaa", "lat": 38.873401666666666, "lon": -77.01852666666667, "rental_uris": {"android": "https://dc.lft.to/lastmile_qr_scan", "ios": "https://dc.lft.to/lastmile_qr_scan"}, "is_disabled": 0, "fusion_lat": 0.0, "name": "965f01b94220b17797f85cf54a1bbcaa", "fusion_lon": 0.0}, {"is_reserved": 0, "type": "electric_bike", "bike_id": "7f7528045cdc100ab47c7c9023eb01c6", "lat": 38.942659, "lon": -76.99071883333333, "rental_uris": {"android": "https://dc.lft.to/lastmile_qr_scan", "ios": "https://dc.lft.to/lastmile_qr_scan"}, "is_disabled": 0, "fusion_lat": 0.0, "name": "7f7528045cdc100ab47c7c9023eb01c6", "fusion_lon": 0.0}, {"is_reserved": 0, "type": "electric_scooter", "bike_id": "87775e3dbc7bdf37c55c12a9251269ac", "lat": 38.9076635, "lon": -77.03203916666666, "rental_uris": {"android": "https://dc.lft.to/lastmile_qr_scan", "ios": "https://dc.lft.to/lastmile_qr_scan"}, "is_disabled": 0, "fusion_lat": 0.0, "name": "87775e3dbc7bdf37c55c12a9251269ac", "fusion_lon": 0.0}, {"is_reserved": 0, "type": "electric_scooter", "bike_id": "6375dd07bdd8a269c749ef869fd0df98", "lat": 38.90210033333334, "lon": -77.02184683333333, "rental_uris": {"android": "https://dc.lft.to/lastmile_qr_scan", "ios": "https://dc.lft.to/lastmile_qr_scan"}, "is_disabled": 0, "fusion_lat": 0.0, "name": "6375dd07bdd8a269c749ef869fd0df98", "fusion_lon": 0.0}, {"is_reserved": 0, "type": "electric_scooter", "bike_id": "772b3b5fdd7283e0249e814eb98334c8", "lat": 38.95913566666667, "lon": -77.00020366666666, "rental_uris": {"android": "https://dc.lft.to/lastmile_qr_scan", "ios": "https://dc.lft.to/lastmile_qr_scan"}, "is_disabled": 0, "fusion_lat": 0.0, "name": "772b3b5fdd7283e0249e814eb98334c8", "fusion_lon": 0.0}, {"is_reserved": 0, "type": "electric_scooter", "bike_id": "6d7d24e23d42d7646f1be5df755db6ff", "lat": 38.945949, "lon": -77.02035766666667, "rental_uris": {"android": "https://dc.lft.to/lastmile_qr_scan", "ios": "https://dc.lft.to/lastmile_qr_scan"}, "is_disabled": 0, "fusion_lat": 0.0, "name": "6d7d24e23d42d7646f1be5df755db6ff", "fusion_lon": 0.0}, {"is_reserved": 0, "type": "electric_scooter", "bike_id": "61414555d619ea57aa14a38c78e3e64d", "lat": 38.90100183333333, "lon": -77.05785033333333, "rental_uris": {"android": "https://dc.lft.to/lastmile_qr_scan", "ios": "https://dc.lft.to/lastmile_qr_scan"}, "is_disabled": 0, "fusion_lat": 0.0, "name": "61414555d619ea57aa14a38c78e3e64d", "fusion_lon": 0.0}, {"is_reserved": 0, "type": "electric_scooter", "bike_id": "593328458a38a3cf1933ae4674292631", "lat": 38.896060166666665, "lon": -77.02987266666666, "rental_uris": {"android": "https://dc.lft.to/lastmile_qr_scan", "ios": "https://dc.lft.to/lastmile_qr_scan"}, "is_disabled": 0, "fusion_lat": 0.0, "name": "593328458a38a3cf1933ae4674292631", "fusion_lon": 0.0}, {"is_reserved": 0, "type": "electric_scooter", "bike_id": "0dfb6009ddff35c05f2b570b5b041959", "lat": 38.9268065, "lon": -77.03200616666666, "rental_uris": {"android": "https://dc.lft.to/lastmile_qr_scan", "ios": "https://dc.lft.to/lastmile_qr_scan"}, "is_disabled": 0, "fusion_lat": 0.0, "name": "0dfb6009ddff35c05f2b570b5b041959", "fusion_lon": 0.0}, {"is_reserved": 0, "type": "electric_scooter", "bike_id": "86627294e83cd39e77e1b7ae9431f92d", "lat": 38.89321366666667, "lon": -77.0123465, "rental_uris": {"android": "https://dc.lft.to/lastmile_qr_scan", "ios": "https://dc.lft.to/lastmile_qr_scan"}, "is_disabled": 0, "fusion_lat": 0.0, "name": "86627294e83cd39e77e1b7ae9431f92d", "fusion_lon": 0.0}, {"is_reserved": 0, "type": "electric_scooter", "bike_id": "118b36c10e1ed8f59d980c95942857db", "lat": 38.893466833333335, "lon": -77.0487215, "rental_uris": {"android": "https://dc.lft.to/lastmile_qr_scan", "ios": "https://dc.lft.to/lastmile_qr_scan"}, "is_disabled": 0, "fusion_lat": 0.0, "name": "118b36c10e1ed8f59d980c95942857db", "fusion_lon": 0.0}, {"is_reserved": 0, "type": "electric_scooter", "bike_id": "33e0b76bcce27dffc9c0b1683ccd6c96", "lat": 38.8964375, "lon": -77.00923666666667, "rental_uris": {"android": "https://dc.lft.to/lastmile_qr_scan", "ios": "https://dc.lft.to/lastmile_qr_scan"}, "is_disabled": 0, "fusion_lat": 0.0, "name": "33e0b76bcce27dffc9c0b1683ccd6c96", "fusion_lon": 0.0}, {"is_reserved": 0, "type": "electric_scooter", "bike_id": "b1bb3baa328169b12dcd977670314ba4", "lat": 38.877153, "lon": -77.01767516666666, "rental_uris": {"android": "https://dc.lft.to/lastmile_qr_scan", "ios": "https://dc.lft.to/lastmile_qr_scan"}, "is_disabled": 0, "fusion_lat": 0.0, "name": "b1bb3baa328169b12dcd977670314ba4", "fusion_lon": 0.0}, {"is_reserved": 0, "type": "electric_scooter", "bike_id": "bbbeb877b886975d58f5d6f2126e18fc", "lat": 38.89635466666667, "lon": -76.92799433333333, "rental_uris": {"android": "https://dc.lft.to/lastmile_qr_scan", "ios": "https://dc.lft.to/lastmile_qr_scan"}, "is_disabled": 0, "fusion_lat": 0.0, "name": "bbbeb877b886975d58f5d6f2126e18fc", "fusion_lon": 0.0}, {"is_reserved": 0, "type": "electric_bike", "bike_id": "223a726b2661be41a69c8b6577030cb7", "lat": 38.9891915, "lon": -77.02541616666667, "rental_uris": {"android": "https://dc.lft.to/lastmile_qr_scan", "ios": "https://dc.lft.to/lastmile_qr_scan"}, "is_disabled": 0, "fusion_lat": 0.0, "name": "223a726b2661be41a69c8b6577030cb7", "fusion_lon": 0.0}, {"is_reserved": 0, "type": "electric_scooter", "bike_id": "82eb066b55316b1036aee8e7eedc3cc5", "lat": 38.9582365, "lon": -77.07643383333334, "rental_uris": {"android": "https://dc.lft.to/lastmile_qr_scan", "ios": "https://dc.lft.to/lastmile_qr_scan"}, "is_disabled": 0, "fusion_lat": 0.0, "name": "82eb066b55316b1036aee8e7eedc3cc5", "fusion_lon": 0.0}, {"is_reserved": 0, "type": "electric_scooter", "bike_id": "e6ec6b1535d4550f8f65992500145afa", "lat": 38.923029166666666, "lon": -77.04144183333334, "rental_uris": {"android": "https://dc.lft.to/lastmile_qr_scan", "ios": "https://dc.lft.to/lastmile_qr_scan"}, "is_disabled": 0, "fusion_lat": 0.0, "name": "e6ec6b1535d4550f8f65992500145afa", "fusion_lon": 0.0}, {"is_reserved": 0, "type": "electric_bike", "bike_id": "ab6c23555ff9724019f042f7abd7f999", "lat": 38.898536166666666, "lon": -77.11862666666667, "rental_uris": {"android": "https://dc.lft.to/lastmile_qr_scan", "ios": "https://dc.lft.to/lastmile_qr_scan"}, "is_disabled": 0, "fusion_lat": 0.0, "name": "ab6c23555ff9724019f042f7abd7f999", "fusion_lon": 0.0}, {"is_reserved": 0, "type": "electric_scooter", "bike_id": "e1dc1d7e9b135f9f96738fe59aed0bb9", "lat": 38.91779183333333, "lon": -77.0230565, "rental_uris": {"android": "https://dc.lft.to/lastmile_qr_scan", "ios": "https://dc.lft.to/lastmile_qr_scan"}, "is_disabled": 0, "fusion_lat": 0.0, "name": "e1dc1d7e9b135f9f96738fe59aed0bb9", "fusion_lon": 0.0}, {"is_reserved": 0, "type": "electric_scooter", "bike_id": "39b449e6eaed5641850b3cf299fb5c74", "lat": 38.914076, "lon": -77.046832, "rental_uris": {"android": "https://dc.lft.to/lastmile_qr_scan", "ios": "https://dc.lft.to/lastmile_qr_scan"}, "is_disabled": 0, "fusion_lat": 0.0, "name": "39b449e6eaed5641850b3cf299fb5c74", "fusion_lon": 0.0}, {"is_reserved": 0, "type": "electric_scooter", "bike_id": "6718b47cc75e5541294bbf35bc9c24b1", "lat": 38.904069666666665, "lon": -77.0329765, "rental_uris": {"android": "https://dc.lft.to/lastmile_qr_scan", "ios": "https://dc.lft.to/lastmile_qr_scan"}, "is_disabled": 0, "fusion_lat": 0.0, "name": "6718b47cc75e5541294bbf35bc9c24b1", "fusion_lon": 0.0}, {"is_reserved": 0, "type": "electric_scooter", "bike_id": "f0ed65d9946e92d236519f24f39985a8", "lat": 38.8837605, "lon": -76.995204, "rental_uris": {"android": "https://dc.lft.to/lastmile_qr_scan", "ios": "https://dc.lft.to/lastmile_qr_scan"}, "is_disabled": 0, "fusion_lat": 0.0, "name": "f0ed65d9946e92d236519f24f39985a8", "fusion_lon": 0.0}, {"is_reserved": 0, "type": "electric_scooter", "bike_id": "31c2da41ab7b79331aed857ad5ffea78", "lat": 38.915294833333334, "lon": -77.01993533333334, "rental_uris": {"android": "https://dc.lft.to/lastmile_qr_scan", "ios": "https://dc.lft.to/lastmile_qr_scan"}, "is_disabled": 0, "fusion_lat": 0.0, "name": "31c2da41ab7b79331aed857ad5ffea78", "fusion_lon": 0.0}, {"is_reserved": 0, "type": "electric_scooter", "bike_id": "2cfd4c979405be76b9ec77f06c27c720", "lat": 38.92801266666667, "lon": -77.04064133333334, "rental_uris": {"android": "https://dc.lft.to/lastmile_qr_scan", "ios": "https://dc.lft.to/lastmile_qr_scan"}, "is_disabled": 0, "fusion_lat": 0.0, "name": "2cfd4c979405be76b9ec77f06c27c720", "fusion_lon": 0.0}, {"is_reserved": 0, "type": "electric_scooter", "bike_id": "980e664df57b756927f8edb635a04638", "lat": 38.87946133333333, "lon": -77.01669083333333, "rental_uris": {"android": "https://dc.lft.to/lastmile_qr_scan", "ios": "https://dc.lft.to/lastmile_qr_scan"}, "is_disabled": 0, "fusion_lat": 0.0, "name": "980e664df57b756927f8edb635a04638", "fusion_lon": 0.0}, {"is_reserved": 0, "type": "electric_scooter", "bike_id": "06f1b07decc529d9d10b56e761338115", "lat": 38.9275495, "lon": -77.021131, "rental_uris": {"android": "https://dc.lft.to/lastmile_qr_scan", "ios": "https://dc.lft.to/lastmile_qr_scan"}, "is_disabled": 0, "fusion_lat": 0.0, "name": "06f1b07decc529d9d10b56e761338115", "fusion_lon": 0.0}, {"is_reserved": 0, "type": "electric_scooter", "bike_id": "47b3f014764e37e335abc7862eb4265d", "lat": 38.92454516666667, "lon": -77.05198166666666, "rental_uris": {"android": "https://dc.lft.to/lastmile_qr_scan", "ios": "https://dc.lft.to/lastmile_qr_scan"}, "is_disabled": 0, "fusion_lat": 0.0, "name": "47b3f014764e37e335abc7862eb4265d", "fusion_lon": 0.0}, {"is_reserved": 0, "type": "electric_scooter", "bike_id": "27dfa516a903401cc3b5a0433fe45e6d", "lat": 38.917932666666665, "lon": -77.03201683333333, "rental_uris": {"android": "https://dc.lft.to/lastmile_qr_scan", "ios": "https://dc.lft.to/lastmile_qr_scan"}, "is_disabled": 0, "fusion_lat": 0.0, "name": "27dfa516a903401cc3b5a0433fe45e6d", "fusion_lon": 0.0}, {"is_reserved": 0, "type": "electric_scooter", "bike_id": "beeaf0aa359f352e16a7f98175d26502", "lat": 38.9158135, "lon": -77.01232416666667, "rental_uris": {"android": "https://dc.lft.to/lastmile_qr_scan", "ios": "https://dc.lft.to/lastmile_qr_scan"}, "is_disabled": 0, "fusion_lat": 0.0, "name": "beeaf0aa359f352e16a7f98175d26502", "fusion_lon": 0.0}, {"is_reserved": 0, "type": "electric_scooter", "bike_id": "79260bdb1ec3e0fddb06e803703b139b", "lat": 38.9187575, "lon": -77.03506, "rental_uris": {"android": "https://dc.lft.to/lastmile_qr_scan", "ios": "https://dc.lft.to/lastmile_qr_scan"}, "is_disabled": 0, "fusion_lat": 0.0, "name": "79260bdb1ec3e0fddb06e803703b139b", "fusion_lon": 0.0}, {"is_reserved": 0, "type": "electric_scooter", "bike_id": "1efcff034475475b79c54108e5d3a920", "lat": 38.91709066666667, "lon": -77.02711316666667, "rental_uris": {"android": "https://dc.lft.to/lastmile_qr_scan", "ios": "https://dc.lft.to/lastmile_qr_scan"}, "is_disabled": 0, "fusion_lat": 0.0, "name": "1efcff034475475b79c54108e5d3a920", "fusion_lon": 0.0}, {"is_reserved": 0, "type": "electric_scooter", "bike_id": "701a835cd0d7b5e2aa8843a60cb92acd", "lat": 38.9081125, "lon": -77.03859916666667, "rental_uris": {"android": "https://dc.lft.to/lastmile_qr_scan", "ios": "https://dc.lft.to/lastmile_qr_scan"}, "is_disabled": 0, "fusion_lat": 0.0, "name": "701a835cd0d7b5e2aa8843a60cb92acd", "fusion_lon": 0.0}, {"is_reserved": 0, "type": "electric_scooter", "bike_id": "a94984318d3c4c3dc1afa98f960d93ec", "lat": 38.89839583333333, "lon": -77.01310166666667, "rental_uris": {"android": "https://dc.lft.to/lastmile_qr_scan", "ios": "https://dc.lft.to/lastmile_qr_scan"}, "is_disabled": 0, "fusion_lat": 0.0, "name": "a94984318d3c4c3dc1afa98f960d93ec", "fusion_lon": 0.0}, {"is_reserved": 0, "type": "electric_scooter", "bike_id": "7c4ce93c0612f0974524a1a2ff4142de", "lat": 38.90847183333333, "lon": -77.0634185, "rental_uris": {"android": "https://dc.lft.to/lastmile_qr_scan", "ios": "https://dc.lft.to/lastmile_qr_scan"}, "is_disabled": 0, "fusion_lat": 0.0, "name": "7c4ce93c0612f0974524a1a2ff4142de", "fusion_lon": 0.0}, {"is_reserved": 0, "type": "electric_scooter", "bike_id": "94d9d9a7cc941745f4ff8fe9208a07b0", "lat": 38.91706383333333, "lon": -77.03225733333333, "rental_uris": {"android": "https://dc.lft.to/lastmile_qr_scan", "ios": "https://dc.lft.to/lastmile_qr_scan"}, "is_disabled": 0, "fusion_lat": 0.0, "name": "94d9d9a7cc941745f4ff8fe9208a07b0", "fusion_lon": 0.0}, {"is_reserved": 0, "type": "electric_bike", "bike_id": "113325b93d9b0078d438aae989d4555f", "lat": 38.972654166666665, "lon": -77.14968916666666, "rental_uris": {"android": "https://dc.lft.to/lastmile_qr_scan", "ios": "https://dc.lft.to/lastmile_qr_scan"}, "is_disabled": 0, "fusion_lat": 0.0, "name": "113325b93d9b0078d438aae989d4555f", "fusion_lon": 0.0}, {"is_reserved": 0, "type": "electric_scooter", "bike_id": "a8945c4ddaaced02ade730017684a77c", "lat": 38.922748166666665, "lon": -77.04286483333334, "rental_uris": {"android": "https://dc.lft.to/lastmile_qr_scan", "ios": "https://dc.lft.to/lastmile_qr_scan"}, "is_disabled": 0, "fusion_lat": 0.0, "name": "a8945c4ddaaced02ade730017684a77c", "fusion_lon": 0.0}, {"is_reserved": 0, "type": "electric_scooter", "bike_id": "81bd1f66748e2809010999423bc36908", "lat": 38.900415833333334, "lon": -76.99154066666667, "rental_uris": {"android": "https://dc.lft.to/lastmile_qr_scan", "ios": "https://dc.lft.to/lastmile_qr_scan"}, "is_disabled": 0, "fusion_lat": 0.0, "name": "81bd1f66748e2809010999423bc36908", "fusion_lon": 0.0}, {"is_reserved": 0, "type": "electric_bike", "bike_id": "1028ee96810c567acdabd1e864f76b84", "lat": 38.999371833333335, "lon": -77.0513245, "rental_uris": {"android": "https://dc.lft.to/lastmile_qr_scan", "ios": "https://dc.lft.to/lastmile_qr_scan"}, "is_disabled": 0, "fusion_lat": 0.0, "name": "1028ee96810c567acdabd1e864f76b84", "fusion_lon": 0.0}, {"is_reserved": 0, "type": "electric_scooter", "bike_id": "4bd501530af83219636ee34caf8993b0", "lat": 38.925446, "lon": -77.0332525, "rental_uris": {"android": "https://dc.lft.to/lastmile_qr_scan", "ios": "https://dc.lft.to/lastmile_qr_scan"}, "is_disabled": 0, "fusion_lat": 0.0, "name": "4bd501530af83219636ee34caf8993b0", "fusion_lon": 0.0}, {"is_reserved": 0, "type": "electric_scooter", "bike_id": "01b05f96b6adb9db4ea7a76180ee6704", "lat": 38.92427133333333, "lon": -77.01949816666666, "rental_uris": {"android": "https://dc.lft.to/lastmile_qr_scan", "ios": "https://dc.lft.to/lastmile_qr_scan"}, "is_disabled": 0, "fusion_lat": 0.0, "name": "01b05f96b6adb9db4ea7a76180ee6704", "fusion_lon": 0.0}, {"is_reserved": 0, "type": "electric_scooter", "bike_id": "57f4d9045fd4413e5a2ebe8820a39d4e", "lat": 38.92351, "lon": -77.01890616666667, "rental_uris": {"android": "https://dc.lft.to/lastmile_qr_scan", "ios": "https://dc.lft.to/lastmile_qr_scan"}, "is_disabled": 0, "fusion_lat": 0.0, "name": "57f4d9045fd4413e5a2ebe8820a39d4e", "fusion_lon": 0.0}, {"is_reserved": 0, "type": "electric_bike", "bike_id": "1780a0f96c5e80924b5b143ccc93d909", "lat": 39.00002416666667, "lon": -76.9180615, "rental_uris": {"android": "https://dc.lft.to/lastmile_qr_scan", "ios": "https://dc.lft.to/lastmile_qr_scan"}, "is_disabled": 0, "fusion_lat": 0.0, "name": "1780a0f96c5e80924b5b143ccc93d909", "fusion_lon": 0.0}, {"is_reserved": 0, "type": "electric_scooter", "bike_id": "4b5e548db5155e4537a3566f342f0552", "lat": 38.917183, "lon": -77.0383755, "rental_uris": {"android": "https://dc.lft.to/lastmile_qr_scan", "ios": "https://dc.lft.to/lastmile_qr_scan"}, "is_disabled": 0, "fusion_lat": 0.0, "name": "4b5e548db5155e4537a3566f342f0552", "fusion_lon": 0.0}, {"is_reserved": 0, "type": "electric_scooter", "bike_id": "eff2b63e9f43a8240b07837d2f504246", "lat": 38.91989733333333, "lon": -76.97302533333334, "rental_uris": {"android": "https://dc.lft.to/lastmile_qr_scan", "ios": "https://dc.lft.to/lastmile_qr_scan"}, "is_disabled": 0, "fusion_lat": 0.0, "name": "eff2b63e9f43a8240b07837d2f504246", "fusion_lon": 0.0}, {"is_reserved": 0, "type": "electric_scooter", "bike_id": "abe752ed29296bba9cb81e29b6807c27", "lat": 38.926509333333335, "lon": -77.03426383333333, "rental_uris": {"android": "https://dc.lft.to/lastmile_qr_scan", "ios": "https://dc.lft.to/lastmile_qr_scan"}, "is_disabled": 0, "fusion_lat": 0.0, "name": "abe752ed29296bba9cb81e29b6807c27", "fusion_lon": 0.0}, {"is_reserved": 0, "type": "electric_scooter", "bike_id": "eb2d5b81d80f146be371bd532a39ebc9", "lat": 38.89921433333333, "lon": -77.00366116666666, "rental_uris": {"android": "https://dc.lft.to/lastmile_qr_scan", "ios": "https://dc.lft.to/lastmile_qr_scan"}, "is_disabled": 0, "fusion_lat": 0.0, "name": "eb2d5b81d80f146be371bd532a39ebc9", "fusion_lon": 0.0}, {"is_reserved": 0, "type": "electric_scooter", "bike_id": "46fb5d540d8d6ebf70cf4e86c23c76c7", "lat": 38.900119, "lon": -76.989077, "rental_uris": {"android": "https://dc.lft.to/lastmile_qr_scan", "ios": "https://dc.lft.to/lastmile_qr_scan"}, "is_disabled": 0, "fusion_lat": 0.0, "name": "46fb5d540d8d6ebf70cf4e86c23c76c7", "fusion_lon": 0.0}, {"is_reserved": 0, "type": "electric_scooter", "bike_id": "2ca03d3c5f7927e3ce8e1eea7ad40e8e", "lat": 38.89726816666666, "lon": -77.02699616666666, "rental_uris": {"android": "https://dc.lft.to/lastmile_qr_scan", "ios": "https://dc.lft.to/lastmile_qr_scan"}, "is_disabled": 0, "fusion_lat": 0.0, "name": "2ca03d3c5f7927e3ce8e1eea7ad40e8e", "fusion_lon": 0.0}, {"is_reserved": 0, "type": "electric_bike", "bike_id": "b0cb683f35175a48e0982b8a187a080f", "lat": 39.010947, "lon": -77.04956516666667, "rental_uris": {"android": "https://dc.lft.to/lastmile_qr_scan", "ios": "https://dc.lft.to/lastmile_qr_scan"}, "is_disabled": 0, "fusion_lat": 0.0, "name": "b0cb683f35175a48e0982b8a187a080f", "fusion_lon": 0.0}, {"is_reserved": 0, "type": "electric_bike", "bike_id": "f29e9705d1c39cca3d11665374cc9478", "lat": 38.863300333333335, "lon": -76.98724233333333, "rental_uris": {"android": "https://dc.lft.to/lastmile_qr_scan", "ios": "https://dc.lft.to/lastmile_qr_scan"}, "is_disabled": 0, "fusion_lat": 0.0, "name": "f29e9705d1c39cca3d11665374cc9478", "fusion_lon": 0.0}, {"is_reserved": 0, "type": "electric_scooter", "bike_id": "f50af0227f42e7cbda11bd1b9a5091a3", "lat": 38.9051835, "lon": -77.0566515, "rental_uris": {"android": "https://dc.lft.to/lastmile_qr_scan", "ios": "https://dc.lft.to/lastmile_qr_scan"}, "is_disabled": 0, "fusion_lat": 0.0, "name": "f50af0227f42e7cbda11bd1b9a5091a3", "fusion_lon": 0.0}, {"is_reserved": 0, "type": "electric_bike", "bike_id": "eecc83b0ebed3641225131ee4ad76a64", "lat": 38.900519333333335, "lon": -76.9779225, "rental_uris": {"android": "https://dc.lft.to/lastmile_qr_scan", "ios": "https://dc.lft.to/lastmile_qr_scan"}, "is_disabled": 0, "fusion_lat": 0.0, "name": "eecc83b0ebed3641225131ee4ad76a64", "fusion_lon": 0.0}, {"is_reserved": 0, "type": "electric_bike", "bike_id": "0ba1fb58c641aa86516cde38a8a7a80e", "lat": 38.808657833333335, "lon": -77.11257683333334, "rental_uris": {"android": "https://dc.lft.to/lastmile_qr_scan", "ios": "https://dc.lft.to/lastmile_qr_scan"}, "is_disabled": 0, "fusion_lat": 0.0, "name": "0ba1fb58c641aa86516cde38a8a7a80e", "fusion_lon": 0.0}, {"is_reserved": 0, "type": "electric_scooter", "bike_id": "a59882c076b9e6256413307bc851ca8b", "lat": 38.938605333333335, "lon": -77.02657883333333, "rental_uris": {"android": "https://dc.lft.to/lastmile_qr_scan", "ios": "https://dc.lft.to/lastmile_qr_scan"}, "is_disabled": 0, "fusion_lat": 0.0, "name": "a59882c076b9e6256413307bc851ca8b", "fusion_lon": 0.0}, {"is_reserved": 0, "type": "electric_scooter", "bike_id": "dea5fe5c420b1b0b832171ff7f23ad7d", "lat": 38.91557666666667, "lon": -77.023649, "rental_uris": {"android": "https://dc.lft.to/lastmile_qr_scan", "ios": "https://dc.lft.to/lastmile_qr_scan"}, "is_disabled": 0, "fusion_lat": 0.0, "name": "dea5fe5c420b1b0b832171ff7f23ad7d", "fusion_lon": 0.0}, {"is_reserved": 0, "type": "electric_scooter", "bike_id": "aacb7937b6bc07c3534e4f4e434aa9f4", "lat": 38.872677333333336, "lon": -77.01710116666666, "rental_uris": {"android": "https://dc.lft.to/lastmile_qr_scan", "ios": "https://dc.lft.to/lastmile_qr_scan"}, "is_disabled": 0, "fusion_lat": 0.0, "name": "aacb7937b6bc07c3534e4f4e434aa9f4", "fusion_lon": 0.0}, {"is_reserved": 0, "type": "electric_scooter", "bike_id": "818b0d50a69bf477799927681c283a7c", "lat": 38.9068625, "lon": -77.06262733333334, "rental_uris": {"android": "https://dc.lft.to/lastmile_qr_scan", "ios": "https://dc.lft.to/lastmile_qr_scan"}, "is_disabled": 0, "fusion_lat": 0.0, "name": "818b0d50a69bf477799927681c283a7c", "fusion_lon": 0.0}, {"is_reserved": 0, "type": "electric_scooter", "bike_id": "473bb98b863cf69fe314fde2205b6d4b", "lat": 38.8716425, "lon": -77.01315616666666, "rental_uris": {"android": "https://dc.lft.to/lastmile_qr_scan", "ios": "https://dc.lft.to/lastmile_qr_scan"}, "is_disabled": 0, "fusion_lat": 0.0, "name": "473bb98b863cf69fe314fde2205b6d4b", "fusion_lon": 0.0}, {"is_reserved": 0, "type": "electric_scooter", "bike_id": "ace3e87b2d5106cc13882365b5650fe8", "lat": 38.925585, "lon": -77.03656616666666, "rental_uris": {"android": "https://dc.lft.to/lastmile_qr_scan", "ios": "https://dc.lft.to/lastmile_qr_scan"}, "is_disabled": 0, "fusion_lat": 0.0, "name": "ace3e87b2d5106cc13882365b5650fe8", "fusion_lon": 0.0}, {"is_reserved": 0, "type": "electric_scooter", "bike_id": "205d367b85bd242a7cfcb031d8f9ab94", "lat": 38.9236535, "lon": -77.01920783333334, "rental_uris": {"android": "https://dc.lft.to/lastmile_qr_scan", "ios": "https://dc.lft.to/lastmile_qr_scan"}, "is_disabled": 0, "fusion_lat": 0.0, "name": "205d367b85bd242a7cfcb031d8f9ab94", "fusion_lon": 0.0}, {"is_reserved": 0, "type": "electric_scooter", "bike_id": "4151b8ebad21991f2ec48b3e9cc36369", "lat": 38.89615883333333, "lon": -77.02256316666667, "rental_uris": {"android": "https://dc.lft.to/lastmile_qr_scan", "ios": "https://dc.lft.to/lastmile_qr_scan"}, "is_disabled": 0, "fusion_lat": 0.0, "name": "4151b8ebad21991f2ec48b3e9cc36369", "fusion_lon": 0.0}, {"is_reserved": 0, "type": "electric_scooter", "bike_id": "57ff3ac31800425c5d227354817fd58a", "lat": 38.9318215, "lon": -77.03852833333333, "rental_uris": {"android": "https://dc.lft.to/lastmile_qr_scan", "ios": "https://dc.lft.to/lastmile_qr_scan"}, "is_disabled": 0, "fusion_lat": 0.0, "name": "57ff3ac31800425c5d227354817fd58a", "fusion_lon": 0.0}, {"is_reserved": 0, "type": "electric_bike", "bike_id": "f0ecb2feb531e095a4b4a85646eba9c8", "lat": 38.949655666666665, "lon": -76.96093683333334, "rental_uris": {"android": "https://dc.lft.to/lastmile_qr_scan", "ios": "https://dc.lft.to/lastmile_qr_scan"}, "is_disabled": 0, "fusion_lat": 0.0, "name": "f0ecb2feb531e095a4b4a85646eba9c8", "fusion_lon": 0.0}, {"is_reserved": 0, "type": "electric_scooter", "bike_id": "c0b7c34349975ebdc6fb18edb3f7f667", "lat": 38.8922795, "lon": -77.04364083333333, "rental_uris": {"android": "https://dc.lft.to/lastmile_qr_scan", "ios": "https://dc.lft.to/lastmile_qr_scan"}, "is_disabled": 0, "fusion_lat": 0.0, "name": "c0b7c34349975ebdc6fb18edb3f7f667", "fusion_lon": 0.0}, {"is_reserved": 0, "type": "electric_scooter", "bike_id": "b78d1229b88d9ac53c68232aa44d4962", "lat": 38.9187565, "lon": -77.03636916666666, "rental_uris": {"android": "https://dc.lft.to/lastmile_qr_scan", "ios": "https://dc.lft.to/lastmile_qr_scan"}, "is_disabled": 0, "fusion_lat": 0.0, "name": "b78d1229b88d9ac53c68232aa44d4962", "fusion_lon": 0.0}, {"is_reserved": 0, "type": "electric_scooter", "bike_id": "2c00f43c21ec0f607525ee814296acb6", "lat": 38.8973355, "lon": -77.02711116666667, "rental_uris": {"android": "https://dc.lft.to/lastmile_qr_scan", "ios": "https://dc.lft.to/lastmile_qr_scan"}, "is_disabled": 0, "fusion_lat": 0.0, "name": "2c00f43c21ec0f607525ee814296acb6", "fusion_lon": 0.0}, {"is_reserved": 0, "type": "electric_scooter", "bike_id": "8742b77c90fa2d9c71f43985b3730b7d", "lat": 38.966475, "lon": -77.008934, "rental_uris": {"android": "https://dc.lft.to/lastmile_qr_scan", "ios": "https://dc.lft.to/lastmile_qr_scan"}, "is_disabled": 0, "fusion_lat": 0.0, "name": "8742b77c90fa2d9c71f43985b3730b7d", "fusion_lon": 0.0}, {"is_reserved": 0, "type": "electric_bike", "bike_id": "3961b9ef8d336e76e8c677a4b74cc9ea", "lat": 38.99541266666667, "lon": -77.0746605, "rental_uris": {"android": "https://dc.lft.to/lastmile_qr_scan", "ios": "https://dc.lft.to/lastmile_qr_scan"}, "is_disabled": 0, "fusion_lat": 0.0, "name": "3961b9ef8d336e76e8c677a4b74cc9ea", "fusion_lon": 0.0}, {"is_reserved": 0, "type": "electric_scooter", "bike_id": "2f653bc9b12f400986cf7b0c77f04d1e", "lat": 38.92614866666667, "lon": -77.02160216666667, "rental_uris": {"android": "https://dc.lft.to/lastmile_qr_scan", "ios": "https://dc.lft.to/lastmile_qr_scan"}, "is_disabled": 0, "fusion_lat": 0.0, "name": "2f653bc9b12f400986cf7b0c77f04d1e", "fusion_lon": 0.0}, {"is_reserved": 0, "type": "electric_scooter", "bike_id": "7470267ba687b7bcde0faeddf0c0b863", "lat": 38.916304333333336, "lon": -77.01571283333334, "rental_uris": {"android": "https://dc.lft.to/lastmile_qr_scan", "ios": "https://dc.lft.to/lastmile_qr_scan"}, "is_disabled": 0, "fusion_lat": 0.0, "name": "7470267ba687b7bcde0faeddf0c0b863", "fusion_lon": 0.0}, {"is_reserved": 0, "type": "electric_scooter", "bike_id": "25da47ec09d4c04d9fed4a7d5e64289a", "lat": 38.95252383333333, "lon": -77.02396233333333, "rental_uris": {"android": "https://dc.lft.to/lastmile_qr_scan", "ios": "https://dc.lft.to/lastmile_qr_scan"}, "is_disabled": 0, "fusion_lat": 0.0, "name": "25da47ec09d4c04d9fed4a7d5e64289a", "fusion_lon": 0.0}, {"is_reserved": 0, "type": "electric_scooter", "bike_id": "1708c4aae66423d6b13a1a96bf504c80", "lat": 38.93530416666667, "lon": -77.0249075, "rental_uris": {"android": "https://dc.lft.to/lastmile_qr_scan", "ios": "https://dc.lft.to/lastmile_qr_scan"}, "is_disabled": 0, "fusion_lat": 0.0, "name": "1708c4aae66423d6b13a1a96bf504c80", "fusion_lon": 0.0}, {"is_reserved": 0, "type": "electric_scooter", "bike_id": "a25c2a631a7d2b3e3b30d38555315f86", "lat": 38.89990183333333, "lon": -77.02711733333334, "rental_uris": {"android": "https://dc.lft.to/lastmile_qr_scan", "ios": "https://dc.lft.to/lastmile_qr_scan"}, "is_disabled": 0, "fusion_lat": 0.0, "name": "a25c2a631a7d2b3e3b30d38555315f86", "fusion_lon": 0.0}, {"is_reserved": 0, "type": "electric_scooter", "bike_id": "02bffd904fa772f6bfe478a79b59998b", "lat": 38.90561433333333, "lon": -77.00292033333334, "rental_uris": {"android": "https://dc.lft.to/lastmile_qr_scan", "ios": "https://dc.lft.to/lastmile_qr_scan"}, "is_disabled": 0, "fusion_lat": 0.0, "name": "02bffd904fa772f6bfe478a79b59998b", "fusion_lon": 0.0}, {"is_reserved": 0, "type": "electric_scooter", "bike_id": "12226add66f79dfcb2f7625693cfe4f6", "lat": 38.95219916666667, "lon": -77.0025355, "rental_uris": {"android": "https://dc.lft.to/lastmile_qr_scan", "ios": "https://dc.lft.to/lastmile_qr_scan"}, "is_disabled": 0, "fusion_lat": 0.0, "name": "12226add66f79dfcb2f7625693cfe4f6", "fusion_lon": 0.0}, {"is_reserved": 0, "type": "electric_scooter", "bike_id": "a053ad87de8ae4c05156eabfa3f1409c", "lat": 38.89954766666666, "lon": -77.04789333333333, "rental_uris": {"android": "https://dc.lft.to/lastmile_qr_scan", "ios": "https://dc.lft.to/lastmile_qr_scan"}, "is_disabled": 0, "fusion_lat": 0.0, "name": "a053ad87de8ae4c05156eabfa3f1409c", "fusion_lon": 0.0}, {"is_reserved": 0, "type": "electric_scooter", "bike_id": "c901824b1194ce983c76e9fbe5cea6b2", "lat": 38.90112966666667, "lon": -77.01631016666667, "rental_uris": {"android": "https://dc.lft.to/lastmile_qr_scan", "ios": "https://dc.lft.to/lastmile_qr_scan"}, "is_disabled": 0, "fusion_lat": 0.0, "name": "c901824b1194ce983c76e9fbe5cea6b2", "fusion_lon": 0.0}, {"is_reserved": 0, "type": "electric_scooter", "bike_id": "6ae3c1ead1ef79f23eb4766872467f5e", "lat": 38.91689066666667, "lon": -77.02387366666666, "rental_uris": {"android": "https://dc.lft.to/lastmile_qr_scan", "ios": "https://dc.lft.to/lastmile_qr_scan"}, "is_disabled": 0, "fusion_lat": 0.0, "name": "6ae3c1ead1ef79f23eb4766872467f5e", "fusion_lon": 0.0}, {"is_reserved": 0, "type": "electric_scooter", "bike_id": "fb706f02b07923bb50c9c77fac286a57", "lat": 38.92565483333333, "lon": -77.02281483333333, "rental_uris": {"android": "https://dc.lft.to/lastmile_qr_scan", "ios": "https://dc.lft.to/lastmile_qr_scan"}, "is_disabled": 0, "fusion_lat": 0.0, "name": "fb706f02b07923bb50c9c77fac286a57", "fusion_lon": 0.0}, {"is_reserved": 0, "type": "electric_scooter", "bike_id": "5ee7f152dbd03d129c95b94d65c720aa", "lat": 38.911073333333334, "lon": -77.01906733333334, "rental_uris": {"android": "https://dc.lft.to/lastmile_qr_scan", "ios": "https://dc.lft.to/lastmile_qr_scan"}, "is_disabled": 0, "fusion_lat": 0.0, "name": "5ee7f152dbd03d129c95b94d65c720aa", "fusion_lon": 0.0}, {"is_reserved": 0, "type": "electric_bike", "bike_id": "0d958b12c9cacdc1afcedf1e3f9f81eb", "lat": 38.90862933333333, "lon": -76.98481133333334, "rental_uris": {"android": "https://dc.lft.to/lastmile_qr_scan", "ios": "https://dc.lft.to/lastmile_qr_scan"}, "is_disabled": 0, "fusion_lat": 0.0, "name": "0d958b12c9cacdc1afcedf1e3f9f81eb", "fusion_lon": 0.0}, {"is_reserved": 0, "type": "electric_scooter", "bike_id": "cd82da4cd11688632b69d30d9ee79ce4", "lat": 38.93014333333333, "lon": -77.02336933333333, "rental_uris": {"android": "https://dc.lft.to/lastmile_qr_scan", "ios": "https://dc.lft.to/lastmile_qr_scan"}, "is_disabled": 0, "fusion_lat": 0.0, "name": "cd82da4cd11688632b69d30d9ee79ce4", "fusion_lon": 0.0}, {"is_reserved": 0, "type": "electric_scooter", "bike_id": "22546873506a7b2916e2dbc7aeb1bf8d", "lat": 38.902633, "lon": -77.0278755, "rental_uris": {"android": "https://dc.lft.to/lastmile_qr_scan", "ios": "https://dc.lft.to/lastmile_qr_scan"}, "is_disabled": 0, "fusion_lat": 0.0, "name": "22546873506a7b2916e2dbc7aeb1bf8d", "fusion_lon": 0.0}, {"is_reserved": 0, "type": "electric_scooter", "bike_id": "e58c6f80dcedec653bfacae31541d7df", "lat": 38.925481833333336, "lon": -77.03465183333333, "rental_uris": {"android": "https://dc.lft.to/lastmile_qr_scan", "ios": "https://dc.lft.to/lastmile_qr_scan"}, "is_disabled": 0, "fusion_lat": 0.0, "name": "e58c6f80dcedec653bfacae31541d7df", "fusion_lon": 0.0}, {"is_reserved": 0, "type": "electric_scooter", "bike_id": "491c57f5b21ea0b4cbbb7fb733d89ab6", "lat": 38.926055, "lon": -77.02421366666667, "rental_uris": {"android": "https://dc.lft.to/lastmile_qr_scan", "ios": "https://dc.lft.to/lastmile_qr_scan"}, "is_disabled": 0, "fusion_lat": 0.0, "name": "491c57f5b21ea0b4cbbb7fb733d89ab6", "fusion_lon": 0.0}, {"is_reserved": 0, "type": "electric_scooter", "bike_id": "ad813263dfccd202eb4dcd2261fe6163", "lat": 38.89835383333333, "lon": -77.04812066666666, "rental_uris": {"android": "https://dc.lft.to/lastmile_qr_scan", "ios": "https://dc.lft.to/lastmile_qr_scan"}, "is_disabled": 0, "fusion_lat": 0.0, "name": "ad813263dfccd202eb4dcd2261fe6163", "fusion_lon": 0.0}, {"is_reserved": 0, "type": "electric_scooter", "bike_id": "c7ff333497432cad4183ec074e36ea51", "lat": 38.879050666666664, "lon": -77.02198533333333, "rental_uris": {"android": "https://dc.lft.to/lastmile_qr_scan", "ios": "https://dc.lft.to/lastmile_qr_scan"}, "is_disabled": 0, "fusion_lat": 0.0, "name": "c7ff333497432cad4183ec074e36ea51", "fusion_lon": 0.0}, {"is_reserved": 0, "type": "electric_scooter", "bike_id": "c13528a8189a31b864779945232abb39", "lat": 38.92334966666667, "lon": -77.04382083333333, "rental_uris": {"android": "https://dc.lft.to/lastmile_qr_scan", "ios": "https://dc.lft.to/lastmile_qr_scan"}, "is_disabled": 0, "fusion_lat": 0.0, "name": "c13528a8189a31b864779945232abb39", "fusion_lon": 0.0}, {"is_reserved": 0, "type": "electric_scooter", "bike_id": "3ce35249176928657a50f9e376648a54", "lat": 38.912383166666665, "lon": -77.026899, "rental_uris": {"android": "https://dc.lft.to/lastmile_qr_scan", "ios": "https://dc.lft.to/lastmile_qr_scan"}, "is_disabled": 0, "fusion_lat": 0.0, "name": "3ce35249176928657a50f9e376648a54", "fusion_lon": 0.0}, {"is_reserved": 0, "type": "electric_scooter", "bike_id": "6bc7cbfa8c7429daceaf36d8bda3dbee", "lat": 38.895933666666664, "lon": -76.92987533333333, "rental_uris": {"android": "https://dc.lft.to/lastmile_qr_scan", "ios": "https://dc.lft.to/lastmile_qr_scan"}, "is_disabled": 0, "fusion_lat": 0.0, "name": "6bc7cbfa8c7429daceaf36d8bda3dbee", "fusion_lon": 0.0}, {"is_reserved": 0, "type": "electric_bike", "bike_id": "b3454e3b3e68384938d94bd1a2d2702e", "lat": 38.949074, "lon": -77.02411566666666, "rental_uris": {"android": "https://dc.lft.to/lastmile_qr_scan", "ios": "https://dc.lft.to/lastmile_qr_scan"}, "is_disabled": 0, "fusion_lat": 0.0, "name": "b3454e3b3e68384938d94bd1a2d2702e", "fusion_lon": 0.0}, {"is_reserved": 0, "type": "electric_scooter", "bike_id": "6bfccaee205b5caf513bf2853a6c76b8", "lat": 38.898526, "lon": -77.02221366666667, "rental_uris": {"android": "https://dc.lft.to/lastmile_qr_scan", "ios": "https://dc.lft.to/lastmile_qr_scan"}, "is_disabled": 0, "fusion_lat": 0.0, "name": "6bfccaee205b5caf513bf2853a6c76b8", "fusion_lon": 0.0}, {"is_reserved": 0, "type": "electric_scooter", "bike_id": "cf53c0512745ceda5987d2c1a3222e41", "lat": 38.909205666666665, "lon": -77.00298866666667, "rental_uris": {"android": "https://dc.lft.to/lastmile_qr_scan", "ios": "https://dc.lft.to/lastmile_qr_scan"}, "is_disabled": 0, "fusion_lat": 0.0, "name": "cf53c0512745ceda5987d2c1a3222e41", "fusion_lon": 0.0}, {"is_reserved": 0, "type": "electric_scooter", "bike_id": "94ef9be4d9e13609d494ccfc3ccbf529", "lat": 38.91569483333333, "lon": -77.0297125, "rental_uris": {"android": "https://dc.lft.to/lastmile_qr_scan", "ios": "https://dc.lft.to/lastmile_qr_scan"}, "is_disabled": 0, "fusion_lat": 0.0, "name": "94ef9be4d9e13609d494ccfc3ccbf529", "fusion_lon": 0.0}, {"is_reserved": 0, "type": "electric_scooter", "bike_id": "f4d50b194d5871476d3aac5866785de4", "lat": 38.9074465, "lon": -77.01540566666667, "rental_uris": {"android": "https://dc.lft.to/lastmile_qr_scan", "ios": "https://dc.lft.to/lastmile_qr_scan"}, "is_disabled": 0, "fusion_lat": 0.0, "name": "f4d50b194d5871476d3aac5866785de4", "fusion_lon": 0.0}, {"is_reserved": 0, "type": "electric_scooter", "bike_id": "d06839bf887f09c1464bd2e3cc062390", "lat": 38.950923, "lon": -77.025324, "rental_uris": {"android": "https://dc.lft.to/lastmile_qr_scan", "ios": "https://dc.lft.to/lastmile_qr_scan"}, "is_disabled": 0, "fusion_lat": 0.0, "name": "d06839bf887f09c1464bd2e3cc062390", "fusion_lon": 0.0}, {"is_reserved": 0, "type": "electric_scooter", "bike_id": "0efd1a632f93bb9aeda78153f3e2233d", "lat": 38.88514766666667, "lon": -77.01120033333333, "rental_uris": {"android": "https://dc.lft.to/lastmile_qr_scan", "ios": "https://dc.lft.to/lastmile_qr_scan"}, "is_disabled": 0, "fusion_lat": 0.0, "name": "0efd1a632f93bb9aeda78153f3e2233d", "fusion_lon": 0.0}, {"is_reserved": 0, "type": "electric_scooter", "bike_id": "36e449c046bae52b9e4aa975f4bfee9a", "lat": 38.92985933333333, "lon": -77.0347195, "rental_uris": {"android": "https://dc.lft.to/lastmile_qr_scan", "ios": "https://dc.lft.to/lastmile_qr_scan"}, "is_disabled": 0, "fusion_lat": 0.0, "name": "36e449c046bae52b9e4aa975f4bfee9a", "fusion_lon": 0.0}, {"is_reserved": 0, "type": "electric_scooter", "bike_id": "47fb76b8c9948183f3b59b905db5706b", "lat": 38.91184233333333, "lon": -77.02190733333333, "rental_uris": {"android": "https://dc.lft.to/lastmile_qr_scan", "ios": "https://dc.lft.to/lastmile_qr_scan"}, "is_disabled": 0, "fusion_lat": 0.0, "name": "47fb76b8c9948183f3b59b905db5706b", "fusion_lon": 0.0}, {"is_reserved": 0, "type": "electric_scooter", "bike_id": "29553fc1e8934d5ec41d0702a47424aa", "lat": 38.897825833333336, "lon": -77.02725466666666, "rental_uris": {"android": "https://dc.lft.to/lastmile_qr_scan", "ios": "https://dc.lft.to/lastmile_qr_scan"}, "is_disabled": 0, "fusion_lat": 0.0, "name": "29553fc1e8934d5ec41d0702a47424aa", "fusion_lon": 0.0}, {"is_reserved": 0, "type": "electric_scooter", "bike_id": "0f0c1fb0f3ece0004bfbd8ce87b84561", "lat": 38.920493, "lon": -77.025802, "rental_uris": {"android": "https://dc.lft.to/lastmile_qr_scan", "ios": "https://dc.lft.to/lastmile_qr_scan"}, "is_disabled": 0, "fusion_lat": 0.0, "name": "0f0c1fb0f3ece0004bfbd8ce87b84561", "fusion_lon": 0.0}, {"is_reserved": 0, "type": "electric_scooter", "bike_id": "ca3ca8963a712ef3801b7181aa97df54", "lat": 38.87285816666667, "lon": -77.00986716666667, "rental_uris": {"android": "https://dc.lft.to/lastmile_qr_scan", "ios": "https://dc.lft.to/lastmile_qr_scan"}, "is_disabled": 0, "fusion_lat": 0.0, "name": "ca3ca8963a712ef3801b7181aa97df54", "fusion_lon": 0.0}, {"is_reserved": 0, "type": "electric_scooter", "bike_id": "fd7d5c24e91bd74ed054411e153cebc4", "lat": 38.93373733333333, "lon": -77.0202855, "rental_uris": {"android": "https://dc.lft.to/lastmile_qr_scan", "ios": "https://dc.lft.to/lastmile_qr_scan"}, "is_disabled": 0, "fusion_lat": 0.0, "name": "fd7d5c24e91bd74ed054411e153cebc4", "fusion_lon": 0.0}, {"is_reserved": 0, "type": "electric_scooter", "bike_id": "29300c98eb2346b5961db0e704e2beb6", "lat": 38.91222533333333, "lon": -77.01120066666667, "rental_uris": {"android": "https://dc.lft.to/lastmile_qr_scan", "ios": "https://dc.lft.to/lastmile_qr_scan"}, "is_disabled": 0, "fusion_lat": 0.0, "name": "29300c98eb2346b5961db0e704e2beb6", "fusion_lon": 0.0}, {"is_reserved": 0, "type": "electric_scooter", "bike_id": "d6e4d6089db840089c7b1ebc1c74c099", "lat": 38.94325466666667, "lon": -77.07582033333334, "rental_uris": {"android": "https://dc.lft.to/lastmile_qr_scan", "ios": "https://dc.lft.to/lastmile_qr_scan"}, "is_disabled": 0, "fusion_lat": 0.0, "name": "d6e4d6089db840089c7b1ebc1c74c099", "fusion_lon": 0.0}, {"is_reserved": 0, "type": "electric_scooter", "bike_id": "5d3280565266bbb1593c79fbf9e4d175", "lat": 38.89483933333333, "lon": -77.05033083333333, "rental_uris": {"android": "https://dc.lft.to/lastmile_qr_scan", "ios": "https://dc.lft.to/lastmile_qr_scan"}, "is_disabled": 0, "fusion_lat": 0.0, "name": "5d3280565266bbb1593c79fbf9e4d175", "fusion_lon": 0.0}, {"is_reserved": 0, "type": "electric_scooter", "bike_id": "12ab0b00581855cb299f88ace4b5fefc", "lat": 38.90208066666667, "lon": -77.02368466666667, "rental_uris": {"android": "https://dc.lft.to/lastmile_qr_scan", "ios": "https://dc.lft.to/lastmile_qr_scan"}, "is_disabled": 0, "fusion_lat": 0.0, "name": "12ab0b00581855cb299f88ace4b5fefc", "fusion_lon": 0.0}, {"is_reserved": 0, "type": "electric_scooter", "bike_id": "05563579674dc476f93fa03a9bb214f9", "lat": 38.905019333333335, "lon": -77.02811083333333, "rental_uris": {"android": "https://dc.lft.to/lastmile_qr_scan", "ios": "https://dc.lft.to/lastmile_qr_scan"}, "is_disabled": 0, "fusion_lat": 0.0, "name": "05563579674dc476f93fa03a9bb214f9", "fusion_lon": 0.0}, {"is_reserved": 0, "type": "electric_scooter", "bike_id": "bb9143596f6e40d2ce4087b60f5aa3f5", "lat": 38.91674883333334, "lon": -77.02969383333334, "rental_uris": {"android": "https://dc.lft.to/lastmile_qr_scan", "ios": "https://dc.lft.to/lastmile_qr_scan"}, "is_disabled": 0, "fusion_lat": 0.0, "name": "bb9143596f6e40d2ce4087b60f5aa3f5", "fusion_lon": 0.0}, {"is_reserved": 0, "type": "electric_scooter", "bike_id": "d59e49420d0382b792372eb3b0717a1b", "lat": 38.9116095, "lon": -77.02092583333334, "rental_uris": {"android": "https://dc.lft.to/lastmile_qr_scan", "ios": "https://dc.lft.to/lastmile_qr_scan"}, "is_disabled": 0, "fusion_lat": 0.0, "name": "d59e49420d0382b792372eb3b0717a1b", "fusion_lon": 0.0}, {"is_reserved": 0, "type": "electric_scooter", "bike_id": "a51edb82731a2786e1022e5a5c74dce5", "lat": 38.925588833333336, "lon": -76.98151866666667, "rental_uris": {"android": "https://dc.lft.to/lastmile_qr_scan", "ios": "https://dc.lft.to/lastmile_qr_scan"}, "is_disabled": 0, "fusion_lat": 0.0, "name": "a51edb82731a2786e1022e5a5c74dce5", "fusion_lon": 0.0}, {"is_reserved": 0, "type": "electric_scooter", "bike_id": "1c72666d2ca10ec86ac7ad9144e4fddc", "lat": 38.91695583333333, "lon": -77.053091, "rental_uris": {"android": "https://dc.lft.to/lastmile_qr_scan", "ios": "https://dc.lft.to/lastmile_qr_scan"}, "is_disabled": 0, "fusion_lat": 0.0, "name": "1c72666d2ca10ec86ac7ad9144e4fddc", "fusion_lon": 0.0}, {"is_reserved": 0, "type": "electric_scooter", "bike_id": "22dbe35655573c44a14ccca90897d683", "lat": 38.924048166666665, "lon": -76.95145683333334, "rental_uris": {"android": "https://dc.lft.to/lastmile_qr_scan", "ios": "https://dc.lft.to/lastmile_qr_scan"}, "is_disabled": 0, "fusion_lat": 0.0, "name": "22dbe35655573c44a14ccca90897d683", "fusion_lon": 0.0}, {"is_reserved": 0, "type": "electric_scooter", "bike_id": "627c885d19e46aa293c94dac5a544370", "lat": 38.89227016666667, "lon": -77.01608066666667, "rental_uris": {"android": "https://dc.lft.to/lastmile_qr_scan", "ios": "https://dc.lft.to/lastmile_qr_scan"}, "is_disabled": 0, "fusion_lat": 0.0, "name": "627c885d19e46aa293c94dac5a544370", "fusion_lon": 0.0}, {"is_reserved": 0, "type": "electric_scooter", "bike_id": "51e2ed3fb75c82234cb0d470472fa5e4", "lat": 38.900019, "lon": -77.02893133333333, "rental_uris": {"android": "https://dc.lft.to/lastmile_qr_scan", "ios": "https://dc.lft.to/lastmile_qr_scan"}, "is_disabled": 0, "fusion_lat": 0.0, "name": "51e2ed3fb75c82234cb0d470472fa5e4", "fusion_lon": 0.0}, {"is_reserved": 0, "type": "electric_scooter", "bike_id": "c531a474a64ff92adb9278e72a1bbeff", "lat": 38.89898016666667, "lon": -77.01620866666667, "rental_uris": {"android": "https://dc.lft.to/lastmile_qr_scan", "ios": "https://dc.lft.to/lastmile_qr_scan"}, "is_disabled": 0, "fusion_lat": 0.0, "name": "c531a474a64ff92adb9278e72a1bbeff", "fusion_lon": 0.0}, {"is_reserved": 0, "type": "electric_scooter", "bike_id": "4bc85c024c02e4104f6ac7f655280cc7", "lat": 38.887510166666665, "lon": -77.02897816666666, "rental_uris": {"android": "https://dc.lft.to/lastmile_qr_scan", "ios": "https://dc.lft.to/lastmile_qr_scan"}, "is_disabled": 0, "fusion_lat": 0.0, "name": "4bc85c024c02e4104f6ac7f655280cc7", "fusion_lon": 0.0}, {"is_reserved": 0, "type": "electric_scooter", "bike_id": "fcb7e6f8f2f978ef684a87053b1fa4dd", "lat": 38.89744316666667, "lon": -77.01764533333333, "rental_uris": {"android": "https://dc.lft.to/lastmile_qr_scan", "ios": "https://dc.lft.to/lastmile_qr_scan"}, "is_disabled": 0, "fusion_lat": 0.0, "name": "fcb7e6f8f2f978ef684a87053b1fa4dd", "fusion_lon": 0.0}, {"is_reserved": 0, "type": "electric_scooter", "bike_id": "635197b8b003b5fe13ae91d2243daad5", "lat": 38.89632683333333, "lon": -77.0021185, "rental_uris": {"android": "https://dc.lft.to/lastmile_qr_scan", "ios": "https://dc.lft.to/lastmile_qr_scan"}, "is_disabled": 0, "fusion_lat": 0.0, "name": "635197b8b003b5fe13ae91d2243daad5", "fusion_lon": 0.0}, {"is_reserved": 0, "type": "electric_scooter", "bike_id": "9e12d7bc587ade5517de6b55e6ede78e", "lat": 38.9281075, "lon": -77.03623433333334, "rental_uris": {"android": "https://dc.lft.to/lastmile_qr_scan", "ios": "https://dc.lft.to/lastmile_qr_scan"}, "is_disabled": 0, "fusion_lat": 0.0, "name": "9e12d7bc587ade5517de6b55e6ede78e", "fusion_lon": 0.0}, {"is_reserved": 0, "type": "electric_scooter", "bike_id": "66301d1033cbdc576e957b2f7aa90b07", "lat": 38.89886, "lon": -77.04908166666667, "rental_uris": {"android": "https://dc.lft.to/lastmile_qr_scan", "ios": "https://dc.lft.to/lastmile_qr_scan"}, "is_disabled": 0, "fusion_lat": 0.0, "name": "66301d1033cbdc576e957b2f7aa90b07", "fusion_lon": 0.0}, {"is_reserved": 0, "type": "electric_scooter", "bike_id": "30e5f4177ca736fb335452da7078a2b2", "lat": 38.900391166666665, "lon": -76.990385, "rental_uris": {"android": "https://dc.lft.to/lastmile_qr_scan", "ios": "https://dc.lft.to/lastmile_qr_scan"}, "is_disabled": 0, "fusion_lat": 0.0, "name": "30e5f4177ca736fb335452da7078a2b2", "fusion_lon": 0.0}, {"is_reserved": 0, "type": "electric_scooter", "bike_id": "fb26fc2350a0b5544c7dcadd8c9bd161", "lat": 38.91266433333333, "lon": -77.03386783333333, "rental_uris": {"android": "https://dc.lft.to/lastmile_qr_scan", "ios": "https://dc.lft.to/lastmile_qr_scan"}, "is_disabled": 0, "fusion_lat": 0.0, "name": "fb26fc2350a0b5544c7dcadd8c9bd161", "fusion_lon": 0.0}, {"is_reserved": 0, "type": "electric_scooter", "bike_id": "22c35f506b4b224727ed185a891fc7af", "lat": 38.89503583333333, "lon": -76.934756, "rental_uris": {"android": "https://dc.lft.to/lastmile_qr_scan", "ios": "https://dc.lft.to/lastmile_qr_scan"}, "is_disabled": 0, "fusion_lat": 0.0, "name": "22c35f506b4b224727ed185a891fc7af", "fusion_lon": 0.0}, {"is_reserved": 0, "type": "electric_scooter", "bike_id": "98c3433e221461d7e4bc7a29e67f64dc", "lat": 38.931733, "lon": -77.02814666666667, "rental_uris": {"android": "https://dc.lft.to/lastmile_qr_scan", "ios": "https://dc.lft.to/lastmile_qr_scan"}, "is_disabled": 0, "fusion_lat": 0.0, "name": "98c3433e221461d7e4bc7a29e67f64dc", "fusion_lon": 0.0}, {"is_reserved": 0, "type": "electric_scooter", "bike_id": "095bee07af33df51a70be06089257b48", "lat": 38.902648666666664, "lon": -77.016693, "rental_uris": {"android": "https://dc.lft.to/lastmile_qr_scan", "ios": "https://dc.lft.to/lastmile_qr_scan"}, "is_disabled": 0, "fusion_lat": 0.0, "name": "095bee07af33df51a70be06089257b48", "fusion_lon": 0.0}, {"is_reserved": 0, "type": "electric_scooter", "bike_id": "e2b9204eaf0fe7b61b803177e1387201", "lat": 38.89721516666667, "lon": -77.03201316666667, "rental_uris": {"android": "https://dc.lft.to/lastmile_qr_scan", "ios": "https://dc.lft.to/lastmile_qr_scan"}, "is_disabled": 0, "fusion_lat": 0.0, "name": "e2b9204eaf0fe7b61b803177e1387201", "fusion_lon": 0.0}, {"is_reserved": 0, "type": "electric_bike", "bike_id": "b37909d59b805982888ffa14ae45ce7e", "lat": 39.04234233333333, "lon": -76.99733516666667, "rental_uris": {"android": "https://dc.lft.to/lastmile_qr_scan", "ios": "https://dc.lft.to/lastmile_qr_scan"}, "is_disabled": 0, "fusion_lat": 0.0, "name": "b37909d59b805982888ffa14ae45ce7e", "fusion_lon": 0.0}, {"is_reserved": 0, "type": "electric_bike", "bike_id": "a23ac41b04423ccf3f1be3514a55e15c", "lat": 38.97344666666667, "lon": -76.9959465, "rental_uris": {"android": "https://dc.lft.to/lastmile_qr_scan", "ios": "https://dc.lft.to/lastmile_qr_scan"}, "is_disabled": 0, "fusion_lat": 0.0, "name": "a23ac41b04423ccf3f1be3514a55e15c", "fusion_lon": 0.0}, {"is_reserved": 0, "type": "electric_scooter", "bike_id": "b03d346f7ec4d69d6a37d53ccd7e150d", "lat": 38.927848166666664, "lon": -77.02564333333333, "rental_uris": {"android": "https://dc.lft.to/lastmile_qr_scan", "ios": "https://dc.lft.to/lastmile_qr_scan"}, "is_disabled": 0, "fusion_lat": 0.0, "name": "b03d346f7ec4d69d6a37d53ccd7e150d", "fusion_lon": 0.0}, {"is_reserved": 0, "type": "electric_scooter", "bike_id": "c5f8527f7420c10ea4376d61ad09e073", "lat": 38.9138385, "lon": -77.04601116666667, "rental_uris": {"android": "https://dc.lft.to/lastmile_qr_scan", "ios": "https://dc.lft.to/lastmile_qr_scan"}, "is_disabled": 0, "fusion_lat": 0.0, "name": "c5f8527f7420c10ea4376d61ad09e073", "fusion_lon": 0.0}, {"is_reserved": 0, "type": "electric_scooter", "bike_id": "05423c7563c03484dc3073acfc30d646", "lat": 38.895232, "lon": -77.02209616666667, "rental_uris": {"android": "https://dc.lft.to/lastmile_qr_scan", "ios": "https://dc.lft.to/lastmile_qr_scan"}, "is_disabled": 0, "fusion_lat": 0.0, "name": "05423c7563c03484dc3073acfc30d646", "fusion_lon": 0.0}, {"is_reserved": 0, "type": "electric_scooter", "bike_id": "d139760025e660366da1a93edcc45f43", "lat": 38.91678533333334, "lon": -77.02953183333334, "rental_uris": {"android": "https://dc.lft.to/lastmile_qr_scan", "ios": "https://dc.lft.to/lastmile_qr_scan"}, "is_disabled": 0, "fusion_lat": 0.0, "name": "d139760025e660366da1a93edcc45f43", "fusion_lon": 0.0}, {"is_reserved": 0, "type": "electric_scooter", "bike_id": "0a5b1a812797bd74f031a6a3e14dd650", "lat": 38.86577166666667, "lon": -76.99018633333333, "rental_uris": {"android": "https://dc.lft.to/lastmile_qr_scan", "ios": "https://dc.lft.to/lastmile_qr_scan"}, "is_disabled": 0, "fusion_lat": 0.0, "name": "0a5b1a812797bd74f031a6a3e14dd650", "fusion_lon": 0.0}, {"is_reserved": 0, "type": "electric_scooter", "bike_id": "10186d1bc69fcb31c1c529484e2f1cc8", "lat": 38.91552183333334, "lon": -77.03834066666667, "rental_uris": {"android": "https://dc.lft.to/lastmile_qr_scan", "ios": "https://dc.lft.to/lastmile_qr_scan"}, "is_disabled": 0, "fusion_lat": 0.0, "name": "10186d1bc69fcb31c1c529484e2f1cc8", "fusion_lon": 0.0}, {"is_reserved": 0, "type": "electric_scooter", "bike_id": "4732b43d4de3b4c58fc28485bf8a1f2c", "lat": 38.91288766666667, "lon": -76.98540333333334, "rental_uris": {"android": "https://dc.lft.to/lastmile_qr_scan", "ios": "https://dc.lft.to/lastmile_qr_scan"}, "is_disabled": 0, "fusion_lat": 0.0, "name": "4732b43d4de3b4c58fc28485bf8a1f2c", "fusion_lon": 0.0}, {"is_reserved": 0, "type": "electric_scooter", "bike_id": "7478c4ad268ca78b6255a16b69178bc1", "lat": 38.92017383333334, "lon": -77.03139266666666, "rental_uris": {"android": "https://dc.lft.to/lastmile_qr_scan", "ios": "https://dc.lft.to/lastmile_qr_scan"}, "is_disabled": 0, "fusion_lat": 0.0, "name": "7478c4ad268ca78b6255a16b69178bc1", "fusion_lon": 0.0}, {"is_reserved": 0, "type": "electric_scooter", "bike_id": "f69e16edbb2115f16e52f006ec2f2e33", "lat": 38.89221716666667, "lon": -77.028067, "rental_uris": {"android": "https://dc.lft.to/lastmile_qr_scan", "ios": "https://dc.lft.to/lastmile_qr_scan"}, "is_disabled": 0, "fusion_lat": 0.0, "name": "f69e16edbb2115f16e52f006ec2f2e33", "fusion_lon": 0.0}, {"is_reserved": 0, "type": "electric_bike", "bike_id": "731b040ef3c660e49872df1d452acd81", "lat": 38.86757583333333, "lon": -76.945332, "rental_uris": {"android": "https://dc.lft.to/lastmile_qr_scan", "ios": "https://dc.lft.to/lastmile_qr_scan"}, "is_disabled": 0, "fusion_lat": 0.0, "name": "731b040ef3c660e49872df1d452acd81", "fusion_lon": 0.0}, {"is_reserved": 0, "type": "electric_scooter", "bike_id": "4cdf4dbb5f04d09cba70440ea8966331", "lat": 38.905224833333335, "lon": -77.027096, "rental_uris": {"android": "https://dc.lft.to/lastmile_qr_scan", "ios": "https://dc.lft.to/lastmile_qr_scan"}, "is_disabled": 0, "fusion_lat": 0.0, "name": "4cdf4dbb5f04d09cba70440ea8966331", "fusion_lon": 0.0}, {"is_reserved": 0, "type": "electric_scooter", "bike_id": "f8a0a95b3ec5070a495875ba57e2ddb2", "lat": 38.919110833333335, "lon": -77.04458783333334, "rental_uris": {"android": "https://dc.lft.to/lastmile_qr_scan", "ios": "https://dc.lft.to/lastmile_qr_scan"}, "is_disabled": 0, "fusion_lat": 0.0, "name": "f8a0a95b3ec5070a495875ba57e2ddb2", "fusion_lon": 0.0}, {"is_reserved": 0, "type": "electric_scooter", "bike_id": "0c1dbc3d0c1859e2100c27b93635e1ba", "lat": 38.90527816666667, "lon": -77.06101783333334, "rental_uris": {"android": "https://dc.lft.to/lastmile_qr_scan", "ios": "https://dc.lft.to/lastmile_qr_scan"}, "is_disabled": 0, "fusion_lat": 0.0, "name": "0c1dbc3d0c1859e2100c27b93635e1ba", "fusion_lon": 0.0}, {"is_reserved": 0, "type": "electric_scooter", "bike_id": "038df15f12962a9839b56b27da5be391", "lat": 38.91113383333333, "lon": -77.032561, "rental_uris": {"android": "https://dc.lft.to/lastmile_qr_scan", "ios": "https://dc.lft.to/lastmile_qr_scan"}, "is_disabled": 0, "fusion_lat": 0.0, "name": "038df15f12962a9839b56b27da5be391", "fusion_lon": 0.0}, {"is_reserved": 0, "type": "electric_scooter", "bike_id": "b4cf1ed56ffd5c1b60db34b87fc87d56", "lat": 38.92027433333333, "lon": -76.9854405, "rental_uris": {"android": "https://dc.lft.to/lastmile_qr_scan", "ios": "https://dc.lft.to/lastmile_qr_scan"}, "is_disabled": 0, "fusion_lat": 0.0, "name": "b4cf1ed56ffd5c1b60db34b87fc87d56", "fusion_lon": 0.0}, {"is_reserved": 0, "type": "electric_scooter", "bike_id": "08eff4cbc9f3e26546cb60bf76c6545f", "lat": 38.887725333333336, "lon": -76.93263433333334, "rental_uris": {"android": "https://dc.lft.to/lastmile_qr_scan", "ios": "https://dc.lft.to/lastmile_qr_scan"}, "is_disabled": 0, "fusion_lat": 0.0, "name": "08eff4cbc9f3e26546cb60bf76c6545f", "fusion_lon": 0.0}, {"is_reserved": 0, "type": "electric_scooter", "bike_id": "10844cba418e4c5a67087f8835e4a17c", "lat": 38.91302116666667, "lon": -77.01406683333333, "rental_uris": {"android": "https://dc.lft.to/lastmile_qr_scan", "ios": "https://dc.lft.to/lastmile_qr_scan"}, "is_disabled": 0, "fusion_lat": 0.0, "name": "10844cba418e4c5a67087f8835e4a17c", "fusion_lon": 0.0}, {"is_reserved": 0, "type": "electric_scooter", "bike_id": "5ceee90110e12099bc29d3da84eababe", "lat": 38.9247505, "lon": -77.03934283333334, "rental_uris": {"android": "https://dc.lft.to/lastmile_qr_scan", "ios": "https://dc.lft.to/lastmile_qr_scan"}, "is_disabled": 0, "fusion_lat": 0.0, "name": "5ceee90110e12099bc29d3da84eababe", "fusion_lon": 0.0}, {"is_reserved": 0, "type": "electric_scooter", "bike_id": "ba8e1ec0ee109a4569678f861fae1587", "lat": 38.93527983333333, "lon": -77.01943033333333, "rental_uris": {"android": "https://dc.lft.to/lastmile_qr_scan", "ios": "https://dc.lft.to/lastmile_qr_scan"}, "is_disabled": 0, "fusion_lat": 0.0, "name": "ba8e1ec0ee109a4569678f861fae1587", "fusion_lon": 0.0}, {"is_reserved": 0, "type": "electric_scooter", "bike_id": "21770901e61b406bea09138fbed67d8a", "lat": 38.90729, "lon": -76.934485, "rental_uris": {"android": "https://dc.lft.to/lastmile_qr_scan", "ios": "https://dc.lft.to/lastmile_qr_scan"}, "is_disabled": 0, "fusion_lat": 0.0, "name": "21770901e61b406bea09138fbed67d8a", "fusion_lon": 0.0}, {"is_reserved": 0, "type": "electric_scooter", "bike_id": "36f41a094cd3c6364d5626b4ee47cad3", "lat": 38.926791, "lon": -77.0319705, "rental_uris": {"android": "https://dc.lft.to/lastmile_qr_scan", "ios": "https://dc.lft.to/lastmile_qr_scan"}, "is_disabled": 0, "fusion_lat": 0.0, "name": "36f41a094cd3c6364d5626b4ee47cad3", "fusion_lon": 0.0}, {"is_reserved": 0, "type": "electric_scooter", "bike_id": "254cb7f9cbf35372bcd5b3d258bb426e", "lat": 38.89947566666667, "lon": -76.97916066666667, "rental_uris": {"android": "https://dc.lft.to/lastmile_qr_scan", "ios": "https://dc.lft.to/lastmile_qr_scan"}, "is_disabled": 0, "fusion_lat": 0.0, "name": "254cb7f9cbf35372bcd5b3d258bb426e", "fusion_lon": 0.0}, {"is_reserved": 0, "type": "electric_scooter", "bike_id": "8ec5fb4354c6b4b30b281af3a7ad50dc", "lat": 38.9052675, "lon": -77.06458216666667, "rental_uris": {"android": "https://dc.lft.to/lastmile_qr_scan", "ios": "https://dc.lft.to/lastmile_qr_scan"}, "is_disabled": 0, "fusion_lat": 0.0, "name": "8ec5fb4354c6b4b30b281af3a7ad50dc", "fusion_lon": 0.0}, {"is_reserved": 0, "type": "electric_scooter", "bike_id": "7afdcfba98c5ae2ed9c9999ac6135cfa", "lat": 38.906478666666665, "lon": -76.9837485, "rental_uris": {"android": "https://dc.lft.to/lastmile_qr_scan", "ios": "https://dc.lft.to/lastmile_qr_scan"}, "is_disabled": 0, "fusion_lat": 0.0, "name": "7afdcfba98c5ae2ed9c9999ac6135cfa", "fusion_lon": 0.0}, {"is_reserved": 0, "type": "electric_scooter", "bike_id": "9263d4f9c686f9a82eacf32cd7203737", "lat": 38.914052166666664, "lon": -77.03185916666666, "rental_uris": {"android": "https://dc.lft.to/lastmile_qr_scan", "ios": "https://dc.lft.to/lastmile_qr_scan"}, "is_disabled": 0, "fusion_lat": 0.0, "name": "9263d4f9c686f9a82eacf32cd7203737", "fusion_lon": 0.0}, {"is_reserved": 0, "type": "electric_scooter", "bike_id": "123a4ea712487b5ec2a39a298ebbd83c", "lat": 38.916404, "lon": -77.03892533333334, "rental_uris": {"android": "https://dc.lft.to/lastmile_qr_scan", "ios": "https://dc.lft.to/lastmile_qr_scan"}, "is_disabled": 0, "fusion_lat": 0.0, "name": "123a4ea712487b5ec2a39a298ebbd83c", "fusion_lon": 0.0}, {"is_reserved": 0, "type": "electric_scooter", "bike_id": "6fafa2f807329144161433fc29d2a7df", "lat": 38.934629, "lon": -77.02842133333333, "rental_uris": {"android": "https://dc.lft.to/lastmile_qr_scan", "ios": "https://dc.lft.to/lastmile_qr_scan"}, "is_disabled": 0, "fusion_lat": 0.0, "name": "6fafa2f807329144161433fc29d2a7df", "fusion_lon": 0.0}, {"is_reserved": 0, "type": "electric_scooter", "bike_id": "3639d815ccbaa3107fa8376856f1779c", "lat": 38.9006675, "lon": -77.04958316666666, "rental_uris": {"android": "https://dc.lft.to/lastmile_qr_scan", "ios": "https://dc.lft.to/lastmile_qr_scan"}, "is_disabled": 0, "fusion_lat": 0.0, "name": "3639d815ccbaa3107fa8376856f1779c", "fusion_lon": 0.0}, {"is_reserved": 0, "type": "electric_scooter", "bike_id": "28f4aca5d14e3c140327724aa89f5a63", "lat": 38.91109683333333, "lon": -77.073513, "rental_uris": {"android": "https://dc.lft.to/lastmile_qr_scan", "ios": "https://dc.lft.to/lastmile_qr_scan"}, "is_disabled": 0, "fusion_lat": 0.0, "name": "28f4aca5d14e3c140327724aa89f5a63", "fusion_lon": 0.0}, {"is_reserved": 0, "type": "electric_scooter", "bike_id": "ccf48bccf246ea7e74c613cab783c4b8", "lat": 38.909605666666664, "lon": -77.031613, "rental_uris": {"android": "https://dc.lft.to/lastmile_qr_scan", "ios": "https://dc.lft.to/lastmile_qr_scan"}, "is_disabled": 0, "fusion_lat": 0.0, "name": "ccf48bccf246ea7e74c613cab783c4b8", "fusion_lon": 0.0}, {"is_reserved": 0, "type": "electric_scooter", "bike_id": "5bc2c54357edc75f2a984c800218df3e", "lat": 38.8966235, "lon": -77.02206133333334, "rental_uris": {"android": "https://dc.lft.to/lastmile_qr_scan", "ios": "https://dc.lft.to/lastmile_qr_scan"}, "is_disabled": 0, "fusion_lat": 0.0, "name": "5bc2c54357edc75f2a984c800218df3e", "fusion_lon": 0.0}, {"is_reserved": 0, "type": "electric_scooter", "bike_id": "b024e5e125be9c66e7f6eaf9a88a5b70", "lat": 38.914059, "lon": -77.0316995, "rental_uris": {"android": "https://dc.lft.to/lastmile_qr_scan", "ios": "https://dc.lft.to/lastmile_qr_scan"}, "is_disabled": 0, "fusion_lat": 0.0, "name": "b024e5e125be9c66e7f6eaf9a88a5b70", "fusion_lon": 0.0}, {"is_reserved": 0, "type": "electric_scooter", "bike_id": "31e84c5a9f91bf790c4af25124a674ec", "lat": 38.90550266666666, "lon": -77.04198783333334, "rental_uris": {"android": "https://dc.lft.to/lastmile_qr_scan", "ios": "https://dc.lft.to/lastmile_qr_scan"}, "is_disabled": 0, "fusion_lat": 0.0, "name": "31e84c5a9f91bf790c4af25124a674ec", "fusion_lon": 0.0}, {"is_reserved": 0, "type": "electric_scooter", "bike_id": "da4811288596d1d213e19cdf505e7769", "lat": 38.900274333333336, "lon": -77.02199866666666, "rental_uris": {"android": "https://dc.lft.to/lastmile_qr_scan", "ios": "https://dc.lft.to/lastmile_qr_scan"}, "is_disabled": 0, "fusion_lat": 0.0, "name": "da4811288596d1d213e19cdf505e7769", "fusion_lon": 0.0}, {"is_reserved": 0, "type": "electric_scooter", "bike_id": "a22197cbb0ed5b76949a09b9afd9b3f6", "lat": 38.93875383333334, "lon": -77.03219966666667, "rental_uris": {"android": "https://dc.lft.to/lastmile_qr_scan", "ios": "https://dc.lft.to/lastmile_qr_scan"}, "is_disabled": 0, "fusion_lat": 0.0, "name": "a22197cbb0ed5b76949a09b9afd9b3f6", "fusion_lon": 0.0}, {"is_reserved": 0, "type": "electric_scooter", "bike_id": "47375e06ce8f640d748f2b92d93ac029", "lat": 38.914895333333334, "lon": -77.04157766666667, "rental_uris": {"android": "https://dc.lft.to/lastmile_qr_scan", "ios": "https://dc.lft.to/lastmile_qr_scan"}, "is_disabled": 0, "fusion_lat": 0.0, "name": "47375e06ce8f640d748f2b92d93ac029", "fusion_lon": 0.0}, {"is_reserved": 0, "type": "electric_scooter", "bike_id": "52b280ef14aee0567730046e60ea8a05", "lat": 38.92302516666667, "lon": -77.03032433333334, "rental_uris": {"android": "https://dc.lft.to/lastmile_qr_scan", "ios": "https://dc.lft.to/lastmile_qr_scan"}, "is_disabled": 0, "fusion_lat": 0.0, "name": "52b280ef14aee0567730046e60ea8a05", "fusion_lon": 0.0}, {"is_reserved": 0, "type": "electric_scooter", "bike_id": "c115963a5690e080d7ffa36e85d7ac54", "lat": 38.924771666666665, "lon": -77.0254805, "rental_uris": {"android": "https://dc.lft.to/lastmile_qr_scan", "ios": "https://dc.lft.to/lastmile_qr_scan"}, "is_disabled": 0, "fusion_lat": 0.0, "name": "c115963a5690e080d7ffa36e85d7ac54", "fusion_lon": 0.0}, {"is_reserved": 0, "type": "electric_scooter", "bike_id": "38f7536291781b87b100aa34fbb5dabc", "lat": 38.92189916666667, "lon": -77.04134616666667, "rental_uris": {"android": "https://dc.lft.to/lastmile_qr_scan", "ios": "https://dc.lft.to/lastmile_qr_scan"}, "is_disabled": 0, "fusion_lat": 0.0, "name": "38f7536291781b87b100aa34fbb5dabc", "fusion_lon": 0.0}, {"is_reserved": 0, "type": "electric_scooter", "bike_id": "3e5b5873548dd2e5265d09249584f4fd", "lat": 38.91712833333333, "lon": -77.0298015, "rental_uris": {"android": "https://dc.lft.to/lastmile_qr_scan", "ios": "https://dc.lft.to/lastmile_qr_scan"}, "is_disabled": 0, "fusion_lat": 0.0, "name": "3e5b5873548dd2e5265d09249584f4fd", "fusion_lon": 0.0}, {"is_reserved": 0, "type": "electric_scooter", "bike_id": "4d576a43b7a297869fc40d8e05cd0ec0", "lat": 38.919335833333335, "lon": -77.0447445, "rental_uris": {"android": "https://dc.lft.to/lastmile_qr_scan", "ios": "https://dc.lft.to/lastmile_qr_scan"}, "is_disabled": 0, "fusion_lat": 0.0, "name": "4d576a43b7a297869fc40d8e05cd0ec0", "fusion_lon": 0.0}, {"is_reserved": 0, "type": "electric_scooter", "bike_id": "f98eff58e68d8e4b6c4058052a28378e", "lat": 38.8819895, "lon": -76.98904366666666, "rental_uris": {"android": "https://dc.lft.to/lastmile_qr_scan", "ios": "https://dc.lft.to/lastmile_qr_scan"}, "is_disabled": 0, "fusion_lat": 0.0, "name": "f98eff58e68d8e4b6c4058052a28378e", "fusion_lon": 0.0}, {"is_reserved": 0, "type": "electric_scooter", "bike_id": "e61be6342d53637ebe9c98c5e47e3dbd", "lat": 38.9041275, "lon": -77.02409316666666, "rental_uris": {"android": "https://dc.lft.to/lastmile_qr_scan", "ios": "https://dc.lft.to/lastmile_qr_scan"}, "is_disabled": 0, "fusion_lat": 0.0, "name": "e61be6342d53637ebe9c98c5e47e3dbd", "fusion_lon": 0.0}, {"is_reserved": 0, "type": "electric_bike", "bike_id": "c36245eb1ef15fb51a8e2114919f67ce", "lat": 38.896171833333334, "lon": -76.90735333333333, "rental_uris": {"android": "https://dc.lft.to/lastmile_qr_scan", "ios": "https://dc.lft.to/lastmile_qr_scan"}, "is_disabled": 0, "fusion_lat": 0.0, "name": "c36245eb1ef15fb51a8e2114919f67ce", "fusion_lon": 0.0}, {"is_reserved": 0, "type": "electric_scooter", "bike_id": "c5ecc5f41507fec1098331876c877e3f", "lat": 38.8942525, "lon": -77.05596166666666, "rental_uris": {"android": "https://dc.lft.to/lastmile_qr_scan", "ios": "https://dc.lft.to/lastmile_qr_scan"}, "is_disabled": 0, "fusion_lat": 0.0, "name": "c5ecc5f41507fec1098331876c877e3f", "fusion_lon": 0.0}, {"is_reserved": 0, "type": "electric_scooter", "bike_id": "d73e83e2efb283c58f1b4c05c3a4f1ff", "lat": 38.8935395, "lon": -77.017298, "rental_uris": {"android": "https://dc.lft.to/lastmile_qr_scan", "ios": "https://dc.lft.to/lastmile_qr_scan"}, "is_disabled": 0, "fusion_lat": 0.0, "name": "d73e83e2efb283c58f1b4c05c3a4f1ff", "fusion_lon": 0.0}, {"is_reserved": 0, "type": "electric_scooter", "bike_id": "2e71eba0f54b63a23b49986f29c212d4", "lat": 38.885257, "lon": -76.99709933333334, "rental_uris": {"android": "https://dc.lft.to/lastmile_qr_scan", "ios": "https://dc.lft.to/lastmile_qr_scan"}, "is_disabled": 0, "fusion_lat": 0.0, "name": "2e71eba0f54b63a23b49986f29c212d4", "fusion_lon": 0.0}, {"is_reserved": 0, "type": "electric_scooter", "bike_id": "53cb61d7c9713233e0c367b75d20a495", "lat": 38.9119235, "lon": -77.032212, "rental_uris": {"android": "https://dc.lft.to/lastmile_qr_scan", "ios": "https://dc.lft.to/lastmile_qr_scan"}, "is_disabled": 0, "fusion_lat": 0.0, "name": "53cb61d7c9713233e0c367b75d20a495", "fusion_lon": 0.0}, {"is_reserved": 0, "type": "electric_scooter", "bike_id": "0087973562011a2ac0119c320340436a", "lat": 38.9204845, "lon": -77.025772, "rental_uris": {"android": "https://dc.lft.to/lastmile_qr_scan", "ios": "https://dc.lft.to/lastmile_qr_scan"}, "is_disabled": 0, "fusion_lat": 0.0, "name": "0087973562011a2ac0119c320340436a", "fusion_lon": 0.0}, {"is_reserved": 0, "type": "electric_scooter", "bike_id": "57fc78e034090fb5b8ee2b6ab042303b", "lat": 38.908575666666664, "lon": -77.0016505, "rental_uris": {"android": "https://dc.lft.to/lastmile_qr_scan", "ios": "https://dc.lft.to/lastmile_qr_scan"}, "is_disabled": 0, "fusion_lat": 0.0, "name": "57fc78e034090fb5b8ee2b6ab042303b", "fusion_lon": 0.0}, {"is_reserved": 0, "type": "electric_scooter", "bike_id": "05bc91dd5bae9e4d04cf74992088b06c", "lat": 38.89481, "lon": -76.9958195, "rental_uris": {"android": "https://dc.lft.to/lastmile_qr_scan", "ios": "https://dc.lft.to/lastmile_qr_scan"}, "is_disabled": 0, "fusion_lat": 0.0, "name": "05bc91dd5bae9e4d04cf74992088b06c", "fusion_lon": 0.0}, {"is_reserved": 0, "type": "electric_scooter", "bike_id": "94fba48d96c5ba128c5e971bdc00d5fb", "lat": 38.8648875, "lon": -76.97742716666667, "rental_uris": {"android": "https://dc.lft.to/lastmile_qr_scan", "ios": "https://dc.lft.to/lastmile_qr_scan"}, "is_disabled": 0, "fusion_lat": 0.0, "name": "94fba48d96c5ba128c5e971bdc00d5fb", "fusion_lon": 0.0}, {"is_reserved": 0, "type": "electric_scooter", "bike_id": "b5c9fd6dcc2f044b98f96a23fd8e0c07", "lat": 38.89345, "lon": -77.04875616666666, "rental_uris": {"android": "https://dc.lft.to/lastmile_qr_scan", "ios": "https://dc.lft.to/lastmile_qr_scan"}, "is_disabled": 0, "fusion_lat": 0.0, "name": "b5c9fd6dcc2f044b98f96a23fd8e0c07", "fusion_lon": 0.0}, {"is_reserved": 0, "type": "electric_scooter", "bike_id": "a66ab57436238d6575182a0aa0bc6e77", "lat": 38.8995225, "lon": -76.982008, "rental_uris": {"android": "https://dc.lft.to/lastmile_qr_scan", "ios": "https://dc.lft.to/lastmile_qr_scan"}, "is_disabled": 0, "fusion_lat": 0.0, "name": "a66ab57436238d6575182a0aa0bc6e77", "fusion_lon": 0.0}, {"is_reserved": 0, "type": "electric_scooter", "bike_id": "414054996ae74bb828a278641eacd92c", "lat": 38.96412983333333, "lon": -77.03282083333333, "rental_uris": {"android": "https://dc.lft.to/lastmile_qr_scan", "ios": "https://dc.lft.to/lastmile_qr_scan"}, "is_disabled": 0, "fusion_lat": 0.0, "name": "414054996ae74bb828a278641eacd92c", "fusion_lon": 0.0}, {"is_reserved": 0, "type": "electric_bike", "bike_id": "cf51e73ef228d5f32718aecd7651f536", "lat": 38.88408883333334, "lon": -76.96060433333334, "rental_uris": {"android": "https://dc.lft.to/lastmile_qr_scan", "ios": "https://dc.lft.to/lastmile_qr_scan"}, "is_disabled": 0, "fusion_lat": 0.0, "name": "cf51e73ef228d5f32718aecd7651f536", "fusion_lon": 0.0}, {"is_reserved": 0, "type": "electric_bike", "bike_id": "3b61a526e79e884aa10e6e9e91162b66", "lat": 38.950847833333334, "lon": -77.01228683333333, "rental_uris": {"android": "https://dc.lft.to/lastmile_qr_scan", "ios": "https://dc.lft.to/lastmile_qr_scan"}, "is_disabled": 0, "fusion_lat": 0.0, "name": "3b61a526e79e884aa10e6e9e91162b66", "fusion_lon": 0.0}, {"is_reserved": 0, "type": "electric_scooter", "bike_id": "b41b4a9cf2789407a61e5083a6add49c", "lat": 38.90369066666667, "lon": -76.9994665, "rental_uris": {"android": "https://dc.lft.to/lastmile_qr_scan", "ios": "https://dc.lft.to/lastmile_qr_scan"}, "is_disabled": 0, "fusion_lat": 0.0, "name": "b41b4a9cf2789407a61e5083a6add49c", "fusion_lon": 0.0}, {"is_reserved": 0, "type": "electric_scooter", "bike_id": "53add5a59bda67c9fd14471324922a81", "lat": 38.90128416666667, "lon": -77.03898416666667, "rental_uris": {"android": "https://dc.lft.to/lastmile_qr_scan", "ios": "https://dc.lft.to/lastmile_qr_scan"}, "is_disabled": 0, "fusion_lat": 0.0, "name": "53add5a59bda67c9fd14471324922a81", "fusion_lon": 0.0}, {"is_reserved": 0, "type": "electric_scooter", "bike_id": "b0b9be744bc4049e67d4bf6cae5cfdac", "lat": 38.933187333333336, "lon": -77.03235016666666, "rental_uris": {"android": "https://dc.lft.to/lastmile_qr_scan", "ios": "https://dc.lft.to/lastmile_qr_scan"}, "is_disabled": 0, "fusion_lat": 0.0, "name": "b0b9be744bc4049e67d4bf6cae5cfdac", "fusion_lon": 0.0}, {"is_reserved": 0, "type": "electric_scooter", "bike_id": "d3c7b09401c85f7a5da4b0775fffdc32", "lat": 38.917003666666666, "lon": -77.04013516666667, "rental_uris": {"android": "https://dc.lft.to/lastmile_qr_scan", "ios": "https://dc.lft.to/lastmile_qr_scan"}, "is_disabled": 0, "fusion_lat": 0.0, "name": "d3c7b09401c85f7a5da4b0775fffdc32", "fusion_lon": 0.0}, {"is_reserved": 0, "type": "electric_scooter", "bike_id": "68ecc558be5cf06daa058ee1d98899a6", "lat": 38.9038565, "lon": -77.031181, "rental_uris": {"android": "https://dc.lft.to/lastmile_qr_scan", "ios": "https://dc.lft.to/lastmile_qr_scan"}, "is_disabled": 0, "fusion_lat": 0.0, "name": "68ecc558be5cf06daa058ee1d98899a6", "fusion_lon": 0.0}, {"is_reserved": 0, "type": "electric_scooter", "bike_id": "6730e048e0807d90de9cf7c85ec8bbee", "lat": 38.9283135, "lon": -77.0260485, "rental_uris": {"android": "https://dc.lft.to/lastmile_qr_scan", "ios": "https://dc.lft.to/lastmile_qr_scan"}, "is_disabled": 0, "fusion_lat": 0.0, "name": "6730e048e0807d90de9cf7c85ec8bbee", "fusion_lon": 0.0}, {"is_reserved": 0, "type": "electric_bike", "bike_id": "1e8bcedb69e3e0594d377b917b616164", "lat": 38.78403433333333, "lon": -77.1208585, "rental_uris": {"android": "https://dc.lft.to/lastmile_qr_scan", "ios": "https://dc.lft.to/lastmile_qr_scan"}, "is_disabled": 0, "fusion_lat": 0.0, "name": "1e8bcedb69e3e0594d377b917b616164", "fusion_lon": 0.0}, {"is_reserved": 0, "type": "electric_scooter", "bike_id": "3a22c8f05bef0e2d61df6fe0afaa2085", "lat": 38.883243, "lon": -77.0096015, "rental_uris": {"android": "https://dc.lft.to/lastmile_qr_scan", "ios": "https://dc.lft.to/lastmile_qr_scan"}, "is_disabled": 0, "fusion_lat": 0.0, "name": "3a22c8f05bef0e2d61df6fe0afaa2085", "fusion_lon": 0.0}, {"is_reserved": 0, "type": "electric_scooter", "bike_id": "a5593d82e1cdb2ab4c5a57873bdebc33", "lat": 38.917077, "lon": -77.036062, "rental_uris": {"android": "https://dc.lft.to/lastmile_qr_scan", "ios": "https://dc.lft.to/lastmile_qr_scan"}, "is_disabled": 0, "fusion_lat": 0.0, "name": "a5593d82e1cdb2ab4c5a57873bdebc33", "fusion_lon": 0.0}, {"is_reserved": 0, "type": "electric_scooter", "bike_id": "65c44ad5abb16a448980edc92a43f834", "lat": 38.88532716666667, "lon": -76.98088766666666, "rental_uris": {"android": "https://dc.lft.to/lastmile_qr_scan", "ios": "https://dc.lft.to/lastmile_qr_scan"}, "is_disabled": 0, "fusion_lat": 0.0, "name": "65c44ad5abb16a448980edc92a43f834", "fusion_lon": 0.0}, {"is_reserved": 0, "type": "electric_scooter", "bike_id": "56a7e6d1bc94e99a012f093c37b4b243", "lat": 38.90026966666667, "lon": -76.99679216666667, "rental_uris": {"android": "https://dc.lft.to/lastmile_qr_scan", "ios": "https://dc.lft.to/lastmile_qr_scan"}, "is_disabled": 0, "fusion_lat": 0.0, "name": "56a7e6d1bc94e99a012f093c37b4b243", "fusion_lon": 0.0}, {"is_reserved": 0, "type": "electric_scooter", "bike_id": "95406c70836c118cbb473f3fbf278153", "lat": 38.86643333333333, "lon": -76.9828555, "rental_uris": {"android": "https://dc.lft.to/lastmile_qr_scan", "ios": "https://dc.lft.to/lastmile_qr_scan"}, "is_disabled": 0, "fusion_lat": 0.0, "name": "95406c70836c118cbb473f3fbf278153", "fusion_lon": 0.0}, {"is_reserved": 0, "type": "electric_bike", "bike_id": "dd97ab16d4125cf15fb3f4dc86003bd0", "lat": 38.85419133333333, "lon": -77.08369383333333, "rental_uris": {"android": "https://dc.lft.to/lastmile_qr_scan", "ios": "https://dc.lft.to/lastmile_qr_scan"}, "is_disabled": 0, "fusion_lat": 0.0, "name": "dd97ab16d4125cf15fb3f4dc86003bd0", "fusion_lon": 0.0}, {"is_reserved": 0, "type": "electric_scooter", "bike_id": "58a4ff52721c5f3c03194abecbd40413", "lat": 38.8960665, "lon": -77.04482583333333, "rental_uris": {"android": "https://dc.lft.to/lastmile_qr_scan", "ios": "https://dc.lft.to/lastmile_qr_scan"}, "is_disabled": 0, "fusion_lat": 0.0, "name": "58a4ff52721c5f3c03194abecbd40413", "fusion_lon": 0.0}, {"is_reserved": 0, "type": "electric_scooter", "bike_id": "34cb564ff0d4a79e40dbddce322014a4", "lat": 38.915706666666665, "lon": -77.038538, "rental_uris": {"android": "https://dc.lft.to/lastmile_qr_scan", "ios": "https://dc.lft.to/lastmile_qr_scan"}, "is_disabled": 0, "fusion_lat": 0.0, "name": "34cb564ff0d4a79e40dbddce322014a4", "fusion_lon": 0.0}, {"is_reserved": 0, "type": "electric_bike", "bike_id": "7b4cd8bcd2b50af1393569e283151e49", "lat": 38.870041, "lon": -77.23012933333334, "rental_uris": {"android": "https://dc.lft.to/lastmile_qr_scan", "ios": "https://dc.lft.to/lastmile_qr_scan"}, "is_disabled": 0, "fusion_lat": 0.0, "name": "7b4cd8bcd2b50af1393569e283151e49", "fusion_lon": 0.0}, {"is_reserved": 0, "type": "electric_scooter", "bike_id": "1ecb6165c9c60351a9329651e5e1cd9b", "lat": 38.88648966666667, "lon": -77.022015, "rental_uris": {"android": "https://dc.lft.to/lastmile_qr_scan", "ios": "https://dc.lft.to/lastmile_qr_scan"}, "is_disabled": 0, "fusion_lat": 0.0, "name": "1ecb6165c9c60351a9329651e5e1cd9b", "fusion_lon": 0.0}, {"is_reserved": 0, "type": "electric_scooter", "bike_id": "cb142ef4c27e341aa6ec4ef4852fe6e4", "lat": 38.921892166666666, "lon": -76.99618866666667, "rental_uris": {"android": "https://dc.lft.to/lastmile_qr_scan", "ios": "https://dc.lft.to/lastmile_qr_scan"}, "is_disabled": 0, "fusion_lat": 0.0, "name": "cb142ef4c27e341aa6ec4ef4852fe6e4", "fusion_lon": 0.0}, {"is_reserved": 0, "type": "electric_scooter", "bike_id": "4a003b44802ae845df205806d85a3d5d", "lat": 38.8935755, "lon": -77.00336733333333, "rental_uris": {"android": "https://dc.lft.to/lastmile_qr_scan", "ios": "https://dc.lft.to/lastmile_qr_scan"}, "is_disabled": 0, "fusion_lat": 0.0, "name": "4a003b44802ae845df205806d85a3d5d", "fusion_lon": 0.0}, {"is_reserved": 0, "type": "electric_scooter", "bike_id": "4ba6e06b868f6b40aa79396ab07e0642", "lat": 38.92518916666667, "lon": -77.05065283333333, "rental_uris": {"android": "https://dc.lft.to/lastmile_qr_scan", "ios": "https://dc.lft.to/lastmile_qr_scan"}, "is_disabled": 0, "fusion_lat": 0.0, "name": "4ba6e06b868f6b40aa79396ab07e0642", "fusion_lon": 0.0}, {"is_reserved": 0, "type": "electric_scooter", "bike_id": "bb8277ba0908358fdc8c4df760826417", "lat": 38.8960435, "lon": -76.98320466666667, "rental_uris": {"android": "https://dc.lft.to/lastmile_qr_scan", "ios": "https://dc.lft.to/lastmile_qr_scan"}, "is_disabled": 0, "fusion_lat": 0.0, "name": "bb8277ba0908358fdc8c4df760826417", "fusion_lon": 0.0}, {"is_reserved": 0, "type": "electric_scooter", "bike_id": "e2446fe6e63b2fabbea524a5838aa550", "lat": 38.91838516666667, "lon": -77.02307166666667, "rental_uris": {"android": "https://dc.lft.to/lastmile_qr_scan", "ios": "https://dc.lft.to/lastmile_qr_scan"}, "is_disabled": 0, "fusion_lat": 0.0, "name": "e2446fe6e63b2fabbea524a5838aa550", "fusion_lon": 0.0}, {"is_reserved": 0, "type": "electric_scooter", "bike_id": "84517dfb5a952f4769fb3de16e8b3016", "lat": 38.925640666666666, "lon": -76.9700445, "rental_uris": {"android": "https://dc.lft.to/lastmile_qr_scan", "ios": "https://dc.lft.to/lastmile_qr_scan"}, "is_disabled": 0, "fusion_lat": 0.0, "name": "84517dfb5a952f4769fb3de16e8b3016", "fusion_lon": 0.0}, {"is_reserved": 0, "type": "electric_scooter", "bike_id": "9d0fe95d7baf370bc0942e66f585893a", "lat": 38.89226766666667, "lon": -77.0318345, "rental_uris": {"android": "https://dc.lft.to/lastmile_qr_scan", "ios": "https://dc.lft.to/lastmile_qr_scan"}, "is_disabled": 0, "fusion_lat": 0.0, "name": "9d0fe95d7baf370bc0942e66f585893a", "fusion_lon": 0.0}, {"is_reserved": 0, "type": "electric_scooter", "bike_id": "8df41c9d8dc056016f24b8b31c751944", "lat": 38.8716085, "lon": -77.01351666666666, "rental_uris": {"android": "https://dc.lft.to/lastmile_qr_scan", "ios": "https://dc.lft.to/lastmile_qr_scan"}, "is_disabled": 0, "fusion_lat": 0.0, "name": "8df41c9d8dc056016f24b8b31c751944", "fusion_lon": 0.0}, {"is_reserved": 0, "type": "electric_scooter", "bike_id": "f1de7e88ce03370d15723cf8ebf25ec3", "lat": 38.936914, "lon": -77.02714183333333, "rental_uris": {"android": "https://dc.lft.to/lastmile_qr_scan", "ios": "https://dc.lft.to/lastmile_qr_scan"}, "is_disabled": 0, "fusion_lat": 0.0, "name": "f1de7e88ce03370d15723cf8ebf25ec3", "fusion_lon": 0.0}, {"is_reserved": 0, "type": "electric_scooter", "bike_id": "f4a23974003c2729ecc19c9b38bbc4c3", "lat": 38.906302833333335, "lon": -77.02607333333333, "rental_uris": {"android": "https://dc.lft.to/lastmile_qr_scan", "ios": "https://dc.lft.to/lastmile_qr_scan"}, "is_disabled": 0, "fusion_lat": 0.0, "name": "f4a23974003c2729ecc19c9b38bbc4c3", "fusion_lon": 0.0}, {"is_reserved": 0, "type": "electric_scooter", "bike_id": "8c44a3e1fb7c6b0d5d5dd7205830e7fe", "lat": 38.921553, "lon": -77.03645416666667, "rental_uris": {"android": "https://dc.lft.to/lastmile_qr_scan", "ios": "https://dc.lft.to/lastmile_qr_scan"}, "is_disabled": 0, "fusion_lat": 0.0, "name": "8c44a3e1fb7c6b0d5d5dd7205830e7fe", "fusion_lon": 0.0}, {"is_reserved": 0, "type": "electric_scooter", "bike_id": "e1d83c1ffc2a0cd794c32b6b89e56590", "lat": 38.89989833333333, "lon": -76.9947605, "rental_uris": {"android": "https://dc.lft.to/lastmile_qr_scan", "ios": "https://dc.lft.to/lastmile_qr_scan"}, "is_disabled": 0, "fusion_lat": 0.0, "name": "e1d83c1ffc2a0cd794c32b6b89e56590", "fusion_lon": 0.0}, {"is_reserved": 0, "type": "electric_scooter", "bike_id": "882c5ec88765fea205439a7f96385a42", "lat": 38.94438516666666, "lon": -77.02915933333334, "rental_uris": {"android": "https://dc.lft.to/lastmile_qr_scan", "ios": "https://dc.lft.to/lastmile_qr_scan"}, "is_disabled": 0, "fusion_lat": 0.0, "name": "882c5ec88765fea205439a7f96385a42", "fusion_lon": 0.0}, {"is_reserved": 0, "type": "electric_scooter", "bike_id": "cf0ea7e124363eacd1b9e9a251b983b6", "lat": 38.89849683333333, "lon": -76.92755033333333, "rental_uris": {"android": "https://dc.lft.to/lastmile_qr_scan", "ios": "https://dc.lft.to/lastmile_qr_scan"}, "is_disabled": 0, "fusion_lat": 0.0, "name": "cf0ea7e124363eacd1b9e9a251b983b6", "fusion_lon": 0.0}, {"is_reserved": 0, "type": "electric_scooter", "bike_id": "a298a76466d25da2eb9c311f68c4b2ab", "lat": 38.906008666666665, "lon": -76.95064666666667, "rental_uris": {"android": "https://dc.lft.to/lastmile_qr_scan", "ios": "https://dc.lft.to/lastmile_qr_scan"}, "is_disabled": 0, "fusion_lat": 0.0, "name": "a298a76466d25da2eb9c311f68c4b2ab", "fusion_lon": 0.0}, {"is_reserved": 0, "type": "electric_scooter", "bike_id": "fe58946c5fda3ea7fce6ef4a37d4b380", "lat": 38.90526883333333, "lon": -77.061476, "rental_uris": {"android": "https://dc.lft.to/lastmile_qr_scan", "ios": "https://dc.lft.to/lastmile_qr_scan"}, "is_disabled": 0, "fusion_lat": 0.0, "name": "fe58946c5fda3ea7fce6ef4a37d4b380", "fusion_lon": 0.0}, {"is_reserved": 0, "type": "electric_scooter", "bike_id": "d28ba123c91d736d351175540d742653", "lat": 38.935839666666666, "lon": -77.0584165, "rental_uris": {"android": "https://dc.lft.to/lastmile_qr_scan", "ios": "https://dc.lft.to/lastmile_qr_scan"}, "is_disabled": 0, "fusion_lat": 0.0, "name": "d28ba123c91d736d351175540d742653", "fusion_lon": 0.0}, {"is_reserved": 0, "type": "electric_bike", "bike_id": "79564c4c7e85944b0364cd79d1f6722e", "lat": 38.978706833333334, "lon": -77.0258625, "rental_uris": {"android": "https://dc.lft.to/lastmile_qr_scan", "ios": "https://dc.lft.to/lastmile_qr_scan"}, "is_disabled": 0, "fusion_lat": 0.0, "name": "79564c4c7e85944b0364cd79d1f6722e", "fusion_lon": 0.0}, {"is_reserved": 0, "type": "electric_scooter", "bike_id": "0e80a92e184c2d6afc91005f88ccf4cb", "lat": 38.92061266666666, "lon": -77.02434833333334, "rental_uris": {"android": "https://dc.lft.to/lastmile_qr_scan", "ios": "https://dc.lft.to/lastmile_qr_scan"}, "is_disabled": 0, "fusion_lat": 0.0, "name": "0e80a92e184c2d6afc91005f88ccf4cb", "fusion_lon": 0.0}, {"is_reserved": 0, "type": "electric_scooter", "bike_id": "5eb472950ffaf3aeb71a613b386848fa", "lat": 38.93213633333333, "lon": -77.02388433333333, "rental_uris": {"android": "https://dc.lft.to/lastmile_qr_scan", "ios": "https://dc.lft.to/lastmile_qr_scan"}, "is_disabled": 0, "fusion_lat": 0.0, "name": "5eb472950ffaf3aeb71a613b386848fa", "fusion_lon": 0.0}, {"is_reserved": 0, "type": "electric_scooter", "bike_id": "1c0d42f11bbd1e1b215f472024842fa1", "lat": 38.88381016666666, "lon": -76.93045916666667, "rental_uris": {"android": "https://dc.lft.to/lastmile_qr_scan", "ios": "https://dc.lft.to/lastmile_qr_scan"}, "is_disabled": 0, "fusion_lat": 0.0, "name": "1c0d42f11bbd1e1b215f472024842fa1", "fusion_lon": 0.0}, {"is_reserved": 0, "type": "electric_scooter", "bike_id": "426610271e18d6869f1d6d8966bdaf56", "lat": 38.932140833333335, "lon": -77.03897633333334, "rental_uris": {"android": "https://dc.lft.to/lastmile_qr_scan", "ios": "https://dc.lft.to/lastmile_qr_scan"}, "is_disabled": 0, "fusion_lat": 0.0, "name": "426610271e18d6869f1d6d8966bdaf56", "fusion_lon": 0.0}, {"is_reserved": 0, "type": "electric_scooter", "bike_id": "7488dab10edbd09dd1c9ee19ab32da0c", "lat": 38.8922835, "lon": -77.0160965, "rental_uris": {"android": "https://dc.lft.to/lastmile_qr_scan", "ios": "https://dc.lft.to/lastmile_qr_scan"}, "is_disabled": 0, "fusion_lat": 0.0, "name": "7488dab10edbd09dd1c9ee19ab32da0c", "fusion_lon": 0.0}, {"is_reserved": 0, "type": "electric_scooter", "bike_id": "d185fbc5a126db007f67cd08b57b5e5e", "lat": 38.90141833333333, "lon": -77.04182466666667, "rental_uris": {"android": "https://dc.lft.to/lastmile_qr_scan", "ios": "https://dc.lft.to/lastmile_qr_scan"}, "is_disabled": 0, "fusion_lat": 0.0, "name": "d185fbc5a126db007f67cd08b57b5e5e", "fusion_lon": 0.0}, {"is_reserved": 0, "type": "electric_scooter", "bike_id": "8ac22765c5cd2ed399cafc0bdbb9cb97", "lat": 38.9208205, "lon": -77.02530733333333, "rental_uris": {"android": "https://dc.lft.to/lastmile_qr_scan", "ios": "https://dc.lft.to/lastmile_qr_scan"}, "is_disabled": 0, "fusion_lat": 0.0, "name": "8ac22765c5cd2ed399cafc0bdbb9cb97", "fusion_lon": 0.0}, {"is_reserved": 0, "type": "electric_bike", "bike_id": "59ea5c7954506d938a31a29ab05bee41", "lat": 38.89459266666667, "lon": -77.19138116666667, "rental_uris": {"android": "https://dc.lft.to/lastmile_qr_scan", "ios": "https://dc.lft.to/lastmile_qr_scan"}, "is_disabled": 0, "fusion_lat": 0.0, "name": "59ea5c7954506d938a31a29ab05bee41", "fusion_lon": 0.0}, {"is_reserved": 0, "type": "electric_scooter", "bike_id": "8d9d99158d775a9a0abab29019adf320", "lat": 38.90793983333333, "lon": -77.035641, "rental_uris": {"android": "https://dc.lft.to/lastmile_qr_scan", "ios": "https://dc.lft.to/lastmile_qr_scan"}, "is_disabled": 0, "fusion_lat": 0.0, "name": "8d9d99158d775a9a0abab29019adf320", "fusion_lon": 0.0}, {"is_reserved": 0, "type": "electric_scooter", "bike_id": "08931a096302d7dab20a25316fc12cd9", "lat": 38.89257283333333, "lon": -76.94139, "rental_uris": {"android": "https://dc.lft.to/lastmile_qr_scan", "ios": "https://dc.lft.to/lastmile_qr_scan"}, "is_disabled": 0, "fusion_lat": 0.0, "name": "08931a096302d7dab20a25316fc12cd9", "fusion_lon": 0.0}, {"is_reserved": 0, "type": "electric_scooter", "bike_id": "33a6192042b82e2d5e985bee4ed3329f", "lat": 38.897210666666666, "lon": -77.00753716666667, "rental_uris": {"android": "https://dc.lft.to/lastmile_qr_scan", "ios": "https://dc.lft.to/lastmile_qr_scan"}, "is_disabled": 0, "fusion_lat": 0.0, "name": "33a6192042b82e2d5e985bee4ed3329f", "fusion_lon": 0.0}, {"is_reserved": 0, "type": "electric_scooter", "bike_id": "700b38b46b0b538e91557f9d4e36404f", "lat": 38.915535166666665, "lon": -77.0211755, "rental_uris": {"android": "https://dc.lft.to/lastmile_qr_scan", "ios": "https://dc.lft.to/lastmile_qr_scan"}, "is_disabled": 0, "fusion_lat": 0.0, "name": "700b38b46b0b538e91557f9d4e36404f", "fusion_lon": 0.0}, {"is_reserved": 0, "type": "electric_scooter", "bike_id": "60cf42e8a78d26523aa516b581e5d239", "lat": 38.910531, "lon": -77.063659, "rental_uris": {"android": "https://dc.lft.to/lastmile_qr_scan", "ios": "https://dc.lft.to/lastmile_qr_scan"}, "is_disabled": 0, "fusion_lat": 0.0, "name": "60cf42e8a78d26523aa516b581e5d239", "fusion_lon": 0.0}, {"is_reserved": 0, "type": "electric_scooter", "bike_id": "1c993cafc03634311abb95d1c16141e7", "lat": 38.9318495, "lon": -77.0235295, "rental_uris": {"android": "https://dc.lft.to/lastmile_qr_scan", "ios": "https://dc.lft.to/lastmile_qr_scan"}, "is_disabled": 0, "fusion_lat": 0.0, "name": "1c993cafc03634311abb95d1c16141e7", "fusion_lon": 0.0}, {"is_reserved": 0, "type": "electric_scooter", "bike_id": "de0ab978cf475ed7ffd0babec3cecdac", "lat": 38.93923083333333, "lon": -77.03264266666666, "rental_uris": {"android": "https://dc.lft.to/lastmile_qr_scan", "ios": "https://dc.lft.to/lastmile_qr_scan"}, "is_disabled": 0, "fusion_lat": 0.0, "name": "de0ab978cf475ed7ffd0babec3cecdac", "fusion_lon": 0.0}, {"is_reserved": 0, "type": "electric_bike", "bike_id": "9f9b34cb1906017e80c895c712d14e99", "lat": 38.845405166666666, "lon": -77.07639766666667, "rental_uris": {"android": "https://dc.lft.to/lastmile_qr_scan", "ios": "https://dc.lft.to/lastmile_qr_scan"}, "is_disabled": 0, "fusion_lat": 0.0, "name": "9f9b34cb1906017e80c895c712d14e99", "fusion_lon": 0.0}, {"is_reserved": 0, "type": "electric_scooter", "bike_id": "192259b7167fb6e17b9faf7491faa03a", "lat": 38.90959, "lon": -77.0315425, "rental_uris": {"android": "https://dc.lft.to/lastmile_qr_scan", "ios": "https://dc.lft.to/lastmile_qr_scan"}, "is_disabled": 0, "fusion_lat": 0.0, "name": "192259b7167fb6e17b9faf7491faa03a", "fusion_lon": 0.0}, {"is_reserved": 0, "type": "electric_bike", "bike_id": "9b0797ee93440d780017a6752bbeebc8", "lat": 38.917055, "lon": -77.0347275, "rental_uris": {"android": "https://dc.lft.to/lastmile_qr_scan", "ios": "https://dc.lft.to/lastmile_qr_scan"}, "is_disabled": 0, "fusion_lat": 0.0, "name": "9b0797ee93440d780017a6752bbeebc8", "fusion_lon": 0.0}, {"is_reserved": 0, "type": "electric_scooter", "bike_id": "a52c4e080de6d78c82563069426ad8f6", "lat": 38.926906, "lon": -77.02581483333333, "rental_uris": {"android": "https://dc.lft.to/lastmile_qr_scan", "ios": "https://dc.lft.to/lastmile_qr_scan"}, "is_disabled": 0, "fusion_lat": 0.0, "name": "a52c4e080de6d78c82563069426ad8f6", "fusion_lon": 0.0}, {"is_reserved": 0, "type": "electric_scooter", "bike_id": "6b0577d9c32070203ff674f2b7f61206", "lat": 38.897089, "lon": -77.004944, "rental_uris": {"android": "https://dc.lft.to/lastmile_qr_scan", "ios": "https://dc.lft.to/lastmile_qr_scan"}, "is_disabled": 0, "fusion_lat": 0.0, "name": "6b0577d9c32070203ff674f2b7f61206", "fusion_lon": 0.0}, {"is_reserved": 0, "type": "electric_scooter", "bike_id": "f197c59ae971fd13178deab94740c923", "lat": 38.900755833333335, "lon": -77.04880216666666, "rental_uris": {"android": "https://dc.lft.to/lastmile_qr_scan", "ios": "https://dc.lft.to/lastmile_qr_scan"}, "is_disabled": 0, "fusion_lat": 0.0, "name": "f197c59ae971fd13178deab94740c923", "fusion_lon": 0.0}, {"is_reserved": 0, "type": "electric_bike", "bike_id": "3f41270f65ded82c86f2e9017c0ff2cf", "lat": 38.9415655, "lon": -77.00200466666666, "rental_uris": {"android": "https://dc.lft.to/lastmile_qr_scan", "ios": "https://dc.lft.to/lastmile_qr_scan"}, "is_disabled": 0, "fusion_lat": 0.0, "name": "3f41270f65ded82c86f2e9017c0ff2cf", "fusion_lon": 0.0}, {"is_reserved": 0, "type": "electric_scooter", "bike_id": "6bbfd1bfe3bfe8a6a126fa8c471891d1", "lat": 38.920651166666666, "lon": -77.02441166666667, "rental_uris": {"android": "https://dc.lft.to/lastmile_qr_scan", "ios": "https://dc.lft.to/lastmile_qr_scan"}, "is_disabled": 0, "fusion_lat": 0.0, "name": "6bbfd1bfe3bfe8a6a126fa8c471891d1", "fusion_lon": 0.0}, {"is_reserved": 0, "type": "electric_scooter", "bike_id": "99c1ed081b2c3bb0821779c4831537ba", "lat": 38.9260315, "lon": -77.02487016666667, "rental_uris": {"android": "https://dc.lft.to/lastmile_qr_scan", "ios": "https://dc.lft.to/lastmile_qr_scan"}, "is_disabled": 0, "fusion_lat": 0.0, "name": "99c1ed081b2c3bb0821779c4831537ba", "fusion_lon": 0.0}, {"is_reserved": 0, "type": "electric_scooter", "bike_id": "2561dffb519305e610e79059efeb52d1", "lat": 38.896762, "lon": -77.05038766666667, "rental_uris": {"android": "https://dc.lft.to/lastmile_qr_scan", "ios": "https://dc.lft.to/lastmile_qr_scan"}, "is_disabled": 0, "fusion_lat": 0.0, "name": "2561dffb519305e610e79059efeb52d1", "fusion_lon": 0.0}, {"is_reserved": 0, "type": "electric_scooter", "bike_id": "a50975f0eaab0fec859f3041effbabe2", "lat": 38.9156505, "lon": -77.03673866666666, "rental_uris": {"android": "https://dc.lft.to/lastmile_qr_scan", "ios": "https://dc.lft.to/lastmile_qr_scan"}, "is_disabled": 0, "fusion_lat": 0.0, "name": "a50975f0eaab0fec859f3041effbabe2", "fusion_lon": 0.0}, {"is_reserved": 0, "type": "electric_scooter", "bike_id": "febfe313079f8a3d543365aaa9559fbb", "lat": 38.914015666666664, "lon": -77.02222516666667, "rental_uris": {"android": "https://dc.lft.to/lastmile_qr_scan", "ios": "https://dc.lft.to/lastmile_qr_scan"}, "is_disabled": 0, "fusion_lat": 0.0, "name": "febfe313079f8a3d543365aaa9559fbb", "fusion_lon": 0.0}, {"is_reserved": 0, "type": "electric_scooter", "bike_id": "5586a5742edb8f35a59469f92349f41a", "lat": 38.93039133333333, "lon": -77.08326666666666, "rental_uris": {"android": "https://dc.lft.to/lastmile_qr_scan", "ios": "https://dc.lft.to/lastmile_qr_scan"}, "is_disabled": 0, "fusion_lat": 0.0, "name": "5586a5742edb8f35a59469f92349f41a", "fusion_lon": 0.0}, {"is_reserved": 0, "type": "electric_scooter", "bike_id": "e05824d660389b57fce1459bb7a2bb13", "lat": 38.975043666666664, "lon": -77.0169305, "rental_uris": {"android": "https://dc.lft.to/lastmile_qr_scan", "ios": "https://dc.lft.to/lastmile_qr_scan"}, "is_disabled": 0, "fusion_lat": 0.0, "name": "e05824d660389b57fce1459bb7a2bb13", "fusion_lon": 0.0}, {"is_reserved": 0, "type": "electric_scooter", "bike_id": "550862ee07852f9f115d216d699f3a40", "lat": 38.906197666666664, "lon": -77.03301466666667, "rental_uris": {"android": "https://dc.lft.to/lastmile_qr_scan", "ios": "https://dc.lft.to/lastmile_qr_scan"}, "is_disabled": 0, "fusion_lat": 0.0, "name": "550862ee07852f9f115d216d699f3a40", "fusion_lon": 0.0}, {"is_reserved": 0, "type": "electric_scooter", "bike_id": "f57af3236fcb4e56f2f18f7f3cd73547", "lat": 38.91786783333333, "lon": -77.02300766666667, "rental_uris": {"android": "https://dc.lft.to/lastmile_qr_scan", "ios": "https://dc.lft.to/lastmile_qr_scan"}, "is_disabled": 0, "fusion_lat": 0.0, "name": "f57af3236fcb4e56f2f18f7f3cd73547", "fusion_lon": 0.0}, {"is_reserved": 0, "type": "electric_scooter", "bike_id": "0eb47c105d1e9d3879259785e703b3f1", "lat": 38.88409716666666, "lon": -77.02571966666666, "rental_uris": {"android": "https://dc.lft.to/lastmile_qr_scan", "ios": "https://dc.lft.to/lastmile_qr_scan"}, "is_disabled": 0, "fusion_lat": 0.0, "name": "0eb47c105d1e9d3879259785e703b3f1", "fusion_lon": 0.0}, {"is_reserved": 0, "type": "electric_scooter", "bike_id": "4f29939cacfaf0f461b8d43076fea100", "lat": 38.9013185, "lon": -77.03363733333333, "rental_uris": {"android": "https://dc.lft.to/lastmile_qr_scan", "ios": "https://dc.lft.to/lastmile_qr_scan"}, "is_disabled": 0, "fusion_lat": 0.0, "name": "4f29939cacfaf0f461b8d43076fea100", "fusion_lon": 0.0}, {"is_reserved": 0, "type": "electric_scooter", "bike_id": "41b75a7767761b8f23e1ba683d0e5397", "lat": 38.8960835, "lon": -77.0052605, "rental_uris": {"android": "https://dc.lft.to/lastmile_qr_scan", "ios": "https://dc.lft.to/lastmile_qr_scan"}, "is_disabled": 0, "fusion_lat": 0.0, "name": "41b75a7767761b8f23e1ba683d0e5397", "fusion_lon": 0.0}, {"is_reserved": 0, "type": "electric_scooter", "bike_id": "3ea53aa5f9ac28d35b0a1515a4dd59bd", "lat": 38.929683833333335, "lon": -77.03166183333333, "rental_uris": {"android": "https://dc.lft.to/lastmile_qr_scan", "ios": "https://dc.lft.to/lastmile_qr_scan"}, "is_disabled": 0, "fusion_lat": 0.0, "name": "3ea53aa5f9ac28d35b0a1515a4dd59bd", "fusion_lon": 0.0}, {"is_reserved": 0, "type": "electric_scooter", "bike_id": "ba741ea90867b281d3e0c4b20ef189c6", "lat": 38.898323500000004, "lon": -77.048277, "rental_uris": {"android": "https://dc.lft.to/lastmile_qr_scan", "ios": "https://dc.lft.to/lastmile_qr_scan"}, "is_disabled": 0, "fusion_lat": 0.0, "name": "ba741ea90867b281d3e0c4b20ef189c6", "fusion_lon": 0.0}, {"is_reserved": 0, "type": "electric_scooter", "bike_id": "3869bac3615dcaae7d660836c6731c13", "lat": 38.936316166666664, "lon": -77.06484316666666, "rental_uris": {"android": "https://dc.lft.to/lastmile_qr_scan", "ios": "https://dc.lft.to/lastmile_qr_scan"}, "is_disabled": 0, "fusion_lat": 0.0, "name": "3869bac3615dcaae7d660836c6731c13", "fusion_lon": 0.0}, {"is_reserved": 0, "type": "electric_scooter", "bike_id": "1a4f4a9e1893627e2f9bcffc676bd763", "lat": 38.9265385, "lon": -77.02685966666667, "rental_uris": {"android": "https://dc.lft.to/lastmile_qr_scan", "ios": "https://dc.lft.to/lastmile_qr_scan"}, "is_disabled": 0, "fusion_lat": 0.0, "name": "1a4f4a9e1893627e2f9bcffc676bd763", "fusion_lon": 0.0}, {"is_reserved": 0, "type": "electric_scooter", "bike_id": "51c2899098801d880ad218de5c583f09", "lat": 38.90967416666667, "lon": -77.021253, "rental_uris": {"android": "https://dc.lft.to/lastmile_qr_scan", "ios": "https://dc.lft.to/lastmile_qr_scan"}, "is_disabled": 0, "fusion_lat": 0.0, "name": "51c2899098801d880ad218de5c583f09", "fusion_lon": 0.0}, {"is_reserved": 0, "type": "electric_scooter", "bike_id": "603a4084b2936f215cf47bbb26bbc702", "lat": 38.93539633333333, "lon": -77.07275316666667, "rental_uris": {"android": "https://dc.lft.to/lastmile_qr_scan", "ios": "https://dc.lft.to/lastmile_qr_scan"}, "is_disabled": 0, "fusion_lat": 0.0, "name": "603a4084b2936f215cf47bbb26bbc702", "fusion_lon": 0.0}, {"is_reserved": 0, "type": "electric_bike", "bike_id": "9bcd7be2628a864b6ef7272a4f85a5e6", "lat": 38.906957166666665, "lon": -76.9524745, "rental_uris": {"android": "https://dc.lft.to/lastmile_qr_scan", "ios": "https://dc.lft.to/lastmile_qr_scan"}, "is_disabled": 0, "fusion_lat": 0.0, "name": "9bcd7be2628a864b6ef7272a4f85a5e6", "fusion_lon": 0.0}, {"is_reserved": 0, "type": "electric_scooter", "bike_id": "b23f3e864c7e436ffb3010f4b362633f", "lat": 38.895436833333335, "lon": -76.98337933333333, "rental_uris": {"android": "https://dc.lft.to/lastmile_qr_scan", "ios": "https://dc.lft.to/lastmile_qr_scan"}, "is_disabled": 0, "fusion_lat": 0.0, "name": "b23f3e864c7e436ffb3010f4b362633f", "fusion_lon": 0.0}, {"is_reserved": 0, "type": "electric_scooter", "bike_id": "830e1c329c6a3f0854565f687ae3c995", "lat": 38.923463166666664, "lon": -77.0190375, "rental_uris": {"android": "https://dc.lft.to/lastmile_qr_scan", "ios": "https://dc.lft.to/lastmile_qr_scan"}, "is_disabled": 0, "fusion_lat": 0.0, "name": "830e1c329c6a3f0854565f687ae3c995", "fusion_lon": 0.0}, {"is_reserved": 0, "type": "electric_scooter", "bike_id": "19151fef74b4f1fc2a519b91709de220", "lat": 38.91261866666667, "lon": -77.031452, "rental_uris": {"android": "https://dc.lft.to/lastmile_qr_scan", "ios": "https://dc.lft.to/lastmile_qr_scan"}, "is_disabled": 0, "fusion_lat": 0.0, "name": "19151fef74b4f1fc2a519b91709de220", "fusion_lon": 0.0}, {"is_reserved": 0, "type": "electric_scooter", "bike_id": "4074ef41c529e57ba8d0a4a55610716f", "lat": 38.917096666666666, "lon": -77.03234983333333, "rental_uris": {"android": "https://dc.lft.to/lastmile_qr_scan", "ios": "https://dc.lft.to/lastmile_qr_scan"}, "is_disabled": 0, "fusion_lat": 0.0, "name": "4074ef41c529e57ba8d0a4a55610716f", "fusion_lon": 0.0}, {"is_reserved": 0, "type": "electric_scooter", "bike_id": "56de20162d6ffe69c6a91ed45e38447b", "lat": 38.940365166666666, "lon": -77.02504366666666, "rental_uris": {"android": "https://dc.lft.to/lastmile_qr_scan", "ios": "https://dc.lft.to/lastmile_qr_scan"}, "is_disabled": 0, "fusion_lat": 0.0, "name": "56de20162d6ffe69c6a91ed45e38447b", "fusion_lon": 0.0}, {"is_reserved": 0, "type": "electric_scooter", "bike_id": "38d15cc42982e5e1b49420b544dc69f8", "lat": 38.93977983333333, "lon": -77.05478566666666, "rental_uris": {"android": "https://dc.lft.to/lastmile_qr_scan", "ios": "https://dc.lft.to/lastmile_qr_scan"}, "is_disabled": 0, "fusion_lat": 0.0, "name": "38d15cc42982e5e1b49420b544dc69f8", "fusion_lon": 0.0}, {"is_reserved": 0, "type": "electric_scooter", "bike_id": "239f170597588fab0222a682ddebb79a", "lat": 38.909040166666664, "lon": -77.03216716666667, "rental_uris": {"android": "https://dc.lft.to/lastmile_qr_scan", "ios": "https://dc.lft.to/lastmile_qr_scan"}, "is_disabled": 0, "fusion_lat": 0.0, "name": "239f170597588fab0222a682ddebb79a", "fusion_lon": 0.0}, {"is_reserved": 0, "type": "electric_scooter", "bike_id": "4c87c0ef3e3a76518a32bcfd753fba46", "lat": 38.91635316666667, "lon": -77.00647966666666, "rental_uris": {"android": "https://dc.lft.to/lastmile_qr_scan", "ios": "https://dc.lft.to/lastmile_qr_scan"}, "is_disabled": 0, "fusion_lat": 0.0, "name": "4c87c0ef3e3a76518a32bcfd753fba46", "fusion_lon": 0.0}, {"is_reserved": 0, "type": "electric_scooter", "bike_id": "2f135958b88e4472ed2d4af7fd26518a", "lat": 38.91695983333334, "lon": -77.03772616666667, "rental_uris": {"android": "https://dc.lft.to/lastmile_qr_scan", "ios": "https://dc.lft.to/lastmile_qr_scan"}, "is_disabled": 0, "fusion_lat": 0.0, "name": "2f135958b88e4472ed2d4af7fd26518a", "fusion_lon": 0.0}, {"is_reserved": 0, "type": "electric_scooter", "bike_id": "31307d5ed7902cc88363ee82370c6612", "lat": 38.924176333333335, "lon": -77.04023633333334, "rental_uris": {"android": "https://dc.lft.to/lastmile_qr_scan", "ios": "https://dc.lft.to/lastmile_qr_scan"}, "is_disabled": 0, "fusion_lat": 0.0, "name": "31307d5ed7902cc88363ee82370c6612", "fusion_lon": 0.0}, {"is_reserved": 0, "type": "electric_scooter", "bike_id": "195f5521f7d28d08f67d2ff73f649d05", "lat": 38.912911, "lon": -77.02301366666667, "rental_uris": {"android": "https://dc.lft.to/lastmile_qr_scan", "ios": "https://dc.lft.to/lastmile_qr_scan"}, "is_disabled": 0, "fusion_lat": 0.0, "name": "195f5521f7d28d08f67d2ff73f649d05", "fusion_lon": 0.0}, {"is_reserved": 0, "type": "electric_scooter", "bike_id": "0599203c3732f0476d6e8f8d519be265", "lat": 38.905427833333334, "lon": -77.05809233333333, "rental_uris": {"android": "https://dc.lft.to/lastmile_qr_scan", "ios": "https://dc.lft.to/lastmile_qr_scan"}, "is_disabled": 0, "fusion_lat": 0.0, "name": "0599203c3732f0476d6e8f8d519be265", "fusion_lon": 0.0}, {"is_reserved": 0, "type": "electric_scooter", "bike_id": "a023f419460fd8b68386a6b0390594df", "lat": 38.90548016666666, "lon": -77.05921116666667, "rental_uris": {"android": "https://dc.lft.to/lastmile_qr_scan", "ios": "https://dc.lft.to/lastmile_qr_scan"}, "is_disabled": 0, "fusion_lat": 0.0, "name": "a023f419460fd8b68386a6b0390594df", "fusion_lon": 0.0}, {"is_reserved": 0, "type": "electric_scooter", "bike_id": "6b9c76d1258c281a2aeb93cf2c746c74", "lat": 38.901569, "lon": -77.05925966666666, "rental_uris": {"android": "https://dc.lft.to/lastmile_qr_scan", "ios": "https://dc.lft.to/lastmile_qr_scan"}, "is_disabled": 0, "fusion_lat": 0.0, "name": "6b9c76d1258c281a2aeb93cf2c746c74", "fusion_lon": 0.0}, {"is_reserved": 0, "type": "electric_scooter", "bike_id": "39419af25560ce0fb9858d7db2cc842c", "lat": 38.931934, "lon": -77.077785, "rental_uris": {"android": "https://dc.lft.to/lastmile_qr_scan", "ios": "https://dc.lft.to/lastmile_qr_scan"}, "is_disabled": 0, "fusion_lat": 0.0, "name": "39419af25560ce0fb9858d7db2cc842c", "fusion_lon": 0.0}, {"is_reserved": 0, "type": "electric_scooter", "bike_id": "2c5bdc2e4edc2ff99f038165ed647ce2", "lat": 38.9263055, "lon": -77.03780366666666, "rental_uris": {"android": "https://dc.lft.to/lastmile_qr_scan", "ios": "https://dc.lft.to/lastmile_qr_scan"}, "is_disabled": 0, "fusion_lat": 0.0, "name": "2c5bdc2e4edc2ff99f038165ed647ce2", "fusion_lon": 0.0}, {"is_reserved": 0, "type": "electric_scooter", "bike_id": "e7936a403d54f67d99e9153c12f53259", "lat": 38.92795666666667, "lon": -77.037211, "rental_uris": {"android": "https://dc.lft.to/lastmile_qr_scan", "ios": "https://dc.lft.to/lastmile_qr_scan"}, "is_disabled": 0, "fusion_lat": 0.0, "name": "e7936a403d54f67d99e9153c12f53259", "fusion_lon": 0.0}, {"is_reserved": 0, "type": "electric_scooter", "bike_id": "cd4424da9fabc4489f6c12884192327d", "lat": 38.9140075, "lon": -77.03324133333334, "rental_uris": {"android": "https://dc.lft.to/lastmile_qr_scan", "ios": "https://dc.lft.to/lastmile_qr_scan"}, "is_disabled": 0, "fusion_lat": 0.0, "name": "cd4424da9fabc4489f6c12884192327d", "fusion_lon": 0.0}, {"is_reserved": 0, "type": "electric_bike", "bike_id": "d8a00e983e895e406bda07de9c5f27e1", "lat": 38.803869, "lon": -76.98813233333334, "rental_uris": {"android": "https://dc.lft.to/lastmile_qr_scan", "ios": "https://dc.lft.to/lastmile_qr_scan"}, "is_disabled": 0, "fusion_lat": 0.0, "name": "d8a00e983e895e406bda07de9c5f27e1", "fusion_lon": 0.0},