{"data": {"bikes": [{"lat": 38.89886383333333, "fusion_lat": 0.0, "is_reserved": 0, "is_disabled": 0, "type": "electric_scooter", "name": "43afb9b482e41808b97ed01709df9f8b", "lon": -76.98682166666667, "fusion_lon": 0.0, "rental_uris": {"android": "https://dc.lft.to/lastmile_qr_scan", "ios": "https://dc.lft.to/lastmile_qr_scan"}, "bike_id": "43afb9b482e41808b97ed01709df9f8b"}, {"lat": 38.9077805, "fusion_lat": 0.0, "is_reserved": 0, "is_disabled": 0, "type": "electric_scooter", "name": "1b6d366a6fe13ffbeb2fd1d7f31538ed", "lon": -77.03535616666667, "fusion_lon": 0.0, "rental_uris": {"android": "https://dc.lft.to/lastmile_qr_scan", "ios": "https://dc.lft.to/lastmile_qr_scan"}, "bike_id": "1b6d366a6fe13ffbeb2fd1d7f31538ed"}, {"lat": 38.879258666666665, "fusion_lat": 0.0, "is_reserved": 0, "is_disabled": 0, "type": "electric_scooter", "name": "ec27d696634f2c44500bfda6cdfecc56", "lon": -77.02373333333334, "fusion_lon": 0.0, "rental_uris": {"android": "https://dc.lft.to/lastmile_qr_scan", "ios": "https://dc.lft.to/lastmile_qr_scan"}, "bike_id": "ec27d696634f2c44500bfda6cdfecc56"}, {"lat": 38.9271465, "fusion_lat": 0.0, "is_reserved": 0, "is_disabled": 0, "type": "electric_bike", "name": "216e6ad9aed14cf908c6270159889847", "lon": -77.05994583333333, "fusion_lon": 0.0, "rental_uris": {"android": "https://dc.lft.to/lastmile_qr_scan", "ios": "https://dc.lft.to/lastmile_qr_scan"}, "bike_id": "216e6ad9aed14cf908c6270159889847"}, {"lat": 38.92357333333333, "fusion_lat": 0.0, "is_reserved": 0, "is_disabled": 0, "type": "electric_scooter", "name": "76e83e6e4fc06c50dbda280062721c69", "lon": -77.050369, "fusion_lon": 0.0, "rental_uris": {"android": "https://dc.lft.to/lastmile_qr_scan", "ios": "https://dc.lft.to/lastmile_qr_scan"}, "bike_id": "76e83e6e4fc06c50dbda280062721c69"}, {"lat": 38.89640466666667, "fusion_lat": 0.0, "is_reserved": 0, "is_disabled": 0, "type": "electric_scooter", "name": "1cbd7bea091ebc51214a6e8517739952", "lon": -76.92804083333333, "fusion_lon": 0.0, "rental_uris": {"android": "https://dc.lft.to/lastmile_qr_scan", "ios": "https://dc.lft.to/lastmile_qr_scan"}, "bike_id": "1cbd7bea091ebc51214a6e8517739952"}, {"lat": 38.91648033333333, "fusion_lat": 0.0, "is_reserved": 0, "is_disabled": 0, "type": "electric_scooter", "name": "6ad04fe49c464d16c5c902f237497341", "lon": -77.03215366666667, "fusion_lon": 0.0, "rental_uris": {"android": "https://dc.lft.to/lastmile_qr_scan", "ios": "https://dc.lft.to/lastmile_qr_scan"}, "bike_id": "6ad04fe49c464d16c5c902f237497341"}, {"lat": 38.902780166666666, "fusion_lat": 0.0, "is_reserved": 0, "is_disabled": 0, "type": "electric_scooter", "name": "e71b3a992a6c7a49eba6a809c8ce77c2", "lon": -77.03746266666667, "fusion_lon": 0.0, "rental_uris": {"android": "https://dc.lft.to/lastmile_qr_scan", "ios": "https://dc.lft.to/lastmile_qr_scan"}, "bike_id": "e71b3a992a6c7a49eba6a809c8ce77c2"}, {"lat": 38.94948733333333, "fusion_lat": 0.0, "is_reserved": 0, "is_disabled": 0, "type": "electric_scooter", "name": "9a53778516f8201adaef0ee8cfba9b99", "lon": -77.06673383333333, "fusion_lon": 0.0, "rental_uris": {"android": "https://dc.lft.to/lastmile_qr_scan", "ios": "https://dc.lft.to/lastmile_qr_scan"}, "bike_id": "9a53778516f8201adaef0ee8cfba9b99"}, {"lat": 38.91001166666667, "fusion_lat": 0.0, "is_reserved": 0, "is_disabled": 0, "type": "electric_scooter", "name": "c52dfe886472f39c4caa65583fe58a5e", "lon": -76.99415733333333, "fusion_lon": 0.0, "rental_uris": {"android": "https://dc.lft.to/lastmile_qr_scan", "ios": "https://dc.lft.to/lastmile_qr_scan"}, "bike_id": "c52dfe886472f39c4caa65583fe58a5e"}, {"lat": 38.911877, "fusion_lat": 0.0, "is_reserved": 0, "is_disabled": 0, "type": "electric_scooter", "name": "57671c7921b6bb46105ba155d5679053", "lon": -77.01211266666667, "fusion_lon": 0.0, "rental_uris": {"android": "https://dc.lft.to/lastmile_qr_scan", "ios": "https://dc.lft.to/lastmile_qr_scan"}, "bike_id": "57671c7921b6bb46105ba155d5679053"}, {"lat": 38.9268385, "fusion_lat": 0.0, "is_reserved": 0, "is_disabled": 0, "type": "electric_bike", "name": "2da5cc13eb734e43ee802ca5dfefd69a", "lon": -77.01571933333334, "fusion_lon": 0.0, "rental_uris": {"android": "https://dc.lft.to/lastmile_qr_scan", "ios": "https://dc.lft.to/lastmile_qr_scan"}, "bike_id": "2da5cc13eb734e43ee802ca5dfefd69a"}, {"lat": 38.90758783333333, "fusion_lat": 0.0, "is_reserved": 0, "is_disabled": 0, "type": "electric_scooter", "name": "751252d20ea86587c1253a0cab3b3e98", "lon": -77.0415585, "fusion_lon": 0.0, "rental_uris": {"android": "https://dc.lft.to/lastmile_qr_scan", "ios": "https://dc.lft.to/lastmile_qr_scan"}, "bike_id": "751252d20ea86587c1253a0cab3b3e98"}, {"lat": 38.89591683333333, "fusion_lat": 0.0, "is_reserved": 0, "is_disabled": 0, "type": "electric_scooter", "name": "56cf399c3ed02dcb1a59fd6e48d4e2d0", "lon": -77.0263615, "fusion_lon": 0.0, "rental_uris": {"android": "https://dc.lft.to/lastmile_qr_scan", "ios": "https://dc.lft.to/lastmile_qr_scan"}, "bike_id": "56cf399c3ed02dcb1a59fd6e48d4e2d0"}, {"lat": 38.91639416666666, "fusion_lat": 0.0, "is_reserved": 0, "is_disabled": 0, "type": "electric_scooter", "name": "49075a95462856bb73c25a33a7ffc09e", "lon": -77.04808133333333, "fusion_lon": 0.0, "rental_uris": {"android": "https://dc.lft.to/lastmile_qr_scan", "ios": "https://dc.lft.to/lastmile_qr_scan"}, "bike_id": "49075a95462856bb73c25a33a7ffc09e"}, {"lat": 38.93455316666667, "fusion_lat": 0.0, "is_reserved": 0, "is_disabled": 0, "type": "electric_scooter", "name": "0030f18a8e862aeb34a7fd2487351d1e", "lon": -77.02912866666667, "fusion_lon": 0.0, "rental_uris": {"android": "https://dc.lft.to/lastmile_qr_scan", "ios": "https://dc.lft.to/lastmile_qr_scan"}, "bike_id": "0030f18a8e862aeb34a7fd2487351d1e"}, {"lat": 38.88973516666667, "fusion_lat": 0.0, "is_reserved": 0, "is_disabled": 0, "type": "electric_scooter", "name": "a2930d3f88c773637294cb1613a0887f", "lon": -76.98183016666667, "fusion_lon": 0.0, "rental_uris": {"android": "https://dc.lft.to/lastmile_qr_scan", "ios": "https://dc.lft.to/lastmile_qr_scan"}, "bike_id": "a2930d3f88c773637294cb1613a0887f"}, {"lat": 38.906704, "fusion_lat": 0.0, "is_reserved": 0, "is_disabled": 0, "type": "electric_scooter", "name": "ea715eaa96224a1f12575df42ce60f08", "lon": -77.02703866666667, "fusion_lon": 0.0, "rental_uris": {"android": "https://dc.lft.to/lastmile_qr_scan", "ios": "https://dc.lft.to/lastmile_qr_scan"}, "bike_id": "ea715eaa96224a1f12575df42ce60f08"}, {"lat": 38.91733383333333, "fusion_lat": 0.0, "is_reserved": 0, "is_disabled": 0, "type": "electric_scooter", "name": "eb903f920a1fde3e2ec45d5efc9910cd", "lon": -77.01449033333333, "fusion_lon": 0.0, "rental_uris": {"android": "https://dc.lft.to/lastmile_qr_scan", "ios": "https://dc.lft.to/lastmile_qr_scan"}, "bike_id": "eb903f920a1fde3e2ec45d5efc9910cd"}, {"lat": 38.9155255, "fusion_lat": 0.0, "is_reserved": 0, "is_disabled": 0, "type": "electric_scooter", "name": "60835abc0c73a5c0d95159cf8dbf1eb6", "lon": -77.01188933333333, "fusion_lon": 0.0, "rental_uris": {"android": "https://dc.lft.to/lastmile_qr_scan", "ios": "https://dc.lft.to/lastmile_qr_scan"}, "bike_id": "60835abc0c73a5c0d95159cf8dbf1eb6"}, {"lat": 38.89231133333333, "fusion_lat": 0.0, "is_reserved": 0, "is_disabled": 0, "type": "electric_scooter", "name": "5119bf7f369e513a3f06b4c0e26e1f1d", "lon": -77.05002633333334, "fusion_lon": 0.0, "rental_uris": {"android": "https://dc.lft.to/lastmile_qr_scan", "ios": "https://dc.lft.to/lastmile_qr_scan"}, "bike_id": "5119bf7f369e513a3f06b4c0e26e1f1d"}, {"lat": 38.8926665, "fusion_lat": 0.0, "is_reserved": 0, "is_disabled": 0, "type": "electric_scooter", "name": "a7bcaa035c785c293788214b427f8704", "lon": -77.04201766666667, "fusion_lon": 0.0, "rental_uris": {"android": "https://dc.lft.to/lastmile_qr_scan", "ios": "https://dc.lft.to/lastmile_qr_scan"}, "bike_id": "a7bcaa035c785c293788214b427f8704"}, {"lat": 38.902814, "fusion_lat": 0.0, "is_reserved": 0, "is_disabled": 0, "type": "electric_scooter", "name": "8681407a200921bdeaadf095a18cfdd6", "lon": -77.017639, "fusion_lon": 0.0, "rental_uris": {"android": "https://dc.lft.to/lastmile_qr_scan", "ios": "https://dc.lft.to/lastmile_qr_scan"}, "bike_id": "8681407a200921bdeaadf095a18cfdd6"}, {"lat": 38.90256883333333, "fusion_lat": 0.0, "is_reserved": 0, "is_disabled": 0, "type": "electric_scooter", "name": "2431368059389734cdf31979428a53ec", "lon": -77.0016865, "fusion_lon": 0.0, "rental_uris": {"android": "https://dc.lft.to/lastmile_qr_scan", "ios": "https://dc.lft.to/lastmile_qr_scan"}, "bike_id": "2431368059389734cdf31979428a53ec"}, {"lat": 38.89901066666667, "fusion_lat": 0.0, "is_reserved": 0, "is_disabled": 0, "type": "electric_scooter", "name": "882205b058a2e25343337e64b800081c", "lon": -77.029572, "fusion_lon": 0.0, "rental_uris": {"android": "https://dc.lft.to/lastmile_qr_scan", "ios": "https://dc.lft.to/lastmile_qr_scan"}, "bike_id": "882205b058a2e25343337e64b800081c"}, {"lat": 38.99675833333333, "fusion_lat": 0.0, "is_reserved": 0, "is_disabled": 0, "type": "electric_bike", "name": "66585b006b96fcef772ce4386b86083f", "lon": -77.0379925, "fusion_lon": 0.0, "rental_uris": {"android": "https://dc.lft.to/lastmile_qr_scan", "ios": "https://dc.lft.to/lastmile_qr_scan"}, "bike_id": "66585b006b96fcef772ce4386b86083f"}, {"lat": 38.923836333333334, "fusion_lat": 0.0, "is_reserved": 0, "is_disabled": 0, "type": "electric_scooter", "name": "4491a389d398d2d192fdc1a74d3e93c5", "lon": -77.040303, "fusion_lon": 0.0, "rental_uris": {"android": "https://dc.lft.to/lastmile_qr_scan", "ios": "https://dc.lft.to/lastmile_qr_scan"}, "bike_id": "4491a389d398d2d192fdc1a74d3e93c5"}, {"lat": 38.9072385, "fusion_lat": 0.0, "is_reserved": 0, "is_disabled": 0, "type": "electric_scooter", "name": "66e137f7cc988c278deb17169e3f0d2a", "lon": -77.03087233333333, "fusion_lon": 0.0, "rental_uris": {"android": "https://dc.lft.to/lastmile_qr_scan", "ios": "https://dc.lft.to/lastmile_qr_scan"}, "bike_id": "66e137f7cc988c278deb17169e3f0d2a"}, {"lat": 38.945888833333335, "fusion_lat": 0.0, "is_reserved": 0, "is_disabled": 0, "type": "electric_scooter", "name": "202316035bcc014612b2ea9fd5a24711", "lon": -77.02033566666667, "fusion_lon": 0.0, "rental_uris": {"android": "https://dc.lft.to/lastmile_qr_scan", "ios": "https://dc.lft.to/lastmile_qr_scan"}, "bike_id": "202316035bcc014612b2ea9fd5a24711"}, {"lat": 38.95104283333333, "fusion_lat": 0.0, "is_reserved": 0, "is_disabled": 0, "type": "electric_scooter", "name": "4af4498f82f973c5916a9d675867e676", "lon": -77.015798, "fusion_lon": 0.0, "rental_uris": {"android": "https://dc.lft.to/lastmile_qr_scan", "ios": "https://dc.lft.to/lastmile_qr_scan"}, "bike_id": "4af4498f82f973c5916a9d675867e676"}, {"lat": 38.912671833333334, "fusion_lat": 0.0, "is_reserved": 0, "is_disabled": 0, "type": "electric_scooter", "name": "34baa903b5c1c519c2548ca85328aeb4", "lon": -77.022304, "fusion_lon": 0.0, "rental_uris": {"android": "https://dc.lft.to/lastmile_qr_scan", "ios": "https://dc.lft.to/lastmile_qr_scan"}, "bike_id": "34baa903b5c1c519c2548ca85328aeb4"}, {"lat": 38.946606333333335, "fusion_lat": 0.0, "is_reserved": 0, "is_disabled": 0, "type": "electric_scooter", "name": "dd4e6cb66ad56aec3ba9b717dedbfbb7", "lon": -77.03283183333333, "fusion_lon": 0.0, "rental_uris": {"android": "https://dc.lft.to/lastmile_qr_scan", "ios": "https://dc.lft.to/lastmile_qr_scan"}, "bike_id": "dd4e6cb66ad56aec3ba9b717dedbfbb7"}, {"lat": 38.918165333333334, "fusion_lat": 0.0, "is_reserved": 0, "is_disabled": 0, "type": "electric_scooter", "name": "12c445542e977ea786e6fe23541a3f40", "lon": -77.02715066666667, "fusion_lon": 0.0, "rental_uris": {"android": "https://dc.lft.to/lastmile_qr_scan", "ios": "https://dc.lft.to/lastmile_qr_scan"}, "bike_id": "12c445542e977ea786e6fe23541a3f40"}, {"lat": 38.900286333333334, "fusion_lat": 0.0, "is_reserved": 0, "is_disabled": 0, "type": "electric_scooter", "name": "dad6f7f7bf65893ff8988b9a5a425687", "lon": -76.998741, "fusion_lon": 0.0, "rental_uris": {"android": "https://dc.lft.to/lastmile_qr_scan", "ios": "https://dc.lft.to/lastmile_qr_scan"}, "bike_id": "dad6f7f7bf65893ff8988b9a5a425687"}, {"lat": 38.904791333333336, "fusion_lat": 0.0, "is_reserved": 0, "is_disabled": 0, "type": "electric_scooter", "name": "ba4f125f6a869306c11cb792d0f0e0a8", "lon": -77.04854066666667, "fusion_lon": 0.0, "rental_uris": {"android": "https://dc.lft.to/lastmile_qr_scan", "ios": "https://dc.lft.to/lastmile_qr_scan"}, "bike_id": "ba4f125f6a869306c11cb792d0f0e0a8"}, {"lat": 38.934497, "fusion_lat": 0.0, "is_reserved": 0, "is_disabled": 0, "type": "electric_scooter", "name": "6dd99e0b5643460af1b2ddda5c64dcf4", "lon": -77.089629, "fusion_lon": 0.0, "rental_uris": {"android": "https://dc.lft.to/lastmile_qr_scan", "ios": "https://dc.lft.to/lastmile_qr_scan"}, "bike_id": "6dd99e0b5643460af1b2ddda5c64dcf4"}, {"lat": 38.90395516666667, "fusion_lat": 0.0, "is_reserved": 0, "is_disabled": 0, "type": "electric_scooter", "name": "40116022dd5b3894b913d2d0cac6fbf4", "lon": -77.01629416666667, "fusion_lon": 0.0, "rental_uris": {"android": "https://dc.lft.to/lastmile_qr_scan", "ios": "https://dc.lft.to/lastmile_qr_scan"}, "bike_id": "40116022dd5b3894b913d2d0cac6fbf4"}, {"lat": 38.899576333333336, "fusion_lat": 0.0, "is_reserved": 0, "is_disabled": 0, "type": "electric_scooter", "name": "e13af40b2b74f98864dd072dfe59f640", "lon": -77.0452545, "fusion_lon": 0.0, "rental_uris": {"android": "https://dc.lft.to/lastmile_qr_scan", "ios": "https://dc.lft.to/lastmile_qr_scan"}, "bike_id": "e13af40b2b74f98864dd072dfe59f640"}, {"lat": 38.892248333333335, "fusion_lat": 0.0, "is_reserved": 0, "is_disabled": 0, "type": "electric_scooter", "name": "9b43caa49d4faebe8e90b56dcf4941bb", "lon": -77.03167183333333, "fusion_lon": 0.0, "rental_uris": {"android": "https://dc.lft.to/lastmile_qr_scan", "ios": "https://dc.lft.to/lastmile_qr_scan"}, "bike_id": "9b43caa49d4faebe8e90b56dcf4941bb"}, {"lat": 38.922317166666666, "fusion_lat": 0.0, "is_reserved": 0, "is_disabled": 0, "type": "electric_bike", "name": "dd8ca7757458cb527e13b739d6f2a93c", "lon": -77.02828933333333, "fusion_lon": 0.0, "rental_uris": {"android": "https://dc.lft.to/lastmile_qr_scan", "ios": "https://dc.lft.to/lastmile_qr_scan"}, "bike_id": "dd8ca7757458cb527e13b739d6f2a93c"}, {"lat": 38.894602666666664, "fusion_lat": 0.0, "is_reserved": 0, "is_disabled": 0, "type": "electric_scooter", "name": "fbf2cb1c6ad6ddd02f40361bc7556ade", "lon": -77.01993016666667, "fusion_lon": 0.0, "rental_uris": {"android": "https://dc.lft.to/lastmile_qr_scan", "ios": "https://dc.lft.to/lastmile_qr_scan"}, "bike_id": "fbf2cb1c6ad6ddd02f40361bc7556ade"}, {"lat": 38.92823816666667, "fusion_lat": 0.0, "is_reserved": 0, "is_disabled": 0, "type": "electric_scooter", "name": "5b892a519815cf53cc291d451c74dbb5", "lon": -77.037938, "fusion_lon": 0.0, "rental_uris": {"android": "https://dc.lft.to/lastmile_qr_scan", "ios": "https://dc.lft.to/lastmile_qr_scan"}, "bike_id": "5b892a519815cf53cc291d451c74dbb5"}, {"lat": 38.89741216666667, "fusion_lat": 0.0, "is_reserved": 0, "is_disabled": 0, "type": "electric_scooter", "name": "c0fc8b1b64a069ebf5c408c3e4cfcc12", "lon": -77.01275433333333, "fusion_lon": 0.0, "rental_uris": {"android": "https://dc.lft.to/lastmile_qr_scan", "ios": "https://dc.lft.to/lastmile_qr_scan"}, "bike_id": "c0fc8b1b64a069ebf5c408c3e4cfcc12"}, {"lat": 38.899769, "fusion_lat": 0.0, "is_reserved": 0, "is_disabled": 0, "type": "electric_scooter", "name": "b9cdcd83a0bce5a88341a35583ef1490", "lon": -77.01629533333333, "fusion_lon": 0.0, "rental_uris": {"android": "https://dc.lft.to/lastmile_qr_scan", "ios": "https://dc.lft.to/lastmile_qr_scan"}, "bike_id": "b9cdcd83a0bce5a88341a35583ef1490"}, {"lat": 38.919645833333334, "fusion_lat": 0.0, "is_reserved": 0, "is_disabled": 0, "type": "electric_scooter", "name": "0745eacee8835ec7f59cf611e964caca", "lon": -77.02492366666667, "fusion_lon": 0.0, "rental_uris": {"android": "https://dc.lft.to/lastmile_qr_scan", "ios": "https://dc.lft.to/lastmile_qr_scan"}, "bike_id": "0745eacee8835ec7f59cf611e964caca"}, {"lat": 38.91121066666667, "fusion_lat": 0.0, "is_reserved": 0, "is_disabled": 0, "type": "electric_scooter", "name": "6d04f682a954b7b3a87042798ea3091b", "lon": -77.0328365, "fusion_lon": 0.0, "rental_uris": {"android": "https://dc.lft.to/lastmile_qr_scan", "ios": "https://dc.lft.to/lastmile_qr_scan"}, "bike_id": "6d04f682a954b7b3a87042798ea3091b"}, {"lat": 38.897275, "fusion_lat": 0.0, "is_reserved": 0, "is_disabled": 0, "type": "electric_scooter", "name": "da772f707ae7c44fdb8f3ba0f6271f94", "lon": -77.0279395, "fusion_lon": 0.0, "rental_uris": {"android": "https://dc.lft.to/lastmile_qr_scan", "ios": "https://dc.lft.to/lastmile_qr_scan"}, "bike_id": "da772f707ae7c44fdb8f3ba0f6271f94"}, {"lat": 38.934285833333334, "fusion_lat": 0.0, "is_reserved": 0, "is_disabled": 0, "type": "electric_scooter", "name": "fdf52cc312431ae5478d976d4db42968", "lon": -77.04000333333333, "fusion_lon": 0.0, "rental_uris": {"android": "https://dc.lft.to/lastmile_qr_scan", "ios": "https://dc.lft.to/lastmile_qr_scan"}, "bike_id": "fdf52cc312431ae5478d976d4db42968"}, {"lat": 38.8965465, "fusion_lat": 0.0, "is_reserved": 0, "is_disabled": 0, "type": "electric_scooter", "name": "1642a3c8562853fe65c6da2727dfc278", "lon": -77.05025233333333, "fusion_lon": 0.0, "rental_uris": {"android": "https://dc.lft.to/lastmile_qr_scan", "ios": "https://dc.lft.to/lastmile_qr_scan"}, "bike_id": "1642a3c8562853fe65c6da2727dfc278"}, {"lat": 38.848591, "fusion_lat": 0.0, "is_reserved": 0, "is_disabled": 0, "type": "electric_bike", "name": "c2c16d9ab8af2708edad79a50a99b0f0", "lon": -77.06829666666667, "fusion_lon": 0.0, "rental_uris": {"android": "https://dc.lft.to/lastmile_qr_scan", "ios": "https://dc.lft.to/lastmile_qr_scan"}, "bike_id": "c2c16d9ab8af2708edad79a50a99b0f0"}, {"lat": 38.918378, "fusion_lat": 0.0, "is_reserved": 0, "is_disabled": 0, "type": "electric_scooter", "name": "bcbd96ea6a6dcfef1129b6c62d8af947", "lon": -77.05319183333333, "fusion_lon": 0.0, "rental_uris": {"android": "https://dc.lft.to/lastmile_qr_scan", "ios": "https://dc.lft.to/lastmile_qr_scan"}, "bike_id": "bcbd96ea6a6dcfef1129b6c62d8af947"}, {"lat": 38.9021705, "fusion_lat": 0.0, "is_reserved": 0, "is_disabled": 0, "type": "electric_scooter", "name": "3d44c7090fd79ed5da5c123659d118da", "lon": -77.02208466666667, "fusion_lon": 0.0, "rental_uris": {"android": "https://dc.lft.to/lastmile_qr_scan", "ios": "https://dc.lft.to/lastmile_qr_scan"}, "bike_id": "3d44c7090fd79ed5da5c123659d118da"}, {"lat": 38.87780766666667, "fusion_lat": 0.0, "is_reserved": 0, "is_disabled": 0, "type": "electric_scooter", "name": "c8b89bbd51fb26407df32ac877ad5ed2", "lon": -77.00207866666666, "fusion_lon": 0.0, "rental_uris": {"android": "https://dc.lft.to/lastmile_qr_scan", "ios": "https://dc.lft.to/lastmile_qr_scan"}, "bike_id": "c8b89bbd51fb26407df32ac877ad5ed2"}, {"lat": 38.896009666666664, "fusion_lat": 0.0, "is_reserved": 0, "is_disabled": 0, "type": "electric_scooter", "name": "581072fcedaf345ce06b94acc53cc81c", "lon": -77.031813, "fusion_lon": 0.0, "rental_uris": {"android": "https://dc.lft.to/lastmile_qr_scan", "ios": "https://dc.lft.to/lastmile_qr_scan"}, "bike_id": "581072fcedaf345ce06b94acc53cc81c"}, {"lat": 38.95669916666667, "fusion_lat": 0.0, "is_reserved": 0, "is_disabled": 0, "type": "electric_scooter", "name": "d076a1cfc29e226762c54fcd8529d9eb", "lon": -77.03629716666667, "fusion_lon": 0.0, "rental_uris": {"android": "https://dc.lft.to/lastmile_qr_scan", "ios": "https://dc.lft.to/lastmile_qr_scan"}, "bike_id": "d076a1cfc29e226762c54fcd8529d9eb"}, {"lat": 38.862147666666665, "fusion_lat": 0.0, "is_reserved": 0, "is_disabled": 0, "type": "electric_scooter", "name": "54a9b2af78d13e739c048edb1b38c162", "lon": -76.9948065, "fusion_lon": 0.0, "rental_uris": {"android": "https://dc.lft.to/lastmile_qr_scan", "ios": "https://dc.lft.to/lastmile_qr_scan"}, "bike_id": "54a9b2af78d13e739c048edb1b38c162"}, {"lat": 38.911952666666664, "fusion_lat": 0.0, "is_reserved": 0, "is_disabled": 0, "type": "electric_scooter", "name": "629d51ed0ad689781fdc4d3580ff389e", "lon": -77.00667783333333, "fusion_lon": 0.0, "rental_uris": {"android": "https://dc.lft.to/lastmile_qr_scan", "ios": "https://dc.lft.to/lastmile_qr_scan"}, "bike_id": "629d51ed0ad689781fdc4d3580ff389e"}, {"lat": 38.888014166666665, "fusion_lat": 0.0, "is_reserved": 0, "is_disabled": 0, "type": "electric_bike", "name": "6c7a02c92fda556887fda75700ac2df4", "lon": -76.95363083333334, "fusion_lon": 0.0, "rental_uris": {"android": "https://dc.lft.to/lastmile_qr_scan", "ios": "https://dc.lft.to/lastmile_qr_scan"}, "bike_id": "6c7a02c92fda556887fda75700ac2df4"}, {"lat": 38.908865166666665, "fusion_lat": 0.0, "is_reserved": 0, "is_disabled": 0, "type": "electric_scooter", "name": "6e1b0425b0ef7dfdc852b75b0c7ee296", "lon": -77.04351666666666, "fusion_lon": 0.0, "rental_uris": {"android": "https://dc.lft.to/lastmile_qr_scan", "ios": "https://dc.lft.to/lastmile_qr_scan"}, "bike_id": "6e1b0425b0ef7dfdc852b75b0c7ee296"}, {"lat": 38.906422666666664, "fusion_lat": 0.0, "is_reserved": 0, "is_disabled": 0, "type": "electric_scooter", "name": "b715ae65b223bf5d01ed43661b131aad", "lon": -77.0058005, "fusion_lon": 0.0, "rental_uris": {"android": "https://dc.lft.to/lastmile_qr_scan", "ios": "https://dc.lft.to/lastmile_qr_scan"}, "bike_id": "b715ae65b223bf5d01ed43661b131aad"}, {"lat": 38.93400183333333, "fusion_lat": 0.0, "is_reserved": 0, "is_disabled": 0, "type": "electric_scooter", "name": "1c1677d694cb4b3890a920d874c80ac8", "lon": -77.04139933333333, "fusion_lon": 0.0, "rental_uris": {"android": "https://dc.lft.to/lastmile_qr_scan", "ios": "https://dc.lft.to/lastmile_qr_scan"}, "bike_id": "1c1677d694cb4b3890a920d874c80ac8"}, {"lat": 38.87643633333333, "fusion_lat": 0.0, "is_reserved": 0, "is_disabled": 0, "type": "electric_scooter", "name": "6e3068b0de13b6fa32cd0d97b8efab6b", "lon": -77.02081983333333, "fusion_lon": 0.0, "rental_uris": {"android": "https://dc.lft.to/lastmile_qr_scan", "ios": "https://dc.lft.to/lastmile_qr_scan"}, "bike_id": "6e3068b0de13b6fa32cd0d97b8efab6b"}, {"lat": 38.90002783333333, "fusion_lat": 0.0, "is_reserved": 0, "is_disabled": 0, "type": "electric_scooter", "name": "84d9b68171e8aded3568eaddd8d9a98f", "lon": -77.01211833333333, "fusion_lon": 0.0, "rental_uris": {"android": "https://dc.lft.to/lastmile_qr_scan", "ios": "https://dc.lft.to/lastmile_qr_scan"}, "bike_id": "84d9b68171e8aded3568eaddd8d9a98f"}, {"lat": 38.91692166666667, "fusion_lat": 0.0, "is_reserved": 0, "is_disabled": 0, "type": "electric_scooter", "name": "001316bb94dbec778653536c2441cc18", "lon": -77.02956833333333, "fusion_lon": 0.0, "rental_uris": {"android": "https://dc.lft.to/lastmile_qr_scan", "ios": "https://dc.lft.to/lastmile_qr_scan"}, "bike_id": "001316bb94dbec778653536c2441cc18"}, {"lat": 38.90033233333333, "fusion_lat": 0.0, "is_reserved": 0, "is_disabled": 0, "type": "electric_scooter", "name": "b56989132a7afa57662d0e3c0a2a3679", "lon": -76.99877083333334, "fusion_lon": 0.0, "rental_uris": {"android": "https://dc.lft.to/lastmile_qr_scan", "ios": "https://dc.lft.to/lastmile_qr_scan"}, "bike_id": "b56989132a7afa57662d0e3c0a2a3679"}, {"lat": 38.900493833333336, "fusion_lat": 0.0, "is_reserved": 0, "is_disabled": 0, "type": "electric_scooter", "name": "696ad2d0791f2578ffc8eb9e671c9258", "lon": -76.99148583333333, "fusion_lon": 0.0, "rental_uris": {"android": "https://dc.lft.to/lastmile_qr_scan", "ios": "https://dc.lft.to/lastmile_qr_scan"}, "bike_id": "696ad2d0791f2578ffc8eb9e671c9258"}, {"lat": 38.9006635, "fusion_lat": 0.0, "is_reserved": 0, "is_disabled": 0, "type": "electric_scooter", "name": "880d1543cf7b17054d5c024633210734", "lon": -76.949774, "fusion_lon": 0.0, "rental_uris": {"android": "https://dc.lft.to/lastmile_qr_scan", "ios": "https://dc.lft.to/lastmile_qr_scan"}, "bike_id": "880d1543cf7b17054d5c024633210734"}, {"lat": 38.90386633333333, "fusion_lat": 0.0, "is_reserved": 0, "is_disabled": 0, "type": "electric_scooter", "name": "0c51eb704061bcfd6b15e8d8046eb737", "lon": -77.0386635, "fusion_lon": 0.0, "rental_uris": {"android": "https://dc.lft.to/lastmile_qr_scan", "ios": "https://dc.lft.to/lastmile_qr_scan"}, "bike_id": "0c51eb704061bcfd6b15e8d8046eb737"}, {"lat": 38.952400833333336, "fusion_lat": 0.0, "is_reserved": 0, "is_disabled": 0, "type": "electric_bike", "name": "942d92a77e46735366235eed82f29d6b", "lon": -76.9824515, "fusion_lon": 0.0, "rental_uris": {"android": "https://dc.lft.to/lastmile_qr_scan", "ios": "https://dc.lft.to/lastmile_qr_scan"}, "bike_id": "942d92a77e46735366235eed82f29d6b"}, {"lat": 38.896887666666665, "fusion_lat": 0.0, "is_reserved": 0, "is_disabled": 0, "type": "electric_scooter", "name": "c469777bfa9d835926b008636d27205e", "lon": -77.0049045, "fusion_lon": 0.0, "rental_uris": {"android": "https://dc.lft.to/lastmile_qr_scan", "ios": "https://dc.lft.to/lastmile_qr_scan"}, "bike_id": "c469777bfa9d835926b008636d27205e"}, {"lat": 38.90728466666667, "fusion_lat": 0.0, "is_reserved": 0, "is_disabled": 0, "type": "electric_scooter", "name": "39d7cbc09df16f75c630ae0d4f38a734", "lon": -77.03187116666666, "fusion_lon": 0.0, "rental_uris": {"android": "https://dc.lft.to/lastmile_qr_scan", "ios": "https://dc.lft.to/lastmile_qr_scan"}, "bike_id": "39d7cbc09df16f75c630ae0d4f38a734"}, {"lat": 38.89611683333333, "fusion_lat": 0.0, "is_reserved": 0, "is_disabled": 0, "type": "electric_scooter", "name": "3120944f8661257d66bd57afdc992b01", "lon": -77.01811733333334, "fusion_lon": 0.0, "rental_uris": {"android": "https://dc.lft.to/lastmile_qr_scan", "ios": "https://dc.lft.to/lastmile_qr_scan"}, "bike_id": "3120944f8661257d66bd57afdc992b01"}, {"lat": 38.930622666666665, "fusion_lat": 0.0, "is_reserved": 0, "is_disabled": 0, "type": "electric_scooter", "name": "95bce96398a8c70ed3b2655288157e88", "lon": -77.0394435, "fusion_lon": 0.0, "rental_uris": {"android": "https://dc.lft.to/lastmile_qr_scan", "ios": "https://dc.lft.to/lastmile_qr_scan"}, "bike_id": "95bce96398a8c70ed3b2655288157e88"}, {"lat": 38.92041483333333, "fusion_lat": 0.0, "is_reserved": 0, "is_disabled": 0, "type": "electric_scooter", "name": "393689501f05925b7623beeb8bdf1465", "lon": -77.0167915, "fusion_lon": 0.0, "rental_uris": {"android": "https://dc.lft.to/lastmile_qr_scan", "ios": "https://dc.lft.to/lastmile_qr_scan"}, "bike_id": "393689501f05925b7623beeb8bdf1465"}, {"lat": 38.9158075, "fusion_lat": 0.0, "is_reserved": 0, "is_disabled": 0, "type": "electric_scooter", "name": "3e196e77a0c85fab2da5d817f9782a41", "lon": -77.02006, "fusion_lon": 0.0, "rental_uris": {"android": "https://dc.lft.to/lastmile_qr_scan", "ios": "https://dc.lft.to/lastmile_qr_scan"}, "bike_id": "3e196e77a0c85fab2da5d817f9782a41"}, {"lat": 38.90043883333333, "fusion_lat": 0.0, "is_reserved": 0, "is_disabled": 0, "type": "electric_scooter", "name": "e332f676ba8d092dc711f0672a32476c", "lon": -76.98843666666667, "fusion_lon": 0.0, "rental_uris": {"android": "https://dc.lft.to/lastmile_qr_scan", "ios": "https://dc.lft.to/lastmile_qr_scan"}, "bike_id": "e332f676ba8d092dc711f0672a32476c"}, {"lat": 38.89530216666667, "fusion_lat": 0.0, "is_reserved": 0, "is_disabled": 0, "type": "electric_scooter", "name": "96580a72e9d0a55b8dd0a976031b71f8", "lon": -77.02430033333333, "fusion_lon": 0.0, "rental_uris": {"android": "https://dc.lft.to/lastmile_qr_scan", "ios": "https://dc.lft.to/lastmile_qr_scan"}, "bike_id": "96580a72e9d0a55b8dd0a976031b71f8"}, {"lat": 38.933456166666666, "fusion_lat": 0.0, "is_reserved": 0, "is_disabled": 0, "type": "electric_scooter", "name": "c0a2811ee2843b07ec01b5af594dbe22", "lon": -77.07263283333333, "fusion_lon": 0.0, "rental_uris": {"android": "https://dc.lft.to/lastmile_qr_scan", "ios": "https://dc.lft.to/lastmile_qr_scan"}, "bike_id": "c0a2811ee2843b07ec01b5af594dbe22"}, {"lat": 38.89224183333333, "fusion_lat": 0.0, "is_reserved": 0, "is_disabled": 0, "type": "electric_scooter", "name": "7f0d0c243b6f8cdd45c24ffc67545ed0", "lon": -77.03017866666667, "fusion_lon": 0.0, "rental_uris": {"android": "https://dc.lft.to/lastmile_qr_scan", "ios": "https://dc.lft.to/lastmile_qr_scan"}, "bike_id": "7f0d0c243b6f8cdd45c24ffc67545ed0"}, {"lat": 38.9156305, "fusion_lat": 0.0, "is_reserved": 0, "is_disabled": 0, "type": "electric_scooter", "name": "5ee2e88e8c9b2d5a14c3c166a4aa971c", "lon": -77.0367415, "fusion_lon": 0.0, "rental_uris": {"android": "https://dc.lft.to/lastmile_qr_scan", "ios": "https://dc.lft.to/lastmile_qr_scan"}, "bike_id": "5ee2e88e8c9b2d5a14c3c166a4aa971c"}, {"lat": 38.87567283333333, "fusion_lat": 0.0, "is_reserved": 0, "is_disabled": 0, "type": "electric_scooter", "name": "27807081516c87c8d00b5e0bb370796a", "lon": -77.006061, "fusion_lon": 0.0, "rental_uris": {"android": "https://dc.lft.to/lastmile_qr_scan", "ios": "https://dc.lft.to/lastmile_qr_scan"}, "bike_id": "27807081516c87c8d00b5e0bb370796a"}, {"lat": 38.95094483333333, "fusion_lat": 0.0, "is_reserved": 0, "is_disabled": 0, "type": "electric_scooter", "name": "46b7dde046d3bac1d94e2fdade8cffdd", "lon": -77.02963016666666, "fusion_lon": 0.0, "rental_uris": {"android": "https://dc.lft.to/lastmile_qr_scan", "ios": "https://dc.lft.to/lastmile_qr_scan"}, "bike_id": "46b7dde046d3bac1d94e2fdade8cffdd"}, {"lat": 38.90877416666667, "fusion_lat": 0.0, "is_reserved": 0, "is_disabled": 0, "type": "electric_bike", "name": "61766f4a51ea8fbc790999043cd977e4", "lon": -77.07529683333334, "fusion_lon": 0.0, "rental_uris": {"android": "https://dc.lft.to/lastmile_qr_scan", "ios": "https://dc.lft.to/lastmile_qr_scan"}, "bike_id": "61766f4a51ea8fbc790999043cd977e4"}, {"lat": 38.94140383333333, "fusion_lat": 0.0, "is_reserved": 0, "is_disabled": 0, "type": "electric_scooter", "name": "3746204885a0e076a8251515f7e02db4", "lon": -77.0232245, "fusion_lon": 0.0, "rental_uris": {"android": "https://dc.lft.to/lastmile_qr_scan", "ios": "https://dc.lft.to/lastmile_qr_scan"}, "bike_id": "3746204885a0e076a8251515f7e02db4"}, {"lat": 38.89826983333333, "fusion_lat": 0.0, "is_reserved": 0, "is_disabled": 0, "type": "electric_scooter", "name": "74826e76d54f078175fe86a4aab26eb3", "lon": -77.03007983333333, "fusion_lon": 0.0, "rental_uris": {"android": "https://dc.lft.to/lastmile_qr_scan", "ios": "https://dc.lft.to/lastmile_qr_scan"}, "bike_id": "74826e76d54f078175fe86a4aab26eb3"}, {"lat": 38.896134833333335, "fusion_lat": 0.0, "is_reserved": 0, "is_disabled": 0, "type": "electric_scooter", "name": "74e4bc0cd0592b73f1a189307ff8e34c", "lon": -77.05077033333333, "fusion_lon": 0.0, "rental_uris": {"android": "https://dc.lft.to/lastmile_qr_scan", "ios": "https://dc.lft.to/lastmile_qr_scan"}, "bike_id": "74e4bc0cd0592b73f1a189307ff8e34c"}, {"lat": 38.89226766666667, "fusion_lat": 0.0, "is_reserved": 0, "is_disabled": 0, "type": "electric_scooter", "name": "ee71ff49ce794127fb7054d98a3b6ec2", "lon": -77.04337766666667, "fusion_lon": 0.0, "rental_uris": {"android": "https://dc.lft.to/lastmile_qr_scan", "ios": "https://dc.lft.to/lastmile_qr_scan"}, "bike_id": "ee71ff49ce794127fb7054d98a3b6ec2"}, {"lat": 38.92125333333333, "fusion_lat": 0.0, "is_reserved": 0, "is_disabled": 0, "type": "electric_scooter", "name": "888771db89b3b0c83b5e0705c1207b68", "lon": -77.0094, "fusion_lon": 0.0, "rental_uris": {"android": "https://dc.lft.to/lastmile_qr_scan", "ios": "https://dc.lft.to/lastmile_qr_scan"}, "bike_id": "888771db89b3b0c83b5e0705c1207b68"}, {"lat": 38.90066766666666, "fusion_lat": 0.0, "is_reserved": 0, "is_disabled": 0, "type": "electric_scooter", "name": "c143a5d0bb90ce55293ab10ade3f2407", "lon": -77.045378, "fusion_lon": 0.0, "rental_uris": {"android": "https://dc.lft.to/lastmile_qr_scan", "ios": "https://dc.lft.to/lastmile_qr_scan"}, "bike_id": "c143a5d0bb90ce55293ab10ade3f2407"}, {"lat": 38.804782333333335, "fusion_lat": 0.0, "is_reserved": 0, "is_disabled": 0, "type": "electric_bike", "name": "3ab8ce48107b6f7154964c0cb80dc42c", "lon": -76.99107583333333, "fusion_lon": 0.0, "rental_uris": {"android": "https://dc.lft.to/lastmile_qr_scan", "ios": "https://dc.lft.to/lastmile_qr_scan"}, "bike_id": "3ab8ce48107b6f7154964c0cb80dc42c"}, {"lat": 38.784629833333334, "fusion_lat": 0.0, "is_reserved": 0, "is_disabled": 0, "type": "electric_bike", "name": "b14d2babb539af45665d7f7adeb703a7", "lon": -77.05439316666667, "fusion_lon": 0.0, "rental_uris": {"android": "https://dc.lft.to/lastmile_qr_scan", "ios": "https://dc.lft.to/lastmile_qr_scan"}, "bike_id": "b14d2babb539af45665d7f7adeb703a7"}, {"lat": 38.95885, "fusion_lat": 0.0, "is_reserved": 0, "is_disabled": 0, "type": "electric_bike", "name": "dd3959a16cfd48f437dcf0584ec83824", "lon": -76.981015, "fusion_lon": 0.0, "rental_uris": {"android": "https://dc.lft.to/lastmile_qr_scan", "ios": "https://dc.lft.to/lastmile_qr_scan"}, "bike_id": "dd3959a16cfd48f437dcf0584ec83824"}, {"lat": 38.927915166666665, "fusion_lat": 0.0, "is_reserved": 0, "is_disabled": 0, "type": "electric_scooter", "name": "85a48bce85163965a66d3f872d513de1", "lon": -77.01560466666666, "fusion_lon": 0.0, "rental_uris": {"android": "https://dc.lft.to/lastmile_qr_scan", "ios": "https://dc.lft.to/lastmile_qr_scan"}, "bike_id": "85a48bce85163965a66d3f872d513de1"}, {"lat": 38.919699, "fusion_lat": 0.0, "is_reserved": 0, "is_disabled": 0, "type": "electric_scooter", "name": "b920f0eef9d999ee643239d80325a6b0", "lon": -77.04253633333333, "fusion_lon": 0.0, "rental_uris": {"android": "https://dc.lft.to/lastmile_qr_scan", "ios": "https://dc.lft.to/lastmile_qr_scan"}, "bike_id": "b920f0eef9d999ee643239d80325a6b0"}, {"lat": 38.911240666666664, "fusion_lat": 0.0, "is_reserved": 0, "is_disabled": 0, "type": "electric_scooter", "name": "6d4964ed4e3a931ff4d67e71193ac5df", "lon": -77.03868166666666, "fusion_lon": 0.0, "rental_uris": {"android": "https://dc.lft.to/lastmile_qr_scan", "ios": "https://dc.lft.to/lastmile_qr_scan"}, "bike_id": "6d4964ed4e3a931ff4d67e71193ac5df"}, {"lat": 38.91346716666666, "fusion_lat": 0.0, "is_reserved": 0, "is_disabled": 0, "type": "electric_scooter", "name": "913dd0135e75b8213647150124679425", "lon": -77.03201666666666, "fusion_lon": 0.0, "rental_uris": {"android": "https://dc.lft.to/lastmile_qr_scan", "ios": "https://dc.lft.to/lastmile_qr_scan"}, "bike_id": "913dd0135e75b8213647150124679425"}, {"lat": 38.937041666666666, "fusion_lat": 0.0, "is_reserved": 0, "is_disabled": 0, "type": "electric_scooter", "name": "cbae9305a11a16aea688729eef8e0512", "lon": -77.023971, "fusion_lon": 0.0, "rental_uris": {"android": "https://dc.lft.to/lastmile_qr_scan", "ios": "https://dc.lft.to/lastmile_qr_scan"}, "bike_id": "cbae9305a11a16aea688729eef8e0512"}, {"lat": 38.91908333333333, "fusion_lat": 0.0, "is_reserved": 0, "is_disabled": 0, "type": "electric_scooter", "name": "3a5c619bb1fb3b3c37a646a1bfd5d881", "lon": -77.0200455, "fusion_lon": 0.0, "rental_uris": {"android": "https://dc.lft.to/lastmile_qr_scan", "ios": "https://dc.lft.to/lastmile_qr_scan"}, "bike_id": "3a5c619bb1fb3b3c37a646a1bfd5d881"}, {"lat": 38.92248983333333, "fusion_lat": 0.0, "is_reserved": 0, "is_disabled": 0, "type": "electric_scooter", "name": "c742faafc276ede601f450aab4badf67", "lon": -77.03440566666667, "fusion_lon": 0.0, "rental_uris": {"android": "https://dc.lft.to/lastmile_qr_scan", "ios": "https://dc.lft.to/lastmile_qr_scan"}, "bike_id": "c742faafc276ede601f450aab4badf67"}, {"lat": 38.89991333333333, "fusion_lat": 0.0, "is_reserved": 0, "is_disabled": 0, "type": "electric_scooter", "name": "2dc8fd791dd9c2e7853dea734000d97d", "lon": -77.0451705, "fusion_lon": 0.0, "rental_uris": {"android": "https://dc.lft.to/lastmile_qr_scan", "ios": "https://dc.lft.to/lastmile_qr_scan"}, "bike_id": "2dc8fd791dd9c2e7853dea734000d97d"}, {"lat": 38.878852333333334, "fusion_lat": 0.0, "is_reserved": 0, "is_disabled": 0, "type": "electric_scooter", "name": "098f93c94a9f4940474a2b062f907f19", "lon": -76.965467, "fusion_lon": 0.0, "rental_uris": {"android": "https://dc.lft.to/lastmile_qr_scan", "ios": "https://dc.lft.to/lastmile_qr_scan"}, "bike_id": "098f93c94a9f4940474a2b062f907f19"}, {"lat": 38.89624833333333, "fusion_lat": 0.0, "is_reserved": 0, "is_disabled": 0, "type": "electric_bike", "name": "432ab221ed8ff65ed10377ab9b42bdb8", "lon": -76.90753466666666, "fusion_lon": 0.0, "rental_uris": {"android": "https://dc.lft.to/lastmile_qr_scan", "ios": "https://dc.lft.to/lastmile_qr_scan"}, "bike_id": "432ab221ed8ff65ed10377ab9b42bdb8"}, {"lat": 38.95877433333333, "fusion_lat": 0.0, "is_reserved": 0, "is_disabled": 0, "type": "electric_bike", "name": "f06ae69025721b0e2f96b718d89aafd4", "lon": -77.0140675, "fusion_lon": 0.0, "rental_uris": {"android": "https://dc.lft.to/lastmile_qr_scan", "ios": "https://dc.lft.to/lastmile_qr_scan"}, "bike_id": "f06ae69025721b0e2f96b718d89aafd4"}, {"lat": 38.95689683333333, "fusion_lat": 0.0, "is_reserved": 0, "is_disabled": 0, "type": "electric_scooter", "name": "ffc0490fae88db614e56da9bde63919d", "lon": -77.02227483333333, "fusion_lon": 0.0, "rental_uris": {"android": "https://dc.lft.to/lastmile_qr_scan", "ios": "https://dc.lft.to/lastmile_qr_scan"}, "bike_id": "ffc0490fae88db614e56da9bde63919d"}, {"lat": 38.9177965, "fusion_lat": 0.0, "is_reserved": 0, "is_disabled": 0, "type": "electric_scooter", "name": "88dab49a5548bf5d5f71ce88bd144c9e", "lon": -77.02310183333333, "fusion_lon": 0.0, "rental_uris": {"android": "https://dc.lft.to/lastmile_qr_scan", "ios": "https://dc.lft.to/lastmile_qr_scan"}, "bike_id": "88dab49a5548bf5d5f71ce88bd144c9e"}, {"lat": 38.90036966666667, "fusion_lat": 0.0, "is_reserved": 0, "is_disabled": 0, "type": "electric_scooter", "name": "3a53ca9bc35c7e696508229cb0bce9a5", "lon": -77.0019675, "fusion_lon": 0.0, "rental_uris": {"android": "https://dc.lft.to/lastmile_qr_scan", "ios": "https://dc.lft.to/lastmile_qr_scan"}, "bike_id": "3a53ca9bc35c7e696508229cb0bce9a5"}, {"lat": 38.890140333333335, "fusion_lat": 0.0, "is_reserved": 0, "is_disabled": 0, "type": "electric_scooter", "name": "06639d6d738ec3ac8bf544a072dd6d5d", "lon": -76.93730116666667, "fusion_lon": 0.0, "rental_uris": {"android": "https://dc.lft.to/lastmile_qr_scan", "ios": "https://dc.lft.to/lastmile_qr_scan"}, "bike_id": "06639d6d738ec3ac8bf544a072dd6d5d"}, {"lat": 38.91758466666667, "fusion_lat": 0.0, "is_reserved": 0, "is_disabled": 0, "type": "electric_scooter", "name": "6317e4d7abcc72b4c26a4cba3d50e474", "lon": -77.03907183333334, "fusion_lon": 0.0, "rental_uris": {"android": "https://dc.lft.to/lastmile_qr_scan", "ios": "https://dc.lft.to/lastmile_qr_scan"}, "bike_id": "6317e4d7abcc72b4c26a4cba3d50e474"}, {"lat": 38.88357033333333, "fusion_lat": 0.0, "is_reserved": 0, "is_disabled": 0, "type": "electric_scooter", "name": "69cb7711960a428a449f70917c43400b", "lon": -76.95770116666667, "fusion_lon": 0.0, "rental_uris": {"android": "https://dc.lft.to/lastmile_qr_scan", "ios": "https://dc.lft.to/lastmile_qr_scan"}, "bike_id": "69cb7711960a428a449f70917c43400b"}, {"lat": 38.91819733333333, "fusion_lat": 0.0, "is_reserved": 0, "is_disabled": 0, "type": "electric_scooter", "name": "395c915b387de17a9871981b27482ba7", "lon": -77.0271345, "fusion_lon": 0.0, "rental_uris": {"android": "https://dc.lft.to/lastmile_qr_scan", "ios": "https://dc.lft.to/lastmile_qr_scan"}, "bike_id": "395c915b387de17a9871981b27482ba7"}, {"lat": 38.89232233333333, "fusion_lat": 0.0, "is_reserved": 0, "is_disabled": 0, "type": "electric_scooter", "name": "4b71139d2da3c47ed6f89d144d772df3", "lon": -77.05002616666667, "fusion_lon": 0.0, "rental_uris": {"android": "https://dc.lft.to/lastmile_qr_scan", "ios": "https://dc.lft.to/lastmile_qr_scan"}, "bike_id": "4b71139d2da3c47ed6f89d144d772df3"}, {"lat": 38.91998066666667, "fusion_lat": 0.0, "is_reserved": 0, "is_disabled": 0, "type": "electric_scooter", "name": "dbb7f5273ad71142732ce525532295fe", "lon": -77.0474695, "fusion_lon": 0.0, "rental_uris": {"android": "https://dc.lft.to/lastmile_qr_scan", "ios": "https://dc.lft.to/lastmile_qr_scan"}, "bike_id": "dbb7f5273ad71142732ce525532295fe"}, {"lat": 38.91419283333333, "fusion_lat": 0.0, "is_reserved": 0, "is_disabled": 0, "type": "electric_scooter", "name": "6b181d6bc66f244a9d77403ef1d233fd", "lon": -77.03172333333333, "fusion_lon": 0.0, "rental_uris": {"android": "https://dc.lft.to/lastmile_qr_scan", "ios": "https://dc.lft.to/lastmile_qr_scan"}, "bike_id": "6b181d6bc66f244a9d77403ef1d233fd"}, {"lat": 38.87211216666667, "fusion_lat": 0.0, "is_reserved": 0, "is_disabled": 0, "type": "electric_scooter", "name": "0238b5bc28e674c759fa65904d3e0813", "lon": -77.0098515, "fusion_lon": 0.0, "rental_uris": {"android": "https://dc.lft.to/lastmile_qr_scan", "ios": "https://dc.lft.to/lastmile_qr_scan"}, "bike_id": "0238b5bc28e674c759fa65904d3e0813"}, {"lat": 38.93856816666667, "fusion_lat": 0.0, "is_reserved": 0, "is_disabled": 0, "type": "electric_scooter", "name": "83b0a6539a5bfe6d6ffb83a8dc70c47d", "lon": -76.99438516666666, "fusion_lon": 0.0, "rental_uris": {"android": "https://dc.lft.to/lastmile_qr_scan", "ios": "https://dc.lft.to/lastmile_qr_scan"}, "bike_id": "83b0a6539a5bfe6d6ffb83a8dc70c47d"}, {"lat": 38.902619, "fusion_lat": 0.0, "is_reserved": 0, "is_disabled": 0, "type": "electric_scooter", "name": "d04378fb1f0884d922482749be7c3ae5", "lon": -77.03415566666666, "fusion_lon": 0.0, "rental_uris": {"android": "https://dc.lft.to/lastmile_qr_scan", "ios": "https://dc.lft.to/lastmile_qr_scan"}, "bike_id": "d04378fb1f0884d922482749be7c3ae5"}, {"lat": 38.92329133333333, "fusion_lat": 0.0, "is_reserved": 0, "is_disabled": 0, "type": "electric_scooter", "name": "e2d23342555f45d3b64c7f5ac7fa38e6", "lon": -77.05680883333333, "fusion_lon": 0.0, "rental_uris": {"android": "https://dc.lft.to/lastmile_qr_scan", "ios": "https://dc.lft.to/lastmile_qr_scan"}, "bike_id": "e2d23342555f45d3b64c7f5ac7fa38e6"}, {"lat": 38.91680233333334, "fusion_lat": 0.0, "is_reserved": 0, "is_disabled": 0, "type": "electric_scooter", "name": "f1cdd8b4be610898117160e15047e102", "lon": -77.0297165, "fusion_lon": 0.0, "rental_uris": {"android": "https://dc.lft.to/lastmile_qr_scan", "ios": "https://dc.lft.to/lastmile_qr_scan"}, "bike_id": "f1cdd8b4be610898117160e15047e102"}, {"lat": 38.90501416666667, "fusion_lat": 0.0, "is_reserved": 0, "is_disabled": 0, "type": "electric_scooter", "name": "d865d254da8dc06c07f6b76721a960a6", "lon": -77.02950483333333, "fusion_lon": 0.0, "rental_uris": {"android": "https://dc.lft.to/lastmile_qr_scan", "ios": "https://dc.lft.to/lastmile_qr_scan"}, "bike_id": "d865d254da8dc06c07f6b76721a960a6"}, {"lat": 38.935572666666665, "fusion_lat": 0.0, "is_reserved": 0, "is_disabled": 0, "type": "electric_scooter", "name": "dc42803d98c655c34a6314d4a6c94852", "lon": -77.07709533333333, "fusion_lon": 0.0, "rental_uris": {"android": "https://dc.lft.to/lastmile_qr_scan", "ios": "https://dc.lft.to/lastmile_qr_scan"}, "bike_id": "dc42803d98c655c34a6314d4a6c94852"}, {"lat": 38.925927333333334, "fusion_lat": 0.0, "is_reserved": 0, "is_disabled": 0, "type": "electric_scooter", "name": "5d74ba93152986e348839abb9fe02923", "lon": -77.0439965, "fusion_lon": 0.0, "rental_uris": {"android": "https://dc.lft.to/lastmile_qr_scan", "ios": "https://dc.lft.to/lastmile_qr_scan"}, "bike_id": "5d74ba93152986e348839abb9fe02923"}, {"lat": 38.9247395, "fusion_lat": 0.0, "is_reserved": 0, "is_disabled": 0, "type": "electric_scooter", "name": "f80068a28c59ce7ddca901a2dc81d355", "lon": -77.02205783333333, "fusion_lon": 0.0, "rental_uris": {"android": "https://dc.lft.to/lastmile_qr_scan", "ios": "https://dc.lft.to/lastmile_qr_scan"}, "bike_id": "f80068a28c59ce7ddca901a2dc81d355"}, {"lat": 38.898667333333336, "fusion_lat": 0.0, "is_reserved": 0, "is_disabled": 0, "type": "electric_scooter", "name": "816a7de74430b66c68342e33158f92cd", "lon": -77.04080616666667, "fusion_lon": 0.0, "rental_uris": {"android": "https://dc.lft.to/lastmile_qr_scan", "ios": "https://dc.lft.to/lastmile_qr_scan"}, "bike_id": "816a7de74430b66c68342e33158f92cd"}, {"lat": 38.900808166666664, "fusion_lat": 0.0, "is_reserved": 0, "is_disabled": 0, "type": "electric_scooter", "name": "8eba20c0eb6b4ddeb2f963185e8e2eb6", "lon": -77.02309766666667, "fusion_lon": 0.0, "rental_uris": {"android": "https://dc.lft.to/lastmile_qr_scan", "ios": "https://dc.lft.to/lastmile_qr_scan"}, "bike_id": "8eba20c0eb6b4ddeb2f963185e8e2eb6"}, {"lat": 38.92125566666667, "fusion_lat": 0.0, "is_reserved": 0, "is_disabled": 0, "type": "electric_scooter", "name": "7df1a996a048a52f2058f639ed27c075", "lon": -77.00943566666666, "fusion_lon": 0.0, "rental_uris": {"android": "https://dc.lft.to/lastmile_qr_scan", "ios": "https://dc.lft.to/lastmile_qr_scan"}, "bike_id": "7df1a996a048a52f2058f639ed27c075"}, {"lat": 38.9059695, "fusion_lat": 0.0, "is_reserved": 0, "is_disabled": 0, "type": "electric_scooter", "name": "5ae3879ed57d007be144a08e7aa94ac2", "lon": -77.02977016666667, "fusion_lon": 0.0, "rental_uris": {"android": "https://dc.lft.to/lastmile_qr_scan", "ios": "https://dc.lft.to/lastmile_qr_scan"}, "bike_id": "5ae3879ed57d007be144a08e7aa94ac2"}, {"lat": 38.80734533333333, "fusion_lat": 0.0, "is_reserved": 0, "is_disabled": 0, "type": "electric_bike", "name": "47e1538273d07fdeb64ebaaa03b0dd5e", "lon": -76.992554, "fusion_lon": 0.0, "rental_uris": {"android": "https://dc.lft.to/lastmile_qr_scan", "ios": "https://dc.lft.to/lastmile_qr_scan"}, "bike_id": "47e1538273d07fdeb64ebaaa03b0dd5e"}, {"lat": 38.908364666666664, "fusion_lat": 0.0, "is_reserved": 0, "is_disabled": 0, "type": "electric_scooter", "name": "fb56b16291f882d9bccc477095ac5129", "lon": -77.03946133333334, "fusion_lon": 0.0, "rental_uris": {"android": "https://dc.lft.to/lastmile_qr_scan", "ios": "https://dc.lft.to/lastmile_qr_scan"}, "bike_id": "fb56b16291f882d9bccc477095ac5129"}, {"lat": 38.926048, "fusion_lat": 0.0, "is_reserved": 0, "is_disabled": 0, "type": "electric_scooter", "name": "d5af04c83a021c745142d0f6205bba8d", "lon": -77.02156, "fusion_lon": 0.0, "rental_uris": {"android": "https://dc.lft.to/lastmile_qr_scan", "ios": "https://dc.lft.to/lastmile_qr_scan"}, "bike_id": "d5af04c83a021c745142d0f6205bba8d"}, {"lat": 38.924506, "fusion_lat": 0.0, "is_reserved": 0, "is_disabled": 0, "type": "electric_scooter", "name": "f1a367f9b97ad7287e5323a93b0aa3c6", "lon": -77.02035383333333, "fusion_lon": 0.0, "rental_uris": {"android": "https://dc.lft.to/lastmile_qr_scan", "ios": "https://dc.lft.to/lastmile_qr_scan"}, "bike_id": "f1a367f9b97ad7287e5323a93b0aa3c6"}, {"lat": 38.9077155, "fusion_lat": 0.0, "is_reserved": 0, "is_disabled": 0, "type": "electric_scooter", "name": "1a9f7b0f790b83138d1ad1ff6a3e4dac", "lon": -77.04529466666666, "fusion_lon": 0.0, "rental_uris": {"android": "https://dc.lft.to/lastmile_qr_scan", "ios": "https://dc.lft.to/lastmile_qr_scan"}, "bike_id": "1a9f7b0f790b83138d1ad1ff6a3e4dac"}, {"lat": 38.91925, "fusion_lat": 0.0, "is_reserved": 0, "is_disabled": 0, "type": "electric_scooter", "name": "0903158b972d97275eacf79e86ff3251", "lon": -77.02949066666666, "fusion_lon": 0.0, "rental_uris": {"android": "https://dc.lft.to/lastmile_qr_scan", "ios": "https://dc.lft.to/lastmile_qr_scan"}, "bike_id": "0903158b972d97275eacf79e86ff3251"}, {"lat": 38.900018, "fusion_lat": 0.0, "is_reserved": 0, "is_disabled": 0, "type": "electric_scooter", "name": "6913cb45bd5358a01240ada69e148a69", "lon": -77.012054, "fusion_lon": 0.0, "rental_uris": {"android": "https://dc.lft.to/lastmile_qr_scan", "ios": "https://dc.lft.to/lastmile_qr_scan"}, "bike_id": "6913cb45bd5358a01240ada69e148a69"}, {"lat": 38.883342666666664, "fusion_lat": 0.0, "is_reserved": 0, "is_disabled": 0, "type": "electric_scooter", "name": "615d48119c237edfbf0323a6da18dc35", "lon": -77.017574, "fusion_lon": 0.0, "rental_uris": {"android": "https://dc.lft.to/lastmile_qr_scan", "ios": "https://dc.lft.to/lastmile_qr_scan"}, "bike_id": "615d48119c237edfbf0323a6da18dc35"}, {"lat": 38.96228983333334, "fusion_lat": 0.0, "is_reserved": 0, "is_disabled": 0, "type": "electric_bike", "name": "6b37cf94280ede549e422b16c8d1ed20", "lon": -77.02627033333333, "fusion_lon": 0.0, "rental_uris": {"android": "https://dc.lft.to/lastmile_qr_scan", "ios": "https://dc.lft.to/lastmile_qr_scan"}, "bike_id": "6b37cf94280ede549e422b16c8d1ed20"}, {"lat": 38.91994366666667, "fusion_lat": 0.0, "is_reserved": 0, "is_disabled": 0, "type": "electric_scooter", "name": "ca753431793c7fd474bfcc27b15288b7", "lon": -77.02166333333334, "fusion_lon": 0.0, "rental_uris": {"android": "https://dc.lft.to/lastmile_qr_scan", "ios": "https://dc.lft.to/lastmile_qr_scan"}, "bike_id": "ca753431793c7fd474bfcc27b15288b7"}, {"lat": 38.897309, "fusion_lat": 0.0, "is_reserved": 0, "is_disabled": 0, "type": "electric_bike", "name": "3814e917815dfb7080f2b806258017e1", "lon": -77.0477735, "fusion_lon": 0.0, "rental_uris": {"android": "https://dc.lft.to/lastmile_qr_scan", "ios": "https://dc.lft.to/lastmile_qr_scan"}, "bike_id": "3814e917815dfb7080f2b806258017e1"}, {"lat": 38.899562333333336, "fusion_lat": 0.0, "is_reserved": 0, "is_disabled": 0, "type": "electric_scooter", "name": "a05a31a40e3877cbcf308f4f5d75c4e2", "lon": -77.0452265, "fusion_lon": 0.0, "rental_uris": {"android": "https://dc.lft.to/lastmile_qr_scan", "ios": "https://dc.lft.to/lastmile_qr_scan"}, "bike_id": "a05a31a40e3877cbcf308f4f5d75c4e2"}, {"lat": 38.90237333333334, "fusion_lat": 0.0, "is_reserved": 0, "is_disabled": 0, "type": "electric_scooter", "name": "277f2b4509f2e6998c7a3839df80f723", "lon": -77.02827116666667, "fusion_lon": 0.0, "rental_uris": {"android": "https://dc.lft.to/lastmile_qr_scan", "ios": "https://dc.lft.to/lastmile_qr_scan"}, "bike_id": "277f2b4509f2e6998c7a3839df80f723"}, {"lat": 38.888691666666666, "fusion_lat": 0.0, "is_reserved": 0, "is_disabled": 0, "type": "electric_bike", "name": "4c9016f099578521979b4d2c6bfc18fb", "lon": -76.9570205, "fusion_lon": 0.0, "rental_uris": {"android": "https://dc.lft.to/lastmile_qr_scan", "ios": "https://dc.lft.to/lastmile_qr_scan"}, "bike_id": "4c9016f099578521979b4d2c6bfc18fb"}, {"lat": 38.8818585, "fusion_lat": 0.0, "is_reserved": 0, "is_disabled": 0, "type": "electric_scooter", "name": "49b49eaaf4c17cf3a33a02de58d34959", "lon": -77.00598683333334, "fusion_lon": 0.0, "rental_uris": {"android": "https://dc.lft.to/lastmile_qr_scan", "ios": "https://dc.lft.to/lastmile_qr_scan"}, "bike_id": "49b49eaaf4c17cf3a33a02de58d34959"}, {"lat": 38.916926833333335, "fusion_lat": 0.0, "is_reserved": 0, "is_disabled": 0, "type": "electric_scooter", "name": "6e6e170e2429c3188519b176e30c0c30", "lon": -77.01193, "fusion_lon": 0.0, "rental_uris": {"android": "https://dc.lft.to/lastmile_qr_scan", "ios": "https://dc.lft.to/lastmile_qr_scan"}, "bike_id": "6e6e170e2429c3188519b176e30c0c30"}, {"lat": 38.940418, "fusion_lat": 0.0, "is_reserved": 0, "is_disabled": 0, "type": "electric_scooter", "name": "3b96258bf9c3b699023deb0444842717", "lon": -77.01771333333333, "fusion_lon": 0.0, "rental_uris": {"android": "https://dc.lft.to/lastmile_qr_scan", "ios": "https://dc.lft.to/lastmile_qr_scan"}, "bike_id": "3b96258bf9c3b699023deb0444842717"}, {"lat": 38.928385666666664, "fusion_lat": 0.0, "is_reserved": 0, "is_disabled": 0, "type": "electric_scooter", "name": "d1a0010c96e24a65bbca1a65fe2b89b7", "lon": -77.05422083333333, "fusion_lon": 0.0, "rental_uris": {"android": "https://dc.lft.to/lastmile_qr_scan", "ios": "https://dc.lft.to/lastmile_qr_scan"}, "bike_id": "d1a0010c96e24a65bbca1a65fe2b89b7"}, {"lat": 38.907614833333334, "fusion_lat": 0.0, "is_reserved": 0, "is_disabled": 0, "type": "electric_scooter", "name": "428f2dc1c5d93506642299f539a005f5", "lon": -77.03581383333334, "fusion_lon": 0.0, "rental_uris": {"android": "https://dc.lft.to/lastmile_qr_scan", "ios": "https://dc.lft.to/lastmile_qr_scan"}, "bike_id": "428f2dc1c5d93506642299f539a005f5"}, {"lat": 38.92327433333333, "fusion_lat": 0.0, "is_reserved": 0, "is_disabled": 0, "type": "electric_scooter", "name": "5af7dafcff31f7902f46fcf802dff1bb", "lon": -77.0195785, "fusion_lon": 0.0, "rental_uris": {"android": "https://dc.lft.to/lastmile_qr_scan", "ios": "https://dc.lft.to/lastmile_qr_scan"}, "bike_id": "5af7dafcff31f7902f46fcf802dff1bb"}, {"lat": 38.918738166666664, "fusion_lat": 0.0, "is_reserved": 0, "is_disabled": 0, "type": "electric_scooter", "name": "4e4c37843bd3fd92fbc3db45f90904c3", "lon": -77.03505266666667, "fusion_lon": 0.0, "rental_uris": {"android": "https://dc.lft.to/lastmile_qr_scan", "ios": "https://dc.lft.to/lastmile_qr_scan"}, "bike_id": "4e4c37843bd3fd92fbc3db45f90904c3"}, {"lat": 38.937544333333335, "fusion_lat": 0.0, "is_reserved": 0, "is_disabled": 0, "type": "electric_scooter", "name": "8913adefbe4ee397e809e553c6634a34", "lon": -77.03262416666666, "fusion_lon": 0.0, "rental_uris": {"android": "https://dc.lft.to/lastmile_qr_scan", "ios": "https://dc.lft.to/lastmile_qr_scan"}, "bike_id": "8913adefbe4ee397e809e553c6634a34"}, {"lat": 38.8867895, "fusion_lat": 0.0, "is_reserved": 0, "is_disabled": 0, "type": "electric_scooter", "name": "400c9a40e2335bf38c990b33f6654869", "lon": -77.04796433333334, "fusion_lon": 0.0, "rental_uris": {"android": "https://dc.lft.to/lastmile_qr_scan", "ios": "https://dc.lft.to/lastmile_qr_scan"}, "bike_id": "400c9a40e2335bf38c990b33f6654869"}, {"lat": 38.91798416666666, "fusion_lat": 0.0, "is_reserved": 0, "is_disabled": 0, "type": "electric_scooter", "name": "5bfe094978fdf3b1bf901392729615ca", "lon": -77.046695, "fusion_lon": 0.0, "rental_uris": {"android": "https://dc.lft.to/lastmile_qr_scan", "ios": "https://dc.lft.to/lastmile_qr_scan"}, "bike_id": "5bfe094978fdf3b1bf901392729615ca"}, {"lat": 38.8303705, "fusion_lat": 0.0, "is_reserved": 0, "is_disabled": 0, "type": "electric_bike", "name": "43f1ab4adc0e87b4841039fb42c279b3", "lon": -77.00821033333334, "fusion_lon": 0.0, "rental_uris": {"android": "https://dc.lft.to/lastmile_qr_scan", "ios": "https://dc.lft.to/lastmile_qr_scan"}, "bike_id": "43f1ab4adc0e87b4841039fb42c279b3"}, {"lat": 38.92681, "fusion_lat": 0.0, "is_reserved": 0, "is_disabled": 0, "type": "electric_scooter", "name": "bd88e4b1c78f356cd562d6b8cac60f05", "lon": -77.01515416666666, "fusion_lon": 0.0, "rental_uris": {"android": "https://dc.lft.to/lastmile_qr_scan", "ios": "https://dc.lft.to/lastmile_qr_scan"}, "bike_id": "bd88e4b1c78f356cd562d6b8cac60f05"}, {"lat": 38.917943, "fusion_lat": 0.0, "is_reserved": 0, "is_disabled": 0, "type": "electric_scooter", "name": "8e5b458aff331cbc165645f1d968208b", "lon": -77.02810333333333, "fusion_lon": 0.0, "rental_uris": {"android": "https://dc.lft.to/lastmile_qr_scan", "ios": "https://dc.lft.to/lastmile_qr_scan"}, "bike_id": "8e5b458aff331cbc165645f1d968208b"}, {"lat": 38.92556966666667, "fusion_lat": 0.0, "is_reserved": 0, "is_disabled": 0, "type": "electric_scooter", "name": "ba7d45116bbcd080426dee9a39f24444", "lon": -77.02978133333333, "fusion_lon": 0.0, "rental_uris": {"android": "https://dc.lft.to/lastmile_qr_scan", "ios": "https://dc.lft.to/lastmile_qr_scan"}, "bike_id": "ba7d45116bbcd080426dee9a39f24444"}, {"lat": 38.930247666666666, "fusion_lat": 0.0, "is_reserved": 0, "is_disabled": 0, "type": "electric_scooter", "name": "fc703e0f110c7918b87a6f8e129c2866", "lon": -77.0232835, "fusion_lon": 0.0, "rental_uris": {"android": "https://dc.lft.to/lastmile_qr_scan", "ios": "https://dc.lft.to/lastmile_qr_scan"}, "bike_id": "fc703e0f110c7918b87a6f8e129c2866"}, {"lat": 38.899633, "fusion_lat": 0.0, "is_reserved": 0, "is_disabled": 0, "type": "electric_scooter", "name": "7e63ed7543a0063d8cdebbb38c409d84", "lon": -77.016291, "fusion_lon": 0.0, "rental_uris": {"android": "https://dc.lft.to/lastmile_qr_scan", "ios": "https://dc.lft.to/lastmile_qr_scan"}, "bike_id": "7e63ed7543a0063d8cdebbb38c409d84"}, {"lat": 38.88743816666667, "fusion_lat": 0.0, "is_reserved": 0, "is_disabled": 0, "type": "electric_scooter", "name": "126c9de923f6454d44654d1e51ae8340", "lon": -77.02230633333333, "fusion_lon": 0.0, "rental_uris": {"android": "https://dc.lft.to/lastmile_qr_scan", "ios": "https://dc.lft.to/lastmile_qr_scan"}, "bike_id": "126c9de923f6454d44654d1e51ae8340"}, {"lat": 38.9275255, "fusion_lat": 0.0, "is_reserved": 0, "is_disabled": 0, "type": "electric_scooter", "name": "97fe3f2d33b31a572d7f64f8979ba1d1", "lon": -77.0646285, "fusion_lon": 0.0, "rental_uris": {"android": "https://dc.lft.to/lastmile_qr_scan", "ios": "https://dc.lft.to/lastmile_qr_scan"}, "bike_id": "97fe3f2d33b31a572d7f64f8979ba1d1"}, {"lat": 38.84686633333333, "fusion_lat": 0.0, "is_reserved": 0, "is_disabled": 0, "type": "electric_scooter", "name": "a0ecf4ad5e3ab7e87fe8c65e6dcf3fd4", "lon": -76.96853816666666, "fusion_lon": 0.0, "rental_uris": {"android": "https://dc.lft.to/lastmile_qr_scan", "ios": "https://dc.lft.to/lastmile_qr_scan"}, "bike_id": "a0ecf4ad5e3ab7e87fe8c65e6dcf3fd4"}, {"lat": 38.904903166666664, "fusion_lat": 0.0, "is_reserved": 0, "is_disabled": 0, "type": "electric_scooter", "name": "c249f1c9b787853ebdadb64e2cec1489", "lon": -77.00899133333333, "fusion_lon": 0.0, "rental_uris": {"android": "https://dc.lft.to/lastmile_qr_scan", "ios": "https://dc.lft.to/lastmile_qr_scan"}, "bike_id": "c249f1c9b787853ebdadb64e2cec1489"}, {"lat": 38.9088755, "fusion_lat": 0.0, "is_reserved": 0, "is_disabled": 0, "type": "electric_scooter", "name": "34232c74b3613808a05949a155616e08", "lon": -77.03391483333333, "fusion_lon": 0.0, "rental_uris": {"android": "https://dc.lft.to/lastmile_qr_scan", "ios": "https://dc.lft.to/lastmile_qr_scan"}, "bike_id": "34232c74b3613808a05949a155616e08"}, {"lat": 38.9212695, "fusion_lat": 0.0, "is_reserved": 0, "is_disabled": 0, "type": "electric_scooter", "name": "5f175ba6df90b03a696d2569088d725f", "lon": -77.01795466666667, "fusion_lon": 0.0, "rental_uris": {"android": "https://dc.lft.to/lastmile_qr_scan", "ios": "https://dc.lft.to/lastmile_qr_scan"}, "bike_id": "5f175ba6df90b03a696d2569088d725f"}, {"lat": 38.924138, "fusion_lat": 0.0, "is_reserved": 0, "is_disabled": 0, "type": "electric_scooter", "name": "7ec5b5d73ccb3fe80dd000c5f3c9932b", "lon": -77.020095, "fusion_lon": 0.0, "rental_uris": {"android": "https://dc.lft.to/lastmile_qr_scan", "ios": "https://dc.lft.to/lastmile_qr_scan"}, "bike_id": "7ec5b5d73ccb3fe80dd000c5f3c9932b"}, {"lat": 38.892786666666666, "fusion_lat": 0.0, "is_reserved": 0, "is_disabled": 0, "type": "electric_scooter", "name": "a179db31789170bb49f42f2dbeee92e6", "lon": -77.05033983333334, "fusion_lon": 0.0, "rental_uris": {"android": "https://dc.lft.to/lastmile_qr_scan", "ios": "https://dc.lft.to/lastmile_qr_scan"}, "bike_id": "a179db31789170bb49f42f2dbeee92e6"}, {"lat": 38.92335083333333, "fusion_lat": 0.0, "is_reserved": 0, "is_disabled": 0, "type": "electric_scooter", "name": "0c08ea70d6ce17f0fe41b163be458a91", "lon": -77.019501, "fusion_lon": 0.0, "rental_uris": {"android": "https://dc.lft.to/lastmile_qr_scan", "ios": "https://dc.lft.to/lastmile_qr_scan"}, "bike_id": "0c08ea70d6ce17f0fe41b163be458a91"}, {"lat": 38.93519766666667, "fusion_lat": 0.0, "is_reserved": 0, "is_disabled": 0, "type": "electric_scooter", "name": "f0b3e63c3308dc0842bd48519c1ed908", "lon": -77.07291183333334, "fusion_lon": 0.0, "rental_uris": {"android": "https://dc.lft.to/lastmile_qr_scan", "ios": "https://dc.lft.to/lastmile_qr_scan"}, "bike_id": "f0b3e63c3308dc0842bd48519c1ed908"}, {"lat": 38.9095995, "fusion_lat": 0.0, "is_reserved": 0, "is_disabled": 0, "type": "electric_scooter", "name": "413fa48e4dc4587e38896cc41d379b0a", "lon": -77.01130933333333, "fusion_lon": 0.0, "rental_uris": {"android": "https://dc.lft.to/lastmile_qr_scan", "ios": "https://dc.lft.to/lastmile_qr_scan"}, "bike_id": "413fa48e4dc4587e38896cc41d379b0a"}, {"lat": 38.90015016666667, "fusion_lat": 0.0, "is_reserved": 0, "is_disabled": 0, "type": "electric_scooter", "name": "e5a4127276928e5fbae559b86cde1621", "lon": -77.0404425, "fusion_lon": 0.0, "rental_uris": {"android": "https://dc.lft.to/lastmile_qr_scan", "ios": "https://dc.lft.to/lastmile_qr_scan"}, "bike_id": "e5a4127276928e5fbae559b86cde1621"}, {"lat": 38.9155125, "fusion_lat": 0.0, "is_reserved": 0, "is_disabled": 0, "type": "electric_scooter", "name": "9c3c9cad73d411aff7f6b79509202d32", "lon": -77.03185283333333, "fusion_lon": 0.0, "rental_uris": {"android": "https://dc.lft.to/lastmile_qr_scan", "ios": "https://dc.lft.to/lastmile_qr_scan"}, "bike_id": "9c3c9cad73d411aff7f6b79509202d32"}, {"lat": 38.934575333333335, "fusion_lat": 0.0, "is_reserved": 0, "is_disabled": 0, "type": "electric_scooter", "name": "ba8a2ef892dfcddd76ecb6632dd80821", "lon": -77.027269, "fusion_lon": 0.0, "rental_uris": {"android": "https://dc.lft.to/lastmile_qr_scan", "ios": "https://dc.lft.to/lastmile_qr_scan"}, "bike_id": "ba8a2ef892dfcddd76ecb6632dd80821"}, {"lat": 38.870400333333336, "fusion_lat": 0.0, "is_reserved": 0, "is_disabled": 0, "type": "electric_scooter", "name": "acf853b26aca61d22c9989ae81e78a26", "lon": -76.98039183333333, "fusion_lon": 0.0, "rental_uris": {"android": "https://dc.lft.to/lastmile_qr_scan", "ios": "https://dc.lft.to/lastmile_qr_scan"}, "bike_id": "acf853b26aca61d22c9989ae81e78a26"}, {"lat": 38.8983675, "fusion_lat": 0.0, "is_reserved": 0, "is_disabled": 0, "type": "electric_scooter", "name": "d06fba2cd40cd6b77924daf501c3e2de", "lon": -77.00747933333334, "fusion_lon": 0.0, "rental_uris": {"android": "https://dc.lft.to/lastmile_qr_scan", "ios": "https://dc.lft.to/lastmile_qr_scan"}, "bike_id": "d06fba2cd40cd6b77924daf501c3e2de"}, {"lat": 38.89198666666667, "fusion_lat": 0.0, "is_reserved": 0, "is_disabled": 0, "type": "electric_scooter", "name": "5a682220b39020377def0ae665d0cb49", "lon": -76.998562, "fusion_lon": 0.0, "rental_uris": {"android": "https://dc.lft.to/lastmile_qr_scan", "ios": "https://dc.lft.to/lastmile_qr_scan"}, "bike_id": "5a682220b39020377def0ae665d0cb49"}, {"lat": 38.9985065, "fusion_lat": 0.0, "is_reserved": 0, "is_disabled": 0, "type": "electric_bike", "name": "97b6887a9c5b995607d8443a80d6c9d1", "lon": -77.00248483333333, "fusion_lon": 0.0, "rental_uris": {"android": "https://dc.lft.to/lastmile_qr_scan", "ios": "https://dc.lft.to/lastmile_qr_scan"}, "bike_id": "97b6887a9c5b995607d8443a80d6c9d1"}, {"lat": 38.89976166666667, "fusion_lat": 0.0, "is_reserved": 0, "is_disabled": 0, "type": "electric_scooter", "name": "075e9231f70a73a3b6a746cb7b53dd58", "lon": -77.02075166666667, "fusion_lon": 0.0, "rental_uris": {"android": "https://dc.lft.to/lastmile_qr_scan", "ios": "https://dc.lft.to/lastmile_qr_scan"}, "bike_id": "075e9231f70a73a3b6a746cb7b53dd58"}, {"lat": 38.905143833333334, "fusion_lat": 0.0, "is_reserved": 0, "is_disabled": 0, "type": "electric_scooter", "name": "a64772da6483f9e12ef1a48848a540b9", "lon": -77.06724166666666, "fusion_lon": 0.0, "rental_uris": {"android": "https://dc.lft.to/lastmile_qr_scan", "ios": "https://dc.lft.to/lastmile_qr_scan"}, "bike_id": "a64772da6483f9e12ef1a48848a540b9"}, {"lat": 38.924843833333334, "fusion_lat": 0.0, "is_reserved": 0, "is_disabled": 0, "type": "electric_scooter", "name": "0d42b50c04ed0ce0f425e24bc8a753fc", "lon": -77.02217516666667, "fusion_lon": 0.0, "rental_uris": {"android": "https://dc.lft.to/lastmile_qr_scan", "ios": "https://dc.lft.to/lastmile_qr_scan"}, "bike_id": "0d42b50c04ed0ce0f425e24bc8a753fc"}, {"lat": 38.92006716666667, "fusion_lat": 0.0, "is_reserved": 0, "is_disabled": 0, "type": "electric_scooter", "name": "dbfced6ec62c7a66d593ee814d850cfc", "lon": -76.984995, "fusion_lon": 0.0, "rental_uris": {"android": "https://dc.lft.to/lastmile_qr_scan", "ios": "https://dc.lft.to/lastmile_qr_scan"}, "bike_id": "dbfced6ec62c7a66d593ee814d850cfc"}, {"lat": 38.919713333333334, "fusion_lat": 0.0, "is_reserved": 0, "is_disabled": 0, "type": "electric_scooter", "name": "16c2b40ba70f8b7073a46ad952dec6be", "lon": -76.99255533333333, "fusion_lon": 0.0, "rental_uris": {"android": "https://dc.lft.to/lastmile_qr_scan", "ios": "https://dc.lft.to/lastmile_qr_scan"}, "bike_id": "16c2b40ba70f8b7073a46ad952dec6be"}, {"lat": 39.042351833333335, "fusion_lat": 0.0, "is_reserved": 0, "is_disabled": 0, "type": "electric_bike", "name": "60df2111ad9e6b09cb1eb990eb4b6a00", "lon": -76.997283, "fusion_lon": 0.0, "rental_uris": {"android": "https://dc.lft.to/lastmile_qr_scan", "ios": "https://dc.lft.to/lastmile_qr_scan"}, "bike_id": "60df2111ad9e6b09cb1eb990eb4b6a00"}, {"lat": 38.9072045, "fusion_lat": 0.0, "is_reserved": 0, "is_disabled": 0, "type": "electric_scooter", "name": "6394cfbcd990a1aa591cd34ef5bb08f1", "lon": -77.02793833333334, "fusion_lon": 0.0, "rental_uris": {"android": "https://dc.lft.to/lastmile_qr_scan", "ios": "https://dc.lft.to/lastmile_qr_scan"}, "bike_id": "6394cfbcd990a1aa591cd34ef5bb08f1"}, {"lat": 38.92064033333333, "fusion_lat": 0.0, "is_reserved": 0, "is_disabled": 0, "type": "electric_scooter", "name": "1406a374c291437baee2bcbb6a3e6109", "lon": -77.04359783333334, "fusion_lon": 0.0, "rental_uris": {"android": "https://dc.lft.to/lastmile_qr_scan", "ios": "https://dc.lft.to/lastmile_qr_scan"}, "bike_id": "1406a374c291437baee2bcbb6a3e6109"}, {"lat": 38.87717516666667, "fusion_lat": 0.0, "is_reserved": 0, "is_disabled": 0, "type": "electric_scooter", "name": "45a37d3bf1cb5477b6faed0b91a054b3", "lon": -77.00673433333333, "fusion_lon": 0.0, "rental_uris": {"android": "https://dc.lft.to/lastmile_qr_scan", "ios": "https://dc.lft.to/lastmile_qr_scan"}, "bike_id": "45a37d3bf1cb5477b6faed0b91a054b3"}, {"lat": 38.91408916666666, "fusion_lat": 0.0, "is_reserved": 0, "is_disabled": 0, "type": "electric_scooter", "name": "32cc29ed69ab61c2f2a0675e8c3593f9", "lon": -77.03998133333333, "fusion_lon": 0.0, "rental_uris": {"android": "https://dc.lft.to/lastmile_qr_scan", "ios": "https://dc.lft.to/lastmile_qr_scan"}, "bike_id": "32cc29ed69ab61c2f2a0675e8c3593f9"}, {"lat": 38.9004035, "fusion_lat": 0.0, "is_reserved": 0, "is_disabled": 0, "type": "electric_scooter", "name": "a3c8c7bb9e79a2451e763fec7eb2aafa", "lon": -77.04326783333333, "fusion_lon": 0.0, "rental_uris": {"android": "https://dc.lft.to/lastmile_qr_scan", "ios": "https://dc.lft.to/lastmile_qr_scan"}, "bike_id": "a3c8c7bb9e79a2451e763fec7eb2aafa"}, {"lat": 38.92790183333334, "fusion_lat": 0.0, "is_reserved": 0, "is_disabled": 0, "type": "electric_scooter", "name": "71839a61f40073e94487f8fb2700bb46", "lon": -77.0559045, "fusion_lon": 0.0, "rental_uris": {"android": "https://dc.lft.to/lastmile_qr_scan", "ios": "https://dc.lft.to/lastmile_qr_scan"}, "bike_id": "71839a61f40073e94487f8fb2700bb46"}, {"lat": 38.898196166666665, "fusion_lat": 0.0, "is_reserved": 0, "is_disabled": 0, "type": "electric_scooter", "name": "4310f5b90f3389dbe690cc3486bf0d18", "lon": -77.02969166666666, "fusion_lon": 0.0, "rental_uris": {"android": "https://dc.lft.to/lastmile_qr_scan", "ios": "https://dc.lft.to/lastmile_qr_scan"}, "bike_id": "4310f5b90f3389dbe690cc3486bf0d18"}, {"lat": 38.9052695, "fusion_lat": 0.0, "is_reserved": 0, "is_disabled": 0, "type": "electric_scooter", "name": "c672173a11555104956edbfcf59a0617", "lon": -77.04175033333334, "fusion_lon": 0.0, "rental_uris": {"android": "https://dc.lft.to/lastmile_qr_scan", "ios": "https://dc.lft.to/lastmile_qr_scan"}, "bike_id": "c672173a11555104956edbfcf59a0617"}, {"lat": 38.936055, "fusion_lat": 0.0, "is_reserved": 0, "is_disabled": 0, "type": "electric_scooter", "name": "e97789e104e6d23cfc5d4bb1e773ddfc", "lon": -77.03869583333334, "fusion_lon": 0.0, "rental_uris": {"android": "https://dc.lft.to/lastmile_qr_scan", "ios": "https://dc.lft.to/lastmile_qr_scan"}, "bike_id": "e97789e104e6d23cfc5d4bb1e773ddfc"}, {"lat": 38.91908466666667, "fusion_lat": 0.0, "is_reserved": 0, "is_disabled": 0, "type": "electric_bike", "name": "ba92792e8fdc2449d404553a11fb2d03", "lon": -77.10185866666667, "fusion_lon": 0.0, "rental_uris": {"android": "https://dc.lft.to/lastmile_qr_scan", "ios": "https://dc.lft.to/lastmile_qr_scan"}, "bike_id": "ba92792e8fdc2449d404553a11fb2d03"}, {"lat": 38.90636166666667, "fusion_lat": 0.0, "is_reserved": 0, "is_disabled": 0, "type": "electric_scooter", "name": "d814a463766c12138aaf9d7cbc11af2a", "lon": -77.024644, "fusion_lon": 0.0, "rental_uris": {"android": "https://dc.lft.to/lastmile_qr_scan", "ios": "https://dc.lft.to/lastmile_qr_scan"}, "bike_id": "d814a463766c12138aaf9d7cbc11af2a"}, {"lat": 38.92415066666667, "fusion_lat": 0.0, "is_reserved": 0, "is_disabled": 0, "type": "electric_scooter", "name": "7a8b4a29f4eb5fffd5b1e209ba66b393", "lon": -77.0212885, "fusion_lon": 0.0, "rental_uris": {"android": "https://dc.lft.to/lastmile_qr_scan", "ios": "https://dc.lft.to/lastmile_qr_scan"}, "bike_id": "7a8b4a29f4eb5fffd5b1e209ba66b393"}, {"lat": 38.907797333333335, "fusion_lat": 0.0, "is_reserved": 0, "is_disabled": 0, "type": "electric_scooter", "name": "3c920a9b20a4fefedb36aaf2dd27cb41", "lon": -77.04661133333333, "fusion_lon": 0.0, "rental_uris": {"android": "https://dc.lft.to/lastmile_qr_scan", "ios": "https://dc.lft.to/lastmile_qr_scan"}, "bike_id": "3c920a9b20a4fefedb36aaf2dd27cb41"}, {"lat": 38.8917745, "fusion_lat": 0.0, "is_reserved": 0, "is_disabled": 0, "type": "electric_scooter", "name": "c2826e34810d6e996d6add0f958736fc", "lon": -77.01573133333333, "fusion_lon": 0.0, "rental_uris": {"android": "https://dc.lft.to/lastmile_qr_scan", "ios": "https://dc.lft.to/lastmile_qr_scan"}, "bike_id": "c2826e34810d6e996d6add0f958736fc"}, {"lat": 38.8983145, "fusion_lat": 0.0, "is_reserved": 0, "is_disabled": 0, "type": "electric_scooter", "name": "e7a473a2a6081547e05589d4c71ebf13", "lon": -77.0281505, "fusion_lon": 0.0, "rental_uris": {"android": "https://dc.lft.to/lastmile_qr_scan", "ios": "https://dc.lft.to/lastmile_qr_scan"}, "bike_id": "e7a473a2a6081547e05589d4c71ebf13"}, {"lat": 38.884061333333335, "fusion_lat": 0.0, "is_reserved": 0, "is_disabled": 0, "type": "electric_scooter", "name": "92d2f733353c1799858aa361f68205dc", "lon": -77.01780716666667, "fusion_lon": 0.0, "rental_uris": {"android": "https://dc.lft.to/lastmile_qr_scan", "ios": "https://dc.lft.to/lastmile_qr_scan"}, "bike_id": "92d2f733353c1799858aa361f68205dc"}, {"lat": 38.90511383333333, "fusion_lat": 0.0, "is_reserved": 0, "is_disabled": 0, "type": "electric_scooter", "name": "fffaf37dc904a89944af4e3e971b83a2", "lon": -77.070141, "fusion_lon": 0.0, "rental_uris": {"android": "https://dc.lft.to/lastmile_qr_scan", "ios": "https://dc.lft.to/lastmile_qr_scan"}, "bike_id": "fffaf37dc904a89944af4e3e971b83a2"}, {"lat": 38.83583516666667, "fusion_lat": 0.0, "is_reserved": 0, "is_disabled": 0, "type": "electric_bike", "name": "5472bbeaf06aaaa65061488083638254", "lon": -76.99026933333333, "fusion_lon": 0.0, "rental_uris": {"android": "https://dc.lft.to/lastmile_qr_scan", "ios": "https://dc.lft.to/lastmile_qr_scan"}, "bike_id": "5472bbeaf06aaaa65061488083638254"}, {"lat": 38.905102666666664, "fusion_lat": 0.0, "is_reserved": 0, "is_disabled": 0, "type": "electric_scooter", "name": "4e095c5fd657b9843691f3de6950c1a8", "lon": -77.00220716666666, "fusion_lon": 0.0, "rental_uris": {"android": "https://dc.lft.to/lastmile_qr_scan", "ios": "https://dc.lft.to/lastmile_qr_scan"}, "bike_id": "4e095c5fd657b9843691f3de6950c1a8"}, {"lat": 38.896638833333334, "fusion_lat": 0.0, "is_reserved": 0, "is_disabled": 0, "type": "electric_scooter", "name": "ffb07fee572607db90d0f298afe7a602", "lon": -77.02735366666667, "fusion_lon": 0.0, "rental_uris": {"android": "https://dc.lft.to/lastmile_qr_scan", "ios": "https://dc.lft.to/lastmile_qr_scan"}, "bike_id": "ffb07fee572607db90d0f298afe7a602"}, {"lat": 38.916177166666664, "fusion_lat": 0.0, "is_reserved": 0, "is_disabled": 0, "type": "electric_scooter", "name": "10506d0a3c85f228de7367124171c8a6", "lon": -77.04864183333333, "fusion_lon": 0.0, "rental_uris": {"android": "https://dc.lft.to/lastmile_qr_scan", "ios": "https://dc.lft.to/lastmile_qr_scan"}, "bike_id": "10506d0a3c85f228de7367124171c8a6"}, {"lat": 38.9109075, "fusion_lat": 0.0, "is_reserved": 0, "is_disabled": 0, "type": "electric_scooter", "name": "b34e4cfe9379747103d7cbfb4241e589", "lon": -77.032089, "fusion_lon": 0.0, "rental_uris": {"android": "https://dc.lft.to/lastmile_qr_scan", "ios": "https://dc.lft.to/lastmile_qr_scan"}, "bike_id": "b34e4cfe9379747103d7cbfb4241e589"}, {"lat": 38.905802333333334, "fusion_lat": 0.0, "is_reserved": 0, "is_disabled": 0, "type": "electric_scooter", "name": "e9aa4d6ab481cdc20be48d3ade313dff", "lon": -77.04358816666667, "fusion_lon": 0.0, "rental_uris": {"android": "https://dc.lft.to/lastmile_qr_scan", "ios": "https://dc.lft.to/lastmile_qr_scan"}, "bike_id": "e9aa4d6ab481cdc20be48d3ade313dff"}, {"lat": 38.8923165, "fusion_lat": 0.0, "is_reserved": 0, "is_disabled": 0, "type": "electric_scooter", "name": "2cc408a7b4c95c932e4f4f1340f41aee", "lon": -77.0500475, "fusion_lon": 0.0, "rental_uris": {"android": "https://dc.lft.to/lastmile_qr_scan", "ios": "https://dc.lft.to/lastmile_qr_scan"}, "bike_id": "2cc408a7b4c95c932e4f4f1340f41aee"}, {"lat": 38.894803833333334, "fusion_lat": 0.0, "is_reserved": 0, "is_disabled": 0, "type": "electric_scooter", "name": "1a25d4ecbc0aa9908b8462eeccf89767", "lon": -77.04182866666666, "fusion_lon": 0.0, "rental_uris": {"android": "https://dc.lft.to/lastmile_qr_scan", "ios": "https://dc.lft.to/lastmile_qr_scan"}, "bike_id": "1a25d4ecbc0aa9908b8462eeccf89767"}, {"lat": 38.92335966666667, "fusion_lat": 0.0, "is_reserved": 0, "is_disabled": 0, "type": "electric_scooter", "name": "b88dbb49e912296376ee640fc9f47506", "lon": -77.05670383333333, "fusion_lon": 0.0, "rental_uris": {"android": "https://dc.lft.to/lastmile_qr_scan", "ios": "https://dc.lft.to/lastmile_qr_scan"}, "bike_id": "b88dbb49e912296376ee640fc9f47506"}, {"lat": 38.9274615, "fusion_lat": 0.0, "is_reserved": 0, "is_disabled": 0, "type": "electric_scooter", "name": "7d7784927734e12fe1248cecb2200fa3", "lon": -77.03631883333334, "fusion_lon": 0.0, "rental_uris": {"android": "https://dc.lft.to/lastmile_qr_scan", "ios": "https://dc.lft.to/lastmile_qr_scan"}, "bike_id": "7d7784927734e12fe1248cecb2200fa3"}, {"lat": 38.94440383333333, "fusion_lat": 0.0, "is_reserved": 0, "is_disabled": 0, "type": "electric_scooter", "name": "e2574b74e3b63bdf3337526bfff08c0a", "lon": -77.06351, "fusion_lon": 0.0, "rental_uris": {"android": "https://dc.lft.to/lastmile_qr_scan", "ios": "https://dc.lft.to/lastmile_qr_scan"}, "bike_id": "e2574b74e3b63bdf3337526bfff08c0a"}, {"lat": 38.855625833333335, "fusion_lat": 0.0, "is_reserved": 0, "is_disabled": 0, "type": "electric_bike", "name": "70ba239a1b7550e7177ff771e5118f70", "lon": -77.0633035, "fusion_lon": 0.0, "rental_uris": {"android": "https://dc.lft.to/lastmile_qr_scan", "ios": "https://dc.lft.to/lastmile_qr_scan"}, "bike_id": "70ba239a1b7550e7177ff771e5118f70"}, {"lat": 38.92708483333333, "fusion_lat": 0.0, "is_reserved": 0, "is_disabled": 0, "type": "electric_scooter", "name": "443c1554cd81813bf73273da1653f462", "lon": -77.03818266666667, "fusion_lon": 0.0, "rental_uris": {"android": "https://dc.lft.to/lastmile_qr_scan", "ios": "https://dc.lft.to/lastmile_qr_scan"}, "bike_id": "443c1554cd81813bf73273da1653f462"}, {"lat": 38.91809633333333, "fusion_lat": 0.0, "is_reserved": 0, "is_disabled": 0, "type": "electric_scooter", "name": "152efe76e0749d20554c8ae69ed8bea6", "lon": -77.03439666666667, "fusion_lon": 0.0, "rental_uris": {"android": "https://dc.lft.to/lastmile_qr_scan", "ios": "https://dc.lft.to/lastmile_qr_scan"}, "bike_id": "152efe76e0749d20554c8ae69ed8bea6"}, {"lat": 38.983663666666665, "fusion_lat": 0.0, "is_reserved": 0, "is_disabled": 0, "type": "electric_bike", "name": "01dc6cde15612decca79285635965253", "lon": -76.98851133333334, "fusion_lon": 0.0, "rental_uris": {"android": "https://dc.lft.to/lastmile_qr_scan", "ios": "https://dc.lft.to/lastmile_qr_scan"}, "bike_id": "01dc6cde15612decca79285635965253"}, {"lat": 38.84397516666667, "fusion_lat": 0.0, "is_reserved": 0, "is_disabled": 0, "type": "electric_scooter", "name": "d186c5ec122d4d0e3812fce108299025", "lon": -76.99529666666666, "fusion_lon": 0.0, "rental_uris": {"android": "https://dc.lft.to/lastmile_qr_scan", "ios": "https://dc.lft.to/lastmile_qr_scan"}, "bike_id": "d186c5ec122d4d0e3812fce108299025"}, {"lat": 38.887723666666666, "fusion_lat": 0.0, "is_reserved": 0, "is_disabled": 0, "type": "electric_scooter", "name": "0b0dcf275c491a940992191fe1e0c253", "lon": -76.93260766666667, "fusion_lon": 0.0, "rental_uris": {"android": "https://dc.lft.to/lastmile_qr_scan", "ios": "https://dc.lft.to/lastmile_qr_scan"}, "bike_id": "0b0dcf275c491a940992191fe1e0c253"}, {"lat": 38.90746333333333, "fusion_lat": 0.0, "is_reserved": 0, "is_disabled": 0, "type": "electric_scooter", "name": "1a1f45d51110e3fc43d073820ac760fd", "lon": -77.04487966666667, "fusion_lon": 0.0, "rental_uris": {"android": "https://dc.lft.to/lastmile_qr_scan", "ios": "https://dc.lft.to/lastmile_qr_scan"}, "bike_id": "1a1f45d51110e3fc43d073820ac760fd"}, {"lat": 38.88387433333333, "fusion_lat": 0.0, "is_reserved": 0, "is_disabled": 0, "type": "electric_scooter", "name": "c5001c6587826efc9045bb64dcdc6c16", "lon": -76.93043833333333, "fusion_lon": 0.0, "rental_uris": {"android": "https://dc.lft.to/lastmile_qr_scan", "ios": "https://dc.lft.to/lastmile_qr_scan"}, "bike_id": "c5001c6587826efc9045bb64dcdc6c16"}, {"lat": 38.92446483333333, "fusion_lat": 0.0, "is_reserved": 0, "is_disabled": 0, "type": "electric_scooter", "name": "5adb6eca4c91615ffc2538dd5aeee0a8", "lon": -77.0215435, "fusion_lon": 0.0, "rental_uris": {"android": "https://dc.lft.to/lastmile_qr_scan", "ios": "https://dc.lft.to/lastmile_qr_scan"}, "bike_id": "5adb6eca4c91615ffc2538dd5aeee0a8"}, {"lat": 38.906113833333336, "fusion_lat": 0.0, "is_reserved": 0, "is_disabled": 0, "type": "electric_scooter", "name": "03fcdb7f1db6d14b6f2c3e11554f62c3", "lon": -76.977994, "fusion_lon": 0.0, "rental_uris": {"android": "https://dc.lft.to/lastmile_qr_scan", "ios": "https://dc.lft.to/lastmile_qr_scan"}, "bike_id": "03fcdb7f1db6d14b6f2c3e11554f62c3"}, {"lat": 38.909735833333336, "fusion_lat": 0.0, "is_reserved": 0, "is_disabled": 0, "type": "electric_scooter", "name": "54f6d7269939576800399f7c1b91f2a9", "lon": -77.02412066666666, "fusion_lon": 0.0, "rental_uris": {"android": "https://dc.lft.to/lastmile_qr_scan", "ios": "https://dc.lft.to/lastmile_qr_scan"}, "bike_id": "54f6d7269939576800399f7c1b91f2a9"}, {"lat": 38.924767833333334, "fusion_lat": 0.0, "is_reserved": 0, "is_disabled": 0, "type": "electric_scooter", "name": "6925d6f428dbd11e3cecc6ba6088913f", "lon": -77.02214283333333, "fusion_lon": 0.0, "rental_uris": {"android": "https://dc.lft.to/lastmile_qr_scan", "ios": "https://dc.lft.to/lastmile_qr_scan"}, "bike_id": "6925d6f428dbd11e3cecc6ba6088913f"}, {"lat": 38.90590133333333, "fusion_lat": 0.0, "is_reserved": 0, "is_disabled": 0, "type": "electric_scooter", "name": "9f3361d45bd1c2f54af847145581cfe2", "lon": -77.002731, "fusion_lon": 0.0, "rental_uris": {"android": "https://dc.lft.to/lastmile_qr_scan", "ios": "https://dc.lft.to/lastmile_qr_scan"}, "bike_id": "9f3361d45bd1c2f54af847145581cfe2"}, {"lat": 38.905870166666666, "fusion_lat": 0.0, "is_reserved": 0, "is_disabled": 0, "type": "electric_scooter", "name": "d298a43c087ab58e535cbd805a0d579a", "lon": -77.0218355, "fusion_lon": 0.0, "rental_uris": {"android": "https://dc.lft.to/lastmile_qr_scan", "ios": "https://dc.lft.to/lastmile_qr_scan"}, "bike_id": "d298a43c087ab58e535cbd805a0d579a"}, {"lat": 38.85898316666667, "fusion_lat": 0.0, "is_reserved": 0, "is_disabled": 0, "type": "electric_bike", "name": "60ff632d88f4fba32470dd5618bc8aff", "lon": -77.09556533333334, "fusion_lon": 0.0, "rental_uris": {"android": "https://dc.lft.to/lastmile_qr_scan", "ios": "https://dc.lft.to/lastmile_qr_scan"}, "bike_id": "60ff632d88f4fba32470dd5618bc8aff"}, {"lat": 38.903591, "fusion_lat": 0.0, "is_reserved": 0, "is_disabled": 0, "type": "electric_scooter", "name": "0d908130d4a65c237a1fa31d0663d7d1", "lon": -77.03781, "fusion_lon": 0.0, "rental_uris": {"android": "https://dc.lft.to/lastmile_qr_scan", "ios": "https://dc.lft.to/lastmile_qr_scan"}, "bike_id": "0d908130d4a65c237a1fa31d0663d7d1"}, {"lat": 38.95708883333333, "fusion_lat": 0.0, "is_reserved": 0, "is_disabled": 0, "type": "electric_bike", "name": "2f7c11e938bca96545f727bfc4b25c78", "lon": -77.35975766666667, "fusion_lon": 0.0, "rental_uris": {"android": "https://dc.lft.to/lastmile_qr_scan", "ios": "https://dc.lft.to/lastmile_qr_scan"}, "bike_id": "2f7c11e938bca96545f727bfc4b25c78"}, {"lat": 39.08434033333333, "fusion_lat": 0.0, "is_reserved": 0, "is_disabled": 0, "type": "electric_bike", "name": "612e71b04a5de1838e42fb8df550e51b", "lon": -76.951433, "fusion_lon": 0.0, "rental_uris": {"android": "https://dc.lft.to/lastmile_qr_scan", "ios": "https://dc.lft.to/lastmile_qr_scan"}, "bike_id": "612e71b04a5de1838e42fb8df550e51b"}, {"lat": 38.8973205, "fusion_lat": 0.0, "is_reserved": 0, "is_disabled": 0, "type": "electric_scooter", "name": "144ce3b9023132eadd201fd934f86e50", "lon": -77.02215466666667, "fusion_lon": 0.0, "rental_uris": {"android": "https://dc.lft.to/lastmile_qr_scan", "ios": "https://dc.lft.to/lastmile_qr_scan"}, "bike_id": "144ce3b9023132eadd201fd934f86e50"}, {"lat": 38.908612833333336, "fusion_lat": 0.0, "is_reserved": 0, "is_disabled": 0, "type": "electric_scooter", "name": "50db1ec05483f5393de2b7e2989340c1", "lon": -77.04061866666666, "fusion_lon": 0.0, "rental_uris": {"android": "https://dc.lft.to/lastmile_qr_scan", "ios": "https://dc.lft.to/lastmile_qr_scan"}, "bike_id": "50db1ec05483f5393de2b7e2989340c1"}, {"lat": 38.878266333333336, "fusion_lat": 0.0, "is_reserved": 0, "is_disabled": 0, "type": "electric_scooter", "name": "d8fbf02c7bb6bcbc77e847aa6c983d14", "lon": -77.005705, "fusion_lon": 0.0, "rental_uris": {"android": "https://dc.lft.to/lastmile_qr_scan", "ios": "https://dc.lft.to/lastmile_qr_scan"}, "bike_id": "d8fbf02c7bb6bcbc77e847aa6c983d14"}, {"lat": 38.922037833333334, "fusion_lat": 0.0, "is_reserved": 0, "is_disabled": 0, "type": "electric_scooter", "name": "75ca1f54c594d843a55c60d8411c3dac", "lon": -77.0203445, "fusion_lon": 0.0, "rental_uris": {"android": "https://dc.lft.to/lastmile_qr_scan", "ios": "https://dc.lft.to/lastmile_qr_scan"}, "bike_id": "75ca1f54c594d843a55c60d8411c3dac"}, {"lat": 38.92384333333333, "fusion_lat": 0.0, "is_reserved": 0, "is_disabled": 0, "type": "electric_scooter", "name": "3b423e166d47a43919c8eb118477810c", "lon": -77.04075866666666, "fusion_lon": 0.0, "rental_uris": {"android": "https://dc.lft.to/lastmile_qr_scan", "ios": "https://dc.lft.to/lastmile_qr_scan"}, "bike_id": "3b423e166d47a43919c8eb118477810c"}, {"lat": 38.9140565, "fusion_lat": 0.0, "is_reserved": 0, "is_disabled": 0, "type": "electric_scooter", "name": "5bc59974f9571496e98a1b20e5200063", "lon": -77.04886283333333, "fusion_lon": 0.0, "rental_uris": {"android": "https://dc.lft.to/lastmile_qr_scan", "ios": "https://dc.lft.to/lastmile_qr_scan"}, "bike_id": "5bc59974f9571496e98a1b20e5200063"}, {"lat": 38.9235455, "fusion_lat": 0.0, "is_reserved": 0, "is_disabled": 0, "type": "electric_scooter", "name": "a5b368c66f0f21202568af115248d30b", "lon": -77.04151666666667, "fusion_lon": 0.0, "rental_uris": {"android": "https://dc.lft.to/lastmile_qr_scan", "ios": "https://dc.lft.to/lastmile_qr_scan"}, "bike_id": "a5b368c66f0f21202568af115248d30b"}, {"lat": 38.89515633333333, "fusion_lat": 0.0, "is_reserved": 0, "is_disabled": 0, "type": "electric_scooter", "name": "68b26a415f25604239517389bccd85fe", "lon": -76.977322, "fusion_lon": 0.0, "rental_uris": {"android": "https://dc.lft.to/lastmile_qr_scan", "ios": "https://dc.lft.to/lastmile_qr_scan"}, "bike_id": "68b26a415f25604239517389bccd85fe"}, {"lat": 38.97479033333333, "fusion_lat": 0.0, "is_reserved": 0, "is_disabled": 0, "type": "electric_scooter", "name": "78a005b45b18fd25878915a350156e98", "lon": -77.01488383333333, "fusion_lon": 0.0, "rental_uris": {"android": "https://dc.lft.to/lastmile_qr_scan", "ios": "https://dc.lft.to/lastmile_qr_scan"}, "bike_id": "78a005b45b18fd25878915a350156e98"}, {"lat": 38.90681166666667, "fusion_lat": 0.0, "is_reserved": 0, "is_disabled": 0, "type": "electric_scooter", "name": "63cb5bbd64104d9ee6007451f409ea35", "lon": -77.027143, "fusion_lon": 0.0, "rental_uris": {"android": "https://dc.lft.to/lastmile_qr_scan", "ios": "https://dc.lft.to/lastmile_qr_scan"}, "bike_id": "63cb5bbd64104d9ee6007451f409ea35"}, {"lat": 38.91623516666667, "fusion_lat": 0.0, "is_reserved": 0, "is_disabled": 0, "type": "electric_scooter", "name": "43f54183a6bd0738d5764e3493e5198c", "lon": -77.05066916666667, "fusion_lon": 0.0, "rental_uris": {"android": "https://dc.lft.to/lastmile_qr_scan", "ios": "https://dc.lft.to/lastmile_qr_scan"}, "bike_id": "43f54183a6bd0738d5764e3493e5198c"}, {"lat": 38.896627333333335, "fusion_lat": 0.0, "is_reserved": 0, "is_disabled": 0, "type": "electric_scooter", "name": "86012e45e88bcd2c0281aafc74f0fb85", "lon": -77.02738433333333, "fusion_lon": 0.0, "rental_uris": {"android": "https://dc.lft.to/lastmile_qr_scan", "ios": "https://dc.lft.to/lastmile_qr_scan"}, "bike_id": "86012e45e88bcd2c0281aafc74f0fb85"}, {"lat": 38.91271116666667, "fusion_lat": 0.0, "is_reserved": 0, "is_disabled": 0, "type": "electric_scooter", "name": "d083678e1401a3bc4807d094ed0cc747", "lon": -77.022287, "fusion_lon": 0.0, "rental_uris": {"android": "https://dc.lft.to/lastmile_qr_scan", "ios": "https://dc.lft.to/lastmile_qr_scan"}, "bike_id": "d083678e1401a3bc4807d094ed0cc747"}, {"lat": 38.91879616666667, "fusion_lat": 0.0, "is_reserved": 0, "is_disabled": 0, "type": "electric_scooter", "name": "7857ed6f860e321eefacbad030fcc8d8", "lon": -77.04453466666666, "fusion_lon": 0.0, "rental_uris": {"android": "https://dc.lft.to/lastmile_qr_scan", "ios": "https://dc.lft.to/lastmile_qr_scan"}, "bike_id": "7857ed6f860e321eefacbad030fcc8d8"}, {"lat": 38.87340583333334, "fusion_lat": 0.0, "is_reserved": 0, "is_disabled": 0, "type": "electric_scooter", "name": "55b116357f30b6b6fbfea710fe2f25ac", "lon": -76.9916615, "fusion_lon": 0.0, "rental_uris": {"android": "https://dc.lft.to/lastmile_qr_scan", "ios": "https://dc.lft.to/lastmile_qr_scan"}, "bike_id": "55b116357f30b6b6fbfea710fe2f25ac"}, {"lat": 38.906668333333336, "fusion_lat": 0.0, "is_reserved": 0, "is_disabled": 0, "type": "electric_scooter", "name": "38e164ad12d9354659736226ed23c6b0", "lon": -77.02696366666666, "fusion_lon": 0.0, "rental_uris": {"android": "https://dc.lft.to/lastmile_qr_scan", "ios": "https://dc.lft.to/lastmile_qr_scan"}, "bike_id": "38e164ad12d9354659736226ed23c6b0"}, {"lat": 38.89608416666667, "fusion_lat": 0.0, "is_reserved": 0, "is_disabled": 0, "type": "electric_scooter", "name": "fcbeef7095ae0c29809306e7a9f33086", "lon": -77.04400533333333, "fusion_lon": 0.0, "rental_uris": {"android": "https://dc.lft.to/lastmile_qr_scan", "ios": "https://dc.lft.to/lastmile_qr_scan"}, "bike_id": "fcbeef7095ae0c29809306e7a9f33086"}, {"lat": 38.908642, "fusion_lat": 0.0, "is_reserved": 0, "is_disabled": 0, "type": "electric_scooter", "name": "a41a3ba0528ec7e03e48e6d7c404a34e", "lon": -77.00359416666667, "fusion_lon": 0.0, "rental_uris": {"android": "https://dc.lft.to/lastmile_qr_scan", "ios": "https://dc.lft.to/lastmile_qr_scan"}, "bike_id": "a41a3ba0528ec7e03e48e6d7c404a34e"}, {"lat": 38.884950333333336, "fusion_lat": 0.0, "is_reserved": 0, "is_disabled": 0, "type": "electric_scooter", "name": "31638502ebf628f6299832da68f84681", "lon": -77.00714783333333, "fusion_lon": 0.0, "rental_uris": {"android": "https://dc.lft.to/lastmile_qr_scan", "ios": "https://dc.lft.to/lastmile_qr_scan"}, "bike_id": "31638502ebf628f6299832da68f84681"}, {"lat": 38.89195866666667, "fusion_lat": 0.0, "is_reserved": 0, "is_disabled": 0, "type": "electric_scooter", "name": "80dbf8b7535720a8b350260375075243", "lon": -77.02229566666666, "fusion_lon": 0.0, "rental_uris": {"android": "https://dc.lft.to/lastmile_qr_scan", "ios": "https://dc.lft.to/lastmile_qr_scan"}, "bike_id": "80dbf8b7535720a8b350260375075243"}, {"lat": 38.92757016666667, "fusion_lat": 0.0, "is_reserved": 0, "is_disabled": 0, "type": "electric_scooter", "name": "01b649912b9a4464d243c635707091d3", "lon": -77.00548366666666, "fusion_lon": 0.0, "rental_uris": {"android": "https://dc.lft.to/lastmile_qr_scan", "ios": "https://dc.lft.to/lastmile_qr_scan"}, "bike_id": "01b649912b9a4464d243c635707091d3"}, {"lat": 38.87650433333334, "fusion_lat": 0.0, "is_reserved": 0, "is_disabled": 0, "type": "electric_scooter", "name": "d9688608ab780bb7eea89d5bf30293a6", "lon": -77.00752316666667, "fusion_lon": 0.0, "rental_uris": {"android": "https://dc.lft.to/lastmile_qr_scan", "ios": "https://dc.lft.to/lastmile_qr_scan"}, "bike_id": "d9688608ab780bb7eea89d5bf30293a6"}, {"lat": 38.8820095, "fusion_lat": 0.0, "is_reserved": 0, "is_disabled": 0, "type": "electric_scooter", "name": "3e1cb8175516fbcca94612bffe1eea90", "lon": -77.028565, "fusion_lon": 0.0, "rental_uris": {"android": "https://dc.lft.to/lastmile_qr_scan", "ios": "https://dc.lft.to/lastmile_qr_scan"}, "bike_id": "3e1cb8175516fbcca94612bffe1eea90"}, {"lat": 38.941940333333335, "fusion_lat": 0.0, "is_reserved": 0, "is_disabled": 0, "type": "electric_scooter", "name": "9f3b0b787637b1807474da3ff113c635", "lon": -77.02851566666666, "fusion_lon": 0.0, "rental_uris": {"android": "https://dc.lft.to/lastmile_qr_scan", "ios": "https://dc.lft.to/lastmile_qr_scan"}, "bike_id": "9f3b0b787637b1807474da3ff113c635"}, {"lat": 38.8824885, "fusion_lat": 0.0, "is_reserved": 0, "is_disabled": 0, "type": "electric_bike", "name": "1a10c2abae59e2aa3544a4aa0be6106c", "lon": -76.9625505, "fusion_lon": 0.0, "rental_uris": {"android": "https://dc.lft.to/lastmile_qr_scan", "ios": "https://dc.lft.to/lastmile_qr_scan"}, "bike_id": "1a10c2abae59e2aa3544a4aa0be6106c"}, {"lat": 38.90061933333333, "fusion_lat": 0.0, "is_reserved": 0, "is_disabled": 0, "type": "electric_scooter", "name": "c6e1a2c665a76a4b7dbcdffaf5a71995", "lon": -77.00740566666667, "fusion_lon": 0.0, "rental_uris": {"android": "https://dc.lft.to/lastmile_qr_scan", "ios": "https://dc.lft.to/lastmile_qr_scan"}, "bike_id": "c6e1a2c665a76a4b7dbcdffaf5a71995"}, {"lat": 38.89607733333333, "fusion_lat": 0.0, "is_reserved": 0, "is_disabled": 0, "type": "electric_scooter", "name": "fe0366317f785c0593f0695ff24adcd7", "lon": -77.02812866666666, "fusion_lon": 0.0, "rental_uris": {"android": "https://dc.lft.to/lastmile_qr_scan", "ios": "https://dc.lft.to/lastmile_qr_scan"}, "bike_id": "fe0366317f785c0593f0695ff24adcd7"}, {"lat": 38.9057055, "fusion_lat": 0.0, "is_reserved": 0, "is_disabled": 0, "type": "electric_scooter", "name": "874be921c29da6cffb36c9b61d34927c", "lon": -77.03296783333333, "fusion_lon": 0.0, "rental_uris": {"android": "https://dc.lft.to/lastmile_qr_scan", "ios": "https://dc.lft.to/lastmile_qr_scan"}, "bike_id": "874be921c29da6cffb36c9b61d34927c"}, {"lat": 38.8808265, "fusion_lat": 0.0, "is_reserved": 0, "is_disabled": 0, "type": "electric_bike", "name": "fd7648192353284ee44ee945c924b523", "lon": -77.0325885, "fusion_lon": 0.0, "rental_uris": {"android": "https://dc.lft.to/lastmile_qr_scan", "ios": "https://dc.lft.to/lastmile_qr_scan"}, "bike_id": "fd7648192353284ee44ee945c924b523"}, {"lat": 38.92363366666667, "fusion_lat": 0.0, "is_reserved": 0, "is_disabled": 0, "type": "electric_scooter", "name": "6a5aff9211b8bb12ec92dc22d6e98785", "lon": -77.0205715, "fusion_lon": 0.0, "rental_uris": {"android": "https://dc.lft.to/lastmile_qr_scan", "ios": "https://dc.lft.to/lastmile_qr_scan"}, "bike_id": "6a5aff9211b8bb12ec92dc22d6e98785"}, {"lat": 38.9008065, "fusion_lat": 0.0, "is_reserved": 0, "is_disabled": 0, "type": "electric_scooter", "name": "4a48369b7d0634dd9e58158d44d33807", "lon": -77.03831383333333, "fusion_lon": 0.0, "rental_uris": {"android": "https://dc.lft.to/lastmile_qr_scan", "ios": "https://dc.lft.to/lastmile_qr_scan"}, "bike_id": "4a48369b7d0634dd9e58158d44d33807"}, {"lat": 38.892205, "fusion_lat": 0.0, "is_reserved": 0, "is_disabled": 0, "type": "electric_scooter", "name": "1ea7ba12639b6af75376fe93ad8f1a97", "lon": -77.023724, "fusion_lon": 0.0, "rental_uris": {"android": "https://dc.lft.to/lastmile_qr_scan", "ios": "https://dc.lft.to/lastmile_qr_scan"}, "bike_id": "1ea7ba12639b6af75376fe93ad8f1a97"}, {"lat": 38.923293666666666, "fusion_lat": 0.0, "is_reserved": 0, "is_disabled": 0, "type": "electric_scooter", "name": "4229902f00dc800c6983732251b5aada", "lon": -77.04313233333333, "fusion_lon": 0.0, "rental_uris": {"android": "https://dc.lft.to/lastmile_qr_scan", "ios": "https://dc.lft.to/lastmile_qr_scan"}, "bike_id": "4229902f00dc800c6983732251b5aada"}, {"lat": 38.8984545, "fusion_lat": 0.0, "is_reserved": 0, "is_disabled": 0, "type": "electric_scooter", "name": "91579975749e861d810f8d8546be1266", "lon": -77.02636066666666, "fusion_lon": 0.0, "rental_uris": {"android": "https://dc.lft.to/lastmile_qr_scan", "ios": "https://dc.lft.to/lastmile_qr_scan"}, "bike_id": "91579975749e861d810f8d8546be1266"}, {"lat": 38.856385, "fusion_lat": 0.0, "is_reserved": 0, "is_disabled": 0, "type": "electric_bike", "name": "a596a363946dec2a7e698c570e191c85", "lon": -77.06834866666667, "fusion_lon": 0.0, "rental_uris": {"android": "https://dc.lft.to/lastmile_qr_scan", "ios": "https://dc.lft.to/lastmile_qr_scan"}, "bike_id": "a596a363946dec2a7e698c570e191c85"}, {"lat": 38.921787333333334, "fusion_lat": 0.0, "is_reserved": 0, "is_disabled": 0, "type": "electric_scooter", "name": "e60b805cd7593c6c554561001424284c", "lon": -77.042262, "fusion_lon": 0.0, "rental_uris": {"android": "https://dc.lft.to/lastmile_qr_scan", "ios": "https://dc.lft.to/lastmile_qr_scan"}, "bike_id": "e60b805cd7593c6c554561001424284c"}, {"lat": 38.9059855, "fusion_lat": 0.0, "is_reserved": 0, "is_disabled": 0, "type": "electric_scooter", "name": "46bc0bac3c46c751ba060ee11e2cf8c4", "lon": -77.07006166666666, "fusion_lon": 0.0, "rental_uris": {"android": "https://dc.lft.to/lastmile_qr_scan", "ios": "https://dc.lft.to/lastmile_qr_scan"}, "bike_id": "46bc0bac3c46c751ba060ee11e2cf8c4"}, {"lat": 38.876447666666664, "fusion_lat": 0.0, "is_reserved": 0, "is_disabled": 0, "type": "electric_scooter", "name": "1796fb51cf55e8b4c48503cabb5138ed", "lon": -77.00762066666667, "fusion_lon": 0.0, "rental_uris": {"android": "https://dc.lft.to/lastmile_qr_scan", "ios": "https://dc.lft.to/lastmile_qr_scan"}, "bike_id": "1796fb51cf55e8b4c48503cabb5138ed"}, {"lat": 38.882207, "fusion_lat": 0.0, "is_reserved": 0, "is_disabled": 0, "type": "electric_scooter", "name": "1d76381ea487bd7229b1ecdecdd1c544", "lon": -76.9973675, "fusion_lon": 0.0, "rental_uris": {"android": "https://dc.lft.to/lastmile_qr_scan", "ios": "https://dc.lft.to/lastmile_qr_scan"}, "bike_id": "1d76381ea487bd7229b1ecdecdd1c544"}, {"lat": 38.8656335, "fusion_lat": 0.0, "is_reserved": 0, "is_disabled": 0, "type": "electric_bike", "name": "f4f68cae6ccdaf1cd9374e63422cba3f", "lon": -76.97476033333334, "fusion_lon": 0.0, "rental_uris": {"android": "https://dc.lft.to/lastmile_qr_scan", "ios": "https://dc.lft.to/lastmile_qr_scan"}, "bike_id": "f4f68cae6ccdaf1cd9374e63422cba3f"}, {"lat": 38.82432216666667, "fusion_lat": 0.0, "is_reserved": 0, "is_disabled": 0, "type": "electric_bike", "name": "a26067d670a7e336758af99963a4cbdc", "lon": -77.120379, "fusion_lon": 0.0, "rental_uris": {"android": "https://dc.lft.to/lastmile_qr_scan", "ios": "https://dc.lft.to/lastmile_qr_scan"}, "bike_id": "a26067d670a7e336758af99963a4cbdc"}, {"lat": 38.882720666666664, "fusion_lat": 0.0, "is_reserved": 0, "is_disabled": 0, "type": "electric_bike", "name": "7d3848fe59a83387ba7355cf2ea15642", "lon": -76.93236, "fusion_lon": 0.0, "rental_uris": {"android": "https://dc.lft.to/lastmile_qr_scan", "ios": "https://dc.lft.to/lastmile_qr_scan"}, "bike_id": "7d3848fe59a83387ba7355cf2ea15642"}, {"lat": 38.92363666666667, "fusion_lat": 0.0, "is_reserved": 0, "is_disabled": 0, "type": "electric_scooter", "name": "a00d069d31b53690ac524fbb48b10984", "lon": -77.05029283333333, "fusion_lon": 0.0, "rental_uris": {"android": "https://dc.lft.to/lastmile_qr_scan", "ios": "https://dc.lft.to/lastmile_qr_scan"}, "bike_id": "a00d069d31b53690ac524fbb48b10984"}, {"lat": 38.924709166666666, "fusion_lat": 0.0, "is_reserved": 0, "is_disabled": 0, "type": "electric_scooter", "name": "417baa482987b1fad89946d242c09c8c", "lon": -77.035347, "fusion_lon": 0.0, "rental_uris": {"android": "https://dc.lft.to/lastmile_qr_scan", "ios": "https://dc.lft.to/lastmile_qr_scan"}, "bike_id": "417baa482987b1fad89946d242c09c8c"}, {"lat": 38.90677133333333, "fusion_lat": 0.0, "is_reserved": 0, "is_disabled": 0, "type": "electric_scooter", "name": "1db2473ab58ab0f0b16ad666a7419624", "lon": -77.05322516666666, "fusion_lon": 0.0, "rental_uris": {"android": "https://dc.lft.to/lastmile_qr_scan", "ios": "https://dc.lft.to/lastmile_qr_scan"}, "bike_id": "1db2473ab58ab0f0b16ad666a7419624"}, {"lat": 38.901801666666664, "fusion_lat": 0.0, "is_reserved": 0, "is_disabled": 0, "type": "electric_scooter", "name": "06fcc97033af490a883a7c80529d5030", "lon": -77.05017366666667, "fusion_lon": 0.0, "rental_uris": {"android": "https://dc.lft.to/lastmile_qr_scan", "ios": "https://dc.lft.to/lastmile_qr_scan"}, "bike_id": "06fcc97033af490a883a7c80529d5030"}, {"lat": 38.94820883333333, "fusion_lat": 0.0, "is_reserved": 0, "is_disabled": 0, "type": "electric_scooter", "name": "25c28e6d510b0166deabf236960a2450", "lon": -77.02544, "fusion_lon": 0.0, "rental_uris": {"android": "https://dc.lft.to/lastmile_qr_scan", "ios": "https://dc.lft.to/lastmile_qr_scan"}, "bike_id": "25c28e6d510b0166deabf236960a2450"}, {"lat": 38.89640133333333, "fusion_lat": 0.0, "is_reserved": 0, "is_disabled": 0, "type": "electric_scooter", "name": "a7a37aae606b53a953498a3110bbbbfb", "lon": -77.00918366666667, "fusion_lon": 0.0, "rental_uris": {"android": "https://dc.lft.to/lastmile_qr_scan", "ios": "https://dc.lft.to/lastmile_qr_scan"}, "bike_id": "a7a37aae606b53a953498a3110bbbbfb"}, {"lat": 38.93865066666667, "fusion_lat": 0.0, "is_reserved": 0, "is_disabled": 0, "type": "electric_scooter", "name": "d096643746b013936341e0b5f421d391", "lon": -77.0304665, "fusion_lon": 0.0, "rental_uris": {"android": "https://dc.lft.to/lastmile_qr_scan", "ios": "https://dc.lft.to/lastmile_qr_scan"}, "bike_id": "d096643746b013936341e0b5f421d391"}, {"lat": 38.929741166666666, "fusion_lat": 0.0, "is_reserved": 0, "is_disabled": 0, "type": "electric_scooter", "name": "a898a2dd8790f12d99c8849df9ddbaba", "lon": -77.02821116666667, "fusion_lon": 0.0, "rental_uris": {"android": "https://dc.lft.to/lastmile_qr_scan", "ios": "https://dc.lft.to/lastmile_qr_scan"}, "bike_id": "a898a2dd8790f12d99c8849df9ddbaba"}, {"lat": 38.852220833333334, "fusion_lat": 0.0, "is_reserved": 0, "is_disabled": 0, "type": "electric_bike", "name": "831b5f42037d3db13d49d90eaca72dfa", "lon": -76.99375283333333, "fusion_lon": 0.0, "rental_uris": {"android": "https://dc.lft.to/lastmile_qr_scan", "ios": "https://dc.lft.to/lastmile_qr_scan"}, "bike_id": "831b5f42037d3db13d49d90eaca72dfa"}, {"lat": 38.905138, "fusion_lat": 0.0, "is_reserved": 0, "is_disabled": 0, "type": "electric_scooter", "name": "369377318f35d5d8bdad7c14de047cc7", "lon": -77.06148683333333, "fusion_lon": 0.0, "rental_uris": {"android": "https://dc.lft.to/lastmile_qr_scan", "ios": "https://dc.lft.to/lastmile_qr_scan"}, "bike_id": "369377318f35d5d8bdad7c14de047cc7"}, {"lat": 38.92729883333333, "fusion_lat": 0.0, "is_reserved": 0, "is_disabled": 0, "type": "electric_scooter", "name": "ea4d836b74acdcb9d4ebf071ec5f032e", "lon": -77.02277, "fusion_lon": 0.0, "rental_uris": {"android": "https://dc.lft.to/lastmile_qr_scan", "ios": "https://dc.lft.to/lastmile_qr_scan"}, "bike_id": "ea4d836b74acdcb9d4ebf071ec5f032e"}, {"lat": 38.9023565, "fusion_lat": 0.0, "is_reserved": 0, "is_disabled": 0, "type": "electric_scooter", "name": "7e426814c8b199b233d4fb4c03e00914", "lon": -77.0611565, "fusion_lon": 0.0, "rental_uris": {"android": "https://dc.lft.to/lastmile_qr_scan", "ios": "https://dc.lft.to/lastmile_qr_scan"}, "bike_id": "7e426814c8b199b233d4fb4c03e00914"}, {"lat": 38.903822166666664, "fusion_lat": 0.0, "is_reserved": 0, "is_disabled": 0, "type": "electric_scooter", "name": "516be9d64aad34d9c1884f9b7a52cac6", "lon": -77.04837866666666, "fusion_lon": 0.0, "rental_uris": {"android": "https://dc.lft.to/lastmile_qr_scan", "ios": "https://dc.lft.to/lastmile_qr_scan"}, "bike_id": "516be9d64aad34d9c1884f9b7a52cac6"}, {"lat": 38.90142633333333, "fusion_lat": 0.0, "is_reserved": 0, "is_disabled": 0, "type": "electric_scooter", "name": "eb848756bec85e0596caf5a9fd61a86a", "lon": -77.039291, "fusion_lon": 0.0, "rental_uris": {"android": "https://dc.lft.to/lastmile_qr_scan", "ios": "https://dc.lft.to/lastmile_qr_scan"}, "bike_id": "eb848756bec85e0596caf5a9fd61a86a"},