{"data": {"bikes": [{"name": "ffff37588af88d9644e331ac106a2217", "fusion_lat": 0.0, "type": "electric_scooter", "lat": 38.91952366666666, "is_reserved": 0, "is_disabled": 0, "fusion_lon": 0.0, "bike_id": "ffff37588af88d9644e331ac106a2217", "lon": -77.02384866666667, "rental_uris": {"ios": "https://dc.lft.to/lastmile_qr_scan", "android": "https://dc.lft.to/lastmile_qr_scan"}}, {"name": "261ec63c9801b6f564bd48d8febbebc2", "fusion_lat": 0.0, "type": "electric_scooter", "lat": 38.914772166666665, "is_reserved": 0, "is_disabled": 0, "fusion_lon": 0.0, "bike_id": "261ec63c9801b6f564bd48d8febbebc2", "lon": -77.04596266666667, "rental_uris": {"ios": "https://dc.lft.to/lastmile_qr_scan", "android": "https://dc.lft.to/lastmile_qr_scan"}}, {"name": "14d6785e6738e5c562fc78a1786b886c", "fusion_lat": 0.0, "type": "electric_scooter", "lat": 38.90970883333333, "is_reserved": 0, "is_disabled": 0, "fusion_lon": 0.0, "bike_id": "14d6785e6738e5c562fc78a1786b886c", "lon": -77.044803, "rental_uris": {"ios": "https://dc.lft.to/lastmile_qr_scan", "android": "https://dc.lft.to/lastmile_qr_scan"}}, {"name": "244e65db5646f6be696fc2b6edf58359", "fusion_lat": 0.0, "type": "electric_scooter", "lat": 38.958366833333336, "is_reserved": 0, "is_disabled": 0, "fusion_lon": 0.0, "bike_id": "244e65db5646f6be696fc2b6edf58359", "lon": -77.02684933333333, "rental_uris": {"ios": "https://dc.lft.to/lastmile_qr_scan", "android": "https://dc.lft.to/lastmile_qr_scan"}}, {"name": "75c383c12f7dea69361cb61c5a8fa985", "fusion_lat": 0.0, "type": "electric_bike", "lat": 38.95482333333333, "is_reserved": 0, "is_disabled": 0, "fusion_lon": 0.0, "bike_id": "75c383c12f7dea69361cb61c5a8fa985", "lon": -77.082377, "rental_uris": {"ios": "https://dc.lft.to/lastmile_qr_scan", "android": "https://dc.lft.to/lastmile_qr_scan"}}, {"name": "4852501733e31de710f20e841be2113d", "fusion_lat": 0.0, "type": "electric_scooter", "lat": 38.904796166666664, "is_reserved": 0, "is_disabled": 0, "fusion_lon": 0.0, "bike_id": "4852501733e31de710f20e841be2113d", "lon": -77.04145083333333, "rental_uris": {"ios": "https://dc.lft.to/lastmile_qr_scan", "android": "https://dc.lft.to/lastmile_qr_scan"}}, {"name": "e0149320205cd2fbe9107098a5bf0bcd", "fusion_lat": 0.0, "type": "electric_scooter", "lat": 38.92421516666667, "is_reserved": 0, "is_disabled": 0, "fusion_lon": 0.0, "bike_id": "e0149320205cd2fbe9107098a5bf0bcd", "lon": -77.01944483333334, "rental_uris": {"ios": "https://dc.lft.to/lastmile_qr_scan", "android": "https://dc.lft.to/lastmile_qr_scan"}}, {"name": "e80c1211f8b7eb49c624d150c0f6bff3", "fusion_lat": 0.0, "type": "electric_scooter", "lat": 38.896645166666666, "is_reserved": 0, "is_disabled": 0, "fusion_lon": 0.0, "bike_id": "e80c1211f8b7eb49c624d150c0f6bff3", "lon": -77.04883016666666, "rental_uris": {"ios": "https://dc.lft.to/lastmile_qr_scan", "android": "https://dc.lft.to/lastmile_qr_scan"}}, {"name": "41799786eb77c88ff173e023082d6e89", "fusion_lat": 0.0, "type": "electric_scooter", "lat": 38.90659383333333, "is_reserved": 0, "is_disabled": 0, "fusion_lon": 0.0, "bike_id": "41799786eb77c88ff173e023082d6e89", "lon": -77.038199, "rental_uris": {"ios": "https://dc.lft.to/lastmile_qr_scan", "android": "https://dc.lft.to/lastmile_qr_scan"}}, {"name": "6f266c23c0a4ab4c991029f36ec87f80", "fusion_lat": 0.0, "type": "electric_scooter", "lat": 38.89890916666667, "is_reserved": 0, "is_disabled": 0, "fusion_lon": 0.0, "bike_id": "6f266c23c0a4ab4c991029f36ec87f80", "lon": -77.02185, "rental_uris": {"ios": "https://dc.lft.to/lastmile_qr_scan", "android": "https://dc.lft.to/lastmile_qr_scan"}}, {"name": "5fc8e10987bf127725cfd7c635560cd2", "fusion_lat": 0.0, "type": "electric_scooter", "lat": 38.90263, "is_reserved": 0, "is_disabled": 0, "fusion_lon": 0.0, "bike_id": "5fc8e10987bf127725cfd7c635560cd2", "lon": -77.03205916666667, "rental_uris": {"ios": "https://dc.lft.to/lastmile_qr_scan", "android": "https://dc.lft.to/lastmile_qr_scan"}}, {"name": "527b4fa8ee745ec1219f3cc21845fa1e", "fusion_lat": 0.0, "type": "electric_scooter", "lat": 38.929735666666666, "is_reserved": 0, "is_disabled": 0, "fusion_lon": 0.0, "bike_id": "527b4fa8ee745ec1219f3cc21845fa1e", "lon": -77.03657316666667, "rental_uris": {"ios": "https://dc.lft.to/lastmile_qr_scan", "android": "https://dc.lft.to/lastmile_qr_scan"}}, {"name": "e65aba163a020b3fa34f938ae640f747", "fusion_lat": 0.0, "type": "electric_scooter", "lat": 38.9046945, "is_reserved": 0, "is_disabled": 0, "fusion_lon": 0.0, "bike_id": "e65aba163a020b3fa34f938ae640f747", "lon": -77.0414255, "rental_uris": {"ios": "https://dc.lft.to/lastmile_qr_scan", "android": "https://dc.lft.to/lastmile_qr_scan"}}, {"name": "e4b1188a4a8da11c280aeb6d1a03d03f", "fusion_lat": 0.0, "type": "electric_scooter", "lat": 38.89223833333333, "is_reserved": 0, "is_disabled": 0, "fusion_lon": 0.0, "bike_id": "e4b1188a4a8da11c280aeb6d1a03d03f", "lon": -77.03982283333333, "rental_uris": {"ios": "https://dc.lft.to/lastmile_qr_scan", "android": "https://dc.lft.to/lastmile_qr_scan"}}, {"name": "c476eae482691d7f9e472c6c8dbaeef1", "fusion_lat": 0.0, "type": "electric_scooter", "lat": 38.917021166666665, "is_reserved": 0, "is_disabled": 0, "fusion_lon": 0.0, "bike_id": "c476eae482691d7f9e472c6c8dbaeef1", "lon": -77.03088333333334, "rental_uris": {"ios": "https://dc.lft.to/lastmile_qr_scan", "android": "https://dc.lft.to/lastmile_qr_scan"}}, {"name": "84e821a2b96679639f118bc4e5aac9f4", "fusion_lat": 0.0, "type": "electric_scooter", "lat": 38.875263333333336, "is_reserved": 0, "is_disabled": 0, "fusion_lon": 0.0, "bike_id": "84e821a2b96679639f118bc4e5aac9f4", "lon": -77.01766733333334, "rental_uris": {"ios": "https://dc.lft.to/lastmile_qr_scan", "android": "https://dc.lft.to/lastmile_qr_scan"}}, {"name": "0c91851974de3b2eb3e6e3119e2f808c", "fusion_lat": 0.0, "type": "electric_scooter", "lat": 38.86656216666667, "is_reserved": 0, "is_disabled": 0, "fusion_lon": 0.0, "bike_id": "0c91851974de3b2eb3e6e3119e2f808c", "lon": -76.988893, "rental_uris": {"ios": "https://dc.lft.to/lastmile_qr_scan", "android": "https://dc.lft.to/lastmile_qr_scan"}}, {"name": "f32f7e89f8d0cb2c40354368d99cde03", "fusion_lat": 0.0, "type": "electric_scooter", "lat": 38.9178345, "is_reserved": 0, "is_disabled": 0, "fusion_lon": 0.0, "bike_id": "f32f7e89f8d0cb2c40354368d99cde03", "lon": -77.04099783333334, "rental_uris": {"ios": "https://dc.lft.to/lastmile_qr_scan", "android": "https://dc.lft.to/lastmile_qr_scan"}}, {"name": "05cead9bc20af47e2f431be1512fdf81", "fusion_lat": 0.0, "type": "electric_scooter", "lat": 38.899622, "is_reserved": 0, "is_disabled": 0, "fusion_lon": 0.0, "bike_id": "05cead9bc20af47e2f431be1512fdf81", "lon": -77.00920733333334, "rental_uris": {"ios": "https://dc.lft.to/lastmile_qr_scan", "android": "https://dc.lft.to/lastmile_qr_scan"}}, {"name": "e4bef90e355c5fe468c7f61b01a7efcf", "fusion_lat": 0.0, "type": "electric_bike", "lat": 38.88864016666667, "is_reserved": 0, "is_disabled": 0, "fusion_lon": 0.0, "bike_id": "e4bef90e355c5fe468c7f61b01a7efcf", "lon": -76.9947585, "rental_uris": {"ios": "https://dc.lft.to/lastmile_qr_scan", "android": "https://dc.lft.to/lastmile_qr_scan"}}, {"name": "e14750cad7b578dd37617512b3c1e477", "fusion_lat": 0.0, "type": "electric_scooter", "lat": 38.885124166666664, "is_reserved": 0, "is_disabled": 0, "fusion_lon": 0.0, "bike_id": "e14750cad7b578dd37617512b3c1e477", "lon": -77.02095183333333, "rental_uris": {"ios": "https://dc.lft.to/lastmile_qr_scan", "android": "https://dc.lft.to/lastmile_qr_scan"}}, {"name": "d3398036ee0ad9a591a1ff7d7314fff4", "fusion_lat": 0.0, "type": "electric_scooter", "lat": 38.924414666666664, "is_reserved": 0, "is_disabled": 0, "fusion_lon": 0.0, "bike_id": "d3398036ee0ad9a591a1ff7d7314fff4", "lon": -77.04221666666666, "rental_uris": {"ios": "https://dc.lft.to/lastmile_qr_scan", "android": "https://dc.lft.to/lastmile_qr_scan"}}, {"name": "2e929efff702d6043dfd7d7c751b2b50", "fusion_lat": 0.0, "type": "electric_scooter", "lat": 38.903949833333336, "is_reserved": 0, "is_disabled": 0, "fusion_lon": 0.0, "bike_id": "2e929efff702d6043dfd7d7c751b2b50", "lon": -77.03012383333333, "rental_uris": {"ios": "https://dc.lft.to/lastmile_qr_scan", "android": "https://dc.lft.to/lastmile_qr_scan"}}, {"name": "390bfa1b5d36bdc3feb927f49db856f7", "fusion_lat": 0.0, "type": "electric_scooter", "lat": 38.899721666666665, "is_reserved": 0, "is_disabled": 0, "fusion_lon": 0.0, "bike_id": "390bfa1b5d36bdc3feb927f49db856f7", "lon": -77.05702683333334, "rental_uris": {"ios": "https://dc.lft.to/lastmile_qr_scan", "android": "https://dc.lft.to/lastmile_qr_scan"}}, {"name": "838a987643894e1a49b27c9c524784b7", "fusion_lat": 0.0, "type": "electric_scooter", "lat": 38.887469333333335, "is_reserved": 0, "is_disabled": 0, "fusion_lon": 0.0, "bike_id": "838a987643894e1a49b27c9c524784b7", "lon": -77.02350616666666, "rental_uris": {"ios": "https://dc.lft.to/lastmile_qr_scan", "android": "https://dc.lft.to/lastmile_qr_scan"}}, {"name": "7dce23b00675d6da65e2088e489b1ed0", "fusion_lat": 0.0, "type": "electric_bike", "lat": 38.99090483333333, "is_reserved": 0, "is_disabled": 0, "fusion_lon": 0.0, "bike_id": "7dce23b00675d6da65e2088e489b1ed0", "lon": -76.87494816666667, "rental_uris": {"ios": "https://dc.lft.to/lastmile_qr_scan", "android": "https://dc.lft.to/lastmile_qr_scan"}}, {"name": "82c2506bac399f0576dae382b51c79c6", "fusion_lat": 0.0, "type": "electric_scooter", "lat": 38.904823666666665, "is_reserved": 0, "is_disabled": 0, "fusion_lon": 0.0, "bike_id": "82c2506bac399f0576dae382b51c79c6", "lon": -77.040519, "rental_uris": {"ios": "https://dc.lft.to/lastmile_qr_scan", "android": "https://dc.lft.to/lastmile_qr_scan"}}, {"name": "b41e912e5295c1d579265c783ac24e7a", "fusion_lat": 0.0, "type": "electric_bike", "lat": 38.82871766666667, "is_reserved": 0, "is_disabled": 0, "fusion_lon": 0.0, "bike_id": "b41e912e5295c1d579265c783ac24e7a", "lon": -77.11221866666666, "rental_uris": {"ios": "https://dc.lft.to/lastmile_qr_scan", "android": "https://dc.lft.to/lastmile_qr_scan"}}, {"name": "b8a6d56bc171e4f6eba75185dcc2ecc6", "fusion_lat": 0.0, "type": "electric_scooter", "lat": 38.926988, "is_reserved": 0, "is_disabled": 0, "fusion_lon": 0.0, "bike_id": "b8a6d56bc171e4f6eba75185dcc2ecc6", "lon": -77.02076783333334, "rental_uris": {"ios": "https://dc.lft.to/lastmile_qr_scan", "android": "https://dc.lft.to/lastmile_qr_scan"}}, {"name": "b99ec07c529985c74fdd616bfab04f9f", "fusion_lat": 0.0, "type": "electric_scooter", "lat": 38.897101666666664, "is_reserved": 0, "is_disabled": 0, "fusion_lon": 0.0, "bike_id": "b99ec07c529985c74fdd616bfab04f9f", "lon": -77.00839483333333, "rental_uris": {"ios": "https://dc.lft.to/lastmile_qr_scan", "android": "https://dc.lft.to/lastmile_qr_scan"}}, {"name": "058e38d6705a33d3cdd8ec12aeea50fe", "fusion_lat": 0.0, "type": "electric_scooter", "lat": 38.91770666666667, "is_reserved": 0, "is_disabled": 0, "fusion_lon": 0.0, "bike_id": "058e38d6705a33d3cdd8ec12aeea50fe", "lon": -77.0405605, "rental_uris": {"ios": "https://dc.lft.to/lastmile_qr_scan", "android": "https://dc.lft.to/lastmile_qr_scan"}}, {"name": "44c54f62aa2f1ce98b8fd6c6c40597a0", "fusion_lat": 0.0, "type": "electric_scooter", "lat": 38.90035433333333, "is_reserved": 0, "is_disabled": 0, "fusion_lon": 0.0, "bike_id": "44c54f62aa2f1ce98b8fd6c6c40597a0", "lon": -77.04879883333334, "rental_uris": {"ios": "https://dc.lft.to/lastmile_qr_scan", "android": "https://dc.lft.to/lastmile_qr_scan"}}, {"name": "cef5a07dbdf51ee8318cc19ed9461406", "fusion_lat": 0.0, "type": "electric_scooter", "lat": 38.93003916666667, "is_reserved": 0, "is_disabled": 0, "fusion_lon": 0.0, "bike_id": "cef5a07dbdf51ee8318cc19ed9461406", "lon": -77.02310166666666, "rental_uris": {"ios": "https://dc.lft.to/lastmile_qr_scan", "android": "https://dc.lft.to/lastmile_qr_scan"}}, {"name": "dbee09f96e7e1ede575807f81fb3feb4", "fusion_lat": 0.0, "type": "electric_scooter", "lat": 38.92389166666667, "is_reserved": 0, "is_disabled": 0, "fusion_lon": 0.0, "bike_id": "dbee09f96e7e1ede575807f81fb3feb4", "lon": -77.02977283333334, "rental_uris": {"ios": "https://dc.lft.to/lastmile_qr_scan", "android": "https://dc.lft.to/lastmile_qr_scan"}}, {"name": "53a38bd8260d60ddbf95edf54766a96a", "fusion_lat": 0.0, "type": "electric_scooter", "lat": 38.916247, "is_reserved": 0, "is_disabled": 0, "fusion_lon": 0.0, "bike_id": "53a38bd8260d60ddbf95edf54766a96a", "lon": -77.03180166666667, "rental_uris": {"ios": "https://dc.lft.to/lastmile_qr_scan", "android": "https://dc.lft.to/lastmile_qr_scan"}}, {"name": "1ab5ef18510278d0e62099842d6705df", "fusion_lat": 0.0, "type": "electric_scooter", "lat": 38.86249733333333, "is_reserved": 0, "is_disabled": 0, "fusion_lon": 0.0, "bike_id": "1ab5ef18510278d0e62099842d6705df", "lon": -76.99533516666666, "rental_uris": {"ios": "https://dc.lft.to/lastmile_qr_scan", "android": "https://dc.lft.to/lastmile_qr_scan"}}, {"name": "e5fefbdf31b53a7d50bedac555a11550", "fusion_lat": 0.0, "type": "electric_scooter", "lat": 38.8851365, "is_reserved": 0, "is_disabled": 0, "fusion_lon": 0.0, "bike_id": "e5fefbdf31b53a7d50bedac555a11550", "lon": -77.0033865, "rental_uris": {"ios": "https://dc.lft.to/lastmile_qr_scan", "android": "https://dc.lft.to/lastmile_qr_scan"}}, {"name": "3fc74a4fa050b6e505ec327cd2ccacd1", "fusion_lat": 0.0, "type": "electric_scooter", "lat": 38.90032583333333, "is_reserved": 0, "is_disabled": 0, "fusion_lon": 0.0, "bike_id": "3fc74a4fa050b6e505ec327cd2ccacd1", "lon": -77.0021025, "rental_uris": {"ios": "https://dc.lft.to/lastmile_qr_scan", "android": "https://dc.lft.to/lastmile_qr_scan"}}, {"name": "457e98f990235b8f26189d6987ff570e", "fusion_lat": 0.0, "type": "electric_scooter", "lat": 38.86814483333333, "is_reserved": 0, "is_disabled": 0, "fusion_lon": 0.0, "bike_id": "457e98f990235b8f26189d6987ff570e", "lon": -76.98611983333333, "rental_uris": {"ios": "https://dc.lft.to/lastmile_qr_scan", "android": "https://dc.lft.to/lastmile_qr_scan"}}, {"name": "45115c9dbe89f15e0449b696af683919", "fusion_lat": 0.0, "type": "electric_bike", "lat": 38.89639833333333, "is_reserved": 0, "is_disabled": 0, "fusion_lon": 0.0, "bike_id": "45115c9dbe89f15e0449b696af683919", "lon": -77.1046015, "rental_uris": {"ios": "https://dc.lft.to/lastmile_qr_scan", "android": "https://dc.lft.to/lastmile_qr_scan"}}, {"name": "98e897bd50efbdc77f3196b2e8b97311", "fusion_lat": 0.0, "type": "electric_scooter", "lat": 38.90256816666667, "is_reserved": 0, "is_disabled": 0, "fusion_lon": 0.0, "bike_id": "98e897bd50efbdc77f3196b2e8b97311", "lon": -77.03470033333333, "rental_uris": {"ios": "https://dc.lft.to/lastmile_qr_scan", "android": "https://dc.lft.to/lastmile_qr_scan"}}, {"name": "ea2aa6fd79814d5392eb413ed03f6e98", "fusion_lat": 0.0, "type": "electric_scooter", "lat": 38.92355116666667, "is_reserved": 0, "is_disabled": 0, "fusion_lon": 0.0, "bike_id": "ea2aa6fd79814d5392eb413ed03f6e98", "lon": -77.03374066666667, "rental_uris": {"ios": "https://dc.lft.to/lastmile_qr_scan", "android": "https://dc.lft.to/lastmile_qr_scan"}}, {"name": "d2f0740818e215c5255e4a0650386011", "fusion_lat": 0.0, "type": "electric_scooter", "lat": 38.864103, "is_reserved": 0, "is_disabled": 0, "fusion_lon": 0.0, "bike_id": "d2f0740818e215c5255e4a0650386011", "lon": -76.980459, "rental_uris": {"ios": "https://dc.lft.to/lastmile_qr_scan", "android": "https://dc.lft.to/lastmile_qr_scan"}}, {"name": "f6967186ee9f56c9f3a264fb2d176a40", "fusion_lat": 0.0, "type": "electric_bike", "lat": 38.88585, "is_reserved": 0, "is_disabled": 0, "fusion_lon": 0.0, "bike_id": "f6967186ee9f56c9f3a264fb2d176a40", "lon": -77.10345066666666, "rental_uris": {"ios": "https://dc.lft.to/lastmile_qr_scan", "android": "https://dc.lft.to/lastmile_qr_scan"}}, {"name": "e2f6026979fac75fe7794705bd9a14c6", "fusion_lat": 0.0, "type": "electric_scooter", "lat": 38.90973666666667, "is_reserved": 0, "is_disabled": 0, "fusion_lon": 0.0, "bike_id": "e2f6026979fac75fe7794705bd9a14c6", "lon": -77.03888933333333, "rental_uris": {"ios": "https://dc.lft.to/lastmile_qr_scan", "android": "https://dc.lft.to/lastmile_qr_scan"}}, {"name": "7b539c183537f5aa4d62a8a5d94a483f", "fusion_lat": 0.0, "type": "electric_bike", "lat": 38.854931, "is_reserved": 0, "is_disabled": 0, "fusion_lon": 0.0, "bike_id": "7b539c183537f5aa4d62a8a5d94a483f", "lon": -77.11524583333333, "rental_uris": {"ios": "https://dc.lft.to/lastmile_qr_scan", "android": "https://dc.lft.to/lastmile_qr_scan"}}, {"name": "93a4b940f533a230deea693ec7ce2291", "fusion_lat": 0.0, "type": "electric_scooter", "lat": 38.899718166666666, "is_reserved": 0, "is_disabled": 0, "fusion_lon": 0.0, "bike_id": "93a4b940f533a230deea693ec7ce2291", "lon": -77.03183533333333, "rental_uris": {"ios": "https://dc.lft.to/lastmile_qr_scan", "android": "https://dc.lft.to/lastmile_qr_scan"}}, {"name": "5ab722b74a2ded81f5680176985ce515", "fusion_lat": 0.0, "type": "electric_scooter", "lat": 38.941757833333334, "is_reserved": 0, "is_disabled": 0, "fusion_lon": 0.0, "bike_id": "5ab722b74a2ded81f5680176985ce515", "lon": -77.02511666666666, "rental_uris": {"ios": "https://dc.lft.to/lastmile_qr_scan", "android": "https://dc.lft.to/lastmile_qr_scan"}}, {"name": "2a4cd82147b7231bfbe8f4b8af68ad8b", "fusion_lat": 0.0, "type": "electric_scooter", "lat": 38.8983155, "is_reserved": 0, "is_disabled": 0, "fusion_lon": 0.0, "bike_id": "2a4cd82147b7231bfbe8f4b8af68ad8b", "lon": -76.9464375, "rental_uris": {"ios": "https://dc.lft.to/lastmile_qr_scan", "android": "https://dc.lft.to/lastmile_qr_scan"}}, {"name": "829e01ce1bc46e25f8cc05d1385c73ce", "fusion_lat": 0.0, "type": "electric_scooter", "lat": 38.91943583333333, "is_reserved": 0, "is_disabled": 0, "fusion_lon": 0.0, "bike_id": "829e01ce1bc46e25f8cc05d1385c73ce", "lon": -77.021533, "rental_uris": {"ios": "https://dc.lft.to/lastmile_qr_scan", "android": "https://dc.lft.to/lastmile_qr_scan"}}, {"name": "8179f64723e6360719e4793f8138a06f", "fusion_lat": 0.0, "type": "electric_scooter", "lat": 38.926593833333335, "is_reserved": 0, "is_disabled": 0, "fusion_lon": 0.0, "bike_id": "8179f64723e6360719e4793f8138a06f", "lon": -77.02413333333334, "rental_uris": {"ios": "https://dc.lft.to/lastmile_qr_scan", "android": "https://dc.lft.to/lastmile_qr_scan"}}, {"name": "d2641dd9856c1f52eb4f3cdace7872e1", "fusion_lat": 0.0, "type": "electric_scooter", "lat": 38.89831366666667, "is_reserved": 0, "is_disabled": 0, "fusion_lon": 0.0, "bike_id": "d2641dd9856c1f52eb4f3cdace7872e1", "lon": -77.00746766666667, "rental_uris": {"ios": "https://dc.lft.to/lastmile_qr_scan", "android": "https://dc.lft.to/lastmile_qr_scan"}}, {"name": "73f1adfcbd0384773960848dfc526e30", "fusion_lat": 0.0, "type": "electric_scooter", "lat": 38.917794, "is_reserved": 0, "is_disabled": 0, "fusion_lon": 0.0, "bike_id": "73f1adfcbd0384773960848dfc526e30", "lon": -77.03444, "rental_uris": {"ios": "https://dc.lft.to/lastmile_qr_scan", "android": "https://dc.lft.to/lastmile_qr_scan"}}, {"name": "62699f2db940526259f6bad287bd13f4", "fusion_lat": 0.0, "type": "electric_scooter", "lat": 38.927256166666666, "is_reserved": 0, "is_disabled": 0, "fusion_lon": 0.0, "bike_id": "62699f2db940526259f6bad287bd13f4", "lon": -77.0258735, "rental_uris": {"ios": "https://dc.lft.to/lastmile_qr_scan", "android": "https://dc.lft.to/lastmile_qr_scan"}}, {"name": "da63526c09094be60e2dd542099e689c", "fusion_lat": 0.0, "type": "electric_scooter", "lat": 38.88233233333333, "is_reserved": 0, "is_disabled": 0, "fusion_lon": 0.0, "bike_id": "da63526c09094be60e2dd542099e689c", "lon": -77.02581233333333, "rental_uris": {"ios": "https://dc.lft.to/lastmile_qr_scan", "android": "https://dc.lft.to/lastmile_qr_scan"}}, {"name": "71ff232f23e854eaa5f2331540496463", "fusion_lat": 0.0, "type": "electric_scooter", "lat": 38.89998633333333, "is_reserved": 0, "is_disabled": 0, "fusion_lon": 0.0, "bike_id": "71ff232f23e854eaa5f2331540496463", "lon": -77.0456795, "rental_uris": {"ios": "https://dc.lft.to/lastmile_qr_scan", "android": "https://dc.lft.to/lastmile_qr_scan"}}, {"name": "5f28f0aeba7260bdeba5aa966f0f4488", "fusion_lat": 0.0, "type": "electric_scooter", "lat": 38.86157866666667, "is_reserved": 0, "is_disabled": 0, "fusion_lon": 0.0, "bike_id": "5f28f0aeba7260bdeba5aa966f0f4488", "lon": -76.9892245, "rental_uris": {"ios": "https://dc.lft.to/lastmile_qr_scan", "android": "https://dc.lft.to/lastmile_qr_scan"}}, {"name": "4f427a525171a68e4b620ed380389ec5", "fusion_lat": 0.0, "type": "electric_bike", "lat": 38.8427435, "is_reserved": 0, "is_disabled": 0, "fusion_lon": 0.0, "bike_id": "4f427a525171a68e4b620ed380389ec5", "lon": -76.98844266666667, "rental_uris": {"ios": "https://dc.lft.to/lastmile_qr_scan", "android": "https://dc.lft.to/lastmile_qr_scan"}}, {"name": "344171d1503476d76ec5b6207868f832", "fusion_lat": 0.0, "type": "electric_bike", "lat": 38.960125, "is_reserved": 0, "is_disabled": 0, "fusion_lon": 0.0, "bike_id": "344171d1503476d76ec5b6207868f832", "lon": -76.99868066666667, "rental_uris": {"ios": "https://dc.lft.to/lastmile_qr_scan", "android": "https://dc.lft.to/lastmile_qr_scan"}}, {"name": "e15670f2574037960f43691fde88835e", "fusion_lat": 0.0, "type": "electric_scooter", "lat": 38.9282295, "is_reserved": 0, "is_disabled": 0, "fusion_lon": 0.0, "bike_id": "e15670f2574037960f43691fde88835e", "lon": -77.02259683333334, "rental_uris": {"ios": "https://dc.lft.to/lastmile_qr_scan", "android": "https://dc.lft.to/lastmile_qr_scan"}}, {"name": "530bc0b73d78e03fa63c53c78358e383", "fusion_lat": 0.0, "type": "electric_scooter", "lat": 38.9197995, "is_reserved": 0, "is_disabled": 0, "fusion_lon": 0.0, "bike_id": "530bc0b73d78e03fa63c53c78358e383", "lon": -77.03965816666667, "rental_uris": {"ios": "https://dc.lft.to/lastmile_qr_scan", "android": "https://dc.lft.to/lastmile_qr_scan"}}, {"name": "b5f849be80913ffd408cec091fcb182b", "fusion_lat": 0.0, "type": "electric_scooter", "lat": 38.92580933333333, "is_reserved": 0, "is_disabled": 0, "fusion_lon": 0.0, "bike_id": "b5f849be80913ffd408cec091fcb182b", "lon": -76.99496683333334, "rental_uris": {"ios": "https://dc.lft.to/lastmile_qr_scan", "android": "https://dc.lft.to/lastmile_qr_scan"}}, {"name": "88bae0b33b6f4d7d497ca39a8c57d419", "fusion_lat": 0.0, "type": "electric_scooter", "lat": 38.90568783333333, "is_reserved": 0, "is_disabled": 0, "fusion_lon": 0.0, "bike_id": "88bae0b33b6f4d7d497ca39a8c57d419", "lon": -77.04854633333333, "rental_uris": {"ios": "https://dc.lft.to/lastmile_qr_scan", "android": "https://dc.lft.to/lastmile_qr_scan"}}, {"name": "ab160f7a5d768ca7d3db09ad7cefdf9f", "fusion_lat": 0.0, "type": "electric_scooter", "lat": 38.876605166666664, "is_reserved": 0, "is_disabled": 0, "fusion_lon": 0.0, "bike_id": "ab160f7a5d768ca7d3db09ad7cefdf9f", "lon": -77.00736716666667, "rental_uris": {"ios": "https://dc.lft.to/lastmile_qr_scan", "android": "https://dc.lft.to/lastmile_qr_scan"}}, {"name": "4239b2e65513ba59c70505395f1ca064", "fusion_lat": 0.0, "type": "electric_bike", "lat": 38.999901666666666, "is_reserved": 0, "is_disabled": 0, "fusion_lon": 0.0, "bike_id": "4239b2e65513ba59c70505395f1ca064", "lon": -77.08002466666667, "rental_uris": {"ios": "https://dc.lft.to/lastmile_qr_scan", "android": "https://dc.lft.to/lastmile_qr_scan"}}, {"name": "ad97c57c6152a1997e51e9471d8aa5f2", "fusion_lat": 0.0, "type": "electric_bike", "lat": 38.862700333333336, "is_reserved": 0, "is_disabled": 0, "fusion_lon": 0.0, "bike_id": "ad97c57c6152a1997e51e9471d8aa5f2", "lon": -77.0596845, "rental_uris": {"ios": "https://dc.lft.to/lastmile_qr_scan", "android": "https://dc.lft.to/lastmile_qr_scan"}}, {"name": "2dffa067b3f631e76943b3802fc26076", "fusion_lat": 0.0, "type": "electric_scooter", "lat": 38.8850765, "is_reserved": 0, "is_disabled": 0, "fusion_lon": 0.0, "bike_id": "2dffa067b3f631e76943b3802fc26076", "lon": -77.00568766666666, "rental_uris": {"ios": "https://dc.lft.to/lastmile_qr_scan", "android": "https://dc.lft.to/lastmile_qr_scan"}}, {"name": "63dedadc2bbbbf077ae796bcbb16841d", "fusion_lat": 0.0, "type": "electric_scooter", "lat": 38.9125745, "is_reserved": 0, "is_disabled": 0, "fusion_lon": 0.0, "bike_id": "63dedadc2bbbbf077ae796bcbb16841d", "lon": -77.038661, "rental_uris": {"ios": "https://dc.lft.to/lastmile_qr_scan", "android": "https://dc.lft.to/lastmile_qr_scan"}}, {"name": "c2cd566c3e591e24b307afeca0d5890f", "fusion_lat": 0.0, "type": "electric_scooter", "lat": 38.943147, "is_reserved": 0, "is_disabled": 0, "fusion_lon": 0.0, "bike_id": "c2cd566c3e591e24b307afeca0d5890f", "lon": -77.0247785, "rental_uris": {"ios": "https://dc.lft.to/lastmile_qr_scan", "android": "https://dc.lft.to/lastmile_qr_scan"}}, {"name": "38475b30d4c45ade327cf58494c208fa", "fusion_lat": 0.0, "type": "electric_scooter", "lat": 38.862449166666664, "is_reserved": 0, "is_disabled": 0, "fusion_lon": 0.0, "bike_id": "38475b30d4c45ade327cf58494c208fa", "lon": -76.994962, "rental_uris": {"ios": "https://dc.lft.to/lastmile_qr_scan", "android": "https://dc.lft.to/lastmile_qr_scan"}}, {"name": "08756b2d7a5f669ab4acfab4553db569", "fusion_lat": 0.0, "type": "electric_scooter", "lat": 38.929839333333334, "is_reserved": 0, "is_disabled": 0, "fusion_lon": 0.0, "bike_id": "08756b2d7a5f669ab4acfab4553db569", "lon": -77.01453066666667, "rental_uris": {"ios": "https://dc.lft.to/lastmile_qr_scan", "android": "https://dc.lft.to/lastmile_qr_scan"}}, {"name": "7347de6f86967065a24c2adb073cf087", "fusion_lat": 0.0, "type": "electric_scooter", "lat": 38.891748666666665, "is_reserved": 0, "is_disabled": 0, "fusion_lon": 0.0, "bike_id": "7347de6f86967065a24c2adb073cf087", "lon": -77.0156245, "rental_uris": {"ios": "https://dc.lft.to/lastmile_qr_scan", "android": "https://dc.lft.to/lastmile_qr_scan"}}, {"name": "344d7dd94502e3dc6a83fe336321740a", "fusion_lat": 0.0, "type": "electric_scooter", "lat": 38.91219783333333, "is_reserved": 0, "is_disabled": 0, "fusion_lon": 0.0, "bike_id": "344d7dd94502e3dc6a83fe336321740a", "lon": -77.03188333333334, "rental_uris": {"ios": "https://dc.lft.to/lastmile_qr_scan", "android": "https://dc.lft.to/lastmile_qr_scan"}}, {"name": "f27a339ef41b697a2c67c7ec7f69957f", "fusion_lat": 0.0, "type": "electric_bike", "lat": 38.839852666666665, "is_reserved": 0, "is_disabled": 0, "fusion_lon": 0.0, "bike_id": "f27a339ef41b697a2c67c7ec7f69957f", "lon": -77.00562733333334, "rental_uris": {"ios": "https://dc.lft.to/lastmile_qr_scan", "android": "https://dc.lft.to/lastmile_qr_scan"}}, {"name": "9c0f966d69f6817860a94b1566e78c74", "fusion_lat": 0.0, "type": "electric_scooter", "lat": 38.9006995, "is_reserved": 0, "is_disabled": 0, "fusion_lon": 0.0, "bike_id": "9c0f966d69f6817860a94b1566e78c74", "lon": -77.0498775, "rental_uris": {"ios": "https://dc.lft.to/lastmile_qr_scan", "android": "https://dc.lft.to/lastmile_qr_scan"}}, {"name": "7a0c53a4f5a0a33ae2e0b8305841c7d1", "fusion_lat": 0.0, "type": "electric_bike", "lat": 38.887603666666664, "is_reserved": 0, "is_disabled": 0, "fusion_lon": 0.0, "bike_id": "7a0c53a4f5a0a33ae2e0b8305841c7d1", "lon": -76.9007865, "rental_uris": {"ios": "https://dc.lft.to/lastmile_qr_scan", "android": "https://dc.lft.to/lastmile_qr_scan"}}, {"name": "4a3afbd44391612cedd175306cb4c194", "fusion_lat": 0.0, "type": "electric_scooter", "lat": 38.91246266666667, "is_reserved": 0, "is_disabled": 0, "fusion_lon": 0.0, "bike_id": "4a3afbd44391612cedd175306cb4c194", "lon": -77.03835616666667, "rental_uris": {"ios": "https://dc.lft.to/lastmile_qr_scan", "android": "https://dc.lft.to/lastmile_qr_scan"}}, {"name": "437251ca1b8f79f321cb349ee33fd862", "fusion_lat": 0.0, "type": "electric_scooter", "lat": 38.86250366666667, "is_reserved": 0, "is_disabled": 0, "fusion_lon": 0.0, "bike_id": "437251ca1b8f79f321cb349ee33fd862", "lon": -76.99530566666667, "rental_uris": {"ios": "https://dc.lft.to/lastmile_qr_scan", "android": "https://dc.lft.to/lastmile_qr_scan"}}, {"name": "f9aed8867dd114f92e72da02697b08f0", "fusion_lat": 0.0, "type": "electric_scooter", "lat": 38.88602316666667, "is_reserved": 0, "is_disabled": 0, "fusion_lon": 0.0, "bike_id": "f9aed8867dd114f92e72da02697b08f0", "lon": -77.02202566666666, "rental_uris": {"ios": "https://dc.lft.to/lastmile_qr_scan", "android": "https://dc.lft.to/lastmile_qr_scan"}}, {"name": "5178f3f7ba4bef75c85d81341e6cd4f0", "fusion_lat": 0.0, "type": "electric_scooter", "lat": 38.923717833333335, "is_reserved": 0, "is_disabled": 0, "fusion_lon": 0.0, "bike_id": "5178f3f7ba4bef75c85d81341e6cd4f0", "lon": -77.019262, "rental_uris": {"ios": "https://dc.lft.to/lastmile_qr_scan", "android": "https://dc.lft.to/lastmile_qr_scan"}}, {"name": "a73c1ded2af085585b0742f81b945a0a", "fusion_lat": 0.0, "type": "electric_scooter", "lat": 38.911208333333335, "is_reserved": 0, "is_disabled": 0, "fusion_lon": 0.0, "bike_id": "a73c1ded2af085585b0742f81b945a0a", "lon": -77.037324, "rental_uris": {"ios": "https://dc.lft.to/lastmile_qr_scan", "android": "https://dc.lft.to/lastmile_qr_scan"}}, {"name": "c34c88877eab3b8b913dde822d779b0e", "fusion_lat": 0.0, "type": "electric_scooter", "lat": 38.89886216666667, "is_reserved": 0, "is_disabled": 0, "fusion_lon": 0.0, "bike_id": "c34c88877eab3b8b913dde822d779b0e", "lon": -77.03917733333333, "rental_uris": {"ios": "https://dc.lft.to/lastmile_qr_scan", "android": "https://dc.lft.to/lastmile_qr_scan"}}, {"name": "496194da98df94c20e3be27174ca9bfc", "fusion_lat": 0.0, "type": "electric_scooter", "lat": 38.91188966666667, "is_reserved": 0, "is_disabled": 0, "fusion_lon": 0.0, "bike_id": "496194da98df94c20e3be27174ca9bfc", "lon": -77.03144916666666, "rental_uris": {"ios": "https://dc.lft.to/lastmile_qr_scan", "android": "https://dc.lft.to/lastmile_qr_scan"}}, {"name": "2042e1b9bf3783130502d17f81b27989", "fusion_lat": 0.0, "type": "electric_scooter", "lat": 38.8960515, "is_reserved": 0, "is_disabled": 0, "fusion_lon": 0.0, "bike_id": "2042e1b9bf3783130502d17f81b27989", "lon": -77.02681216666667, "rental_uris": {"ios": "https://dc.lft.to/lastmile_qr_scan", "android": "https://dc.lft.to/lastmile_qr_scan"}}, {"name": "527b141e7db9f6312672c2d98b803a25", "fusion_lat": 0.0, "type": "electric_scooter", "lat": 38.8919405, "is_reserved": 0, "is_disabled": 0, "fusion_lon": 0.0, "bike_id": "527b141e7db9f6312672c2d98b803a25", "lon": -77.00292983333334, "rental_uris": {"ios": "https://dc.lft.to/lastmile_qr_scan", "android": "https://dc.lft.to/lastmile_qr_scan"}}, {"name": "4bea91eb3176cf1bdad24c2e24b1dc35", "fusion_lat": 0.0, "type": "electric_scooter", "lat": 38.933679833333336, "is_reserved": 0, "is_disabled": 0, "fusion_lon": 0.0, "bike_id": "4bea91eb3176cf1bdad24c2e24b1dc35", "lon": -77.034521, "rental_uris": {"ios": "https://dc.lft.to/lastmile_qr_scan", "android": "https://dc.lft.to/lastmile_qr_scan"}}, {"name": "fa1d1f0ca9518280fd2ffb7b09fd10ec", "fusion_lat": 0.0, "type": "electric_scooter", "lat": 38.9085125, "is_reserved": 0, "is_disabled": 0, "fusion_lon": 0.0, "bike_id": "fa1d1f0ca9518280fd2ffb7b09fd10ec", "lon": -77.04343816666666, "rental_uris": {"ios": "https://dc.lft.to/lastmile_qr_scan", "android": "https://dc.lft.to/lastmile_qr_scan"}}, {"name": "c464e827a850e098e1c2783c8d161abb", "fusion_lat": 0.0, "type": "electric_scooter", "lat": 38.91704983333333, "is_reserved": 0, "is_disabled": 0, "fusion_lon": 0.0, "bike_id": "c464e827a850e098e1c2783c8d161abb", "lon": -77.03128283333334, "rental_uris": {"ios": "https://dc.lft.to/lastmile_qr_scan", "android": "https://dc.lft.to/lastmile_qr_scan"}}, {"name": "e246dbcb4911bd960595ae80a5c35fc9", "fusion_lat": 0.0, "type": "electric_scooter", "lat": 38.899203, "is_reserved": 0, "is_disabled": 0, "fusion_lon": 0.0, "bike_id": "e246dbcb4911bd960595ae80a5c35fc9", "lon": -77.03216966666666, "rental_uris": {"ios": "https://dc.lft.to/lastmile_qr_scan", "android": "https://dc.lft.to/lastmile_qr_scan"}}, {"name": "cc26615e159c2e666cbe083aab7d77bc", "fusion_lat": 0.0, "type": "electric_scooter", "lat": 38.9065005, "is_reserved": 0, "is_disabled": 0, "fusion_lon": 0.0, "bike_id": "cc26615e159c2e666cbe083aab7d77bc", "lon": -77.05337066666667, "rental_uris": {"ios": "https://dc.lft.to/lastmile_qr_scan", "android": "https://dc.lft.to/lastmile_qr_scan"}}, {"name": "62cf7e3b05484a6f576c9926e0ac6760", "fusion_lat": 0.0, "type": "electric_scooter", "lat": 38.898505, "is_reserved": 0, "is_disabled": 0, "fusion_lon": 0.0, "bike_id": "62cf7e3b05484a6f576c9926e0ac6760", "lon": -77.016046, "rental_uris": {"ios": "https://dc.lft.to/lastmile_qr_scan", "android": "https://dc.lft.to/lastmile_qr_scan"}}, {"name": "21dddf01c439e2aa4d87334bd9ccb94c", "fusion_lat": 0.0, "type": "electric_scooter", "lat": 38.88051316666667, "is_reserved": 0, "is_disabled": 0, "fusion_lon": 0.0, "bike_id": "21dddf01c439e2aa4d87334bd9ccb94c", "lon": -77.01325866666667, "rental_uris": {"ios": "https://dc.lft.to/lastmile_qr_scan", "android": "https://dc.lft.to/lastmile_qr_scan"}}, {"name": "1d814187572ad2a4b43a8472477b3d15", "fusion_lat": 0.0, "type": "electric_scooter", "lat": 38.905689333333335, "is_reserved": 0, "is_disabled": 0, "fusion_lon": 0.0, "bike_id": "1d814187572ad2a4b43a8472477b3d15", "lon": -77.0059195, "rental_uris": {"ios": "https://dc.lft.to/lastmile_qr_scan", "android": "https://dc.lft.to/lastmile_qr_scan"}}, {"name": "f954e1cb27f144fee16f1a8f30e01907", "fusion_lat": 0.0, "type": "electric_bike", "lat": 38.946258, "is_reserved": 0, "is_disabled": 0, "fusion_lon": 0.0, "bike_id": "f954e1cb27f144fee16f1a8f30e01907", "lon": -76.94627416666667, "rental_uris": {"ios": "https://dc.lft.to/lastmile_qr_scan", "android": "https://dc.lft.to/lastmile_qr_scan"}}, {"name": "aa9d75c16b303b288e5aba4b6b086cd6", "fusion_lat": 0.0, "type": "electric_scooter", "lat": 38.90564416666667, "is_reserved": 0, "is_disabled": 0, "fusion_lon": 0.0, "bike_id": "aa9d75c16b303b288e5aba4b6b086cd6", "lon": -77.0626995, "rental_uris": {"ios": "https://dc.lft.to/lastmile_qr_scan", "android": "https://dc.lft.to/lastmile_qr_scan"}}, {"name": "93290f8f7acfd6706dfd6c5078e6b24f", "fusion_lat": 0.0, "type": "electric_scooter", "lat": 38.91551616666667, "is_reserved": 0, "is_disabled": 0, "fusion_lon": 0.0, "bike_id": "93290f8f7acfd6706dfd6c5078e6b24f", "lon": -77.03508816666667, "rental_uris": {"ios": "https://dc.lft.to/lastmile_qr_scan", "android": "https://dc.lft.to/lastmile_qr_scan"}}, {"name": "7caf779558fab6b252454f0caf06c9a4", "fusion_lat": 0.0, "type": "electric_scooter", "lat": 38.90030183333333, "is_reserved": 0, "is_disabled": 0, "fusion_lon": 0.0, "bike_id": "7caf779558fab6b252454f0caf06c9a4", "lon": -77.0398405, "rental_uris": {"ios": "https://dc.lft.to/lastmile_qr_scan", "android": "https://dc.lft.to/lastmile_qr_scan"}}, {"name": "d9dc98f7c0b7b78e637177effac04e14", "fusion_lat": 0.0, "type": "electric_scooter", "lat": 38.9187315, "is_reserved": 0, "is_disabled": 0, "fusion_lon": 0.0, "bike_id": "d9dc98f7c0b7b78e637177effac04e14", "lon": -77.04482733333333, "rental_uris": {"ios": "https://dc.lft.to/lastmile_qr_scan", "android": "https://dc.lft.to/lastmile_qr_scan"}}, {"name": "a3d9a8ea4ef1f093af6e471609814979", "fusion_lat": 0.0, "type": "electric_scooter", "lat": 38.92061916666667, "is_reserved": 0, "is_disabled": 0, "fusion_lon": 0.0, "bike_id": "a3d9a8ea4ef1f093af6e471609814979", "lon": -76.99845683333334, "rental_uris": {"ios": "https://dc.lft.to/lastmile_qr_scan", "android": "https://dc.lft.to/lastmile_qr_scan"}}, {"name": "df4bcca75f8bb331a5f43bc30cd910da", "fusion_lat": 0.0, "type": "electric_scooter", "lat": 38.89219683333334, "is_reserved": 0, "is_disabled": 0, "fusion_lon": 0.0, "bike_id": "df4bcca75f8bb331a5f43bc30cd910da", "lon": -77.0317045, "rental_uris": {"ios": "https://dc.lft.to/lastmile_qr_scan", "android": "https://dc.lft.to/lastmile_qr_scan"}}, {"name": "70f3e6cf2a08529f12c1690d8e64a5aa", "fusion_lat": 0.0, "type": "electric_scooter", "lat": 38.92160666666667, "is_reserved": 0, "is_disabled": 0, "fusion_lon": 0.0, "bike_id": "70f3e6cf2a08529f12c1690d8e64a5aa", "lon": -77.03438566666667, "rental_uris": {"ios": "https://dc.lft.to/lastmile_qr_scan", "android": "https://dc.lft.to/lastmile_qr_scan"}}, {"name": "c65204f5320b60cb9c28c07207bf0c79", "fusion_lat": 0.0, "type": "electric_bike", "lat": 38.873022666666664, "is_reserved": 0, "is_disabled": 0, "fusion_lon": 0.0, "bike_id": "c65204f5320b60cb9c28c07207bf0c79", "lon": -77.0108825, "rental_uris": {"ios": "https://dc.lft.to/lastmile_qr_scan", "android": "https://dc.lft.to/lastmile_qr_scan"}}, {"name": "aa60ccdd499147b7a3d78a4f862d9471", "fusion_lat": 0.0, "type": "electric_scooter", "lat": 38.896099, "is_reserved": 0, "is_disabled": 0, "fusion_lon": 0.0, "bike_id": "aa60ccdd499147b7a3d78a4f862d9471", "lon": -77.02312583333334, "rental_uris": {"ios": "https://dc.lft.to/lastmile_qr_scan", "android": "https://dc.lft.to/lastmile_qr_scan"}}, {"name": "bce6ef6b0d93a8b887718277ef048716", "fusion_lat": 0.0, "type": "electric_bike", "lat": 38.93669933333334, "is_reserved": 0, "is_disabled": 0, "fusion_lon": 0.0, "bike_id": "bce6ef6b0d93a8b887718277ef048716", "lon": -76.95202433333333, "rental_uris": {"ios": "https://dc.lft.to/lastmile_qr_scan", "android": "https://dc.lft.to/lastmile_qr_scan"}}, {"name": "2e37727502e369fd0090c623f998149e", "fusion_lat": 0.0, "type": "electric_scooter", "lat": 38.90331833333333, "is_reserved": 0, "is_disabled": 0, "fusion_lon": 0.0, "bike_id": "2e37727502e369fd0090c623f998149e", "lon": -77.029007, "rental_uris": {"ios": "https://dc.lft.to/lastmile_qr_scan", "android": "https://dc.lft.to/lastmile_qr_scan"}}, {"name": "5964c3e10e5810410ee395a066ba5949", "fusion_lat": 0.0, "type": "electric_scooter", "lat": 38.922313, "is_reserved": 0, "is_disabled": 0, "fusion_lon": 0.0, "bike_id": "5964c3e10e5810410ee395a066ba5949", "lon": -77.0233385, "rental_uris": {"ios": "https://dc.lft.to/lastmile_qr_scan", "android": "https://dc.lft.to/lastmile_qr_scan"}}, {"name": "a8cec4faea59c9fb40894e02a23b9d4c", "fusion_lat": 0.0, "type": "electric_scooter", "lat": 38.903265833333336, "is_reserved": 0, "is_disabled": 0, "fusion_lon": 0.0, "bike_id": "a8cec4faea59c9fb40894e02a23b9d4c", "lon": -77.01627883333333, "rental_uris": {"ios": "https://dc.lft.to/lastmile_qr_scan", "android": "https://dc.lft.to/lastmile_qr_scan"}}, {"name": "7266ebe31d96529edaa0d5cb3436ba2d", "fusion_lat": 0.0, "type": "electric_scooter", "lat": 38.88381666666667, "is_reserved": 0, "is_disabled": 0, "fusion_lon": 0.0, "bike_id": "7266ebe31d96529edaa0d5cb3436ba2d", "lon": -76.99523316666667, "rental_uris": {"ios": "https://dc.lft.to/lastmile_qr_scan", "android": "https://dc.lft.to/lastmile_qr_scan"}}, {"name": "f8fda410b656c09bb12b58c20085371e", "fusion_lat": 0.0, "type": "electric_scooter", "lat": 38.901533666666666, "is_reserved": 0, "is_disabled": 0, "fusion_lon": 0.0, "bike_id": "f8fda410b656c09bb12b58c20085371e", "lon": -77.0291235, "rental_uris": {"ios": "https://dc.lft.to/lastmile_qr_scan", "android": "https://dc.lft.to/lastmile_qr_scan"}}, {"name": "66bca5366ad497df6780b741cab990a0", "fusion_lat": 0.0, "type": "electric_scooter", "lat": 38.894169166666664, "is_reserved": 0, "is_disabled": 0, "fusion_lon": 0.0, "bike_id": "66bca5366ad497df6780b741cab990a0", "lon": -76.9395605, "rental_uris": {"ios": "https://dc.lft.to/lastmile_qr_scan", "android": "https://dc.lft.to/lastmile_qr_scan"}}, {"name": "489043efc4ff57636296f40738fb0ca6", "fusion_lat": 0.0, "type": "electric_scooter", "lat": 38.932036833333335, "is_reserved": 0, "is_disabled": 0, "fusion_lon": 0.0, "bike_id": "489043efc4ff57636296f40738fb0ca6", "lon": -77.0385625, "rental_uris": {"ios": "https://dc.lft.to/lastmile_qr_scan", "android": "https://dc.lft.to/lastmile_qr_scan"}}, {"name": "5a03592da030f4fd5c7adf13139e66c3", "fusion_lat": 0.0, "type": "electric_bike", "lat": 38.8382925, "is_reserved": 0, "is_disabled": 0, "fusion_lon": 0.0, "bike_id": "5a03592da030f4fd5c7adf13139e66c3", "lon": -76.99681516666666, "rental_uris": {"ios": "https://dc.lft.to/lastmile_qr_scan", "android": "https://dc.lft.to/lastmile_qr_scan"}}, {"name": "41b439807a7f504995e14db80985c9f8", "fusion_lat": 0.0, "type": "electric_scooter", "lat": 38.89741083333333, "is_reserved": 0, "is_disabled": 0, "fusion_lon": 0.0, "bike_id": "41b439807a7f504995e14db80985c9f8", "lon": -76.93846366666666, "rental_uris": {"ios": "https://dc.lft.to/lastmile_qr_scan", "android": "https://dc.lft.to/lastmile_qr_scan"}}, {"name": "c8b713c133a83fbbe979f09c1007f565", "fusion_lat": 0.0, "type": "electric_bike", "lat": 38.799818, "is_reserved": 0, "is_disabled": 0, "fusion_lon": 0.0, "bike_id": "c8b713c133a83fbbe979f09c1007f565", "lon": -77.12980033333334, "rental_uris": {"ios": "https://dc.lft.to/lastmile_qr_scan", "android": "https://dc.lft.to/lastmile_qr_scan"}}, {"name": "e98e0eb5cd1e0d5504354b75dccb3317", "fusion_lat": 0.0, "type": "electric_scooter", "lat": 38.941772666666665, "is_reserved": 0, "is_disabled": 0, "fusion_lon": 0.0, "bike_id": "e98e0eb5cd1e0d5504354b75dccb3317", "lon": -77.0250835, "rental_uris": {"ios": "https://dc.lft.to/lastmile_qr_scan", "android": "https://dc.lft.to/lastmile_qr_scan"}}, {"name": "3f1de76f67c629ce8db4399549893531", "fusion_lat": 0.0, "type": "electric_scooter", "lat": 38.88687733333333, "is_reserved": 0, "is_disabled": 0, "fusion_lon": 0.0, "bike_id": "3f1de76f67c629ce8db4399549893531", "lon": -76.957586, "rental_uris": {"ios": "https://dc.lft.to/lastmile_qr_scan", "android": "https://dc.lft.to/lastmile_qr_scan"}}, {"name": "da06b064f174f2c8e08458b9186c7599", "fusion_lat": 0.0, "type": "electric_scooter", "lat": 38.91109383333333, "is_reserved": 0, "is_disabled": 0, "fusion_lon": 0.0, "bike_id": "da06b064f174f2c8e08458b9186c7599", "lon": -77.03143083333333, "rental_uris": {"ios": "https://dc.lft.to/lastmile_qr_scan", "android": "https://dc.lft.to/lastmile_qr_scan"}}, {"name": "a1cf4652cb75788af5001aaa2554e33d", "fusion_lat": 0.0, "type": "electric_scooter", "lat": 38.9159425, "is_reserved": 0, "is_disabled": 0, "fusion_lon": 0.0, "bike_id": "a1cf4652cb75788af5001aaa2554e33d", "lon": -77.038557, "rental_uris": {"ios": "https://dc.lft.to/lastmile_qr_scan", "android": "https://dc.lft.to/lastmile_qr_scan"}}, {"name": "7552c1b4d9f4eed2cea79adbfd4f9657", "fusion_lat": 0.0, "type": "electric_scooter", "lat": 38.9049865, "is_reserved": 0, "is_disabled": 0, "fusion_lon": 0.0, "bike_id": "7552c1b4d9f4eed2cea79adbfd4f9657", "lon": -77.0653805, "rental_uris": {"ios": "https://dc.lft.to/lastmile_qr_scan", "android": "https://dc.lft.to/lastmile_qr_scan"}}, {"name": "b811d09ae6d6c94aa1dd8e26690efd4e", "fusion_lat": 0.0, "type": "electric_scooter", "lat": 38.92163, "is_reserved": 0, "is_disabled": 0, "fusion_lon": 0.0, "bike_id": "b811d09ae6d6c94aa1dd8e26690efd4e", "lon": -77.04220333333333, "rental_uris": {"ios": "https://dc.lft.to/lastmile_qr_scan", "android": "https://dc.lft.to/lastmile_qr_scan"}}, {"name": "355e7d0573e0fd522a086efef76d83ce", "fusion_lat": 0.0, "type": "electric_scooter", "lat": 38.89518233333333, "is_reserved": 0, "is_disabled": 0, "fusion_lon": 0.0, "bike_id": "355e7d0573e0fd522a086efef76d83ce", "lon": -77.02556, "rental_uris": {"ios": "https://dc.lft.to/lastmile_qr_scan", "android": "https://dc.lft.to/lastmile_qr_scan"}}, {"name": "83ebfb63d5cfea4ca666a66e9af07dd3", "fusion_lat": 0.0, "type": "electric_scooter", "lat": 38.89198533333333, "is_reserved": 0, "is_disabled": 0, "fusion_lon": 0.0, "bike_id": "83ebfb63d5cfea4ca666a66e9af07dd3", "lon": -76.99200116666667, "rental_uris": {"ios": "https://dc.lft.to/lastmile_qr_scan", "android": "https://dc.lft.to/lastmile_qr_scan"}}, {"name": "0d4a3e8ab221e0c9769f66c2ec4fcdb0", "fusion_lat": 0.0, "type": "electric_scooter", "lat": 38.85849533333333, "is_reserved": 0, "is_disabled": 0, "fusion_lon": 0.0, "bike_id": "0d4a3e8ab221e0c9769f66c2ec4fcdb0", "lon": -76.95882566666667, "rental_uris": {"ios": "https://dc.lft.to/lastmile_qr_scan", "android": "https://dc.lft.to/lastmile_qr_scan"}}, {"name": "d2c24eebc27274ef509a114642614b10", "fusion_lat": 0.0, "type": "electric_scooter", "lat": 38.90957316666667, "is_reserved": 0, "is_disabled": 0, "fusion_lon": 0.0, "bike_id": "d2c24eebc27274ef509a114642614b10", "lon": -77.04647033333333, "rental_uris": {"ios": "https://dc.lft.to/lastmile_qr_scan", "android": "https://dc.lft.to/lastmile_qr_scan"}}, {"name": "9044848667bb87518d623fa9f7bf9cf2", "fusion_lat": 0.0, "type": "electric_scooter", "lat": 38.90036533333333, "is_reserved": 0, "is_disabled": 0, "fusion_lon": 0.0, "bike_id": "9044848667bb87518d623fa9f7bf9cf2", "lon": -77.04324233333334, "rental_uris": {"ios": "https://dc.lft.to/lastmile_qr_scan", "android": "https://dc.lft.to/lastmile_qr_scan"}}, {"name": "48c2e945bf9e3f059098b4bc246e6fbf", "fusion_lat": 0.0, "type": "electric_scooter", "lat": 38.90776983333333, "is_reserved": 0, "is_disabled": 0, "fusion_lon": 0.0, "bike_id": "48c2e945bf9e3f059098b4bc246e6fbf", "lon": -77.07163716666666, "rental_uris": {"ios": "https://dc.lft.to/lastmile_qr_scan", "android": "https://dc.lft.to/lastmile_qr_scan"}}, {"name": "20308507f65c70bdc3a1063ebc732e8b", "fusion_lat": 0.0, "type": "electric_scooter", "lat": 38.917076, "is_reserved": 0, "is_disabled": 0, "fusion_lon": 0.0, "bike_id": "20308507f65c70bdc3a1063ebc732e8b", "lon": -77.027831, "rental_uris": {"ios": "https://dc.lft.to/lastmile_qr_scan", "android": "https://dc.lft.to/lastmile_qr_scan"}}, {"name": "a0d8667d98d8bb9f7492b934f77a33f4", "fusion_lat": 0.0, "type": "electric_scooter", "lat": 38.89471433333333, "is_reserved": 0, "is_disabled": 0, "fusion_lon": 0.0, "bike_id": "a0d8667d98d8bb9f7492b934f77a33f4", "lon": -77.021795, "rental_uris": {"ios": "https://dc.lft.to/lastmile_qr_scan", "android": "https://dc.lft.to/lastmile_qr_scan"}}, {"name": "b682a5b5bd26d87af7f18400dde825df", "fusion_lat": 0.0, "type": "electric_scooter", "lat": 38.911527, "is_reserved": 0, "is_disabled": 0, "fusion_lon": 0.0, "bike_id": "b682a5b5bd26d87af7f18400dde825df", "lon": -77.044285, "rental_uris": {"ios": "https://dc.lft.to/lastmile_qr_scan", "android": "https://dc.lft.to/lastmile_qr_scan"}}, {"name": "77cf5917337ea98ff18c87087ff814ef", "fusion_lat": 0.0, "type": "electric_scooter", "lat": 38.898555, "is_reserved": 0, "is_disabled": 0, "fusion_lon": 0.0, "bike_id": "77cf5917337ea98ff18c87087ff814ef", "lon": -77.01612716666666, "rental_uris": {"ios": "https://dc.lft.to/lastmile_qr_scan", "android": "https://dc.lft.to/lastmile_qr_scan"}}, {"name": "c7b9c07a1924754e44eabcc29ff4c937", "fusion_lat": 0.0, "type": "electric_scooter", "lat": 38.937076, "is_reserved": 0, "is_disabled": 0, "fusion_lon": 0.0, "bike_id": "c7b9c07a1924754e44eabcc29ff4c937", "lon": -77.06104133333334, "rental_uris": {"ios": "https://dc.lft.to/lastmile_qr_scan", "android": "https://dc.lft.to/lastmile_qr_scan"}}, {"name": "d037b97cc95a3283965dd14a15da85e6", "fusion_lat": 0.0, "type": "electric_scooter", "lat": 38.876736666666666, "is_reserved": 0, "is_disabled": 0, "fusion_lon": 0.0, "bike_id": "d037b97cc95a3283965dd14a15da85e6", "lon": -77.0045605, "rental_uris": {"ios": "https://dc.lft.to/lastmile_qr_scan", "android": "https://dc.lft.to/lastmile_qr_scan"}}, {"name": "7f7c8c71bc8ae0902440216783829e42", "fusion_lat": 0.0, "type": "electric_scooter", "lat": 38.89644916666666, "is_reserved": 0, "is_disabled": 0, "fusion_lon": 0.0, "bike_id": "7f7c8c71bc8ae0902440216783829e42", "lon": -77.0467275, "rental_uris": {"ios": "https://dc.lft.to/lastmile_qr_scan", "android": "https://dc.lft.to/lastmile_qr_scan"}}, {"name": "2076f660b186e37a585c912a41b3c0de", "fusion_lat": 0.0, "type": "electric_scooter", "lat": 38.9365595, "is_reserved": 0, "is_disabled": 0, "fusion_lon": 0.0, "bike_id": "2076f660b186e37a585c912a41b3c0de", "lon": -77.03261116666667, "rental_uris": {"ios": "https://dc.lft.to/lastmile_qr_scan", "android": "https://dc.lft.to/lastmile_qr_scan"}}, {"name": "b8608eba5d84fdfbc8699af59b428314", "fusion_lat": 0.0, "type": "electric_scooter", "lat": 38.9274135, "is_reserved": 0, "is_disabled": 0, "fusion_lon": 0.0, "bike_id": "b8608eba5d84fdfbc8699af59b428314", "lon": -77.0249115, "rental_uris": {"ios": "https://dc.lft.to/lastmile_qr_scan", "android": "https://dc.lft.to/lastmile_qr_scan"}}, {"name": "a62e9e806315c3ae9a91144f7a160e68", "fusion_lat": 0.0, "type": "electric_scooter", "lat": 38.910110833333334, "is_reserved": 0, "is_disabled": 0, "fusion_lon": 0.0, "bike_id": "a62e9e806315c3ae9a91144f7a160e68", "lon": -76.9967545, "rental_uris": {"ios": "https://dc.lft.to/lastmile_qr_scan", "android": "https://dc.lft.to/lastmile_qr_scan"}}, {"name": "71d17f3afad36e130cc3d0efa78953aa", "fusion_lat": 0.0, "type": "electric_scooter", "lat": 38.944060666666665, "is_reserved": 0, "is_disabled": 0, "fusion_lon": 0.0, "bike_id": "71d17f3afad36e130cc3d0efa78953aa", "lon": -77.06328983333333, "rental_uris": {"ios": "https://dc.lft.to/lastmile_qr_scan", "android": "https://dc.lft.to/lastmile_qr_scan"}}, {"name": "ce6b076fb4bb5da2cc41aab8826e13af", "fusion_lat": 0.0, "type": "electric_scooter", "lat": 38.93125583333333, "is_reserved": 0, "is_disabled": 0, "fusion_lon": 0.0, "bike_id": "ce6b076fb4bb5da2cc41aab8826e13af", "lon": -77.036023, "rental_uris": {"ios": "https://dc.lft.to/lastmile_qr_scan", "android": "https://dc.lft.to/lastmile_qr_scan"}}, {"name": "4a81c783ea96f839c8fb3d2f388b4ae5", "fusion_lat": 0.0, "type": "electric_scooter", "lat": 38.9140985, "is_reserved": 0, "is_disabled": 0, "fusion_lon": 0.0, "bike_id": "4a81c783ea96f839c8fb3d2f388b4ae5", "lon": -77.04573183333333, "rental_uris": {"ios": "https://dc.lft.to/lastmile_qr_scan", "android": "https://dc.lft.to/lastmile_qr_scan"}}, {"name": "1f51aa7f3ac3ec56be62023e970893d6", "fusion_lat": 0.0, "type": "electric_scooter", "lat": 38.90029766666667, "is_reserved": 0, "is_disabled": 0, "fusion_lon": 0.0, "bike_id": "1f51aa7f3ac3ec56be62023e970893d6", "lon": -76.99563166666667, "rental_uris": {"ios": "https://dc.lft.to/lastmile_qr_scan", "android": "https://dc.lft.to/lastmile_qr_scan"}}, {"name": "328d473027042b85a7c8f886b7768ff9", "fusion_lat": 0.0, "type": "electric_scooter", "lat": 38.89734116666666, "is_reserved": 0, "is_disabled": 0, "fusion_lon": 0.0, "bike_id": "328d473027042b85a7c8f886b7768ff9", "lon": -77.02169766666667, "rental_uris": {"ios": "https://dc.lft.to/lastmile_qr_scan", "android": "https://dc.lft.to/lastmile_qr_scan"}}, {"name": "1a0a3d8fb425730f83b122b2d53ab5c9", "fusion_lat": 0.0, "type": "electric_scooter", "lat": 38.8948335, "is_reserved": 0, "is_disabled": 0, "fusion_lon": 0.0, "bike_id": "1a0a3d8fb425730f83b122b2d53ab5c9", "lon": -76.94868916666667, "rental_uris": {"ios": "https://dc.lft.to/lastmile_qr_scan", "android": "https://dc.lft.to/lastmile_qr_scan"}}, {"name": "f4d43ab09506ddf601a7551fbd4a3325", "fusion_lat": 0.0, "type": "electric_scooter", "lat": 38.90125483333333, "is_reserved": 0, "is_disabled": 0, "fusion_lon": 0.0, "bike_id": "f4d43ab09506ddf601a7551fbd4a3325", "lon": -77.046353, "rental_uris": {"ios": "https://dc.lft.to/lastmile_qr_scan", "android": "https://dc.lft.to/lastmile_qr_scan"}}, {"name": "db01733d70342a95678df465750acfbe", "fusion_lat": 0.0, "type": "electric_bike", "lat": 38.94553066666667, "is_reserved": 0, "is_disabled": 0, "fusion_lon": 0.0, "bike_id": "db01733d70342a95678df465750acfbe", "lon": -76.89536783333334, "rental_uris": {"ios": "https://dc.lft.to/lastmile_qr_scan", "android": "https://dc.lft.to/lastmile_qr_scan"}}, {"name": "e1461f7a3b4c736f2ef70e6878cc7141", "fusion_lat": 0.0, "type": "electric_scooter", "lat": 38.90277183333333, "is_reserved": 0, "is_disabled": 0, "fusion_lon": 0.0, "bike_id": "e1461f7a3b4c736f2ef70e6878cc7141", "lon": -77.0176205, "rental_uris": {"ios": "https://dc.lft.to/lastmile_qr_scan", "android": "https://dc.lft.to/lastmile_qr_scan"}}, {"name": "fe672d9795c3ef4b59e63f77bf674560", "fusion_lat": 0.0, "type": "electric_scooter", "lat": 38.8929325, "is_reserved": 0, "is_disabled": 0, "fusion_lon": 0.0, "bike_id": "fe672d9795c3ef4b59e63f77bf674560", "lon": -77.032035, "rental_uris": {"ios": "https://dc.lft.to/lastmile_qr_scan", "android": "https://dc.lft.to/lastmile_qr_scan"}}, {"name": "2ce101cdfd8c411521611f6bff72a86a", "fusion_lat": 0.0, "type": "electric_scooter", "lat": 38.883891, "is_reserved": 0, "is_disabled": 0, "fusion_lon": 0.0, "bike_id": "2ce101cdfd8c411521611f6bff72a86a", "lon": -76.9304565, "rental_uris": {"ios": "https://dc.lft.to/lastmile_qr_scan", "android": "https://dc.lft.to/lastmile_qr_scan"}}, {"name": "e12ef51b4595b74077617dacef1d9718", "fusion_lat": 0.0, "type": "electric_scooter", "lat": 38.875691833333335, "is_reserved": 0, "is_disabled": 0, "fusion_lon": 0.0, "bike_id": "e12ef51b4595b74077617dacef1d9718", "lon": -77.00611383333333, "rental_uris": {"ios": "https://dc.lft.to/lastmile_qr_scan", "android": "https://dc.lft.to/lastmile_qr_scan"}}, {"name": "d8b3ee97e084aecf12c9acafdb913f7e", "fusion_lat": 0.0, "type": "electric_scooter", "lat": 38.938750666666664, "is_reserved": 0, "is_disabled": 0, "fusion_lon": 0.0, "bike_id": "d8b3ee97e084aecf12c9acafdb913f7e", "lon": -77.02919083333333, "rental_uris": {"ios": "https://dc.lft.to/lastmile_qr_scan", "android": "https://dc.lft.to/lastmile_qr_scan"}}, {"name": "0f885fdc00fa39d14918b316404a42ed", "fusion_lat": 0.0, "type": "electric_scooter", "lat": 38.90712633333333, "is_reserved": 0, "is_disabled": 0, "fusion_lon": 0.0, "bike_id": "0f885fdc00fa39d14918b316404a42ed", "lon": -77.01509783333333, "rental_uris": {"ios": "https://dc.lft.to/lastmile_qr_scan", "android": "https://dc.lft.to/lastmile_qr_scan"}}, {"name": "18a924bd951662463d64968f0cc65917", "fusion_lat": 0.0, "type": "electric_scooter", "lat": 38.92872283333333, "is_reserved": 0, "is_disabled": 0, "fusion_lon": 0.0, "bike_id": "18a924bd951662463d64968f0cc65917", "lon": -77.01377366666667, "rental_uris": {"ios": "https://dc.lft.to/lastmile_qr_scan", "android": "https://dc.lft.to/lastmile_qr_scan"}}, {"name": "8915334b7d90c1d35e5cd6e9438842e8", "fusion_lat": 0.0, "type": "electric_scooter", "lat": 38.926097666666664, "is_reserved": 0, "is_disabled": 0, "fusion_lon": 0.0, "bike_id": "8915334b7d90c1d35e5cd6e9438842e8", "lon": -77.02158733333333, "rental_uris": {"ios": "https://dc.lft.to/lastmile_qr_scan", "android": "https://dc.lft.to/lastmile_qr_scan"}}, {"name": "43518db4126da99f90622db68a8411f2", "fusion_lat": 0.0, "type": "electric_scooter", "lat": 38.90241733333333, "is_reserved": 0, "is_disabled": 0, "fusion_lon": 0.0, "bike_id": "43518db4126da99f90622db68a8411f2", "lon": -77.0435295, "rental_uris": {"ios": "https://dc.lft.to/lastmile_qr_scan", "android": "https://dc.lft.to/lastmile_qr_scan"}}, {"name": "3fef23693f79ef75ba77338c7a4fc918", "fusion_lat": 0.0, "type": "electric_scooter", "lat": 38.9297275, "is_reserved": 0, "is_disabled": 0, "fusion_lon": 0.0, "bike_id": "3fef23693f79ef75ba77338c7a4fc918", "lon": -77.02959166666666, "rental_uris": {"ios": "https://dc.lft.to/lastmile_qr_scan", "android": "https://dc.lft.to/lastmile_qr_scan"}}, {"name": "315a0576348c7c39733c4d3cd4ca3360", "fusion_lat": 0.0, "type": "electric_scooter", "lat": 38.93126683333333, "is_reserved": 0, "is_disabled": 0, "fusion_lon": 0.0, "bike_id": "315a0576348c7c39733c4d3cd4ca3360", "lon": -77.03602883333333, "rental_uris": {"ios": "https://dc.lft.to/lastmile_qr_scan", "android": "https://dc.lft.to/lastmile_qr_scan"}}, {"name": "30201cdd1834aefaf08d3e43ef63e06b", "fusion_lat": 0.0, "type": "electric_bike", "lat": 38.973269333333334, "is_reserved": 0, "is_disabled": 0, "fusion_lon": 0.0, "bike_id": "30201cdd1834aefaf08d3e43ef63e06b", "lon": -77.02143616666666, "rental_uris": {"ios": "https://dc.lft.to/lastmile_qr_scan", "android": "https://dc.lft.to/lastmile_qr_scan"}}, {"name": "d7c838944c9df646e91c6def2f61a0cb", "fusion_lat": 0.0, "type": "electric_scooter", "lat": 38.896490166666666, "is_reserved": 0, "is_disabled": 0, "fusion_lon": 0.0, "bike_id": "d7c838944c9df646e91c6def2f61a0cb", "lon": -77.0092025, "rental_uris": {"ios": "https://dc.lft.to/lastmile_qr_scan", "android": "https://dc.lft.to/lastmile_qr_scan"}}, {"name": "7c6f6778bc2cdb508987d1055f3a0e0b", "fusion_lat": 0.0, "type": "electric_scooter", "lat": 38.918040500000004, "is_reserved": 0, "is_disabled": 0, "fusion_lon": 0.0, "bike_id": "7c6f6778bc2cdb508987d1055f3a0e0b", "lon": -77.02811533333333, "rental_uris": {"ios": "https://dc.lft.to/lastmile_qr_scan", "android": "https://dc.lft.to/lastmile_qr_scan"}}, {"name": "939e44653365c1031223db19d9d9937f", "fusion_lat": 0.0, "type": "electric_scooter", "lat": 38.9307665, "is_reserved": 0, "is_disabled": 0, "fusion_lon": 0.0, "bike_id": "939e44653365c1031223db19d9d9937f", "lon": -77.02392866666666, "rental_uris": {"ios": "https://dc.lft.to/lastmile_qr_scan", "android": "https://dc.lft.to/lastmile_qr_scan"}}, {"name": "b80e079baa1586c0e8de7490cec3a984", "fusion_lat": 0.0, "type": "electric_scooter", "lat": 38.903218, "is_reserved": 0, "is_disabled": 0, "fusion_lon": 0.0, "bike_id": "b80e079baa1586c0e8de7490cec3a984", "lon": -77.0383, "rental_uris": {"ios": "https://dc.lft.to/lastmile_qr_scan", "android": "https://dc.lft.to/lastmile_qr_scan"}}, {"name": "1d5b8c736870b6258519e35c80d824e0", "fusion_lat": 0.0, "type": "electric_scooter", "lat": 38.901430500000004, "is_reserved": 0, "is_disabled": 0, "fusion_lon": 0.0, "bike_id": "1d5b8c736870b6258519e35c80d824e0", "lon": -76.99968716666666, "rental_uris": {"ios": "https://dc.lft.to/lastmile_qr_scan", "android": "https://dc.lft.to/lastmile_qr_scan"}}, {"name": "72c87a30d58a59549d5e98f7787f809d", "fusion_lat": 0.0, "type": "electric_bike", "lat": 38.9028905, "is_reserved": 0, "is_disabled": 0, "fusion_lon": 0.0, "bike_id": "72c87a30d58a59549d5e98f7787f809d", "lon": -76.98086133333334, "rental_uris": {"ios": "https://dc.lft.to/lastmile_qr_scan", "android": "https://dc.lft.to/lastmile_qr_scan"}}, {"name": "d495ac1e6f3475d438fed0292091d7fc", "fusion_lat": 0.0, "type": "electric_bike", "lat": 38.973265166666664, "is_reserved": 0, "is_disabled": 0, "fusion_lon": 0.0, "bike_id": "d495ac1e6f3475d438fed0292091d7fc", "lon": -77.021476, "rental_uris": {"ios": "https://dc.lft.to/lastmile_qr_scan", "android": "https://dc.lft.to/lastmile_qr_scan"}}, {"name": "5a28b026a6de0b1e53e6d8109735e1de", "fusion_lat": 0.0, "type": "electric_scooter", "lat": 38.9342935, "is_reserved": 0, "is_disabled": 0, "fusion_lon": 0.0, "bike_id": "5a28b026a6de0b1e53e6d8109735e1de", "lon": -77.0400255, "rental_uris": {"ios": "https://dc.lft.to/lastmile_qr_scan", "android": "https://dc.lft.to/lastmile_qr_scan"}}, {"name": "a2aaa836cca0eb27d7f6b66999564c47", "fusion_lat": 0.0, "type": "electric_bike", "lat": 38.838625666666665, "is_reserved": 0, "is_disabled": 0, "fusion_lon": 0.0, "bike_id": "a2aaa836cca0eb27d7f6b66999564c47", "lon": -77.08867366666666, "rental_uris": {"ios": "https://dc.lft.to/lastmile_qr_scan", "android": "https://dc.lft.to/lastmile_qr_scan"}}, {"name": "a42cafa15917d908f3e1471eb9d4ac49", "fusion_lat": 0.0, "type": "electric_scooter", "lat": 38.91818583333333, "is_reserved": 0, "is_disabled": 0, "fusion_lon": 0.0, "bike_id": "a42cafa15917d908f3e1471eb9d4ac49", "lon": -77.04015333333334, "rental_uris": {"ios": "https://dc.lft.to/lastmile_qr_scan", "android": "https://dc.lft.to/lastmile_qr_scan"}}, {"name": "50a72f582cbf342f3574fea9a6e7624e", "fusion_lat": 0.0, "type": "electric_scooter", "lat": 38.899181166666665, "is_reserved": 0, "is_disabled": 0, "fusion_lon": 0.0, "bike_id": "50a72f582cbf342f3574fea9a6e7624e", "lon": -76.93381666666667, "rental_uris": {"ios": "https://dc.lft.to/lastmile_qr_scan", "android": "https://dc.lft.to/lastmile_qr_scan"}}, {"name": "5e6d4ba53940ff349e6b5a75e33e48db", "fusion_lat": 0.0, "type": "electric_scooter", "lat": 38.91779733333333, "is_reserved": 0, "is_disabled": 0, "fusion_lon": 0.0, "bike_id": "5e6d4ba53940ff349e6b5a75e33e48db", "lon": -77.03439466666667, "rental_uris": {"ios": "https://dc.lft.to/lastmile_qr_scan", "android": "https://dc.lft.to/lastmile_qr_scan"}}, {"name": "e9e80cf04a9a5cc7579f741176aa5031", "fusion_lat": 0.0, "type": "electric_scooter", "lat": 38.88761233333334, "is_reserved": 0, "is_disabled": 0, "fusion_lon": 0.0, "bike_id": "e9e80cf04a9a5cc7579f741176aa5031", "lon": -76.95602983333333, "rental_uris": {"ios": "https://dc.lft.to/lastmile_qr_scan", "android": "https://dc.lft.to/lastmile_qr_scan"}}, {"name": "922f97bcdddb364cd01a7aa4a086a250", "fusion_lat": 0.0, "type": "electric_scooter", "lat": 38.9050655, "is_reserved": 0, "is_disabled": 0, "fusion_lon": 0.0, "bike_id": "922f97bcdddb364cd01a7aa4a086a250", "lon": -77.04473016666667, "rental_uris": {"ios": "https://dc.lft.to/lastmile_qr_scan", "android": "https://dc.lft.to/lastmile_qr_scan"}}, {"name": "f50fa799758b0be962e5810f1b644397", "fusion_lat": 0.0, "type": "electric_scooter", "lat": 38.936160666666666, "is_reserved": 0, "is_disabled": 0, "fusion_lon": 0.0, "bike_id": "f50fa799758b0be962e5810f1b644397", "lon": -77.0321225, "rental_uris": {"ios": "https://dc.lft.to/lastmile_qr_scan", "android": "https://dc.lft.to/lastmile_qr_scan"}}, {"name": "7f2929a14586be05a721c26e84551696", "fusion_lat": 0.0, "type": "electric_scooter", "lat": 38.911749666666665, "is_reserved": 0, "is_disabled": 0, "fusion_lon": 0.0, "bike_id": "7f2929a14586be05a721c26e84551696", "lon": -77.0112855, "rental_uris": {"ios": "https://dc.lft.to/lastmile_qr_scan", "android": "https://dc.lft.to/lastmile_qr_scan"}}, {"name": "101fa57f757dd164911271007be72487", "fusion_lat": 0.0, "type": "electric_scooter", "lat": 38.9359195, "is_reserved": 0, "is_disabled": 0, "fusion_lon": 0.0, "bike_id": "101fa57f757dd164911271007be72487", "lon": -76.99120283333333, "rental_uris": {"ios": "https://dc.lft.to/lastmile_qr_scan", "android": "https://dc.lft.to/lastmile_qr_scan"}}, {"name": "3073c11c051c48f2addf13b57e421c63", "fusion_lat": 0.0, "type": "electric_scooter", "lat": 38.93258816666667, "is_reserved": 0, "is_disabled": 0, "fusion_lon": 0.0, "bike_id": "3073c11c051c48f2addf13b57e421c63", "lon": -77.0401455, "rental_uris": {"ios": "https://dc.lft.to/lastmile_qr_scan", "android": "https://dc.lft.to/lastmile_qr_scan"}}, {"name": "37d5b88471632c90d19c42b1500a590e", "fusion_lat": 0.0, "type": "electric_scooter", "lat": 38.912716, "is_reserved": 0, "is_disabled": 0, "fusion_lon": 0.0, "bike_id": "37d5b88471632c90d19c42b1500a590e", "lon": -77.0387415, "rental_uris": {"ios": "https://dc.lft.to/lastmile_qr_scan", "android": "https://dc.lft.to/lastmile_qr_scan"}}, {"name": "8c50517c311c23cfef29b8df13cfb18a", "fusion_lat": 0.0, "type": "electric_scooter", "lat": 38.9165875, "is_reserved": 0, "is_disabled": 0, "fusion_lon": 0.0, "bike_id": "8c50517c311c23cfef29b8df13cfb18a", "lon": -77.03704116666667, "rental_uris": {"ios": "https://dc.lft.to/lastmile_qr_scan", "android": "https://dc.lft.to/lastmile_qr_scan"}}, {"name": "11590d4693a9721b083f0b6df01d9753", "fusion_lat": 0.0, "type": "electric_scooter", "lat": 38.90703716666667, "is_reserved": 0, "is_disabled": 0, "fusion_lon": 0.0, "bike_id": "11590d4693a9721b083f0b6df01d9753", "lon": -77.02392316666666, "rental_uris": {"ios": "https://dc.lft.to/lastmile_qr_scan", "android": "https://dc.lft.to/lastmile_qr_scan"}}, {"name": "a225c5ccb50845a0122a378df823ac96", "fusion_lat": 0.0, "type": "electric_scooter", "lat": 38.890908333333336, "is_reserved": 0, "is_disabled": 0, "fusion_lon": 0.0, "bike_id": "a225c5ccb50845a0122a378df823ac96", "lon": -76.98731933333333, "rental_uris": {"ios": "https://dc.lft.to/lastmile_qr_scan", "android": "https://dc.lft.to/lastmile_qr_scan"}}, {"name": "12c47e27742b8b7325eba297c2b6177a", "fusion_lat": 0.0, "type": "electric_bike", "lat": 38.892173, "is_reserved": 0, "is_disabled": 0, "fusion_lon": 0.0, "bike_id": "12c47e27742b8b7325eba297c2b6177a", "lon": -77.107745, "rental_uris": {"ios": "https://dc.lft.to/lastmile_qr_scan", "android": "https://dc.lft.to/lastmile_qr_scan"}}, {"name": "1f76581758bcd04d3ff0626fa1ad5738", "fusion_lat": 0.0, "type": "electric_scooter", "lat": 38.911386, "is_reserved": 0, "is_disabled": 0, "fusion_lon": 0.0, "bike_id": "1f76581758bcd04d3ff0626fa1ad5738", "lon": -77.041953, "rental_uris": {"ios": "https://dc.lft.to/lastmile_qr_scan", "android": "https://dc.lft.to/lastmile_qr_scan"}}, {"name": "325441314f25293e3707d6d7405380a9", "fusion_lat": 0.0, "type": "electric_scooter", "lat": 38.891877666666666, "is_reserved": 0, "is_disabled": 0, "fusion_lon": 0.0, "bike_id": "325441314f25293e3707d6d7405380a9", "lon": -77.015832, "rental_uris": {"ios": "https://dc.lft.to/lastmile_qr_scan", "android": "https://dc.lft.to/lastmile_qr_scan"}}, {"name": "54282b98cae8c754ed664569f68ad193", "fusion_lat": 0.0, "type": "electric_scooter", "lat": 38.91102033333333, "is_reserved": 0, "is_disabled": 0, "fusion_lon": 0.0, "bike_id": "54282b98cae8c754ed664569f68ad193", "lon": -77.07343716666666, "rental_uris": {"ios": "https://dc.lft.to/lastmile_qr_scan", "android": "https://dc.lft.to/lastmile_qr_scan"}}, {"name": "95104e35762561330522f07f80889cac", "fusion_lat": 0.0, "type": "electric_scooter", "lat": 38.90560833333333, "is_reserved": 0, "is_disabled": 0, "fusion_lon": 0.0, "bike_id": "95104e35762561330522f07f80889cac", "lon": -77.0276225, "rental_uris": {"ios": "https://dc.lft.to/lastmile_qr_scan", "android": "https://dc.lft.to/lastmile_qr_scan"}}, {"name": "a415743706d59233fa055ea13d98b081", "fusion_lat": 0.0, "type": "electric_scooter", "lat": 38.85925116666667, "is_reserved": 0, "is_disabled": 0, "fusion_lon": 0.0, "bike_id": "a415743706d59233fa055ea13d98b081", "lon": -76.98977166666667, "rental_uris": {"ios": "https://dc.lft.to/lastmile_qr_scan", "android": "https://dc.lft.to/lastmile_qr_scan"}}, {"name": "674303617ea26a0cc672ccb774e88095", "fusion_lat": 0.0, "type": "electric_scooter", "lat": 38.90089616666667, "is_reserved": 0, "is_disabled": 0, "fusion_lon": 0.0, "bike_id": "674303617ea26a0cc672ccb774e88095", "lon": -77.03208316666667, "rental_uris": {"ios": "https://dc.lft.to/lastmile_qr_scan", "android": "https://dc.lft.to/lastmile_qr_scan"}}, {"name": "b114fd0b6c27747a467fcacae01ae252", "fusion_lat": 0.0, "type": "electric_scooter", "lat": 38.92183466666667, "is_reserved": 0, "is_disabled": 0, "fusion_lon": 0.0, "bike_id": "b114fd0b6c27747a467fcacae01ae252", "lon": -77.040112, "rental_uris": {"ios": "https://dc.lft.to/lastmile_qr_scan", "android": "https://dc.lft.to/lastmile_qr_scan"}}, {"name": "42790bb2bfcf552a54ee516f5f23f721", "fusion_lat": 0.0, "type": "electric_scooter", "lat": 38.933943666666664, "is_reserved": 0, "is_disabled": 0, "fusion_lon": 0.0, "bike_id": "42790bb2bfcf552a54ee516f5f23f721", "lon": -77.0358195, "rental_uris": {"ios": "https://dc.lft.to/lastmile_qr_scan", "android": "https://dc.lft.to/lastmile_qr_scan"}}, {"name": "267b049a2ff0999d48301dab812ca706", "fusion_lat": 0.0, "type": "electric_bike", "lat": 38.927450666666665, "is_reserved": 0, "is_disabled": 0, "fusion_lon": 0.0, "bike_id": "267b049a2ff0999d48301dab812ca706", "lon": -77.036336, "rental_uris": {"ios": "https://dc.lft.to/lastmile_qr_scan", "android": "https://dc.lft.to/lastmile_qr_scan"}}, {"name": "718cccb4e73d9f5b0321b3dd5aede115", "fusion_lat": 0.0, "type": "electric_scooter", "lat": 38.872894333333335, "is_reserved": 0, "is_disabled": 0, "fusion_lon": 0.0, "bike_id": "718cccb4e73d9f5b0321b3dd5aede115", "lon": -77.00986266666666, "rental_uris": {"ios": "https://dc.lft.to/lastmile_qr_scan", "android": "https://dc.lft.to/lastmile_qr_scan"}}, {"name": "ebb8d5ad5f9f2ec2eb07dfdbffee2961", "fusion_lat": 0.0, "type": "electric_scooter", "lat": 38.93005433333333, "is_reserved": 0, "is_disabled": 0, "fusion_lon": 0.0, "bike_id": "ebb8d5ad5f9f2ec2eb07dfdbffee2961", "lon": -77.05518016666667, "rental_uris": {"ios": "https://dc.lft.to/lastmile_qr_scan", "android": "https://dc.lft.to/lastmile_qr_scan"}}, {"name": "ba14126a5d8c471ae376224982b9fc37", "fusion_lat": 0.0, "type": "electric_scooter", "lat": 38.9573365, "is_reserved": 0, "is_disabled": 0, "fusion_lon": 0.0, "bike_id": "ba14126a5d8c471ae376224982b9fc37", "lon": -77.02404283333334, "rental_uris": {"ios": "https://dc.lft.to/lastmile_qr_scan", "android": "https://dc.lft.to/lastmile_qr_scan"}}, {"name": "c13b97741e5ace06db43817f7612a64c", "fusion_lat": 0.0, "type": "electric_scooter", "lat": 38.883217333333334, "is_reserved": 0, "is_disabled": 0, "fusion_lon": 0.0, "bike_id": "c13b97741e5ace06db43817f7612a64c", "lon": -77.02366716666667, "rental_uris": {"ios": "https://dc.lft.to/lastmile_qr_scan", "android": "https://dc.lft.to/lastmile_qr_scan"}}, {"name": "4474ee389cda9c9e1b93d08c6ae31888", "fusion_lat": 0.0, "type": "electric_scooter", "lat": 38.9097635, "is_reserved": 0, "is_disabled": 0, "fusion_lon": 0.0, "bike_id": "4474ee389cda9c9e1b93d08c6ae31888", "lon": -77.03883666666667, "rental_uris": {"ios": "https://dc.lft.to/lastmile_qr_scan", "android": "https://dc.lft.to/lastmile_qr_scan"}}, {"name": "52ba4060ae4a50c0848ab4e82073703a", "fusion_lat": 0.0, "type": "electric_scooter", "lat": 38.886793833333336, "is_reserved": 0, "is_disabled": 0, "fusion_lon": 0.0, "bike_id": "52ba4060ae4a50c0848ab4e82073703a", "lon": -77.0017095, "rental_uris": {"ios": "https://dc.lft.to/lastmile_qr_scan", "android": "https://dc.lft.to/lastmile_qr_scan"}}, {"name": "2ee3529d552eb31f429035fb26bf2665", "fusion_lat": 0.0, "type": "electric_scooter", "lat": 38.94291116666667, "is_reserved": 0, "is_disabled": 0, "fusion_lon": 0.0, "bike_id": "2ee3529d552eb31f429035fb26bf2665", "lon": -77.0216915, "rental_uris": {"ios": "https://dc.lft.to/lastmile_qr_scan", "android": "https://dc.lft.to/lastmile_qr_scan"}}, {"name": "cacbfd619dba163a1c465836292142e5", "fusion_lat": 0.0, "type": "electric_scooter", "lat": 38.89555816666667, "is_reserved": 0, "is_disabled": 0, "fusion_lon": 0.0, "bike_id": "cacbfd619dba163a1c465836292142e5", "lon": -76.9487445, "rental_uris": {"ios": "https://dc.lft.to/lastmile_qr_scan", "android": "https://dc.lft.to/lastmile_qr_scan"}}, {"name": "12f003095a72cce5a8470f60e3939a41", "fusion_lat": 0.0, "type": "electric_scooter", "lat": 38.897769333333336, "is_reserved": 0, "is_disabled": 0, "fusion_lon": 0.0, "bike_id": "12f003095a72cce5a8470f60e3939a41", "lon": -77.02600883333334, "rental_uris": {"ios": "https://dc.lft.to/lastmile_qr_scan", "android": "https://dc.lft.to/lastmile_qr_scan"}}, {"name": "a47be8d68bed22e5e5eae335df7945e7", "fusion_lat": 0.0, "type": "electric_scooter", "lat": 38.885044666666666, "is_reserved": 0, "is_disabled": 0, "fusion_lon": 0.0, "bike_id": "a47be8d68bed22e5e5eae335df7945e7", "lon": -77.005693, "rental_uris": {"ios": "https://dc.lft.to/lastmile_qr_scan", "android": "https://dc.lft.to/lastmile_qr_scan"}}, {"name": "c338e56b009d39820d5afceb5e1f8eb5", "fusion_lat": 0.0, "type": "electric_scooter", "lat": 38.912586833333336, "is_reserved": 0, "is_disabled": 0, "fusion_lon": 0.0, "bike_id": "c338e56b009d39820d5afceb5e1f8eb5", "lon": -77.03864333333334, "rental_uris": {"ios": "https://dc.lft.to/lastmile_qr_scan", "android": "https://dc.lft.to/lastmile_qr_scan"}}, {"name": "83befe937a484fe1e4408043749c1afb", "fusion_lat": 0.0, "type": "electric_scooter", "lat": 38.9119185, "is_reserved": 0, "is_disabled": 0, "fusion_lon": 0.0, "bike_id": "83befe937a484fe1e4408043749c1afb", "lon": -77.03251266666666, "rental_uris": {"ios": "https://dc.lft.to/lastmile_qr_scan", "android": "https://dc.lft.to/lastmile_qr_scan"}}, {"name": "5b647a91f6e25bb1b26ac34996dfcd7c", "fusion_lat": 0.0, "type": "electric_scooter", "lat": 38.931116, "is_reserved": 0, "is_disabled": 0, "fusion_lon": 0.0, "bike_id": "5b647a91f6e25bb1b26ac34996dfcd7c", "lon": -77.0350985, "rental_uris": {"ios": "https://dc.lft.to/lastmile_qr_scan", "android": "https://dc.lft.to/lastmile_qr_scan"}}, {"name": "4cb114733e862b185aa526e449a60a46", "fusion_lat": 0.0, "type": "electric_scooter", "lat": 38.91349266666667, "is_reserved": 0, "is_disabled": 0, "fusion_lon": 0.0, "bike_id": "4cb114733e862b185aa526e449a60a46", "lon": -77.0423075, "rental_uris": {"ios": "https://dc.lft.to/lastmile_qr_scan", "android": "https://dc.lft.to/lastmile_qr_scan"}}, {"name": "4286653708033be3a9d5c4c108192925", "fusion_lat": 0.0, "type": "electric_scooter", "lat": 38.92714616666667, "is_reserved": 0, "is_disabled": 0, "fusion_lon": 0.0, "bike_id": "4286653708033be3a9d5c4c108192925", "lon": -77.037244, "rental_uris": {"ios": "https://dc.lft.to/lastmile_qr_scan", "android": "https://dc.lft.to/lastmile_qr_scan"}}, {"name": "3c9e51acfd03f023ae8a8fb5276b4623", "fusion_lat": 0.0, "type": "electric_scooter", "lat": 38.9085835, "is_reserved": 0, "is_disabled": 0, "fusion_lon": 0.0, "bike_id": "3c9e51acfd03f023ae8a8fb5276b4623", "lon": -76.99798666666666, "rental_uris": {"ios": "https://dc.lft.to/lastmile_qr_scan", "android": "https://dc.lft.to/lastmile_qr_scan"}}, {"name": "18a3933c6e4a3c293f99254070f2ec0f", "fusion_lat": 0.0, "type": "electric_scooter", "lat": 38.91125533333334, "is_reserved": 0, "is_disabled": 0, "fusion_lon": 0.0, "bike_id": "18a3933c6e4a3c293f99254070f2ec0f", "lon": -77.0477145, "rental_uris": {"ios": "https://dc.lft.to/lastmile_qr_scan", "android": "https://dc.lft.to/lastmile_qr_scan"}}, {"name": "b08c71c799b77664db9bd7689a5270ad", "fusion_lat": 0.0, "type": "electric_bike", "lat": 38.935306833333335, "is_reserved": 0, "is_disabled": 0, "fusion_lon": 0.0, "bike_id": "b08c71c799b77664db9bd7689a5270ad", "lon": -77.056985, "rental_uris": {"ios": "https://dc.lft.to/lastmile_qr_scan", "android": "https://dc.lft.to/lastmile_qr_scan"}}, {"name": "b80ca353bb81fac0dadab7b1941bd43f", "fusion_lat": 0.0, "type": "electric_scooter", "lat": 38.87379383333333, "is_reserved": 0, "is_disabled": 0, "fusion_lon": 0.0, "bike_id": "b80ca353bb81fac0dadab7b1941bd43f", "lon": -77.00033433333333, "rental_uris": {"ios": "https://dc.lft.to/lastmile_qr_scan", "android": "https://dc.lft.to/lastmile_qr_scan"}}, {"name": "2ce687e5495cafdb8e4285d9800ebf0f", "fusion_lat": 0.0, "type": "electric_scooter", "lat": 38.919097666666666, "is_reserved": 0, "is_disabled": 0, "fusion_lon": 0.0, "bike_id": "2ce687e5495cafdb8e4285d9800ebf0f", "lon": -77.0212965, "rental_uris": {"ios": "https://dc.lft.to/lastmile_qr_scan", "android": "https://dc.lft.to/lastmile_qr_scan"}}, {"name": "5f8fe89b26f7bc470399f492ffcbb6ae", "fusion_lat": 0.0, "type": "electric_scooter", "lat": 38.91058783333333, "is_reserved": 0, "is_disabled": 0, "fusion_lon": 0.0, "bike_id": "5f8fe89b26f7bc470399f492ffcbb6ae", "lon": -77.04576966666667, "rental_uris": {"ios": "https://dc.lft.to/lastmile_qr_scan", "android": "https://dc.lft.to/lastmile_qr_scan"}}, {"name": "f2decdc51849fa3dc2a57367692d0551", "fusion_lat": 0.0, "type": "electric_scooter", "lat": 38.91883166666667, "is_reserved": 0, "is_disabled": 0, "fusion_lon": 0.0, "bike_id": "f2decdc51849fa3dc2a57367692d0551", "lon": -77.04328116666667, "rental_uris": {"ios": "https://dc.lft.to/lastmile_qr_scan", "android": "https://dc.lft.to/lastmile_qr_scan"}}, {"name": "002a8542df5c80abd4f5744533652179", "fusion_lat": 0.0, "type": "electric_scooter", "lat": 38.893564, "is_reserved": 0, "is_disabled": 0, "fusion_lon": 0.0, "bike_id": "002a8542df5c80abd4f5744533652179", "lon": -77.04662466666667, "rental_uris": {"ios": "https://dc.lft.to/lastmile_qr_scan", "android": "https://dc.lft.to/lastmile_qr_scan"}}, {"name": "c5fdd718337678bf0f17dca592f50a9b", "fusion_lat": 0.0, "type": "electric_scooter", "lat": 38.88512683333333, "is_reserved": 0, "is_disabled": 0, "fusion_lon": 0.0, "bike_id": "c5fdd718337678bf0f17dca592f50a9b", "lon": -77.0334985, "rental_uris": {"ios": "https://dc.lft.to/lastmile_qr_scan", "android": "https://dc.lft.to/lastmile_qr_scan"}}, {"name": "358108eac61aa7b9cd89e97d8eff0e32", "fusion_lat": 0.0, "type": "electric_scooter", "lat": 38.9023565, "is_reserved": 0, "is_disabled": 0, "fusion_lon": 0.0, "bike_id": "358108eac61aa7b9cd89e97d8eff0e32", "lon": -77.023042, "rental_uris": {"ios": "https://dc.lft.to/lastmile_qr_scan", "android": "https://dc.lft.to/lastmile_qr_scan"}}, {"name": "4d0f20cb281b04a230d330ac6ebaaeab", "fusion_lat": 0.0, "type": "electric_bike", "lat": 38.878803833333336, "is_reserved": 0, "is_disabled": 0, "fusion_lon": 0.0, "bike_id": "4d0f20cb281b04a230d330ac6ebaaeab", "lon": -77.0232495, "rental_uris": {"ios": "https://dc.lft.to/lastmile_qr_scan", "android": "https://dc.lft.to/lastmile_qr_scan"}}, {"name": "a5205a7c039b8533298f19cb03c2e372", "fusion_lat": 0.0, "type": "electric_scooter", "lat": 38.90351, "is_reserved": 0, "is_disabled": 0, "fusion_lon": 0.0, "bike_id": "a5205a7c039b8533298f19cb03c2e372", "lon": -77.0207855, "rental_uris": {"ios": "https://dc.lft.to/lastmile_qr_scan", "android": "https://dc.lft.to/lastmile_qr_scan"}}, {"name": "e04a9743b52a6c9e96eeae94e3d4dfd9", "fusion_lat": 0.0, "type": "electric_scooter", "lat": 38.941763333333334, "is_reserved": 0, "is_disabled": 0, "fusion_lon": 0.0, "bike_id": "e04a9743b52a6c9e96eeae94e3d4dfd9", "lon": -77.04133716666666, "rental_uris": {"ios": "https://dc.lft.to/lastmile_qr_scan", "android": "https://dc.lft.to/lastmile_qr_scan"}}, {"name": "b651881905228fde998f3d374060fcaf", "fusion_lat": 0.0, "type": "electric_bike", "lat": 38.948998333333336, "is_reserved": 0, "is_disabled": 0, "fusion_lon": 0.0, "bike_id": "b651881905228fde998f3d374060fcaf", "lon": -76.96373466666667, "rental_uris": {"ios": "https://dc.lft.to/lastmile_qr_scan", "android": "https://dc.lft.to/lastmile_qr_scan"}}, {"name": "4efd88f8693b7a10c121ec93cd289bd7", "fusion_lat": 0.0, "type": "electric_scooter", "lat": 38.887446, "is_reserved": 0, "is_disabled": 0, "fusion_lon": 0.0, "bike_id": "4efd88f8693b7a10c121ec93cd289bd7", "lon": -77.023694, "rental_uris": {"ios": "https://dc.lft.to/lastmile_qr_scan", "android": "https://dc.lft.to/lastmile_qr_scan"}}, {"name": "8b66bfc3b67047488ac58bbb5c55945a", "fusion_lat": 0.0, "type": "electric_bike", "lat": 38.863913833333335, "is_reserved": 0, "is_disabled": 0, "fusion_lon": 0.0, "bike_id": "8b66bfc3b67047488ac58bbb5c55945a", "lon": -76.98986983333333, "rental_uris": {"ios": "https://dc.lft.to/lastmile_qr_scan", "android": "https://dc.lft.to/lastmile_qr_scan"}}, {"name": "01de86a4287d748fcc2be4b3c4f2d0e6", "fusion_lat": 0.0, "type": "electric_scooter", "lat": 38.898774833333334, "is_reserved": 0, "is_disabled": 0, "fusion_lon": 0.0, "bike_id": "01de86a4287d748fcc2be4b3c4f2d0e6", "lon": -76.93158, "rental_uris": {"ios": "https://dc.lft.to/lastmile_qr_scan", "android": "https://dc.lft.to/lastmile_qr_scan"}}, {"name": "3332e31154e540320874d7594433d1bc", "fusion_lat": 0.0, "type": "electric_scooter", "lat": 38.90843233333333, "is_reserved": 0, "is_disabled": 0, "fusion_lon": 0.0, "bike_id": "3332e31154e540320874d7594433d1bc", "lon": -77.043223, "rental_uris": {"ios": "https://dc.lft.to/lastmile_qr_scan", "android": "https://dc.lft.to/lastmile_qr_scan"}}, {"name": "2032cdb7d28b8e5955fe308912a1e446", "fusion_lat": 0.0, "type": "electric_scooter", "lat": 38.91189266666667, "is_reserved": 0, "is_disabled": 0, "fusion_lon": 0.0, "bike_id": "2032cdb7d28b8e5955fe308912a1e446", "lon": -77.039663, "rental_uris": {"ios": "https://dc.lft.to/lastmile_qr_scan", "android": "https://dc.lft.to/lastmile_qr_scan"}}, {"name": "8e653dc3ddcb5e3e08ac0a08c91713a1", "fusion_lat": 0.0, "type": "electric_scooter", "lat": 38.87419366666666, "is_reserved": 0, "is_disabled": 0, "fusion_lon": 0.0, "bike_id": "8e653dc3ddcb5e3e08ac0a08c91713a1", "lon": -76.97177033333334, "rental_uris": {"ios": "https://dc.lft.to/lastmile_qr_scan", "android": "https://dc.lft.to/lastmile_qr_scan"}}, {"name": "85ec04d853b07e5c9537d52903b17929", "fusion_lat": 0.0, "type": "electric_scooter", "lat": 38.903635666666666, "is_reserved": 0, "is_disabled": 0, "fusion_lon": 0.0, "bike_id": "85ec04d853b07e5c9537d52903b17929", "lon": -77.01102866666666, "rental_uris": {"ios": "https://dc.lft.to/lastmile_qr_scan", "android": "https://dc.lft.to/lastmile_qr_scan"}}, {"name": "7d7d79e78d08ed0263ac60d2d323b0c4", "fusion_lat": 0.0, "type": "electric_scooter", "lat": 38.9007085, "is_reserved": 0, "is_disabled": 0, "fusion_lon": 0.0, "bike_id": "7d7d79e78d08ed0263ac60d2d323b0c4", "lon": -77.045348, "rental_uris": {"ios": "https://dc.lft.to/lastmile_qr_scan", "android": "https://dc.lft.to/lastmile_qr_scan"}}, {"name": "0d517d9df8f66a939ff9dd85326fee3a", "fusion_lat": 0.0, "type": "electric_scooter", "lat": 38.91842233333333, "is_reserved": 0, "is_disabled": 0, "fusion_lon": 0.0, "bike_id": "0d517d9df8f66a939ff9dd85326fee3a", "lon": -77.02600816666667, "rental_uris": {"ios": "https://dc.lft.to/lastmile_qr_scan", "android": "https://dc.lft.to/lastmile_qr_scan"}}, {"name": "08dbaffbe4e8e2f538edb09208433ea2", "fusion_lat": 0.0, "type": "electric_scooter", "lat": 38.919859333333335, "is_reserved": 0, "is_disabled": 0, "fusion_lon": 0.0, "bike_id": "08dbaffbe4e8e2f538edb09208433ea2", "lon": -77.03327916666667, "rental_uris": {"ios": "https://dc.lft.to/lastmile_qr_scan", "android": "https://dc.lft.to/lastmile_qr_scan"}}, {"name": "c1c889dc4500f2ea486cba97e9c4e9a0", "fusion_lat": 0.0, "type": "electric_scooter", "lat": 38.914937, "is_reserved": 0, "is_disabled": 0, "fusion_lon": 0.0, "bike_id": "c1c889dc4500f2ea486cba97e9c4e9a0", "lon": -77.03262583333333, "rental_uris": {"ios": "https://dc.lft.to/lastmile_qr_scan", "android": "https://dc.lft.to/lastmile_qr_scan"}}, {"name": "440605257073ec1c6cf806bb26e2ef4a", "fusion_lat": 0.0, "type": "electric_scooter", "lat": 38.89227433333333, "is_reserved": 0, "is_disabled": 0, "fusion_lon": 0.0, "bike_id": "440605257073ec1c6cf806bb26e2ef4a", "lon": -77.04648383333334, "rental_uris": {"ios": "https://dc.lft.to/lastmile_qr_scan", "android": "https://dc.lft.to/lastmile_qr_scan"}}, {"name": "f0a969e9c4e4d15185d248eb1bf75ecf", "fusion_lat": 0.0, "type": "electric_scooter", "lat": 38.91191216666667, "is_reserved": 0, "is_disabled": 0, "fusion_lon": 0.0, "bike_id": "f0a969e9c4e4d15185d248eb1bf75ecf", "lon": -77.01782233333333, "rental_uris": {"ios": "https://dc.lft.to/lastmile_qr_scan", "android": "https://dc.lft.to/lastmile_qr_scan"}}, {"name": "1fa23aa4bae373e9cd7012a16c61025a", "fusion_lat": 0.0, "type": "electric_scooter", "lat": 38.90981016666667, "is_reserved": 0, "is_disabled": 0, "fusion_lon": 0.0, "bike_id": "1fa23aa4bae373e9cd7012a16c61025a", "lon": -77.038884, "rental_uris": {"ios": "https://dc.lft.to/lastmile_qr_scan", "android": "https://dc.lft.to/lastmile_qr_scan"}}, {"name": "2917c43854c1965d70e3960b9f99123e", "fusion_lat": 0.0, "type": "electric_scooter", "lat": 38.921119166666664, "is_reserved": 0, "is_disabled": 0, "fusion_lon": 0.0, "bike_id": "2917c43854c1965d70e3960b9f99123e", "lon": -77.04392033333333, "rental_uris": {"ios": "https://dc.lft.to/lastmile_qr_scan", "android": "https://dc.lft.to/lastmile_qr_scan"}}, {"name": "fc872b5e1f4b5f02ec274f993f7199f6", "fusion_lat": 0.0, "type": "electric_scooter", "lat": 38.93499383333333, "is_reserved": 0, "is_disabled": 0, "fusion_lon": 0.0, "bike_id": "fc872b5e1f4b5f02ec274f993f7199f6", "lon": -77.025489, "rental_uris": {"ios": "https://dc.lft.to/lastmile_qr_scan", "android": "https://dc.lft.to/lastmile_qr_scan"}}, {"name": "26525fb48eadf613b56e347191090b20", "fusion_lat": 0.0, "type": "electric_scooter", "lat": 38.934715, "is_reserved": 0, "is_disabled": 0, "fusion_lon": 0.0, "bike_id": "26525fb48eadf613b56e347191090b20", "lon": -77.028419, "rental_uris": {"ios": "https://dc.lft.to/lastmile_qr_scan", "android": "https://dc.lft.to/lastmile_qr_scan"}}, {"name": "82d8106a24666cdd3b6710273642e552", "fusion_lat": 0.0, "type": "electric_scooter", "lat": 38.90602533333333, "is_reserved": 0, "is_disabled": 0, "fusion_lon": 0.0, "bike_id": "82d8106a24666cdd3b6710273642e552", "lon": -77.04044683333333, "rental_uris": {"ios": "https://dc.lft.to/lastmile_qr_scan", "android": "https://dc.lft.to/lastmile_qr_scan"}}, {"name": "eedc50ff42835d2d30201a6d25ec4ee2", "fusion_lat": 0.0, "type": "electric_scooter", "lat": 38.88916116666667, "is_reserved": 0, "is_disabled": 0, "fusion_lon": 0.0, "bike_id": "eedc50ff42835d2d30201a6d25ec4ee2", "lon": -76.95372816666666, "rental_uris": {"ios": "https://dc.lft.to/lastmile_qr_scan", "android": "https://dc.lft.to/lastmile_qr_scan"}}, {"name": "17413d884db6df595b8fd736b933155d", "fusion_lat": 0.0, "type": "electric_scooter", "lat": 38.90110133333334, "is_reserved": 0, "is_disabled": 0, "fusion_lon": 0.0, "bike_id": "17413d884db6df595b8fd736b933155d", "lon": -77.0216445, "rental_uris": {"ios": "https://dc.lft.to/lastmile_qr_scan", "android": "https://dc.lft.to/lastmile_qr_scan"}}, {"name": "9805278183dcbba83be5ae8089b3e1a8", "fusion_lat": 0.0, "type": "electric_scooter", "lat": 38.9289265, "is_reserved": 0, "is_disabled": 0, "fusion_lon": 0.0, "bike_id": "9805278183dcbba83be5ae8089b3e1a8", "lon": -77.023128, "rental_uris": {"ios": "https://dc.lft.to/lastmile_qr_scan", "android": "https://dc.lft.to/lastmile_qr_scan"}}, {"name": "be5752f11fd9a9458e8551efe62b1c85", "fusion_lat": 0.0, "type": "electric_scooter", "lat": 38.92644666666666, "is_reserved": 0, "is_disabled": 0, "fusion_lon": 0.0, "bike_id": "be5752f11fd9a9458e8551efe62b1c85", "lon": -77.03695083333334, "rental_uris": {"ios": "https://dc.lft.to/lastmile_qr_scan", "android": "https://dc.lft.to/lastmile_qr_scan"}}, {"name": "ed8c10ea7c4a2b377a6a0737352d7175", "fusion_lat": 0.0, "type": "electric_scooter", "lat": 38.9057055, "is_reserved": 0, "is_disabled": 0, "fusion_lon": 0.0, "bike_id": "ed8c10ea7c4a2b377a6a0737352d7175", "lon": -77.02213566666667, "rental_uris": {"ios": "https://dc.lft.to/lastmile_qr_scan", "android": "https://dc.lft.to/lastmile_qr_scan"}}, {"name": "edd2a5fc5ca27eacd3ac315801a8c8f4", "fusion_lat": 0.0, "type": "electric_scooter", "lat": 38.885828333333336, "is_reserved": 0, "is_disabled": 0, "fusion_lon": 0.0, "bike_id": "edd2a5fc5ca27eacd3ac315801a8c8f4", "lon": -76.99503066666666, "rental_uris": {"ios": "https://dc.lft.to/lastmile_qr_scan", "android": "https://dc.lft.to/lastmile_qr_scan"}}, {"name": "8f9f1c110092ee53089c787e06dd3222", "fusion_lat": 0.0, "type": "electric_bike", "lat": 39.03347466666666, "is_reserved": 0, "is_disabled": 0, "fusion_lon": 0.0, "bike_id": "8f9f1c110092ee53089c787e06dd3222", "lon": -77.0490685, "rental_uris": {"ios": "https://dc.lft.to/lastmile_qr_scan", "android": "https://dc.lft.to/lastmile_qr_scan"}}, {"name": "90d4a805728e30af262e47f222ef2bda", "fusion_lat": 0.0, "type": "electric_scooter", "lat": 38.923778, "is_reserved": 0, "is_disabled": 0, "fusion_lon": 0.0, "bike_id": "90d4a805728e30af262e47f222ef2bda", "lon": -77.0191595, "rental_uris": {"ios": "https://dc.lft.to/lastmile_qr_scan", "android": "https://dc.lft.to/lastmile_qr_scan"}}, {"name": "b3e5cf392ef7c8c3ff3ef20452aa2312", "fusion_lat": 0.0, "type": "electric_scooter", "lat": 38.90213333333333, "is_reserved": 0, "is_disabled": 0, "fusion_lon": 0.0, "bike_id": "b3e5cf392ef7c8c3ff3ef20452aa2312", "lon": -77.06122866666666, "rental_uris": {"ios": "https://dc.lft.to/lastmile_qr_scan", "android": "https://dc.lft.to/lastmile_qr_scan"}}, {"name": "000c2f113feb882a642d4b651f3c5858", "fusion_lat": 0.0, "type": "electric_scooter", "lat": 38.91139883333334, "is_reserved": 0, "is_disabled": 0, "fusion_lon": 0.0, "bike_id": "000c2f113feb882a642d4b651f3c5858", "lon": -77.0418565, "rental_uris": {"ios": "https://dc.lft.to/lastmile_qr_scan", "android": "https://dc.lft.to/lastmile_qr_scan"}}, {"name": "3e5da120f7b18043115a8f2d0636bbd5", "fusion_lat": 0.0, "type": "electric_scooter", "lat": 38.939508833333335, "is_reserved": 0, "is_disabled": 0, "fusion_lon": 0.0, "bike_id": "3e5da120f7b18043115a8f2d0636bbd5", "lon": -77.07256033333333, "rental_uris": {"ios": "https://dc.lft.to/lastmile_qr_scan", "android": "https://dc.lft.to/lastmile_qr_scan"}}, {"name": "283130f921a2c50a86c92f15f7211312", "fusion_lat": 0.0, "type": "electric_scooter", "lat": 38.88717783333333, "is_reserved": 0, "is_disabled": 0, "fusion_lon": 0.0, "bike_id": "283130f921a2c50a86c92f15f7211312", "lon": -77.01777733333333, "rental_uris": {"ios": "https://dc.lft.to/lastmile_qr_scan", "android": "https://dc.lft.to/lastmile_qr_scan"}}, {"name": "3a70b50e1d111450e9a423b8a16bc8b7", "fusion_lat": 0.0, "type": "electric_scooter", "lat": 38.88044033333333, "is_reserved": 0, "is_disabled": 0, "fusion_lon": 0.0, "bike_id": "3a70b50e1d111450e9a423b8a16bc8b7", "lon": -76.95984683333333, "rental_uris": {"ios": "https://dc.lft.to/lastmile_qr_scan", "android": "https://dc.lft.to/lastmile_qr_scan"}}, {"name": "2c57593f3d5968fb1e14d217641788b5", "fusion_lat": 0.0, "type": "electric_scooter", "lat": 38.893917, "is_reserved": 0, "is_disabled": 0, "fusion_lon": 0.0, "bike_id": "2c57593f3d5968fb1e14d217641788b5", "lon": -77.05474516666666, "rental_uris": {"ios": "https://dc.lft.to/lastmile_qr_scan", "android": "https://dc.lft.to/lastmile_qr_scan"}}, {"name": "eaa59154931fb7d3e7a980224b4f52ac", "fusion_lat": 0.0, "type": "electric_scooter", "lat": 38.9305605, "is_reserved": 0, "is_disabled": 0, "fusion_lon": 0.0, "bike_id": "eaa59154931fb7d3e7a980224b4f52ac", "lon": -77.023187, "rental_uris": {"ios": "https://dc.lft.to/lastmile_qr_scan", "android": "https://dc.lft.to/lastmile_qr_scan"}}, {"name": "2c7ef515338d024a8324d78907f5b3e7", "fusion_lat": 0.0, "type": "electric_bike", "lat": 38.852239, "is_reserved": 0, "is_disabled": 0, "fusion_lon": 0.0, "bike_id": "2c7ef515338d024a8324d78907f5b3e7", "lon": -77.12959016666667, "rental_uris": {"ios": "https://dc.lft.to/lastmile_qr_scan", "android": "https://dc.lft.to/lastmile_qr_scan"}}, {"name": "2223df857a4a76d7b883ecb75e1d6b5f", "fusion_lat": 0.0, "type": "electric_scooter", "lat": 38.901242, "is_reserved": 0, "is_disabled": 0, "fusion_lon": 0.0, "bike_id": "2223df857a4a76d7b883ecb75e1d6b5f", "lon": -77.03958316666667, "rental_uris": {"ios": "https://dc.lft.to/lastmile_qr_scan", "android": "https://dc.lft.to/lastmile_qr_scan"}}, {"name": "0e4df43e27be9faef7b2374ec625270c", "fusion_lat": 0.0, "type": "electric_scooter", "lat": 38.885151666666665, "is_reserved": 0, "is_disabled": 0, "fusion_lon": 0.0, "bike_id": "0e4df43e27be9faef7b2374ec625270c", "lon": -77.03354, "rental_uris": {"ios": "https://dc.lft.to/lastmile_qr_scan", "android": "https://dc.lft.to/lastmile_qr_scan"}}, {"name": "a0b310e25f55898e8b9b72c1b619cfc6", "fusion_lat": 0.0, "type": "electric_scooter", "lat": 38.876657333333334, "is_reserved": 0, "is_disabled": 0, "fusion_lon": 0.0, "bike_id": "a0b310e25f55898e8b9b72c1b619cfc6", "lon": -77.00354116666666, "rental_uris": {"ios": "https://dc.lft.to/lastmile_qr_scan", "android": "https://dc.lft.to/lastmile_qr_scan"}}, {"name": "e8223052cc7615f75ce38c9dda7bc4e4", "fusion_lat": 0.0, "type": "electric_scooter", "lat": 38.939162, "is_reserved": 0, "is_disabled": 0, "fusion_lon": 0.0, "bike_id": "e8223052cc7615f75ce38c9dda7bc4e4", "lon": -77.0366155, "rental_uris": {"ios": "https://dc.lft.to/lastmile_qr_scan", "android": "https://dc.lft.to/lastmile_qr_scan"}}, {"name": "7bc83f143d3184717bea5b566a0d90fd", "fusion_lat": 0.0, "type": "electric_bike", "lat": 38.98455083333333, "is_reserved": 0, "is_disabled": 0, "fusion_lon": 0.0, "bike_id": "7bc83f143d3184717bea5b566a0d90fd", "lon": -76.95523216666666, "rental_uris": {"ios": "https://dc.lft.to/lastmile_qr_scan", "android": "https://dc.lft.to/lastmile_qr_scan"}}, {"name": "2011aa290ce67acb265a99b5d356afd2", "fusion_lat": 0.0, "type": "electric_scooter", "lat": 38.895533666666665, "is_reserved": 0, "is_disabled": 0, "fusion_lon": 0.0, "bike_id": "2011aa290ce67acb265a99b5d356afd2", "lon": -76.983741, "rental_uris": {"ios": "https://dc.lft.to/lastmile_qr_scan", "android": "https://dc.lft.to/lastmile_qr_scan"}}, {"name": "306bd5e9eb90ada112d99075a0fd5fde", "fusion_lat": 0.0, "type": "electric_scooter", "lat": 38.900549166666664, "is_reserved": 0, "is_disabled": 0, "fusion_lon": 0.0, "bike_id": "306bd5e9eb90ada112d99075a0fd5fde", "lon": -76.94747233333334, "rental_uris": {"ios": "https://dc.lft.to/lastmile_qr_scan", "android": "https://dc.lft.to/lastmile_qr_scan"}}, {"name": "385df59930a0385fc6a6a15b33234ab4", "fusion_lat": 0.0, "type": "electric_scooter", "lat": 38.87831833333333, "is_reserved": 0, "is_disabled": 0, "fusion_lon": 0.0, "bike_id": "385df59930a0385fc6a6a15b33234ab4", "lon": -77.01741266666667, "rental_uris": {"ios": "https://dc.lft.to/lastmile_qr_scan", "android": "https://dc.lft.to/lastmile_qr_scan"}}, {"name": "480c831a87e870b4e546c8673759e8b7", "fusion_lat": 0.0, "type": "electric_scooter", "lat": 38.897338, "is_reserved": 0, "is_disabled": 0, "fusion_lon": 0.0, "bike_id": "480c831a87e870b4e546c8673759e8b7", "lon": -77.04340116666667, "rental_uris": {"ios": "https://dc.lft.to/lastmile_qr_scan", "android": "https://dc.lft.to/lastmile_qr_scan"}}, {"name": "2d1cc6b4722ae4e897a2a246b400633d", "fusion_lat": 0.0, "type": "electric_scooter", "lat": 38.9028765, "is_reserved": 0, "is_disabled": 0, "fusion_lon": 0.0, "bike_id": "2d1cc6b4722ae4e897a2a246b400633d", "lon": -77.04270266666667, "rental_uris": {"ios": "https://dc.lft.to/lastmile_qr_scan", "android": "https://dc.lft.to/lastmile_qr_scan"}}, {"name": "b7d3aa42c52f577a800a00634a2a79e9", "fusion_lat": 0.0, "type": "electric_scooter", "lat": 38.930589833333336, "is_reserved": 0, "is_disabled": 0, "fusion_lon": 0.0, "bike_id": "b7d3aa42c52f577a800a00634a2a79e9", "lon": -77.02319866666667, "rental_uris": {"ios": "https://dc.lft.to/lastmile_qr_scan", "android": "https://dc.lft.to/lastmile_qr_scan"}}, {"name": "2f06745c90ab6b1b8300b54448a8fdd9", "fusion_lat": 0.0, "type": "electric_scooter", "lat": 38.927094333333336, "is_reserved": 0, "is_disabled": 0, "fusion_lon": 0.0, "bike_id": "2f06745c90ab6b1b8300b54448a8fdd9", "lon": -77.03728066666666, "rental_uris": {"ios": "https://dc.lft.to/lastmile_qr_scan", "android": "https://dc.lft.to/lastmile_qr_scan"}}, {"name": "5b84eb1ba48a17b0633ff44be5354574", "fusion_lat": 0.0, "type": "electric_scooter", "lat": 38.86370316666667, "is_reserved": 0, "is_disabled": 0, "fusion_lon": 0.0, "bike_id": "5b84eb1ba48a17b0633ff44be5354574", "lon": -77.01364483333333, "rental_uris": {"ios": "https://dc.lft.to/lastmile_qr_scan", "android": "https://dc.lft.to/lastmile_qr_scan"}}, {"name": "fcb1e02607a9130450c8baa85424f8bb", "fusion_lat": 0.0, "type": "electric_scooter", "lat": 38.91684516666667, "is_reserved": 0, "is_disabled": 0, "fusion_lon": 0.0, "bike_id": "fcb1e02607a9130450c8baa85424f8bb", "lon": -77.01220716666667, "rental_uris": {"ios": "https://dc.lft.to/lastmile_qr_scan", "android": "https://dc.lft.to/lastmile_qr_scan"}}, {"name": "2c7a6aa22cf935a92feb49f1368ae46f", "fusion_lat": 0.0, "type": "electric_scooter", "lat": 38.890167166666664, "is_reserved": 0, "is_disabled": 0, "fusion_lon": 0.0, "bike_id": "2c7a6aa22cf935a92feb49f1368ae46f", "lon": -76.93732566666667, "rental_uris": {"ios": "https://dc.lft.to/lastmile_qr_scan", "android": "https://dc.lft.to/lastmile_qr_scan"}}, {"name": "084d45c7f05e057112f52b77c3cae76c", "fusion_lat": 0.0, "type": "electric_scooter", "lat": 38.90134416666667, "is_reserved": 0, "is_disabled": 0, "fusion_lon": 0.0, "bike_id": "084d45c7f05e057112f52b77c3cae76c", "lon": -77.0252855, "rental_uris": {"ios": "https://dc.lft.to/lastmile_qr_scan", "android": "https://dc.lft.to/lastmile_qr_scan"}}, {"name": "95b09193af499e1fa2a25d4e544e6a63", "fusion_lat": 0.0, "type": "electric_scooter", "lat": 38.897292, "is_reserved": 0, "is_disabled": 0, "fusion_lon": 0.0, "bike_id": "95b09193af499e1fa2a25d4e544e6a63", "lon": -77.0476015, "rental_uris": {"ios": "https://dc.lft.to/lastmile_qr_scan", "android": "https://dc.lft.to/lastmile_qr_scan"}}, {"name": "179b510eb7c9694a5f7e9161b88dad84", "fusion_lat": 0.0, "type": "electric_scooter", "lat": 38.912594, "is_reserved": 0, "is_disabled": 0, "fusion_lon": 0.0, "bike_id": "179b510eb7c9694a5f7e9161b88dad84", "lon": -77.00770016666667, "rental_uris": {"ios": "https://dc.lft.to/lastmile_qr_scan", "android": "https://dc.lft.to/lastmile_qr_scan"}}, {"name": "ff0937451ce7db5d829108c2d11c513b", "fusion_lat": 0.0, "type": "electric_bike", "lat": 38.99456433333334, "is_reserved": 0, "is_disabled": 0, "fusion_lon": 0.0, "bike_id": "ff0937451ce7db5d829108c2d11c513b", "lon": -76.9081405, "rental_uris": {"ios": "https://dc.lft.to/lastmile_qr_scan", "android": "https://dc.lft.to/lastmile_qr_scan"}}, {"name": "f1fcfb9823bf1a4ca6def5e8260ee057", "fusion_lat": 0.0, "type": "electric_scooter", "lat": 38.92109133333334, "is_reserved": 0, "is_disabled": 0, "fusion_lon": 0.0, "bike_id": "f1fcfb9823bf1a4ca6def5e8260ee057", "lon": -77.04204683333333, "rental_uris": {"ios": "https://dc.lft.to/lastmile_qr_scan", "android": "https://dc.lft.to/lastmile_qr_scan"}}, {"name": "fcf613fc21a3da38edf480f7d468d2e3", "fusion_lat": 0.0, "type": "electric_scooter", "lat": 38.9027615, "is_reserved": 0, "is_disabled": 0, "fusion_lon": 0.0, "bike_id": "fcf613fc21a3da38edf480f7d468d2e3", "lon": -77.03837683333333, "rental_uris": {"ios": "https://dc.lft.to/lastmile_qr_scan", "android": "https://dc.lft.to/lastmile_qr_scan"}}, {"name": "9689d6751f353e89cf2861d6b90f77a7", "fusion_lat": 0.0, "type": "electric_scooter", "lat": 38.92242533333334, "is_reserved": 0, "is_disabled": 0, "fusion_lon": 0.0, "bike_id": "9689d6751f353e89cf2861d6b90f77a7", "lon": -77.03089666666666, "rental_uris": {"ios": "https://dc.lft.to/lastmile_qr_scan", "android": "https://dc.lft.to/lastmile_qr_scan"}}, {"name": "4bc5f45ab7f2ca797f0b5e17df328cf4", "fusion_lat": 0.0, "type": "electric_scooter", "lat": 38.89875716666667, "is_reserved": 0, "is_disabled": 0, "fusion_lon": 0.0, "bike_id": "4bc5f45ab7f2ca797f0b5e17df328cf4", "lon": -77.01946983333333, "rental_uris": {"ios": "https://dc.lft.to/lastmile_qr_scan", "android": "https://dc.lft.to/lastmile_qr_scan"}}, {"name": "80c10e8a58b992eb957a53b72c561c12", "fusion_lat": 0.0, "type": "electric_scooter", "lat": 38.911942, "is_reserved": 0, "is_disabled": 0, "fusion_lon": 0.0, "bike_id": "80c10e8a58b992eb957a53b72c561c12", "lon": -77.03194683333334, "rental_uris": {"ios": "https://dc.lft.to/lastmile_qr_scan", "android": "https://dc.lft.to/lastmile_qr_scan"}}, {"name": "eca70a37c1ac0f5a004f4eb7cb92f7ab", "fusion_lat": 0.0, "type": "electric_scooter", "lat": 38.90536133333333, "is_reserved": 0, "is_disabled": 0, "fusion_lon": 0.0, "bike_id": "eca70a37c1ac0f5a004f4eb7cb92f7ab", "lon": -77.04997683333333, "rental_uris": {"ios": "https://dc.lft.to/lastmile_qr_scan", "android": "https://dc.lft.to/lastmile_qr_scan"}}, {"name": "aa3038d98ece16230ef10e4fa381f60b", "fusion_lat": 0.0, "type": "electric_bike", "lat": 38.872360666666665, "is_reserved": 0, "is_disabled": 0, "fusion_lon": 0.0, "bike_id": "aa3038d98ece16230ef10e4fa381f60b", "lon": -77.01173166666666, "rental_uris": {"ios": "https://dc.lft.to/lastmile_qr_scan", "android": "https://dc.lft.to/lastmile_qr_scan"}}, {"name": "87a7be87e65422faad119b526b3b4bb5", "fusion_lat": 0.0, "type": "electric_scooter", "lat": 38.876372, "is_reserved": 0, "is_disabled": 0, "fusion_lon": 0.0, "bike_id": "87a7be87e65422faad119b526b3b4bb5", "lon": -76.9653035, "rental_uris": {"ios": "https://dc.lft.to/lastmile_qr_scan", "android": "https://dc.lft.to/lastmile_qr_scan"}}, {"name": "64dd3d1b056b9b454611b5e29c7a2a42", "fusion_lat": 0.0, "type": "electric_scooter", "lat": 38.9062615, "is_reserved": 0, "is_disabled": 0, "fusion_lon": 0.0, "bike_id": "64dd3d1b056b9b454611b5e29c7a2a42", "lon": -77.00581116666666, "rental_uris": {"ios": "https://dc.lft.to/lastmile_qr_scan", "android": "https://dc.lft.to/lastmile_qr_scan"}}, {"name": "fb97b991c499d680917728fdd42b4822", "fusion_lat": 0.0, "type": "electric_scooter", "lat": 38.92288216666667, "is_reserved": 0, "is_disabled": 0, "fusion_lon": 0.0, "bike_id": "fb97b991c499d680917728fdd42b4822", "lon": -77.02966166666667, "rental_uris": {"ios": "https://dc.lft.to/lastmile_qr_scan", "android": "https://dc.lft.to/lastmile_qr_scan"}}, {"name": "84879d17ae39b89585418146c7b8eec0", "fusion_lat": 0.0, "type": "electric_scooter", "lat": 38.874977, "is_reserved": 0, "is_disabled": 0, "fusion_lon": 0.0, "bike_id": "84879d17ae39b89585418146c7b8eec0", "lon": -76.99793416666667, "rental_uris": {"ios": "https://dc.lft.to/lastmile_qr_scan", "android": "https://dc.lft.to/lastmile_qr_scan"}}, {"name": "005be801bd6dbc5c88016a948aa64c59", "fusion_lat": 0.0, "type": "electric_scooter", "lat": 38.9026565, "is_reserved": 0, "is_disabled": 0, "fusion_lon": 0.0, "bike_id": "005be801bd6dbc5c88016a948aa64c59", "lon": -77.003254, "rental_uris": {"ios": "https://dc.lft.to/lastmile_qr_scan", "android": "https://dc.lft.to/lastmile_qr_scan"}},