{"data": {"bikes": [{"is_disabled": 0, "is_reserved": 0, "fusion_lat": 0.0, "lat": 38.944922166666665, "fusion_lon": 0.0, "rental_uris": {"ios": "https://dc.lft.to/lastmile_qr_scan", "android": "https://dc.lft.to/lastmile_qr_scan"}, "lon": -77.00739533333333, "bike_id": "a6293634b365469bd1a2a09ad23e0814", "type": "electric_bike", "name": "a6293634b365469bd1a2a09ad23e0814"}, {"is_disabled": 0, "is_reserved": 0, "fusion_lat": 0.0, "lat": 38.908518666666666, "fusion_lon": 0.0, "rental_uris": {"ios": "https://dc.lft.to/lastmile_qr_scan", "android": "https://dc.lft.to/lastmile_qr_scan"}, "lon": -77.00405833333333, "bike_id": "beb60c4796434a38a63c87982b818df3", "type": "electric_scooter", "name": "beb60c4796434a38a63c87982b818df3"}, {"is_disabled": 0, "is_reserved": 0, "fusion_lat": 0.0, "lat": 38.80516316666667, "fusion_lon": 0.0, "rental_uris": {"ios": "https://dc.lft.to/lastmile_qr_scan", "android": "https://dc.lft.to/lastmile_qr_scan"}, "lon": -77.04336216666667, "bike_id": "d27837961e360bd5f9ae3332c11baa9a", "type": "electric_bike", "name": "d27837961e360bd5f9ae3332c11baa9a"}, {"is_disabled": 0, "is_reserved": 0, "fusion_lat": 0.0, "lat": 38.96551216666667, "fusion_lon": 0.0, "rental_uris": {"ios": "https://dc.lft.to/lastmile_qr_scan", "android": "https://dc.lft.to/lastmile_qr_scan"}, "lon": -77.01626433333334, "bike_id": "2bd1189ac16047bababa7f69a61849c7", "type": "electric_bike", "name": "2bd1189ac16047bababa7f69a61849c7"}, {"is_disabled": 0, "is_reserved": 0, "fusion_lat": 0.0, "lat": 38.87858033333333, "fusion_lon": 0.0, "rental_uris": {"ios": "https://dc.lft.to/lastmile_qr_scan", "android": "https://dc.lft.to/lastmile_qr_scan"}, "lon": -77.00550266666667, "bike_id": "3775f9e73fca8af5f86a5b02a346f747", "type": "electric_scooter", "name": "3775f9e73fca8af5f86a5b02a346f747"}, {"is_disabled": 0, "is_reserved": 0, "fusion_lat": 0.0, "lat": 38.908422, "fusion_lon": 0.0, "rental_uris": {"ios": "https://dc.lft.to/lastmile_qr_scan", "android": "https://dc.lft.to/lastmile_qr_scan"}, "lon": -76.93444766666667, "bike_id": "ba496026cbfbab7b55feab2f34be4433", "type": "electric_scooter", "name": "ba496026cbfbab7b55feab2f34be4433"}, {"is_disabled": 0, "is_reserved": 0, "fusion_lat": 0.0, "lat": 38.9680265, "fusion_lon": 0.0, "rental_uris": {"ios": "https://dc.lft.to/lastmile_qr_scan", "android": "https://dc.lft.to/lastmile_qr_scan"}, "lon": -77.02428833333333, "bike_id": "df25eeaceb54f257a34f8c5c5abfb162", "type": "electric_scooter", "name": "df25eeaceb54f257a34f8c5c5abfb162"}, {"is_disabled": 0, "is_reserved": 0, "fusion_lat": 0.0, "lat": 38.884485833333336, "fusion_lon": 0.0, "rental_uris": {"ios": "https://dc.lft.to/lastmile_qr_scan", "android": "https://dc.lft.to/lastmile_qr_scan"}, "lon": -76.9509435, "bike_id": "694dc1d2a6cf403530ced94f31e4484f", "type": "electric_scooter", "name": "694dc1d2a6cf403530ced94f31e4484f"}, {"is_disabled": 0, "is_reserved": 0, "fusion_lat": 0.0, "lat": 38.89853166666666, "fusion_lon": 0.0, "rental_uris": {"ios": "https://dc.lft.to/lastmile_qr_scan", "android": "https://dc.lft.to/lastmile_qr_scan"}, "lon": -77.0286695, "bike_id": "16f733cb48691590c9c3bb212fd3560d", "type": "electric_scooter", "name": "16f733cb48691590c9c3bb212fd3560d"}, {"is_disabled": 0, "is_reserved": 0, "fusion_lat": 0.0, "lat": 38.813272, "fusion_lon": 0.0, "rental_uris": {"ios": "https://dc.lft.to/lastmile_qr_scan", "android": "https://dc.lft.to/lastmile_qr_scan"}, "lon": -77.05088416666666, "bike_id": "969c24cef712179eb22afc88907c7009", "type": "electric_bike", "name": "969c24cef712179eb22afc88907c7009"}, {"is_disabled": 0, "is_reserved": 0, "fusion_lat": 0.0, "lat": 38.928553666666666, "fusion_lon": 0.0, "rental_uris": {"ios": "https://dc.lft.to/lastmile_qr_scan", "android": "https://dc.lft.to/lastmile_qr_scan"}, "lon": -77.01424583333333, "bike_id": "73ed815d47aff70643fc4768dd3869ef", "type": "electric_scooter", "name": "73ed815d47aff70643fc4768dd3869ef"}, {"is_disabled": 0, "is_reserved": 0, "fusion_lat": 0.0, "lat": 38.904278166666664, "fusion_lon": 0.0, "rental_uris": {"ios": "https://dc.lft.to/lastmile_qr_scan", "android": "https://dc.lft.to/lastmile_qr_scan"}, "lon": -77.048277, "bike_id": "b318ca0a8965a68ff9b5eda1a75383b2", "type": "electric_scooter", "name": "b318ca0a8965a68ff9b5eda1a75383b2"}, {"is_disabled": 0, "is_reserved": 0, "fusion_lat": 0.0, "lat": 38.949765166666666, "fusion_lon": 0.0, "rental_uris": {"ios": "https://dc.lft.to/lastmile_qr_scan", "android": "https://dc.lft.to/lastmile_qr_scan"}, "lon": -77.02446566666667, "bike_id": "13868a3791a74b84246097f8d232cd31", "type": "electric_scooter", "name": "13868a3791a74b84246097f8d232cd31"}, {"is_disabled": 0, "is_reserved": 0, "fusion_lat": 0.0, "lat": 38.928984166666666, "fusion_lon": 0.0, "rental_uris": {"ios": "https://dc.lft.to/lastmile_qr_scan", "android": "https://dc.lft.to/lastmile_qr_scan"}, "lon": -77.037513, "bike_id": "e4ef84fdf5802acb09afe1c2de9519a6", "type": "electric_scooter", "name": "e4ef84fdf5802acb09afe1c2de9519a6"}, {"is_disabled": 0, "is_reserved": 0, "fusion_lat": 0.0, "lat": 38.9118355, "fusion_lon": 0.0, "rental_uris": {"ios": "https://dc.lft.to/lastmile_qr_scan", "android": "https://dc.lft.to/lastmile_qr_scan"}, "lon": -77.00186166666667, "bike_id": "53d88bd3494abfdd63334acaf610a922", "type": "electric_scooter", "name": "53d88bd3494abfdd63334acaf610a922"}, {"is_disabled": 0, "is_reserved": 0, "fusion_lat": 0.0, "lat": 38.881291, "fusion_lon": 0.0, "rental_uris": {"ios": "https://dc.lft.to/lastmile_qr_scan", "android": "https://dc.lft.to/lastmile_qr_scan"}, "lon": -77.022713, "bike_id": "922bac54386e2b0af73c48dddc87b260", "type": "electric_scooter", "name": "922bac54386e2b0af73c48dddc87b260"}, {"is_disabled": 0, "is_reserved": 0, "fusion_lat": 0.0, "lat": 38.949261666666665, "fusion_lon": 0.0, "rental_uris": {"ios": "https://dc.lft.to/lastmile_qr_scan", "android": "https://dc.lft.to/lastmile_qr_scan"}, "lon": -77.00800966666667, "bike_id": "e658832cd33d63000646c0065e82abef", "type": "electric_bike", "name": "e658832cd33d63000646c0065e82abef"}, {"is_disabled": 0, "is_reserved": 0, "fusion_lat": 0.0, "lat": 38.95586383333333, "fusion_lon": 0.0, "rental_uris": {"ios": "https://dc.lft.to/lastmile_qr_scan", "android": "https://dc.lft.to/lastmile_qr_scan"}, "lon": -77.01784133333334, "bike_id": "292840985543da88e74672e444e7ad42", "type": "electric_scooter", "name": "292840985543da88e74672e444e7ad42"}, {"is_disabled": 0, "is_reserved": 0, "fusion_lat": 0.0, "lat": 38.92198466666667, "fusion_lon": 0.0, "rental_uris": {"ios": "https://dc.lft.to/lastmile_qr_scan", "android": "https://dc.lft.to/lastmile_qr_scan"}, "lon": -77.0204495, "bike_id": "b518eb7dcab8b066e79d950427c7c793", "type": "electric_scooter", "name": "b518eb7dcab8b066e79d950427c7c793"}, {"is_disabled": 0, "is_reserved": 0, "fusion_lat": 0.0, "lat": 39.026464, "fusion_lon": 0.0, "rental_uris": {"ios": "https://dc.lft.to/lastmile_qr_scan", "android": "https://dc.lft.to/lastmile_qr_scan"}, "lon": -77.03685016666667, "bike_id": "6de6f7d59c344bccb7a3340ffd5f9d3b", "type": "electric_bike", "name": "6de6f7d59c344bccb7a3340ffd5f9d3b"}, {"is_disabled": 0, "is_reserved": 0, "fusion_lat": 0.0, "lat": 38.92046033333333, "fusion_lon": 0.0, "rental_uris": {"ios": "https://dc.lft.to/lastmile_qr_scan", "android": "https://dc.lft.to/lastmile_qr_scan"}, "lon": -77.03115733333334, "bike_id": "165067afb2defddb9079e0b963c42831", "type": "electric_scooter", "name": "165067afb2defddb9079e0b963c42831"}, {"is_disabled": 0, "is_reserved": 0, "fusion_lat": 0.0, "lat": 38.901173166666666, "fusion_lon": 0.0, "rental_uris": {"ios": "https://dc.lft.to/lastmile_qr_scan", "android": "https://dc.lft.to/lastmile_qr_scan"}, "lon": -76.981181, "bike_id": "6831e7c292f385a037757d1a2829f0e8", "type": "electric_scooter", "name": "6831e7c292f385a037757d1a2829f0e8"}, {"is_disabled": 0, "is_reserved": 0, "fusion_lat": 0.0, "lat": 38.91413583333333, "fusion_lon": 0.0, "rental_uris": {"ios": "https://dc.lft.to/lastmile_qr_scan", "android": "https://dc.lft.to/lastmile_qr_scan"}, "lon": -77.05211133333333, "bike_id": "66205484a57a0efa967e4093a5f2720a", "type": "electric_scooter", "name": "66205484a57a0efa967e4093a5f2720a"}, {"is_disabled": 0, "is_reserved": 0, "fusion_lat": 0.0, "lat": 38.901395, "fusion_lon": 0.0, "rental_uris": {"ios": "https://dc.lft.to/lastmile_qr_scan", "android": "https://dc.lft.to/lastmile_qr_scan"}, "lon": -76.97404133333333, "bike_id": "2170b56c6f05bb0ca9d5cae521ab528c", "type": "electric_scooter", "name": "2170b56c6f05bb0ca9d5cae521ab528c"}, {"is_disabled": 0, "is_reserved": 0, "fusion_lat": 0.0, "lat": 38.896826833333336, "fusion_lon": 0.0, "rental_uris": {"ios": "https://dc.lft.to/lastmile_qr_scan", "android": "https://dc.lft.to/lastmile_qr_scan"}, "lon": -77.02419583333334, "bike_id": "b43b92d0bce9adb8b09719eb9b53d413", "type": "electric_bike", "name": "b43b92d0bce9adb8b09719eb9b53d413"}, {"is_disabled": 0, "is_reserved": 0, "fusion_lat": 0.0, "lat": 38.92680683333333, "fusion_lon": 0.0, "rental_uris": {"ios": "https://dc.lft.to/lastmile_qr_scan", "android": "https://dc.lft.to/lastmile_qr_scan"}, "lon": -76.995548, "bike_id": "c280c49c9fb881271a246f1333ff5cdb", "type": "electric_scooter", "name": "c280c49c9fb881271a246f1333ff5cdb"}, {"is_disabled": 0, "is_reserved": 0, "fusion_lat": 0.0, "lat": 38.94330933333333, "fusion_lon": 0.0, "rental_uris": {"ios": "https://dc.lft.to/lastmile_qr_scan", "android": "https://dc.lft.to/lastmile_qr_scan"}, "lon": -77.02691466666667, "bike_id": "d084348a9cce466349d8bc2cfecac73e", "type": "electric_scooter", "name": "d084348a9cce466349d8bc2cfecac73e"}, {"is_disabled": 0, "is_reserved": 0, "fusion_lat": 0.0, "lat": 38.886215666666665, "fusion_lon": 0.0, "rental_uris": {"ios": "https://dc.lft.to/lastmile_qr_scan", "android": "https://dc.lft.to/lastmile_qr_scan"}, "lon": -76.926354, "bike_id": "78311584eeafe46877db1d8bdc2ce666", "type": "electric_scooter", "name": "78311584eeafe46877db1d8bdc2ce666"}, {"is_disabled": 0, "is_reserved": 0, "fusion_lat": 0.0, "lat": 38.927538166666665, "fusion_lon": 0.0, "rental_uris": {"ios": "https://dc.lft.to/lastmile_qr_scan", "android": "https://dc.lft.to/lastmile_qr_scan"}, "lon": -77.052585, "bike_id": "30542eecc75baa4a111ca2c164160c70", "type": "electric_scooter", "name": "30542eecc75baa4a111ca2c164160c70"}, {"is_disabled": 0, "is_reserved": 0, "fusion_lat": 0.0, "lat": 38.90510066666667, "fusion_lon": 0.0, "rental_uris": {"ios": "https://dc.lft.to/lastmile_qr_scan", "android": "https://dc.lft.to/lastmile_qr_scan"}, "lon": -76.9519825, "bike_id": "fddb996a4dc0b0062143af78025a5df2", "type": "electric_scooter", "name": "fddb996a4dc0b0062143af78025a5df2"}, {"is_disabled": 0, "is_reserved": 0, "fusion_lat": 0.0, "lat": 38.91642066666667, "fusion_lon": 0.0, "rental_uris": {"ios": "https://dc.lft.to/lastmile_qr_scan", "android": "https://dc.lft.to/lastmile_qr_scan"}, "lon": -77.02298966666666, "bike_id": "0c5cf396b54633db5eecff9f29c4a442", "type": "electric_scooter", "name": "0c5cf396b54633db5eecff9f29c4a442"}, {"is_disabled": 0, "is_reserved": 0, "fusion_lat": 0.0, "lat": 38.91665716666667, "fusion_lon": 0.0, "rental_uris": {"ios": "https://dc.lft.to/lastmile_qr_scan", "android": "https://dc.lft.to/lastmile_qr_scan"}, "lon": -77.046995, "bike_id": "252df122c57649b8bb03f9c8bd17e66d", "type": "electric_bike", "name": "252df122c57649b8bb03f9c8bd17e66d"}, {"is_disabled": 0, "is_reserved": 0, "fusion_lat": 0.0, "lat": 38.92340683333333, "fusion_lon": 0.0, "rental_uris": {"ios": "https://dc.lft.to/lastmile_qr_scan", "android": "https://dc.lft.to/lastmile_qr_scan"}, "lon": -77.03531, "bike_id": "d1caabeb10a75d4892ac3d6bff4174cf", "type": "electric_scooter", "name": "d1caabeb10a75d4892ac3d6bff4174cf"}, {"is_disabled": 0, "is_reserved": 0, "fusion_lat": 0.0, "lat": 38.9256365, "fusion_lon": 0.0, "rental_uris": {"ios": "https://dc.lft.to/lastmile_qr_scan", "android": "https://dc.lft.to/lastmile_qr_scan"}, "lon": -77.02282416666667, "bike_id": "50bca489f8f37fb2c28deb965d1dd8cf", "type": "electric_scooter", "name": "50bca489f8f37fb2c28deb965d1dd8cf"}, {"is_disabled": 0, "is_reserved": 0, "fusion_lat": 0.0, "lat": 38.923924, "fusion_lon": 0.0, "rental_uris": {"ios": "https://dc.lft.to/lastmile_qr_scan", "android": "https://dc.lft.to/lastmile_qr_scan"}, "lon": -77.00888816666667, "bike_id": "71fb9613c56562ba67913be5bfc588cd", "type": "electric_scooter", "name": "71fb9613c56562ba67913be5bfc588cd"}, {"is_disabled": 0, "is_reserved": 0, "fusion_lat": 0.0, "lat": 38.941953166666664, "fusion_lon": 0.0, "rental_uris": {"ios": "https://dc.lft.to/lastmile_qr_scan", "android": "https://dc.lft.to/lastmile_qr_scan"}, "lon": -77.08825933333334, "bike_id": "9be192b5b459a0cc612293efce1ede09", "type": "electric_scooter", "name": "9be192b5b459a0cc612293efce1ede09"}, {"is_disabled": 0, "is_reserved": 0, "fusion_lat": 0.0, "lat": 38.92907433333333, "fusion_lon": 0.0, "rental_uris": {"ios": "https://dc.lft.to/lastmile_qr_scan", "android": "https://dc.lft.to/lastmile_qr_scan"}, "lon": -77.02613983333333, "bike_id": "f1dc62dd839ba3e628f1af348d5e8865", "type": "electric_scooter", "name": "f1dc62dd839ba3e628f1af348d5e8865"}, {"is_disabled": 0, "is_reserved": 0, "fusion_lat": 0.0, "lat": 38.87695466666667, "fusion_lon": 0.0, "rental_uris": {"ios": "https://dc.lft.to/lastmile_qr_scan", "android": "https://dc.lft.to/lastmile_qr_scan"}, "lon": -77.0176415, "bike_id": "e539a932634ca14808189c5cf69c18ff", "type": "electric_scooter", "name": "e539a932634ca14808189c5cf69c18ff"}, {"is_disabled": 0, "is_reserved": 0, "fusion_lat": 0.0, "lat": 38.9054385, "fusion_lon": 0.0, "rental_uris": {"ios": "https://dc.lft.to/lastmile_qr_scan", "android": "https://dc.lft.to/lastmile_qr_scan"}, "lon": -77.04867633333333, "bike_id": "b3d6537116e3b0f32af9d0e141f56ef8", "type": "electric_scooter", "name": "b3d6537116e3b0f32af9d0e141f56ef8"}, {"is_disabled": 0, "is_reserved": 0, "fusion_lat": 0.0, "lat": 38.9062785, "fusion_lon": 0.0, "rental_uris": {"ios": "https://dc.lft.to/lastmile_qr_scan", "android": "https://dc.lft.to/lastmile_qr_scan"}, "lon": -77.03351416666666, "bike_id": "df03a6c60880ee0a1c63c9a78581c5cd", "type": "electric_scooter", "name": "df03a6c60880ee0a1c63c9a78581c5cd"}, {"is_disabled": 0, "is_reserved": 0, "fusion_lat": 0.0, "lat": 38.8956615, "fusion_lon": 0.0, "rental_uris": {"ios": "https://dc.lft.to/lastmile_qr_scan", "android": "https://dc.lft.to/lastmile_qr_scan"}, "lon": -77.01661916666667, "bike_id": "ad3aa810522d37ce5b010c8fd0d700cc", "type": "electric_scooter", "name": "ad3aa810522d37ce5b010c8fd0d700cc"}, {"is_disabled": 0, "is_reserved": 0, "fusion_lat": 0.0, "lat": 38.85801416666666, "fusion_lon": 0.0, "rental_uris": {"ios": "https://dc.lft.to/lastmile_qr_scan", "android": "https://dc.lft.to/lastmile_qr_scan"}, "lon": -76.9875715, "bike_id": "e24a2d3f03e13437c3c62b2b789abbf6", "type": "electric_bike", "name": "e24a2d3f03e13437c3c62b2b789abbf6"}, {"is_disabled": 0, "is_reserved": 0, "fusion_lat": 0.0, "lat": 39.0262235, "fusion_lon": 0.0, "rental_uris": {"ios": "https://dc.lft.to/lastmile_qr_scan", "android": "https://dc.lft.to/lastmile_qr_scan"}, "lon": -77.03878583333334, "bike_id": "6de03b0615d937e5f6d181a517b8a6c3", "type": "electric_bike", "name": "6de03b0615d937e5f6d181a517b8a6c3"}, {"is_disabled": 0, "is_reserved": 0, "fusion_lat": 0.0, "lat": 38.92682333333333, "fusion_lon": 0.0, "rental_uris": {"ios": "https://dc.lft.to/lastmile_qr_scan", "android": "https://dc.lft.to/lastmile_qr_scan"}, "lon": -77.0085875, "bike_id": "211181a2e0016b59795f03ce226b5fbb", "type": "electric_scooter", "name": "211181a2e0016b59795f03ce226b5fbb"}, {"is_disabled": 0, "is_reserved": 0, "fusion_lat": 0.0, "lat": 38.926163333333335, "fusion_lon": 0.0, "rental_uris": {"ios": "https://dc.lft.to/lastmile_qr_scan", "android": "https://dc.lft.to/lastmile_qr_scan"}, "lon": -76.99048633333334, "bike_id": "de122fdd3c7a6dfdc4b3fcd14aa70494", "type": "electric_scooter", "name": "de122fdd3c7a6dfdc4b3fcd14aa70494"}, {"is_disabled": 0, "is_reserved": 0, "fusion_lat": 0.0, "lat": 38.90722566666667, "fusion_lon": 0.0, "rental_uris": {"ios": "https://dc.lft.to/lastmile_qr_scan", "android": "https://dc.lft.to/lastmile_qr_scan"}, "lon": -77.04642816666667, "bike_id": "44752489c5c659894c60cda2959020cc", "type": "electric_scooter", "name": "44752489c5c659894c60cda2959020cc"}, {"is_disabled": 0, "is_reserved": 0, "fusion_lat": 0.0, "lat": 38.904324, "fusion_lon": 0.0, "rental_uris": {"ios": "https://dc.lft.to/lastmile_qr_scan", "android": "https://dc.lft.to/lastmile_qr_scan"}, "lon": -77.02842933333334, "bike_id": "3da694e7eb895932f0d96d77fce01229", "type": "electric_scooter", "name": "3da694e7eb895932f0d96d77fce01229"}, {"is_disabled": 0, "is_reserved": 0, "fusion_lat": 0.0, "lat": 38.918766833333336, "fusion_lon": 0.0, "rental_uris": {"ios": "https://dc.lft.to/lastmile_qr_scan", "android": "https://dc.lft.to/lastmile_qr_scan"}, "lon": -77.03658283333333, "bike_id": "b3d374a03348fe884a4c4f3e4a15b1f1", "type": "electric_scooter", "name": "b3d374a03348fe884a4c4f3e4a15b1f1"}, {"is_disabled": 0, "is_reserved": 0, "fusion_lat": 0.0, "lat": 38.94230116666667, "fusion_lon": 0.0, "rental_uris": {"ios": "https://dc.lft.to/lastmile_qr_scan", "android": "https://dc.lft.to/lastmile_qr_scan"}, "lon": -77.01438816666666, "bike_id": "474e33385c70fe86b841a26a1336249c", "type": "electric_scooter", "name": "474e33385c70fe86b841a26a1336249c"}, {"is_disabled": 0, "is_reserved": 0, "fusion_lat": 0.0, "lat": 38.93649833333333, "fusion_lon": 0.0, "rental_uris": {"ios": "https://dc.lft.to/lastmile_qr_scan", "android": "https://dc.lft.to/lastmile_qr_scan"}, "lon": -77.036756, "bike_id": "a92fefe90a7e21d62b208863749678a2", "type": "electric_scooter", "name": "a92fefe90a7e21d62b208863749678a2"}, {"is_disabled": 0, "is_reserved": 0, "fusion_lat": 0.0, "lat": 38.904354, "fusion_lon": 0.0, "rental_uris": {"ios": "https://dc.lft.to/lastmile_qr_scan", "android": "https://dc.lft.to/lastmile_qr_scan"}, "lon": -76.9722965, "bike_id": "7d0ca31b7ed5ab7b377fd252ee06ec77", "type": "electric_bike", "name": "7d0ca31b7ed5ab7b377fd252ee06ec77"}, {"is_disabled": 0, "is_reserved": 0, "fusion_lat": 0.0, "lat": 38.898502666666666, "fusion_lon": 0.0, "rental_uris": {"ios": "https://dc.lft.to/lastmile_qr_scan", "android": "https://dc.lft.to/lastmile_qr_scan"}, "lon": -76.92755, "bike_id": "2e348343ce65ce083addcb0baaeb941c", "type": "electric_scooter", "name": "2e348343ce65ce083addcb0baaeb941c"}, {"is_disabled": 0, "is_reserved": 0, "fusion_lat": 0.0, "lat": 38.89056566666667, "fusion_lon": 0.0, "rental_uris": {"ios": "https://dc.lft.to/lastmile_qr_scan", "android": "https://dc.lft.to/lastmile_qr_scan"}, "lon": -77.026655, "bike_id": "ee18c19d59525191d987aea738fad953", "type": "electric_bike", "name": "ee18c19d59525191d987aea738fad953"}, {"is_disabled": 0, "is_reserved": 0, "fusion_lat": 0.0, "lat": 38.931155833333335, "fusion_lon": 0.0, "rental_uris": {"ios": "https://dc.lft.to/lastmile_qr_scan", "android": "https://dc.lft.to/lastmile_qr_scan"}, "lon": -77.02136916666667, "bike_id": "64f6253a2bf61302fc06b4bcb5b9a697", "type": "electric_scooter", "name": "64f6253a2bf61302fc06b4bcb5b9a697"}, {"is_disabled": 0, "is_reserved": 0, "fusion_lat": 0.0, "lat": 38.832972166666664, "fusion_lon": 0.0, "rental_uris": {"ios": "https://dc.lft.to/lastmile_qr_scan", "android": "https://dc.lft.to/lastmile_qr_scan"}, "lon": -77.08407616666666, "bike_id": "d1621a8da7e55e47dee67c76ba5d8adb", "type": "electric_bike", "name": "d1621a8da7e55e47dee67c76ba5d8adb"}, {"is_disabled": 0, "is_reserved": 0, "fusion_lat": 0.0, "lat": 38.92008533333333, "fusion_lon": 0.0, "rental_uris": {"ios": "https://dc.lft.to/lastmile_qr_scan", "android": "https://dc.lft.to/lastmile_qr_scan"}, "lon": -77.031531, "bike_id": "d0ce336dc7743e873b15531855397a51", "type": "electric_scooter", "name": "d0ce336dc7743e873b15531855397a51"}, {"is_disabled": 0, "is_reserved": 0, "fusion_lat": 0.0, "lat": 38.92866716666666, "fusion_lon": 0.0, "rental_uris": {"ios": "https://dc.lft.to/lastmile_qr_scan", "android": "https://dc.lft.to/lastmile_qr_scan"}, "lon": -77.05653166666667, "bike_id": "d79da44ba3092ac84e5c4a5a9f01937b", "type": "electric_scooter", "name": "d79da44ba3092ac84e5c4a5a9f01937b"}, {"is_disabled": 0, "is_reserved": 0, "fusion_lat": 0.0, "lat": 38.922516, "fusion_lon": 0.0, "rental_uris": {"ios": "https://dc.lft.to/lastmile_qr_scan", "android": "https://dc.lft.to/lastmile_qr_scan"}, "lon": -77.072803, "bike_id": "c45ae4c1d09c53d95b816a8a45f3c9e5", "type": "electric_scooter", "name": "c45ae4c1d09c53d95b816a8a45f3c9e5"}, {"is_disabled": 0, "is_reserved": 0, "fusion_lat": 0.0, "lat": 38.89910016666666, "fusion_lon": 0.0, "rental_uris": {"ios": "https://dc.lft.to/lastmile_qr_scan", "android": "https://dc.lft.to/lastmile_qr_scan"}, "lon": -76.93381116666667, "bike_id": "9ce129c5c2dc45dbb48f4c2fe3b798d6", "type": "electric_scooter", "name": "9ce129c5c2dc45dbb48f4c2fe3b798d6"}, {"is_disabled": 0, "is_reserved": 0, "fusion_lat": 0.0, "lat": 38.91267966666667, "fusion_lon": 0.0, "rental_uris": {"ios": "https://dc.lft.to/lastmile_qr_scan", "android": "https://dc.lft.to/lastmile_qr_scan"}, "lon": -77.01603216666666, "bike_id": "49e8778604c81c1dab489cfcdf0d54dd", "type": "electric_scooter", "name": "49e8778604c81c1dab489cfcdf0d54dd"}, {"is_disabled": 0, "is_reserved": 0, "fusion_lat": 0.0, "lat": 38.927592, "fusion_lon": 0.0, "rental_uris": {"ios": "https://dc.lft.to/lastmile_qr_scan", "android": "https://dc.lft.to/lastmile_qr_scan"}, "lon": -77.02950883333334, "bike_id": "7dfb2bb9ac99299604cea9fa21aab4cc", "type": "electric_scooter", "name": "7dfb2bb9ac99299604cea9fa21aab4cc"}, {"is_disabled": 0, "is_reserved": 0, "fusion_lat": 0.0, "lat": 38.8803725, "fusion_lon": 0.0, "rental_uris": {"ios": "https://dc.lft.to/lastmile_qr_scan", "android": "https://dc.lft.to/lastmile_qr_scan"}, "lon": -76.927235, "bike_id": "5b7a0e156ebf22d8857efec84e259ddb", "type": "electric_scooter", "name": "5b7a0e156ebf22d8857efec84e259ddb"}, {"is_disabled": 0, "is_reserved": 0, "fusion_lat": 0.0, "lat": 38.896039, "fusion_lon": 0.0, "rental_uris": {"ios": "https://dc.lft.to/lastmile_qr_scan", "android": "https://dc.lft.to/lastmile_qr_scan"}, "lon": -77.00329316666667, "bike_id": "98df08a6f7ba0206aafe2291f36546a2", "type": "electric_scooter", "name": "98df08a6f7ba0206aafe2291f36546a2"}, {"is_disabled": 0, "is_reserved": 0, "fusion_lat": 0.0, "lat": 38.82922466666667, "fusion_lon": 0.0, "rental_uris": {"ios": "https://dc.lft.to/lastmile_qr_scan", "android": "https://dc.lft.to/lastmile_qr_scan"}, "lon": -77.068752, "bike_id": "41393b412fb95253236fb80208afe985", "type": "electric_bike", "name": "41393b412fb95253236fb80208afe985"}, {"is_disabled": 0, "is_reserved": 0, "fusion_lat": 0.0, "lat": 38.89246083333333, "fusion_lon": 0.0, "rental_uris": {"ios": "https://dc.lft.to/lastmile_qr_scan", "android": "https://dc.lft.to/lastmile_qr_scan"}, "lon": -77.03957916666667, "bike_id": "8a471a94f9ba6cfa36ecd3e8de29888b", "type": "electric_scooter", "name": "8a471a94f9ba6cfa36ecd3e8de29888b"}, {"is_disabled": 0, "is_reserved": 0, "fusion_lat": 0.0, "lat": 38.901841166666664, "fusion_lon": 0.0, "rental_uris": {"ios": "https://dc.lft.to/lastmile_qr_scan", "android": "https://dc.lft.to/lastmile_qr_scan"}, "lon": -76.9767065, "bike_id": "c2b1af7b920ff075c48b5062dcd0fcb5", "type": "electric_scooter", "name": "c2b1af7b920ff075c48b5062dcd0fcb5"}, {"is_disabled": 0, "is_reserved": 0, "fusion_lat": 0.0, "lat": 38.88711333333333, "fusion_lon": 0.0, "rental_uris": {"ios": "https://dc.lft.to/lastmile_qr_scan", "android": "https://dc.lft.to/lastmile_qr_scan"}, "lon": -76.98381916666666, "bike_id": "f1fa280bdfef5781aa1e6a1f71dae393", "type": "electric_scooter", "name": "f1fa280bdfef5781aa1e6a1f71dae393"}, {"is_disabled": 0, "is_reserved": 0, "fusion_lat": 0.0, "lat": 38.90429566666667, "fusion_lon": 0.0, "rental_uris": {"ios": "https://dc.lft.to/lastmile_qr_scan", "android": "https://dc.lft.to/lastmile_qr_scan"}, "lon": -77.02885533333334, "bike_id": "ecfc555070fb6e5f396dd1d354ab4462", "type": "electric_scooter", "name": "ecfc555070fb6e5f396dd1d354ab4462"}, {"is_disabled": 0, "is_reserved": 0, "fusion_lat": 0.0, "lat": 38.91884116666667, "fusion_lon": 0.0, "rental_uris": {"ios": "https://dc.lft.to/lastmile_qr_scan", "android": "https://dc.lft.to/lastmile_qr_scan"}, "lon": -77.03497783333333, "bike_id": "56a7897e228ea20219a0daed64a3b8ba", "type": "electric_scooter", "name": "56a7897e228ea20219a0daed64a3b8ba"}, {"is_disabled": 0, "is_reserved": 0, "fusion_lat": 0.0, "lat": 38.89424116666667, "fusion_lon": 0.0, "rental_uris": {"ios": "https://dc.lft.to/lastmile_qr_scan", "android": "https://dc.lft.to/lastmile_qr_scan"}, "lon": -77.0559715, "bike_id": "59d7c112d8ae7d63001c0811ede8d42c", "type": "electric_scooter", "name": "59d7c112d8ae7d63001c0811ede8d42c"}, {"is_disabled": 0, "is_reserved": 0, "fusion_lat": 0.0, "lat": 38.96028183333333, "fusion_lon": 0.0, "rental_uris": {"ios": "https://dc.lft.to/lastmile_qr_scan", "android": "https://dc.lft.to/lastmile_qr_scan"}, "lon": -77.033963, "bike_id": "b54605901cf477215d4c811019e6a595", "type": "electric_bike", "name": "b54605901cf477215d4c811019e6a595"}, {"is_disabled": 0, "is_reserved": 0, "fusion_lat": 0.0, "lat": 38.89506983333333, "fusion_lon": 0.0, "rental_uris": {"ios": "https://dc.lft.to/lastmile_qr_scan", "android": "https://dc.lft.to/lastmile_qr_scan"}, "lon": -77.02278316666667, "bike_id": "f58435518cb65b3ba194eaed35d20cc9", "type": "electric_scooter", "name": "f58435518cb65b3ba194eaed35d20cc9"}, {"is_disabled": 0, "is_reserved": 0, "fusion_lat": 0.0, "lat": 38.920667333333334, "fusion_lon": 0.0, "rental_uris": {"ios": "https://dc.lft.to/lastmile_qr_scan", "android": "https://dc.lft.to/lastmile_qr_scan"}, "lon": -77.0256465, "bike_id": "45ab7efb06c603d195d1d16cc27eadb1", "type": "electric_scooter", "name": "45ab7efb06c603d195d1d16cc27eadb1"}, {"is_disabled": 0, "is_reserved": 0, "fusion_lat": 0.0, "lat": 38.901310333333335, "fusion_lon": 0.0, "rental_uris": {"ios": "https://dc.lft.to/lastmile_qr_scan", "android": "https://dc.lft.to/lastmile_qr_scan"}, "lon": -77.03949533333333, "bike_id": "3a2e127459e24e0d449b3e05e589550f", "type": "electric_scooter", "name": "3a2e127459e24e0d449b3e05e589550f"}, {"is_disabled": 0, "is_reserved": 0, "fusion_lat": 0.0, "lat": 38.921488, "fusion_lon": 0.0, "rental_uris": {"ios": "https://dc.lft.to/lastmile_qr_scan", "android": "https://dc.lft.to/lastmile_qr_scan"}, "lon": -77.03647133333334, "bike_id": "3f1b52a487f0b18bb6034d4704b32e31", "type": "electric_scooter", "name": "3f1b52a487f0b18bb6034d4704b32e31"}, {"is_disabled": 0, "is_reserved": 0, "fusion_lat": 0.0, "lat": 38.893604833333335, "fusion_lon": 0.0, "rental_uris": {"ios": "https://dc.lft.to/lastmile_qr_scan", "android": "https://dc.lft.to/lastmile_qr_scan"}, "lon": -77.04474416666666, "bike_id": "b29eaa8b3b1e220dfd107f29031e9c59", "type": "electric_scooter", "name": "b29eaa8b3b1e220dfd107f29031e9c59"}, {"is_disabled": 0, "is_reserved": 0, "fusion_lat": 0.0, "lat": 38.982061333333334, "fusion_lon": 0.0, "rental_uris": {"ios": "https://dc.lft.to/lastmile_qr_scan", "android": "https://dc.lft.to/lastmile_qr_scan"}, "lon": -76.97813666666667, "bike_id": "526e107be298a5fcc4658b88638bb3d1", "type": "electric_bike", "name": "526e107be298a5fcc4658b88638bb3d1"}, {"is_disabled": 0, "is_reserved": 0, "fusion_lat": 0.0, "lat": 38.9360525, "fusion_lon": 0.0, "rental_uris": {"ios": "https://dc.lft.to/lastmile_qr_scan", "android": "https://dc.lft.to/lastmile_qr_scan"}, "lon": -77.0558405, "bike_id": "54fea3f856cd2b78a9d4aca9c762e54c", "type": "electric_scooter", "name": "54fea3f856cd2b78a9d4aca9c762e54c"}, {"is_disabled": 0, "is_reserved": 0, "fusion_lat": 0.0, "lat": 38.92772816666667, "fusion_lon": 0.0, "rental_uris": {"ios": "https://dc.lft.to/lastmile_qr_scan", "android": "https://dc.lft.to/lastmile_qr_scan"}, "lon": -77.052582, "bike_id": "c02219cd26db6aa316fb74676929aef7", "type": "electric_scooter", "name": "c02219cd26db6aa316fb74676929aef7"}, {"is_disabled": 0, "is_reserved": 0, "fusion_lat": 0.0, "lat": 38.87837733333333, "fusion_lon": 0.0, "rental_uris": {"ios": "https://dc.lft.to/lastmile_qr_scan", "android": "https://dc.lft.to/lastmile_qr_scan"}, "lon": -76.9860315, "bike_id": "64ece3268893f70c74a42f26ae9a1276", "type": "electric_scooter", "name": "64ece3268893f70c74a42f26ae9a1276"}, {"is_disabled": 0, "is_reserved": 0, "fusion_lat": 0.0, "lat": 38.9347085, "fusion_lon": 0.0, "rental_uris": {"ios": "https://dc.lft.to/lastmile_qr_scan", "android": "https://dc.lft.to/lastmile_qr_scan"}, "lon": -77.02403633333333, "bike_id": "5cf9d4464fa60c371198e8174d9d77e3", "type": "electric_scooter", "name": "5cf9d4464fa60c371198e8174d9d77e3"}, {"is_disabled": 0, "is_reserved": 0, "fusion_lat": 0.0, "lat": 38.92611183333333, "fusion_lon": 0.0, "rental_uris": {"ios": "https://dc.lft.to/lastmile_qr_scan", "android": "https://dc.lft.to/lastmile_qr_scan"}, "lon": -77.006535, "bike_id": "76c7d5aefc29900e6846112da42f8546", "type": "electric_scooter", "name": "76c7d5aefc29900e6846112da42f8546"}, {"is_disabled": 0, "is_reserved": 0, "fusion_lat": 0.0, "lat": 38.9398175, "fusion_lon": 0.0, "rental_uris": {"ios": "https://dc.lft.to/lastmile_qr_scan", "android": "https://dc.lft.to/lastmile_qr_scan"}, "lon": -77.01910983333333, "bike_id": "b119f3d494a394e5fc4b6410be906bbf", "type": "electric_scooter", "name": "b119f3d494a394e5fc4b6410be906bbf"}, {"is_disabled": 0, "is_reserved": 0, "fusion_lat": 0.0, "lat": 38.951093666666665, "fusion_lon": 0.0, "rental_uris": {"ios": "https://dc.lft.to/lastmile_qr_scan", "android": "https://dc.lft.to/lastmile_qr_scan"}, "lon": -77.01889316666667, "bike_id": "a5d2e1778e09e8c9b772bec4ec43eb74", "type": "electric_scooter", "name": "a5d2e1778e09e8c9b772bec4ec43eb74"}, {"is_disabled": 0, "is_reserved": 0, "fusion_lat": 0.0, "lat": 38.91917516666667, "fusion_lon": 0.0, "rental_uris": {"ios": "https://dc.lft.to/lastmile_qr_scan", "android": "https://dc.lft.to/lastmile_qr_scan"}, "lon": -77.02318, "bike_id": "85c0a391c8969d212d7afbfb9284baa0", "type": "electric_scooter", "name": "85c0a391c8969d212d7afbfb9284baa0"}, {"is_disabled": 0, "is_reserved": 0, "fusion_lat": 0.0, "lat": 38.900302833333335, "fusion_lon": 0.0, "rental_uris": {"ios": "https://dc.lft.to/lastmile_qr_scan", "android": "https://dc.lft.to/lastmile_qr_scan"}, "lon": -77.0036525, "bike_id": "90c2a08bf7c50dbfac68a33e8dcc6e9b", "type": "electric_scooter", "name": "90c2a08bf7c50dbfac68a33e8dcc6e9b"}, {"is_disabled": 0, "is_reserved": 0, "fusion_lat": 0.0, "lat": 38.926641833333335, "fusion_lon": 0.0, "rental_uris": {"ios": "https://dc.lft.to/lastmile_qr_scan", "android": "https://dc.lft.to/lastmile_qr_scan"}, "lon": -77.03025133333334, "bike_id": "ea929a03a7eb7dbd0618f21cbd5f8c84", "type": "electric_scooter", "name": "ea929a03a7eb7dbd0618f21cbd5f8c84"}, {"is_disabled": 0, "is_reserved": 0, "fusion_lat": 0.0, "lat": 38.87290333333333, "fusion_lon": 0.0, "rental_uris": {"ios": "https://dc.lft.to/lastmile_qr_scan", "android": "https://dc.lft.to/lastmile_qr_scan"}, "lon": -77.00984083333333, "bike_id": "a8cbaa3d01936f1505c3235e020bed47", "type": "electric_scooter", "name": "a8cbaa3d01936f1505c3235e020bed47"}, {"is_disabled": 0, "is_reserved": 0, "fusion_lat": 0.0, "lat": 38.9352285, "fusion_lon": 0.0, "rental_uris": {"ios": "https://dc.lft.to/lastmile_qr_scan", "android": "https://dc.lft.to/lastmile_qr_scan"}, "lon": -77.02844066666667, "bike_id": "c4142ef83fb535226cd58351299f1e5d", "type": "electric_scooter", "name": "c4142ef83fb535226cd58351299f1e5d"}, {"is_disabled": 0, "is_reserved": 0, "fusion_lat": 0.0, "lat": 38.9122525, "fusion_lon": 0.0, "rental_uris": {"ios": "https://dc.lft.to/lastmile_qr_scan", "android": "https://dc.lft.to/lastmile_qr_scan"}, "lon": -77.06410566666666, "bike_id": "61623c2c330245431fbbdda883dc0efa", "type": "electric_scooter", "name": "61623c2c330245431fbbdda883dc0efa"}, {"is_disabled": 0, "is_reserved": 0, "fusion_lat": 0.0, "lat": 38.90876333333333, "fusion_lon": 0.0, "rental_uris": {"ios": "https://dc.lft.to/lastmile_qr_scan", "android": "https://dc.lft.to/lastmile_qr_scan"}, "lon": -77.074379, "bike_id": "b25bef27e4e87cff95ba73ce5b2b2c23", "type": "electric_scooter", "name": "b25bef27e4e87cff95ba73ce5b2b2c23"}, {"is_disabled": 0, "is_reserved": 0, "fusion_lat": 0.0, "lat": 38.90647516666667, "fusion_lon": 0.0, "rental_uris": {"ios": "https://dc.lft.to/lastmile_qr_scan", "android": "https://dc.lft.to/lastmile_qr_scan"}, "lon": -76.97943283333333, "bike_id": "98f25fe61fb70193b063f678f19b008e", "type": "electric_scooter", "name": "98f25fe61fb70193b063f678f19b008e"}, {"is_disabled": 0, "is_reserved": 0, "fusion_lat": 0.0, "lat": 38.94174366666667, "fusion_lon": 0.0, "rental_uris": {"ios": "https://dc.lft.to/lastmile_qr_scan", "android": "https://dc.lft.to/lastmile_qr_scan"}, "lon": -77.02536583333334, "bike_id": "ff133df0b72b09682db83adb8e635e51", "type": "electric_scooter", "name": "ff133df0b72b09682db83adb8e635e51"}, {"is_disabled": 0, "is_reserved": 0, "fusion_lat": 0.0, "lat": 38.91416683333333, "fusion_lon": 0.0, "rental_uris": {"ios": "https://dc.lft.to/lastmile_qr_scan", "android": "https://dc.lft.to/lastmile_qr_scan"}, "lon": -77.02114933333333, "bike_id": "949a60aca70e9e002eeeef6371f2109f", "type": "electric_scooter", "name": "949a60aca70e9e002eeeef6371f2109f"}, {"is_disabled": 0, "is_reserved": 0, "fusion_lat": 0.0, "lat": 38.863648166666664, "fusion_lon": 0.0, "rental_uris": {"ios": "https://dc.lft.to/lastmile_qr_scan", "android": "https://dc.lft.to/lastmile_qr_scan"}, "lon": -76.97009733333333, "bike_id": "1a59afdc0b924d55eea9f6c4a374a416", "type": "electric_bike", "name": "1a59afdc0b924d55eea9f6c4a374a416"}, {"is_disabled": 0, "is_reserved": 0, "fusion_lat": 0.0, "lat": 38.89242016666667, "fusion_lon": 0.0, "rental_uris": {"ios": "https://dc.lft.to/lastmile_qr_scan", "android": "https://dc.lft.to/lastmile_qr_scan"}, "lon": -77.03956633333334, "bike_id": "19278615a8afa3ae64a1854d4ce46370", "type": "electric_scooter", "name": "19278615a8afa3ae64a1854d4ce46370"}, {"is_disabled": 0, "is_reserved": 0, "fusion_lat": 0.0, "lat": 38.8766035, "fusion_lon": 0.0, "rental_uris": {"ios": "https://dc.lft.to/lastmile_qr_scan", "android": "https://dc.lft.to/lastmile_qr_scan"}, "lon": -77.0088565, "bike_id": "16be10df17a626d67efb392118313930", "type": "electric_scooter", "name": "16be10df17a626d67efb392118313930"}, {"is_disabled": 0, "is_reserved": 0, "fusion_lat": 0.0, "lat": 38.906248, "fusion_lon": 0.0, "rental_uris": {"ios": "https://dc.lft.to/lastmile_qr_scan", "android": "https://dc.lft.to/lastmile_qr_scan"}, "lon": -77.02963783333334, "bike_id": "4058be226b8d5d178fc641a41340f5d8", "type": "electric_scooter", "name": "4058be226b8d5d178fc641a41340f5d8"}, {"is_disabled": 0, "is_reserved": 0, "fusion_lat": 0.0, "lat": 38.883584166666665, "fusion_lon": 0.0, "rental_uris": {"ios": "https://dc.lft.to/lastmile_qr_scan", "android": "https://dc.lft.to/lastmile_qr_scan"}, "lon": -76.92792533333333, "bike_id": "9e8224314da7191ff47919b8e8489434", "type": "electric_scooter", "name": "9e8224314da7191ff47919b8e8489434"}, {"is_disabled": 0, "is_reserved": 0, "fusion_lat": 0.0, "lat": 38.9286405, "fusion_lon": 0.0, "rental_uris": {"ios": "https://dc.lft.to/lastmile_qr_scan", "android": "https://dc.lft.to/lastmile_qr_scan"}, "lon": -77.07889333333334, "bike_id": "a3e03c2addd77cce53cd16efa19905ab", "type": "electric_scooter", "name": "a3e03c2addd77cce53cd16efa19905ab"}, {"is_disabled": 0, "is_reserved": 0, "fusion_lat": 0.0, "lat": 38.901567, "fusion_lon": 0.0, "rental_uris": {"ios": "https://dc.lft.to/lastmile_qr_scan", "android": "https://dc.lft.to/lastmile_qr_scan"}, "lon": -77.02512766666666, "bike_id": "382c80090503d5a388fb5ffff2576eaf", "type": "electric_scooter", "name": "382c80090503d5a388fb5ffff2576eaf"}, {"is_disabled": 0, "is_reserved": 0, "fusion_lat": 0.0, "lat": 38.902606, "fusion_lon": 0.0, "rental_uris": {"ios": "https://dc.lft.to/lastmile_qr_scan", "android": "https://dc.lft.to/lastmile_qr_scan"}, "lon": -76.928472, "bike_id": "05d872dec65718d8e734ffcf5aaa14bd", "type": "electric_scooter", "name": "05d872dec65718d8e734ffcf5aaa14bd"}, {"is_disabled": 0, "is_reserved": 0, "fusion_lat": 0.0, "lat": 38.930603833333336, "fusion_lon": 0.0, "rental_uris": {"ios": "https://dc.lft.to/lastmile_qr_scan", "android": "https://dc.lft.to/lastmile_qr_scan"}, "lon": -76.9732655, "bike_id": "4af43ad188bb2c9d6aec5b979025eea2", "type": "electric_scooter", "name": "4af43ad188bb2c9d6aec5b979025eea2"}, {"is_disabled": 0, "is_reserved": 0, "fusion_lat": 0.0, "lat": 38.925874, "fusion_lon": 0.0, "rental_uris": {"ios": "https://dc.lft.to/lastmile_qr_scan", "android": "https://dc.lft.to/lastmile_qr_scan"}, "lon": -77.02491816666667, "bike_id": "6d2a4586d5549983ed5f950133318976", "type": "electric_scooter", "name": "6d2a4586d5549983ed5f950133318976"}, {"is_disabled": 0, "is_reserved": 0, "fusion_lat": 0.0, "lat": 38.956352, "fusion_lon": 0.0, "rental_uris": {"ios": "https://dc.lft.to/lastmile_qr_scan", "android": "https://dc.lft.to/lastmile_qr_scan"}, "lon": -77.03633166666667, "bike_id": "8666cfe5813580ae7dd437d21f40bff6", "type": "electric_scooter", "name": "8666cfe5813580ae7dd437d21f40bff6"}, {"is_disabled": 0, "is_reserved": 0, "fusion_lat": 0.0, "lat": 38.93340033333333, "fusion_lon": 0.0, "rental_uris": {"ios": "https://dc.lft.to/lastmile_qr_scan", "android": "https://dc.lft.to/lastmile_qr_scan"}, "lon": -77.01934583333333, "bike_id": "ec6ce78263d4d08a9c0878ac0e239f1c", "type": "electric_scooter", "name": "ec6ce78263d4d08a9c0878ac0e239f1c"}, {"is_disabled": 0, "is_reserved": 0, "fusion_lat": 0.0, "lat": 38.92708233333333, "fusion_lon": 0.0, "rental_uris": {"ios": "https://dc.lft.to/lastmile_qr_scan", "android": "https://dc.lft.to/lastmile_qr_scan"}, "lon": -77.02265433333334, "bike_id": "ca5936347f8e02197ad10d2038460e3e", "type": "electric_scooter", "name": "ca5936347f8e02197ad10d2038460e3e"}, {"is_disabled": 0, "is_reserved": 0, "fusion_lat": 0.0, "lat": 38.91726666666667, "fusion_lon": 0.0, "rental_uris": {"ios": "https://dc.lft.to/lastmile_qr_scan", "android": "https://dc.lft.to/lastmile_qr_scan"}, "lon": -77.0261065, "bike_id": "74aaac3a5876d96d2cb8fe09a5a197ff", "type": "electric_scooter", "name": "74aaac3a5876d96d2cb8fe09a5a197ff"}, {"is_disabled": 0, "is_reserved": 0, "fusion_lat": 0.0, "lat": 38.9323775, "fusion_lon": 0.0, "rental_uris": {"ios": "https://dc.lft.to/lastmile_qr_scan", "android": "https://dc.lft.to/lastmile_qr_scan"}, "lon": -77.02029733333333, "bike_id": "c781ce04a30cabced2d17704055be441", "type": "electric_scooter", "name": "c781ce04a30cabced2d17704055be441"}, {"is_disabled": 0, "is_reserved": 0, "fusion_lat": 0.0, "lat": 38.89084233333333, "fusion_lon": 0.0, "rental_uris": {"ios": "https://dc.lft.to/lastmile_qr_scan", "android": "https://dc.lft.to/lastmile_qr_scan"}, "lon": -76.954692, "bike_id": "e1d0fadd0bde25fdf52f3ea39338b5c1", "type": "electric_bike", "name": "e1d0fadd0bde25fdf52f3ea39338b5c1"}, {"is_disabled": 0, "is_reserved": 0, "fusion_lat": 0.0, "lat": 38.91906316666667, "fusion_lon": 0.0, "rental_uris": {"ios": "https://dc.lft.to/lastmile_qr_scan", "android": "https://dc.lft.to/lastmile_qr_scan"}, "lon": -77.03441316666667, "bike_id": "019a53b6fc87697b0d447422088281e4", "type": "electric_scooter", "name": "019a53b6fc87697b0d447422088281e4"}, {"is_disabled": 0, "is_reserved": 0, "fusion_lat": 0.0, "lat": 38.92198066666667, "fusion_lon": 0.0, "rental_uris": {"ios": "https://dc.lft.to/lastmile_qr_scan", "android": "https://dc.lft.to/lastmile_qr_scan"}, "lon": -77.018313, "bike_id": "ba011db6a1b35a43efd854c696ad57c3", "type": "electric_scooter", "name": "ba011db6a1b35a43efd854c696ad57c3"}, {"is_disabled": 0, "is_reserved": 0, "fusion_lat": 0.0, "lat": 38.93974216666667, "fusion_lon": 0.0, "rental_uris": {"ios": "https://dc.lft.to/lastmile_qr_scan", "android": "https://dc.lft.to/lastmile_qr_scan"}, "lon": -77.02891216666667, "bike_id": "8d78a30b0e0ffc055e66e482acdc7475", "type": "electric_scooter", "name": "8d78a30b0e0ffc055e66e482acdc7475"}, {"is_disabled": 0, "is_reserved": 0, "fusion_lat": 0.0, "lat": 38.892345, "fusion_lon": 0.0, "rental_uris": {"ios": "https://dc.lft.to/lastmile_qr_scan", "android": "https://dc.lft.to/lastmile_qr_scan"}, "lon": -77.04649533333334, "bike_id": "cda46001cf38fe47781c56698ea4c822", "type": "electric_scooter", "name": "cda46001cf38fe47781c56698ea4c822"}, {"is_disabled": 0, "is_reserved": 0, "fusion_lat": 0.0, "lat": 38.904528, "fusion_lon": 0.0, "rental_uris": {"ios": "https://dc.lft.to/lastmile_qr_scan", "android": "https://dc.lft.to/lastmile_qr_scan"}, "lon": -76.93271383333334, "bike_id": "fbbef67d5efcf26efc4c050949deddcf", "type": "electric_scooter", "name": "fbbef67d5efcf26efc4c050949deddcf"}, {"is_disabled": 0, "is_reserved": 0, "fusion_lat": 0.0, "lat": 38.967962166666666, "fusion_lon": 0.0, "rental_uris": {"ios": "https://dc.lft.to/lastmile_qr_scan", "android": "https://dc.lft.to/lastmile_qr_scan"}, "lon": -77.02557533333334, "bike_id": "fe7f769d5ea31d4d267b6c863b1866e0", "type": "electric_scooter", "name": "fe7f769d5ea31d4d267b6c863b1866e0"}, {"is_disabled": 0, "is_reserved": 0, "fusion_lat": 0.0, "lat": 38.9041605, "fusion_lon": 0.0, "rental_uris": {"ios": "https://dc.lft.to/lastmile_qr_scan", "android": "https://dc.lft.to/lastmile_qr_scan"}, "lon": -77.03112816666666, "bike_id": "7d6d18e5df8f4828d883b407065da775", "type": "electric_scooter", "name": "7d6d18e5df8f4828d883b407065da775"}, {"is_disabled": 0, "is_reserved": 0, "fusion_lat": 0.0, "lat": 38.9051805, "fusion_lon": 0.0, "rental_uris": {"ios": "https://dc.lft.to/lastmile_qr_scan", "android": "https://dc.lft.to/lastmile_qr_scan"}, "lon": -77.00698333333334, "bike_id": "688593095261ce09ffaf2d99a5c8a8f0", "type": "electric_scooter", "name": "688593095261ce09ffaf2d99a5c8a8f0"}, {"is_disabled": 0, "is_reserved": 0, "fusion_lat": 0.0, "lat": 38.91762266666667, "fusion_lon": 0.0, "rental_uris": {"ios": "https://dc.lft.to/lastmile_qr_scan", "android": "https://dc.lft.to/lastmile_qr_scan"}, "lon": -77.0476395, "bike_id": "bd38c1fd36fb912e4216da4af15361be", "type": "electric_scooter", "name": "bd38c1fd36fb912e4216da4af15361be"}, {"is_disabled": 0, "is_reserved": 0, "fusion_lat": 0.0, "lat": 38.92216483333333, "fusion_lon": 0.0, "rental_uris": {"ios": "https://dc.lft.to/lastmile_qr_scan", "android": "https://dc.lft.to/lastmile_qr_scan"}, "lon": -77.07438866666666, "bike_id": "5b295fb4831a649fa4b2c922260bb6af", "type": "electric_scooter", "name": "5b295fb4831a649fa4b2c922260bb6af"}, {"is_disabled": 0, "is_reserved": 0, "fusion_lat": 0.0, "lat": 38.90586, "fusion_lon": 0.0, "rental_uris": {"ios": "https://dc.lft.to/lastmile_qr_scan", "android": "https://dc.lft.to/lastmile_qr_scan"}, "lon": -77.0161155, "bike_id": "486fd278d029a73d987d8811d97eaaf7", "type": "electric_scooter", "name": "486fd278d029a73d987d8811d97eaaf7"}, {"is_disabled": 0, "is_reserved": 0, "fusion_lat": 0.0, "lat": 38.884242666666665, "fusion_lon": 0.0, "rental_uris": {"ios": "https://dc.lft.to/lastmile_qr_scan", "android": "https://dc.lft.to/lastmile_qr_scan"}, "lon": -77.02502833333334, "bike_id": "5d0c1d143f65a9b9a554b8cac6d78f8d", "type": "electric_scooter", "name": "5d0c1d143f65a9b9a554b8cac6d78f8d"}, {"is_disabled": 0, "is_reserved": 0, "fusion_lat": 0.0, "lat": 38.92135, "fusion_lon": 0.0, "rental_uris": {"ios": "https://dc.lft.to/lastmile_qr_scan", "android": "https://dc.lft.to/lastmile_qr_scan"}, "lon": -77.04561316666667, "bike_id": "15409d4f4337fd504c853649bd28b33f", "type": "electric_scooter", "name": "15409d4f4337fd504c853649bd28b33f"}, {"is_disabled": 0, "is_reserved": 0, "fusion_lat": 0.0, "lat": 38.91350666666666, "fusion_lon": 0.0, "rental_uris": {"ios": "https://dc.lft.to/lastmile_qr_scan", "android": "https://dc.lft.to/lastmile_qr_scan"}, "lon": -76.971402, "bike_id": "651c6a55f45869d627505e1335641306", "type": "electric_scooter", "name": "651c6a55f45869d627505e1335641306"}, {"is_disabled": 0, "is_reserved": 0, "fusion_lat": 0.0, "lat": 38.92505533333333, "fusion_lon": 0.0, "rental_uris": {"ios": "https://dc.lft.to/lastmile_qr_scan", "android": "https://dc.lft.to/lastmile_qr_scan"}, "lon": -77.02357666666667, "bike_id": "dd11cb549e61a6979187e9b2a9b6cd7c", "type": "electric_scooter", "name": "dd11cb549e61a6979187e9b2a9b6cd7c"}, {"is_disabled": 0, "is_reserved": 0, "fusion_lat": 0.0, "lat": 38.899437166666665, "fusion_lon": 0.0, "rental_uris": {"ios": "https://dc.lft.to/lastmile_qr_scan", "android": "https://dc.lft.to/lastmile_qr_scan"}, "lon": -77.01494383333333, "bike_id": "14b9ebeaa77069fe226df8f48d08c87c", "type": "electric_scooter", "name": "14b9ebeaa77069fe226df8f48d08c87c"}, {"is_disabled": 0, "is_reserved": 0, "fusion_lat": 0.0, "lat": 38.90034133333333, "fusion_lon": 0.0, "rental_uris": {"ios": "https://dc.lft.to/lastmile_qr_scan", "android": "https://dc.lft.to/lastmile_qr_scan"}, "lon": -77.00701316666667, "bike_id": "8a8dd6362240386737706dfd742c0ed7", "type": "electric_scooter", "name": "8a8dd6362240386737706dfd742c0ed7"}, {"is_disabled": 0, "is_reserved": 0, "fusion_lat": 0.0, "lat": 38.932495, "fusion_lon": 0.0, "rental_uris": {"ios": "https://dc.lft.to/lastmile_qr_scan", "android": "https://dc.lft.to/lastmile_qr_scan"}, "lon": -77.02929733333333, "bike_id": "263ff35f8b213ac69b065662aeb3b4fc", "type": "electric_scooter", "name": "263ff35f8b213ac69b065662aeb3b4fc"}, {"is_disabled": 0, "is_reserved": 0, "fusion_lat": 0.0, "lat": 38.90922333333334, "fusion_lon": 0.0, "rental_uris": {"ios": "https://dc.lft.to/lastmile_qr_scan", "android": "https://dc.lft.to/lastmile_qr_scan"}, "lon": -77.049454, "bike_id": "6256b24ae361ee75fcdc5aa2ca05f290", "type": "electric_scooter", "name": "6256b24ae361ee75fcdc5aa2ca05f290"}, {"is_disabled": 0, "is_reserved": 0, "fusion_lat": 0.0, "lat": 38.929808333333334, "fusion_lon": 0.0, "rental_uris": {"ios": "https://dc.lft.to/lastmile_qr_scan", "android": "https://dc.lft.to/lastmile_qr_scan"}, "lon": -77.0388625, "bike_id": "1314b27156a72a9efab4862f9d5ac340", "type": "electric_scooter", "name": "1314b27156a72a9efab4862f9d5ac340"}, {"is_disabled": 0, "is_reserved": 0, "fusion_lat": 0.0, "lat": 38.91027283333333, "fusion_lon": 0.0, "rental_uris": {"ios": "https://dc.lft.to/lastmile_qr_scan", "android": "https://dc.lft.to/lastmile_qr_scan"}, "lon": -76.92335166666666, "bike_id": "d60211c9a1bf60b64b136d47c62dad33", "type": "electric_bike", "name": "d60211c9a1bf60b64b136d47c62dad33"}, {"is_disabled": 0, "is_reserved": 0, "fusion_lat": 0.0, "lat": 38.94975916666667, "fusion_lon": 0.0, "rental_uris": {"ios": "https://dc.lft.to/lastmile_qr_scan", "android": "https://dc.lft.to/lastmile_qr_scan"}, "lon": -77.024456, "bike_id": "a9e702e8e0dd375f984c0a6e3253438c", "type": "electric_scooter", "name": "a9e702e8e0dd375f984c0a6e3253438c"}, {"is_disabled": 0, "is_reserved": 0, "fusion_lat": 0.0, "lat": 38.94217716666667, "fusion_lon": 0.0, "rental_uris": {"ios": "https://dc.lft.to/lastmile_qr_scan", "android": "https://dc.lft.to/lastmile_qr_scan"}, "lon": -76.96128883333333, "bike_id": "6ee1c87e9ce641c0f9930f929c67ed94", "type": "electric_bike", "name": "6ee1c87e9ce641c0f9930f929c67ed94"}, {"is_disabled": 0, "is_reserved": 0, "fusion_lat": 0.0, "lat": 38.809782, "fusion_lon": 0.0, "rental_uris": {"ios": "https://dc.lft.to/lastmile_qr_scan", "android": "https://dc.lft.to/lastmile_qr_scan"}, "lon": -77.076611, "bike_id": "2b3d18c9067a7ff912c965e1593983dc", "type": "electric_bike", "name": "2b3d18c9067a7ff912c965e1593983dc"}, {"is_disabled": 0, "is_reserved": 0, "fusion_lat": 0.0, "lat": 38.917999, "fusion_lon": 0.0, "rental_uris": {"ios": "https://dc.lft.to/lastmile_qr_scan", "android": "https://dc.lft.to/lastmile_qr_scan"}, "lon": -77.03440066666667, "bike_id": "6d131b3fe883fe1e8c159998eed9aa3d", "type": "electric_scooter", "name": "6d131b3fe883fe1e8c159998eed9aa3d"}, {"is_disabled": 0, "is_reserved": 0, "fusion_lat": 0.0, "lat": 38.9097045, "fusion_lon": 0.0, "rental_uris": {"ios": "https://dc.lft.to/lastmile_qr_scan", "android": "https://dc.lft.to/lastmile_qr_scan"}, "lon": -77.011088, "bike_id": "4f8ab3ae63654b1c0cfdd28893812854", "type": "electric_scooter", "name": "4f8ab3ae63654b1c0cfdd28893812854"}, {"is_disabled": 0, "is_reserved": 0, "fusion_lat": 0.0, "lat": 38.917618166666664, "fusion_lon": 0.0, "rental_uris": {"ios": "https://dc.lft.to/lastmile_qr_scan", "android": "https://dc.lft.to/lastmile_qr_scan"}, "lon": -77.0149345, "bike_id": "35c3e39098431e91b1c499f628361100", "type": "electric_scooter", "name": "35c3e39098431e91b1c499f628361100"}, {"is_disabled": 0, "is_reserved": 0, "fusion_lat": 0.0, "lat": 38.925272, "fusion_lon": 0.0, "rental_uris": {"ios": "https://dc.lft.to/lastmile_qr_scan", "android": "https://dc.lft.to/lastmile_qr_scan"}, "lon": -77.02563566666667, "bike_id": "4185de0c9d7619ad7729d0fc16ed05d8", "type": "electric_scooter", "name": "4185de0c9d7619ad7729d0fc16ed05d8"}, {"is_disabled": 0, "is_reserved": 0, "fusion_lat": 0.0, "lat": 38.8359025, "fusion_lon": 0.0, "rental_uris": {"ios": "https://dc.lft.to/lastmile_qr_scan", "android": "https://dc.lft.to/lastmile_qr_scan"}, "lon": -76.99013966666666, "bike_id": "cba45b732f76752da15bbd61e8117518", "type": "electric_bike", "name": "cba45b732f76752da15bbd61e8117518"}, {"is_disabled": 0, "is_reserved": 0, "fusion_lat": 0.0, "lat": 38.9221515, "fusion_lon": 0.0, "rental_uris": {"ios": "https://dc.lft.to/lastmile_qr_scan", "android": "https://dc.lft.to/lastmile_qr_scan"}, "lon": -77.02035516666666, "bike_id": "241730392ae6554e9c1bdf4b60961e8a", "type": "electric_scooter", "name": "241730392ae6554e9c1bdf4b60961e8a"}, {"is_disabled": 0, "is_reserved": 0, "fusion_lat": 0.0, "lat": 38.8506445, "fusion_lon": 0.0, "rental_uris": {"ios": "https://dc.lft.to/lastmile_qr_scan", "android": "https://dc.lft.to/lastmile_qr_scan"}, "lon": -76.98167666666667, "bike_id": "964480b66d4290c20638fe1924cc7b50", "type": "electric_bike", "name": "964480b66d4290c20638fe1924cc7b50"}, {"is_disabled": 0, "is_reserved": 0, "fusion_lat": 0.0, "lat": 38.89497566666667, "fusion_lon": 0.0, "rental_uris": {"ios": "https://dc.lft.to/lastmile_qr_scan", "android": "https://dc.lft.to/lastmile_qr_scan"}, "lon": -76.97410116666667, "bike_id": "cbb71b93bc80738a064afee047e93760", "type": "electric_scooter", "name": "cbb71b93bc80738a064afee047e93760"}, {"is_disabled": 0, "is_reserved": 0, "fusion_lat": 0.0, "lat": 38.91741416666667, "fusion_lon": 0.0, "rental_uris": {"ios": "https://dc.lft.to/lastmile_qr_scan", "android": "https://dc.lft.to/lastmile_qr_scan"}, "lon": -77.01084216666666, "bike_id": "b8d9081645e8a494721473c2f4b293aa", "type": "electric_scooter", "name": "b8d9081645e8a494721473c2f4b293aa"}, {"is_disabled": 0, "is_reserved": 0, "fusion_lat": 0.0, "lat": 38.9360125, "fusion_lon": 0.0, "rental_uris": {"ios": "https://dc.lft.to/lastmile_qr_scan", "android": "https://dc.lft.to/lastmile_qr_scan"}, "lon": -77.055954, "bike_id": "93db6b075364c80818006135d2cf7ddc", "type": "electric_scooter", "name": "93db6b075364c80818006135d2cf7ddc"}, {"is_disabled": 0, "is_reserved": 0, "fusion_lat": 0.0, "lat": 38.919416166666664, "fusion_lon": 0.0, "rental_uris": {"ios": "https://dc.lft.to/lastmile_qr_scan", "android": "https://dc.lft.to/lastmile_qr_scan"}, "lon": -77.04505116666667, "bike_id": "49019068ac3d21a8312d6fd397cfaae9", "type": "electric_scooter", "name": "49019068ac3d21a8312d6fd397cfaae9"}, {"is_disabled": 0, "is_reserved": 0, "fusion_lat": 0.0, "lat": 38.895024166666666, "fusion_lon": 0.0, "rental_uris": {"ios": "https://dc.lft.to/lastmile_qr_scan", "android": "https://dc.lft.to/lastmile_qr_scan"}, "lon": -77.022815, "bike_id": "ed1598937408bcd12de3b43716b0ae6b", "type": "electric_scooter", "name": "ed1598937408bcd12de3b43716b0ae6b"}, {"is_disabled": 0, "is_reserved": 0, "fusion_lat": 0.0, "lat": 38.882155833333336, "fusion_lon": 0.0, "rental_uris": {"ios": "https://dc.lft.to/lastmile_qr_scan", "android": "https://dc.lft.to/lastmile_qr_scan"}, "lon": -76.99735933333334, "bike_id": "2460f3e34049a2c965f6b49ca9ac76e2", "type": "electric_scooter", "name": "2460f3e34049a2c965f6b49ca9ac76e2"}, {"is_disabled": 0, "is_reserved": 0, "fusion_lat": 0.0, "lat": 38.8563685, "fusion_lon": 0.0, "rental_uris": {"ios": "https://dc.lft.to/lastmile_qr_scan", "android": "https://dc.lft.to/lastmile_qr_scan"}, "lon": -77.068322, "bike_id": "0e3e7461e841f82ac9f68ec350461e69", "type": "electric_bike", "name": "0e3e7461e841f82ac9f68ec350461e69"}, {"is_disabled": 0, "is_reserved": 0, "fusion_lat": 0.0, "lat": 38.94595916666667, "fusion_lon": 0.0, "rental_uris": {"ios": "https://dc.lft.to/lastmile_qr_scan", "android": "https://dc.lft.to/lastmile_qr_scan"}, "lon": -77.0266945, "bike_id": "fccf483a4ab7c75ff59b313d88a01b58", "type": "electric_scooter", "name": "fccf483a4ab7c75ff59b313d88a01b58"}, {"is_disabled": 0, "is_reserved": 0, "fusion_lat": 0.0, "lat": 38.898892833333335, "fusion_lon": 0.0, "rental_uris": {"ios": "https://dc.lft.to/lastmile_qr_scan", "android": "https://dc.lft.to/lastmile_qr_scan"}, "lon": -77.021639, "bike_id": "1bcc7caa6d379b94ecc3f8182785bc93", "type": "electric_scooter", "name": "1bcc7caa6d379b94ecc3f8182785bc93"}, {"is_disabled": 0, "is_reserved": 0, "fusion_lat": 0.0, "lat": 38.8761705, "fusion_lon": 0.0, "rental_uris": {"ios": "https://dc.lft.to/lastmile_qr_scan", "android": "https://dc.lft.to/lastmile_qr_scan"}, "lon": -77.00610833333333, "bike_id": "524f7afea5fcee465338bc09bc20673e", "type": "electric_scooter", "name": "524f7afea5fcee465338bc09bc20673e"}, {"is_disabled": 0, "is_reserved": 0, "fusion_lat": 0.0, "lat": 38.8242855, "fusion_lon": 0.0, "rental_uris": {"ios": "https://dc.lft.to/lastmile_qr_scan", "android": "https://dc.lft.to/lastmile_qr_scan"}, "lon": -77.12041366666666, "bike_id": "57689bf0af4a07e79f0335027a16ca30", "type": "electric_bike", "name": "57689bf0af4a07e79f0335027a16ca30"}, {"is_disabled": 0, "is_reserved": 0, "fusion_lat": 0.0, "lat": 38.865624833333335, "fusion_lon": 0.0, "rental_uris": {"ios": "https://dc.lft.to/lastmile_qr_scan", "android": "https://dc.lft.to/lastmile_qr_scan"}, "lon": -76.974738, "bike_id": "d630ec8cfabbec0ed4f408c42e7dae9b", "type": "electric_bike", "name": "d630ec8cfabbec0ed4f408c42e7dae9b"}, {"is_disabled": 0, "is_reserved": 0, "fusion_lat": 0.0, "lat": 38.9293725, "fusion_lon": 0.0, "rental_uris": {"ios": "https://dc.lft.to/lastmile_qr_scan", "android": "https://dc.lft.to/lastmile_qr_scan"}, "lon": -77.05499183333333, "bike_id": "706471a57dd0e740da9763982213029e", "type": "electric_scooter", "name": "706471a57dd0e740da9763982213029e"}, {"is_disabled": 0, "is_reserved": 0, "fusion_lat": 0.0, "lat": 38.919338, "fusion_lon": 0.0, "rental_uris": {"ios": "https://dc.lft.to/lastmile_qr_scan", "android": "https://dc.lft.to/lastmile_qr_scan"}, "lon": -77.04490966666667, "bike_id": "41be36c90597c5d3be2ec6f2a55cca2a", "type": "electric_scooter", "name": "41be36c90597c5d3be2ec6f2a55cca2a"}, {"is_disabled": 0, "is_reserved": 0, "fusion_lat": 0.0, "lat": 38.916299333333335, "fusion_lon": 0.0, "rental_uris": {"ios": "https://dc.lft.to/lastmile_qr_scan", "android": "https://dc.lft.to/lastmile_qr_scan"}, "lon": -77.008502, "bike_id": "14e747d7166d74eafcc1ea6d26a08016", "type": "electric_scooter", "name": "14e747d7166d74eafcc1ea6d26a08016"}, {"is_disabled": 0, "is_reserved": 0, "fusion_lat": 0.0, "lat": 38.905678333333334, "fusion_lon": 0.0, "rental_uris": {"ios": "https://dc.lft.to/lastmile_qr_scan", "android": "https://dc.lft.to/lastmile_qr_scan"}, "lon": -77.00492633333333, "bike_id": "c8a717258950a17e53a85e5271b919e8", "type": "electric_scooter", "name": "c8a717258950a17e53a85e5271b919e8"}, {"is_disabled": 0, "is_reserved": 0, "fusion_lat": 0.0, "lat": 38.913321, "fusion_lon": 0.0, "rental_uris": {"ios": "https://dc.lft.to/lastmile_qr_scan", "android": "https://dc.lft.to/lastmile_qr_scan"}, "lon": -77.016559, "bike_id": "a35b9ff4b9dca60a605225e0fa4ef720", "type": "electric_scooter", "name": "a35b9ff4b9dca60a605225e0fa4ef720"}, {"is_disabled": 0, "is_reserved": 0, "fusion_lat": 0.0, "lat": 38.8978085, "fusion_lon": 0.0, "rental_uris": {"ios": "https://dc.lft.to/lastmile_qr_scan", "android": "https://dc.lft.to/lastmile_qr_scan"}, "lon": -77.027233, "bike_id": "a123c716c52374aaeecff20cda555bcd", "type": "electric_scooter", "name": "a123c716c52374aaeecff20cda555bcd"}, {"is_disabled": 0, "is_reserved": 0, "fusion_lat": 0.0, "lat": 38.93063433333333, "fusion_lon": 0.0, "rental_uris": {"ios": "https://dc.lft.to/lastmile_qr_scan", "android": "https://dc.lft.to/lastmile_qr_scan"}, "lon": -77.0402755, "bike_id": "08d97bc60330da6d46d2075bb98aba17", "type": "electric_scooter", "name": "08d97bc60330da6d46d2075bb98aba17"}, {"is_disabled": 0, "is_reserved": 0, "fusion_lat": 0.0, "lat": 38.925506666666664, "fusion_lon": 0.0, "rental_uris": {"ios": "https://dc.lft.to/lastmile_qr_scan", "android": "https://dc.lft.to/lastmile_qr_scan"}, "lon": -77.00322583333333, "bike_id": "a8e09f42caa462046ac2a68db7e0896c", "type": "electric_scooter", "name": "a8e09f42caa462046ac2a68db7e0896c"}, {"is_disabled": 0, "is_reserved": 0, "fusion_lat": 0.0, "lat": 38.93660216666667, "fusion_lon": 0.0, "rental_uris": {"ios": "https://dc.lft.to/lastmile_qr_scan", "android": "https://dc.lft.to/lastmile_qr_scan"}, "lon": -77.066061, "bike_id": "3f5f81aac2e01d755e21f166be769ece", "type": "electric_scooter", "name": "3f5f81aac2e01d755e21f166be769ece"}, {"is_disabled": 0, "is_reserved": 0, "fusion_lat": 0.0, "lat": 38.877808, "fusion_lon": 0.0, "rental_uris": {"ios": "https://dc.lft.to/lastmile_qr_scan", "android": "https://dc.lft.to/lastmile_qr_scan"}, "lon": -77.00133016666666, "bike_id": "ad7e78cb391f5293a1dc4037b0ed9458", "type": "electric_scooter", "name": "ad7e78cb391f5293a1dc4037b0ed9458"}, {"is_disabled": 0, "is_reserved": 0, "fusion_lat": 0.0, "lat": 38.9311995, "fusion_lon": 0.0, "rental_uris": {"ios": "https://dc.lft.to/lastmile_qr_scan", "android": "https://dc.lft.to/lastmile_qr_scan"}, "lon": -77.02070866666666, "bike_id": "f0f973df9f541c4cc3cdf1f732811fa8", "type": "electric_scooter", "name": "f0f973df9f541c4cc3cdf1f732811fa8"}, {"is_disabled": 0, "is_reserved": 0, "fusion_lat": 0.0, "lat": 38.897267166666666, "fusion_lon": 0.0, "rental_uris": {"ios": "https://dc.lft.to/lastmile_qr_scan", "android": "https://dc.lft.to/lastmile_qr_scan"}, "lon": -77.023946, "bike_id": "414663495a7961c0454c6e0c31cad097", "type": "electric_scooter", "name": "414663495a7961c0454c6e0c31cad097"}, {"is_disabled": 0, "is_reserved": 0, "fusion_lat": 0.0, "lat": 38.90394516666667, "fusion_lon": 0.0, "rental_uris": {"ios": "https://dc.lft.to/lastmile_qr_scan", "android": "https://dc.lft.to/lastmile_qr_scan"}, "lon": -77.06298816666667, "bike_id": "ef92161359870b6fffb5785532589ad0", "type": "electric_scooter", "name": "ef92161359870b6fffb5785532589ad0"}, {"is_disabled": 0, "is_reserved": 0, "fusion_lat": 0.0, "lat": 38.928747666666666, "fusion_lon": 0.0, "rental_uris": {"ios": "https://dc.lft.to/lastmile_qr_scan", "android": "https://dc.lft.to/lastmile_qr_scan"}, "lon": -77.03989783333333, "bike_id": "5aba3c2622eb72d341bcc8eb746d5bdd", "type": "electric_scooter", "name": "5aba3c2622eb72d341bcc8eb746d5bdd"}, {"is_disabled": 0, "is_reserved": 0, "fusion_lat": 0.0, "lat": 38.9095885, "fusion_lon": 0.0, "rental_uris": {"ios": "https://dc.lft.to/lastmile_qr_scan", "android": "https://dc.lft.to/lastmile_qr_scan"}, "lon": -77.0228055, "bike_id": "80bb0d4bb25ec099c355dc2eea00d7cf", "type": "electric_bike", "name": "80bb0d4bb25ec099c355dc2eea00d7cf"}, {"is_disabled": 0, "is_reserved": 0, "fusion_lat": 0.0, "lat": 38.90481283333333, "fusion_lon": 0.0, "rental_uris": {"ios": "https://dc.lft.to/lastmile_qr_scan", "android": "https://dc.lft.to/lastmile_qr_scan"}, "lon": -77.00878716666666, "bike_id": "5ccdc6f378a962ada6c411dad1e67402", "type": "electric_scooter", "name": "5ccdc6f378a962ada6c411dad1e67402"}, {"is_disabled": 0, "is_reserved": 0, "fusion_lat": 0.0, "lat": 38.922410166666666, "fusion_lon": 0.0, "rental_uris": {"ios": "https://dc.lft.to/lastmile_qr_scan", "android": "https://dc.lft.to/lastmile_qr_scan"}, "lon": -77.03525183333333, "bike_id": "045c2cab1051a2452ee7f9416d00da35", "type": "electric_scooter", "name": "045c2cab1051a2452ee7f9416d00da35"}, {"is_disabled": 0, "is_reserved": 0, "fusion_lat": 0.0, "lat": 38.933602666666665, "fusion_lon": 0.0, "rental_uris": {"ios": "https://dc.lft.to/lastmile_qr_scan", "android": "https://dc.lft.to/lastmile_qr_scan"}, "lon": -77.02855366666667, "bike_id": "9f81ac1e85bf7920310461404f9e9442", "type": "electric_scooter", "name": "9f81ac1e85bf7920310461404f9e9442"}, {"is_disabled": 0, "is_reserved": 0, "fusion_lat": 0.0, "lat": 38.90429966666667, "fusion_lon": 0.0, "rental_uris": {"ios": "https://dc.lft.to/lastmile_qr_scan", "android": "https://dc.lft.to/lastmile_qr_scan"}, "lon": -77.0611225, "bike_id": "5d87f48ede4e440ec152388648e3cc1d", "type": "electric_scooter", "name": "5d87f48ede4e440ec152388648e3cc1d"}, {"is_disabled": 0, "is_reserved": 0, "fusion_lat": 0.0, "lat": 38.9194975, "fusion_lon": 0.0, "rental_uris": {"ios": "https://dc.lft.to/lastmile_qr_scan", "android": "https://dc.lft.to/lastmile_qr_scan"}, "lon": -77.0230405, "bike_id": "39fe55575ea426fae377564b1acc32f1", "type": "electric_scooter", "name": "39fe55575ea426fae377564b1acc32f1"}, {"is_disabled": 0, "is_reserved": 0, "fusion_lat": 0.0, "lat": 38.90812866666667, "fusion_lon": 0.0, "rental_uris": {"ios": "https://dc.lft.to/lastmile_qr_scan", "android": "https://dc.lft.to/lastmile_qr_scan"}, "lon": -77.02529433333333, "bike_id": "bd4d527ffa3442b7bc7cfda1608daa91", "type": "electric_scooter", "name": "bd4d527ffa3442b7bc7cfda1608daa91"}, {"is_disabled": 0, "is_reserved": 0, "fusion_lat": 0.0, "lat": 38.94448166666667, "fusion_lon": 0.0, "rental_uris": {"ios": "https://dc.lft.to/lastmile_qr_scan", "android": "https://dc.lft.to/lastmile_qr_scan"}, "lon": -77.032842, "bike_id": "50df25fb199cbe819084dfe57313543e", "type": "electric_scooter", "name": "50df25fb199cbe819084dfe57313543e"}, {"is_disabled": 0, "is_reserved": 0, "fusion_lat": 0.0, "lat": 38.906469666666666, "fusion_lon": 0.0, "rental_uris": {"ios": "https://dc.lft.to/lastmile_qr_scan", "android": "https://dc.lft.to/lastmile_qr_scan"}, "lon": -76.97940733333333, "bike_id": "afcb1be274d78fa955840ce6a97ebfe6", "type": "electric_scooter", "name": "afcb1be274d78fa955840ce6a97ebfe6"}, {"is_disabled": 0, "is_reserved": 0, "fusion_lat": 0.0, "lat": 38.92081433333333, "fusion_lon": 0.0, "rental_uris": {"ios": "https://dc.lft.to/lastmile_qr_scan", "android": "https://dc.lft.to/lastmile_qr_scan"}, "lon": -77.00453566666667, "bike_id": "784355dfe737577f7392d1380723c79e", "type": "electric_scooter", "name": "784355dfe737577f7392d1380723c79e"}, {"is_disabled": 0, "is_reserved": 0, "fusion_lat": 0.0, "lat": 38.93192716666667, "fusion_lon": 0.0, "rental_uris": {"ios": "https://dc.lft.to/lastmile_qr_scan", "android": "https://dc.lft.to/lastmile_qr_scan"}, "lon": -77.02451266666667, "bike_id": "0221f1069bb3f7853c022663759d7839", "type": "electric_scooter", "name": "0221f1069bb3f7853c022663759d7839"}, {"is_disabled": 0, "is_reserved": 0, "fusion_lat": 0.0, "lat": 38.908443166666665, "fusion_lon": 0.0, "rental_uris": {"ios": "https://dc.lft.to/lastmile_qr_scan", "android": "https://dc.lft.to/lastmile_qr_scan"}, "lon": -77.02059883333334, "bike_id": "a0793d0f4c9b9b6129781eacc91fa868", "type": "electric_scooter", "name": "a0793d0f4c9b9b6129781eacc91fa868"}, {"is_disabled": 0, "is_reserved": 0, "fusion_lat": 0.0, "lat": 38.936962, "fusion_lon": 0.0, "rental_uris": {"ios": "https://dc.lft.to/lastmile_qr_scan", "android": "https://dc.lft.to/lastmile_qr_scan"}, "lon": -77.055973, "bike_id": "f6e12040e4ad40beb2d4edd51da5e4a5", "type": "electric_scooter", "name": "f6e12040e4ad40beb2d4edd51da5e4a5"}, {"is_disabled": 0, "is_reserved": 0, "fusion_lat": 0.0, "lat": 38.928707, "fusion_lon": 0.0, "rental_uris": {"ios": "https://dc.lft.to/lastmile_qr_scan", "android": "https://dc.lft.to/lastmile_qr_scan"}, "lon": -77.033568, "bike_id": "249a51ebab6f99cdd80f0748e6f955b3", "type": "electric_scooter", "name": "249a51ebab6f99cdd80f0748e6f955b3"}, {"is_disabled": 0, "is_reserved": 0, "fusion_lat": 0.0, "lat": 38.9037175, "fusion_lon": 0.0, "rental_uris": {"ios": "https://dc.lft.to/lastmile_qr_scan", "android": "https://dc.lft.to/lastmile_qr_scan"}, "lon": -77.0185545, "bike_id": "b8bfb74dde80a39c4d40adb38f06c26a", "type": "electric_scooter", "name": "b8bfb74dde80a39c4d40adb38f06c26a"}, {"is_disabled": 0, "is_reserved": 0, "fusion_lat": 0.0, "lat": 38.95306333333333, "fusion_lon": 0.0, "rental_uris": {"ios": "https://dc.lft.to/lastmile_qr_scan", "android": "https://dc.lft.to/lastmile_qr_scan"}, "lon": -77.02019466666667, "bike_id": "b1939f045093e67012811e7ef4741b0a", "type": "electric_scooter", "name": "b1939f045093e67012811e7ef4741b0a"}, {"is_disabled": 0, "is_reserved": 0, "fusion_lat": 0.0, "lat": 38.9460395, "fusion_lon": 0.0, "rental_uris": {"ios": "https://dc.lft.to/lastmile_qr_scan", "android": "https://dc.lft.to/lastmile_qr_scan"}, "lon": -77.017366, "bike_id": "cb8deb3b5033d95d6f3c2189d2e70ac0", "type": "electric_bike", "name": "cb8deb3b5033d95d6f3c2189d2e70ac0"}, {"is_disabled": 0, "is_reserved": 0, "fusion_lat": 0.0, "lat": 38.953741666666666, "fusion_lon": 0.0, "rental_uris": {"ios": "https://dc.lft.to/lastmile_qr_scan", "android": "https://dc.lft.to/lastmile_qr_scan"}, "lon": -76.99835216666666, "bike_id": "2362b05bd0ff0e5c1c102340e519c44d", "type": "electric_scooter", "name": "2362b05bd0ff0e5c1c102340e519c44d"}, {"is_disabled": 0, "is_reserved": 0, "fusion_lat": 0.0, "lat": 38.93451616666667, "fusion_lon": 0.0, "rental_uris": {"ios": "https://dc.lft.to/lastmile_qr_scan", "android": "https://dc.lft.to/lastmile_qr_scan"}, "lon": -77.02398983333333, "bike_id": "0c35402b8e67022405ccfa8dddf1c356", "type": "electric_scooter", "name": "0c35402b8e67022405ccfa8dddf1c356"}, {"is_disabled": 0, "is_reserved": 0, "fusion_lat": 0.0, "lat": 38.88583, "fusion_lon": 0.0, "rental_uris": {"ios": "https://dc.lft.to/lastmile_qr_scan", "android": "https://dc.lft.to/lastmile_qr_scan"}, "lon": -77.01224983333333, "bike_id": "1553b4d40c09eaa5f8e5f9af311180c3", "type": "electric_scooter", "name": "1553b4d40c09eaa5f8e5f9af311180c3"}, {"is_disabled": 0, "is_reserved": 0, "fusion_lat": 0.0, "lat": 38.92541533333333, "fusion_lon": 0.0, "rental_uris": {"ios": "https://dc.lft.to/lastmile_qr_scan", "android": "https://dc.lft.to/lastmile_qr_scan"}, "lon": -77.03230933333333, "bike_id": "c60ab770f8fe698e0b54f96ad46482e7", "type": "electric_scooter", "name": "c60ab770f8fe698e0b54f96ad46482e7"}, {"is_disabled": 0, "is_reserved": 0, "fusion_lat": 0.0, "lat": 38.93480133333333, "fusion_lon": 0.0, "rental_uris": {"ios": "https://dc.lft.to/lastmile_qr_scan", "android": "https://dc.lft.to/lastmile_qr_scan"}, "lon": -77.03606983333333, "bike_id": "79cb1c06b216a5cbfdf151a940d7f48f", "type": "electric_scooter", "name": "79cb1c06b216a5cbfdf151a940d7f48f"}, {"is_disabled": 0, "is_reserved": 0, "fusion_lat": 0.0, "lat": 38.8962545, "fusion_lon": 0.0, "rental_uris": {"ios": "https://dc.lft.to/lastmile_qr_scan", "android": "https://dc.lft.to/lastmile_qr_scan"}, "lon": -77.033746, "bike_id": "09c6716e1643010cccede6cf2f27afe4", "type": "electric_scooter", "name": "09c6716e1643010cccede6cf2f27afe4"}, {"is_disabled": 0, "is_reserved": 0, "fusion_lat": 0.0, "lat": 38.91709633333333, "fusion_lon": 0.0, "rental_uris": {"ios": "https://dc.lft.to/lastmile_qr_scan", "android": "https://dc.lft.to/lastmile_qr_scan"}, "lon": -77.00516916666666, "bike_id": "727d24d9a30242681d99d7b090ca4834", "type": "electric_scooter", "name": "727d24d9a30242681d99d7b090ca4834"}, {"is_disabled": 0, "is_reserved": 0, "fusion_lat": 0.0, "lat": 38.89687266666667, "fusion_lon": 0.0, "rental_uris": {"ios": "https://dc.lft.to/lastmile_qr_scan", "android": "https://dc.lft.to/lastmile_qr_scan"}, "lon": -77.043399, "bike_id": "98dd75bf78096746b961a362150137af", "type": "electric_scooter", "name": "98dd75bf78096746b961a362150137af"}, {"is_disabled": 0, "is_reserved": 0, "fusion_lat": 0.0, "lat": 38.957736833333335, "fusion_lon": 0.0, "rental_uris": {"ios": "https://dc.lft.to/lastmile_qr_scan", "android": "https://dc.lft.to/lastmile_qr_scan"}, "lon": -77.02458383333334, "bike_id": "e1b18dd5ba57e1d2902b90993dc1bd2d", "type": "electric_scooter", "name": "e1b18dd5ba57e1d2902b90993dc1bd2d"}, {"is_disabled": 0, "is_reserved": 0, "fusion_lat": 0.0, "lat": 38.95241816666667, "fusion_lon": 0.0, "rental_uris": {"ios": "https://dc.lft.to/lastmile_qr_scan", "android": "https://dc.lft.to/lastmile_qr_scan"}, "lon": -76.97952816666667, "bike_id": "e2c732421583f953ceea98ce8c1d9a78", "type": "electric_bike", "name": "e2c732421583f953ceea98ce8c1d9a78"}, {"is_disabled": 0, "is_reserved": 0, "fusion_lat": 0.0, "lat": 38.906433166666666, "fusion_lon": 0.0, "rental_uris": {"ios": "https://dc.lft.to/lastmile_qr_scan", "android": "https://dc.lft.to/lastmile_qr_scan"}, "lon": -77.06904283333333, "bike_id": "7e1273f678a478ff553bf5b3787de48c", "type": "electric_scooter", "name": "7e1273f678a478ff553bf5b3787de48c"}, {"is_disabled": 0, "is_reserved": 0, "fusion_lat": 0.0, "lat": 38.894228166666664, "fusion_lon": 0.0, "rental_uris": {"ios": "https://dc.lft.to/lastmile_qr_scan", "android": "https://dc.lft.to/lastmile_qr_scan"}, "lon": -77.055945, "bike_id": "ae4aa1a416396601b9a36a89d5e4834e", "type": "electric_scooter", "name": "ae4aa1a416396601b9a36a89d5e4834e"}, {"is_disabled": 0, "is_reserved": 0, "fusion_lat": 0.0, "lat": 38.923171333333336, "fusion_lon": 0.0, "rental_uris": {"ios": "https://dc.lft.to/lastmile_qr_scan", "android": "https://dc.lft.to/lastmile_qr_scan"}, "lon": -77.0450845, "bike_id": "cb7fe86f77b95f3ca569f9de7df41458", "type": "electric_scooter", "name": "cb7fe86f77b95f3ca569f9de7df41458"}, {"is_disabled": 0, "is_reserved": 0, "fusion_lat": 0.0, "lat": 38.911232, "fusion_lon": 0.0, "rental_uris": {"ios": "https://dc.lft.to/lastmile_qr_scan", "android": "https://dc.lft.to/lastmile_qr_scan"}, "lon": -77.01112433333333, "bike_id": "de7914523eb375e03b6637622d361c8a", "type": "electric_scooter", "name": "de7914523eb375e03b6637622d361c8a"}, {"is_disabled": 0, "is_reserved": 0, "fusion_lat": 0.0, "lat": 38.907157833333336, "fusion_lon": 0.0, "rental_uris": {"ios": "https://dc.lft.to/lastmile_qr_scan", "android": "https://dc.lft.to/lastmile_qr_scan"}, "lon": -77.02984133333334, "bike_id": "7741117c761634c9fd2d38dd1c0f9bc7", "type": "electric_scooter", "name": "7741117c761634c9fd2d38dd1c0f9bc7"}, {"is_disabled": 0, "is_reserved": 0, "fusion_lat": 0.0, "lat": 38.9060365, "fusion_lon": 0.0, "rental_uris": {"ios": "https://dc.lft.to/lastmile_qr_scan", "android": "https://dc.lft.to/lastmile_qr_scan"}, "lon": -77.12888116666667, "bike_id": "4cd27d63800d8d0a70abafb13432e7cb", "type": "electric_bike", "name": "4cd27d63800d8d0a70abafb13432e7cb"}, {"is_disabled": 0, "is_reserved": 0, "fusion_lat": 0.0, "lat": 38.9209775, "fusion_lon": 0.0, "rental_uris": {"ios": "https://dc.lft.to/lastmile_qr_scan", "android": "https://dc.lft.to/lastmile_qr_scan"}, "lon": -77.04695716666667, "bike_id": "78464d39d8f10dd14e254ca4dc6134a4", "type": "electric_scooter", "name": "78464d39d8f10dd14e254ca4dc6134a4"}, {"is_disabled": 0, "is_reserved": 0, "fusion_lat": 0.0, "lat": 38.91168783333333, "fusion_lon": 0.0, "rental_uris": {"ios": "https://dc.lft.to/lastmile_qr_scan", "android": "https://dc.lft.to/lastmile_qr_scan"}, "lon": -77.02828833333334, "bike_id": "e8a70465bdf4dcdf2ae9f1ce82485384", "type": "electric_scooter", "name": "e8a70465bdf4dcdf2ae9f1ce82485384"}, {"is_disabled": 0, "is_reserved": 0, "fusion_lat": 0.0, "lat": 38.933801333333335, "fusion_lon": 0.0, "rental_uris": {"ios": "https://dc.lft.to/lastmile_qr_scan", "android": "https://dc.lft.to/lastmile_qr_scan"}, "lon": -77.027265, "bike_id": "9c6ca6fedacc54c305424dd803045a6a", "type": "electric_scooter", "name": "9c6ca6fedacc54c305424dd803045a6a"}, {"is_disabled": 0, "is_reserved": 0, "fusion_lat": 0.0, "lat": 38.906085833333336, "fusion_lon": 0.0, "rental_uris": {"ios": "https://dc.lft.to/lastmile_qr_scan", "android": "https://dc.lft.to/lastmile_qr_scan"}, "lon": -77.05653516666666, "bike_id": "8de5639f08865446530617dcb675fdfb", "type": "electric_scooter", "name": "8de5639f08865446530617dcb675fdfb"}, {"is_disabled": 0, "is_reserved": 0, "fusion_lat": 0.0, "lat": 38.934415333333334, "fusion_lon": 0.0, "rental_uris": {"ios": "https://dc.lft.to/lastmile_qr_scan", "android": "https://dc.lft.to/lastmile_qr_scan"}, "lon": -77.02980783333334, "bike_id": "522dbe5fdab9373475b54cdd1f348c6f", "type": "electric_scooter", "name": "522dbe5fdab9373475b54cdd1f348c6f"}, {"is_disabled": 0, "is_reserved": 0, "fusion_lat": 0.0, "lat": 38.900232333333335, "fusion_lon": 0.0, "rental_uris": {"ios": "https://dc.lft.to/lastmile_qr_scan", "android": "https://dc.lft.to/lastmile_qr_scan"}, "lon": -77.00367933333334, "bike_id": "157d5b15b9f709eec746c95cd8b1b76b", "type": "electric_scooter", "name": "157d5b15b9f709eec746c95cd8b1b76b"}, {"is_disabled": 0, "is_reserved": 0, "fusion_lat": 0.0, "lat": 38.90253116666667, "fusion_lon": 0.0, "rental_uris": {"ios": "https://dc.lft.to/lastmile_qr_scan", "android": "https://dc.lft.to/lastmile_qr_scan"}, "lon": -77.0115665, "bike_id": "ea5d5a9261891602a118a8758e402e12", "type": "electric_scooter", "name": "ea5d5a9261891602a118a8758e402e12"}, {"is_disabled": 0, "is_reserved": 0, "fusion_lat": 0.0, "lat": 38.93358966666667, "fusion_lon": 0.0, "rental_uris": {"ios": "https://dc.lft.to/lastmile_qr_scan", "android": "https://dc.lft.to/lastmile_qr_scan"}, "lon": -77.02646133333333, "bike_id": "e6332ee403fd3f223f94cc94b872b1e0", "type": "electric_scooter", "name": "e6332ee403fd3f223f94cc94b872b1e0"}, {"is_disabled": 0, "is_reserved": 0, "fusion_lat": 0.0, "lat": 38.919708, "fusion_lon": 0.0, "rental_uris": {"ios": "https://dc.lft.to/lastmile_qr_scan", "android": "https://dc.lft.to/lastmile_qr_scan"}, "lon": -77.0020745, "bike_id": "443dc28866ce0d325d5483be74c00ae7", "type": "electric_scooter", "name": "443dc28866ce0d325d5483be74c00ae7"}, {"is_disabled": 0, "is_reserved": 0, "fusion_lat": 0.0, "lat": 38.913295166666664, "fusion_lon": 0.0, "rental_uris": {"ios": "https://dc.lft.to/lastmile_qr_scan", "android": "https://dc.lft.to/lastmile_qr_scan"}, "lon": -77.0434105, "bike_id": "eda09505adb193823473bd757b3dd5cb", "type": "electric_scooter", "name": "eda09505adb193823473bd757b3dd5cb"}, {"is_disabled": 0, "is_reserved": 0, "fusion_lat": 0.0, "lat": 38.930728333333334, "fusion_lon": 0.0, "rental_uris": {"ios": "https://dc.lft.to/lastmile_qr_scan", "android": "https://dc.lft.to/lastmile_qr_scan"}, "lon": -77.07763516666667, "bike_id": "8fc943b62f3b460872fb538e069fd82a", "type": "electric_scooter", "name": "8fc943b62f3b460872fb538e069fd82a"}, {"is_disabled": 0, "is_reserved": 0, "fusion_lat": 0.0, "lat": 39.0037835, "fusion_lon": 0.0, "rental_uris": {"ios": "https://dc.lft.to/lastmile_qr_scan", "android": "https://dc.lft.to/lastmile_qr_scan"}, "lon": -77.01286916666666, "bike_id": "c9935d49fcb777640881b44b4ffaa7f0", "type": "electric_bike", "name": "c9935d49fcb777640881b44b4ffaa7f0"}, {"is_disabled": 0, "is_reserved": 0, "fusion_lat": 0.0, "lat": 38.925777, "fusion_lon": 0.0, "rental_uris": {"ios": "https://dc.lft.to/lastmile_qr_scan", "android": "https://dc.lft.to/lastmile_qr_scan"}, "lon": -76.99492716666667, "bike_id": "a721110590578baed01efae4c1bf47e3", "type": "electric_scooter", "name": "a721110590578baed01efae4c1bf47e3"}, {"is_disabled": 0, "is_reserved": 0, "fusion_lat": 0.0, "lat": 38.91675566666667, "fusion_lon": 0.0, "rental_uris": {"ios": "https://dc.lft.to/lastmile_qr_scan", "android": "https://dc.lft.to/lastmile_qr_scan"}, "lon": -77.09575683333334, "bike_id": "49f91cbd27ab5fd9f463de7e5ed77753", "type": "electric_scooter", "name": "49f91cbd27ab5fd9f463de7e5ed77753"}, {"is_disabled": 0, "is_reserved": 0, "fusion_lat": 0.0, "lat": 38.8922855, "fusion_lon": 0.0, "rental_uris": {"ios": "https://dc.lft.to/lastmile_qr_scan", "android": "https://dc.lft.to/lastmile_qr_scan"}, "lon": -77.05003883333333, "bike_id": "dba6512c56197b81b4ac4602c6e13e85", "type": "electric_scooter", "name": "dba6512c56197b81b4ac4602c6e13e85"}, {"is_disabled": 0, "is_reserved": 0, "fusion_lat": 0.0, "lat": 38.92062983333334, "fusion_lon": 0.0, "rental_uris": {"ios": "https://dc.lft.to/lastmile_qr_scan", "android": "https://dc.lft.to/lastmile_qr_scan"}, "lon": -77.023549, "bike_id": "bd068d327b039e1cb6d8aca3a9b40515", "type": "electric_scooter", "name": "bd068d327b039e1cb6d8aca3a9b40515"}, {"is_disabled": 0, "is_reserved": 0, "fusion_lat": 0.0, "lat": 38.920357833333334, "fusion_lon": 0.0, "rental_uris": {"ios": "https://dc.lft.to/lastmile_qr_scan", "android": "https://dc.lft.to/lastmile_qr_scan"}, "lon": -76.9795505, "bike_id": "9c1e2b51e0701064389d9e98ebf3c643", "type": "electric_bike", "name": "9c1e2b51e0701064389d9e98ebf3c643"}, {"is_disabled": 0, "is_reserved": 0, "fusion_lat": 0.0, "lat": 38.93970633333333, "fusion_lon": 0.0, "rental_uris": {"ios": "https://dc.lft.to/lastmile_qr_scan", "android": "https://dc.lft.to/lastmile_qr_scan"}, "lon": -77.03429816666667, "bike_id": "d4cb632bfec30dcf382185b8983dd81b", "type": "electric_scooter", "name": "d4cb632bfec30dcf382185b8983dd81b"}, {"is_disabled": 0, "is_reserved": 0, "fusion_lat": 0.0, "lat": 38.92904566666667, "fusion_lon": 0.0, "rental_uris": {"ios": "https://dc.lft.to/lastmile_qr_scan", "android": "https://dc.lft.to/lastmile_qr_scan"}, "lon": -77.0322075, "bike_id": "a06f491fd2e9aea58aad6bd5658724d3", "type": "electric_scooter", "name": "a06f491fd2e9aea58aad6bd5658724d3"}, {"is_disabled": 0, "is_reserved": 0, "fusion_lat": 0.0, "lat": 38.923393833333336, "fusion_lon": 0.0, "rental_uris": {"ios": "https://dc.lft.to/lastmile_qr_scan", "android": "https://dc.lft.to/lastmile_qr_scan"}, "lon": -76.9987185, "bike_id": "481c1a9d9ad6b23ddac18600e9a76358", "type": "electric_scooter", "name": "481c1a9d9ad6b23ddac18600e9a76358"}, {"is_disabled": 0, "is_reserved": 0, "fusion_lat": 0.0, "lat": 38.91907633333334, "fusion_lon": 0.0, "rental_uris": {"ios": "https://dc.lft.to/lastmile_qr_scan", "android": "https://dc.lft.to/lastmile_qr_scan"}, "lon": -77.05999066666666, "bike_id": "86149395c589509ba9361cd3328d6cf6", "type": "electric_bike", "name": "86149395c589509ba9361cd3328d6cf6"}, {"is_disabled": 0, "is_reserved": 0, "fusion_lat": 0.0, "lat": 38.87464516666667, "fusion_lon": 0.0, "rental_uris": {"ios": "https://dc.lft.to/lastmile_qr_scan", "android": "https://dc.lft.to/lastmile_qr_scan"}, "lon": -77.0051515, "bike_id": "0cb76e00a8ced32f28d95d8c53743e07", "type": "electric_scooter", "name": "0cb76e00a8ced32f28d95d8c53743e07"}, {"is_disabled": 0, "is_reserved": 0, "fusion_lat": 0.0, "lat": 38.89231183333333, "fusion_lon": 0.0, "rental_uris": {"ios": "https://dc.lft.to/lastmile_qr_scan", "android": "https://dc.lft.to/lastmile_qr_scan"}, "lon": -77.02382716666666, "bike_id": "33d9e5089ab9cf6832dbe046bdb8cdf5", "type": "electric_scooter", "name": "33d9e5089ab9cf6832dbe046bdb8cdf5"}, {"is_disabled": 0, "is_reserved": 0, "fusion_lat": 0.0, "lat": 38.921664, "fusion_lon": 0.0, "rental_uris": {"ios": "https://dc.lft.to/lastmile_qr_scan", "android": "https://dc.lft.to/lastmile_qr_scan"}, "lon": -77.01801383333333, "bike_id": "00e4ef14fc7c4779dee1ada74b076145", "type": "electric_scooter", "name": "00e4ef14fc7c4779dee1ada74b076145"}, {"is_disabled": 0, "is_reserved": 0, "fusion_lat": 0.0, "lat": 38.941779, "fusion_lon": 0.0, "rental_uris": {"ios": "https://dc.lft.to/lastmile_qr_scan", "android": "https://dc.lft.to/lastmile_qr_scan"}, "lon": -77.03395116666667, "bike_id": "0163578269b345f45e227dac1beecc6e", "type": "electric_scooter", "name": "0163578269b345f45e227dac1beecc6e"}, {"is_disabled": 0, "is_reserved": 0, "fusion_lat": 0.0, "lat": 38.91510016666667, "fusion_lon": 0.0, "rental_uris": {"ios": "https://dc.lft.to/lastmile_qr_scan", "android": "https://dc.lft.to/lastmile_qr_scan"}, "lon": -76.98345883333333, "bike_id": "db5d3f155d0a7ed953e3dec79862a52e", "type": "electric_scooter", "name": "db5d3f155d0a7ed953e3dec79862a52e"}, {"is_disabled": 0, "is_reserved": 0, "fusion_lat": 0.0, "lat": 38.920221, "fusion_lon": 0.0, "rental_uris": {"ios": "https://dc.lft.to/lastmile_qr_scan", "android": "https://dc.lft.to/lastmile_qr_scan"}, "lon": -76.99982016666667, "bike_id": "d5e279ed961a5b14a7d056ed2e1336eb", "type": "electric_scooter", "name": "d5e279ed961a5b14a7d056ed2e1336eb"}, {"is_disabled": 0, "is_reserved": 0, "fusion_lat": 0.0, "lat": 38.898429, "fusion_lon": 0.0, "rental_uris": {"ios": "https://dc.lft.to/lastmile_qr_scan", "android": "https://dc.lft.to/lastmile_qr_scan"}, "lon": -77.0019615, "bike_id": "f2add15143c12953454c2b659c890d46", "type": "electric_scooter", "name": "f2add15143c12953454c2b659c890d46"}, {"is_disabled": 0, "is_reserved": 0, "fusion_lat": 0.0, "lat": 38.957325, "fusion_lon": 0.0, "rental_uris": {"ios": "https://dc.lft.to/lastmile_qr_scan", "android": "https://dc.lft.to/lastmile_qr_scan"}, "lon": -77.02419983333333, "bike_id": "54e5f52c76752ea011e8b54d125b71b8", "type": "electric_scooter", "name": "54e5f52c76752ea011e8b54d125b71b8"}, {"is_disabled": 0, "is_reserved": 0, "fusion_lat": 0.0, "lat": 38.93028183333333, "fusion_lon": 0.0, "rental_uris": {"ios": "https://dc.lft.to/lastmile_qr_scan", "android": "https://dc.lft.to/lastmile_qr_scan"}, "lon": -77.02962766666667, "bike_id": "e0da442ccf1c864483f0ebcbafbf4631", "type": "electric_scooter", "name": "e0da442ccf1c864483f0ebcbafbf4631"}, {"is_disabled": 0, "is_reserved": 0, "fusion_lat": 0.0, "lat": 38.921593, "fusion_lon": 0.0, "rental_uris": {"ios": "https://dc.lft.to/lastmile_qr_scan", "android": "https://dc.lft.to/lastmile_qr_scan"}, "lon": -77.0180815, "bike_id": "05bce9d2e5afedca793659c0b1478f71", "type": "electric_scooter", "name": "05bce9d2e5afedca793659c0b1478f71"}, {"is_disabled": 0, "is_reserved": 0, "fusion_lat": 0.0, "lat": 38.92857133333333, "fusion_lon": 0.0, "rental_uris": {"ios": "https://dc.lft.to/lastmile_qr_scan", "android": "https://dc.lft.to/lastmile_qr_scan"}, "lon": -77.01384466666667, "bike_id": "580437ac9024b3d0a798b50bff531d1c", "type": "electric_scooter", "name": "580437ac9024b3d0a798b50bff531d1c"}, {"is_disabled": 0, "is_reserved": 0, "fusion_lat": 0.0, "lat": 38.914018166666665, "fusion_lon": 0.0, "rental_uris": {"ios": "https://dc.lft.to/lastmile_qr_scan", "android": "https://dc.lft.to/lastmile_qr_scan"}, "lon": -77.0308565, "bike_id": "124d99b9bc0671fab6ae095c314c6ec1", "type": "electric_scooter", "name": "124d99b9bc0671fab6ae095c314c6ec1"}, {"is_disabled": 0, "is_reserved": 0, "fusion_lat": 0.0, "lat": 38.90642716666667, "fusion_lon": 0.0, "rental_uris": {"ios": "https://dc.lft.to/lastmile_qr_scan", "android": "https://dc.lft.to/lastmile_qr_scan"}, "lon": -76.98020116666666, "bike_id": "65e16d277a1d12d4af528dd37721e249", "type": "electric_scooter", "name": "65e16d277a1d12d4af528dd37721e249"}, {"is_disabled": 0, "is_reserved": 0, "fusion_lat": 0.0, "lat": 38.9601605, "fusion_lon": 0.0, "rental_uris": {"ios": "https://dc.lft.to/lastmile_qr_scan", "android": "https://dc.lft.to/lastmile_qr_scan"}, "lon": -77.0282065, "bike_id": "28b5e9caa08757e2228cb0a9e6237004", "type": "electric_scooter", "name": "28b5e9caa08757e2228cb0a9e6237004"}, {"is_disabled": 0, "is_reserved": 0, "fusion_lat": 0.0, "lat": 38.908145, "fusion_lon": 0.0, "rental_uris": {"ios": "https://dc.lft.to/lastmile_qr_scan", "android": "https://dc.lft.to/lastmile_qr_scan"}, "lon": -77.04359583333333, "bike_id": "33cabb843b1b345f54a9cdff678eb34d", "type": "electric_scooter", "name": "33cabb843b1b345f54a9cdff678eb34d"}, {"is_disabled": 0, "is_reserved": 0, "fusion_lat": 0.0, "lat": 38.915802666666664, "fusion_lon": 0.0, "rental_uris": {"ios": "https://dc.lft.to/lastmile_qr_scan", "android": "https://dc.lft.to/lastmile_qr_scan"}, "lon": -76.977232, "bike_id": "4ba010e0dc6acbe717a0673b22bd2a39", "type": "electric_scooter", "name": "4ba010e0dc6acbe717a0673b22bd2a39"}, {"is_disabled": 0, "is_reserved": 0, "fusion_lat": 0.0, "lat": 38.906541833333335, "fusion_lon": 0.0, "rental_uris": {"ios": "https://dc.lft.to/lastmile_qr_scan", "android": "https://dc.lft.to/lastmile_qr_scan"}, "lon": -77.05326433333333, "bike_id": "00a77710a9c1c4f24e77931b55ffd100", "type": "electric_scooter", "name": "00a77710a9c1c4f24e77931b55ffd100"}, {"is_disabled": 0, "is_reserved": 0, "fusion_lat": 0.0, "lat": 38.923443166666665, "fusion_lon": 0.0, "rental_uris": {"ios": "https://dc.lft.to/lastmile_qr_scan", "android": "https://dc.lft.to/lastmile_qr_scan"}, "lon": -77.03523633333333, "bike_id": "b4a8b165c02dec89e5ef4c9a0f67a746", "type": "electric_scooter", "name": "b4a8b165c02dec89e5ef4c9a0f67a746"}, {"is_disabled": 0, "is_reserved": 0, "fusion_lat": 0.0, "lat": 38.967668, "fusion_lon": 0.0, "rental_uris": {"ios": "https://dc.lft.to/lastmile_qr_scan", "android": "https://dc.lft.to/lastmile_qr_scan"}, "lon": -77.03426666666667, "bike_id": "a584272a5e2680e04b7e543a9e01b83e", "type": "electric_scooter", "name": "a584272a5e2680e04b7e543a9e01b83e"}, {"is_disabled": 0, "is_reserved": 0, "fusion_lat": 0.0, "lat": 38.9275025, "fusion_lon": 0.0, "rental_uris": {"ios": "https://dc.lft.to/lastmile_qr_scan", "android": "https://dc.lft.to/lastmile_qr_scan"}, "lon": -77.0237285, "bike_id": "b0e6641e8c221e180ba78357ef53ca79", "type": "electric_scooter", "name": "b0e6641e8c221e180ba78357ef53ca79"}, {"is_disabled": 0, "is_reserved": 0, "fusion_lat": 0.0, "lat": 38.92781433333333, "fusion_lon": 0.0, "rental_uris": {"ios": "https://dc.lft.to/lastmile_qr_scan", "android": "https://dc.lft.to/lastmile_qr_scan"}, "lon": -77.05260316666667, "bike_id": "db839891d07dc25b7dd7d45a8cf1b85b", "type": "electric_scooter", "name": "db839891d07dc25b7dd7d45a8cf1b85b"}, {"is_disabled": 0, "is_reserved": 0, "fusion_lat": 0.0, "lat": 38.90773166666666, "fusion_lon": 0.0, "rental_uris": {"ios": "https://dc.lft.to/lastmile_qr_scan", "android": "https://dc.lft.to/lastmile_qr_scan"}, "lon": -77.03543033333334, "bike_id": "a11f4cf86e47d0c5368077a7efc53395", "type": "electric_scooter", "name": "a11f4cf86e47d0c5368077a7efc53395"}, {"is_disabled": 0, "is_reserved": 0, "fusion_lat": 0.0, "lat": 38.895608833333334, "fusion_lon": 0.0, "rental_uris": {"ios": "https://dc.lft.to/lastmile_qr_scan", "android": "https://dc.lft.to/lastmile_qr_scan"}, "lon": -77.12732016666666, "bike_id": "cb99a89f987ce163741c3a949dc29336", "type": "electric_bike", "name": "cb99a89f987ce163741c3a949dc29336"}, {"is_disabled": 0, "is_reserved": 0, "fusion_lat": 0.0, "lat": 38.92172583333333, "fusion_lon": 0.0, "rental_uris": {"ios": "https://dc.lft.to/lastmile_qr_scan", "android": "https://dc.lft.to/lastmile_qr_scan"}, "lon": -77.01820266666667, "bike_id": "5a7231659bf5d1b51fc5c5398fc1020d", "type": "electric_scooter", "name": "5a7231659bf5d1b51fc5c5398fc1020d"}, {"is_disabled": 0, "is_reserved": 0, "fusion_lat": 0.0, "lat": 38.90505366666667, "fusion_lon": 0.0, "rental_uris": {"ios": "https://dc.lft.to/lastmile_qr_scan", "android": "https://dc.lft.to/lastmile_qr_scan"}, "lon": -77.02496016666667, "bike_id": "3d16fc9a5a3f9ea09970e5f24d8a45d5", "type": "electric_scooter", "name": "3d16fc9a5a3f9ea09970e5f24d8a45d5"}, {"is_disabled": 0, "is_reserved": 0, "fusion_lat": 0.0, "lat": 38.94099583333333, "fusion_lon": 0.0, "rental_uris": {"ios": "https://dc.lft.to/lastmile_qr_scan", "android": "https://dc.lft.to/lastmile_qr_scan"}, "lon": -76.95622616666667, "bike_id": "44e12235ba8bfe3b989516e36b40a74c", "type": "electric_bike", "name": "44e12235ba8bfe3b989516e36b40a74c"}, {"is_disabled": 0, "is_reserved": 0, "fusion_lat": 0.0, "lat": 38.90063716666667, "fusion_lon": 0.0, "rental_uris": {"ios": "https://dc.lft.to/lastmile_qr_scan", "android": "https://dc.lft.to/lastmile_qr_scan"}, "lon": -76.94977883333334, "bike_id": "42e6e93e34259f59a36e0c98f4119ec4", "type": "electric_scooter", "name": "42e6e93e34259f59a36e0c98f4119ec4"}, {"is_disabled": 0, "is_reserved": 0, "fusion_lat": 0.0, "lat": 38.925018, "fusion_lon": 0.0, "rental_uris": {"ios": "https://dc.lft.to/lastmile_qr_scan", "android": "https://dc.lft.to/lastmile_qr_scan"}, "lon": -77.02441616666667, "bike_id": "2c7ebb4d9530c338bd3307486e74ab36", "type": "electric_scooter", "name": "2c7ebb4d9530c338bd3307486e74ab36"}, {"is_disabled": 0, "is_reserved": 0, "fusion_lat": 0.0, "lat": 38.921335, "fusion_lon": 0.0, "rental_uris": {"ios": "https://dc.lft.to/lastmile_qr_scan", "android": "https://dc.lft.to/lastmile_qr_scan"}, "lon": -76.99380066666667, "bike_id": "c6cf74c4f38046bba07eaaa411c52b08", "type": "electric_scooter", "name": "c6cf74c4f38046bba07eaaa411c52b08"}, {"is_disabled": 0, "is_reserved": 0, "fusion_lat": 0.0, "lat": 38.952345333333334, "fusion_lon": 0.0, "rental_uris": {"ios": "https://dc.lft.to/lastmile_qr_scan", "android": "https://dc.lft.to/lastmile_qr_scan"}, "lon": -76.98246933333333, "bike_id": "e29524b9b03e13ec1661ff2bbec2ed71", "type": "electric_bike", "name": "e29524b9b03e13ec1661ff2bbec2ed71"}, {"is_disabled": 0, "is_reserved": 0, "fusion_lat": 0.0, "lat": 38.9279165, "fusion_lon": 0.0, "rental_uris": {"ios": "https://dc.lft.to/lastmile_qr_scan", "android": "https://dc.lft.to/lastmile_qr_scan"}, "lon": -77.02129883333333, "bike_id": "f9809b49bc07973cb841d73d66822059", "type": "electric_scooter", "name": "f9809b49bc07973cb841d73d66822059"}, {"is_disabled": 0, "is_reserved": 0, "fusion_lat": 0.0, "lat": 38.887539833333335, "fusion_lon": 0.0, "rental_uris": {"ios": "https://dc.lft.to/lastmile_qr_scan", "android": "https://dc.lft.to/lastmile_qr_scan"}, "lon": -77.03330416666667, "bike_id": "94ce01f767e1187508888e497d57475e", "type": "electric_scooter", "name": "94ce01f767e1187508888e497d57475e"}, {"is_disabled": 0, "is_reserved": 0, "fusion_lat": 0.0, "lat": 38.9213195, "fusion_lon": 0.0, "rental_uris": {"ios": "https://dc.lft.to/lastmile_qr_scan", "android": "https://dc.lft.to/lastmile_qr_scan"}, "lon": -77.00397983333333, "bike_id": "cac9007f92c9ab6b2eb67e38e08faf9f", "type": "electric_scooter", "name": "cac9007f92c9ab6b2eb67e38e08faf9f"}, {"is_disabled": 0, "is_reserved": 0, "fusion_lat": 0.0, "lat": 38.961237833333335, "fusion_lon": 0.0, "rental_uris": {"ios": "https://dc.lft.to/lastmile_qr_scan", "android": "https://dc.lft.to/lastmile_qr_scan"}, "lon": -77.032729, "bike_id": "9bcd504d5b47e00512fc6096c24a81fb", "type": "electric_bike", "name": "9bcd504d5b47e00512fc6096c24a81fb"}, {"is_disabled": 0, "is_reserved": 0, "fusion_lat": 0.0, "lat": 38.9280755, "fusion_lon": 0.0, "rental_uris": {"ios": "https://dc.lft.to/lastmile_qr_scan", "android": "https://dc.lft.to/lastmile_qr_scan"}, "lon": -77.04338366666667, "bike_id": "afd34e89b7a180afce193a89a3aaab1b", "type": "electric_scooter", "name": "afd34e89b7a180afce193a89a3aaab1b"}, {"is_disabled": 0, "is_reserved": 0, "fusion_lat": 0.0, "lat": 38.895560333333336, "fusion_lon": 0.0, "rental_uris": {"ios": "https://dc.lft.to/lastmile_qr_scan", "android": "https://dc.lft.to/lastmile_qr_scan"}, "lon": -77.04663216666667, "bike_id": "bbf0ed536045ef6786d6269553ae5e2e", "type": "electric_scooter", "name": "bbf0ed536045ef6786d6269553ae5e2e"}, {"is_disabled": 0, "is_reserved": 0, "fusion_lat": 0.0, "lat": 38.96357066666667, "fusion_lon": 0.0, "rental_uris": {"ios": "https://dc.lft.to/lastmile_qr_scan", "android": "https://dc.lft.to/lastmile_qr_scan"}, "lon": -77.03442483333333, "bike_id": "19e205f9404664e71ee42037230c30b8", "type": "electric_scooter", "name": "19e205f9404664e71ee42037230c30b8"}, {"is_disabled": 0, "is_reserved": 0, "fusion_lat": 0.0, "lat": 38.904429, "fusion_lon": 0.0, "rental_uris": {"ios": "https://dc.lft.to/lastmile_qr_scan", "android": "https://dc.lft.to/lastmile_qr_scan"}, "lon": -76.97304033333333, "bike_id": "48585c405696eb4edc3214f199ea0fe2", "type": "electric_scooter", "name": "48585c405696eb4edc3214f199ea0fe2"}, {"is_disabled": 0, "is_reserved": 0, "fusion_lat": 0.0, "lat": 38.8427175, "fusion_lon": 0.0, "rental_uris": {"ios": "https://dc.lft.to/lastmile_qr_scan", "android": "https://dc.lft.to/lastmile_qr_scan"}, "lon": -76.98835283333334, "bike_id": "cb8b8ffd83976fda6b756bc20ccad863", "type": "electric_scooter", "name": "cb8b8ffd83976fda6b756bc20ccad863"}, {"is_disabled": 0, "is_reserved": 0, "fusion_lat": 0.0, "lat": 38.877559166666664, "fusion_lon": 0.0, "rental_uris": {"ios": "https://dc.lft.to/lastmile_qr_scan", "android": "https://dc.lft.to/lastmile_qr_scan"}, "lon": -77.0045275, "bike_id": "2410e0a776712b3f098ea88cf37bbd3e", "type": "electric_scooter", "name": "2410e0a776712b3f098ea88cf37bbd3e"}, {"is_disabled": 0, "is_reserved": 0, "fusion_lat": 0.0, "lat": 38.919951166666664, "fusion_lon": 0.0, "rental_uris": {"ios": "https://dc.lft.to/lastmile_qr_scan", "android": "https://dc.lft.to/lastmile_qr_scan"}, "lon": -77.03222216666667, "bike_id": "5e5e66acee5028529e7160eefc3da410", "type": "electric_scooter", "name": "5e5e66acee5028529e7160eefc3da410"}, {"is_disabled": 0, "is_reserved": 0, "fusion_lat": 0.0, "lat": 38.87497916666667, "fusion_lon": 0.0, "rental_uris": {"ios": "https://dc.lft.to/lastmile_qr_scan", "android": "https://dc.lft.to/lastmile_qr_scan"}, "lon": -77.000786, "bike_id": "719654728c8b200cf966b616f1aeda6d", "type": "electric_scooter", "name": "719654728c8b200cf966b616f1aeda6d"}, {"is_disabled": 0, "is_reserved": 0, "fusion_lat": 0.0, "lat": 38.896254666666664, "fusion_lon": 0.0, "rental_uris": {"ios": "https://dc.lft.to/lastmile_qr_scan", "android": "https://dc.lft.to/lastmile_qr_scan"}, "lon": -76.90753083333334, "bike_id": "ed619b8213c5f189dce85831e5ed905e", "type": "electric_bike", "name": "ed619b8213c5f189dce85831e5ed905e"}, {"is_disabled": 0, "is_reserved": 0, "fusion_lat": 0.0, "lat": 38.922904833333334, "fusion_lon": 0.0, "rental_uris": {"ios": "https://dc.lft.to/lastmile_qr_scan", "android": "https://dc.lft.to/lastmile_qr_scan"}, "lon": -77.029791, "bike_id": "6b634fa6aa59c4338eca8cdab96397fa", "type": "electric_scooter", "name": "6b634fa6aa59c4338eca8cdab96397fa"}, {"is_disabled": 0, "is_reserved": 0, "fusion_lat": 0.0, "lat": 38.88541883333333, "fusion_lon": 0.0, "rental_uris": {"ios": "https://dc.lft.to/lastmile_qr_scan", "android": "https://dc.lft.to/lastmile_qr_scan"}, "lon": -76.92367133333333, "bike_id": "b66cf4ff02a666363dbc936106eb8120", "type": "electric_scooter", "name": "b66cf4ff02a666363dbc936106eb8120"}, {"is_disabled": 0, "is_reserved": 0, "fusion_lat": 0.0, "lat": 38.913340833333336, "fusion_lon": 0.0, "rental_uris": {"ios": "https://dc.lft.to/lastmile_qr_scan", "android": "https://dc.lft.to/lastmile_qr_scan"}, "lon": -77.01624033333333, "bike_id": "69f10be25834aaf3848f0a6dbac69f7d", "type": "electric_scooter", "name": "69f10be25834aaf3848f0a6dbac69f7d"}, {"is_disabled": 0, "is_reserved": 0, "fusion_lat": 0.0, "lat": 38.894279833333336, "fusion_lon": 0.0, "rental_uris": {"ios": "https://dc.lft.to/lastmile_qr_scan", "android": "https://dc.lft.to/lastmile_qr_scan"}, "lon": -77.01086166666667, "bike_id": "babc2fe62f3f619f5180f245d3682fe7", "type": "electric_scooter", "name": "babc2fe62f3f619f5180f245d3682fe7"}, {"is_disabled": 0, "is_reserved": 0, "fusion_lat": 0.0, "lat": 38.8852885, "fusion_lon": 0.0, "rental_uris": {"ios": "https://dc.lft.to/lastmile_qr_scan", "android": "https://dc.lft.to/lastmile_qr_scan"}, "lon": -76.98049116666667, "bike_id": "5895b1db1521a57b385e49ce3ab296c8", "type": "electric_scooter", "name": "5895b1db1521a57b385e49ce3ab296c8"}, {"is_disabled": 0, "is_reserved": 0, "fusion_lat": 0.0, "lat": 38.9220875, "fusion_lon": 0.0, "rental_uris": {"ios": "https://dc.lft.to/lastmile_qr_scan", "android": "https://dc.lft.to/lastmile_qr_scan"}, "lon": -77.0820095, "bike_id": "872205b99e2055e3240ced68b727f7e6", "type": "electric_bike", "name": "872205b99e2055e3240ced68b727f7e6"}, {"is_disabled": 0, "is_reserved": 0, "fusion_lat": 0.0, "lat": 38.956832, "fusion_lon": 0.0, "rental_uris": {"ios": "https://dc.lft.to/lastmile_qr_scan", "android": "https://dc.lft.to/lastmile_qr_scan"}, "lon": -77.0222835, "bike_id": "0df95fcf9340094c2d76ddc1848e1c04", "type": "electric_scooter", "name": "0df95fcf9340094c2d76ddc1848e1c04"}, {"is_disabled": 0, "is_reserved": 0, "fusion_lat": 0.0, "lat": 38.9575125, "fusion_lon": 0.0, "rental_uris": {"ios": "https://dc.lft.to/lastmile_qr_scan", "android": "https://dc.lft.to/lastmile_qr_scan"}, "lon": -77.02208283333333, "bike_id": "5a2256510ec5892710b088460976e2d1", "type": "electric_scooter", "name": "5a2256510ec5892710b088460976e2d1"}, {"is_disabled": 0, "is_reserved": 0, "fusion_lat": 0.0, "lat": 38.8934405, "fusion_lon": 0.0, "rental_uris": {"ios": "https://dc.lft.to/lastmile_qr_scan", "android": "https://dc.lft.to/lastmile_qr_scan"}, "lon": -76.9937645, "bike_id": "10e152b4ead9fd4933b490eb64392fda", "type": "electric_scooter", "name": "10e152b4ead9fd4933b490eb64392fda"}, {"is_disabled": 0, "is_reserved": 0, "fusion_lat": 0.0, "lat": 38.89272616666667, "fusion_lon": 0.0, "rental_uris": {"ios": "https://dc.lft.to/lastmile_qr_scan", "android": "https://dc.lft.to/lastmile_qr_scan"}, "lon": -77.04503933333334, "bike_id": "ba6aa62d81ad4ef0858ff4b0292d1dfc", "type": "electric_scooter", "name": "ba6aa62d81ad4ef0858ff4b0292d1dfc"}, {"is_disabled": 0, "is_reserved": 0, "fusion_lat": 0.0, "lat": 38.905816333333334, "fusion_lon": 0.0, "rental_uris": {"ios": "https://dc.lft.to/lastmile_qr_scan", "android": "https://dc.lft.to/lastmile_qr_scan"}, "lon": -77.0042775, "bike_id": "b20ec86c512689abbf59f15d676e46e2", "type": "electric_scooter", "name": "b20ec86c512689abbf59f15d676e46e2"}, {"is_disabled": 0, "is_reserved": 0, "fusion_lat": 0.0, "lat": 38.91041416666667, "fusion_lon": 0.0, "rental_uris": {"ios": "https://dc.lft.to/lastmile_qr_scan", "android": "https://dc.lft.to/lastmile_qr_scan"}, "lon": -76.99799766666666, "bike_id": "38ff18f64b02479f2f58e8c0bc183cf1", "type": "electric_scooter", "name": "38ff18f64b02479f2f58e8c0bc183cf1"}, {"is_disabled": 0, "is_reserved": 0, "fusion_lat": 0.0, "lat": 38.88509716666667, "fusion_lon": 0.0, "rental_uris": {"ios": "https://dc.lft.to/lastmile_qr_scan", "android": "https://dc.lft.to/lastmile_qr_scan"}, "lon": -77.047761, "bike_id": "042274771ae65a8eb8ca0cdc74b5d42a", "type": "electric_bike", "name": "042274771ae65a8eb8ca0cdc74b5d42a"}, {"is_disabled": 0, "is_reserved": 0, "fusion_lat": 0.0, "lat": 38.93460433333333, "fusion_lon": 0.0, "rental_uris": {"ios": "https://dc.lft.to/lastmile_qr_scan", "android": "https://dc.lft.to/lastmile_qr_scan"}, "lon": -77.02392633333334, "bike_id": "d9d565db84731e42d3195e19fffcd105", "type": "electric_scooter", "name": "d9d565db84731e42d3195e19fffcd105"}, {"is_disabled": 0, "is_reserved": 0, "fusion_lat": 0.0, "lat": 38.840922666666664, "fusion_lon": 0.0, "rental_uris": {"ios": "https://dc.lft.to/lastmile_qr_scan", "android": "https://dc.lft.to/lastmile_qr_scan"}, "lon": -76.98703766666667, "bike_id": "f2e7af21511634ff5f0f8ad9361ce127", "type": "electric_bike", "name": "f2e7af21511634ff5f0f8ad9361ce127"}, {"is_disabled": 0, "is_reserved": 0, "fusion_lat": 0.0, "lat": 38.918321666666664, "fusion_lon": 0.0, "rental_uris": {"ios": "https://dc.lft.to/lastmile_qr_scan", "android": "https://dc.lft.to/lastmile_qr_scan"}, "lon": -77.05317, "bike_id": "c4b0e95513cb05a5869efb1f937655db", "type": "electric_scooter", "name": "c4b0e95513cb05a5869efb1f937655db"}, {"is_disabled": 0, "is_reserved": 0, "fusion_lat": 0.0, "lat": 38.9086445, "fusion_lon": 0.0, "rental_uris": {"ios": "https://dc.lft.to/lastmile_qr_scan", "android": "https://dc.lft.to/lastmile_qr_scan"}, "lon": -77.0351335, "bike_id": "85729286574d55f5c45273f1df707ab4", "type": "electric_scooter", "name": "85729286574d55f5c45273f1df707ab4"}, {"is_disabled": 0, "is_reserved": 0, "fusion_lat": 0.0, "lat": 38.9080165, "fusion_lon": 0.0, "rental_uris": {"ios": "https://dc.lft.to/lastmile_qr_scan", "android": "https://dc.lft.to/lastmile_qr_scan"}, "lon": -77.03832, "bike_id": "f1f10165a15cc9c69ce61e2e96531980", "type": "electric_scooter", "name": "f1f10165a15cc9c69ce61e2e96531980"}, {"is_disabled": 0, "is_reserved": 0, "fusion_lat": 0.0, "lat": 38.9214955, "fusion_lon": 0.0, "rental_uris": {"ios": "https://dc.lft.to/lastmile_qr_scan", "android": "https://dc.lft.to/lastmile_qr_scan"},