{"data": {"bikes": [{"bike_id": "9ee7d0261201c0c457e0ef3ad91cd236", "fusion_lon": 0.0, "lon": -77.0553035, "name": "9ee7d0261201c0c457e0ef3ad91cd236", "is_disabled": 0, "rental_uris": {"android": "https://dc.lft.to/lastmile_qr_scan", "ios": "https://dc.lft.to/lastmile_qr_scan"}, "type": "electric_scooter", "lat": 38.93017, "is_reserved": 0, "fusion_lat": 0.0}, {"bike_id": "3ff99f2294d4a8ae0ca11fed49e67ea0", "fusion_lon": 0.0, "lon": -77.038221, "name": "3ff99f2294d4a8ae0ca11fed49e67ea0", "is_disabled": 0, "rental_uris": {"android": "https://dc.lft.to/lastmile_qr_scan", "ios": "https://dc.lft.to/lastmile_qr_scan"}, "type": "electric_scooter", "lat": 38.906804, "is_reserved": 0, "fusion_lat": 0.0}, {"bike_id": "21099893b9c823bf268d7357a174a02b", "fusion_lon": 0.0, "lon": -77.0159775, "name": "21099893b9c823bf268d7357a174a02b", "is_disabled": 0, "rental_uris": {"android": "https://dc.lft.to/lastmile_qr_scan", "ios": "https://dc.lft.to/lastmile_qr_scan"}, "type": "electric_scooter", "lat": 38.9493755, "is_reserved": 0, "fusion_lat": 0.0}, {"bike_id": "254e3502e394042a259bb2313e436b06", "fusion_lon": 0.0, "lon": -76.99351233333333, "name": "254e3502e394042a259bb2313e436b06", "is_disabled": 0, "rental_uris": {"android": "https://dc.lft.to/lastmile_qr_scan", "ios": "https://dc.lft.to/lastmile_qr_scan"}, "type": "electric_scooter", "lat": 38.91483783333334, "is_reserved": 0, "fusion_lat": 0.0}, {"bike_id": "f2d56e06bb77783ac8b45ecc09276ae8", "fusion_lon": 0.0, "lon": -77.0273535, "name": "f2d56e06bb77783ac8b45ecc09276ae8", "is_disabled": 0, "rental_uris": {"android": "https://dc.lft.to/lastmile_qr_scan", "ios": "https://dc.lft.to/lastmile_qr_scan"}, "type": "electric_scooter", "lat": 38.93360366666667, "is_reserved": 0, "fusion_lat": 0.0}, {"bike_id": "7bfa623bc25c83a05be0bc40502184e9", "fusion_lon": 0.0, "lon": -77.0389175, "name": "7bfa623bc25c83a05be0bc40502184e9", "is_disabled": 0, "rental_uris": {"android": "https://dc.lft.to/lastmile_qr_scan", "ios": "https://dc.lft.to/lastmile_qr_scan"}, "type": "electric_scooter", "lat": 38.9223715, "is_reserved": 0, "fusion_lat": 0.0}, {"bike_id": "03475cf7c344a130f461f87cc6a0cd30", "fusion_lon": 0.0, "lon": -77.02723433333334, "name": "03475cf7c344a130f461f87cc6a0cd30", "is_disabled": 0, "rental_uris": {"android": "https://dc.lft.to/lastmile_qr_scan", "ios": "https://dc.lft.to/lastmile_qr_scan"}, "type": "electric_scooter", "lat": 38.94957516666667, "is_reserved": 0, "fusion_lat": 0.0}, {"bike_id": "789c72b19ec80883e9e58e6b41325e3d", "fusion_lon": 0.0, "lon": -77.02416366666667, "name": "789c72b19ec80883e9e58e6b41325e3d", "is_disabled": 0, "rental_uris": {"android": "https://dc.lft.to/lastmile_qr_scan", "ios": "https://dc.lft.to/lastmile_qr_scan"}, "type": "electric_scooter", "lat": 38.937152833333336, "is_reserved": 0, "fusion_lat": 0.0}, {"bike_id": "29d06d549afeb21d28e3a7656667abbd", "fusion_lon": 0.0, "lon": -77.01863533333334, "name": "29d06d549afeb21d28e3a7656667abbd", "is_disabled": 0, "rental_uris": {"android": "https://dc.lft.to/lastmile_qr_scan", "ios": "https://dc.lft.to/lastmile_qr_scan"}, "type": "electric_scooter", "lat": 38.9736835, "is_reserved": 0, "fusion_lat": 0.0}, {"bike_id": "1cda428720d2a55f57777d0d33b6ecc9", "fusion_lon": 0.0, "lon": -77.02331333333333, "name": "1cda428720d2a55f57777d0d33b6ecc9", "is_disabled": 0, "rental_uris": {"android": "https://dc.lft.to/lastmile_qr_scan", "ios": "https://dc.lft.to/lastmile_qr_scan"}, "type": "electric_scooter", "lat": 38.916790666666664, "is_reserved": 0, "fusion_lat": 0.0}, {"bike_id": "5a1c8315c5d28b372c72142c5e4f4e49", "fusion_lon": 0.0, "lon": -77.05863616666667, "name": "5a1c8315c5d28b372c72142c5e4f4e49", "is_disabled": 0, "rental_uris": {"android": "https://dc.lft.to/lastmile_qr_scan", "ios": "https://dc.lft.to/lastmile_qr_scan"}, "type": "electric_scooter", "lat": 38.93605616666667, "is_reserved": 0, "fusion_lat": 0.0}, {"bike_id": "4d561fb3fa54d882955102f83d930d51", "fusion_lon": 0.0, "lon": -77.02940933333333, "name": "4d561fb3fa54d882955102f83d930d51", "is_disabled": 0, "rental_uris": {"android": "https://dc.lft.to/lastmile_qr_scan", "ios": "https://dc.lft.to/lastmile_qr_scan"}, "type": "electric_scooter", "lat": 38.90534066666667, "is_reserved": 0, "fusion_lat": 0.0}, {"bike_id": "082412db32d964d11014abb935e90767", "fusion_lon": 0.0, "lon": -77.0459425, "name": "082412db32d964d11014abb935e90767", "is_disabled": 0, "rental_uris": {"android": "https://dc.lft.to/lastmile_qr_scan", "ios": "https://dc.lft.to/lastmile_qr_scan"}, "type": "electric_scooter", "lat": 38.9191935, "is_reserved": 0, "fusion_lat": 0.0}, {"bike_id": "bda0428e001c077cac2945de253eb322", "fusion_lon": 0.0, "lon": -77.014766, "name": "bda0428e001c077cac2945de253eb322", "is_disabled": 0, "rental_uris": {"android": "https://dc.lft.to/lastmile_qr_scan", "ios": "https://dc.lft.to/lastmile_qr_scan"}, "type": "electric_scooter", "lat": 38.917660166666664, "is_reserved": 0, "fusion_lat": 0.0}, {"bike_id": "c406ca05785aa0f606b4fef7364e08b9", "fusion_lon": 0.0, "lon": -77.02715866666666, "name": "c406ca05785aa0f606b4fef7364e08b9", "is_disabled": 0, "rental_uris": {"android": "https://dc.lft.to/lastmile_qr_scan", "ios": "https://dc.lft.to/lastmile_qr_scan"}, "type": "electric_scooter", "lat": 38.915633, "is_reserved": 0, "fusion_lat": 0.0}, {"bike_id": "3776a0957373d236298006994b273c6a", "fusion_lon": 0.0, "lon": -76.98110916666667, "name": "3776a0957373d236298006994b273c6a", "is_disabled": 0, "rental_uris": {"android": "https://dc.lft.to/lastmile_qr_scan", "ios": "https://dc.lft.to/lastmile_qr_scan"}, "type": "electric_bike", "lat": 38.877310666666666, "is_reserved": 0, "fusion_lat": 0.0}, {"bike_id": "43728b3945dae75105ad11e2d172b7fa", "fusion_lon": 0.0, "lon": -77.01761566666667, "name": "43728b3945dae75105ad11e2d172b7fa", "is_disabled": 0, "rental_uris": {"android": "https://dc.lft.to/lastmile_qr_scan", "ios": "https://dc.lft.to/lastmile_qr_scan"}, "type": "electric_scooter", "lat": 38.9010135, "is_reserved": 0, "fusion_lat": 0.0}, {"bike_id": "51c91114ef974d1f184bd6ec7fe8a708", "fusion_lon": 0.0, "lon": -77.04143333333333, "name": "51c91114ef974d1f184bd6ec7fe8a708", "is_disabled": 0, "rental_uris": {"android": "https://dc.lft.to/lastmile_qr_scan", "ios": "https://dc.lft.to/lastmile_qr_scan"}, "type": "electric_scooter", "lat": 38.9230405, "is_reserved": 0, "fusion_lat": 0.0}, {"bike_id": "49e018b5c98d4e16f7d468becf5ec0a0", "fusion_lon": 0.0, "lon": -77.0281225, "name": "49e018b5c98d4e16f7d468becf5ec0a0", "is_disabled": 0, "rental_uris": {"android": "https://dc.lft.to/lastmile_qr_scan", "ios": "https://dc.lft.to/lastmile_qr_scan"}, "type": "electric_scooter", "lat": 38.9143095, "is_reserved": 0, "fusion_lat": 0.0}, {"bike_id": "6a4cc10a05a2b44e51f61d2d2768af3d", "fusion_lon": 0.0, "lon": -77.0239415, "name": "6a4cc10a05a2b44e51f61d2d2768af3d", "is_disabled": 0, "rental_uris": {"android": "https://dc.lft.to/lastmile_qr_scan", "ios": "https://dc.lft.to/lastmile_qr_scan"}, "type": "electric_bike", "lat": 38.934607, "is_reserved": 0, "fusion_lat": 0.0}, {"bike_id": "a7509469f55b679b9e1beee92206b4d5", "fusion_lon": 0.0, "lon": -77.01792383333333, "name": "a7509469f55b679b9e1beee92206b4d5", "is_disabled": 0, "rental_uris": {"android": "https://dc.lft.to/lastmile_qr_scan", "ios": "https://dc.lft.to/lastmile_qr_scan"}, "type": "electric_scooter", "lat": 38.90381266666667, "is_reserved": 0, "fusion_lat": 0.0}, {"bike_id": "7b5fbe9928d2fd06b479f753f55dd4f1", "fusion_lon": 0.0, "lon": -76.99814633333334, "name": "7b5fbe9928d2fd06b479f753f55dd4f1", "is_disabled": 0, "rental_uris": {"android": "https://dc.lft.to/lastmile_qr_scan", "ios": "https://dc.lft.to/lastmile_qr_scan"}, "type": "electric_scooter", "lat": 38.84433283333333, "is_reserved": 0, "fusion_lat": 0.0}, {"bike_id": "2e1bf5be97d367b63b5c5680a295a5b4", "fusion_lon": 0.0, "lon": -77.02600366666667, "name": "2e1bf5be97d367b63b5c5680a295a5b4", "is_disabled": 0, "rental_uris": {"android": "https://dc.lft.to/lastmile_qr_scan", "ios": "https://dc.lft.to/lastmile_qr_scan"}, "type": "electric_scooter", "lat": 38.916950166666666, "is_reserved": 0, "fusion_lat": 0.0}, {"bike_id": "eaa61d1307bb1205f4e896531077d53b", "fusion_lon": 0.0, "lon": -77.05235983333333, "name": "eaa61d1307bb1205f4e896531077d53b", "is_disabled": 0, "rental_uris": {"android": "https://dc.lft.to/lastmile_qr_scan", "ios": "https://dc.lft.to/lastmile_qr_scan"}, "type": "electric_scooter", "lat": 38.92705683333333, "is_reserved": 0, "fusion_lat": 0.0}, {"bike_id": "53aeab11125bd63f4e428c39974e94a9", "fusion_lon": 0.0, "lon": -77.03465366666667, "name": "53aeab11125bd63f4e428c39974e94a9", "is_disabled": 0, "rental_uris": {"android": "https://dc.lft.to/lastmile_qr_scan", "ios": "https://dc.lft.to/lastmile_qr_scan"}, "type": "electric_scooter", "lat": 38.908031, "is_reserved": 0, "fusion_lat": 0.0}, {"bike_id": "e6cc63f2f3ca4dd82d28ab805fc60c0b", "fusion_lon": 0.0, "lon": -77.03118583333334, "name": "e6cc63f2f3ca4dd82d28ab805fc60c0b", "is_disabled": 0, "rental_uris": {"android": "https://dc.lft.to/lastmile_qr_scan", "ios": "https://dc.lft.to/lastmile_qr_scan"}, "type": "electric_bike", "lat": 38.9592445, "is_reserved": 0, "fusion_lat": 0.0}, {"bike_id": "031cdda3442673bd703052a35d11c198", "fusion_lon": 0.0, "lon": -77.00968133333333, "name": "031cdda3442673bd703052a35d11c198", "is_disabled": 0, "rental_uris": {"android": "https://dc.lft.to/lastmile_qr_scan", "ios": "https://dc.lft.to/lastmile_qr_scan"}, "type": "electric_scooter", "lat": 38.90785866666667, "is_reserved": 0, "fusion_lat": 0.0}, {"bike_id": "883f5e133839e2f8746566e6afedcb0f", "fusion_lon": 0.0, "lon": -76.98924116666667, "name": "883f5e133839e2f8746566e6afedcb0f", "is_disabled": 0, "rental_uris": {"android": "https://dc.lft.to/lastmile_qr_scan", "ios": "https://dc.lft.to/lastmile_qr_scan"}, "type": "electric_scooter", "lat": 38.858106166666666, "is_reserved": 0, "fusion_lat": 0.0}, {"bike_id": "c117f16d8d7be554255f66c6db9b6efc", "fusion_lon": 0.0, "lon": -76.986529, "name": "c117f16d8d7be554255f66c6db9b6efc", "is_disabled": 0, "rental_uris": {"android": "https://dc.lft.to/lastmile_qr_scan", "ios": "https://dc.lft.to/lastmile_qr_scan"}, "type": "electric_scooter", "lat": 38.85810383333333, "is_reserved": 0, "fusion_lat": 0.0}, {"bike_id": "bfbd427e822b3398829450dfa94fb103", "fusion_lon": 0.0, "lon": -77.01646016666666, "name": "bfbd427e822b3398829450dfa94fb103", "is_disabled": 0, "rental_uris": {"android": "https://dc.lft.to/lastmile_qr_scan", "ios": "https://dc.lft.to/lastmile_qr_scan"}, "type": "electric_scooter", "lat": 38.88122716666667, "is_reserved": 0, "fusion_lat": 0.0}, {"bike_id": "a4742ea98652554d47ac9232717ca7a7", "fusion_lon": 0.0, "lon": -77.038334, "name": "a4742ea98652554d47ac9232717ca7a7", "is_disabled": 0, "rental_uris": {"android": "https://dc.lft.to/lastmile_qr_scan", "ios": "https://dc.lft.to/lastmile_qr_scan"}, "type": "electric_scooter", "lat": 38.9096205, "is_reserved": 0, "fusion_lat": 0.0}, {"bike_id": "75904aa6ffe150acea114603205a496f", "fusion_lon": 0.0, "lon": -77.0088495, "name": "75904aa6ffe150acea114603205a496f", "is_disabled": 0, "rental_uris": {"android": "https://dc.lft.to/lastmile_qr_scan", "ios": "https://dc.lft.to/lastmile_qr_scan"}, "type": "electric_scooter", "lat": 38.90651283333333, "is_reserved": 0, "fusion_lat": 0.0}, {"bike_id": "1f4b207444c8340546947e4994801572", "fusion_lon": 0.0, "lon": -77.02415583333334, "name": "1f4b207444c8340546947e4994801572", "is_disabled": 0, "rental_uris": {"android": "https://dc.lft.to/lastmile_qr_scan", "ios": "https://dc.lft.to/lastmile_qr_scan"}, "type": "electric_scooter", "lat": 38.9019655, "is_reserved": 0, "fusion_lat": 0.0}, {"bike_id": "c01c02bdbb0bae9ce6816bf17e51af36", "fusion_lon": 0.0, "lon": -77.04932833333334, "name": "c01c02bdbb0bae9ce6816bf17e51af36", "is_disabled": 0, "rental_uris": {"android": "https://dc.lft.to/lastmile_qr_scan", "ios": "https://dc.lft.to/lastmile_qr_scan"}, "type": "electric_bike", "lat": 38.81348883333333, "is_reserved": 0, "fusion_lat": 0.0}, {"bike_id": "c85f8d10723d6458111e18059eeafae1", "fusion_lon": 0.0, "lon": -77.01996383333334, "name": "c85f8d10723d6458111e18059eeafae1", "is_disabled": 0, "rental_uris": {"android": "https://dc.lft.to/lastmile_qr_scan", "ios": "https://dc.lft.to/lastmile_qr_scan"}, "type": "electric_scooter", "lat": 38.913673833333334, "is_reserved": 0, "fusion_lat": 0.0}, {"bike_id": "1b936ab02618b74800909d0b82b06842", "fusion_lon": 0.0, "lon": -77.0172375, "name": "1b936ab02618b74800909d0b82b06842", "is_disabled": 0, "rental_uris": {"android": "https://dc.lft.to/lastmile_qr_scan", "ios": "https://dc.lft.to/lastmile_qr_scan"}, "type": "electric_scooter", "lat": 38.872773, "is_reserved": 0, "fusion_lat": 0.0}, {"bike_id": "2784a60c4d53cc41e7e3d7bff2b74fbb", "fusion_lon": 0.0, "lon": -77.02694416666667, "name": "2784a60c4d53cc41e7e3d7bff2b74fbb", "is_disabled": 0, "rental_uris": {"android": "https://dc.lft.to/lastmile_qr_scan", "ios": "https://dc.lft.to/lastmile_qr_scan"}, "type": "electric_scooter", "lat": 38.911250833333334, "is_reserved": 0, "fusion_lat": 0.0}, {"bike_id": "d1ff603c30e1dac07b67d72048b5310a", "fusion_lon": 0.0, "lon": -77.0350015, "name": "d1ff603c30e1dac07b67d72048b5310a", "is_disabled": 0, "rental_uris": {"android": "https://dc.lft.to/lastmile_qr_scan", "ios": "https://dc.lft.to/lastmile_qr_scan"}, "type": "electric_scooter", "lat": 38.9169505, "is_reserved": 0, "fusion_lat": 0.0}, {"bike_id": "76d7e74d8bd01e4395da2e4bdc4e452d", "fusion_lon": 0.0, "lon": -77.05719316666666, "name": "76d7e74d8bd01e4395da2e4bdc4e452d", "is_disabled": 0, "rental_uris": {"android": "https://dc.lft.to/lastmile_qr_scan", "ios": "https://dc.lft.to/lastmile_qr_scan"}, "type": "electric_scooter", "lat": 38.93366783333333, "is_reserved": 0, "fusion_lat": 0.0}, {"bike_id": "a0b147a35466af255871d210f0c31f14", "fusion_lon": 0.0, "lon": -77.02556416666667, "name": "a0b147a35466af255871d210f0c31f14", "is_disabled": 0, "rental_uris": {"android": "https://dc.lft.to/lastmile_qr_scan", "ios": "https://dc.lft.to/lastmile_qr_scan"}, "type": "electric_scooter", "lat": 38.880653833333334, "is_reserved": 0, "fusion_lat": 0.0}, {"bike_id": "2c763ce59d5d1ebf73e76b95276cfd2b", "fusion_lon": 0.0, "lon": -77.01742166666666, "name": "2c763ce59d5d1ebf73e76b95276cfd2b", "is_disabled": 0, "rental_uris": {"android": "https://dc.lft.to/lastmile_qr_scan", "ios": "https://dc.lft.to/lastmile_qr_scan"}, "type": "electric_scooter", "lat": 38.874964, "is_reserved": 0, "fusion_lat": 0.0}, {"bike_id": "09a9647610b6f9a8055a532a115b09c2", "fusion_lon": 0.0, "lon": -77.0457465, "name": "09a9647610b6f9a8055a532a115b09c2", "is_disabled": 0, "rental_uris": {"android": "https://dc.lft.to/lastmile_qr_scan", "ios": "https://dc.lft.to/lastmile_qr_scan"}, "type": "electric_bike", "lat": 38.9242435, "is_reserved": 0, "fusion_lat": 0.0}, {"bike_id": "e2df02670b466ba5fc9d00c2c392bc63", "fusion_lon": 0.0, "lon": -77.04403316666667, "name": "e2df02670b466ba5fc9d00c2c392bc63", "is_disabled": 0, "rental_uris": {"android": "https://dc.lft.to/lastmile_qr_scan", "ios": "https://dc.lft.to/lastmile_qr_scan"}, "type": "electric_scooter", "lat": 38.91269883333333, "is_reserved": 0, "fusion_lat": 0.0}, {"bike_id": "58a50c57cbd9303fcc1674e1e8ebc778", "fusion_lon": 0.0, "lon": -77.02803783333333, "name": "58a50c57cbd9303fcc1674e1e8ebc778", "is_disabled": 0, "rental_uris": {"android": "https://dc.lft.to/lastmile_qr_scan", "ios": "https://dc.lft.to/lastmile_qr_scan"}, "type": "electric_scooter", "lat": 38.90955783333333, "is_reserved": 0, "fusion_lat": 0.0}, {"bike_id": "0cf578c5f2a87258d32fb310674b9ade", "fusion_lon": 0.0, "lon": -77.00245866666667, "name": "0cf578c5f2a87258d32fb310674b9ade", "is_disabled": 0, "rental_uris": {"android": "https://dc.lft.to/lastmile_qr_scan", "ios": "https://dc.lft.to/lastmile_qr_scan"}, "type": "electric_scooter", "lat": 38.908877833333335, "is_reserved": 0, "fusion_lat": 0.0}, {"bike_id": "2e039661af8ee4b1b61b1d24512a1da4", "fusion_lon": 0.0, "lon": -76.94837583333333, "name": "2e039661af8ee4b1b61b1d24512a1da4", "is_disabled": 0, "rental_uris": {"android": "https://dc.lft.to/lastmile_qr_scan", "ios": "https://dc.lft.to/lastmile_qr_scan"}, "type": "electric_scooter", "lat": 38.89590833333333, "is_reserved": 0, "fusion_lat": 0.0}, {"bike_id": "dd4da082047ef14487ccd4efb50f848f", "fusion_lon": 0.0, "lon": -77.056537, "name": "dd4da082047ef14487ccd4efb50f848f", "is_disabled": 0, "rental_uris": {"android": "https://dc.lft.to/lastmile_qr_scan", "ios": "https://dc.lft.to/lastmile_qr_scan"}, "type": "electric_scooter", "lat": 38.90535366666667, "is_reserved": 0, "fusion_lat": 0.0}, {"bike_id": "97a4aa302f57113c6faa8f2f49d49f3e", "fusion_lon": 0.0, "lon": -77.031749, "name": "97a4aa302f57113c6faa8f2f49d49f3e", "is_disabled": 0, "rental_uris": {"android": "https://dc.lft.to/lastmile_qr_scan", "ios": "https://dc.lft.to/lastmile_qr_scan"}, "type": "electric_scooter", "lat": 38.909626833333334, "is_reserved": 0, "fusion_lat": 0.0}, {"bike_id": "53d5a70d79455b552f46c09b3719f534", "fusion_lon": 0.0, "lon": -77.040217, "name": "53d5a70d79455b552f46c09b3719f534", "is_disabled": 0, "rental_uris": {"android": "https://dc.lft.to/lastmile_qr_scan", "ios": "https://dc.lft.to/lastmile_qr_scan"}, "type": "electric_scooter", "lat": 38.922753666666665, "is_reserved": 0, "fusion_lat": 0.0}, {"bike_id": "bcb31100e8724d7b48970a25603da1b4", "fusion_lon": 0.0, "lon": -77.02775233333334, "name": "bcb31100e8724d7b48970a25603da1b4", "is_disabled": 0, "rental_uris": {"android": "https://dc.lft.to/lastmile_qr_scan", "ios": "https://dc.lft.to/lastmile_qr_scan"}, "type": "electric_scooter", "lat": 38.917008833333334, "is_reserved": 0, "fusion_lat": 0.0}, {"bike_id": "29453c161c9e5ccceb235a183adcfd28", "fusion_lon": 0.0, "lon": -77.06700716666667, "name": "29453c161c9e5ccceb235a183adcfd28", "is_disabled": 0, "rental_uris": {"android": "https://dc.lft.to/lastmile_qr_scan", "ios": "https://dc.lft.to/lastmile_qr_scan"}, "type": "electric_bike", "lat": 38.831802333333336, "is_reserved": 0, "fusion_lat": 0.0}, {"bike_id": "25d6d187d81f2362191d194517e31200", "fusion_lon": 0.0, "lon": -77.05696466666667, "name": "25d6d187d81f2362191d194517e31200", "is_disabled": 0, "rental_uris": {"android": "https://dc.lft.to/lastmile_qr_scan", "ios": "https://dc.lft.to/lastmile_qr_scan"}, "type": "electric_scooter", "lat": 38.9055515, "is_reserved": 0, "fusion_lat": 0.0}, {"bike_id": "f557828a9f7cbbb20d2165fd6678867a", "fusion_lon": 0.0, "lon": -77.0349625, "name": "f557828a9f7cbbb20d2165fd6678867a", "is_disabled": 0, "rental_uris": {"android": "https://dc.lft.to/lastmile_qr_scan", "ios": "https://dc.lft.to/lastmile_qr_scan"}, "type": "electric_scooter", "lat": 38.9248105, "is_reserved": 0, "fusion_lat": 0.0}, {"bike_id": "5efe91afdb136c9688cbb81f582ea6f6", "fusion_lon": 0.0, "lon": -77.03224033333333, "name": "5efe91afdb136c9688cbb81f582ea6f6", "is_disabled": 0, "rental_uris": {"android": "https://dc.lft.to/lastmile_qr_scan", "ios": "https://dc.lft.to/lastmile_qr_scan"}, "type": "electric_scooter", "lat": 38.91404816666667, "is_reserved": 0, "fusion_lat": 0.0}, {"bike_id": "bd13c4c133534c92b0cf08eee0ac64dd", "fusion_lon": 0.0, "lon": -77.0235555, "name": "bd13c4c133534c92b0cf08eee0ac64dd", "is_disabled": 0, "rental_uris": {"android": "https://dc.lft.to/lastmile_qr_scan", "ios": "https://dc.lft.to/lastmile_qr_scan"}, "type": "electric_scooter", "lat": 38.88746, "is_reserved": 0, "fusion_lat": 0.0}, {"bike_id": "303bb46a95f1688c6382b0444a2a2eab", "fusion_lon": 0.0, "lon": -77.03452266666666, "name": "303bb46a95f1688c6382b0444a2a2eab", "is_disabled": 0, "rental_uris": {"android": "https://dc.lft.to/lastmile_qr_scan", "ios": "https://dc.lft.to/lastmile_qr_scan"}, "type": "electric_scooter", "lat": 38.9056885, "is_reserved": 0, "fusion_lat": 0.0}, {"bike_id": "f5cfe6f4fb353812f203c0cd0e54ccce", "fusion_lon": 0.0, "lon": -77.028981, "name": "f5cfe6f4fb353812f203c0cd0e54ccce", "is_disabled": 0, "rental_uris": {"android": "https://dc.lft.to/lastmile_qr_scan", "ios": "https://dc.lft.to/lastmile_qr_scan"}, "type": "electric_scooter", "lat": 38.9140685, "is_reserved": 0, "fusion_lat": 0.0}, {"bike_id": "0529ead3d0985c7677f172b443f2d396", "fusion_lon": 0.0, "lon": -77.03264933333334, "name": "0529ead3d0985c7677f172b443f2d396", "is_disabled": 0, "rental_uris": {"android": "https://dc.lft.to/lastmile_qr_scan", "ios": "https://dc.lft.to/lastmile_qr_scan"}, "type": "electric_scooter", "lat": 38.935623666666665, "is_reserved": 0, "fusion_lat": 0.0}, {"bike_id": "d9d1f2eb91ccd92c2dfb9c886c5117a8", "fusion_lon": 0.0, "lon": -76.980075, "name": "d9d1f2eb91ccd92c2dfb9c886c5117a8", "is_disabled": 0, "rental_uris": {"android": "https://dc.lft.to/lastmile_qr_scan", "ios": "https://dc.lft.to/lastmile_qr_scan"}, "type": "electric_scooter", "lat": 38.853200333333334, "is_reserved": 0, "fusion_lat": 0.0}, {"bike_id": "3758dd4ce177e0eebae1f146f63a5360", "fusion_lon": 0.0, "lon": -76.9956115, "name": "3758dd4ce177e0eebae1f146f63a5360", "is_disabled": 0, "rental_uris": {"android": "https://dc.lft.to/lastmile_qr_scan", "ios": "https://dc.lft.to/lastmile_qr_scan"}, "type": "electric_scooter", "lat": 38.92028633333334, "is_reserved": 0, "fusion_lat": 0.0}, {"bike_id": "b6ac9a7234dcb1684d0a53288d777d48", "fusion_lon": 0.0, "lon": -77.04095316666667, "name": "b6ac9a7234dcb1684d0a53288d777d48", "is_disabled": 0, "rental_uris": {"android": "https://dc.lft.to/lastmile_qr_scan", "ios": "https://dc.lft.to/lastmile_qr_scan"}, "type": "electric_scooter", "lat": 38.917849833333335, "is_reserved": 0, "fusion_lat": 0.0}, {"bike_id": "3205ded8a88ee39097a88b5d19c1b8d0", "fusion_lon": 0.0, "lon": -77.02817116666667, "name": "3205ded8a88ee39097a88b5d19c1b8d0", "is_disabled": 0, "rental_uris": {"android": "https://dc.lft.to/lastmile_qr_scan", "ios": "https://dc.lft.to/lastmile_qr_scan"}, "type": "electric_scooter", "lat": 38.916911666666664, "is_reserved": 0, "fusion_lat": 0.0}, {"bike_id": "5a56b0907b912dea528327b99f72e51a", "fusion_lon": 0.0, "lon": -77.05170433333333, "name": "5a56b0907b912dea528327b99f72e51a", "is_disabled": 0, "rental_uris": {"android": "https://dc.lft.to/lastmile_qr_scan", "ios": "https://dc.lft.to/lastmile_qr_scan"}, "type": "electric_scooter", "lat": 38.9005905, "is_reserved": 0, "fusion_lat": 0.0}, {"bike_id": "78e3246b51534eb04bdd5e259ee38c3d", "fusion_lon": 0.0, "lon": -77.05229766666666, "name": "78e3246b51534eb04bdd5e259ee38c3d", "is_disabled": 0, "rental_uris": {"android": "https://dc.lft.to/lastmile_qr_scan", "ios": "https://dc.lft.to/lastmile_qr_scan"}, "type": "electric_scooter", "lat": 38.92460533333333, "is_reserved": 0, "fusion_lat": 0.0}, {"bike_id": "235c885d6b80e564bdd4c15c057a8da1", "fusion_lon": 0.0, "lon": -77.0420475, "name": "235c885d6b80e564bdd4c15c057a8da1", "is_disabled": 0, "rental_uris": {"android": "https://dc.lft.to/lastmile_qr_scan", "ios": "https://dc.lft.to/lastmile_qr_scan"}, "type": "electric_scooter", "lat": 38.9112815, "is_reserved": 0, "fusion_lat": 0.0}, {"bike_id": "25b67c85a164cb995c24c7a1b711e50a", "fusion_lon": 0.0, "lon": -77.027663, "name": "25b67c85a164cb995c24c7a1b711e50a", "is_disabled": 0, "rental_uris": {"android": "https://dc.lft.to/lastmile_qr_scan", "ios": "https://dc.lft.to/lastmile_qr_scan"}, "type": "electric_scooter", "lat": 38.954263, "is_reserved": 0, "fusion_lat": 0.0}, {"bike_id": "1adeb9f2967feb183a3fb40ccea0b835", "fusion_lon": 0.0, "lon": -77.04221366666667, "name": "1adeb9f2967feb183a3fb40ccea0b835", "is_disabled": 0, "rental_uris": {"android": "https://dc.lft.to/lastmile_qr_scan", "ios": "https://dc.lft.to/lastmile_qr_scan"}, "type": "electric_scooter", "lat": 38.92066366666667, "is_reserved": 0, "fusion_lat": 0.0}, {"bike_id": "d7eda08da122204fece01145fefe4cd6", "fusion_lon": 0.0, "lon": -76.96528516666666, "name": "d7eda08da122204fece01145fefe4cd6", "is_disabled": 0, "rental_uris": {"android": "https://dc.lft.to/lastmile_qr_scan", "ios": "https://dc.lft.to/lastmile_qr_scan"}, "type": "electric_scooter", "lat": 38.87629733333333, "is_reserved": 0, "fusion_lat": 0.0}, {"bike_id": "08f948d54f61d91e98ffcbd429745b40", "fusion_lon": 0.0, "lon": -76.90970383333334, "name": "08f948d54f61d91e98ffcbd429745b40", "is_disabled": 0, "rental_uris": {"android": "https://dc.lft.to/lastmile_qr_scan", "ios": "https://dc.lft.to/lastmile_qr_scan"}, "type": "electric_bike", "lat": 38.85426533333333, "is_reserved": 0, "fusion_lat": 0.0}, {"bike_id": "fbe0db30d14fc6bf588d4a04cfe052d2", "fusion_lon": 0.0, "lon": -77.02695083333333, "name": "fbe0db30d14fc6bf588d4a04cfe052d2", "is_disabled": 0, "rental_uris": {"android": "https://dc.lft.to/lastmile_qr_scan", "ios": "https://dc.lft.to/lastmile_qr_scan"}, "type": "electric_scooter", "lat": 38.88128066666667, "is_reserved": 0, "fusion_lat": 0.0}, {"bike_id": "a0a5d663d9e70a5359cd91c1c2035fde", "fusion_lon": 0.0, "lon": -77.04331033333334, "name": "a0a5d663d9e70a5359cd91c1c2035fde", "is_disabled": 0, "rental_uris": {"android": "https://dc.lft.to/lastmile_qr_scan", "ios": "https://dc.lft.to/lastmile_qr_scan"}, "type": "electric_scooter", "lat": 38.892242333333336, "is_reserved": 0, "fusion_lat": 0.0}, {"bike_id": "ccc667a3375bf0f1477741abd94b4e9a", "fusion_lon": 0.0, "lon": -76.997017, "name": "ccc667a3375bf0f1477741abd94b4e9a", "is_disabled": 0, "rental_uris": {"android": "https://dc.lft.to/lastmile_qr_scan", "ios": "https://dc.lft.to/lastmile_qr_scan"}, "type": "electric_scooter", "lat": 38.908365333333336, "is_reserved": 0, "fusion_lat": 0.0}, {"bike_id": "181b29417c90565895ff60303146a494", "fusion_lon": 0.0, "lon": -77.01716166666667, "name": "181b29417c90565895ff60303146a494", "is_disabled": 0, "rental_uris": {"android": "https://dc.lft.to/lastmile_qr_scan", "ios": "https://dc.lft.to/lastmile_qr_scan"}, "type": "electric_scooter", "lat": 38.9174675, "is_reserved": 0, "fusion_lat": 0.0}, {"bike_id": "2a191f3f1470e0aaf17163ada4c005be", "fusion_lon": 0.0, "lon": -77.03128683333334, "name": "2a191f3f1470e0aaf17163ada4c005be", "is_disabled": 0, "rental_uris": {"android": "https://dc.lft.to/lastmile_qr_scan", "ios": "https://dc.lft.to/lastmile_qr_scan"}, "type": "electric_scooter", "lat": 38.92374433333333, "is_reserved": 0, "fusion_lat": 0.0}, {"bike_id": "1ce97af54229ff2a28fe712f184f8bb1", "fusion_lon": 0.0, "lon": -77.02491566666667, "name": "1ce97af54229ff2a28fe712f184f8bb1", "is_disabled": 0, "rental_uris": {"android": "https://dc.lft.to/lastmile_qr_scan", "ios": "https://dc.lft.to/lastmile_qr_scan"}, "type": "electric_scooter", "lat": 38.941851, "is_reserved": 0, "fusion_lat": 0.0}, {"bike_id": "e1a7d0b6c1751900ed1d3bb249ed5e4a", "fusion_lon": 0.0, "lon": -77.0460405, "name": "e1a7d0b6c1751900ed1d3bb249ed5e4a", "is_disabled": 0, "rental_uris": {"android": "https://dc.lft.to/lastmile_qr_scan", "ios": "https://dc.lft.to/lastmile_qr_scan"}, "type": "electric_scooter", "lat": 38.9192365, "is_reserved": 0, "fusion_lat": 0.0}, {"bike_id": "3bbf56a5b195882f018a85bccbcafbb3", "fusion_lon": 0.0, "lon": -77.03661966666667, "name": "3bbf56a5b195882f018a85bccbcafbb3", "is_disabled": 0, "rental_uris": {"android": "https://dc.lft.to/lastmile_qr_scan", "ios": "https://dc.lft.to/lastmile_qr_scan"}, "type": "electric_scooter", "lat": 38.92291266666667, "is_reserved": 0, "fusion_lat": 0.0}, {"bike_id": "f55daac1c9069378f49d82d72930a6cb", "fusion_lon": 0.0, "lon": -77.08280583333334, "name": "f55daac1c9069378f49d82d72930a6cb", "is_disabled": 0, "rental_uris": {"android": "https://dc.lft.to/lastmile_qr_scan", "ios": "https://dc.lft.to/lastmile_qr_scan"}, "type": "electric_scooter", "lat": 38.9301935, "is_reserved": 0, "fusion_lat": 0.0}, {"bike_id": "df54404c36637b5502d819be74fc11f4", "fusion_lon": 0.0, "lon": -76.9833195, "name": "df54404c36637b5502d819be74fc11f4", "is_disabled": 0, "rental_uris": {"android": "https://dc.lft.to/lastmile_qr_scan", "ios": "https://dc.lft.to/lastmile_qr_scan"}, "type": "electric_scooter", "lat": 38.90875616666667, "is_reserved": 0, "fusion_lat": 0.0}, {"bike_id": "05826e4ad706a1ee1e4418b957722f6c", "fusion_lon": 0.0, "lon": -77.0314915, "name": "05826e4ad706a1ee1e4418b957722f6c", "is_disabled": 0, "rental_uris": {"android": "https://dc.lft.to/lastmile_qr_scan", "ios": "https://dc.lft.to/lastmile_qr_scan"}, "type": "electric_scooter", "lat": 38.91562733333333, "is_reserved": 0, "fusion_lat": 0.0}, {"bike_id": "33281ddd8899c03613863aaf61448e41", "fusion_lon": 0.0, "lon": -77.0346275, "name": "33281ddd8899c03613863aaf61448e41", "is_disabled": 0, "rental_uris": {"android": "https://dc.lft.to/lastmile_qr_scan", "ios": "https://dc.lft.to/lastmile_qr_scan"}, "type": "electric_scooter", "lat": 38.904391, "is_reserved": 0, "fusion_lat": 0.0}, {"bike_id": "6122b111bf694aaa2d53a5ce45ddbaf2", "fusion_lon": 0.0, "lon": -77.04427333333334, "name": "6122b111bf694aaa2d53a5ce45ddbaf2", "is_disabled": 0, "rental_uris": {"android": "https://dc.lft.to/lastmile_qr_scan", "ios": "https://dc.lft.to/lastmile_qr_scan"}, "type": "electric_scooter", "lat": 38.917805, "is_reserved": 0, "fusion_lat": 0.0}, {"bike_id": "e88308c6fda15c20d12cd93fc271a92a", "fusion_lon": 0.0, "lon": -76.98889483333333, "name": "e88308c6fda15c20d12cd93fc271a92a", "is_disabled": 0, "rental_uris": {"android": "https://dc.lft.to/lastmile_qr_scan", "ios": "https://dc.lft.to/lastmile_qr_scan"}, "type": "electric_scooter", "lat": 38.8665445, "is_reserved": 0, "fusion_lat": 0.0}, {"bike_id": "356441b6e17e6004bc861caa17a7c9fc", "fusion_lon": 0.0, "lon": -77.005559, "name": "356441b6e17e6004bc861caa17a7c9fc", "is_disabled": 0, "rental_uris": {"android": "https://dc.lft.to/lastmile_qr_scan", "ios": "https://dc.lft.to/lastmile_qr_scan"}, "type": "electric_scooter", "lat": 38.88080016666667, "is_reserved": 0, "fusion_lat": 0.0}, {"bike_id": "84160f228697874c5c7d4cfab51bd30a", "fusion_lon": 0.0, "lon": -77.029637, "name": "84160f228697874c5c7d4cfab51bd30a", "is_disabled": 0, "rental_uris": {"android": "https://dc.lft.to/lastmile_qr_scan", "ios": "https://dc.lft.to/lastmile_qr_scan"}, "type": "electric_scooter", "lat": 38.899438, "is_reserved": 0, "fusion_lat": 0.0}, {"bike_id": "db080d69756091f200fbb96687cfdcb8", "fusion_lon": 0.0, "lon": -77.026078, "name": "db080d69756091f200fbb96687cfdcb8", "is_disabled": 0, "rental_uris": {"android": "https://dc.lft.to/lastmile_qr_scan", "ios": "https://dc.lft.to/lastmile_qr_scan"}, "type": "electric_scooter", "lat": 38.9023635, "is_reserved": 0, "fusion_lat": 0.0}, {"bike_id": "5279b562c592771a64dd569b444e147e", "fusion_lon": 0.0, "lon": -77.0173665, "name": "5279b562c592771a64dd569b444e147e", "is_disabled": 0, "rental_uris": {"android": "https://dc.lft.to/lastmile_qr_scan", "ios": "https://dc.lft.to/lastmile_qr_scan"}, "type": "electric_bike", "lat": 38.916077, "is_reserved": 0, "fusion_lat": 0.0}, {"bike_id": "160433deabe920650e62d31634a11205", "fusion_lon": 0.0, "lon": -77.04312533333334, "name": "160433deabe920650e62d31634a11205", "is_disabled": 0, "rental_uris": {"android": "https://dc.lft.to/lastmile_qr_scan", "ios": "https://dc.lft.to/lastmile_qr_scan"}, "type": "electric_scooter", "lat": 38.92661966666667, "is_reserved": 0, "fusion_lat": 0.0}, {"bike_id": "34d4e3e6d2aea96f16c4f1f3e4ba5378", "fusion_lon": 0.0, "lon": -76.98731533333333, "name": "34d4e3e6d2aea96f16c4f1f3e4ba5378", "is_disabled": 0, "rental_uris": {"android": "https://dc.lft.to/lastmile_qr_scan", "ios": "https://dc.lft.to/lastmile_qr_scan"}, "type": "electric_scooter", "lat": 38.90700066666667, "is_reserved": 0, "fusion_lat": 0.0}, {"bike_id": "108fa8752da4ab6ea15f2a09f26b6472", "fusion_lon": 0.0, "lon": -77.03213566666666, "name": "108fa8752da4ab6ea15f2a09f26b6472", "is_disabled": 0, "rental_uris": {"android": "https://dc.lft.to/lastmile_qr_scan", "ios": "https://dc.lft.to/lastmile_qr_scan"}, "type": "electric_scooter", "lat": 38.918540666666665, "is_reserved": 0, "fusion_lat": 0.0}, {"bike_id": "db4b34da1dfa534aaafee049cd4ff67c", "fusion_lon": 0.0, "lon": -77.0366455, "name": "db4b34da1dfa534aaafee049cd4ff67c", "is_disabled": 0, "rental_uris": {"android": "https://dc.lft.to/lastmile_qr_scan", "ios": "https://dc.lft.to/lastmile_qr_scan"}, "type": "electric_scooter", "lat": 38.92102116666667, "is_reserved": 0, "fusion_lat": 0.0}, {"bike_id": "b7a754d9cb28af894ac136f1dd07ee3c", "fusion_lon": 0.0, "lon": -77.027145, "name": "b7a754d9cb28af894ac136f1dd07ee3c", "is_disabled": 0, "rental_uris": {"android": "https://dc.lft.to/lastmile_qr_scan", "ios": "https://dc.lft.to/lastmile_qr_scan"}, "type": "electric_scooter", "lat": 38.90958833333333, "is_reserved": 0, "fusion_lat": 0.0}, {"bike_id": "7d93552d59014e2be4658daa279dc523", "fusion_lon": 0.0, "lon": -76.99277316666667, "name": "7d93552d59014e2be4658daa279dc523", "is_disabled": 0, "rental_uris": {"android": "https://dc.lft.to/lastmile_qr_scan", "ios": "https://dc.lft.to/lastmile_qr_scan"}, "type": "electric_scooter", "lat": 38.886428333333335, "is_reserved": 0, "fusion_lat": 0.0}, {"bike_id": "29d9431de483327e51fdd0e52e3bf207", "fusion_lon": 0.0, "lon": -76.94875483333334, "name": "29d9431de483327e51fdd0e52e3bf207", "is_disabled": 0, "rental_uris": {"android": "https://dc.lft.to/lastmile_qr_scan", "ios": "https://dc.lft.to/lastmile_qr_scan"}, "type": "electric_scooter", "lat": 38.89500866666667, "is_reserved": 0, "fusion_lat": 0.0}, {"bike_id": "b0f19cdfdd80c2b3f94af9c436da296d", "fusion_lon": 0.0, "lon": -76.98361266666667, "name": "b0f19cdfdd80c2b3f94af9c436da296d", "is_disabled": 0, "rental_uris": {"android": "https://dc.lft.to/lastmile_qr_scan", "ios": "https://dc.lft.to/lastmile_qr_scan"}, "type": "electric_scooter", "lat": 38.906364833333335, "is_reserved": 0, "fusion_lat": 0.0}, {"bike_id": "5b53da41c7dff11d3bda7bd8d964c503", "fusion_lon": 0.0, "lon": -76.93736, "name": "5b53da41c7dff11d3bda7bd8d964c503", "is_disabled": 0, "rental_uris": {"android": "https://dc.lft.to/lastmile_qr_scan", "ios": "https://dc.lft.to/lastmile_qr_scan"}, "type": "electric_scooter", "lat": 38.89016566666667, "is_reserved": 0, "fusion_lat": 0.0}, {"bike_id": "590630b79d278981907381781af98523", "fusion_lon": 0.0, "lon": -77.041168, "name": "590630b79d278981907381781af98523", "is_disabled": 0, "rental_uris": {"android": "https://dc.lft.to/lastmile_qr_scan", "ios": "https://dc.lft.to/lastmile_qr_scan"}, "type": "electric_scooter", "lat": 38.92138466666667, "is_reserved": 0, "fusion_lat": 0.0}, {"bike_id": "9d76deb03ac8c4cba873b287134bea28", "fusion_lon": 0.0, "lon": -77.11802383333334, "name": "9d76deb03ac8c4cba873b287134bea28", "is_disabled": 0, "rental_uris": {"android": "https://dc.lft.to/lastmile_qr_scan", "ios": "https://dc.lft.to/lastmile_qr_scan"}, "type": "electric_bike", "lat": 38.873766333333336, "is_reserved": 0, "fusion_lat": 0.0}, {"bike_id": "7a65d08a2938d7c5dd1671a86174922e", "fusion_lon": 0.0, "lon": -76.97340533333333, "name": "7a65d08a2938d7c5dd1671a86174922e", "is_disabled": 0, "rental_uris": {"android": "https://dc.lft.to/lastmile_qr_scan", "ios": "https://dc.lft.to/lastmile_qr_scan"}, "type": "electric_scooter", "lat": 38.86516916666667, "is_reserved": 0, "fusion_lat": 0.0}, {"bike_id": "f7276e5af6c3575563902bec67558535", "fusion_lon": 0.0, "lon": -77.02386066666666, "name": "f7276e5af6c3575563902bec67558535", "is_disabled": 0, "rental_uris": {"android": "https://dc.lft.to/lastmile_qr_scan", "ios": "https://dc.lft.to/lastmile_qr_scan"}, "type": "electric_bike", "lat": 38.92912033333333, "is_reserved": 0, "fusion_lat": 0.0}, {"bike_id": "25f2e3934f8826eb8b807853456f468c", "fusion_lon": 0.0, "lon": -77.02821866666666, "name": "25f2e3934f8826eb8b807853456f468c", "is_disabled": 0, "rental_uris": {"android": "https://dc.lft.to/lastmile_qr_scan", "ios": "https://dc.lft.to/lastmile_qr_scan"}, "type": "electric_scooter", "lat": 38.92066833333333, "is_reserved": 0, "fusion_lat": 0.0}, {"bike_id": "deb92573dd688a7d7797ae098bfc52ac", "fusion_lon": 0.0, "lon": -77.03426466666667, "name": "deb92573dd688a7d7797ae098bfc52ac", "is_disabled": 0, "rental_uris": {"android": "https://dc.lft.to/lastmile_qr_scan", "ios": "https://dc.lft.to/lastmile_qr_scan"}, "type": "electric_scooter", "lat": 38.9192375, "is_reserved": 0, "fusion_lat": 0.0}, {"bike_id": "4aa0d812bad6fd9a16183dd8f7d7c6b9", "fusion_lon": 0.0, "lon": -77.0262095, "name": "4aa0d812bad6fd9a16183dd8f7d7c6b9", "is_disabled": 0, "rental_uris": {"android": "https://dc.lft.to/lastmile_qr_scan", "ios": "https://dc.lft.to/lastmile_qr_scan"}, "type": "electric_bike", "lat": 38.96930416666667, "is_reserved": 0, "fusion_lat": 0.0}, {"bike_id": "c8cbd7d8938d609666227b789cd8f712", "fusion_lon": 0.0, "lon": -77.01985916666666, "name": "c8cbd7d8938d609666227b789cd8f712", "is_disabled": 0, "rental_uris": {"android": "https://dc.lft.to/lastmile_qr_scan", "ios": "https://dc.lft.to/lastmile_qr_scan"}, "type": "electric_scooter", "lat": 38.9312355, "is_reserved": 0, "fusion_lat": 0.0}, {"bike_id": "0008f806dafa483255431c87165f390a", "fusion_lon": 0.0, "lon": -76.96527083333334, "name": "0008f806dafa483255431c87165f390a", "is_disabled": 0, "rental_uris": {"android": "https://dc.lft.to/lastmile_qr_scan", "ios": "https://dc.lft.to/lastmile_qr_scan"}, "type": "electric_scooter", "lat": 38.87630033333333, "is_reserved": 0, "fusion_lat": 0.0}, {"bike_id": "661186a25bb55f39a4e435cf62ee9c71", "fusion_lon": 0.0, "lon": -77.04361466666667, "name": "661186a25bb55f39a4e435cf62ee9c71", "is_disabled": 0, "rental_uris": {"android": "https://dc.lft.to/lastmile_qr_scan", "ios": "https://dc.lft.to/lastmile_qr_scan"}, "type": "electric_scooter", "lat": 38.907195333333334, "is_reserved": 0, "fusion_lat": 0.0}, {"bike_id": "fd095a797bf0bc1e5f1e19726f432f0b", "fusion_lon": 0.0, "lon": -77.04276866666666, "name": "fd095a797bf0bc1e5f1e19726f432f0b", "is_disabled": 0, "rental_uris": {"android": "https://dc.lft.to/lastmile_qr_scan", "ios": "https://dc.lft.to/lastmile_qr_scan"}, "type": "electric_scooter", "lat": 38.90849583333333, "is_reserved": 0, "fusion_lat": 0.0}, {"bike_id": "5c7e0dc36474f10ba0be1f08d2195da5", "fusion_lon": 0.0, "lon": -77.0353135, "name": "5c7e0dc36474f10ba0be1f08d2195da5", "is_disabled": 0, "rental_uris": {"android": "https://dc.lft.to/lastmile_qr_scan", "ios": "https://dc.lft.to/lastmile_qr_scan"}, "type": "electric_scooter", "lat": 38.9169175, "is_reserved": 0, "fusion_lat": 0.0}, {"bike_id": "823110d82e7030328a9930182b79767a", "fusion_lon": 0.0, "lon": -76.96527616666667, "name": "823110d82e7030328a9930182b79767a", "is_disabled": 0, "rental_uris": {"android": "https://dc.lft.to/lastmile_qr_scan", "ios": "https://dc.lft.to/lastmile_qr_scan"}, "type": "electric_scooter", "lat": 38.87631833333333, "is_reserved": 0, "fusion_lat": 0.0}, {"bike_id": "714d1b7fd857bac4671906d31f345291", "fusion_lon": 0.0, "lon": -77.03841683333333, "name": "714d1b7fd857bac4671906d31f345291", "is_disabled": 0, "rental_uris": {"android": "https://dc.lft.to/lastmile_qr_scan", "ios": "https://dc.lft.to/lastmile_qr_scan"}, "type": "electric_scooter", "lat": 38.9109375, "is_reserved": 0, "fusion_lat": 0.0}, {"bike_id": "c7bbaf7d28b22c23493ce1571cce66b2", "fusion_lon": 0.0, "lon": -77.0306285, "name": "c7bbaf7d28b22c23493ce1571cce66b2", "is_disabled": 0, "rental_uris": {"android": "https://dc.lft.to/lastmile_qr_scan", "ios": "https://dc.lft.to/lastmile_qr_scan"}, "type": "electric_bike", "lat": 38.95952116666667, "is_reserved": 0, "fusion_lat": 0.0}, {"bike_id": "b379e737a51ac855f6ac8ae1d6647900", "fusion_lon": 0.0, "lon": -77.034259, "name": "b379e737a51ac855f6ac8ae1d6647900", "is_disabled": 0, "rental_uris": {"android": "https://dc.lft.to/lastmile_qr_scan", "ios": "https://dc.lft.to/lastmile_qr_scan"}, "type": "electric_bike", "lat": 38.96622766666667, "is_reserved": 0, "fusion_lat": 0.0}, {"bike_id": "11224e4fbc018a0c3d3af5cc39640368", "fusion_lon": 0.0, "lon": -77.02202933333334, "name": "11224e4fbc018a0c3d3af5cc39640368", "is_disabled": 0, "rental_uris": {"android": "https://dc.lft.to/lastmile_qr_scan", "ios": "https://dc.lft.to/lastmile_qr_scan"}, "type": "electric_scooter", "lat": 38.911011, "is_reserved": 0, "fusion_lat": 0.0}, {"bike_id": "66e04a780e66518562e42127a7bbc5f0", "fusion_lon": 0.0, "lon": -77.03097216666667, "name": "66e04a780e66518562e42127a7bbc5f0", "is_disabled": 0, "rental_uris": {"android": "https://dc.lft.to/lastmile_qr_scan", "ios": "https://dc.lft.to/lastmile_qr_scan"}, "type": "electric_scooter", "lat": 38.907168, "is_reserved": 0, "fusion_lat": 0.0}, {"bike_id": "4eafcc4c9e1dd68e914c03d2637f6df0", "fusion_lon": 0.0, "lon": -77.02962166666667, "name": "4eafcc4c9e1dd68e914c03d2637f6df0", "is_disabled": 0, "rental_uris": {"android": "https://dc.lft.to/lastmile_qr_scan", "ios": "https://dc.lft.to/lastmile_qr_scan"}, "type": "electric_bike", "lat": 38.95053466666667, "is_reserved": 0, "fusion_lat": 0.0}, {"bike_id": "2cd3cbf34b7728f85ade90a0bd6e0f4c", "fusion_lon": 0.0, "lon": -77.03263883333334, "name": "2cd3cbf34b7728f85ade90a0bd6e0f4c", "is_disabled": 0, "rental_uris": {"android": "https://dc.lft.to/lastmile_qr_scan", "ios": "https://dc.lft.to/lastmile_qr_scan"}, "type": "electric_scooter", "lat": 38.9140835, "is_reserved": 0, "fusion_lat": 0.0}, {"bike_id": "ce59a35d1b0117ac7ed2bb20e7c1bb00", "fusion_lon": 0.0, "lon": -77.027134, "name": "ce59a35d1b0117ac7ed2bb20e7c1bb00", "is_disabled": 0, "rental_uris": {"android": "https://dc.lft.to/lastmile_qr_scan", "ios": "https://dc.lft.to/lastmile_qr_scan"}, "type": "electric_scooter", "lat": 38.9206385, "is_reserved": 0, "fusion_lat": 0.0}, {"bike_id": "1698286dd16a2efdf51a8577812ea1dd", "fusion_lon": 0.0, "lon": -77.03354583333333, "name": "1698286dd16a2efdf51a8577812ea1dd", "is_disabled": 0, "rental_uris": {"android": "https://dc.lft.to/lastmile_qr_scan", "ios": "https://dc.lft.to/lastmile_qr_scan"}, "type": "electric_scooter", "lat": 38.93154466666667, "is_reserved": 0, "fusion_lat": 0.0}, {"bike_id": "3a93b12befdf5099a5c2968b846cfce0", "fusion_lon": 0.0, "lon": -77.01355083333333, "name": "3a93b12befdf5099a5c2968b846cfce0", "is_disabled": 0, "rental_uris": {"android": "https://dc.lft.to/lastmile_qr_scan", "ios": "https://dc.lft.to/lastmile_qr_scan"}, "type": "electric_scooter", "lat": 38.91963533333333, "is_reserved": 0, "fusion_lat": 0.0}, {"bike_id": "e01bbfacca8fb6b0b7a9cc2a5ca888a9", "fusion_lon": 0.0, "lon": -77.04590166666667, "name": "e01bbfacca8fb6b0b7a9cc2a5ca888a9", "is_disabled": 0, "rental_uris": {"android": "https://dc.lft.to/lastmile_qr_scan", "ios": "https://dc.lft.to/lastmile_qr_scan"}, "type": "electric_scooter", "lat": 38.90867683333333, "is_reserved": 0, "fusion_lat": 0.0}, {"bike_id": "24c5d901e1cc2d0d7881060c6142f1e0", "fusion_lon": 0.0, "lon": -77.03595583333333, "name": "24c5d901e1cc2d0d7881060c6142f1e0", "is_disabled": 0, "rental_uris": {"android": "https://dc.lft.to/lastmile_qr_scan", "ios": "https://dc.lft.to/lastmile_qr_scan"}, "type": "electric_scooter", "lat": 38.93679616666667, "is_reserved": 0, "fusion_lat": 0.0}, {"bike_id": "ae47a7674a2e743ac0b4f088da15b9c4", "fusion_lon": 0.0, "lon": -77.0131125, "name": "ae47a7674a2e743ac0b4f088da15b9c4", "is_disabled": 0, "rental_uris": {"android": "https://dc.lft.to/lastmile_qr_scan", "ios": "https://dc.lft.to/lastmile_qr_scan"}, "type": "electric_scooter", "lat": 38.914141666666666, "is_reserved": 0, "fusion_lat": 0.0}, {"bike_id": "7c51f37e7229c1df0b8a32c9ba89e871", "fusion_lon": 0.0, "lon": -76.97189633333333, "name": "7c51f37e7229c1df0b8a32c9ba89e871", "is_disabled": 0, "rental_uris": {"android": "https://dc.lft.to/lastmile_qr_scan", "ios": "https://dc.lft.to/lastmile_qr_scan"}, "type": "electric_bike", "lat": 38.93320533333333, "is_reserved": 0, "fusion_lat": 0.0}, {"bike_id": "7ac23e8fdaa548064eb359ac12c6e65d", "fusion_lon": 0.0, "lon": -77.04350116666667, "name": "7ac23e8fdaa548064eb359ac12c6e65d", "is_disabled": 0, "rental_uris": {"android": "https://dc.lft.to/lastmile_qr_scan", "ios": "https://dc.lft.to/lastmile_qr_scan"}, "type": "electric_scooter", "lat": 38.913025166666664, "is_reserved": 0, "fusion_lat": 0.0}, {"bike_id": "1c6d9c8b3e93e63de49606044ad013ba", "fusion_lon": 0.0, "lon": -77.02967116666666, "name": "1c6d9c8b3e93e63de49606044ad013ba", "is_disabled": 0, "rental_uris": {"android": "https://dc.lft.to/lastmile_qr_scan", "ios": "https://dc.lft.to/lastmile_qr_scan"}, "type": "electric_scooter", "lat": 38.93193433333333, "is_reserved": 0, "fusion_lat": 0.0}, {"bike_id": "04bc851bd32a1245130a4fcbd34b4f53", "fusion_lon": 0.0, "lon": -77.05063233333334, "name": "04bc851bd32a1245130a4fcbd34b4f53", "is_disabled": 0, "rental_uris": {"android": "https://dc.lft.to/lastmile_qr_scan", "ios": "https://dc.lft.to/lastmile_qr_scan"}, "type": "electric_scooter", "lat": 38.923435, "is_reserved": 0, "fusion_lat": 0.0}, {"bike_id": "e10878ac3993114f90697ee82edf7288", "fusion_lon": 0.0, "lon": -76.97593683333334, "name": "e10878ac3993114f90697ee82edf7288", "is_disabled": 0, "rental_uris": {"android": "https://dc.lft.to/lastmile_qr_scan", "ios": "https://dc.lft.to/lastmile_qr_scan"}, "type": "electric_scooter", "lat": 38.90333416666667, "is_reserved": 0, "fusion_lat": 0.0}, {"bike_id": "9d4324e456ee2069e2d26e866ba28675", "fusion_lon": 0.0, "lon": -77.00348666666666, "name": "9d4324e456ee2069e2d26e866ba28675", "is_disabled": 0, "rental_uris": {"android": "https://dc.lft.to/lastmile_qr_scan", "ios": "https://dc.lft.to/lastmile_qr_scan"}, "type": "electric_scooter", "lat": 38.88996133333333, "is_reserved": 0, "fusion_lat": 0.0}, {"bike_id": "5efd2b7aa6f81acb191f00dc884a16d0", "fusion_lon": 0.0, "lon": -77.078231, "name": "5efd2b7aa6f81acb191f00dc884a16d0", "is_disabled": 0, "rental_uris": {"android": "https://dc.lft.to/lastmile_qr_scan", "ios": "https://dc.lft.to/lastmile_qr_scan"}, "type": "electric_scooter", "lat": 38.9127465, "is_reserved": 0, "fusion_lat": 0.0}, {"bike_id": "c8adae5e635c6a18fd375520ea2e7d6b", "fusion_lon": 0.0, "lon": -77.02709083333333, "name": "c8adae5e635c6a18fd375520ea2e7d6b", "is_disabled": 0, "rental_uris": {"android": "https://dc.lft.to/lastmile_qr_scan", "ios": "https://dc.lft.to/lastmile_qr_scan"}, "type": "electric_scooter", "lat": 38.906728666666666, "is_reserved": 0, "fusion_lat": 0.0}, {"bike_id": "d6a122550ebb8e866430bd67a955b501", "fusion_lon": 0.0, "lon": -76.99611966666667, "name": "d6a122550ebb8e866430bd67a955b501", "is_disabled": 0, "rental_uris": {"android": "https://dc.lft.to/lastmile_qr_scan", "ios": "https://dc.lft.to/lastmile_qr_scan"}, "type": "electric_scooter", "lat": 38.90367366666667, "is_reserved": 0, "fusion_lat": 0.0}, {"bike_id": "d1c5971fa7895763bec8b940a400dfc9", "fusion_lon": 0.0, "lon": -77.03253666666667, "name": "d1c5971fa7895763bec8b940a400dfc9", "is_disabled": 0, "rental_uris": {"android": "https://dc.lft.to/lastmile_qr_scan", "ios": "https://dc.lft.to/lastmile_qr_scan"}, "type": "electric_scooter", "lat": 38.92859966666666, "is_reserved": 0, "fusion_lat": 0.0}, {"bike_id": "69d834feff478832aedcc202dfc3d5c6", "fusion_lon": 0.0, "lon": -77.025995, "name": "69d834feff478832aedcc202dfc3d5c6", "is_disabled": 0, "rental_uris": {"android": "https://dc.lft.to/lastmile_qr_scan", "ios": "https://dc.lft.to/lastmile_qr_scan"}, "type": "electric_scooter", "lat": 38.905068, "is_reserved": 0, "fusion_lat": 0.0}, {"bike_id": "ad12a2bfc835e1df2e3cfb06f4e109ea", "fusion_lon": 0.0, "lon": -77.0480415, "name": "ad12a2bfc835e1df2e3cfb06f4e109ea", "is_disabled": 0, "rental_uris": {"android": "https://dc.lft.to/lastmile_qr_scan", "ios": "https://dc.lft.to/lastmile_qr_scan"}, "type": "electric_scooter", "lat": 38.892247, "is_reserved": 0, "fusion_lat": 0.0}, {"bike_id": "75bbe34e2915b5e46e33c05beb3266d3", "fusion_lon": 0.0, "lon": -77.02562583333334, "name": "75bbe34e2915b5e46e33c05beb3266d3", "is_disabled": 0, "rental_uris": {"android": "https://dc.lft.to/lastmile_qr_scan", "ios": "https://dc.lft.to/lastmile_qr_scan"}, "type": "electric_scooter", "lat": 38.9253495, "is_reserved": 0, "fusion_lat": 0.0}, {"bike_id": "e52411db67bb3386f3fa9b9cfe43590e", "fusion_lon": 0.0, "lon": -77.02691133333333, "name": "e52411db67bb3386f3fa9b9cfe43590e", "is_disabled": 0, "rental_uris": {"android": "https://dc.lft.to/lastmile_qr_scan", "ios": "https://dc.lft.to/lastmile_qr_scan"}, "type": "electric_scooter", "lat": 38.924030333333334, "is_reserved": 0, "fusion_lat": 0.0}, {"bike_id": "fe666fea4bcba960fccafe5c62f85a01", "fusion_lon": 0.0, "lon": -77.01848016666666, "name": "fe666fea4bcba960fccafe5c62f85a01", "is_disabled": 0, "rental_uris": {"android": "https://dc.lft.to/lastmile_qr_scan", "ios": "https://dc.lft.to/lastmile_qr_scan"}, "type": "electric_scooter", "lat": 38.91528533333333, "is_reserved": 0, "fusion_lat": 0.0}, {"bike_id": "eedb6d71137b80c86171f7c39ce2423e", "fusion_lon": 0.0, "lon": -76.98615733333334, "name": "eedb6d71137b80c86171f7c39ce2423e", "is_disabled": 0, "rental_uris": {"android": "https://dc.lft.to/lastmile_qr_scan", "ios": "https://dc.lft.to/lastmile_qr_scan"}, "type": "electric_scooter", "lat": 38.93824216666667, "is_reserved": 0, "fusion_lat": 0.0}, {"bike_id": "5890307f1b4c7046aeef3c8f836f9a59", "fusion_lon": 0.0, "lon": -77.01225016666666, "name": "5890307f1b4c7046aeef3c8f836f9a59", "is_disabled": 0, "rental_uris": {"android": "https://dc.lft.to/lastmile_qr_scan", "ios": "https://dc.lft.to/lastmile_qr_scan"}, "type": "electric_scooter", "lat": 38.9154825, "is_reserved": 0, "fusion_lat": 0.0}, {"bike_id": "c492fed22e33ebd2ad8d72b222207cee", "fusion_lon": 0.0, "lon": -77.02720933333333, "name": "c492fed22e33ebd2ad8d72b222207cee", "is_disabled": 0, "rental_uris": {"android": "https://dc.lft.to/lastmile_qr_scan", "ios": "https://dc.lft.to/lastmile_qr_scan"}, "type": "electric_scooter", "lat": 38.94957483333334, "is_reserved": 0, "fusion_lat": 0.0}, {"bike_id": "280f1e02f60d0f7d78dac30bba6fbfd9", "fusion_lon": 0.0, "lon": -76.93615183333333, "name": "280f1e02f60d0f7d78dac30bba6fbfd9", "is_disabled": 0, "rental_uris": {"android": "https://dc.lft.to/lastmile_qr_scan", "ios": "https://dc.lft.to/lastmile_qr_scan"}, "type": "electric_scooter", "lat": 38.886729, "is_reserved": 0, "fusion_lat": 0.0}, {"bike_id": "5a057e53780659a0929bb3b74ff74ade", "fusion_lon": 0.0, "lon": -76.997754, "name": "5a057e53780659a0929bb3b74ff74ade", "is_disabled": 0, "rental_uris": {"android": "https://dc.lft.to/lastmile_qr_scan", "ios": "https://dc.lft.to/lastmile_qr_scan"}, "type": "electric_scooter", "lat": 38.909137, "is_reserved": 0, "fusion_lat": 0.0}, {"bike_id": "1fe248cc5cd373e020a8d7964784ff35", "fusion_lon": 0.0, "lon": -77.02516233333333, "name": "1fe248cc5cd373e020a8d7964784ff35", "is_disabled": 0, "rental_uris": {"android": "https://dc.lft.to/lastmile_qr_scan", "ios": "https://dc.lft.to/lastmile_qr_scan"}, "type": "electric_scooter", "lat": 38.915662166666664, "is_reserved": 0, "fusion_lat": 0.0}, {"bike_id": "c64e113fcf4ded9ab396a442f586d9df", "fusion_lon": 0.0, "lon": -77.01220683333334, "name": "c64e113fcf4ded9ab396a442f586d9df", "is_disabled": 0, "rental_uris": {"android": "https://dc.lft.to/lastmile_qr_scan", "ios": "https://dc.lft.to/lastmile_qr_scan"}, "type": "electric_scooter", "lat": 38.915326666666665, "is_reserved": 0, "fusion_lat": 0.0}, {"bike_id": "66f4554d253f7b2446f04b85664cefe3", "fusion_lon": 0.0, "lon": -77.01668283333333, "name": "66f4554d253f7b2446f04b85664cefe3", "is_disabled": 0, "rental_uris": {"android": "https://dc.lft.to/lastmile_qr_scan", "ios": "https://dc.lft.to/lastmile_qr_scan"}, "type": "electric_scooter", "lat": 38.881213333333335, "is_reserved": 0, "fusion_lat": 0.0}, {"bike_id": "65da6c092dec9250bd142c692756218c", "fusion_lon": 0.0, "lon": -77.02304516666666, "name": "65da6c092dec9250bd142c692756218c", "is_disabled": 0, "rental_uris": {"android": "https://dc.lft.to/lastmile_qr_scan", "ios": "https://dc.lft.to/lastmile_qr_scan"}, "type": "electric_scooter", "lat": 38.9277465, "is_reserved": 0, "fusion_lat": 0.0}, {"bike_id": "dfa6b261c5fdb60f63d1cb8813a94d3e", "fusion_lon": 0.0, "lon": -77.03790116666667, "name": "dfa6b261c5fdb60f63d1cb8813a94d3e", "is_disabled": 0, "rental_uris": {"android": "https://dc.lft.to/lastmile_qr_scan", "ios": "https://dc.lft.to/lastmile_qr_scan"}, "type": "electric_scooter", "lat": 38.92500116666667, "is_reserved": 0, "fusion_lat": 0.0}, {"bike_id": "83938542c0dcbc0d314ab8668c0cb3b6", "fusion_lon": 0.0, "lon": -77.03585833333334, "name": "83938542c0dcbc0d314ab8668c0cb3b6", "is_disabled": 0, "rental_uris": {"android": "https://dc.lft.to/lastmile_qr_scan", "ios": "https://dc.lft.to/lastmile_qr_scan"}, "type": "electric_scooter", "lat": 38.928089666666665, "is_reserved": 0, "fusion_lat": 0.0}, {"bike_id": "fe8d93d78fcfe5c64b7a336b5721ca2b", "fusion_lon": 0.0, "lon": -77.0488265, "name": "fe8d93d78fcfe5c64b7a336b5721ca2b", "is_disabled": 0, "rental_uris": {"android": "https://dc.lft.to/lastmile_qr_scan", "ios": "https://dc.lft.to/lastmile_qr_scan"}, "type": "electric_scooter", "lat": 38.90072816666667, "is_reserved": 0, "fusion_lat": 0.0}, {"bike_id": "efea19656b41a46176013ffd750b130e", "fusion_lon": 0.0, "lon": -77.02720033333334, "name": "efea19656b41a46176013ffd750b130e", "is_disabled": 0, "rental_uris": {"android": "https://dc.lft.to/lastmile_qr_scan", "ios": "https://dc.lft.to/lastmile_qr_scan"}, "type": "electric_scooter", "lat": 38.94089566666667, "is_reserved": 0, "fusion_lat": 0.0}, {"bike_id": "41f582d0145d50cf9fd517977966bc06", "fusion_lon": 0.0, "lon": -77.03542716666666, "name": "41f582d0145d50cf9fd517977966bc06", "is_disabled": 0, "rental_uris": {"android": "https://dc.lft.to/lastmile_qr_scan", "ios": "https://dc.lft.to/lastmile_qr_scan"}, "type": "electric_scooter", "lat": 38.9247875, "is_reserved": 0, "fusion_lat": 0.0}, {"bike_id": "d9ff75a3eeabdd4fccb38301d8b820cd", "fusion_lon": 0.0, "lon": -77.00219533333333, "name": "d9ff75a3eeabdd4fccb38301d8b820cd", "is_disabled": 0, "rental_uris": {"android": "https://dc.lft.to/lastmile_qr_scan", "ios": "https://dc.lft.to/lastmile_qr_scan"}, "type": "electric_scooter", "lat": 38.9078665, "is_reserved": 0, "fusion_lat": 0.0}, {"bike_id": "4dfcab3a2a5da36f87b07c575cd430e1", "fusion_lon": 0.0, "lon": -77.02435866666667, "name": "4dfcab3a2a5da36f87b07c575cd430e1", "is_disabled": 0, "rental_uris": {"android": "https://dc.lft.to/lastmile_qr_scan", "ios": "https://dc.lft.to/lastmile_qr_scan"}, "type": "electric_bike", "lat": 38.94831216666667, "is_reserved": 0, "fusion_lat": 0.0}, {"bike_id": "e9659fa6c760b5cc85a6798fe2f5b414", "fusion_lon": 0.0, "lon": -77.032781, "name": "e9659fa6c760b5cc85a6798fe2f5b414", "is_disabled": 0, "rental_uris": {"android": "https://dc.lft.to/lastmile_qr_scan", "ios": "https://dc.lft.to/lastmile_qr_scan"}, "type": "electric_scooter", "lat": 38.916238666666665, "is_reserved": 0, "fusion_lat": 0.0}, {"bike_id": "e68e153676967e7b6b54c88eb02ef4d2", "fusion_lon": 0.0, "lon": -77.037948, "name": "e68e153676967e7b6b54c88eb02ef4d2", "is_disabled": 0, "rental_uris": {"android": "https://dc.lft.to/lastmile_qr_scan", "ios": "https://dc.lft.to/lastmile_qr_scan"}, "type": "electric_scooter", "lat": 38.92507033333333, "is_reserved": 0, "fusion_lat": 0.0}, {"bike_id": "52da8929f05894b9c8fd9b8f3ed738b0", "fusion_lon": 0.0, "lon": -77.03476533333334, "name": "52da8929f05894b9c8fd9b8f3ed738b0", "is_disabled": 0, "rental_uris": {"android": "https://dc.lft.to/lastmile_qr_scan", "ios": "https://dc.lft.to/lastmile_qr_scan"}, "type": "electric_bike", "lat": 38.93534566666666, "is_reserved": 0, "fusion_lat": 0.0}, {"bike_id": "589fb09be3c1f4ccdd294d47539164e4", "fusion_lon": 0.0, "lon": -76.99433033333334, "name": "589fb09be3c1f4ccdd294d47539164e4", "is_disabled": 0, "rental_uris": {"android": "https://dc.lft.to/lastmile_qr_scan", "ios": "https://dc.lft.to/lastmile_qr_scan"}, "type": "electric_scooter", "lat": 38.90319, "is_reserved": 0, "fusion_lat": 0.0}, {"bike_id": "98c1168989a843d47a2b323752fa1317", "fusion_lon": 0.0, "lon": -77.029872, "name": "98c1168989a843d47a2b323752fa1317", "is_disabled": 0, "rental_uris": {"android": "https://dc.lft.to/lastmile_qr_scan", "ios": "https://dc.lft.to/lastmile_qr_scan"}, "type": "electric_scooter", "lat": 38.884106, "is_reserved": 0, "fusion_lat": 0.0}, {"bike_id": "7e91056062335069602902a41ab92047", "fusion_lon": 0.0, "lon": -77.1009365, "name": "7e91056062335069602902a41ab92047", "is_disabled": 0, "rental_uris": {"android": "https://dc.lft.to/lastmile_qr_scan", "ios": "https://dc.lft.to/lastmile_qr_scan"}, "type": "electric_bike", "lat": 38.95962333333333, "is_reserved": 0, "fusion_lat": 0.0}, {"bike_id": "23836f4b0d0ce9d738dca6505dac04ef", "fusion_lon": 0.0, "lon": -77.03189483333334, "name": "23836f4b0d0ce9d738dca6505dac04ef", "is_disabled": 0, "rental_uris": {"android": "https://dc.lft.to/lastmile_qr_scan", "ios": "https://dc.lft.to/lastmile_qr_scan"}, "type": "electric_scooter", "lat": 38.91474266666667, "is_reserved": 0, "fusion_lat": 0.0}, {"bike_id": "48a43d5b13f3129359069e80e3b03638", "fusion_lon": 0.0, "lon": -77.075991, "name": "48a43d5b13f3129359069e80e3b03638", "is_disabled": 0, "rental_uris": {"android": "https://dc.lft.to/lastmile_qr_scan", "ios": "https://dc.lft.to/lastmile_qr_scan"}, "type": "electric_scooter", "lat": 38.9121795, "is_reserved": 0, "fusion_lat": 0.0}, {"bike_id": "6fa277571fbb01495da8b2e988b4cf8c", "fusion_lon": 0.0, "lon": -77.00350983333334, "name": "6fa277571fbb01495da8b2e988b4cf8c", "is_disabled": 0, "rental_uris": {"android": "https://dc.lft.to/lastmile_qr_scan", "ios": "https://dc.lft.to/lastmile_qr_scan"}, "type": "electric_scooter", "lat": 38.90145033333334, "is_reserved": 0, "fusion_lat": 0.0}, {"bike_id": "6ebaeece4b246d4e4ed697262471fca8", "fusion_lon": 0.0, "lon": -76.98009866666666, "name": "6ebaeece4b246d4e4ed697262471fca8", "is_disabled": 0, "rental_uris": {"android": "https://dc.lft.to/lastmile_qr_scan", "ios": "https://dc.lft.to/lastmile_qr_scan"}, "type": "electric_scooter", "lat": 38.907788, "is_reserved": 0, "fusion_lat": 0.0}, {"bike_id": "1acadb7e3f98922db1613fe82d8425be", "fusion_lon": 0.0, "lon": -77.24444933333334, "name": "1acadb7e3f98922db1613fe82d8425be", "is_disabled": 0, "rental_uris": {"android": "https://dc.lft.to/lastmile_qr_scan", "ios": "https://dc.lft.to/lastmile_qr_scan"}, "type": "electric_bike", "lat": 38.8819335, "is_reserved": 0, "fusion_lat": 0.0}, {"bike_id": "1d1c25e0e48370050a1aa6f333d86f80", "fusion_lon": 0.0, "lon": -77.0432675, "name": "1d1c25e0e48370050a1aa6f333d86f80", "is_disabled": 0, "rental_uris": {"android": "https://dc.lft.to/lastmile_qr_scan", "ios": "https://dc.lft.to/lastmile_qr_scan"}, "type": "electric_scooter", "lat": 38.89226133333333, "is_reserved": 0, "fusion_lat": 0.0}, {"bike_id": "86353edb0bf18d45fe3bc69f8100cf97", "fusion_lon": 0.0, "lon": -77.02171183333333, "name": "86353edb0bf18d45fe3bc69f8100cf97", "is_disabled": 0, "rental_uris": {"android": "https://dc.lft.to/lastmile_qr_scan", "ios": "https://dc.lft.to/lastmile_qr_scan"}, "type": "electric_scooter", "lat": 38.883227, "is_reserved": 0, "fusion_lat": 0.0}, {"bike_id": "9ef39dda8bb454da3c29247133a83904", "fusion_lon": 0.0, "lon": -76.9375735, "name": "9ef39dda8bb454da3c29247133a83904", "is_disabled": 0, "rental_uris": {"android": "https://dc.lft.to/lastmile_qr_scan", "ios": "https://dc.lft.to/lastmile_qr_scan"}, "type": "electric_scooter", "lat": 38.8905475, "is_reserved": 0, "fusion_lat": 0.0}, {"bike_id": "406c269aba97ba66f19be5cc53755b36", "fusion_lon": 0.0, "lon": -76.97162683333333, "name": "406c269aba97ba66f19be5cc53755b36", "is_disabled": 0, "rental_uris": {"android": "https://dc.lft.to/lastmile_qr_scan", "ios": "https://dc.lft.to/lastmile_qr_scan"}, "type": "electric_bike", "lat": 38.916437333333334, "is_reserved": 0, "fusion_lat": 0.0}, {"bike_id": "2fa9046e718ac45ba4973ab338d39ec4", "fusion_lon": 0.0, "lon": -77.04327816666667, "name": "2fa9046e718ac45ba4973ab338d39ec4", "is_disabled": 0, "rental_uris": {"android": "https://dc.lft.to/lastmile_qr_scan", "ios": "https://dc.lft.to/lastmile_qr_scan"}, "type": "electric_scooter", "lat": 38.892249, "is_reserved": 0, "fusion_lat": 0.0}, {"bike_id": "740d5b88d96c7fc9efaa95f0815b4a6f", "fusion_lon": 0.0, "lon": -77.04709716666666, "name": "740d5b88d96c7fc9efaa95f0815b4a6f", "is_disabled": 0, "rental_uris": {"android": "https://dc.lft.to/lastmile_qr_scan", "ios": "https://dc.lft.to/lastmile_qr_scan"}, "type": "electric_scooter", "lat": 38.909611166666664, "is_reserved": 0, "fusion_lat": 0.0}, {"bike_id": "93b7881a176e8baf8c1344d1fe7b8759", "fusion_lon": 0.0, "lon": -77.23318683333333, "name": "93b7881a176e8baf8c1344d1fe7b8759", "is_disabled": 0, "rental_uris": {"android": "https://dc.lft.to/lastmile_qr_scan", "ios": "https://dc.lft.to/lastmile_qr_scan"}, "type": "electric_bike", "lat": 38.872890166666664, "is_reserved": 0, "fusion_lat": 0.0}, {"bike_id": "b3b4bdf84b7749707422889a02617715", "fusion_lon": 0.0, "lon": -77.0187575, "name": "b3b4bdf84b7749707422889a02617715", "is_disabled": 0, "rental_uris": {"android": "https://dc.lft.to/lastmile_qr_scan", "ios": "https://dc.lft.to/lastmile_qr_scan"}, "type": "electric_scooter", "lat": 38.90440616666667, "is_reserved": 0, "fusion_lat": 0.0}, {"bike_id": "0b58a312e9037e9e46607bd1bd29b73f", "fusion_lon": 0.0, "lon": -77.03221166666667, "name": "0b58a312e9037e9e46607bd1bd29b73f", "is_disabled": 0, "rental_uris": {"android": "https://dc.lft.to/lastmile_qr_scan", "ios": "https://dc.lft.to/lastmile_qr_scan"}, "type": "electric_scooter", "lat": 38.961705333333335, "is_reserved": 0, "fusion_lat": 0.0}, {"bike_id": "d2332c14a3caccd30f7543994ae3b740", "fusion_lon": 0.0, "lon": -77.02686383333334, "name": "d2332c14a3caccd30f7543994ae3b740", "is_disabled": 0, "rental_uris": {"android": "https://dc.lft.to/lastmile_qr_scan", "ios": "https://dc.lft.to/lastmile_qr_scan"}, "type": "electric_scooter", "lat": 38.912687166666664, "is_reserved": 0, "fusion_lat": 0.0}, {"bike_id": "b43291c31b994f113e454a587be1c3f3", "fusion_lon": 0.0, "lon": -77.017661, "name": "b43291c31b994f113e454a587be1c3f3", "is_disabled": 0, "rental_uris": {"android": "https://dc.lft.to/lastmile_qr_scan", "ios": "https://dc.lft.to/lastmile_qr_scan"}, "type": "electric_bike", "lat": 38.878751666666666, "is_reserved": 0, "fusion_lat": 0.0}, {"bike_id": "c4fc2e09261596b9a9c849daae24c662", "fusion_lon": 0.0, "lon": -77.02971016666666, "name": "c4fc2e09261596b9a9c849daae24c662", "is_disabled": 0, "rental_uris": {"android": "https://dc.lft.to/lastmile_qr_scan", "ios": "https://dc.lft.to/lastmile_qr_scan"}, "type": "electric_scooter", "lat": 38.9073075, "is_reserved": 0, "fusion_lat": 0.0}, {"bike_id": "c3c990d8627dbbd07a7d51d18f4ae259", "fusion_lon": 0.0, "lon": -77.12530516666666, "name": "c3c990d8627dbbd07a7d51d18f4ae259", "is_disabled": 0, "rental_uris": {"android": "https://dc.lft.to/lastmile_qr_scan", "ios": "https://dc.lft.to/lastmile_qr_scan"}, "type": "electric_bike", "lat": 39.056359666666665, "is_reserved": 0, "fusion_lat": 0.0}, {"bike_id": "cd56af7ce5a6b16d1d2f9fd0bdd7dc40", "fusion_lon": 0.0, "lon": -77.01782716666666, "name": "cd56af7ce5a6b16d1d2f9fd0bdd7dc40", "is_disabled": 0, "rental_uris": {"android": "https://dc.lft.to/lastmile_qr_scan", "ios": "https://dc.lft.to/lastmile_qr_scan"}, "type": "electric_scooter", "lat": 38.944190166666665, "is_reserved": 0, "fusion_lat": 0.0}, {"bike_id": "2cfa0ef1a4cf2d4d9e589d03dbfd6779", "fusion_lon": 0.0, "lon": -76.99510883333333, "name": "2cfa0ef1a4cf2d4d9e589d03dbfd6779", "is_disabled": 0, "rental_uris": {"android": "https://dc.lft.to/lastmile_qr_scan", "ios": "https://dc.lft.to/lastmile_qr_scan"}, "type": "electric_scooter", "lat": 38.899047833333334, "is_reserved": 0, "fusion_lat": 0.0}, {"bike_id": "166fde70fb758223004d0fef70d32748", "fusion_lon": 0.0, "lon": -76.946364, "name": "166fde70fb758223004d0fef70d32748", "is_disabled": 0, "rental_uris": {"android": "https://dc.lft.to/lastmile_qr_scan", "ios": "https://dc.lft.to/lastmile_qr_scan"}, "type": "electric_scooter", "lat": 38.898453333333336, "is_reserved": 0, "fusion_lat": 0.0}, {"bike_id": "fb3e6fc3696f75e687046510908e8f3a", "fusion_lon": 0.0, "lon": -76.99731033333333, "name": "fb3e6fc3696f75e687046510908e8f3a", "is_disabled": 0, "rental_uris": {"android": "https://dc.lft.to/lastmile_qr_scan", "ios": "https://dc.lft.to/lastmile_qr_scan"}, "type": "electric_scooter", "lat": 38.90795, "is_reserved": 0, "fusion_lat": 0.0}, {"bike_id": "ba33dfd7e396719e03f00d150b2fd294", "fusion_lon": 0.0, "lon": -77.02992533333334, "name": "ba33dfd7e396719e03f00d150b2fd294", "is_disabled": 0, "rental_uris": {"android": "https://dc.lft.to/lastmile_qr_scan", "ios": "https://dc.lft.to/lastmile_qr_scan"}, "type": "electric_scooter", "lat": 38.93866966666667, "is_reserved": 0, "fusion_lat": 0.0}, {"bike_id": "e6bd5559215b6d9cad6cf234ae64a817", "fusion_lon": 0.0, "lon": -77.0208485, "name": "e6bd5559215b6d9cad6cf234ae64a817", "is_disabled": 0, "rental_uris": {"android": "https://dc.lft.to/lastmile_qr_scan", "ios": "https://dc.lft.to/lastmile_qr_scan"}, "type": "electric_scooter", "lat": 38.9271605, "is_reserved": 0, "fusion_lat": 0.0}, {"bike_id": "96586708ca16685d399927978fb7d8bd", "fusion_lon": 0.0, "lon": -77.03297233333333, "name": "96586708ca16685d399927978fb7d8bd", "is_disabled": 0, "rental_uris": {"android": "https://dc.lft.to/lastmile_qr_scan", "ios": "https://dc.lft.to/lastmile_qr_scan"}, "type": "electric_scooter", "lat": 38.93444366666667, "is_reserved": 0, "fusion_lat": 0.0}, {"bike_id": "8fae5bd38a4a9fe48a191d1fbd394527", "fusion_lon": 0.0, "lon": -77.02370266666667, "name": "8fae5bd38a4a9fe48a191d1fbd394527", "is_disabled": 0, "rental_uris": {"android": "https://dc.lft.to/lastmile_qr_scan", "ios": "https://dc.lft.to/lastmile_qr_scan"}, "type": "electric_scooter", "lat": 38.90191216666667, "is_reserved": 0, "fusion_lat": 0.0}, {"bike_id": "208dccb952a03d7725d9d0c3dd1c23c5", "fusion_lon": 0.0, "lon": -76.9849115, "name": "208dccb952a03d7725d9d0c3dd1c23c5", "is_disabled": 0, "rental_uris": {"android": "https://dc.lft.to/lastmile_qr_scan", "ios": "https://dc.lft.to/lastmile_qr_scan"}, "type": "electric_scooter", "lat": 38.86682533333333, "is_reserved": 0, "fusion_lat": 0.0}, {"bike_id": "699b2ef137ddcd1db0fb94e77ca4435e", "fusion_lon": 0.0, "lon": -77.03870933333333, "name": "699b2ef137ddcd1db0fb94e77ca4435e", "is_disabled": 0, "rental_uris": {"android": "https://dc.lft.to/lastmile_qr_scan", "ios": "https://dc.lft.to/lastmile_qr_scan"}, "type": "electric_scooter", "lat": 38.92154433333333, "is_reserved": 0, "fusion_lat": 0.0}, {"bike_id": "7442c8bb27d2920ac8d86f3293d3effd", "fusion_lon": 0.0, "lon": -77.034628, "name": "7442c8bb27d2920ac8d86f3293d3effd", "is_disabled": 0, "rental_uris": {"android": "https://dc.lft.to/lastmile_qr_scan", "ios": "https://dc.lft.to/lastmile_qr_scan"}, "type": "electric_scooter", "lat": 38.902633333333334, "is_reserved": 0, "fusion_lat": 0.0}, {"bike_id": "6cb757f990ac6703c8f80e7ff26016fa", "fusion_lon": 0.0, "lon": -77.00598, "name": "6cb757f990ac6703c8f80e7ff26016fa", "is_disabled": 0, "rental_uris": {"android": "https://dc.lft.to/lastmile_qr_scan", "ios": "https://dc.lft.to/lastmile_qr_scan"}, "type": "electric_scooter", "lat": 38.90561816666667, "is_reserved": 0, "fusion_lat": 0.0}, {"bike_id": "67f8641ecba9f8a7f76b1307f2cc5c5d", "fusion_lon": 0.0, "lon": -77.0252375, "name": "67f8641ecba9f8a7f76b1307f2cc5c5d", "is_disabled": 0, "rental_uris": {"android": "https://dc.lft.to/lastmile_qr_scan", "ios": "https://dc.lft.to/lastmile_qr_scan"}, "type": "electric_scooter", "lat": 38.920745833333335, "is_reserved": 0, "fusion_lat": 0.0}, {"bike_id": "c1c37f89fead86d5dc0d166d21dcb0a9", "fusion_lon": 0.0, "lon": -77.04238683333334, "name": "c1c37f89fead86d5dc0d166d21dcb0a9", "is_disabled": 0, "rental_uris": {"android": "https://dc.lft.to/lastmile_qr_scan", "ios": "https://dc.lft.to/lastmile_qr_scan"}, "type": "electric_scooter", "lat": 38.92231533333333, "is_reserved": 0, "fusion_lat": 0.0}, {"bike_id": "f26139f850f2613e088d959d1c326b8c", "fusion_lon": 0.0, "lon": -77.034434, "name": "f26139f850f2613e088d959d1c326b8c", "is_disabled": 0, "rental_uris": {"android": "https://dc.lft.to/lastmile_qr_scan", "ios": "https://dc.lft.to/lastmile_qr_scan"}, "type": "electric_scooter", "lat": 38.907283, "is_reserved": 0, "fusion_lat": 0.0}, {"bike_id": "913d8a5ca55c053942ab0609550e3c45", "fusion_lon": 0.0, "lon": -77.030637, "name": "913d8a5ca55c053942ab0609550e3c45", "is_disabled": 0, "rental_uris": {"android": "https://dc.lft.to/lastmile_qr_scan", "ios": "https://dc.lft.to/lastmile_qr_scan"}, "type": "electric_scooter", "lat": 38.922537, "is_reserved": 0, "fusion_lat": 0.0}, {"bike_id": "075b2a3ab233da454fd010247789e88c", "fusion_lon": 0.0, "lon": -77.01544983333334, "name": "075b2a3ab233da454fd010247789e88c", "is_disabled": 0, "rental_uris": {"android": "https://dc.lft.to/lastmile_qr_scan", "ios": "https://dc.lft.to/lastmile_qr_scan"}, "type": "electric_scooter", "lat": 38.891354166666666, "is_reserved": 0, "fusion_lat": 0.0}, {"bike_id": "8e37940180c02f224866d6ddbe801c49", "fusion_lon": 0.0, "lon": -77.0492455, "name": "8e37940180c02f224866d6ddbe801c49", "is_disabled": 0, "rental_uris": {"android": "https://dc.lft.to/lastmile_qr_scan", "ios": "https://dc.lft.to/lastmile_qr_scan"}, "type": "electric_bike", "lat": 38.81347783333333, "is_reserved": 0, "fusion_lat": 0.0}, {"bike_id": "39c627e57ecee1eca52938014248f408", "fusion_lon": 0.0, "lon": -77.05096483333334, "name": "39c627e57ecee1eca52938014248f408", "is_disabled": 0, "rental_uris": {"android": "https://dc.lft.to/lastmile_qr_scan", "ios": "https://dc.lft.to/lastmile_qr_scan"}, "type": "electric_scooter", "lat": 38.9234225, "is_reserved": 0, "fusion_lat": 0.0}, {"bike_id": "e23e3ad6c2cf5183fdd5cda1711c1f20", "fusion_lon": 0.0, "lon": -76.996802, "name": "e23e3ad6c2cf5183fdd5cda1711c1f20", "is_disabled": 0, "rental_uris": {"android": "https://dc.lft.to/lastmile_qr_scan", "ios": "https://dc.lft.to/lastmile_qr_scan"}, "type": "electric_bike", "lat": 38.9249155, "is_reserved": 0, "fusion_lat": 0.0}, {"bike_id": "f3a3df46ad036ab54d0daaf5da1cd5b9", "fusion_lon": 0.0, "lon": -77.024012, "name": "f3a3df46ad036ab54d0daaf5da1cd5b9", "is_disabled": 0, "rental_uris": {"android": "https://dc.lft.to/lastmile_qr_scan", "ios": "https://dc.lft.to/lastmile_qr_scan"}, "type": "electric_scooter", "lat": 38.9175245, "is_reserved": 0, "fusion_lat": 0.0}, {"bike_id": "6f6b869eb683b119cba9c14b201345f9", "fusion_lon": 0.0, "lon": -77.02808433333334, "name": "6f6b869eb683b119cba9c14b201345f9", "is_disabled": 0, "rental_uris": {"android": "https://dc.lft.to/lastmile_qr_scan", "ios": "https://dc.lft.to/lastmile_qr_scan"}, "type": "electric_scooter", "lat": 38.930862833333336, "is_reserved": 0, "fusion_lat": 0.0}, {"bike_id": "c18a03a79e5c02d023caf286f8a1a754", "fusion_lon": 0.0, "lon": -77.02814016666666, "name": "c18a03a79e5c02d023caf286f8a1a754", "is_disabled": 0, "rental_uris": {"android": "https://dc.lft.to/lastmile_qr_scan", "ios": "https://dc.lft.to/lastmile_qr_scan"}, "type": "electric_scooter", "lat": 38.91692066666667, "is_reserved": 0, "fusion_lat": 0.0}, {"bike_id": "4ded6895fa9e0d87599b54a8cee45c72", "fusion_lon": 0.0, "lon": -77.03514133333333, "name": "4ded6895fa9e0d87599b54a8cee45c72", "is_disabled": 0, "rental_uris": {"android": "https://dc.lft.to/lastmile_qr_scan", "ios": "https://dc.lft.to/lastmile_qr_scan"}, "type": "electric_bike", "lat": 38.962050166666664, "is_reserved": 0, "fusion_lat": 0.0}, {"bike_id": "c50950236506af61a269a9b3bf94b74c", "fusion_lon": 0.0, "lon": -77.01199966666667, "name": "c50950236506af61a269a9b3bf94b74c", "is_disabled": 0, "rental_uris": {"android": "https://dc.lft.to/lastmile_qr_scan", "ios": "https://dc.lft.to/lastmile_qr_scan"}, "type": "electric_scooter", "lat": 38.90015266666666, "is_reserved": 0, "fusion_lat": 0.0}, {"bike_id": "a56d3781c20ad5b52e3e94469365b69a", "fusion_lon": 0.0, "lon": -77.03487033333333, "name": "a56d3781c20ad5b52e3e94469365b69a", "is_disabled": 0, "rental_uris": {"android": "https://dc.lft.to/lastmile_qr_scan", "ios": "https://dc.lft.to/lastmile_qr_scan"}, "type": "electric_scooter", "lat": 38.90047633333333, "is_reserved": 0, "fusion_lat": 0.0}, {"bike_id": "1922d8333435eda0bd6fbd70716835be", "fusion_lon": 0.0, "lon": -77.0417935, "name": "1922d8333435eda0bd6fbd70716835be", "is_disabled": 0, "rental_uris": {"android": "https://dc.lft.to/lastmile_qr_scan", "ios": "https://dc.lft.to/lastmile_qr_scan"}, "type": "electric_scooter", "lat": 38.905750833333336, "is_reserved": 0, "fusion_lat": 0.0}, {"bike_id": "37db0c7a829a10b0aae3efdbe9c562d3", "fusion_lon": 0.0, "lon": -77.04549116666666, "name": "37db0c7a829a10b0aae3efdbe9c562d3", "is_disabled": 0, "rental_uris": {"android": "https://dc.lft.to/lastmile_qr_scan", "ios": "https://dc.lft.to/lastmile_qr_scan"}, "type": "electric_scooter", "lat": 38.93411566666666, "is_reserved": 0, "fusion_lat": 0.0}, {"bike_id": "5074b5156beec14025fdeeb1a2b11489", "fusion_lon": 0.0, "lon": -77.05858666666667, "name": "5074b5156beec14025fdeeb1a2b11489", "is_disabled": 0, "rental_uris": {"android": "https://dc.lft.to/lastmile_qr_scan", "ios": "https://dc.lft.to/lastmile_qr_scan"}, "type": "electric_scooter", "lat": 38.936058, "is_reserved": 0, "fusion_lat": 0.0}, {"bike_id": "06297e9bcba58e3ae4df9eec431745bd", "fusion_lon": 0.0, "lon": -77.00680516666667, "name": "06297e9bcba58e3ae4df9eec431745bd", "is_disabled": 0, "rental_uris": {"android": "https://dc.lft.to/lastmile_qr_scan", "ios": "https://dc.lft.to/lastmile_qr_scan"}, "type": "electric_scooter", "lat": 38.900148333333334, "is_reserved": 0, "fusion_lat": 0.0}, {"bike_id": "230f3cf0c76cf3fa133b419b27f9afe0", "fusion_lon": 0.0, "lon": -77.02543066666667, "name": "230f3cf0c76cf3fa133b419b27f9afe0", "is_disabled": 0, "rental_uris": {"android": "https://dc.lft.to/lastmile_qr_scan", "ios": "https://dc.lft.to/lastmile_qr_scan"}, "type": "electric_scooter", "lat": 38.9412185, "is_reserved": 0, "fusion_lat": 0.0}, {"bike_id": "d9296fdbc42eb90bf240efe1ca3214ca", "fusion_lon": 0.0, "lon": -77.03864483333334, "name": "d9296fdbc42eb90bf240efe1ca3214ca", "is_disabled": 0, "rental_uris": {"android": "https://dc.lft.to/lastmile_qr_scan", "ios": "https://dc.lft.to/lastmile_qr_scan"}, "type": "electric_scooter", "lat": 38.91820416666667, "is_reserved": 0, "fusion_lat": 0.0}, {"bike_id": "ceae59bc500a11b580faaa32c145aa16", "fusion_lon": 0.0, "lon": -77.01827933333334, "name": "ceae59bc500a11b580faaa32c145aa16", "is_disabled": 0, "rental_uris": {"android": "https://dc.lft.to/lastmile_qr_scan", "ios": "https://dc.lft.to/lastmile_qr_scan"}, "type": "electric_scooter", "lat": 38.921964833333334, "is_reserved": 0, "fusion_lat": 0.0}, {"bike_id": "69d2514c8a04c648ce7a8ddcc8163b63", "fusion_lon": 0.0, "lon": -77.04184033333334, "name": "69d2514c8a04c648ce7a8ddcc8163b63", "is_disabled": 0, "rental_uris": {"android": "https://dc.lft.to/lastmile_qr_scan", "ios": "https://dc.lft.to/lastmile_qr_scan"}, "type": "electric_scooter", "lat": 38.89301666666667, "is_reserved": 0, "fusion_lat": 0.0}, {"bike_id": "6c710808689150b64814be07d4f87df3", "fusion_lon": 0.0, "lon": -77.02172666666667, "name": "6c710808689150b64814be07d4f87df3", "is_disabled": 0, "rental_uris": {"android": "https://dc.lft.to/lastmile_qr_scan", "ios": "https://dc.lft.to/lastmile_qr_scan"}, "type": "electric_scooter", "lat": 38.905888833333336, "is_reserved": 0, "fusion_lat": 0.0}, {"bike_id": "ec9eab59508f8a0257a66306fb67d847", "fusion_lon": 0.0, "lon": -77.01137833333334, "name": "ec9eab59508f8a0257a66306fb67d847", "is_disabled": 0, "rental_uris": {"android": "https://dc.lft.to/lastmile_qr_scan", "ios": "https://dc.lft.to/lastmile_qr_scan"}, "type": "electric_scooter", "lat": 38.90736733333333, "is_reserved": 0, "fusion_lat": 0.0}, {"bike_id": "fc1ba7cfcda1f701b34ccfd61b4b3153", "fusion_lon": 0.0, "lon": -77.024163, "name": "fc1ba7cfcda1f701b34ccfd61b4b3153", "is_disabled": 0, "rental_uris": {"android": "https://dc.lft.to/lastmile_qr_scan", "ios": "https://dc.lft.to/lastmile_qr_scan"}, "type": "electric_scooter", "lat": 38.957317, "is_reserved": 0, "fusion_lat": 0.0}, {"bike_id": "bec7ca6001cd2b8a0149ae48e73bbb48", "fusion_lon": 0.0, "lon": -76.988884, "name": "bec7ca6001cd2b8a0149ae48e73bbb48", "is_disabled": 0, "rental_uris": {"android": "https://dc.lft.to/lastmile_qr_scan", "ios": "https://dc.lft.to/lastmile_qr_scan"}, "type": "electric_scooter", "lat": 38.86654133333333, "is_reserved": 0, "fusion_lat": 0.0}, {"bike_id": "6a29631aea5488c50710e8f2834b5d7b", "fusion_lon": 0.0, "lon": -76.99964616666666, "name": "6a29631aea5488c50710e8f2834b5d7b", "is_disabled": 0, "rental_uris": {"android": "https://dc.lft.to/lastmile_qr_scan", "ios": "https://dc.lft.to/lastmile_qr_scan"}, "type": "electric_bike", "lat": 38.9215375, "is_reserved": 0, "fusion_lat": 0.0}, {"bike_id": "e162f65898f0758e47f5d8cb05723f5f", "fusion_lon": 0.0, "lon": -77.02357083333334, "name": "e162f65898f0758e47f5d8cb05723f5f", "is_disabled": 0, "rental_uris": {"android": "https://dc.lft.to/lastmile_qr_scan", "ios": "https://dc.lft.to/lastmile_qr_scan"}, "type": "electric_scooter", "lat": 38.91983716666667, "is_reserved": 0, "fusion_lat": 0.0}, {"bike_id": "ecc658ca1fe7b8baf5519f7235678a3d", "fusion_lon": 0.0, "lon": -77.02691866666666, "name": "ecc658ca1fe7b8baf5519f7235678a3d", "is_disabled": 0, "rental_uris": {"android": "https://dc.lft.to/lastmile_qr_scan", "ios": "https://dc.lft.to/lastmile_qr_scan"}, "type": "electric_scooter", "lat": 38.91121116666667, "is_reserved": 0, "fusion_lat": 0.0}, {"bike_id": "f3af8c85da2e5c76b21fab3dec55fa7d", "fusion_lon": 0.0, "lon": -77.02613216666667, "name": "f3af8c85da2e5c76b21fab3dec55fa7d", "is_disabled": 0, "rental_uris": {"android": "https://dc.lft.to/lastmile_qr_scan", "ios": "https://dc.lft.to/lastmile_qr_scan"}, "type": "electric_scooter", "lat": 38.9050915, "is_reserved": 0, "fusion_lat": 0.0}, {"bike_id": "b003953d72e7e2d43938ca47878dcb05", "fusion_lon": 0.0, "lon": -77.05268066666666, "name": "b003953d72e7e2d43938ca47878dcb05", "is_disabled": 0, "rental_uris": {"android": "https://dc.lft.to/lastmile_qr_scan", "ios": "https://dc.lft.to/lastmile_qr_scan"}, "type": "electric_scooter", "lat": 38.92536533333333, "is_reserved": 0, "fusion_lat": 0.0}, {"bike_id": "1b38ee5ce5c251ddb80c48dfbcc2802e", "fusion_lon": 0.0, "lon": -77.03937983333333, "name": "1b38ee5ce5c251ddb80c48dfbcc2802e", "is_disabled": 0, "rental_uris": {"android": "https://dc.lft.to/lastmile_qr_scan", "ios": "https://dc.lft.to/lastmile_qr_scan"}, "type": "electric_scooter", "lat": 38.91573133333333, "is_reserved": 0, "fusion_lat": 0.0}, {"bike_id": "07ce3e243b497120745231a66298082f", "fusion_lon": 0.0, "lon": -77.02200483333333, "name": "07ce3e243b497120745231a66298082f", "is_disabled": 0, "rental_uris": {"android": "https://dc.lft.to/lastmile_qr_scan", "ios": "https://dc.lft.to/lastmile_qr_scan"}, "type": "electric_scooter", "lat": 38.878881166666666, "is_reserved": 0, "fusion_lat": 0.0}, {"bike_id": "9e14a1659f4bfeda8137ba68c18ae79c", "fusion_lon": 0.0, "lon": -77.027331, "name": "9e14a1659f4bfeda8137ba68c18ae79c", "is_disabled": 0, "rental_uris": {"android": "https://dc.lft.to/lastmile_qr_scan", "ios": "https://dc.lft.to/lastmile_qr_scan"}, "type": "electric_scooter", "lat": 38.928365, "is_reserved": 0, "fusion_lat": 0.0}, {"bike_id": "143a3991f8b572bc04c3f953d6ca05e8", "fusion_lon": 0.0, "lon": -77.04144983333333, "name": "143a3991f8b572bc04c3f953d6ca05e8", "is_disabled": 0, "rental_uris": {"android": "https://dc.lft.to/lastmile_qr_scan", "ios": "https://dc.lft.to/lastmile_qr_scan"}, "type": "electric_scooter", "lat": 38.91552983333333, "is_reserved": 0, "fusion_lat": 0.0}, {"bike_id": "6483546f402a29e5ee6bb5ee10752070", "fusion_lon": 0.0, "lon": -77.02189433333334, "name": "6483546f402a29e5ee6bb5ee10752070", "is_disabled": 0, "rental_uris": {"android": "https://dc.lft.to/lastmile_qr_scan", "ios": "https://dc.lft.to/lastmile_qr_scan"}, "type": "electric_scooter", "lat": 38.91482233333333, "is_reserved": 0, "fusion_lat": 0.0}, {"bike_id": "c1ef9ee78598e1b38dda63787fe5a390", "fusion_lon": 0.0, "lon": -77.12733616666667, "name": "c1ef9ee78598e1b38dda63787fe5a390", "is_disabled": 0, "rental_uris": {"android": "https://dc.lft.to/lastmile_qr_scan", "ios": "https://dc.lft.to/lastmile_qr_scan"}, "type": "electric_bike", "lat": 38.89563533333333, "is_reserved": 0, "fusion_lat": 0.0}, {"bike_id": "dc91838089d08c4f6a0b1b865fdc74e2", "fusion_lon": 0.0, "lon": -76.993994, "name": "dc91838089d08c4f6a0b1b865fdc74e2", "is_disabled": 0, "rental_uris": {"android": "https://dc.lft.to/lastmile_qr_scan", "ios": "https://dc.lft.to/lastmile_qr_scan"}, "type": "electric_scooter", "lat": 38.921681666666665, "is_reserved": 0, "fusion_lat": 0.0}, {"bike_id": "ef7c415217e82f7b9ed2983d6e798a03", "fusion_lon": 0.0, "lon": -77.03186083333334, "name": "ef7c415217e82f7b9ed2983d6e798a03", "is_disabled": 0, "rental_uris": {"android": "https://dc.lft.to/lastmile_qr_scan", "ios": "https://dc.lft.to/lastmile_qr_scan"}, "type": "electric_scooter", "lat": 38.9052435, "is_reserved": 0, "fusion_lat": 0.0}, {"bike_id": "ed630874d726f0e1f3ce5d6711d24da3", "fusion_lon": 0.0, "lon": -77.05905816666667, "name": "ed630874d726f0e1f3ce5d6711d24da3", "is_disabled": 0, "rental_uris": {"android": "https://dc.lft.to/lastmile_qr_scan", "ios": "https://dc.lft.to/lastmile_qr_scan"}, "type": "electric_scooter", "lat": 38.933479, "is_reserved": 0, "fusion_lat": 0.0}, {"bike_id": "72178fe3488cccb8130406aba7635fd8", "fusion_lon": 0.0, "lon": -77.03444416666666, "name": "72178fe3488cccb8130406aba7635fd8", "is_disabled": 0, "rental_uris": {"android": "https://dc.lft.to/lastmile_qr_scan", "ios": "https://dc.lft.to/lastmile_qr_scan"}, "type": "electric_scooter", "lat": 38.907588, "is_reserved": 0, "fusion_lat": 0.0}, {"bike_id": "33633299362d4c3b38837e91a87d53eb", "fusion_lon": 0.0, "lon": -77.02669066666667, "name": "33633299362d4c3b38837e91a87d53eb", "is_disabled": 0, "rental_uris": {"android": "https://dc.lft.to/lastmile_qr_scan", "ios": "https://dc.lft.to/lastmile_qr_scan"}, "type": "electric_scooter", "lat": 38.9719345, "is_reserved": 0, "fusion_lat": 0.0}, {"bike_id": "892fc7aac84f3d6e3e7d0ebde91c7872", "fusion_lon": 0.0, "lon": -77.03412966666667, "name": "892fc7aac84f3d6e3e7d0ebde91c7872", "is_disabled": 0, "rental_uris": {"android": "https://dc.lft.to/lastmile_qr_scan", "ios": "https://dc.lft.to/lastmile_qr_scan"}, "type": "electric_scooter", "lat": 38.920537333333336, "is_reserved": 0, "fusion_lat": 0.0}, {"bike_id": "06a16469b51da9f74dadbbe7c0ee080e", "fusion_lon": 0.0, "lon": -77.03468583333333, "name": "06a16469b51da9f74dadbbe7c0ee080e", "is_disabled": 0, "rental_uris": {"android": "https://dc.lft.to/lastmile_qr_scan", "ios": "https://dc.lft.to/lastmile_qr_scan"}, "type": "electric_scooter", "lat": 38.90812433333333, "is_reserved": 0, "fusion_lat": 0.0}, {"bike_id": "ece20466455ececcd0a7a25c500b3ae7", "fusion_lon": 0.0, "lon": -76.9334935, "name": "ece20466455ececcd0a7a25c500b3ae7", "is_disabled": 0, "rental_uris": {"android": "https://dc.lft.to/lastmile_qr_scan", "ios": "https://dc.lft.to/lastmile_qr_scan"}, "type": "electric_scooter", "lat": 38.88811916666667, "is_reserved": 0, "fusion_lat": 0.0}, {"bike_id": "cc605fd0f54718573251ef0f68ca34a9", "fusion_lon": 0.0, "lon": -76.98783016666667, "name": "cc605fd0f54718573251ef0f68ca34a9", "is_disabled": 0, "rental_uris": {"android": "https://dc.lft.to/lastmile_qr_scan", "ios": "https://dc.lft.to/lastmile_qr_scan"}, "type": "electric_bike", "lat": 38.86598516666667, "is_reserved": 0, "fusion_lat": 0.0}, {"bike_id": "8eb7694d29df6bf971870b4ac27161dd", "fusion_lon": 0.0, "lon": -77.02714866666666, "name": "8eb7694d29df6bf971870b4ac27161dd", "is_disabled": 0, "rental_uris": {"android": "https://dc.lft.to/lastmile_qr_scan", "ios": "https://dc.lft.to/lastmile_qr_scan"}, "type": "electric_scooter", "lat": 38.898353, "is_reserved": 0, "fusion_lat": 0.0}, {"bike_id": "4094c3032287eed3fa861b20a970d6c6", "fusion_lon": 0.0, "lon": -77.02470216666667, "name": "4094c3032287eed3fa861b20a970d6c6", "is_disabled": 0, "rental_uris": {"android": "https://dc.lft.to/lastmile_qr_scan", "ios": "https://dc.lft.to/lastmile_qr_scan"}, "type": "electric_scooter", "lat": 38.931045, "is_reserved": 0, "fusion_lat": 0.0}, {"bike_id": "98137ecdc8252a9792ef880c22d1dc1a", "fusion_lon": 0.0, "lon": -77.02853833333333, "name": "98137ecdc8252a9792ef880c22d1dc1a", "is_disabled": 0, "rental_uris": {"android": "https://dc.lft.to/lastmile_qr_scan", "ios": "https://dc.lft.to/lastmile_qr_scan"}, "type": "electric_scooter", "lat": 38.927652333333334, "is_reserved": 0, "fusion_lat": 0.0}, {"bike_id": "08353340c603c3f1d59121bc7ad07209", "fusion_lon": 0.0, "lon": -77.05885883333333, "name": "08353340c603c3f1d59121bc7ad07209", "is_disabled": 0, "rental_uris": {"android": "https://dc.lft.to/lastmile_qr_scan", "ios": "https://dc.lft.to/lastmile_qr_scan"}, "type": "electric_scooter", "lat": 38.918245166666665, "is_reserved": 0, "fusion_lat": 0.0}, {"bike_id": "365770a19a82f99fa10e2509023c5e9f", "fusion_lon": 0.0, "lon": -76.98396766666667, "name": "365770a19a82f99fa10e2509023c5e9f", "is_disabled": 0, "rental_uris": {"android": "https://dc.lft.to/lastmile_qr_scan", "ios": "https://dc.lft.to/lastmile_qr_scan"}, "type": "electric_scooter", "lat": 38.86698466666667, "is_reserved": 0, "fusion_lat": 0.0}, {"bike_id": "16b236efbd62437f17a5b319b47dd5ba", "fusion_lon": 0.0, "lon": -77.03214583333333, "name": "16b236efbd62437f17a5b319b47dd5ba", "is_disabled": 0, "rental_uris": {"android": "https://dc.lft.to/lastmile_qr_scan", "ios": "https://dc.lft.to/lastmile_qr_scan"}, "type": "electric_scooter", "lat": 38.91712183333333, "is_reserved": 0, "fusion_lat": 0.0}, {"bike_id": "e087db38b1c8e0c3ce92b3b2536b61f7", "fusion_lon": 0.0, "lon": -77.03572816666667, "name": "e087db38b1c8e0c3ce92b3b2536b61f7", "is_disabled": 0, "rental_uris": {"android": "https://dc.lft.to/lastmile_qr_scan", "ios": "https://dc.lft.to/lastmile_qr_scan"}, "type": "electric_scooter", "lat": 38.9233505, "is_reserved": 0, "fusion_lat": 0.0}, {"bike_id": "724358a6481f85a003f03b6df664b99a", "fusion_lon": 0.0, "lon": -77.02711816666667, "name": "724358a6481f85a003f03b6df664b99a", "is_disabled": 0, "rental_uris": {"android": "https://dc.lft.to/lastmile_qr_scan", "ios": "https://dc.lft.to/lastmile_qr_scan"}, "type": "electric_scooter", "lat": 38.906886166666666, "is_reserved": 0, "fusion_lat": 0.0}, {"bike_id": "d44a61ad906f40b00b8c5eb312f83626", "fusion_lon": 0.0, "lon": -77.02197966666667, "name": "d44a61ad906f40b00b8c5eb312f83626", "is_disabled": 0, "rental_uris": {"android": "https://dc.lft.to/lastmile_qr_scan", "ios": "https://dc.lft.to/lastmile_qr_scan"}, "type": "electric_scooter", "lat": 38.898001, "is_reserved": 0, "fusion_lat": 0.0}, {"bike_id": "4755eb3a3ab0bfdd32eaca68f52c7a12", "fusion_lon": 0.0, "lon": -77.00727033333334, "name": "4755eb3a3ab0bfdd32eaca68f52c7a12", "is_disabled": 0, "rental_uris": {"android": "https://dc.lft.to/lastmile_qr_scan", "ios": "https://dc.lft.to/lastmile_qr_scan"}, "type": "electric_scooter", "lat": 38.8849245, "is_reserved": 0, "fusion_lat": 0.0}, {"bike_id": "c97503f507b5876c9a5c3475fac4f1c9", "fusion_lon": 0.0, "lon": -77.0271905, "name": "c97503f507b5876c9a5c3475fac4f1c9", "is_disabled": 0, "rental_uris": {"android": "https://dc.lft.to/lastmile_qr_scan", "ios": "https://dc.lft.to/lastmile_qr_scan"}, "type": "electric_scooter", "lat": 38.90674933333333, "is_reserved": 0, "fusion_lat": 0.0}, {"bike_id": "783fa0725ba41f9f4ca6a05958c3c0e7", "fusion_lon": 0.0, "lon": -76.99355033333333, "name": "783fa0725ba41f9f4ca6a05958c3c0e7", "is_disabled": 0, "rental_uris": {"android": "https://dc.lft.to/lastmile_qr_scan", "ios": "https://dc.lft.to/lastmile_qr_scan"}, "type": "electric_bike", "lat": 38.84505383333333, "is_reserved": 0, "fusion_lat": 0.0}, {"bike_id": "fc4da650efc895d8e5fb8492561179a9", "fusion_lon": 0.0, "lon": -77.05275166666667, "name": "fc4da650efc895d8e5fb8492561179a9", "is_disabled": 0, "rental_uris": {"android": "https://dc.lft.to/lastmile_qr_scan", "ios": "https://dc.lft.to/lastmile_qr_scan"}, "type": "electric_scooter", "lat": 38.92539133333333, "is_reserved": 0, "fusion_lat": 0.0}, {"bike_id": "a602a44c8c5518c1f13434abf022a5bb", "fusion_lon": 0.0, "lon": -77.017695, "name": "a602a44c8c5518c1f13434abf022a5bb", "is_disabled": 0, "rental_uris": {"android": "https://dc.lft.to/lastmile_qr_scan", "ios": "https://dc.lft.to/lastmile_qr_scan"}, "type": "electric_scooter", "lat": 38.87723483333333, "is_reserved": 0, "fusion_lat": 0.0}, {"bike_id": "8836c725a8de06a5dffd1f19cbd584fe", "fusion_lon": 0.0, "lon": -76.99820483333333, "name": "8836c725a8de06a5dffd1f19cbd584fe", "is_disabled": 0, "rental_uris": {"android": "https://dc.lft.to/lastmile_qr_scan", "ios": "https://dc.lft.to/lastmile_qr_scan"}, "type": "electric_scooter", "lat": 38.9082455, "is_reserved": 0, "fusion_lat": 0.0}, {"bike_id": "3f4fcc008d65ca222b7aac8465eab541", "fusion_lon": 0.0, "lon": -77.03136716666667, "name": "3f4fcc008d65ca222b7aac8465eab541", "is_disabled": 0, "rental_uris": {"android": "https://dc.lft.to/lastmile_qr_scan", "ios": "https://dc.lft.to/lastmile_qr_scan"}, "type": "electric_scooter", "lat": 38.918217166666665, "is_reserved": 0, "fusion_lat": 0.0}, {"bike_id": "64d67630a0dc4a56adce049560d0ec7e", "fusion_lon": 0.0, "lon": -77.01775833333333, "name": "64d67630a0dc4a56adce049560d0ec7e", "is_disabled": 0, "rental_uris": {"android": "https://dc.lft.to/lastmile_qr_scan", "ios": "https://dc.lft.to/lastmile_qr_scan"}, "type": "electric_scooter", "lat": 38.8831105, "is_reserved": 0, "fusion_lat": 0.0}, {"bike_id": "38ff910c39a4f7753a5a5edea5be852f", "fusion_lon": 0.0, "lon": -77.00141033333334, "name": "38ff910c39a4f7753a5a5edea5be852f", "is_disabled": 0, "rental_uris": {"android": "https://dc.lft.to/lastmile_qr_scan", "ios": "https://dc.lft.to/lastmile_qr_scan"}, "type": "electric_scooter", "lat": 38.90513166666667, "is_reserved": 0, "fusion_lat": 0.0}, {"bike_id": "96f5b5257134e808375680574834e3bb", "fusion_lon": 0.0, "lon": -76.93731633333333, "name": "96f5b5257134e808375680574834e3bb", "is_disabled": 0, "rental_uris": {"android": "https://dc.lft.to/lastmile_qr_scan", "ios": "https://dc.lft.to/lastmile_qr_scan"}, "type": "electric_scooter", "lat": 38.89016, "is_reserved": 0, "fusion_lat": 0.0}, {"bike_id": "e903296d843653de4622e37db54b7776", "fusion_lon": 0.0, "lon": -76.98983416666667, "name": "e903296d843653de4622e37db54b7776", "is_disabled": 0, "rental_uris": {"android": "https://dc.lft.to/lastmile_qr_scan", "ios": "https://dc.lft.to/lastmile_qr_scan"}, "type": "electric_scooter", "lat": 38.86498383333333, "is_reserved": 0, "fusion_lat": 0.0}, {"bike_id": "b75dece7742db72d19ca8f3ca08fec69", "fusion_lon": 0.0, "lon": -77.03837866666667, "name": "b75dece7742db72d19ca8f3ca08fec69", "is_disabled": 0, "rental_uris": {"android": "https://dc.lft.to/lastmile_qr_scan", "ios": "https://dc.lft.to/lastmile_qr_scan"}, "type": "electric_scooter", "lat": 38.90851216666667, "is_reserved": 0, "fusion_lat": 0.0}, {"bike_id": "98e6f5a088a1a43057019509d9a03595", "fusion_lon": 0.0, "lon": -77.0057405, "name": "98e6f5a088a1a43057019509d9a03595", "is_disabled": 0, "rental_uris": {"android": "https://dc.lft.to/lastmile_qr_scan", "ios": "https://dc.lft.to/lastmile_qr_scan"}, "type": "electric_scooter", "lat": 38.88504283333333, "is_reserved": 0, "fusion_lat": 0.0}, {"bike_id": "db3d8880866ff08ceb90af7d79147a16", "fusion_lon": 0.0, "lon": -76.95187033333333, "name": "db3d8880866ff08ceb90af7d79147a16", "is_disabled": 0, "rental_uris": {"android": "https://dc.lft.to/lastmile_qr_scan", "ios": "https://dc.lft.to/lastmile_qr_scan"}, "type": "electric_scooter", "lat": 38.90739466666667, "is_reserved": 0, "fusion_lat": 0.0}, {"bike_id": "aa2342fb787cf8650cd6917ebb2d9833", "fusion_lon": 0.0, "lon": -77.01778366666667, "name": "aa2342fb787cf8650cd6917ebb2d9833", "is_disabled": 0, "rental_uris": {"android": "https://dc.lft.to/lastmile_qr_scan", "ios": "https://dc.lft.to/lastmile_qr_scan"}, "type": "electric_scooter", "lat": 38.9078265, "is_reserved": 0, "fusion_lat": 0.0}, {"bike_id": "ff1976faeac40ac9b8abe50055e2446b", "fusion_lon": 0.0, "lon": -77.04403983333333, "name": "ff1976faeac40ac9b8abe50055e2446b", "is_disabled": 0, "rental_uris": {"android": "https://dc.lft.to/lastmile_qr_scan", "ios": "https://dc.lft.to/lastmile_qr_scan"}, "type": "electric_scooter", "lat": 38.920716666666664, "is_reserved": 0, "fusion_lat": 0.0}, {"bike_id": "17e368e2b4c8624724b21ec8ea1ba700", "fusion_lon": 0.0, "lon": -77.056062, "name": "17e368e2b4c8624724b21ec8ea1ba700", "is_disabled": 0, "rental_uris": {"android": "https://dc.lft.to/lastmile_qr_scan", "ios": "https://dc.lft.to/lastmile_qr_scan"}, "type": "electric_scooter", "lat": 38.931667833333336, "is_reserved": 0, "fusion_lat": 0.0}, {"bike_id": "1f5f3c5ac204785d4b85e881d9a71ab8", "fusion_lon": 0.0, "lon": -77.08197366666667, "name": "1f5f3c5ac204785d4b85e881d9a71ab8", "is_disabled": 0, "rental_uris": {"android": "https://dc.lft.to/lastmile_qr_scan", "ios": "https://dc.lft.to/lastmile_qr_scan"}, "type": "electric_bike", "lat": 38.855652, "is_reserved": 0, "fusion_lat": 0.0}, {"bike_id": "a9169bb7888b0b4db91ba18964087d7c", "fusion_lon": 0.0, "lon": -77.02423083333333, "name": "a9169bb7888b0b4db91ba18964087d7c", "is_disabled": 0, "rental_uris": {"android": "https://dc.lft.to/lastmile_qr_scan", "ios": "https://dc.lft.to/lastmile_qr_scan"}, "type": "electric_scooter", "lat": 38.92656383333333, "is_reserved": 0, "fusion_lat": 0.0}, {"bike_id": "dee4083ba8f97fbcf3237884e64be3f5", "fusion_lon": 0.0, "lon": -77.03174983333334, "name": "dee4083ba8f97fbcf3237884e64be3f5", "is_disabled": 0, "rental_uris": {"android": "https://dc.lft.to/lastmile_qr_scan", "ios": "https://dc.lft.to/lastmile_qr_scan"}, "type": "electric_scooter", "lat": 38.920998, "is_reserved": 0, "fusion_lat": 0.0}, {"bike_id": "a51a462d188c1fa71a117481688940ef", "fusion_lon": 0.0, "lon": -77.0417475, "name": "a51a462d188c1fa71a117481688940ef", "is_disabled": 0, "rental_uris": {"android": "https://dc.lft.to/lastmile_qr_scan", "ios": "https://dc.lft.to/lastmile_qr_scan"}, "type": "electric_scooter", "lat": 38.90571666666666, "is_reserved": 0, "fusion_lat": 0.0}, {"bike_id": "9714ab3351de5b083eef29f24525717c", "fusion_lon": 0.0, "lon": -76.99613066666667, "name": "9714ab3351de5b083eef29f24525717c", "is_disabled": 0, "rental_uris": {"android": "https://dc.lft.to/lastmile_qr_scan", "ios": "https://dc.lft.to/lastmile_qr_scan"}, "type": "electric_scooter", "lat": 38.90068333333333, "is_reserved": 0, "fusion_lat": 0.0}, {"bike_id": "04103103dfd7359664ac1fae13cd3aeb", "fusion_lon": 0.0, "lon": -77.04618033333334, "name": "04103103dfd7359664ac1fae13cd3aeb", "is_disabled": 0, "rental_uris": {"android": "https://dc.lft.to/lastmile_qr_scan", "ios": "https://dc.lft.to/lastmile_qr_scan"}, "type": "electric_scooter", "lat": 38.90963516666667, "is_reserved": 0, "fusion_lat": 0.0}, {"bike_id": "0d3272731c0c841041b6418a30ac7888", "fusion_lon": 0.0, "lon": -77.05215483333333, "name": "0d3272731c0c841041b6418a30ac7888", "is_disabled": 0, "rental_uris": {"android": "https://dc.lft.to/lastmile_qr_scan", "ios": "https://dc.lft.to/lastmile_qr_scan"}, "type": "electric_scooter", "lat": 38.924347166666664, "is_reserved": 0, "fusion_lat": 0.0}, {"bike_id": "c9c4e4aa25233929e7313925280102aa", "fusion_lon": 0.0, "lon": -77.00374983333333, "name": "c9c4e4aa25233929e7313925280102aa", "is_disabled": 0, "rental_uris": {"android": "https://dc.lft.to/lastmile_qr_scan", "ios": "https://dc.lft.to/lastmile_qr_scan"}, "type": "electric_scooter", "lat": 38.87567116666666, "is_reserved": 0, "fusion_lat": 0.0}, {"bike_id": "058002709ab674ae42cf467403885a58", "fusion_lon": 0.0, "lon": -77.02828233333334, "name": "058002709ab674ae42cf467403885a58", "is_disabled": 0, "rental_uris": {"android": "https://dc.lft.to/lastmile_qr_scan", "ios": "https://dc.lft.to/lastmile_qr_scan"}, "type": "electric_scooter", "lat": 38.932295, "is_reserved": 0, "fusion_lat": 0.0}, {"bike_id": "78ed08c2f40e826e9bf5cb37275249de", "fusion_lon": 0.0, "lon": -77.051272, "name": "78ed08c2f40e826e9bf5cb37275249de", "is_disabled": 0, "rental_uris": {"android": "https://dc.lft.to/lastmile_qr_scan", "ios": "https://dc.lft.to/lastmile_qr_scan"}, "type": "electric_scooter", "lat": 38.90513416666667, "is_reserved": 0, "fusion_lat": 0.0}, {"bike_id": "73af4d793867c2649e1eb2a71d2c1fc4", "fusion_lon": 0.0, "lon": -77.028106, "name": "73af4d793867c2649e1eb2a71d2c1fc4", "is_disabled": 0, "rental_uris": {"android": "https://dc.lft.to/lastmile_qr_scan", "ios": "https://dc.lft.to/lastmile_qr_scan"}, "type": "electric_scooter", "lat": 38.930848166666664, "is_reserved": 0, "fusion_lat": 0.0}, {"bike_id": "36368818766ce3c5634053005bd2db2d", "fusion_lon": 0.0, "lon": -76.99093666666667, "name": "36368818766ce3c5634053005bd2db2d", "is_disabled": 0, "rental_uris": {"android": "https://dc.lft.to/lastmile_qr_scan", "ios": "https://dc.lft.to/lastmile_qr_scan"}, "type": "electric_scooter", "lat": 38.882361833333334, "is_reserved": 0, "fusion_lat": 0.0}, {"bike_id": "73fb922e1907e77c5220f41379036743", "fusion_lon": 0.0, "lon": -76.9741875, "name": "73fb922e1907e77c5220f41379036743", "is_disabled": 0, "rental_uris": {"android": "https://dc.lft.to/lastmile_qr_scan", "ios": "https://dc.lft.to/lastmile_qr_scan"}, "type": "electric_scooter", "lat": 38.86517816666667, "is_reserved": 0, "fusion_lat": 0.0}, {"bike_id": "316e50bf2bdf1f1d9ffdf8b9ac45b532", "fusion_lon": 0.0, "lon": -76.980243, "name": "316e50bf2bdf1f1d9ffdf8b9ac45b532", "is_disabled": 0, "rental_uris": {"android": "https://dc.lft.to/lastmile_qr_scan", "ios": "https://dc.lft.to/lastmile_qr_scan"}, "type": "electric_scooter", "lat": 38.90381633333333, "is_reserved": 0, "fusion_lat": 0.0}, {"bike_id": "5a1be9baeb5e97896ad1681c8eaba8c2", "fusion_lon": 0.0, "lon": -77.046509, "name": "5a1be9baeb5e97896ad1681c8eaba8c2", "is_disabled": 0, "rental_uris": {"android": "https://dc.lft.to/lastmile_qr_scan", "ios": "https://dc.lft.to/lastmile_qr_scan"}, "type": "electric_scooter", "lat": 38.9054915, "is_reserved": 0, "fusion_lat": 0.0}, {"bike_id": "e432991dca75a7fbe3f7c4991393f2aa", "fusion_lon": 0.0, "lon": -77.05586466666666, "name": "e432991dca75a7fbe3f7c4991393f2aa", "is_disabled": 0, "rental_uris": {"android": "https://dc.lft.to/lastmile_qr_scan", "ios": "https://dc.lft.to/lastmile_qr_scan"}, "type": "electric_scooter", "lat": 38.89329733333334, "is_reserved": 0, "fusion_lat": 0.0}, {"bike_id": "d87cb6c9db8d8f59d452f75b017d1839", "fusion_lon": 0.0, "lon": -77.024577, "name": "d87cb6c9db8d8f59d452f75b017d1839", "is_disabled": 0, "rental_uris": {"android": "https://dc.lft.to/lastmile_qr_scan", "ios": "https://dc.lft.to/lastmile_qr_scan"}, "type": "electric_scooter", "lat": 38.918754166666666, "is_reserved": 0, "fusion_lat": 0.0}, {"bike_id": "eb38637fefa1ca644763ba050f760796", "fusion_lon": 0.0, "lon": -77.041562, "name": "eb38637fefa1ca644763ba050f760796", "is_disabled": 0, "rental_uris": {"android": "https://dc.lft.to/lastmile_qr_scan", "ios": "https://dc.lft.to/lastmile_qr_scan"}, "type": "electric_scooter", "lat": 38.915940666666664, "is_reserved": 0, "fusion_lat": 0.0}, {"bike_id": "23a64c24d41bde3c4385e76d07bbd462", "fusion_lon": 0.0, "lon": -77.03931566666667, "name": "23a64c24d41bde3c4385e76d07bbd462", "is_disabled": 0, "rental_uris": {"android": "https://dc.lft.to/lastmile_qr_scan", "ios": "https://dc.lft.to/lastmile_qr_scan"}, "type": "electric_scooter", "lat": 38.92491733333333, "is_reserved": 0, "fusion_lat": 0.0}, {"bike_id": "baf578d422a8785006c9e5484fa79e08", "fusion_lon": 0.0, "lon": -77.03160683333333, "name": "baf578d422a8785006c9e5484fa79e08", "is_disabled": 0, "rental_uris": {"android": "https://dc.lft.to/lastmile_qr_scan", "ios": "https://dc.lft.to/lastmile_qr_scan"}, "type": "electric_bike", "lat": 38.99943966666667, "is_reserved": 0, "fusion_lat": 0.0}, {"bike_id": "4e9d8cc82b8d473180b6571461e31cdc", "fusion_lon": 0.0, "lon": -76.9836915, "name": "4e9d8cc82b8d473180b6571461e31cdc", "is_disabled": 0, "rental_uris": {"android": "https://dc.lft.to/lastmile_qr_scan", "ios": "https://dc.lft.to/lastmile_qr_scan"}, "type": "electric_scooter", "lat": 38.88590533333333, "is_reserved": 0, "fusion_lat": 0.0},