{"data": {"bikes": [{"rental_uris": {"ios": "https://dc.lft.to/lastmile_qr_scan", "android": "https://dc.lft.to/lastmile_qr_scan"}, "lon": -77.073597, "type": "electric_scooter", "fusion_lat": 0.0, "lat": 38.9374135, "name": "f94ded5d23b48b47ad6060399afe15b7", "fusion_lon": 0.0, "bike_id": "f94ded5d23b48b47ad6060399afe15b7", "is_disabled": 0, "is_reserved": 0}, {"rental_uris": {"ios": "https://dc.lft.to/lastmile_qr_scan", "android": "https://dc.lft.to/lastmile_qr_scan"}, "lon": -77.01866666666666, "type": "electric_scooter", "fusion_lat": 0.0, "lat": 38.948942, "name": "74489a91987bdb3d42c78102dcf366be", "fusion_lon": 0.0, "bike_id": "74489a91987bdb3d42c78102dcf366be", "is_disabled": 0, "is_reserved": 0}, {"rental_uris": {"ios": "https://dc.lft.to/lastmile_qr_scan", "android": "https://dc.lft.to/lastmile_qr_scan"}, "lon": -77.0480615, "type": "electric_scooter", "fusion_lat": 0.0, "lat": 38.8973045, "name": "47d503aa1ebfdbbcf4918fd20668111e", "fusion_lon": 0.0, "bike_id": "47d503aa1ebfdbbcf4918fd20668111e", "is_disabled": 0, "is_reserved": 0}, {"rental_uris": {"ios": "https://dc.lft.to/lastmile_qr_scan", "android": "https://dc.lft.to/lastmile_qr_scan"}, "lon": -77.06645066666667, "type": "electric_scooter", "fusion_lat": 0.0, "lat": 38.913751500000004, "name": "2bad9cf74449b373e6821c6afd3ea362", "fusion_lon": 0.0, "bike_id": "2bad9cf74449b373e6821c6afd3ea362", "is_disabled": 0, "is_reserved": 0}, {"rental_uris": {"ios": "https://dc.lft.to/lastmile_qr_scan", "android": "https://dc.lft.to/lastmile_qr_scan"}, "lon": -77.0297855, "type": "electric_bike", "fusion_lat": 0.0, "lat": 38.9369975, "name": "921afad941ae92267d759c691ec2e7f7", "fusion_lon": 0.0, "bike_id": "921afad941ae92267d759c691ec2e7f7", "is_disabled": 0, "is_reserved": 0}, {"rental_uris": {"ios": "https://dc.lft.to/lastmile_qr_scan", "android": "https://dc.lft.to/lastmile_qr_scan"}, "lon": -77.03187666666666, "type": "electric_scooter", "fusion_lat": 0.0, "lat": 38.908407833333335, "name": "dd47bede0578a32a6f3b00d9536223a4", "fusion_lon": 0.0, "bike_id": "dd47bede0578a32a6f3b00d9536223a4", "is_disabled": 0, "is_reserved": 0}, {"rental_uris": {"ios": "https://dc.lft.to/lastmile_qr_scan", "android": "https://dc.lft.to/lastmile_qr_scan"}, "lon": -76.97629583333334, "type": "electric_scooter", "fusion_lat": 0.0, "lat": 38.90570683333333, "name": "0fd22592e5f916a4d033aeec62a10302", "fusion_lon": 0.0, "bike_id": "0fd22592e5f916a4d033aeec62a10302", "is_disabled": 0, "is_reserved": 0}, {"rental_uris": {"ios": "https://dc.lft.to/lastmile_qr_scan", "android": "https://dc.lft.to/lastmile_qr_scan"}, "lon": -76.965252, "type": "electric_scooter", "fusion_lat": 0.0, "lat": 38.876258166666666, "name": "37a1d71072c45c7ae7a111dd92037076", "fusion_lon": 0.0, "bike_id": "37a1d71072c45c7ae7a111dd92037076", "is_disabled": 0, "is_reserved": 0}, {"rental_uris": {"ios": "https://dc.lft.to/lastmile_qr_scan", "android": "https://dc.lft.to/lastmile_qr_scan"}, "lon": -77.0558215, "type": "electric_scooter", "fusion_lat": 0.0, "lat": 38.89960933333333, "name": "8639d3de816109e63122e3d4cb9d4009", "fusion_lon": 0.0, "bike_id": "8639d3de816109e63122e3d4cb9d4009", "is_disabled": 0, "is_reserved": 0}, {"rental_uris": {"ios": "https://dc.lft.to/lastmile_qr_scan", "android": "https://dc.lft.to/lastmile_qr_scan"}, "lon": -77.046092, "type": "electric_scooter", "fusion_lat": 0.0, "lat": 38.90245866666667, "name": "34989d8002c0f692c4e4d10e9e1fc49a", "fusion_lon": 0.0, "bike_id": "34989d8002c0f692c4e4d10e9e1fc49a", "is_disabled": 0, "is_reserved": 0}, {"rental_uris": {"ios": "https://dc.lft.to/lastmile_qr_scan", "android": "https://dc.lft.to/lastmile_qr_scan"}, "lon": -76.993336, "type": "electric_bike", "fusion_lat": 0.0, "lat": 38.96194366666667, "name": "d4b0db328969954a285b789da190c7f6", "fusion_lon": 0.0, "bike_id": "d4b0db328969954a285b789da190c7f6", "is_disabled": 0, "is_reserved": 0}, {"rental_uris": {"ios": "https://dc.lft.to/lastmile_qr_scan", "android": "https://dc.lft.to/lastmile_qr_scan"}, "lon": -77.0151215, "type": "electric_scooter", "fusion_lat": 0.0, "lat": 38.9160875, "name": "5a8e876d513dde2570a77e18fe9e51bc", "fusion_lon": 0.0, "bike_id": "5a8e876d513dde2570a77e18fe9e51bc", "is_disabled": 0, "is_reserved": 0}, {"rental_uris": {"ios": "https://dc.lft.to/lastmile_qr_scan", "android": "https://dc.lft.to/lastmile_qr_scan"}, "lon": -77.0262335, "type": "electric_scooter", "fusion_lat": 0.0, "lat": 38.927861666666665, "name": "0c9233f7e036fb55f3cb3994410b5590", "fusion_lon": 0.0, "bike_id": "0c9233f7e036fb55f3cb3994410b5590", "is_disabled": 0, "is_reserved": 0}, {"rental_uris": {"ios": "https://dc.lft.to/lastmile_qr_scan", "android": "https://dc.lft.to/lastmile_qr_scan"}, "lon": -77.02926, "type": "electric_scooter", "fusion_lat": 0.0, "lat": 38.8821605, "name": "1378ca7f29aaf6f8e15f4158a9a13639", "fusion_lon": 0.0, "bike_id": "1378ca7f29aaf6f8e15f4158a9a13639", "is_disabled": 0, "is_reserved": 0}, {"rental_uris": {"ios": "https://dc.lft.to/lastmile_qr_scan", "android": "https://dc.lft.to/lastmile_qr_scan"}, "lon": -77.029432, "type": "electric_scooter", "fusion_lat": 0.0, "lat": 38.9078215, "name": "a0b87056b98a3cb4ee8783658eb2f12d", "fusion_lon": 0.0, "bike_id": "a0b87056b98a3cb4ee8783658eb2f12d", "is_disabled": 0, "is_reserved": 0}, {"rental_uris": {"ios": "https://dc.lft.to/lastmile_qr_scan", "android": "https://dc.lft.to/lastmile_qr_scan"}, "lon": -77.00589916666667, "type": "electric_scooter", "fusion_lat": 0.0, "lat": 38.915619, "name": "8f8f4cceb80ca738d8cb82b651cf7286", "fusion_lon": 0.0, "bike_id": "8f8f4cceb80ca738d8cb82b651cf7286", "is_disabled": 0, "is_reserved": 0}, {"rental_uris": {"ios": "https://dc.lft.to/lastmile_qr_scan", "android": "https://dc.lft.to/lastmile_qr_scan"}, "lon": -77.02839533333334, "type": "electric_scooter", "fusion_lat": 0.0, "lat": 38.930777166666665, "name": "1804cbeccaf98f776120b21233efcaa2", "fusion_lon": 0.0, "bike_id": "1804cbeccaf98f776120b21233efcaa2", "is_disabled": 0, "is_reserved": 0}, {"rental_uris": {"ios": "https://dc.lft.to/lastmile_qr_scan", "android": "https://dc.lft.to/lastmile_qr_scan"}, "lon": -77.0228645, "type": "electric_scooter", "fusion_lat": 0.0, "lat": 38.91573416666667, "name": "7618c7657c55f361a8b38735ab319877", "fusion_lon": 0.0, "bike_id": "7618c7657c55f361a8b38735ab319877", "is_disabled": 0, "is_reserved": 0}, {"rental_uris": {"ios": "https://dc.lft.to/lastmile_qr_scan", "android": "https://dc.lft.to/lastmile_qr_scan"}, "lon": -77.041955, "type": "electric_scooter", "fusion_lat": 0.0, "lat": 38.90766683333333, "name": "482d2a4870f6fc9de34ab31bc94bf393", "fusion_lon": 0.0, "bike_id": "482d2a4870f6fc9de34ab31bc94bf393", "is_disabled": 0, "is_reserved": 0}, {"rental_uris": {"ios": "https://dc.lft.to/lastmile_qr_scan", "android": "https://dc.lft.to/lastmile_qr_scan"}, "lon": -77.1249875, "type": "electric_bike", "fusion_lat": 0.0, "lat": 39.024150166666665, "name": "65e404beae0ff71014071bf1ddbf0066", "fusion_lon": 0.0, "bike_id": "65e404beae0ff71014071bf1ddbf0066", "is_disabled": 0, "is_reserved": 0}, {"rental_uris": {"ios": "https://dc.lft.to/lastmile_qr_scan", "android": "https://dc.lft.to/lastmile_qr_scan"}, "lon": -77.0439095, "type": "electric_scooter", "fusion_lat": 0.0, "lat": 38.9294755, "name": "a617428f0110b2c306e0d9a68c1744c4", "fusion_lon": 0.0, "bike_id": "a617428f0110b2c306e0d9a68c1744c4", "is_disabled": 0, "is_reserved": 0}, {"rental_uris": {"ios": "https://dc.lft.to/lastmile_qr_scan", "android": "https://dc.lft.to/lastmile_qr_scan"}, "lon": -77.22210166666666, "type": "electric_bike", "fusion_lat": 0.0, "lat": 38.920724166666666, "name": "056137a5a25215ddf58b74e5fcb70c23", "fusion_lon": 0.0, "bike_id": "056137a5a25215ddf58b74e5fcb70c23", "is_disabled": 0, "is_reserved": 0}, {"rental_uris": {"ios": "https://dc.lft.to/lastmile_qr_scan", "android": "https://dc.lft.to/lastmile_qr_scan"}, "lon": -77.03074233333334, "type": "electric_scooter", "fusion_lat": 0.0, "lat": 38.92238366666667, "name": "e894308bbf6ab127f6e6648e7f3a5092", "fusion_lon": 0.0, "bike_id": "e894308bbf6ab127f6e6648e7f3a5092", "is_disabled": 0, "is_reserved": 0}, {"rental_uris": {"ios": "https://dc.lft.to/lastmile_qr_scan", "android": "https://dc.lft.to/lastmile_qr_scan"}, "lon": -77.0390185, "type": "electric_scooter", "fusion_lat": 0.0, "lat": 38.923269833333336, "name": "989344133e6b142a9951a9ee743aefc9", "fusion_lon": 0.0, "bike_id": "989344133e6b142a9951a9ee743aefc9", "is_disabled": 0, "is_reserved": 0}, {"rental_uris": {"ios": "https://dc.lft.to/lastmile_qr_scan", "android": "https://dc.lft.to/lastmile_qr_scan"}, "lon": -77.00692733333334, "type": "electric_scooter", "fusion_lat": 0.0, "lat": 38.90550183333333, "name": "eb3c9a58881a3755c81a87b6036175e1", "fusion_lon": 0.0, "bike_id": "eb3c9a58881a3755c81a87b6036175e1", "is_disabled": 0, "is_reserved": 0}, {"rental_uris": {"ios": "https://dc.lft.to/lastmile_qr_scan", "android": "https://dc.lft.to/lastmile_qr_scan"}, "lon": -77.02345516666666, "type": "electric_scooter", "fusion_lat": 0.0, "lat": 38.962013166666665, "name": "53867fa2275479a3f7b3de23f354559e", "fusion_lon": 0.0, "bike_id": "53867fa2275479a3f7b3de23f354559e", "is_disabled": 0, "is_reserved": 0}, {"rental_uris": {"ios": "https://dc.lft.to/lastmile_qr_scan", "android": "https://dc.lft.to/lastmile_qr_scan"}, "lon": -77.016974, "type": "electric_scooter", "fusion_lat": 0.0, "lat": 38.87919933333333, "name": "c67ae9ebf7aa1129232820572e32fae8", "fusion_lon": 0.0, "bike_id": "c67ae9ebf7aa1129232820572e32fae8", "is_disabled": 0, "is_reserved": 0}, {"rental_uris": {"ios": "https://dc.lft.to/lastmile_qr_scan", "android": "https://dc.lft.to/lastmile_qr_scan"}, "lon": -77.00058966666667, "type": "electric_scooter", "fusion_lat": 0.0, "lat": 38.888964333333334, "name": "6c23ab590c2b3e2d022fbf042f0bcfdb", "fusion_lon": 0.0, "bike_id": "6c23ab590c2b3e2d022fbf042f0bcfdb", "is_disabled": 0, "is_reserved": 0}, {"rental_uris": {"ios": "https://dc.lft.to/lastmile_qr_scan", "android": "https://dc.lft.to/lastmile_qr_scan"}, "lon": -77.03696766666667, "type": "electric_bike", "fusion_lat": 0.0, "lat": 38.93560733333333, "name": "2dd28448cfe3bc3b7f40bda2a0ba60cd", "fusion_lon": 0.0, "bike_id": "2dd28448cfe3bc3b7f40bda2a0ba60cd", "is_disabled": 0, "is_reserved": 0}, {"rental_uris": {"ios": "https://dc.lft.to/lastmile_qr_scan", "android": "https://dc.lft.to/lastmile_qr_scan"}, "lon": -77.07549366666667, "type": "electric_bike", "fusion_lat": 0.0, "lat": 38.91044566666667, "name": "53ef721292ed1cbda9f86d61b9992cb3", "fusion_lon": 0.0, "bike_id": "53ef721292ed1cbda9f86d61b9992cb3", "is_disabled": 0, "is_reserved": 0}, {"rental_uris": {"ios": "https://dc.lft.to/lastmile_qr_scan", "android": "https://dc.lft.to/lastmile_qr_scan"}, "lon": -77.08847383333334, "type": "electric_bike", "fusion_lat": 0.0, "lat": 38.84070116666667, "name": "1f9460e84b59c479ceb1942e22a76eb7", "fusion_lon": 0.0, "bike_id": "1f9460e84b59c479ceb1942e22a76eb7", "is_disabled": 0, "is_reserved": 0}, {"rental_uris": {"ios": "https://dc.lft.to/lastmile_qr_scan", "android": "https://dc.lft.to/lastmile_qr_scan"}, "lon": -77.045601, "type": "electric_scooter", "fusion_lat": 0.0, "lat": 38.914609166666665, "name": "4af44b32e7eadb60712391a4984b33e0", "fusion_lon": 0.0, "bike_id": "4af44b32e7eadb60712391a4984b33e0", "is_disabled": 0, "is_reserved": 0}, {"rental_uris": {"ios": "https://dc.lft.to/lastmile_qr_scan", "android": "https://dc.lft.to/lastmile_qr_scan"}, "lon": -77.03841433333334, "type": "electric_scooter", "fusion_lat": 0.0, "lat": 38.910836833333335, "name": "14975a4dad3f38c0e81fff2057513d7a", "fusion_lon": 0.0, "bike_id": "14975a4dad3f38c0e81fff2057513d7a", "is_disabled": 0, "is_reserved": 0}, {"rental_uris": {"ios": "https://dc.lft.to/lastmile_qr_scan", "android": "https://dc.lft.to/lastmile_qr_scan"}, "lon": -77.01297666666666, "type": "electric_bike", "fusion_lat": 0.0, "lat": 39.003775833333336, "name": "a541907e4134e95b2acdfd70d8235733", "fusion_lon": 0.0, "bike_id": "a541907e4134e95b2acdfd70d8235733", "is_disabled": 0, "is_reserved": 0}, {"rental_uris": {"ios": "https://dc.lft.to/lastmile_qr_scan", "android": "https://dc.lft.to/lastmile_qr_scan"}, "lon": -77.02552933333334, "type": "electric_scooter", "fusion_lat": 0.0, "lat": 38.89223283333333, "name": "d1134e4f198d070f2a5a0547666f70a4", "fusion_lon": 0.0, "bike_id": "d1134e4f198d070f2a5a0547666f70a4", "is_disabled": 0, "is_reserved": 0}, {"rental_uris": {"ios": "https://dc.lft.to/lastmile_qr_scan", "android": "https://dc.lft.to/lastmile_qr_scan"}, "lon": -77.05743733333334, "type": "electric_scooter", "fusion_lat": 0.0, "lat": 38.935365166666664, "name": "32026a59cfe121562bf14a972baa6894", "fusion_lon": 0.0, "bike_id": "32026a59cfe121562bf14a972baa6894", "is_disabled": 0, "is_reserved": 0}, {"rental_uris": {"ios": "https://dc.lft.to/lastmile_qr_scan", "android": "https://dc.lft.to/lastmile_qr_scan"}, "lon": -77.01136116666666, "type": "electric_scooter", "fusion_lat": 0.0, "lat": 38.90365333333333, "name": "9d70b4badda984952ca3dc497207f436", "fusion_lon": 0.0, "bike_id": "9d70b4badda984952ca3dc497207f436", "is_disabled": 0, "is_reserved": 0}, {"rental_uris": {"ios": "https://dc.lft.to/lastmile_qr_scan", "android": "https://dc.lft.to/lastmile_qr_scan"}, "lon": -77.0515385, "type": "electric_scooter", "fusion_lat": 0.0, "lat": 38.897697666666666, "name": "d6a78a71b49d97fae9e08df8fcf89df7", "fusion_lon": 0.0, "bike_id": "d6a78a71b49d97fae9e08df8fcf89df7", "is_disabled": 0, "is_reserved": 0}, {"rental_uris": {"ios": "https://dc.lft.to/lastmile_qr_scan", "android": "https://dc.lft.to/lastmile_qr_scan"}, "lon": -77.01391033333333, "type": "electric_scooter", "fusion_lat": 0.0, "lat": 38.928492, "name": "6194a3c2664841d223f47c728da49698", "fusion_lon": 0.0, "bike_id": "6194a3c2664841d223f47c728da49698", "is_disabled": 0, "is_reserved": 0}, {"rental_uris": {"ios": "https://dc.lft.to/lastmile_qr_scan", "android": "https://dc.lft.to/lastmile_qr_scan"}, "lon": -77.00317983333333, "type": "electric_scooter", "fusion_lat": 0.0, "lat": 38.90113316666667, "name": "618c495e49f5d0784ace0755beb3cdab", "fusion_lon": 0.0, "bike_id": "618c495e49f5d0784ace0755beb3cdab", "is_disabled": 0, "is_reserved": 0}, {"rental_uris": {"ios": "https://dc.lft.to/lastmile_qr_scan", "android": "https://dc.lft.to/lastmile_qr_scan"}, "lon": -77.00264466666667, "type": "electric_scooter", "fusion_lat": 0.0, "lat": 38.877392, "name": "0d2e6029551af327bdffc852ccfe0317", "fusion_lon": 0.0, "bike_id": "0d2e6029551af327bdffc852ccfe0317", "is_disabled": 0, "is_reserved": 0}, {"rental_uris": {"ios": "https://dc.lft.to/lastmile_qr_scan", "android": "https://dc.lft.to/lastmile_qr_scan"}, "lon": -77.0006835, "type": "electric_scooter", "fusion_lat": 0.0, "lat": 38.900487, "name": "79f3db0b7f3e44e02e3698e5a5352899", "fusion_lon": 0.0, "bike_id": "79f3db0b7f3e44e02e3698e5a5352899", "is_disabled": 0, "is_reserved": 0}, {"rental_uris": {"ios": "https://dc.lft.to/lastmile_qr_scan", "android": "https://dc.lft.to/lastmile_qr_scan"}, "lon": -77.02164433333333, "type": "electric_scooter", "fusion_lat": 0.0, "lat": 38.909744333333336, "name": "38e981f5e9fb7e68002b7269add8bef3", "fusion_lon": 0.0, "bike_id": "38e981f5e9fb7e68002b7269add8bef3", "is_disabled": 0, "is_reserved": 0}, {"rental_uris": {"ios": "https://dc.lft.to/lastmile_qr_scan", "android": "https://dc.lft.to/lastmile_qr_scan"}, "lon": -76.96549716666667, "type": "electric_bike", "fusion_lat": 0.0, "lat": 38.950961, "name": "1dde15a0711670113fc1bd932c4ff1a4", "fusion_lon": 0.0, "bike_id": "1dde15a0711670113fc1bd932c4ff1a4", "is_disabled": 0, "is_reserved": 0}, {"rental_uris": {"ios": "https://dc.lft.to/lastmile_qr_scan", "android": "https://dc.lft.to/lastmile_qr_scan"}, "lon": -76.994589, "type": "electric_bike", "fusion_lat": 0.0, "lat": 38.94066433333333, "name": "cfa327522f15aad3f111a39d41f8aad2", "fusion_lon": 0.0, "bike_id": "cfa327522f15aad3f111a39d41f8aad2", "is_disabled": 0, "is_reserved": 0}, {"rental_uris": {"ios": "https://dc.lft.to/lastmile_qr_scan", "android": "https://dc.lft.to/lastmile_qr_scan"}, "lon": -77.120234, "type": "electric_bike", "fusion_lat": 0.0, "lat": 38.855092166666665, "name": "26b7556f57dae22017645486b5aaa07c", "fusion_lon": 0.0, "bike_id": "26b7556f57dae22017645486b5aaa07c", "is_disabled": 0, "is_reserved": 0}, {"rental_uris": {"ios": "https://dc.lft.to/lastmile_qr_scan", "android": "https://dc.lft.to/lastmile_qr_scan"}, "lon": -76.94970016666667, "type": "electric_scooter", "fusion_lat": 0.0, "lat": 38.893748, "name": "331a7dd57def362e03493587d0686726", "fusion_lon": 0.0, "bike_id": "331a7dd57def362e03493587d0686726", "is_disabled": 0, "is_reserved": 0}, {"rental_uris": {"ios": "https://dc.lft.to/lastmile_qr_scan", "android": "https://dc.lft.to/lastmile_qr_scan"}, "lon": -77.03202116666667, "type": "electric_scooter", "fusion_lat": 0.0, "lat": 38.91738016666667, "name": "a721bb89736fdd2856f42abcfb26ece5", "fusion_lon": 0.0, "bike_id": "a721bb89736fdd2856f42abcfb26ece5", "is_disabled": 0, "is_reserved": 0}, {"rental_uris": {"ios": "https://dc.lft.to/lastmile_qr_scan", "android": "https://dc.lft.to/lastmile_qr_scan"}, "lon": -76.93177783333333, "type": "electric_scooter", "fusion_lat": 0.0, "lat": 38.89879116666667, "name": "104867e68b79ee9e3fc4a88539f66bc5", "fusion_lon": 0.0, "bike_id": "104867e68b79ee9e3fc4a88539f66bc5", "is_disabled": 0, "is_reserved": 0}, {"rental_uris": {"ios": "https://dc.lft.to/lastmile_qr_scan", "android": "https://dc.lft.to/lastmile_qr_scan"}, "lon": -77.0317135, "type": "electric_scooter", "fusion_lat": 0.0, "lat": 38.88628283333333, "name": "fb77aa00ecd493d8f855af9737e6150b", "fusion_lon": 0.0, "bike_id": "fb77aa00ecd493d8f855af9737e6150b", "is_disabled": 0, "is_reserved": 0}, {"rental_uris": {"ios": "https://dc.lft.to/lastmile_qr_scan", "android": "https://dc.lft.to/lastmile_qr_scan"}, "lon": -77.00215116666666, "type": "electric_scooter", "fusion_lat": 0.0, "lat": 38.902217, "name": "6e70c4fe0f39fc3fc320fa1364a7be89", "fusion_lon": 0.0, "bike_id": "6e70c4fe0f39fc3fc320fa1364a7be89", "is_disabled": 0, "is_reserved": 0}, {"rental_uris": {"ios": "https://dc.lft.to/lastmile_qr_scan", "android": "https://dc.lft.to/lastmile_qr_scan"}, "lon": -77.05166783333334, "type": "electric_scooter", "fusion_lat": 0.0, "lat": 38.897707, "name": "097ae84bd5727ee2702d5e1bd16194a2", "fusion_lon": 0.0, "bike_id": "097ae84bd5727ee2702d5e1bd16194a2", "is_disabled": 0, "is_reserved": 0}, {"rental_uris": {"ios": "https://dc.lft.to/lastmile_qr_scan", "android": "https://dc.lft.to/lastmile_qr_scan"}, "lon": -77.04658116666667, "type": "electric_scooter", "fusion_lat": 0.0, "lat": 38.89342633333333, "name": "10e31097be28c7fb77826743f2431ffd", "fusion_lon": 0.0, "bike_id": "10e31097be28c7fb77826743f2431ffd", "is_disabled": 0, "is_reserved": 0}, {"rental_uris": {"ios": "https://dc.lft.to/lastmile_qr_scan", "android": "https://dc.lft.to/lastmile_qr_scan"}, "lon": -77.02117116666666, "type": "electric_scooter", "fusion_lat": 0.0, "lat": 38.894263, "name": "5ad3baddecedefe7d6b2704864e7adfe", "fusion_lon": 0.0, "bike_id": "5ad3baddecedefe7d6b2704864e7adfe", "is_disabled": 0, "is_reserved": 0}, {"rental_uris": {"ios": "https://dc.lft.to/lastmile_qr_scan", "android": "https://dc.lft.to/lastmile_qr_scan"}, "lon": -77.01988233333333, "type": "electric_scooter", "fusion_lat": 0.0, "lat": 38.902631, "name": "8674a6cd86d4e0732aa6ed3f835c2cb1", "fusion_lon": 0.0, "bike_id": "8674a6cd86d4e0732aa6ed3f835c2cb1", "is_disabled": 0, "is_reserved": 0}, {"rental_uris": {"ios": "https://dc.lft.to/lastmile_qr_scan", "android": "https://dc.lft.to/lastmile_qr_scan"}, "lon": -77.02598566666667, "type": "electric_scooter", "fusion_lat": 0.0, "lat": 38.975881666666666, "name": "0a5fbe95f40e6537993a4af9aba11e12", "fusion_lon": 0.0, "bike_id": "0a5fbe95f40e6537993a4af9aba11e12", "is_disabled": 0, "is_reserved": 0}, {"rental_uris": {"ios": "https://dc.lft.to/lastmile_qr_scan", "android": "https://dc.lft.to/lastmile_qr_scan"}, "lon": -77.053026, "type": "electric_scooter", "fusion_lat": 0.0, "lat": 38.92777433333333, "name": "49b18cafd0fe39b4c4816973adc98533", "fusion_lon": 0.0, "bike_id": "49b18cafd0fe39b4c4816973adc98533", "is_disabled": 0, "is_reserved": 0}, {"rental_uris": {"ios": "https://dc.lft.to/lastmile_qr_scan", "android": "https://dc.lft.to/lastmile_qr_scan"}, "lon": -77.04863783333333, "type": "electric_scooter", "fusion_lat": 0.0, "lat": 38.905902, "name": "657dd217c19398ee1068d97e96c22900", "fusion_lon": 0.0, "bike_id": "657dd217c19398ee1068d97e96c22900", "is_disabled": 0, "is_reserved": 0}, {"rental_uris": {"ios": "https://dc.lft.to/lastmile_qr_scan", "android": "https://dc.lft.to/lastmile_qr_scan"}, "lon": -77.05358116666666, "type": "electric_scooter", "fusion_lat": 0.0, "lat": 38.9279315, "name": "3b19baafb40212df195bb4fcfd84214a", "fusion_lon": 0.0, "bike_id": "3b19baafb40212df195bb4fcfd84214a", "is_disabled": 0, "is_reserved": 0}, {"rental_uris": {"ios": "https://dc.lft.to/lastmile_qr_scan", "android": "https://dc.lft.to/lastmile_qr_scan"}, "lon": -77.02398066666667, "type": "electric_scooter", "fusion_lat": 0.0, "lat": 38.9158865, "name": "9989cfd41f495781dd7730fa383c20ae", "fusion_lon": 0.0, "bike_id": "9989cfd41f495781dd7730fa383c20ae", "is_disabled": 0, "is_reserved": 0}, {"rental_uris": {"ios": "https://dc.lft.to/lastmile_qr_scan", "android": "https://dc.lft.to/lastmile_qr_scan"}, "lon": -77.05224983333333, "type": "electric_scooter", "fusion_lat": 0.0, "lat": 38.924942, "name": "242ea079f3406862c1fd3eaf9d9478d8", "fusion_lon": 0.0, "bike_id": "242ea079f3406862c1fd3eaf9d9478d8", "is_disabled": 0, "is_reserved": 0}, {"rental_uris": {"ios": "https://dc.lft.to/lastmile_qr_scan", "android": "https://dc.lft.to/lastmile_qr_scan"}, "lon": -77.02696983333334, "type": "electric_scooter", "fusion_lat": 0.0, "lat": 38.90869816666667, "name": "bb8eac85e683e401c88cbf0ba2cf5522", "fusion_lon": 0.0, "bike_id": "bb8eac85e683e401c88cbf0ba2cf5522", "is_disabled": 0, "is_reserved": 0}, {"rental_uris": {"ios": "https://dc.lft.to/lastmile_qr_scan", "android": "https://dc.lft.to/lastmile_qr_scan"}, "lon": -77.01822033333333, "type": "electric_scooter", "fusion_lat": 0.0, "lat": 38.876981666666666, "name": "1cb615acae0df3ea065ef3485e0c4bc0", "fusion_lon": 0.0, "bike_id": "1cb615acae0df3ea065ef3485e0c4bc0", "is_disabled": 0, "is_reserved": 0}, {"rental_uris": {"ios": "https://dc.lft.to/lastmile_qr_scan", "android": "https://dc.lft.to/lastmile_qr_scan"}, "lon": -77.06633333333333, "type": "electric_scooter", "fusion_lat": 0.0, "lat": 38.913673, "name": "3034570ba734eb9603df6521d37d1e6e", "fusion_lon": 0.0, "bike_id": "3034570ba734eb9603df6521d37d1e6e", "is_disabled": 0, "is_reserved": 0}, {"rental_uris": {"ios": "https://dc.lft.to/lastmile_qr_scan", "android": "https://dc.lft.to/lastmile_qr_scan"}, "lon": -76.9837495, "type": "electric_scooter", "fusion_lat": 0.0, "lat": 38.860264, "name": "8cb1788f13507045e643c175c1c21ef8", "fusion_lon": 0.0, "bike_id": "8cb1788f13507045e643c175c1c21ef8", "is_disabled": 0, "is_reserved": 0}, {"rental_uris": {"ios": "https://dc.lft.to/lastmile_qr_scan", "android": "https://dc.lft.to/lastmile_qr_scan"}, "lon": -77.12901516666666, "type": "electric_bike", "fusion_lat": 0.0, "lat": 38.86375816666666, "name": "ace7eb70619a721ec20a7cced2c1572a", "fusion_lon": 0.0, "bike_id": "ace7eb70619a721ec20a7cced2c1572a", "is_disabled": 0, "is_reserved": 0}, {"rental_uris": {"ios": "https://dc.lft.to/lastmile_qr_scan", "android": "https://dc.lft.to/lastmile_qr_scan"}, "lon": -77.02959166666666, "type": "electric_scooter", "fusion_lat": 0.0, "lat": 38.9117895, "name": "01105847ffeb8b155b6ca504bb93b538", "fusion_lon": 0.0, "bike_id": "01105847ffeb8b155b6ca504bb93b538", "is_disabled": 0, "is_reserved": 0}, {"rental_uris": {"ios": "https://dc.lft.to/lastmile_qr_scan", "android": "https://dc.lft.to/lastmile_qr_scan"}, "lon": -77.05158633333333, "type": "electric_scooter", "fusion_lat": 0.0, "lat": 38.89766433333333, "name": "6fc42e1257022453b1e78954b4a7985a", "fusion_lon": 0.0, "bike_id": "6fc42e1257022453b1e78954b4a7985a", "is_disabled": 0, "is_reserved": 0}, {"rental_uris": {"ios": "https://dc.lft.to/lastmile_qr_scan", "android": "https://dc.lft.to/lastmile_qr_scan"}, "lon": -77.04258983333334, "type": "electric_scooter", "fusion_lat": 0.0, "lat": 38.920542, "name": "48fbea52a657d0fbe8a3eeab3c283381", "fusion_lon": 0.0, "bike_id": "48fbea52a657d0fbe8a3eeab3c283381", "is_disabled": 0, "is_reserved": 0}, {"rental_uris": {"ios": "https://dc.lft.to/lastmile_qr_scan", "android": "https://dc.lft.to/lastmile_qr_scan"}, "lon": -77.033896, "type": "electric_scooter", "fusion_lat": 0.0, "lat": 38.8865565, "name": "0c35e5b96f0c28d1f077bdad9fa6f586", "fusion_lon": 0.0, "bike_id": "0c35e5b96f0c28d1f077bdad9fa6f586", "is_disabled": 0, "is_reserved": 0}, {"rental_uris": {"ios": "https://dc.lft.to/lastmile_qr_scan", "android": "https://dc.lft.to/lastmile_qr_scan"}, "lon": -77.02084683333334, "type": "electric_scooter", "fusion_lat": 0.0, "lat": 38.881818833333334, "name": "f02bf0ee76cd236160ed4f3cc2d4af68", "fusion_lon": 0.0, "bike_id": "f02bf0ee76cd236160ed4f3cc2d4af68", "is_disabled": 0, "is_reserved": 0}, {"rental_uris": {"ios": "https://dc.lft.to/lastmile_qr_scan", "android": "https://dc.lft.to/lastmile_qr_scan"}, "lon": -77.04201233333333, "type": "electric_scooter", "fusion_lat": 0.0, "lat": 38.9032785, "name": "09aa9b3041718705b8d4e73767edbabd", "fusion_lon": 0.0, "bike_id": "09aa9b3041718705b8d4e73767edbabd", "is_disabled": 0, "is_reserved": 0}, {"rental_uris": {"ios": "https://dc.lft.to/lastmile_qr_scan", "android": "https://dc.lft.to/lastmile_qr_scan"}, "lon": -77.152679, "type": "electric_bike", "fusion_lat": 0.0, "lat": 39.10563666666667, "name": "28827d904f451c1527b554f4647763b8", "fusion_lon": 0.0, "bike_id": "28827d904f451c1527b554f4647763b8", "is_disabled": 0, "is_reserved": 0}, {"rental_uris": {"ios": "https://dc.lft.to/lastmile_qr_scan", "android": "https://dc.lft.to/lastmile_qr_scan"}, "lon": -76.95754116666667, "type": "electric_scooter", "fusion_lat": 0.0, "lat": 38.884252000000004, "name": "cd91aae128233ccfd9e6ada1d4e2460f", "fusion_lon": 0.0, "bike_id": "cd91aae128233ccfd9e6ada1d4e2460f", "is_disabled": 0, "is_reserved": 0}, {"rental_uris": {"ios": "https://dc.lft.to/lastmile_qr_scan", "android": "https://dc.lft.to/lastmile_qr_scan"}, "lon": -77.03001916666666, "type": "electric_scooter", "fusion_lat": 0.0, "lat": 38.910243666666666, "name": "e992f0a4fff91ff585053da8863818b3", "fusion_lon": 0.0, "bike_id": "e992f0a4fff91ff585053da8863818b3", "is_disabled": 0, "is_reserved": 0}, {"rental_uris": {"ios": "https://dc.lft.to/lastmile_qr_scan", "android": "https://dc.lft.to/lastmile_qr_scan"}, "lon": -77.0141385, "type": "electric_scooter", "fusion_lat": 0.0, "lat": 38.92818466666667, "name": "1894fa2914326b82fd8f5fc8961d9071", "fusion_lon": 0.0, "bike_id": "1894fa2914326b82fd8f5fc8961d9071", "is_disabled": 0, "is_reserved": 0}, {"rental_uris": {"ios": "https://dc.lft.to/lastmile_qr_scan", "android": "https://dc.lft.to/lastmile_qr_scan"}, "lon": -76.98328166666667, "type": "electric_scooter", "fusion_lat": 0.0, "lat": 38.8616985, "name": "c5de73c2d9f1163252d104eea75a5836", "fusion_lon": 0.0, "bike_id": "c5de73c2d9f1163252d104eea75a5836", "is_disabled": 0, "is_reserved": 0}, {"rental_uris": {"ios": "https://dc.lft.to/lastmile_qr_scan", "android": "https://dc.lft.to/lastmile_qr_scan"}, "lon": -77.0026175, "type": "electric_scooter", "fusion_lat": 0.0, "lat": 38.877404, "name": "1110e3413ce14982ee7aec8fa31acf7b", "fusion_lon": 0.0, "bike_id": "1110e3413ce14982ee7aec8fa31acf7b", "is_disabled": 0, "is_reserved": 0}, {"rental_uris": {"ios": "https://dc.lft.to/lastmile_qr_scan", "android": "https://dc.lft.to/lastmile_qr_scan"}, "lon": -77.02530966666667, "type": "electric_scooter", "fusion_lat": 0.0, "lat": 38.91817016666667, "name": "474ddd1dd380c9cfa4f4dac23c8ec37a", "fusion_lon": 0.0, "bike_id": "474ddd1dd380c9cfa4f4dac23c8ec37a", "is_disabled": 0, "is_reserved": 0}, {"rental_uris": {"ios": "https://dc.lft.to/lastmile_qr_scan", "android": "https://dc.lft.to/lastmile_qr_scan"}, "lon": -77.04162116666667, "type": "electric_scooter", "fusion_lat": 0.0, "lat": 38.919256, "name": "17feb7db50e9f892046d7f9fda3c6eba", "fusion_lon": 0.0, "bike_id": "17feb7db50e9f892046d7f9fda3c6eba", "is_disabled": 0, "is_reserved": 0}, {"rental_uris": {"ios": "https://dc.lft.to/lastmile_qr_scan", "android": "https://dc.lft.to/lastmile_qr_scan"}, "lon": -77.02963583333333, "type": "electric_scooter", "fusion_lat": 0.0, "lat": 38.922607166666666, "name": "66d9f81eef64b0159d7f16f570a25588", "fusion_lon": 0.0, "bike_id": "66d9f81eef64b0159d7f16f570a25588", "is_disabled": 0, "is_reserved": 0}, {"rental_uris": {"ios": "https://dc.lft.to/lastmile_qr_scan", "android": "https://dc.lft.to/lastmile_qr_scan"}, "lon": -77.0235905, "type": "electric_scooter", "fusion_lat": 0.0, "lat": 38.925134, "name": "d6e8f3a48f1933d34edaa1d145a36229", "fusion_lon": 0.0, "bike_id": "d6e8f3a48f1933d34edaa1d145a36229", "is_disabled": 0, "is_reserved": 0}, {"rental_uris": {"ios": "https://dc.lft.to/lastmile_qr_scan", "android": "https://dc.lft.to/lastmile_qr_scan"}, "lon": -77.03518616666666, "type": "electric_scooter", "fusion_lat": 0.0, "lat": 38.923343333333335, "name": "16024ea6cb12ef227db25d75e57e0ae3", "fusion_lon": 0.0, "bike_id": "16024ea6cb12ef227db25d75e57e0ae3", "is_disabled": 0, "is_reserved": 0}, {"rental_uris": {"ios": "https://dc.lft.to/lastmile_qr_scan", "android": "https://dc.lft.to/lastmile_qr_scan"}, "lon": -76.98231716666666, "type": "electric_scooter", "fusion_lat": 0.0, "lat": 38.867622, "name": "6dcd9e8a3ac6be4da1a9515fa3b4810b", "fusion_lon": 0.0, "bike_id": "6dcd9e8a3ac6be4da1a9515fa3b4810b", "is_disabled": 0, "is_reserved": 0}, {"rental_uris": {"ios": "https://dc.lft.to/lastmile_qr_scan", "android": "https://dc.lft.to/lastmile_qr_scan"}, "lon": -77.02597516666667, "type": "electric_scooter", "fusion_lat": 0.0, "lat": 38.91668966666667, "name": "b326bfc4fcaa140df1aff66d17795573", "fusion_lon": 0.0, "bike_id": "b326bfc4fcaa140df1aff66d17795573", "is_disabled": 0, "is_reserved": 0}, {"rental_uris": {"ios": "https://dc.lft.to/lastmile_qr_scan", "android": "https://dc.lft.to/lastmile_qr_scan"}, "lon": -77.04372833333333, "type": "electric_scooter", "fusion_lat": 0.0, "lat": 38.91551166666667, "name": "90886e399d923afbaad88480dc338ae7", "fusion_lon": 0.0, "bike_id": "90886e399d923afbaad88480dc338ae7", "is_disabled": 0, "is_reserved": 0}, {"rental_uris": {"ios": "https://dc.lft.to/lastmile_qr_scan", "android": "https://dc.lft.to/lastmile_qr_scan"}, "lon": -76.9875735, "type": "electric_scooter", "fusion_lat": 0.0, "lat": 38.84501366666667, "name": "57920c9985d45d7ad628347b06eec8e2", "fusion_lon": 0.0, "bike_id": "57920c9985d45d7ad628347b06eec8e2", "is_disabled": 0, "is_reserved": 0}, {"rental_uris": {"ios": "https://dc.lft.to/lastmile_qr_scan", "android": "https://dc.lft.to/lastmile_qr_scan"}, "lon": -77.03497783333333, "type": "electric_scooter", "fusion_lat": 0.0, "lat": 38.918769, "name": "4103aba6347a849688532cf9b5c58997", "fusion_lon": 0.0, "bike_id": "4103aba6347a849688532cf9b5c58997", "is_disabled": 0, "is_reserved": 0}, {"rental_uris": {"ios": "https://dc.lft.to/lastmile_qr_scan", "android": "https://dc.lft.to/lastmile_qr_scan"}, "lon": -77.03357683333333, "type": "electric_scooter", "fusion_lat": 0.0, "lat": 38.9286255, "name": "e344adf78b7c260bcbc7a2e9fb30fdbb", "fusion_lon": 0.0, "bike_id": "e344adf78b7c260bcbc7a2e9fb30fdbb", "is_disabled": 0, "is_reserved": 0}, {"rental_uris": {"ios": "https://dc.lft.to/lastmile_qr_scan", "android": "https://dc.lft.to/lastmile_qr_scan"}, "lon": -77.055109, "type": "electric_scooter", "fusion_lat": 0.0, "lat": 38.928272666666665, "name": "8538f3507899378d8322d22420432f3a", "fusion_lon": 0.0, "bike_id": "8538f3507899378d8322d22420432f3a", "is_disabled": 0, "is_reserved": 0}, {"rental_uris": {"ios": "https://dc.lft.to/lastmile_qr_scan", "android": "https://dc.lft.to/lastmile_qr_scan"}, "lon": -77.02572716666667, "type": "electric_scooter", "fusion_lat": 0.0, "lat": 38.887435833333335, "name": "ddd590097c565a1276bc153c1bae52a4", "fusion_lon": 0.0, "bike_id": "ddd590097c565a1276bc153c1bae52a4", "is_disabled": 0, "is_reserved": 0}, {"rental_uris": {"ios": "https://dc.lft.to/lastmile_qr_scan", "android": "https://dc.lft.to/lastmile_qr_scan"}, "lon": -77.0575665, "type": "electric_scooter", "fusion_lat": 0.0, "lat": 38.934129666666664, "name": "73b0d11f1c78ac775546317b55277ad6", "fusion_lon": 0.0, "bike_id": "73b0d11f1c78ac775546317b55277ad6", "is_disabled": 0, "is_reserved": 0}, {"rental_uris": {"ios": "https://dc.lft.to/lastmile_qr_scan", "android": "https://dc.lft.to/lastmile_qr_scan"}, "lon": -77.0719155, "type": "electric_scooter", "fusion_lat": 0.0, "lat": 38.919891166666666, "name": "16038f8813a7193f0600836e1fab8fd4", "fusion_lon": 0.0, "bike_id": "16038f8813a7193f0600836e1fab8fd4", "is_disabled": 0, "is_reserved": 0}, {"rental_uris": {"ios": "https://dc.lft.to/lastmile_qr_scan", "android": "https://dc.lft.to/lastmile_qr_scan"}, "lon": -76.98360416666667, "type": "electric_scooter", "fusion_lat": 0.0, "lat": 38.8827115, "name": "159b31c990877392a5f96b8a6b95c66b", "fusion_lon": 0.0, "bike_id": "159b31c990877392a5f96b8a6b95c66b", "is_disabled": 0, "is_reserved": 0}, {"rental_uris": {"ios": "https://dc.lft.to/lastmile_qr_scan", "android": "https://dc.lft.to/lastmile_qr_scan"}, "lon": -76.99925166666667, "type": "electric_scooter", "fusion_lat": 0.0, "lat": 38.909078, "name": "5f7a82f6ceefc0935b84f41cdd9fa9eb", "fusion_lon": 0.0, "bike_id": "5f7a82f6ceefc0935b84f41cdd9fa9eb", "is_disabled": 0, "is_reserved": 0}, {"rental_uris": {"ios": "https://dc.lft.to/lastmile_qr_scan", "android": "https://dc.lft.to/lastmile_qr_scan"}, "lon": -77.01868916666666, "type": "electric_scooter", "fusion_lat": 0.0, "lat": 38.88745216666667, "name": "8cff28a76c2fedc92a40a8956e627d6f", "fusion_lon": 0.0, "bike_id": "8cff28a76c2fedc92a40a8956e627d6f", "is_disabled": 0, "is_reserved": 0}, {"rental_uris": {"ios": "https://dc.lft.to/lastmile_qr_scan", "android": "https://dc.lft.to/lastmile_qr_scan"}, "lon": -77.0455095, "type": "electric_scooter", "fusion_lat": 0.0, "lat": 38.9339125, "name": "2e102c57b8f45a92ab582ab766159672", "fusion_lon": 0.0, "bike_id": "2e102c57b8f45a92ab582ab766159672", "is_disabled": 0, "is_reserved": 0}, {"rental_uris": {"ios": "https://dc.lft.to/lastmile_qr_scan", "android": "https://dc.lft.to/lastmile_qr_scan"}, "lon": -77.02564516666666, "type": "electric_scooter", "fusion_lat": 0.0, "lat": 38.92467766666667, "name": "885adb26cd8e1ae499aea752c838436f", "fusion_lon": 0.0, "bike_id": "885adb26cd8e1ae499aea752c838436f", "is_disabled": 0, "is_reserved": 0}, {"rental_uris": {"ios": "https://dc.lft.to/lastmile_qr_scan", "android": "https://dc.lft.to/lastmile_qr_scan"}, "lon": -77.03015766666667, "type": "electric_scooter", "fusion_lat": 0.0, "lat": 38.910056, "name": "b2596b4eae980b4a84e7e18006fa48b7", "fusion_lon": 0.0, "bike_id": "b2596b4eae980b4a84e7e18006fa48b7", "is_disabled": 0, "is_reserved": 0}, {"rental_uris": {"ios": "https://dc.lft.to/lastmile_qr_scan", "android": "https://dc.lft.to/lastmile_qr_scan"}, "lon": -76.909472, "type": "electric_bike", "fusion_lat": 0.0, "lat": 38.85416516666667, "name": "e29e8685ccf84c81de9f68a3ece552f8", "fusion_lon": 0.0, "bike_id": "e29e8685ccf84c81de9f68a3ece552f8", "is_disabled": 0, "is_reserved": 0}, {"rental_uris": {"ios": "https://dc.lft.to/lastmile_qr_scan", "android": "https://dc.lft.to/lastmile_qr_scan"}, "lon": -77.032341, "type": "electric_scooter", "fusion_lat": 0.0, "lat": 38.931391166666664, "name": "eb7ac239f739fc09809d18ab98508e92", "fusion_lon": 0.0, "bike_id": "eb7ac239f739fc09809d18ab98508e92", "is_disabled": 0, "is_reserved": 0}, {"rental_uris": {"ios": "https://dc.lft.to/lastmile_qr_scan", "android": "https://dc.lft.to/lastmile_qr_scan"}, "lon": -77.0400535, "type": "electric_scooter", "fusion_lat": 0.0, "lat": 38.88885416666667, "name": "3bfbced1e80dd20b7ceac05cf13b630a", "fusion_lon": 0.0, "bike_id": "3bfbced1e80dd20b7ceac05cf13b630a", "is_disabled": 0, "is_reserved": 0}, {"rental_uris": {"ios": "https://dc.lft.to/lastmile_qr_scan", "android": "https://dc.lft.to/lastmile_qr_scan"}, "lon": -76.98180733333334, "type": "electric_scooter", "fusion_lat": 0.0, "lat": 38.89574066666667, "name": "9abbff1a8a27d30357ed714c84c5899d", "fusion_lon": 0.0, "bike_id": "9abbff1a8a27d30357ed714c84c5899d", "is_disabled": 0, "is_reserved": 0}, {"rental_uris": {"ios": "https://dc.lft.to/lastmile_qr_scan", "android": "https://dc.lft.to/lastmile_qr_scan"}, "lon": -77.03288833333333, "type": "electric_scooter", "fusion_lat": 0.0, "lat": 38.92803933333333, "name": "77144a19ac9ee806d80cd352727a67a2", "fusion_lon": 0.0, "bike_id": "77144a19ac9ee806d80cd352727a67a2", "is_disabled": 0, "is_reserved": 0}, {"rental_uris": {"ios": "https://dc.lft.to/lastmile_qr_scan", "android": "https://dc.lft.to/lastmile_qr_scan"}, "lon": -76.98256783333333, "type": "electric_scooter", "fusion_lat": 0.0, "lat": 38.9086525, "name": "de5ed67a907b91f20fc513105af02a58", "fusion_lon": 0.0, "bike_id": "de5ed67a907b91f20fc513105af02a58", "is_disabled": 0, "is_reserved": 0}, {"rental_uris": {"ios": "https://dc.lft.to/lastmile_qr_scan", "android": "https://dc.lft.to/lastmile_qr_scan"}, "lon": -77.01935516666667, "type": "electric_scooter", "fusion_lat": 0.0, "lat": 38.90241533333333, "name": "7f6c66115dfc4febfcb73a3c22d9f3e8", "fusion_lon": 0.0, "bike_id": "7f6c66115dfc4febfcb73a3c22d9f3e8", "is_disabled": 0, "is_reserved": 0}, {"rental_uris": {"ios": "https://dc.lft.to/lastmile_qr_scan", "android": "https://dc.lft.to/lastmile_qr_scan"}, "lon": -77.03186533333333, "type": "electric_scooter", "fusion_lat": 0.0, "lat": 38.91326466666666, "name": "cdbc55d7e3f8789456e71069169dd3eb", "fusion_lon": 0.0, "bike_id": "cdbc55d7e3f8789456e71069169dd3eb", "is_disabled": 0, "is_reserved": 0}, {"rental_uris": {"ios": "https://dc.lft.to/lastmile_qr_scan", "android": "https://dc.lft.to/lastmile_qr_scan"}, "lon": -77.03048766666667, "type": "electric_scooter", "fusion_lat": 0.0, "lat": 38.9094525, "name": "220914540447a48ba03c7a0db29ca4f3", "fusion_lon": 0.0, "bike_id": "220914540447a48ba03c7a0db29ca4f3", "is_disabled": 0, "is_reserved": 0}, {"rental_uris": {"ios": "https://dc.lft.to/lastmile_qr_scan", "android": "https://dc.lft.to/lastmile_qr_scan"}, "lon": -77.04185166666667, "type": "electric_scooter", "fusion_lat": 0.0, "lat": 38.920093, "name": "82833f44646ec23b844cf56c83c24f44", "fusion_lon": 0.0, "bike_id": "82833f44646ec23b844cf56c83c24f44", "is_disabled": 0, "is_reserved": 0}, {"rental_uris": {"ios": "https://dc.lft.to/lastmile_qr_scan", "android": "https://dc.lft.to/lastmile_qr_scan"}, "lon": -77.007361, "type": "electric_scooter", "fusion_lat": 0.0, "lat": 38.955185166666666, "name": "974fe7a331ef69d7b3ba78149558a841", "fusion_lon": 0.0, "bike_id": "974fe7a331ef69d7b3ba78149558a841", "is_disabled": 0, "is_reserved": 0}, {"rental_uris": {"ios": "https://dc.lft.to/lastmile_qr_scan", "android": "https://dc.lft.to/lastmile_qr_scan"}, "lon": -77.02502016666666, "type": "electric_scooter", "fusion_lat": 0.0, "lat": 38.918126666666666, "name": "525900da78878816c815761f8dcbb87a", "fusion_lon": 0.0, "bike_id": "525900da78878816c815761f8dcbb87a", "is_disabled": 0, "is_reserved": 0}, {"rental_uris": {"ios": "https://dc.lft.to/lastmile_qr_scan", "android": "https://dc.lft.to/lastmile_qr_scan"}, "lon": -77.03269766666666, "type": "electric_scooter", "fusion_lat": 0.0, "lat": 38.93234233333333, "name": "d238dd82540fec0978076069b1fe7877", "fusion_lon": 0.0, "bike_id": "d238dd82540fec0978076069b1fe7877", "is_disabled": 0, "is_reserved": 0}, {"rental_uris": {"ios": "https://dc.lft.to/lastmile_qr_scan", "android": "https://dc.lft.to/lastmile_qr_scan"}, "lon": -77.023502, "type": "electric_scooter", "fusion_lat": 0.0, "lat": 38.922763833333335, "name": "6d0eacef894a862fc941202b659486ca", "fusion_lon": 0.0, "bike_id": "6d0eacef894a862fc941202b659486ca", "is_disabled": 0, "is_reserved": 0}, {"rental_uris": {"ios": "https://dc.lft.to/lastmile_qr_scan", "android": "https://dc.lft.to/lastmile_qr_scan"}, "lon": -77.0348305, "type": "electric_scooter", "fusion_lat": 0.0, "lat": 38.9023965, "name": "3347442f59645496307552d1fb24f11b", "fusion_lon": 0.0, "bike_id": "3347442f59645496307552d1fb24f11b", "is_disabled": 0, "is_reserved": 0}, {"rental_uris": {"ios": "https://dc.lft.to/lastmile_qr_scan", "android": "https://dc.lft.to/lastmile_qr_scan"}, "lon": -77.06778383333334, "type": "electric_scooter", "fusion_lat": 0.0, "lat": 38.9521, "name": "b525a421123ef0e5e714cdba16be0ff7", "fusion_lon": 0.0, "bike_id": "b525a421123ef0e5e714cdba16be0ff7", "is_disabled": 0, "is_reserved": 0}, {"rental_uris": {"ios": "https://dc.lft.to/lastmile_qr_scan", "android": "https://dc.lft.to/lastmile_qr_scan"}, "lon": -77.02129383333333, "type": "electric_scooter", "fusion_lat": 0.0, "lat": 38.90973016666667, "name": "e19d38136814f3c17c489223a5878c70", "fusion_lon": 0.0, "bike_id": "e19d38136814f3c17c489223a5878c70", "is_disabled": 0, "is_reserved": 0}, {"rental_uris": {"ios": "https://dc.lft.to/lastmile_qr_scan", "android": "https://dc.lft.to/lastmile_qr_scan"}, "lon": -77.03969833333333, "type": "electric_scooter", "fusion_lat": 0.0, "lat": 38.902628166666666, "name": "506a2cbaf730080112cc1fdeed3d6a05", "fusion_lon": 0.0, "bike_id": "506a2cbaf730080112cc1fdeed3d6a05", "is_disabled": 0, "is_reserved": 0}, {"rental_uris": {"ios": "https://dc.lft.to/lastmile_qr_scan", "android": "https://dc.lft.to/lastmile_qr_scan"}, "lon": -77.002091, "type": "electric_scooter", "fusion_lat": 0.0, "lat": 38.9021865, "name": "a03052d2874af0ed04b8f1b37574bc4c", "fusion_lon": 0.0, "bike_id": "a03052d2874af0ed04b8f1b37574bc4c", "is_disabled": 0, "is_reserved": 0}, {"rental_uris": {"ios": "https://dc.lft.to/lastmile_qr_scan", "android": "https://dc.lft.to/lastmile_qr_scan"}, "lon": -77.19905766666666, "type": "electric_bike", "fusion_lat": 0.0, "lat": 38.87529, "name": "35aca4bfa217acff52917db3134f5c22", "fusion_lon": 0.0, "bike_id": "35aca4bfa217acff52917db3134f5c22", "is_disabled": 0, "is_reserved": 0}, {"rental_uris": {"ios": "https://dc.lft.to/lastmile_qr_scan", "android": "https://dc.lft.to/lastmile_qr_scan"}, "lon": -77.14983416666666, "type": "electric_bike", "fusion_lat": 0.0, "lat": 39.094606, "name": "3d0ba7bf996adebbdde2d945b59002bd", "fusion_lon": 0.0, "bike_id": "3d0ba7bf996adebbdde2d945b59002bd", "is_disabled": 0, "is_reserved": 0}, {"rental_uris": {"ios": "https://dc.lft.to/lastmile_qr_scan", "android": "https://dc.lft.to/lastmile_qr_scan"}, "lon": -77.0293365, "type": "electric_scooter", "fusion_lat": 0.0, "lat": 38.903759666666666, "name": "707b1a4826219f2f7a25c4375abd653d", "fusion_lon": 0.0, "bike_id": "707b1a4826219f2f7a25c4375abd653d", "is_disabled": 0, "is_reserved": 0}, {"rental_uris": {"ios": "https://dc.lft.to/lastmile_qr_scan", "android": "https://dc.lft.to/lastmile_qr_scan"}, "lon": -77.0295515, "type": "electric_bike", "fusion_lat": 0.0, "lat": 38.911531333333336, "name": "31f311cbb9b4ee8f27dda63de4730ea7", "fusion_lon": 0.0, "bike_id": "31f311cbb9b4ee8f27dda63de4730ea7", "is_disabled": 0, "is_reserved": 0}, {"rental_uris": {"ios": "https://dc.lft.to/lastmile_qr_scan", "android": "https://dc.lft.to/lastmile_qr_scan"}, "lon": -77.006484, "type": "electric_scooter", "fusion_lat": 0.0, "lat": 38.908617166666666, "name": "0d2070d76341c46e19768c0197767616", "fusion_lon": 0.0, "bike_id": "0d2070d76341c46e19768c0197767616", "is_disabled": 0, "is_reserved": 0}, {"rental_uris": {"ios": "https://dc.lft.to/lastmile_qr_scan", "android": "https://dc.lft.to/lastmile_qr_scan"}, "lon": -77.0034215, "type": "electric_scooter", "fusion_lat": 0.0, "lat": 38.8915975, "name": "3ac1ea0b76da828cb15f30b34d17c669", "fusion_lon": 0.0, "bike_id": "3ac1ea0b76da828cb15f30b34d17c669", "is_disabled": 0, "is_reserved": 0}, {"rental_uris": {"ios": "https://dc.lft.to/lastmile_qr_scan", "android": "https://dc.lft.to/lastmile_qr_scan"}, "lon": -77.02472366666667, "type": "electric_scooter", "fusion_lat": 0.0, "lat": 38.9334725, "name": "f02152ca5ecec1ee68407d07b8f3ab5e", "fusion_lon": 0.0, "bike_id": "f02152ca5ecec1ee68407d07b8f3ab5e", "is_disabled": 0, "is_reserved": 0}, {"rental_uris": {"ios": "https://dc.lft.to/lastmile_qr_scan", "android": "https://dc.lft.to/lastmile_qr_scan"}, "lon": -77.02483116666667, "type": "electric_scooter", "fusion_lat": 0.0, "lat": 38.93101466666667, "name": "66fe67d49e46d1f060be0f5421816653", "fusion_lon": 0.0, "bike_id": "66fe67d49e46d1f060be0f5421816653", "is_disabled": 0, "is_reserved": 0}, {"rental_uris": {"ios": "https://dc.lft.to/lastmile_qr_scan", "android": "https://dc.lft.to/lastmile_qr_scan"}, "lon": -77.0364835, "type": "electric_scooter", "fusion_lat": 0.0, "lat": 38.902801833333335, "name": "4ac4d60f2daf632dacff6be8725653e8", "fusion_lon": 0.0, "bike_id": "4ac4d60f2daf632dacff6be8725653e8", "is_disabled": 0, "is_reserved": 0}, {"rental_uris": {"ios": "https://dc.lft.to/lastmile_qr_scan", "android": "https://dc.lft.to/lastmile_qr_scan"}, "lon": -77.0482775, "type": "electric_scooter", "fusion_lat": 0.0, "lat": 38.909523, "name": "ba38b6629b27ddb19ab8cc53ff44dd70", "fusion_lon": 0.0, "bike_id": "ba38b6629b27ddb19ab8cc53ff44dd70", "is_disabled": 0, "is_reserved": 0}, {"rental_uris": {"ios": "https://dc.lft.to/lastmile_qr_scan", "android": "https://dc.lft.to/lastmile_qr_scan"}, "lon": -76.98516233333334, "type": "electric_scooter", "fusion_lat": 0.0, "lat": 38.910015333333334, "name": "d278682df2d1adf871e590c97f6fc1fb", "fusion_lon": 0.0, "bike_id": "d278682df2d1adf871e590c97f6fc1fb", "is_disabled": 0, "is_reserved": 0}, {"rental_uris": {"ios": "https://dc.lft.to/lastmile_qr_scan", "android": "https://dc.lft.to/lastmile_qr_scan"}, "lon": -76.9861035, "type": "electric_scooter", "fusion_lat": 0.0, "lat": 38.878255, "name": "0db768f6a3319217d8caa84939589d2b", "fusion_lon": 0.0, "bike_id": "0db768f6a3319217d8caa84939589d2b", "is_disabled": 0, "is_reserved": 0}, {"rental_uris": {"ios": "https://dc.lft.to/lastmile_qr_scan", "android": "https://dc.lft.to/lastmile_qr_scan"}, "lon": -77.01118216666667, "type": "electric_scooter", "fusion_lat": 0.0, "lat": 38.870871, "name": "2c133cac56d87b9bfe507ece3393c83a", "fusion_lon": 0.0, "bike_id": "2c133cac56d87b9bfe507ece3393c83a", "is_disabled": 0, "is_reserved": 0}, {"rental_uris": {"ios": "https://dc.lft.to/lastmile_qr_scan", "android": "https://dc.lft.to/lastmile_qr_scan"}, "lon": -76.95677183333333, "type": "electric_bike", "fusion_lat": 0.0, "lat": 38.94730933333334, "name": "031c2d1593762f4567e5bab487405650", "fusion_lon": 0.0, "bike_id": "031c2d1593762f4567e5bab487405650", "is_disabled": 0, "is_reserved": 0}, {"rental_uris": {"ios": "https://dc.lft.to/lastmile_qr_scan", "android": "https://dc.lft.to/lastmile_qr_scan"}, "lon": -76.97413683333333, "type": "electric_scooter", "fusion_lat": 0.0, "lat": 38.9023525, "name": "dd1e5af66754a006e2990719388a460f", "fusion_lon": 0.0, "bike_id": "dd1e5af66754a006e2990719388a460f", "is_disabled": 0, "is_reserved": 0}, {"rental_uris": {"ios": "https://dc.lft.to/lastmile_qr_scan", "android": "https://dc.lft.to/lastmile_qr_scan"}, "lon": -77.038352, "type": "electric_scooter", "fusion_lat": 0.0, "lat": 38.90751, "name": "cd634d581b1328d4817158c009a88283", "fusion_lon": 0.0, "bike_id": "cd634d581b1328d4817158c009a88283", "is_disabled": 0, "is_reserved": 0}, {"rental_uris": {"ios": "https://dc.lft.to/lastmile_qr_scan", "android": "https://dc.lft.to/lastmile_qr_scan"}, "lon": -77.00339716666667, "type": "electric_bike", "fusion_lat": 0.0, "lat": 38.87655733333333, "name": "a1e418e5a0c06c59ae77491390f9af80", "fusion_lon": 0.0, "bike_id": "a1e418e5a0c06c59ae77491390f9af80", "is_disabled": 0, "is_reserved": 0}, {"rental_uris": {"ios": "https://dc.lft.to/lastmile_qr_scan", "android": "https://dc.lft.to/lastmile_qr_scan"}, "lon": -77.0391045, "type": "electric_scooter", "fusion_lat": 0.0, "lat": 38.9223715, "name": "8244ea106ac58b5a4682f12d72db2569", "fusion_lon": 0.0, "bike_id": "8244ea106ac58b5a4682f12d72db2569", "is_disabled": 0, "is_reserved": 0}, {"rental_uris": {"ios": "https://dc.lft.to/lastmile_qr_scan", "android": "https://dc.lft.to/lastmile_qr_scan"}, "lon": -76.92845983333333, "type": "electric_scooter", "fusion_lat": 0.0, "lat": 38.8835675, "name": "de7f827caa3ed34396bbb660cb2fc89c", "fusion_lon": 0.0, "bike_id": "de7f827caa3ed34396bbb660cb2fc89c", "is_disabled": 0, "is_reserved": 0}, {"rental_uris": {"ios": "https://dc.lft.to/lastmile_qr_scan", "android": "https://dc.lft.to/lastmile_qr_scan"}, "lon": -77.03146816666667, "type": "electric_scooter", "fusion_lat": 0.0, "lat": 38.893459666666665, "name": "9de48e89dfc80223e655cb841c5c08b6", "fusion_lon": 0.0, "bike_id": "9de48e89dfc80223e655cb841c5c08b6", "is_disabled": 0, "is_reserved": 0}, {"rental_uris": {"ios": "https://dc.lft.to/lastmile_qr_scan", "android": "https://dc.lft.to/lastmile_qr_scan"}, "lon": -77.034026, "type": "electric_scooter", "fusion_lat": 0.0, "lat": 38.924262666666664, "name": "bb9e5575f9048c26677a41a61030cd03", "fusion_lon": 0.0, "bike_id": "bb9e5575f9048c26677a41a61030cd03", "is_disabled": 0, "is_reserved": 0}, {"rental_uris": {"ios": "https://dc.lft.to/lastmile_qr_scan", "android": "https://dc.lft.to/lastmile_qr_scan"}, "lon": -76.99459733333333, "type": "electric_scooter", "fusion_lat": 0.0, "lat": 38.85160966666667, "name": "ed6a8cdfb4a2a4785ee70cec25644fc8", "fusion_lon": 0.0, "bike_id": "ed6a8cdfb4a2a4785ee70cec25644fc8", "is_disabled": 0, "is_reserved": 0}, {"rental_uris": {"ios": "https://dc.lft.to/lastmile_qr_scan", "android": "https://dc.lft.to/lastmile_qr_scan"}, "lon": -77.0356985, "type": "electric_scooter", "fusion_lat": 0.0, "lat": 38.939750833333335, "name": "20328111a46d40d597f59212af06b00c", "fusion_lon": 0.0, "bike_id": "20328111a46d40d597f59212af06b00c", "is_disabled": 0, "is_reserved": 0}, {"rental_uris": {"ios": "https://dc.lft.to/lastmile_qr_scan", "android": "https://dc.lft.to/lastmile_qr_scan"}, "lon": -76.931604, "type": "electric_scooter", "fusion_lat": 0.0, "lat": 38.89875983333334, "name": "acc20c53737f1d5f16e697f69f3e9c1c", "fusion_lon": 0.0, "bike_id": "acc20c53737f1d5f16e697f69f3e9c1c", "is_disabled": 0, "is_reserved": 0}, {"rental_uris": {"ios": "https://dc.lft.to/lastmile_qr_scan", "android": "https://dc.lft.to/lastmile_qr_scan"}, "lon": -76.9484165, "type": "electric_scooter", "fusion_lat": 0.0, "lat": 38.884157333333334, "name": "5d869b2ac76764ad9babad13e68fa74c", "fusion_lon": 0.0, "bike_id": "5d869b2ac76764ad9babad13e68fa74c", "is_disabled": 0, "is_reserved": 0}, {"rental_uris": {"ios": "https://dc.lft.to/lastmile_qr_scan", "android": "https://dc.lft.to/lastmile_qr_scan"}, "lon": -77.04572, "type": "electric_scooter", "fusion_lat": 0.0, "lat": 38.91052766666667, "name": "25e491ce707df84c7f14c0bb771e8635", "fusion_lon": 0.0, "bike_id": "25e491ce707df84c7f14c0bb771e8635", "is_disabled": 0, "is_reserved": 0}, {"rental_uris": {"ios": "https://dc.lft.to/lastmile_qr_scan", "android": "https://dc.lft.to/lastmile_qr_scan"}, "lon": -76.928762, "type": "electric_scooter", "fusion_lat": 0.0, "lat": 38.884415, "name": "b9423420666c0535e153644ec34242c9", "fusion_lon": 0.0, "bike_id": "b9423420666c0535e153644ec34242c9", "is_disabled": 0, "is_reserved": 0}, {"rental_uris": {"ios": "https://dc.lft.to/lastmile_qr_scan", "android": "https://dc.lft.to/lastmile_qr_scan"}, "lon": -77.08053933333333, "type": "electric_bike", "fusion_lat": 0.0, "lat": 38.84839683333333, "name": "eb9ca12e92dc10ad5062f37829cc5da6", "fusion_lon": 0.0, "bike_id": "eb9ca12e92dc10ad5062f37829cc5da6", "is_disabled": 0, "is_reserved": 0}, {"rental_uris": {"ios": "https://dc.lft.to/lastmile_qr_scan", "android": "https://dc.lft.to/lastmile_qr_scan"}, "lon": -77.0397015, "type": "electric_scooter", "fusion_lat": 0.0, "lat": 38.90267583333333, "name": "9ed38c0519d97c118777171d84d1df0e", "fusion_lon": 0.0, "bike_id": "9ed38c0519d97c118777171d84d1df0e", "is_disabled": 0, "is_reserved": 0}, {"rental_uris": {"ios": "https://dc.lft.to/lastmile_qr_scan", "android": "https://dc.lft.to/lastmile_qr_scan"}, "lon": -77.0201625, "type": "electric_bike", "fusion_lat": 0.0, "lat": 38.93726066666667, "name": "0ec847597d1770f6850d300498ffe583", "fusion_lon": 0.0, "bike_id": "0ec847597d1770f6850d300498ffe583", "is_disabled": 0, "is_reserved": 0}, {"rental_uris": {"ios": "https://dc.lft.to/lastmile_qr_scan", "android": "https://dc.lft.to/lastmile_qr_scan"}, "lon": -77.03180333333333, "type": "electric_scooter", "fusion_lat": 0.0, "lat": 38.8980695, "name": "05340b2b1ebf24744601d25c312bbad4", "fusion_lon": 0.0, "bike_id": "05340b2b1ebf24744601d25c312bbad4", "is_disabled": 0, "is_reserved": 0}, {"rental_uris": {"ios": "https://dc.lft.to/lastmile_qr_scan", "android": "https://dc.lft.to/lastmile_qr_scan"}, "lon": -77.07306766666666, "type": "electric_scooter", "fusion_lat": 0.0, "lat": 38.936138, "name": "06106ee421c072715e232ff3317d1b2d", "fusion_lon": 0.0, "bike_id": "06106ee421c072715e232ff3317d1b2d", "is_disabled": 0, "is_reserved": 0}, {"rental_uris": {"ios": "https://dc.lft.to/lastmile_qr_scan", "android": "https://dc.lft.to/lastmile_qr_scan"}, "lon": -77.02650366666667, "type": "electric_scooter", "fusion_lat": 0.0, "lat": 38.8811695, "name": "ee5abbc003e58a06c8f11844ceb6f07b", "fusion_lon": 0.0, "bike_id": "ee5abbc003e58a06c8f11844ceb6f07b", "is_disabled": 0, "is_reserved": 0}, {"rental_uris": {"ios": "https://dc.lft.to/lastmile_qr_scan", "android": "https://dc.lft.to/lastmile_qr_scan"}, "lon": -77.02846816666667, "type": "electric_scooter", "fusion_lat": 0.0, "lat": 38.934492666666664, "name": "1e4fb3aaff4169dd3ae65973f4d0dcc3", "fusion_lon": 0.0, "bike_id": "1e4fb3aaff4169dd3ae65973f4d0dcc3", "is_disabled": 0, "is_reserved": 0}, {"rental_uris": {"ios": "https://dc.lft.to/lastmile_qr_scan", "android": "https://dc.lft.to/lastmile_qr_scan"}, "lon": -76.95467116666667, "type": "electric_bike", "fusion_lat": 0.0, "lat": 38.8863565, "name": "72b6c0e4767316cc3c695fab18ddb1a9", "fusion_lon": 0.0, "bike_id": "72b6c0e4767316cc3c695fab18ddb1a9", "is_disabled": 0, "is_reserved": 0}, {"rental_uris": {"ios": "https://dc.lft.to/lastmile_qr_scan", "android": "https://dc.lft.to/lastmile_qr_scan"}, "lon": -77.02668166666666, "type": "electric_scooter", "fusion_lat": 0.0, "lat": 38.9287795, "name": "aeb3d3c1e6a41379add1f978362bde19", "fusion_lon": 0.0, "bike_id": "aeb3d3c1e6a41379add1f978362bde19", "is_disabled": 0, "is_reserved": 0}, {"rental_uris": {"ios": "https://dc.lft.to/lastmile_qr_scan", "android": "https://dc.lft.to/lastmile_qr_scan"}, "lon": -77.00671233333334, "type": "electric_scooter", "fusion_lat": 0.0, "lat": 38.87646933333333, "name": "7ec25a07cda2e0a5ee78d6eea2f6115b", "fusion_lon": 0.0, "bike_id": "7ec25a07cda2e0a5ee78d6eea2f6115b", "is_disabled": 0, "is_reserved": 0}, {"rental_uris": {"ios": "https://dc.lft.to/lastmile_qr_scan", "android": "https://dc.lft.to/lastmile_qr_scan"}, "lon": -76.99064533333333, "type": "electric_scooter", "fusion_lat": 0.0, "lat": 38.86353, "name": "821b6e934ec43c25465f78c22d354a39", "fusion_lon": 0.0, "bike_id": "821b6e934ec43c25465f78c22d354a39", "is_disabled": 0, "is_reserved": 0}, {"rental_uris": {"ios": "https://dc.lft.to/lastmile_qr_scan", "android": "https://dc.lft.to/lastmile_qr_scan"}, "lon": -77.036544, "type": "electric_scooter", "fusion_lat": 0.0, "lat": 38.913008166666664, "name": "172cdb6ef5a4f843a66026f929f2740c", "fusion_lon": 0.0, "bike_id": "172cdb6ef5a4f843a66026f929f2740c", "is_disabled": 0, "is_reserved": 0}, {"rental_uris": {"ios": "https://dc.lft.to/lastmile_qr_scan", "android": "https://dc.lft.to/lastmile_qr_scan"}, "lon": -77.03196116666666, "type": "electric_scooter", "fusion_lat": 0.0, "lat": 38.900276166666664, "name": "2c9fcd9f903fc9266339912e7708e09c", "fusion_lon": 0.0, "bike_id": "2c9fcd9f903fc9266339912e7708e09c", "is_disabled": 0, "is_reserved": 0}, {"rental_uris": {"ios": "https://dc.lft.to/lastmile_qr_scan", "android": "https://dc.lft.to/lastmile_qr_scan"}, "lon": -77.03302066666667, "type": "electric_scooter", "fusion_lat": 0.0, "lat": 38.90901866666667, "name": "1189ba5b0f8094b34b2e360329dd2bf8", "fusion_lon": 0.0, "bike_id": "1189ba5b0f8094b34b2e360329dd2bf8", "is_disabled": 0, "is_reserved": 0}, {"rental_uris": {"ios": "https://dc.lft.to/lastmile_qr_scan", "android": "https://dc.lft.to/lastmile_qr_scan"}, "lon": -77.0454105, "type": "electric_scooter", "fusion_lat": 0.0, "lat": 38.89479566666667, "name": "8a8fa5b2ed0a363eb442fe18a4e641f0", "fusion_lon": 0.0, "bike_id": "8a8fa5b2ed0a363eb442fe18a4e641f0", "is_disabled": 0, "is_reserved": 0}, {"rental_uris": {"ios": "https://dc.lft.to/lastmile_qr_scan", "android": "https://dc.lft.to/lastmile_qr_scan"}, "lon": -77.02700516666667, "type": "electric_scooter", "fusion_lat": 0.0, "lat": 38.909488333333336, "name": "8469af4bb7b2d145553c145b33edee85", "fusion_lon": 0.0, "bike_id": "8469af4bb7b2d145553c145b33edee85", "is_disabled": 0, "is_reserved": 0}, {"rental_uris": {"ios": "https://dc.lft.to/lastmile_qr_scan", "android": "https://dc.lft.to/lastmile_qr_scan"}, "lon": -76.98353983333334, "type": "electric_scooter", "fusion_lat": 0.0, "lat": 38.91523016666667, "name": "15cc5e222cb0392f822a71684ab300e4", "fusion_lon": 0.0, "bike_id": "15cc5e222cb0392f822a71684ab300e4", "is_disabled": 0, "is_reserved": 0}, {"rental_uris": {"ios": "https://dc.lft.to/lastmile_qr_scan", "android": "https://dc.lft.to/lastmile_qr_scan"}, "lon": -77.05514966666667, "type": "electric_scooter", "fusion_lat": 0.0, "lat": 38.89959183333333, "name": "8bd9b275c6c430607583212264f6993b", "fusion_lon": 0.0, "bike_id": "8bd9b275c6c430607583212264f6993b", "is_disabled": 0, "is_reserved": 0}, {"rental_uris": {"ios": "https://dc.lft.to/lastmile_qr_scan", "android": "https://dc.lft.to/lastmile_qr_scan"}, "lon": -77.027058, "type": "electric_scooter", "fusion_lat": 0.0, "lat": 38.906692166666666, "name": "6a1c8976bb36519e2aa20e0ff964c88c", "fusion_lon": 0.0, "bike_id": "6a1c8976bb36519e2aa20e0ff964c88c", "is_disabled": 0, "is_reserved": 0}, {"rental_uris": {"ios": "https://dc.lft.to/lastmile_qr_scan", "android": "https://dc.lft.to/lastmile_qr_scan"}, "lon": -77.03175283333333, "type": "electric_scooter", "fusion_lat": 0.0, "lat": 38.89333933333333, "name": "47226acfa24fa6c3e8b2173c5b046ed8", "fusion_lon": 0.0, "bike_id": "47226acfa24fa6c3e8b2173c5b046ed8", "is_disabled": 0, "is_reserved": 0}, {"rental_uris": {"ios": "https://dc.lft.to/lastmile_qr_scan", "android": "https://dc.lft.to/lastmile_qr_scan"}, "lon": -77.0075425, "type": "electric_scooter", "fusion_lat": 0.0, "lat": 38.876477, "name": "7d4a9848319ccd55724ecb702593bb9c", "fusion_lon": 0.0, "bike_id": "7d4a9848319ccd55724ecb702593bb9c", "is_disabled": 0, "is_reserved": 0}, {"rental_uris": {"ios": "https://dc.lft.to/lastmile_qr_scan", "android": "https://dc.lft.to/lastmile_qr_scan"}, "lon": -76.9953885, "type": "electric_scooter", "fusion_lat": 0.0, "lat": 38.92668033333333, "name": "7078dbf9719553095dfcddf8c63b12bd", "fusion_lon": 0.0, "bike_id": "7078dbf9719553095dfcddf8c63b12bd", "is_disabled": 0, "is_reserved": 0}, {"rental_uris": {"ios": "https://dc.lft.to/lastmile_qr_scan", "android": "https://dc.lft.to/lastmile_qr_scan"}, "lon": -76.995114, "type": "electric_scooter", "fusion_lat": 0.0, "lat": 38.8446645, "name": "f23990f372cb165fcecf7e231fbe7715", "fusion_lon": 0.0, "bike_id": "f23990f372cb165fcecf7e231fbe7715", "is_disabled": 0, "is_reserved": 0}, {"rental_uris": {"ios": "https://dc.lft.to/lastmile_qr_scan", "android": "https://dc.lft.to/lastmile_qr_scan"}, "lon": -77.0292385, "type": "electric_scooter", "fusion_lat": 0.0, "lat": 38.899958166666664, "name": "cad286ccf055c7e44ec12d8af60abbbc", "fusion_lon": 0.0, "bike_id": "cad286ccf055c7e44ec12d8af60abbbc", "is_disabled": 0, "is_reserved": 0}, {"rental_uris": {"ios": "https://dc.lft.to/lastmile_qr_scan", "android": "https://dc.lft.to/lastmile_qr_scan"}, "lon": -76.98839233333334, "type": "electric_bike", "fusion_lat": 0.0, "lat": 38.842743166666665, "name": "8c7f334f276945f9241e3695c8c57f8a", "fusion_lon": 0.0, "bike_id": "8c7f334f276945f9241e3695c8c57f8a", "is_disabled": 0, "is_reserved": 0}, {"rental_uris": {"ios": "https://dc.lft.to/lastmile_qr_scan", "android": "https://dc.lft.to/lastmile_qr_scan"}, "lon": -76.97009083333333, "type": "electric_bike", "fusion_lat": 0.0, "lat": 38.86367216666667, "name": "62cda0dd595ee8921a179578b6676b9d", "fusion_lon": 0.0, "bike_id": "62cda0dd595ee8921a179578b6676b9d", "is_disabled": 0, "is_reserved": 0}, {"rental_uris": {"ios": "https://dc.lft.to/lastmile_qr_scan", "android": "https://dc.lft.to/lastmile_qr_scan"}, "lon": -77.03314616666667, "type": "electric_scooter", "fusion_lat": 0.0, "lat": 38.901245333333335, "name": "6a3db13b0a1245a56eec2858266050c7", "fusion_lon": 0.0, "bike_id": "6a3db13b0a1245a56eec2858266050c7", "is_disabled": 0, "is_reserved": 0}, {"rental_uris": {"ios": "https://dc.lft.to/lastmile_qr_scan", "android": "https://dc.lft.to/lastmile_qr_scan"}, "lon": -77.03203133333334, "type": "electric_scooter", "fusion_lat": 0.0, "lat": 38.91737783333333, "name": "d06959662a14eb47edaea385f57890a3", "fusion_lon": 0.0, "bike_id": "d06959662a14eb47edaea385f57890a3", "is_disabled": 0, "is_reserved": 0}, {"rental_uris": {"ios": "https://dc.lft.to/lastmile_qr_scan", "android": "https://dc.lft.to/lastmile_qr_scan"}, "lon": -76.9688415, "type": "electric_bike", "fusion_lat": 0.0, "lat": 38.845971666666664, "name": "94f137e79ada5203b8e081849f26f5d3", "fusion_lon": 0.0, "bike_id": "94f137e79ada5203b8e081849f26f5d3", "is_disabled": 0, "is_reserved": 0}, {"rental_uris": {"ios": "https://dc.lft.to/lastmile_qr_scan", "android": "https://dc.lft.to/lastmile_qr_scan"}, "lon": -77.02870933333334, "type": "electric_scooter", "fusion_lat": 0.0, "lat": 38.916849, "name": "b02113004c2bef20598040ba96659889", "fusion_lon": 0.0, "bike_id": "b02113004c2bef20598040ba96659889", "is_disabled": 0, "is_reserved": 0}, {"rental_uris": {"ios": "https://dc.lft.to/lastmile_qr_scan", "android": "https://dc.lft.to/lastmile_qr_scan"}, "lon": -76.97601916666666, "type": "electric_scooter", "fusion_lat": 0.0, "lat": 38.90203533333333, "name": "56f1e66aef82f3a0a433843abf5eb4ee", "fusion_lon": 0.0, "bike_id": "56f1e66aef82f3a0a433843abf5eb4ee", "is_disabled": 0, "is_reserved": 0}, {"rental_uris": {"ios": "https://dc.lft.to/lastmile_qr_scan", "android": "https://dc.lft.to/lastmile_qr_scan"}, "lon": -76.999073, "type": "electric_scooter", "fusion_lat": 0.0, "lat": 38.909315166666666, "name": "b5f24eeca812f08d1f670271ab72b11f", "fusion_lon": 0.0, "bike_id": "b5f24eeca812f08d1f670271ab72b11f", "is_disabled": 0, "is_reserved": 0}, {"rental_uris": {"ios": "https://dc.lft.to/lastmile_qr_scan", "android": "https://dc.lft.to/lastmile_qr_scan"}, "lon": -77.0281575, "type": "electric_scooter", "fusion_lat": 0.0, "lat": 38.909281666666665, "name": "1d3a6ef148f2cd191f21a59e63d3ae9e", "fusion_lon": 0.0, "bike_id": "1d3a6ef148f2cd191f21a59e63d3ae9e", "is_disabled": 0, "is_reserved": 0}, {"rental_uris": {"ios": "https://dc.lft.to/lastmile_qr_scan", "android": "https://dc.lft.to/lastmile_qr_scan"}, "lon": -77.02749616666667, "type": "electric_scooter", "fusion_lat": 0.0, "lat": 38.96622766666667, "name": "1b5ab087a8d0fb22e89cfa625c0b8490", "fusion_lon": 0.0, "bike_id": "1b5ab087a8d0fb22e89cfa625c0b8490", "is_disabled": 0, "is_reserved": 0}, {"rental_uris": {"ios": "https://dc.lft.to/lastmile_qr_scan", "android": "https://dc.lft.to/lastmile_qr_scan"}, "lon": -76.984974, "type": "electric_scooter", "fusion_lat": 0.0, "lat": 38.860463, "name": "925aefcec4195863fd4ae436df6be9d0", "fusion_lon": 0.0, "bike_id": "925aefcec4195863fd4ae436df6be9d0", "is_disabled": 0, "is_reserved": 0}, {"rental_uris": {"ios": "https://dc.lft.to/lastmile_qr_scan", "android": "https://dc.lft.to/lastmile_qr_scan"}, "lon": -77.075593, "type": "electric_scooter", "fusion_lat": 0.0, "lat": 38.920904, "name": "a3461becd7da9cf41da85665b563dd0b", "fusion_lon": 0.0, "bike_id": "a3461becd7da9cf41da85665b563dd0b", "is_disabled": 0, "is_reserved": 0}, {"rental_uris": {"ios": "https://dc.lft.to/lastmile_qr_scan", "android": "https://dc.lft.to/lastmile_qr_scan"}, "lon": -76.93570683333333, "type": "electric_bike", "fusion_lat": 0.0, "lat": 38.88529716666667, "name": "b02ff460513899320cf9af2c389339bd", "fusion_lon": 0.0, "bike_id": "b02ff460513899320cf9af2c389339bd", "is_disabled": 0, "is_reserved": 0}, {"rental_uris": {"ios": "https://dc.lft.to/lastmile_qr_scan", "android": "https://dc.lft.to/lastmile_qr_scan"}, "lon": -77.01094583333334, "type": "electric_scooter", "fusion_lat": 0.0, "lat": 38.89477266666667, "name": "d36b4dab9a7a568638126e4a7c037b66", "fusion_lon": 0.0, "bike_id": "d36b4dab9a7a568638126e4a7c037b66", "is_disabled": 0, "is_reserved": 0}, {"rental_uris": {"ios": "https://dc.lft.to/lastmile_qr_scan", "android": "https://dc.lft.to/lastmile_qr_scan"}, "lon": -77.02992516666667, "type": "electric_scooter", "fusion_lat": 0.0, "lat": 38.934584666666666, "name": "514854fe641268c41c7e66b6cd008717", "fusion_lon": 0.0, "bike_id": "514854fe641268c41c7e66b6cd008717", "is_disabled": 0, "is_reserved": 0}, {"rental_uris": {"ios": "https://dc.lft.to/lastmile_qr_scan", "android": "https://dc.lft.to/lastmile_qr_scan"}, "lon": -76.99955116666666, "type": "electric_scooter", "fusion_lat": 0.0, "lat": 38.908453333333334, "name": "9d486937cb9d40c7ba2c35aa5ed48a21", "fusion_lon": 0.0, "bike_id": "9d486937cb9d40c7ba2c35aa5ed48a21", "is_disabled": 0, "is_reserved": 0}, {"rental_uris": {"ios": "https://dc.lft.to/lastmile_qr_scan", "android": "https://dc.lft.to/lastmile_qr_scan"}, "lon": -77.0141345, "type": "electric_scooter", "fusion_lat": 0.0, "lat": 38.916929833333334, "name": "8c13e0865042d065c03b2ccfb1e92773", "fusion_lon": 0.0, "bike_id": "8c13e0865042d065c03b2ccfb1e92773", "is_disabled": 0, "is_reserved": 0}, {"rental_uris": {"ios": "https://dc.lft.to/lastmile_qr_scan", "android": "https://dc.lft.to/lastmile_qr_scan"}, "lon": -77.00495966666666, "type": "electric_scooter", "fusion_lat": 0.0, "lat": 38.87893566666666, "name": "92ea7dd5b1a87bd0e1fd1983308c4606", "fusion_lon": 0.0, "bike_id": "92ea7dd5b1a87bd0e1fd1983308c4606", "is_disabled": 0, "is_reserved": 0}, {"rental_uris": {"ios": "https://dc.lft.to/lastmile_qr_scan", "android": "https://dc.lft.to/lastmile_qr_scan"}, "lon": -77.02651, "type": "electric_scooter", "fusion_lat": 0.0, "lat": 38.93855533333333, "name": "9c2cbb39f59efc6abd4ddbbabcdf20e5", "fusion_lon": 0.0, "bike_id": "9c2cbb39f59efc6abd4ddbbabcdf20e5", "is_disabled": 0, "is_reserved": 0}, {"rental_uris": {"ios": "https://dc.lft.to/lastmile_qr_scan", "android": "https://dc.lft.to/lastmile_qr_scan"}, "lon": -77.0365415, "type": "electric_scooter", "fusion_lat": 0.0, "lat": 38.913061166666665, "name": "62f1ead1774fd672350397522a639c17", "fusion_lon": 0.0, "bike_id": "62f1ead1774fd672350397522a639c17", "is_disabled": 0, "is_reserved": 0}, {"rental_uris": {"ios": "https://dc.lft.to/lastmile_qr_scan", "android": "https://dc.lft.to/lastmile_qr_scan"}, "lon": -77.04102783333333, "type": "electric_scooter", "fusion_lat": 0.0, "lat": 38.92367566666667, "name": "47eb23335285870d522fddf7dd81caef", "fusion_lon": 0.0, "bike_id": "47eb23335285870d522fddf7dd81caef", "is_disabled": 0, "is_reserved": 0}, {"rental_uris": {"ios": "https://dc.lft.to/lastmile_qr_scan", "android": "https://dc.lft.to/lastmile_qr_scan"}, "lon": -77.02571516666667, "type": "electric_scooter", "fusion_lat": 0.0, "lat": 38.88738333333333, "name": "71fffd2200acd41f9f0e345b34131d02", "fusion_lon": 0.0, "bike_id": "71fffd2200acd41f9f0e345b34131d02", "is_disabled": 0, "is_reserved": 0}, {"rental_uris": {"ios": "https://dc.lft.to/lastmile_qr_scan", "android": "https://dc.lft.to/lastmile_qr_scan"}, "lon": -76.94973083333333, "type": "electric_scooter", "fusion_lat": 0.0, "lat": 38.893715666666665, "name": "e906b8c7af2da561e84f88f2a5753de5", "fusion_lon": 0.0, "bike_id": "e906b8c7af2da561e84f88f2a5753de5", "is_disabled": 0, "is_reserved": 0}, {"rental_uris": {"ios": "https://dc.lft.to/lastmile_qr_scan", "android": "https://dc.lft.to/lastmile_qr_scan"}, "lon": -77.03746916666667, "type": "electric_scooter", "fusion_lat": 0.0, "lat": 38.9148695, "name": "08c0a009641f0b3f86484ca0ad46c789", "fusion_lon": 0.0, "bike_id": "08c0a009641f0b3f86484ca0ad46c789", "is_disabled": 0, "is_reserved": 0}, {"rental_uris": {"ios": "https://dc.lft.to/lastmile_qr_scan", "android": "https://dc.lft.to/lastmile_qr_scan"}, "lon": -77.0414855, "type": "electric_scooter", "fusion_lat": 0.0, "lat": 38.917828, "name": "fd7bbfaf27d9aac2b681effc77d77b1f", "fusion_lon": 0.0, "bike_id": "fd7bbfaf27d9aac2b681effc77d77b1f", "is_disabled": 0, "is_reserved": 0}, {"rental_uris": {"ios": "https://dc.lft.to/lastmile_qr_scan", "android": "https://dc.lft.to/lastmile_qr_scan"}, "lon": -77.01076783333333, "type": "electric_bike", "fusion_lat": 0.0, "lat": 38.962584666666665, "name": "deac795571d22e384696a7b6bc8e2f41", "fusion_lon": 0.0, "bike_id": "deac795571d22e384696a7b6bc8e2f41", "is_disabled": 0, "is_reserved": 0}, {"rental_uris": {"ios": "https://dc.lft.to/lastmile_qr_scan", "android": "https://dc.lft.to/lastmile_qr_scan"}, "lon": -77.03807666666667, "type": "electric_bike", "fusion_lat": 0.0, "lat": 38.930651, "name": "cd40ffd365dfd02f160495755440f7a5", "fusion_lon": 0.0, "bike_id": "cd40ffd365dfd02f160495755440f7a5", "is_disabled": 0, "is_reserved": 0}, {"rental_uris": {"ios": "https://dc.lft.to/lastmile_qr_scan", "android": "https://dc.lft.to/lastmile_qr_scan"}, "lon": -76.9802145, "type": "electric_scooter", "fusion_lat": 0.0, "lat": 38.903789, "name": "0bb9c47d2482fba2e8209b0b566aafce", "fusion_lon": 0.0, "bike_id": "0bb9c47d2482fba2e8209b0b566aafce", "is_disabled": 0, "is_reserved": 0}, {"rental_uris": {"ios": "https://dc.lft.to/lastmile_qr_scan", "android": "https://dc.lft.to/lastmile_qr_scan"}, "lon": -76.99832866666667, "type": "electric_bike", "fusion_lat": 0.0, "lat": 38.839208, "name": "e7322f42ba77b43f1e7afc0555cd495c", "fusion_lon": 0.0, "bike_id": "e7322f42ba77b43f1e7afc0555cd495c", "is_disabled": 0, "is_reserved": 0}, {"rental_uris": {"ios": "https://dc.lft.to/lastmile_qr_scan", "android": "https://dc.lft.to/lastmile_qr_scan"}, "lon": -77.0261085, "type": "electric_scooter", "fusion_lat": 0.0, "lat": 38.95181266666667, "name": "59d27e6d3fd65d2f2910404e62847bc1", "fusion_lon": 0.0, "bike_id": "59d27e6d3fd65d2f2910404e62847bc1", "is_disabled": 0, "is_reserved": 0}, {"rental_uris": {"ios": "https://dc.lft.to/lastmile_qr_scan", "android": "https://dc.lft.to/lastmile_qr_scan"}, "lon": -77.01740733333334, "type": "electric_scooter", "fusion_lat": 0.0, "lat": 38.88430616666667, "name": "46f6c851c640a863c42d410abe43f750", "fusion_lon": 0.0, "bike_id": "46f6c851c640a863c42d410abe43f750", "is_disabled": 0, "is_reserved": 0}, {"rental_uris": {"ios": "https://dc.lft.to/lastmile_qr_scan", "android": "https://dc.lft.to/lastmile_qr_scan"}, "lon": -76.93894483333334, "type": "electric_bike", "fusion_lat": 0.0, "lat": 38.88324566666667, "name": "7717b91c33ed41d65f941dc99e64ad5f", "fusion_lon": 0.0, "bike_id": "7717b91c33ed41d65f941dc99e64ad5f", "is_disabled": 0, "is_reserved": 0}, {"rental_uris": {"ios": "https://dc.lft.to/lastmile_qr_scan", "android": "https://dc.lft.to/lastmile_qr_scan"}, "lon": -77.06463183333334, "type": "electric_scooter", "fusion_lat": 0.0, "lat": 38.94650583333333, "name": "ca6cae30576aabe060a565d27ec17b9c", "fusion_lon": 0.0, "bike_id": "ca6cae30576aabe060a565d27ec17b9c", "is_disabled": 0, "is_reserved": 0}, {"rental_uris": {"ios": "https://dc.lft.to/lastmile_qr_scan", "android": "https://dc.lft.to/lastmile_qr_scan"}, "lon": -77.02983516666667, "type": "electric_scooter", "fusion_lat": 0.0, "lat": 38.95629016666667, "name": "ef9a039c328fa66ae919d548b1dc9432", "fusion_lon": 0.0, "bike_id": "ef9a039c328fa66ae919d548b1dc9432", "is_disabled": 0, "is_reserved": 0}, {"rental_uris": {"ios": "https://dc.lft.to/lastmile_qr_scan", "android": "https://dc.lft.to/lastmile_qr_scan"}, "lon": -77.05754683333333, "type": "electric_scooter", "fusion_lat": 0.0, "lat": 38.924582, "name": "17cd8ff1a8bf74013c8082b619b243f2", "fusion_lon": 0.0, "bike_id": "17cd8ff1a8bf74013c8082b619b243f2", "is_disabled": 0, "is_reserved": 0}, {"rental_uris": {"ios": "https://dc.lft.to/lastmile_qr_scan", "android": "https://dc.lft.to/lastmile_qr_scan"}, "lon": -76.9938405, "type": "electric_scooter", "fusion_lat": 0.0, "lat": 38.900577166666665, "name": "0187d336d125a4a4248793ceb556baa9", "fusion_lon": 0.0, "bike_id": "0187d336d125a4a4248793ceb556baa9", "is_disabled": 0, "is_reserved": 0}, {"rental_uris": {"ios": "https://dc.lft.to/lastmile_qr_scan", "android": "https://dc.lft.to/lastmile_qr_scan"}, "lon": -77.0522005, "type": "electric_scooter", "fusion_lat": 0.0, "lat": 38.9249605, "name": "c40fc8a897b8571e3fca3a43e328d802", "fusion_lon": 0.0, "bike_id": "c40fc8a897b8571e3fca3a43e328d802", "is_disabled": 0, "is_reserved": 0}, {"rental_uris": {"ios": "https://dc.lft.to/lastmile_qr_scan", "android": "https://dc.lft.to/lastmile_qr_scan"}, "lon": -77.029792, "type": "electric_scooter", "fusion_lat": 0.0, "lat": 38.945923666666665, "name": "888b9b453e4b18386f34bd2eff94591c", "fusion_lon": 0.0, "bike_id": "888b9b453e4b18386f34bd2eff94591c", "is_disabled": 0, "is_reserved": 0}, {"rental_uris": {"ios": "https://dc.lft.to/lastmile_qr_scan", "android": "https://dc.lft.to/lastmile_qr_scan"}, "lon": -77.08930783333334, "type": "electric_bike", "fusion_lat": 0.0, "lat": 38.84096433333333, "name": "5657c1781b7de78e11d500377292fef4", "fusion_lon": 0.0, "bike_id": "5657c1781b7de78e11d500377292fef4", "is_disabled": 0, "is_reserved": 0}, {"rental_uris": {"ios": "https://dc.lft.to/lastmile_qr_scan", "android": "https://dc.lft.to/lastmile_qr_scan"}, "lon": -77.05884966666666, "type": "electric_scooter", "fusion_lat": 0.0, "lat": 38.93636466666667, "name": "675f88765eab66a51492ab406e1698c2", "fusion_lon": 0.0, "bike_id": "675f88765eab66a51492ab406e1698c2", "is_disabled": 0, "is_reserved": 0}, {"rental_uris": {"ios": "https://dc.lft.to/lastmile_qr_scan", "android": "https://dc.lft.to/lastmile_qr_scan"}, "lon": -77.03269066666667, "type": "electric_scooter", "fusion_lat": 0.0, "lat": 38.91983316666666, "name": "2ad2a5eb4a1ce3fa3d30e5f44659475c", "fusion_lon": 0.0, "bike_id": "2ad2a5eb4a1ce3fa3d30e5f44659475c", "is_disabled": 0, "is_reserved": 0}, {"rental_uris": {"ios": "https://dc.lft.to/lastmile_qr_scan", "android": "https://dc.lft.to/lastmile_qr_scan"}, "lon": -77.03169116666666, "type": "electric_scooter", "fusion_lat": 0.0, "lat": 38.899920333333334, "name": "abba307d88dc60a597c312dcae2bd2e8", "fusion_lon": 0.0, "bike_id": "abba307d88dc60a597c312dcae2bd2e8", "is_disabled": 0, "is_reserved": 0}, {"rental_uris": {"ios": "https://dc.lft.to/lastmile_qr_scan", "android": "https://dc.lft.to/lastmile_qr_scan"}, "lon": -77.02821766666666, "type": "electric_scooter", "fusion_lat": 0.0, "lat": 38.9237255, "name": "64f737a2c94dbca0b8d895990afc53d7", "fusion_lon": 0.0, "bike_id": "64f737a2c94dbca0b8d895990afc53d7", "is_disabled": 0, "is_reserved": 0}, {"rental_uris": {"ios": "https://dc.lft.to/lastmile_qr_scan", "android": "https://dc.lft.to/lastmile_qr_scan"}, "lon": -77.0256955, "type": "electric_scooter", "fusion_lat": 0.0, "lat": 38.97238866666667, "name": "3107b14a2350f95b35d5d3775128cd06", "fusion_lon": 0.0, "bike_id": "3107b14a2350f95b35d5d3775128cd06", "is_disabled": 0, "is_reserved": 0}, {"rental_uris": {"ios": "https://dc.lft.to/lastmile_qr_scan", "android": "https://dc.lft.to/lastmile_qr_scan"}, "lon": -77.029753, "type": "electric_scooter", "fusion_lat": 0.0, "lat": 38.9451325, "name": "f54142d54bcbdc9eefb6f7f2e2f196de", "fusion_lon": 0.0, "bike_id": "f54142d54bcbdc9eefb6f7f2e2f196de", "is_disabled": 0, "is_reserved": 0}, {"rental_uris": {"ios": "https://dc.lft.to/lastmile_qr_scan", "android": "https://dc.lft.to/lastmile_qr_scan"}, "lon": -77.04158033333333, "type": "electric_scooter", "fusion_lat": 0.0, "lat": 38.91484716666667, "name": "e809cbd2e6f606c641f215ad57597782", "fusion_lon": 0.0, "bike_id": "e809cbd2e6f606c641f215ad57597782", "is_disabled": 0, "is_reserved": 0}, {"rental_uris": {"ios": "https://dc.lft.to/lastmile_qr_scan", "android": "https://dc.lft.to/lastmile_qr_scan"}, "lon": -77.02705016666667, "type": "electric_scooter", "fusion_lat": 0.0, "lat": 38.9116265, "name": "1e3854a197d3a57291f1e39d379d58fb", "fusion_lon": 0.0, "bike_id": "1e3854a197d3a57291f1e39d379d58fb", "is_disabled": 0, "is_reserved": 0}, {"rental_uris": {"ios": "https://dc.lft.to/lastmile_qr_scan", "android": "https://dc.lft.to/lastmile_qr_scan"}, "lon": -77.0407345, "type": "electric_bike", "fusion_lat": 0.0, "lat": 38.81240366666667, "name": "8419475a0269eb83a1be769b41ed3a27", "fusion_lon": 0.0, "bike_id": "8419475a0269eb83a1be769b41ed3a27", "is_disabled": 0, "is_reserved": 0}, {"rental_uris": {"ios": "https://dc.lft.to/lastmile_qr_scan", "android": "https://dc.lft.to/lastmile_qr_scan"}, "lon": -77.00213683333334, "type": "electric_scooter", "fusion_lat": 0.0, "lat": 38.90294733333333, "name": "2c208adedb11af1f51ebba14a16c5a85", "fusion_lon": 0.0, "bike_id": "2c208adedb11af1f51ebba14a16c5a85", "is_disabled": 0, "is_reserved": 0}, {"rental_uris": {"ios": "https://dc.lft.to/lastmile_qr_scan", "android": "https://dc.lft.to/lastmile_qr_scan"}, "lon": -77.01351966666667, "type": "electric_scooter", "fusion_lat": 0.0, "lat": 38.95286516666667, "name": "43647836b30f61c65099805af406e3d3", "fusion_lon": 0.0, "bike_id": "43647836b30f61c65099805af406e3d3", "is_disabled": 0, "is_reserved": 0}, {"rental_uris": {"ios": "https://dc.lft.to/lastmile_qr_scan", "android": "https://dc.lft.to/lastmile_qr_scan"}, "lon": -77.01241033333334, "type": "electric_scooter", "fusion_lat": 0.0, "lat": 38.86408333333333, "name": "4df8fefd9a184bc011c1e534fabebd8c", "fusion_lon": 0.0, "bike_id": "4df8fefd9a184bc011c1e534fabebd8c", "is_disabled": 0, "is_reserved": 0}, {"rental_uris": {"ios": "https://dc.lft.to/lastmile_qr_scan", "android": "https://dc.lft.to/lastmile_qr_scan"}, "lon": -77.04422966666667, "type": "electric_scooter", "fusion_lat": 0.0, "lat": 38.926133166666666, "name": "ca0e157ea368b8f6471545a3ae3cd8ea", "fusion_lon": 0.0, "bike_id": "ca0e157ea368b8f6471545a3ae3cd8ea", "is_disabled": 0, "is_reserved": 0}, {"rental_uris": {"ios": "https://dc.lft.to/lastmile_qr_scan", "android": "https://dc.lft.to/lastmile_qr_scan"}, "lon": -77.0241875, "type": "electric_scooter", "fusion_lat": 0.0, "lat": 38.89220266666667, "name": "6b4728c4cebc0474cc55fb63d8f7f819", "fusion_lon": 0.0, "bike_id": "6b4728c4cebc0474cc55fb63d8f7f819", "is_disabled": 0, "is_reserved": 0}, {"rental_uris": {"ios": "https://dc.lft.to/lastmile_qr_scan", "android": "https://dc.lft.to/lastmile_qr_scan"}, "lon": -76.98360383333333, "type": "electric_scooter", "fusion_lat": 0.0, "lat": 38.915155666666664, "name": "c5712a1d76de21aa359135c89ed4d0f9", "fusion_lon": 0.0, "bike_id": "c5712a1d76de21aa359135c89ed4d0f9", "is_disabled": 0, "is_reserved": 0}, {"rental_uris": {"ios": "https://dc.lft.to/lastmile_qr_scan", "android": "https://dc.lft.to/lastmile_qr_scan"}, "lon": -77.00953716666666, "type": "electric_scooter", "fusion_lat": 0.0, "lat": 38.907293833333334, "name": "2c0cb510352887e15af0b8ccd03b8500", "fusion_lon": 0.0, "bike_id": "2c0cb510352887e15af0b8ccd03b8500", "is_disabled": 0, "is_reserved": 0}, {"rental_uris": {"ios": "https://dc.lft.to/lastmile_qr_scan", "android": "https://dc.lft.to/lastmile_qr_scan"}, "lon": -76.93344233333333, "type": "electric_scooter", "fusion_lat": 0.0, "lat": 38.89909466666667, "name": "8c764128d942a3cf4a5f67a6ad36f72a", "fusion_lon": 0.0, "bike_id": "8c764128d942a3cf4a5f67a6ad36f72a", "is_disabled": 0, "is_reserved": 0}, {"rental_uris": {"ios": "https://dc.lft.to/lastmile_qr_scan", "android": "https://dc.lft.to/lastmile_qr_scan"}, "lon": -77.04094333333333, "type": "electric_scooter", "fusion_lat": 0.0, "lat": 38.90714, "name": "92817cae26cdfab0d4c15fb62189107d", "fusion_lon": 0.0, "bike_id": "92817cae26cdfab0d4c15fb62189107d", "is_disabled": 0, "is_reserved": 0}, {"rental_uris": {"ios": "https://dc.lft.to/lastmile_qr_scan", "android": "https://dc.lft.to/lastmile_qr_scan"}, "lon": -77.02587416666667, "type": "electric_scooter", "fusion_lat": 0.0, "lat": 38.89491116666667, "name": "09c1aa4cba9e902ce85dbb4e666c7020", "fusion_lon": 0.0, "bike_id": "09c1aa4cba9e902ce85dbb4e666c7020", "is_disabled": 0, "is_reserved": 0}, {"rental_uris": {"ios": "https://dc.lft.to/lastmile_qr_scan", "android": "https://dc.lft.to/lastmile_qr_scan"}, "lon": -77.00117916666666, "type": "electric_scooter", "fusion_lat": 0.0, "lat": 38.91486733333333, "name": "b920d3badf54ddb101328aca1356cc16", "fusion_lon": 0.0, "bike_id": "b920d3badf54ddb101328aca1356cc16", "is_disabled": 0, "is_reserved": 0}, {"rental_uris": {"ios": "https://dc.lft.to/lastmile_qr_scan", "android": "https://dc.lft.to/lastmile_qr_scan"}, "lon": -77.034423, "type": "electric_scooter", "fusion_lat": 0.0, "lat": 38.91793216666667, "name": "c24cfc9e7aa52cbc09cb9e15d67ec044", "fusion_lon": 0.0, "bike_id": "c24cfc9e7aa52cbc09cb9e15d67ec044", "is_disabled": 0, "is_reserved": 0}, {"rental_uris": {"ios": "https://dc.lft.to/lastmile_qr_scan", "android": "https://dc.lft.to/lastmile_qr_scan"}, "lon": -77.03204333333333, "type": "electric_scooter", "fusion_lat": 0.0, "lat": 38.93759883333333, "name": "f3da013381ad1f87abfa650fd1ccb953", "fusion_lon": 0.0, "bike_id": "f3da013381ad1f87abfa650fd1ccb953", "is_disabled": 0, "is_reserved": 0}, {"rental_uris": {"ios": "https://dc.lft.to/lastmile_qr_scan", "android": "https://dc.lft.to/lastmile_qr_scan"}, "lon": -77.023844, "type": "electric_scooter", "fusion_lat": 0.0, "lat": 38.91599466666667, "name": "333f531dc9ab8a54321bf417173b5884", "fusion_lon": 0.0, "bike_id": "333f531dc9ab8a54321bf417173b5884", "is_disabled": 0, "is_reserved": 0}, {"rental_uris": {"ios": "https://dc.lft.to/lastmile_qr_scan", "android": "https://dc.lft.to/lastmile_qr_scan"}, "lon": -77.02196716666667, "type": "electric_scooter", "fusion_lat": 0.0, "lat": 38.908334333333336, "name": "0cb5259bd21a14858cbe6ea0e62b3755", "fusion_lon": 0.0, "bike_id": "0cb5259bd21a14858cbe6ea0e62b3755", "is_disabled": 0, "is_reserved": 0}, {"rental_uris": {"ios": "https://dc.lft.to/lastmile_qr_scan", "android": "https://dc.lft.to/lastmile_qr_scan"}, "lon": -76.94654366666667, "type": "electric_scooter", "fusion_lat": 0.0, "lat": 38.898249666666665, "name": "055def5091fdcb733c595001ca9adf6b", "fusion_lon": 0.0, "bike_id": "055def5091fdcb733c595001ca9adf6b", "is_disabled": 0, "is_reserved": 0}, {"rental_uris": {"ios": "https://dc.lft.to/lastmile_qr_scan", "android": "https://dc.lft.to/lastmile_qr_scan"}, "lon": -77.05881883333333, "type": "electric_scooter", "fusion_lat": 0.0, "lat": 38.93634633333333, "name": "d57af20b1365f306fc4b6d9747c85873", "fusion_lon": 0.0, "bike_id": "d57af20b1365f306fc4b6d9747c85873", "is_disabled": 0, "is_reserved": 0}, {"rental_uris": {"ios": "https://dc.lft.to/lastmile_qr_scan", "android": "https://dc.lft.to/lastmile_qr_scan"}, "lon": -77.03157333333333, "type": "electric_scooter", "fusion_lat": 0.0, "lat": 38.923717333333336, "name": "09d0fa7a518133c9db4d288a012d2ec4", "fusion_lon": 0.0, "bike_id": "09d0fa7a518133c9db4d288a012d2ec4", "is_disabled": 0, "is_reserved": 0}, {"rental_uris": {"ios": "https://dc.lft.to/lastmile_qr_scan", "android": "https://dc.lft.to/lastmile_qr_scan"}, "lon": -77.06563466666667, "type": "electric_bike", "fusion_lat": 0.0, "lat": 38.91136, "name": "5aa090c82e3c2315d4325b4ca9c2579e", "fusion_lon": 0.0, "bike_id": "5aa090c82e3c2315d4325b4ca9c2579e", "is_disabled": 0, "is_reserved": 0}, {"rental_uris": {"ios": "https://dc.lft.to/lastmile_qr_scan", "android": "https://dc.lft.to/lastmile_qr_scan"}, "lon": -77.03049466666667, "type": "electric_scooter", "fusion_lat": 0.0, "lat": 38.9268095, "name": "0862c0ea3e30f2eba7933e72bbc36579", "fusion_lon": 0.0, "bike_id": "0862c0ea3e30f2eba7933e72bbc36579", "is_disabled": 0, "is_reserved": 0}, {"rental_uris": {"ios": "https://dc.lft.to/lastmile_qr_scan", "android": "https://dc.lft.to/lastmile_qr_scan"}, "lon": -76.95658966666667, "type": "electric_scooter", "fusion_lat": 0.0, "lat": 38.89618983333333, "name": "7809ee56ffff49f530d60fc2c6a6b2bb", "fusion_lon": 0.0, "bike_id": "7809ee56ffff49f530d60fc2c6a6b2bb", "is_disabled": 0, "is_reserved": 0}, {"rental_uris": {"ios": "https://dc.lft.to/lastmile_qr_scan", "android": "https://dc.lft.to/lastmile_qr_scan"}, "lon": -77.0469875, "type": "electric_scooter", "fusion_lat": 0.0, "lat": 38.91787766666667, "name": "7eb193063d454cbefc1b2dd5df941e2d", "fusion_lon": 0.0, "bike_id": "7eb193063d454cbefc1b2dd5df941e2d", "is_disabled": 0, "is_reserved": 0}, {"rental_uris": {"ios": "https://dc.lft.to/lastmile_qr_scan", "android": "https://dc.lft.to/lastmile_qr_scan"}, "lon": -76.9725185, "type": "electric_bike", "fusion_lat": 0.0, "lat": 38.957422, "name": "949b9bef7a50211bba8073e2b9977f01", "fusion_lon": 0.0, "bike_id": "949b9bef7a50211bba8073e2b9977f01", "is_disabled": 0, "is_reserved": 0}, {"rental_uris": {"ios": "https://dc.lft.to/lastmile_qr_scan", "android": "https://dc.lft.to/lastmile_qr_scan"}, "lon": -77.046923, "type": "electric_scooter", "fusion_lat": 0.0, "lat": 38.921007, "name": "c371cd7b01c0fe99c26a034a1543cfa4", "fusion_lon": 0.0, "bike_id": "c371cd7b01c0fe99c26a034a1543cfa4", "is_disabled": 0, "is_reserved": 0}, {"rental_uris": {"ios": "https://dc.lft.to/lastmile_qr_scan", "android": "https://dc.lft.to/lastmile_qr_scan"}, "lon": -77.13093383333333, "type": "electric_bike", "fusion_lat": 0.0, "lat": 38.861597, "name": "83b234d0d385bc24394b7275e0d07272", "fusion_lon": 0.0, "bike_id": "83b234d0d385bc24394b7275e0d07272", "is_disabled": 0, "is_reserved": 0}, {"rental_uris": {"ios": "https://dc.lft.to/lastmile_qr_scan", "android": "https://dc.lft.to/lastmile_qr_scan"}, "lon": -77.03232833333334, "type": "electric_scooter", "fusion_lat": 0.0, "lat": 38.89635833333333, "name": "11c23f951ec301e4e6265b699a8c1504", "fusion_lon": 0.0, "bike_id": "11c23f951ec301e4e6265b699a8c1504", "is_disabled": 0, "is_reserved": 0}, {"rental_uris": {"ios": "https://dc.lft.to/lastmile_qr_scan", "android": "https://dc.lft.to/lastmile_qr_scan"}, "lon": -77.02878133333333, "type": "electric_scooter", "fusion_lat": 0.0, "lat": 38.904687, "name": "a6914a4293b47953059db31aa5912b36", "fusion_lon": 0.0, "bike_id": "a6914a4293b47953059db31aa5912b36", "is_disabled": 0, "is_reserved": 0}, {"rental_uris": {"ios": "https://dc.lft.to/lastmile_qr_scan", "android": "https://dc.lft.to/lastmile_qr_scan"}, "lon": -77.09161133333333, "type": "electric_bike", "fusion_lat": 0.0, "lat": 38.96760033333333, "name": "c86983fea5a6cd45cffbc85310e12789", "fusion_lon": 0.0, "bike_id": "c86983fea5a6cd45cffbc85310e12789", "is_disabled": 0, "is_reserved": 0}, {"rental_uris": {"ios": "https://dc.lft.to/lastmile_qr_scan", "android": "https://dc.lft.to/lastmile_qr_scan"}, "lon": -77.01340983333333, "type": "electric_scooter", "fusion_lat": 0.0, "lat": 38.9661165, "name": "3f94258ff05e460a325c7530c4d7c28f", "fusion_lon": 0.0, "bike_id": "3f94258ff05e460a325c7530c4d7c28f", "is_disabled": 0, "is_reserved": 0}, {"rental_uris": {"ios": "https://dc.lft.to/lastmile_qr_scan", "android": "https://dc.lft.to/lastmile_qr_scan"}, "lon": -77.03800766666667, "type": "electric_scooter", "fusion_lat": 0.0, "lat": 38.9359905, "name": "f278bf123e5053ecf4b2120731d2cfea", "fusion_lon": 0.0, "bike_id": "f278bf123e5053ecf4b2120731d2cfea", "is_disabled": 0, "is_reserved": 0}, {"rental_uris": {"ios": "https://dc.lft.to/lastmile_qr_scan", "android": "https://dc.lft.to/lastmile_qr_scan"}, "lon": -77.04406133333333, "type": "electric_scooter", "fusion_lat": 0.0, "lat": 38.8742115, "name": "90b432ef854aee5491b40ddcf4be2e09", "fusion_lon": 0.0, "bike_id": "90b432ef854aee5491b40ddcf4be2e09", "is_disabled": 0, "is_reserved": 0}, {"rental_uris": {"ios": "https://dc.lft.to/lastmile_qr_scan", "android": "https://dc.lft.to/lastmile_qr_scan"}, "lon": -77.02316766666667, "type": "electric_scooter", "fusion_lat": 0.0, "lat": 38.88342216666667, "name": "f5d70474e18e1d22feb23823211be66f", "fusion_lon": 0.0, "bike_id": "f5d70474e18e1d22feb23823211be66f", "is_disabled": 0, "is_reserved": 0}, {"rental_uris": {"ios": "https://dc.lft.to/lastmile_qr_scan", "android": "https://dc.lft.to/lastmile_qr_scan"}, "lon": -77.03967433333334, "type": "electric_scooter", "fusion_lat": 0.0, "lat": 38.902410333333336, "name": "344fb63221e6db9aa9480cf218b191a3", "fusion_lon": 0.0, "bike_id": "344fb63221e6db9aa9480cf218b191a3", "is_disabled": 0, "is_reserved": 0}, {"rental_uris": {"ios": "https://dc.lft.to/lastmile_qr_scan", "android": "https://dc.lft.to/lastmile_qr_scan"}, "lon": -77.031235, "type": "electric_scooter", "fusion_lat": 0.0, "lat": 38.973756333333334, "name": "1495d7c60d2abe51bfe86c53cd69b637", "fusion_lon": 0.0, "bike_id": "1495d7c60d2abe51bfe86c53cd69b637", "is_disabled": 0, "is_reserved": 0}, {"rental_uris": {"ios": "https://dc.lft.to/lastmile_qr_scan", "android": "https://dc.lft.to/lastmile_qr_scan"}, "lon": -77.039251, "type": "electric_scooter", "fusion_lat": 0.0, "lat": 38.917517333333336, "name": "4f82e87b000edfe44da7e1e22e657bc2", "fusion_lon": 0.0, "bike_id": "4f82e87b000edfe44da7e1e22e657bc2", "is_disabled": 0, "is_reserved": 0}, {"rental_uris": {"ios": "https://dc.lft.to/lastmile_qr_scan", "android": "https://dc.lft.to/lastmile_qr_scan"}, "lon": -76.96175566666666, "type": "electric_bike", "fusion_lat": 0.0, "lat": 38.91859483333333, "name": "24a1e4cb7808f34019c108a8bc9fc99d", "fusion_lon": 0.0, "bike_id": "24a1e4cb7808f34019c108a8bc9fc99d", "is_disabled": 0, "is_reserved": 0}, {"rental_uris": {"ios": "https://dc.lft.to/lastmile_qr_scan", "android": "https://dc.lft.to/lastmile_qr_scan"}, "lon": -77.037346, "type": "electric_scooter", "fusion_lat": 0.0, "lat": 38.92574916666667, "name": "fb47308e2bfbe4df789a6786daa3f5e1", "fusion_lon": 0.0, "bike_id": "fb47308e2bfbe4df789a6786daa3f5e1", "is_disabled": 0, "is_reserved": 0}, {"rental_uris": {"ios": "https://dc.lft.to/lastmile_qr_scan", "android": "https://dc.lft.to/lastmile_qr_scan"}, "lon": -77.0559575, "type": "electric_scooter", "fusion_lat": 0.0, "lat": 38.936953, "name": "56806e938de9bea4d82c1202b1754137", "fusion_lon": 0.0, "bike_id": "56806e938de9bea4d82c1202b1754137", "is_disabled": 0, "is_reserved": 0}, {"rental_uris": {"ios": "https://dc.lft.to/lastmile_qr_scan", "android": "https://dc.lft.to/lastmile_qr_scan"}, "lon": -77.04173783333333, "type": "electric_scooter", "fusion_lat": 0.0, "lat": 38.918504666666664, "name": "6c0b4a04ed3f50707f32ab8a81d11e84", "fusion_lon": 0.0, "bike_id": "6c0b4a04ed3f50707f32ab8a81d11e84", "is_disabled": 0, "is_reserved": 0}, {"rental_uris": {"ios": "https://dc.lft.to/lastmile_qr_scan", "android": "https://dc.lft.to/lastmile_qr_scan"}, "lon": -77.01432166666666, "type": "electric_scooter", "fusion_lat": 0.0, "lat": 38.92991833333333, "name": "1068deeb5af217466d48531b3bc5eaa3", "fusion_lon": 0.0, "bike_id": "1068deeb5af217466d48531b3bc5eaa3", "is_disabled": 0, "is_reserved": 0}, {"rental_uris": {"ios": "https://dc.lft.to/lastmile_qr_scan", "android": "https://dc.lft.to/lastmile_qr_scan"}, "lon": -77.03266366666666, "type": "electric_scooter", "fusion_lat": 0.0, "lat": 38.9382005, "name": "0d50e6afd243512806e0244cb6b0a5f7", "fusion_lon": 0.0, "bike_id": "0d50e6afd243512806e0244cb6b0a5f7", "is_disabled": 0, "is_reserved": 0}, {"rental_uris": {"ios": "https://dc.lft.to/lastmile_qr_scan", "android": "https://dc.lft.to/lastmile_qr_scan"}, "lon": -77.03441983333333, "type": "electric_scooter", "fusion_lat": 0.0, "lat": 38.918402, "name": "b98f48b4c6689fb6394991614632d643", "fusion_lon": 0.0, "bike_id": "b98f48b4c6689fb6394991614632d643", "is_disabled": 0, "is_reserved": 0}, {"rental_uris": {"ios": "https://dc.lft.to/lastmile_qr_scan", "android": "https://dc.lft.to/lastmile_qr_scan"}, "lon": -77.01586983333333, "type": "electric_scooter", "fusion_lat": 0.0, "lat": 38.95706366666667, "name": "c6f2030ff24baad4544d26ad4b6b9879", "fusion_lon": 0.0, "bike_id": "c6f2030ff24baad4544d26ad4b6b9879", "is_disabled": 0, "is_reserved": 0}, {"rental_uris": {"ios": "https://dc.lft.to/lastmile_qr_scan", "android": "https://dc.lft.to/lastmile_qr_scan"}, "lon": -77.04264466666666, "type": "electric_scooter", "fusion_lat": 0.0, "lat": 38.92236466666667, "name": "79808fcee22db7513fda8511226a90e9", "fusion_lon": 0.0, "bike_id": "79808fcee22db7513fda8511226a90e9", "is_disabled": 0, "is_reserved": 0}, {"rental_uris": {"ios": "https://dc.lft.to/lastmile_qr_scan", "android": "https://dc.lft.to/lastmile_qr_scan"}, "lon": -77.036595, "type": "electric_scooter", "fusion_lat": 0.0, "lat": 38.9172335, "name": "faa94e382364a5bcb48ef504feb348f0", "fusion_lon": 0.0, "bike_id": "faa94e382364a5bcb48ef504feb348f0", "is_disabled": 0, "is_reserved": 0}, {"rental_uris": {"ios": "https://dc.lft.to/lastmile_qr_scan", "android": "https://dc.lft.to/lastmile_qr_scan"}, "lon": -77.043568, "type": "electric_scooter", "fusion_lat": 0.0, "lat": 38.93153816666667, "name": "89cca1db2bf95dba23ab56a57d9476f9", "fusion_lon": 0.0, "bike_id": "89cca1db2bf95dba23ab56a57d9476f9", "is_disabled": 0, "is_reserved": 0}, {"rental_uris": {"ios": "https://dc.lft.to/lastmile_qr_scan", "android": "https://dc.lft.to/lastmile_qr_scan"}, "lon": -77.09203233333334, "type": "electric_scooter", "fusion_lat": 0.0, "lat": 38.91705316666667, "name": "4d4bfb12c55579d2bc7470574e273ad1", "fusion_lon": 0.0, "bike_id": "4d4bfb12c55579d2bc7470574e273ad1", "is_disabled": 0, "is_reserved": 0}, {"rental_uris": {"ios": "https://dc.lft.to/lastmile_qr_scan", "android": "https://dc.lft.to/lastmile_qr_scan"}, "lon": -77.03263066666666, "type": "electric_scooter", "fusion_lat": 0.0, "lat": 38.932796833333335, "name": "48e659c4633c8ce00666097bdd0662ce", "fusion_lon": 0.0, "bike_id": "48e659c4633c8ce00666097bdd0662ce", "is_disabled": 0, "is_reserved": 0}, {"rental_uris": {"ios": "https://dc.lft.to/lastmile_qr_scan", "android": "https://dc.lft.to/lastmile_qr_scan"}, "lon": -77.03843, "type": "electric_scooter", "fusion_lat": 0.0, "lat": 38.90236266666667, "name": "eefbe5533382a70576da4d03a36c003e", "fusion_lon": 0.0, "bike_id": "eefbe5533382a70576da4d03a36c003e", "is_disabled": 0, "is_reserved": 0}, {"rental_uris": {"ios": "https://dc.lft.to/lastmile_qr_scan", "android": "https://dc.lft.to/lastmile_qr_scan"}, "lon": -77.02833366666667, "type": "electric_scooter", "fusion_lat": 0.0, "lat": 38.88768016666667, "name": "2bf16dfb6696e313c8d0c085a71128fe", "fusion_lon": 0.0, "bike_id": "2bf16dfb6696e313c8d0c085a71128fe", "is_disabled": 0, "is_reserved": 0}, {"rental_uris": {"ios": "https://dc.lft.to/lastmile_qr_scan", "android": "https://dc.lft.to/lastmile_qr_scan"}, "lon": -77.07468166666666, "type": "electric_bike", "fusion_lat": 0.0, "lat": 38.92065816666667, "name": "713c94f1faf5d2bfdc3fc21f1df5b4d6", "fusion_lon": 0.0, "bike_id": "713c94f1faf5d2bfdc3fc21f1df5b4d6", "is_disabled": 0, "is_reserved": 0}, {"rental_uris": {"ios": "https://dc.lft.to/lastmile_qr_scan", "android": "https://dc.lft.to/lastmile_qr_scan"}, "lon": -77.04188966666666, "type": "electric_scooter", "fusion_lat": 0.0, "lat": 38.912564333333336, "name": "360c4f7bcd5be24616c20280c6cb847f", "fusion_lon": 0.0, "bike_id": "360c4f7bcd5be24616c20280c6cb847f", "is_disabled": 0, "is_reserved": 0}, {"rental_uris": {"ios": "https://dc.lft.to/lastmile_qr_scan", "android": "https://dc.lft.to/lastmile_qr_scan"}, "lon": -77.01113366666667, "type": "electric_scooter", "fusion_lat": 0.0, "lat": 38.9161565, "name": "3a29fc9e5be5432b6545d0dfbdbe30d0", "fusion_lon": 0.0, "bike_id": "3a29fc9e5be5432b6545d0dfbdbe30d0", "is_disabled": 0, "is_reserved": 0}, {"rental_uris": {"ios": "https://dc.lft.to/lastmile_qr_scan", "android": "https://dc.lft.to/lastmile_qr_scan"}, "lon": -77.01609466666666, "type": "electric_scooter", "fusion_lat": 0.0, "lat": 38.876906, "name": "370eb4124806f71103b24c7a16554ddf", "fusion_lon": 0.0, "bike_id": "370eb4124806f71103b24c7a16554ddf", "is_disabled": 0, "is_reserved": 0}, {"rental_uris": {"ios": "https://dc.lft.to/lastmile_qr_scan", "android": "https://dc.lft.to/lastmile_qr_scan"}, "lon": -76.91663016666666, "type": "electric_bike", "fusion_lat": 0.0, "lat": 38.868598, "name": "d5c730caac524143dd2766f7a940762e", "fusion_lon": 0.0, "bike_id": "d5c730caac524143dd2766f7a940762e", "is_disabled": 0, "is_reserved": 0}, {"rental_uris": {"ios": "https://dc.lft.to/lastmile_qr_scan", "android": "https://dc.lft.to/lastmile_qr_scan"}, "lon": -77.00209366666667, "type": "electric_scooter", "fusion_lat": 0.0, "lat": 38.902208, "name": "cd83d7ff0f171c10fe2370fbdcf6a570", "fusion_lon": 0.0, "bike_id": "cd83d7ff0f171c10fe2370fbdcf6a570", "is_disabled": 0, "is_reserved": 0}, {"rental_uris": {"ios": "https://dc.lft.to/lastmile_qr_scan", "android": "https://dc.lft.to/lastmile_qr_scan"}, "lon": -77.00578816666666, "type": "electric_scooter", "fusion_lat": 0.0, "lat": 38.872203666666664, "name": "e8af53ff478cabe44aa0ca046a238adc", "fusion_lon": 0.0, "bike_id": "e8af53ff478cabe44aa0ca046a238adc", "is_disabled": 0, "is_reserved": 0}, {"rental_uris": {"ios": "https://dc.lft.to/lastmile_qr_scan", "android": "https://dc.lft.to/lastmile_qr_scan"}, "lon": -77.12734083333334, "type": "electric_bike", "fusion_lat": 0.0, "lat": 38.8956045, "name": "bde6e87fee2f08770914128d5fd9ba6e", "fusion_lon": 0.0, "bike_id": "bde6e87fee2f08770914128d5fd9ba6e", "is_disabled": 0, "is_reserved": 0}, {"rental_uris": {"ios": "https://dc.lft.to/lastmile_qr_scan", "android": "https://dc.lft.to/lastmile_qr_scan"}, "lon": -77.04497533333333, "type": "electric_scooter", "fusion_lat": 0.0, "lat": 38.919300666666665, "name": "1d564b61eb79a018372bbc4d3b2928c9", "fusion_lon": 0.0, "bike_id": "1d564b61eb79a018372bbc4d3b2928c9", "is_disabled": 0, "is_reserved": 0}, {"rental_uris": {"ios": "https://dc.lft.to/lastmile_qr_scan", "android": "https://dc.lft.to/lastmile_qr_scan"}, "lon": -77.03460983333333, "type": "electric_scooter", "fusion_lat": 0.0, "lat": 38.926347, "name": "04fd93a763fb8fd9225730bc924d9818", "fusion_lon": 0.0, "bike_id": "04fd93a763fb8fd9225730bc924d9818", "is_disabled": 0, "is_reserved": 0}, {"rental_uris": {"ios": "https://dc.lft.to/lastmile_qr_scan", "android": "https://dc.lft.to/lastmile_qr_scan"}, "lon": -77.02617716666667, "type": "electric_scooter", "fusion_lat": 0.0, "lat": 38.8997625, "name": "15ab9793bfbfd309be3fa1012d76da12", "fusion_lon": 0.0, "bike_id": "15ab9793bfbfd309be3fa1012d76da12", "is_disabled": 0, "is_reserved": 0}, {"rental_uris": {"ios": "https://dc.lft.to/lastmile_qr_scan", "android": "https://dc.lft.to/lastmile_qr_scan"}, "lon": -77.050258, "type": "electric_scooter", "fusion_lat": 0.0, "lat": 38.90159466666667, "name": "7499413d4d992d16d1486f5275916f46", "fusion_lon": 0.0, "bike_id": "7499413d4d992d16d1486f5275916f46", "is_disabled": 0, "is_reserved": 0}, {"rental_uris": {"ios": "https://dc.lft.to/lastmile_qr_scan", "android": "https://dc.lft.to/lastmile_qr_scan"}, "lon": -76.99260333333334, "type": "electric_scooter", "fusion_lat": 0.0, "lat": 38.919587, "name": "72e2294448205c020a101ecd500058cb", "fusion_lon": 0.0, "bike_id": "72e2294448205c020a101ecd500058cb", "is_disabled": 0, "is_reserved": 0}, {"rental_uris": {"ios": "https://dc.lft.to/lastmile_qr_scan", "android": "https://dc.lft.to/lastmile_qr_scan"}, "lon": -77.0238935, "type": "electric_scooter", "fusion_lat": 0.0, "lat": 38.9573205, "name": "0245e93cd5927d52f67b73fd1a5704b1", "fusion_lon": 0.0, "bike_id": "0245e93cd5927d52f67b73fd1a5704b1", "is_disabled": 0, "is_reserved": 0}, {"rental_uris": {"ios": "https://dc.lft.to/lastmile_qr_scan", "android": "https://dc.lft.to/lastmile_qr_scan"}, "lon": -77.005832, "type": "electric_scooter", "fusion_lat": 0.0, "lat": 38.844938166666665, "name": "65365e83294f26766ded5930c58cbbc4", "fusion_lon": 0.0, "bike_id": "65365e83294f26766ded5930c58cbbc4", "is_disabled": 0, "is_reserved": 0}, {"rental_uris": {"ios": "https://dc.lft.to/lastmile_qr_scan", "android": "https://dc.lft.to/lastmile_qr_scan"},