{"data": {"bikes": [{"lat": 38.88731716666667, "is_disabled": 0, "type": "electric_scooter", "lon": -77.0320285, "bike_id": "d3f8a92b5dfce3affce401d23de7f491", "fusion_lat": 0.0, "name": "d3f8a92b5dfce3affce401d23de7f491", "is_reserved": 0, "rental_uris": {"android": "https://dc.lft.to/lastmile_qr_scan", "ios": "https://dc.lft.to/lastmile_qr_scan"}, "fusion_lon": 0.0}, {"lat": 38.955609, "is_disabled": 0, "type": "electric_scooter", "lon": -77.02228083333334, "bike_id": "d7756a7e0624801dafbd4a315e83996c", "fusion_lat": 0.0, "name": "d7756a7e0624801dafbd4a315e83996c", "is_reserved": 0, "rental_uris": {"android": "https://dc.lft.to/lastmile_qr_scan", "ios": "https://dc.lft.to/lastmile_qr_scan"}, "fusion_lon": 0.0}, {"lat": 38.86560033333333, "is_disabled": 0, "type": "electric_scooter", "lon": -76.98951383333333, "bike_id": "caa9ea2414d80b2f0746ef6196488b2d", "fusion_lat": 0.0, "name": "caa9ea2414d80b2f0746ef6196488b2d", "is_reserved": 0, "rental_uris": {"android": "https://dc.lft.to/lastmile_qr_scan", "ios": "https://dc.lft.to/lastmile_qr_scan"}, "fusion_lon": 0.0}, {"lat": 38.90915366666667, "is_disabled": 0, "type": "electric_scooter", "lon": -77.0364315, "bike_id": "f26a3662394f39d197f6ec239c296208", "fusion_lat": 0.0, "name": "f26a3662394f39d197f6ec239c296208", "is_reserved": 0, "rental_uris": {"android": "https://dc.lft.to/lastmile_qr_scan", "ios": "https://dc.lft.to/lastmile_qr_scan"}, "fusion_lon": 0.0}, {"lat": 38.938624, "is_disabled": 0, "type": "electric_scooter", "lon": -77.02449083333333, "bike_id": "5b3de8316a3c2d228f2b185aaeb5c161", "fusion_lat": 0.0, "name": "5b3de8316a3c2d228f2b185aaeb5c161", "is_reserved": 0, "rental_uris": {"android": "https://dc.lft.to/lastmile_qr_scan", "ios": "https://dc.lft.to/lastmile_qr_scan"}, "fusion_lon": 0.0}, {"lat": 38.89045683333333, "is_disabled": 0, "type": "electric_scooter", "lon": -76.98988133333333, "bike_id": "1104debafd5186ff51b4f5696e6dff1e", "fusion_lat": 0.0, "name": "1104debafd5186ff51b4f5696e6dff1e", "is_reserved": 0, "rental_uris": {"android": "https://dc.lft.to/lastmile_qr_scan", "ios": "https://dc.lft.to/lastmile_qr_scan"}, "fusion_lon": 0.0}, {"lat": 38.91815783333333, "is_disabled": 0, "type": "electric_scooter", "lon": -77.03191883333334, "bike_id": "f8c559178ffea4005b2dc7bdf2251739", "fusion_lat": 0.0, "name": "f8c559178ffea4005b2dc7bdf2251739", "is_reserved": 0, "rental_uris": {"android": "https://dc.lft.to/lastmile_qr_scan", "ios": "https://dc.lft.to/lastmile_qr_scan"}, "fusion_lon": 0.0}, {"lat": 38.90201366666667, "is_disabled": 0, "type": "electric_scooter", "lon": -77.02370466666666, "bike_id": "401428c47d361be45b1c88b28b919333", "fusion_lat": 0.0, "name": "401428c47d361be45b1c88b28b919333", "is_reserved": 0, "rental_uris": {"android": "https://dc.lft.to/lastmile_qr_scan", "ios": "https://dc.lft.to/lastmile_qr_scan"}, "fusion_lon": 0.0}, {"lat": 38.871424166666664, "is_disabled": 0, "type": "electric_bike", "lon": -76.93703166666667, "bike_id": "cdac4bd3881efff3354d87e9c94336a5", "fusion_lat": 0.0, "name": "cdac4bd3881efff3354d87e9c94336a5", "is_reserved": 0, "rental_uris": {"android": "https://dc.lft.to/lastmile_qr_scan", "ios": "https://dc.lft.to/lastmile_qr_scan"}, "fusion_lon": 0.0}, {"lat": 38.88968233333333, "is_disabled": 0, "type": "electric_scooter", "lon": -76.979382, "bike_id": "6874524f86080b133834419e7e5ae8d1", "fusion_lat": 0.0, "name": "6874524f86080b133834419e7e5ae8d1", "is_reserved": 0, "rental_uris": {"android": "https://dc.lft.to/lastmile_qr_scan", "ios": "https://dc.lft.to/lastmile_qr_scan"}, "fusion_lon": 0.0}, {"lat": 38.907900166666664, "is_disabled": 0, "type": "electric_scooter", "lon": -77.02286916666667, "bike_id": "2feb9c8d21727aa74bb1dc1dfbdef69d", "fusion_lat": 0.0, "name": "2feb9c8d21727aa74bb1dc1dfbdef69d", "is_reserved": 0, "rental_uris": {"android": "https://dc.lft.to/lastmile_qr_scan", "ios": "https://dc.lft.to/lastmile_qr_scan"}, "fusion_lon": 0.0}, {"lat": 38.929967500000004, "is_disabled": 0, "type": "electric_scooter", "lon": -77.0129245, "bike_id": "e21a367fac421caac265b5db3103b531", "fusion_lat": 0.0, "name": "e21a367fac421caac265b5db3103b531", "is_reserved": 0, "rental_uris": {"android": "https://dc.lft.to/lastmile_qr_scan", "ios": "https://dc.lft.to/lastmile_qr_scan"}, "fusion_lon": 0.0}, {"lat": 38.916145666666665, "is_disabled": 0, "type": "electric_scooter", "lon": -77.02964333333334, "bike_id": "a171b8a3570955e9178520a010b672c6", "fusion_lat": 0.0, "name": "a171b8a3570955e9178520a010b672c6", "is_reserved": 0, "rental_uris": {"android": "https://dc.lft.to/lastmile_qr_scan", "ios": "https://dc.lft.to/lastmile_qr_scan"}, "fusion_lon": 0.0}, {"lat": 38.9225315, "is_disabled": 0, "type": "electric_scooter", "lon": -77.02724816666667, "bike_id": "d04eec19451abfc325ac5c42f4386f3f", "fusion_lat": 0.0, "name": "d04eec19451abfc325ac5c42f4386f3f", "is_reserved": 0, "rental_uris": {"android": "https://dc.lft.to/lastmile_qr_scan", "ios": "https://dc.lft.to/lastmile_qr_scan"}, "fusion_lon": 0.0}, {"lat": 38.910309833333336, "is_disabled": 0, "type": "electric_scooter", "lon": -76.9980905, "bike_id": "557a4876beea3c376a3b9f659a58b553", "fusion_lat": 0.0, "name": "557a4876beea3c376a3b9f659a58b553", "is_reserved": 0, "rental_uris": {"android": "https://dc.lft.to/lastmile_qr_scan", "ios": "https://dc.lft.to/lastmile_qr_scan"}, "fusion_lon": 0.0}, {"lat": 38.958046, "is_disabled": 0, "type": "electric_scooter", "lon": -77.0316355, "bike_id": "9e39c2e1db3f83390b67104d1e40d477", "fusion_lat": 0.0, "name": "9e39c2e1db3f83390b67104d1e40d477", "is_reserved": 0, "rental_uris": {"android": "https://dc.lft.to/lastmile_qr_scan", "ios": "https://dc.lft.to/lastmile_qr_scan"}, "fusion_lon": 0.0}, {"lat": 38.864475166666665, "is_disabled": 0, "type": "electric_bike", "lon": -76.94537766666667, "bike_id": "435a9b6ef08a73f5123f6b6200ae917c", "fusion_lat": 0.0, "name": "435a9b6ef08a73f5123f6b6200ae917c", "is_reserved": 0, "rental_uris": {"android": "https://dc.lft.to/lastmile_qr_scan", "ios": "https://dc.lft.to/lastmile_qr_scan"}, "fusion_lon": 0.0}, {"lat": 38.85448516666666, "is_disabled": 0, "type": "electric_scooter", "lon": -76.985809, "bike_id": "32886fccc906bbfbd94d1a592363316f", "fusion_lat": 0.0, "name": "32886fccc906bbfbd94d1a592363316f", "is_reserved": 0, "rental_uris": {"android": "https://dc.lft.to/lastmile_qr_scan", "ios": "https://dc.lft.to/lastmile_qr_scan"}, "fusion_lon": 0.0}, {"lat": 38.90268016666667, "is_disabled": 0, "type": "electric_scooter", "lon": -77.03372116666667, "bike_id": "e271327fb1a197d929c1054aba9934a4", "fusion_lat": 0.0, "name": "e271327fb1a197d929c1054aba9934a4", "is_reserved": 0, "rental_uris": {"android": "https://dc.lft.to/lastmile_qr_scan", "ios": "https://dc.lft.to/lastmile_qr_scan"}, "fusion_lon": 0.0}, {"lat": 38.91168666666667, "is_disabled": 0, "type": "electric_scooter", "lon": -77.03859733333333, "bike_id": "ea6b3a74019610a054d77c118f324a38", "fusion_lat": 0.0, "name": "ea6b3a74019610a054d77c118f324a38", "is_reserved": 0, "rental_uris": {"android": "https://dc.lft.to/lastmile_qr_scan", "ios": "https://dc.lft.to/lastmile_qr_scan"}, "fusion_lon": 0.0}, {"lat": 38.921260333333336, "is_disabled": 0, "type": "electric_scooter", "lon": -77.04008466666667, "bike_id": "c23230a94d765cb08b05bd1a54d18779", "fusion_lat": 0.0, "name": "c23230a94d765cb08b05bd1a54d18779", "is_reserved": 0, "rental_uris": {"android": "https://dc.lft.to/lastmile_qr_scan", "ios": "https://dc.lft.to/lastmile_qr_scan"}, "fusion_lon": 0.0}, {"lat": 38.91061033333333, "is_disabled": 0, "type": "electric_scooter", "lon": -77.02926683333334, "bike_id": "52d1657bb18cdd4868ecde603256b09a", "fusion_lat": 0.0, "name": "52d1657bb18cdd4868ecde603256b09a", "is_reserved": 0, "rental_uris": {"android": "https://dc.lft.to/lastmile_qr_scan", "ios": "https://dc.lft.to/lastmile_qr_scan"}, "fusion_lon": 0.0}, {"lat": 38.87846183333333, "is_disabled": 0, "type": "electric_scooter", "lon": -77.0079585, "bike_id": "f66f70c474b3c025c8d843a5ef7959ab", "fusion_lat": 0.0, "name": "f66f70c474b3c025c8d843a5ef7959ab", "is_reserved": 0, "rental_uris": {"android": "https://dc.lft.to/lastmile_qr_scan", "ios": "https://dc.lft.to/lastmile_qr_scan"}, "fusion_lon": 0.0}, {"lat": 38.91806183333333, "is_disabled": 0, "type": "electric_scooter", "lon": -77.02685483333333, "bike_id": "306320f85aabaf1b96acd88b1489ffdc", "fusion_lat": 0.0, "name": "306320f85aabaf1b96acd88b1489ffdc", "is_reserved": 0, "rental_uris": {"android": "https://dc.lft.to/lastmile_qr_scan", "ios": "https://dc.lft.to/lastmile_qr_scan"}, "fusion_lon": 0.0}, {"lat": 38.9297635, "is_disabled": 0, "type": "electric_scooter", "lon": -77.03825933333333, "bike_id": "a8e4c369ca293ae3a65175b157519cd4", "fusion_lat": 0.0, "name": "a8e4c369ca293ae3a65175b157519cd4", "is_reserved": 0, "rental_uris": {"android": "https://dc.lft.to/lastmile_qr_scan", "ios": "https://dc.lft.to/lastmile_qr_scan"}, "fusion_lon": 0.0}, {"lat": 38.88368783333333, "is_disabled": 0, "type": "electric_scooter", "lon": -77.02432333333333, "bike_id": "ff92d2dd221efc41992ff96e9598ecc2", "fusion_lat": 0.0, "name": "ff92d2dd221efc41992ff96e9598ecc2", "is_reserved": 0, "rental_uris": {"android": "https://dc.lft.to/lastmile_qr_scan", "ios": "https://dc.lft.to/lastmile_qr_scan"}, "fusion_lon": 0.0}, {"lat": 38.88268016666667, "is_disabled": 0, "type": "electric_scooter", "lon": -76.9882685, "bike_id": "1d863f086457cf550dc7d16edbb5d518", "fusion_lat": 0.0, "name": "1d863f086457cf550dc7d16edbb5d518", "is_reserved": 0, "rental_uris": {"android": "https://dc.lft.to/lastmile_qr_scan", "ios": "https://dc.lft.to/lastmile_qr_scan"}, "fusion_lon": 0.0}, {"lat": 38.93597883333333, "is_disabled": 0, "type": "electric_scooter", "lon": -77.0563335, "bike_id": "59ce1fb6f96120ee67cdc456412d8a14", "fusion_lat": 0.0, "name": "59ce1fb6f96120ee67cdc456412d8a14", "is_reserved": 0, "rental_uris": {"android": "https://dc.lft.to/lastmile_qr_scan", "ios": "https://dc.lft.to/lastmile_qr_scan"}, "fusion_lon": 0.0}, {"lat": 38.905047333333336, "is_disabled": 0, "type": "electric_scooter", "lon": -77.044802, "bike_id": "fe3774247bd62237ce1b0b9512509491", "fusion_lat": 0.0, "name": "fe3774247bd62237ce1b0b9512509491", "is_reserved": 0, "rental_uris": {"android": "https://dc.lft.to/lastmile_qr_scan", "ios": "https://dc.lft.to/lastmile_qr_scan"}, "fusion_lon": 0.0}, {"lat": 38.9172685, "is_disabled": 0, "type": "electric_scooter", "lon": -77.04168266666667, "bike_id": "7022ded9faf7c53e6bf25bc85f5aabd8", "fusion_lat": 0.0, "name": "7022ded9faf7c53e6bf25bc85f5aabd8", "is_reserved": 0, "rental_uris": {"android": "https://dc.lft.to/lastmile_qr_scan", "ios": "https://dc.lft.to/lastmile_qr_scan"}, "fusion_lon": 0.0}, {"lat": 38.903536833333334, "is_disabled": 0, "type": "electric_scooter", "lon": -77.04103783333333, "bike_id": "3631e4936750308d4e82e3a3d796f7f6", "fusion_lat": 0.0, "name": "3631e4936750308d4e82e3a3d796f7f6", "is_reserved": 0, "rental_uris": {"android": "https://dc.lft.to/lastmile_qr_scan", "ios": "https://dc.lft.to/lastmile_qr_scan"}, "fusion_lon": 0.0}, {"lat": 38.8564125, "is_disabled": 0, "type": "electric_bike", "lon": -77.112427, "bike_id": "f1cad2e1710bca059444fc645296b274", "fusion_lat": 0.0, "name": "f1cad2e1710bca059444fc645296b274", "is_reserved": 0, "rental_uris": {"android": "https://dc.lft.to/lastmile_qr_scan", "ios": "https://dc.lft.to/lastmile_qr_scan"}, "fusion_lon": 0.0}, {"lat": 38.916981166666666, "is_disabled": 0, "type": "electric_scooter", "lon": -77.04029133333333, "bike_id": "69623e9f80071e1f969a9c94b5674fd7", "fusion_lat": 0.0, "name": "69623e9f80071e1f969a9c94b5674fd7", "is_reserved": 0, "rental_uris": {"android": "https://dc.lft.to/lastmile_qr_scan", "ios": "https://dc.lft.to/lastmile_qr_scan"}, "fusion_lon": 0.0}, {"lat": 38.90724933333333, "is_disabled": 0, "type": "electric_scooter", "lon": -77.0237695, "bike_id": "2ff150e3aabf25ee33b9667c965402f9", "fusion_lat": 0.0, "name": "2ff150e3aabf25ee33b9667c965402f9", "is_reserved": 0, "rental_uris": {"android": "https://dc.lft.to/lastmile_qr_scan", "ios": "https://dc.lft.to/lastmile_qr_scan"}, "fusion_lon": 0.0}, {"lat": 38.919181333333334, "is_disabled": 0, "type": "electric_scooter", "lon": -77.03201333333334, "bike_id": "930bf6a9e8b19882271cb91fa20542d4", "fusion_lat": 0.0, "name": "930bf6a9e8b19882271cb91fa20542d4", "is_reserved": 0, "rental_uris": {"android": "https://dc.lft.to/lastmile_qr_scan", "ios": "https://dc.lft.to/lastmile_qr_scan"}, "fusion_lon": 0.0}, {"lat": 38.92785033333333, "is_disabled": 0, "type": "electric_scooter", "lon": -77.03152216666666, "bike_id": "9ec36b596c4115b269abda1f7b03fcb6", "fusion_lat": 0.0, "name": "9ec36b596c4115b269abda1f7b03fcb6", "is_reserved": 0, "rental_uris": {"android": "https://dc.lft.to/lastmile_qr_scan", "ios": "https://dc.lft.to/lastmile_qr_scan"}, "fusion_lon": 0.0}, {"lat": 38.899074, "is_disabled": 0, "type": "electric_scooter", "lon": -77.00356616666667, "bike_id": "1a60f65c06b2e9dd78555d22ac8d0137", "fusion_lat": 0.0, "name": "1a60f65c06b2e9dd78555d22ac8d0137", "is_reserved": 0, "rental_uris": {"android": "https://dc.lft.to/lastmile_qr_scan", "ios": "https://dc.lft.to/lastmile_qr_scan"}, "fusion_lon": 0.0}, {"lat": 38.92169, "is_disabled": 0, "type": "electric_scooter", "lon": -77.05136483333334, "bike_id": "e49aa8356840baa98ec35a104af820d7", "fusion_lat": 0.0, "name": "e49aa8356840baa98ec35a104af820d7", "is_reserved": 0, "rental_uris": {"android": "https://dc.lft.to/lastmile_qr_scan", "ios": "https://dc.lft.to/lastmile_qr_scan"}, "fusion_lon": 0.0}, {"lat": 38.934533, "is_disabled": 0, "type": "electric_scooter", "lon": -77.032371, "bike_id": "c3f34bbc648ac566e91203bf1f43153f", "fusion_lat": 0.0, "name": "c3f34bbc648ac566e91203bf1f43153f", "is_reserved": 0, "rental_uris": {"android": "https://dc.lft.to/lastmile_qr_scan", "ios": "https://dc.lft.to/lastmile_qr_scan"}, "fusion_lon": 0.0}, {"lat": 38.9322795, "is_disabled": 0, "type": "electric_scooter", "lon": -77.044116, "bike_id": "ab8caf53319769cf3baa439f60cbf9f1", "fusion_lat": 0.0, "name": "ab8caf53319769cf3baa439f60cbf9f1", "is_reserved": 0, "rental_uris": {"android": "https://dc.lft.to/lastmile_qr_scan", "ios": "https://dc.lft.to/lastmile_qr_scan"}, "fusion_lon": 0.0}, {"lat": 38.911099, "is_disabled": 0, "type": "electric_scooter", "lon": -77.03702316666667, "bike_id": "227bad891d212a72775e6735bb420f62", "fusion_lat": 0.0, "name": "227bad891d212a72775e6735bb420f62", "is_reserved": 0, "rental_uris": {"android": "https://dc.lft.to/lastmile_qr_scan", "ios": "https://dc.lft.to/lastmile_qr_scan"}, "fusion_lon": 0.0}, {"lat": 38.8521945, "is_disabled": 0, "type": "electric_bike", "lon": -77.12960966666667, "bike_id": "c2a77a019ff09e5af3fc95dbf00ceb35", "fusion_lat": 0.0, "name": "c2a77a019ff09e5af3fc95dbf00ceb35", "is_reserved": 0, "rental_uris": {"android": "https://dc.lft.to/lastmile_qr_scan", "ios": "https://dc.lft.to/lastmile_qr_scan"}, "fusion_lon": 0.0}, {"lat": 38.92331516666667, "is_disabled": 0, "type": "electric_scooter", "lon": -77.04461316666666, "bike_id": "c183dd010d8a0ac692d1a5f1d407d637", "fusion_lat": 0.0, "name": "c183dd010d8a0ac692d1a5f1d407d637", "is_reserved": 0, "rental_uris": {"android": "https://dc.lft.to/lastmile_qr_scan", "ios": "https://dc.lft.to/lastmile_qr_scan"}, "fusion_lon": 0.0}, {"lat": 38.962162166666666, "is_disabled": 0, "type": "electric_bike", "lon": -77.0277985, "bike_id": "5f81747484d25b26ab0275a46914e99d", "fusion_lat": 0.0, "name": "5f81747484d25b26ab0275a46914e99d", "is_reserved": 0, "rental_uris": {"android": "https://dc.lft.to/lastmile_qr_scan", "ios": "https://dc.lft.to/lastmile_qr_scan"}, "fusion_lon": 0.0}, {"lat": 38.916558, "is_disabled": 0, "type": "electric_scooter", "lon": -77.04293733333333, "bike_id": "cf1b6f4f3980ca6a12fc27a7d1a8c081", "fusion_lat": 0.0, "name": "cf1b6f4f3980ca6a12fc27a7d1a8c081", "is_reserved": 0, "rental_uris": {"android": "https://dc.lft.to/lastmile_qr_scan", "ios": "https://dc.lft.to/lastmile_qr_scan"}, "fusion_lon": 0.0}, {"lat": 38.920288666666664, "is_disabled": 0, "type": "electric_scooter", "lon": -77.04403616666667, "bike_id": "7ec2e9c6ed8eca35e26d41d10e0af42a", "fusion_lat": 0.0, "name": "7ec2e9c6ed8eca35e26d41d10e0af42a", "is_reserved": 0, "rental_uris": {"android": "https://dc.lft.to/lastmile_qr_scan", "ios": "https://dc.lft.to/lastmile_qr_scan"}, "fusion_lon": 0.0}, {"lat": 38.91073866666667, "is_disabled": 0, "type": "electric_scooter", "lon": -77.0163795, "bike_id": "c8dafada3db9c86268b3ae34e0cf9bf0", "fusion_lat": 0.0, "name": "c8dafada3db9c86268b3ae34e0cf9bf0", "is_reserved": 0, "rental_uris": {"android": "https://dc.lft.to/lastmile_qr_scan", "ios": "https://dc.lft.to/lastmile_qr_scan"}, "fusion_lon": 0.0}, {"lat": 38.900557, "is_disabled": 0, "type": "electric_scooter", "lon": -77.00745016666667, "bike_id": "97f65969ca0ba8605b9d85a77e2df72c", "fusion_lat": 0.0, "name": "97f65969ca0ba8605b9d85a77e2df72c", "is_reserved": 0, "rental_uris": {"android": "https://dc.lft.to/lastmile_qr_scan", "ios": "https://dc.lft.to/lastmile_qr_scan"}, "fusion_lon": 0.0}, {"lat": 38.952490166666664, "is_disabled": 0, "type": "electric_bike", "lon": -76.982422, "bike_id": "8478b01deb3355e50e03f8541dd37ec6", "fusion_lat": 0.0, "name": "8478b01deb3355e50e03f8541dd37ec6", "is_reserved": 0, "rental_uris": {"android": "https://dc.lft.to/lastmile_qr_scan", "ios": "https://dc.lft.to/lastmile_qr_scan"}, "fusion_lon": 0.0}, {"lat": 38.90649766666667, "is_disabled": 0, "type": "electric_scooter", "lon": -77.01201516666667, "bike_id": "9fad97a31dde4d001398bed70fedf6af", "fusion_lat": 0.0, "name": "9fad97a31dde4d001398bed70fedf6af", "is_reserved": 0, "rental_uris": {"android": "https://dc.lft.to/lastmile_qr_scan", "ios": "https://dc.lft.to/lastmile_qr_scan"}, "fusion_lon": 0.0}, {"lat": 38.865915333333334, "is_disabled": 0, "type": "electric_bike", "lon": -76.93228816666667, "bike_id": "ecc4918751c04ace649f49b3b87f3d59", "fusion_lat": 0.0, "name": "ecc4918751c04ace649f49b3b87f3d59", "is_reserved": 0, "rental_uris": {"android": "https://dc.lft.to/lastmile_qr_scan", "ios": "https://dc.lft.to/lastmile_qr_scan"}, "fusion_lon": 0.0}, {"lat": 38.89638333333333, "is_disabled": 0, "type": "electric_scooter", "lon": -77.032106, "bike_id": "ef7221343245a0a3965e995c277044d2", "fusion_lat": 0.0, "name": "ef7221343245a0a3965e995c277044d2", "is_reserved": 0, "rental_uris": {"android": "https://dc.lft.to/lastmile_qr_scan", "ios": "https://dc.lft.to/lastmile_qr_scan"}, "fusion_lon": 0.0}, {"lat": 38.9279245, "is_disabled": 0, "type": "electric_scooter", "lon": -76.98491683333333, "bike_id": "b6450be1b342a3be0bc52367728704ac", "fusion_lat": 0.0, "name": "b6450be1b342a3be0bc52367728704ac", "is_reserved": 0, "rental_uris": {"android": "https://dc.lft.to/lastmile_qr_scan", "ios": "https://dc.lft.to/lastmile_qr_scan"}, "fusion_lon": 0.0}, {"lat": 38.905748333333335, "is_disabled": 0, "type": "electric_scooter", "lon": -77.022091, "bike_id": "182804e3f288980cecb0352988ac3f9c", "fusion_lat": 0.0, "name": "182804e3f288980cecb0352988ac3f9c", "is_reserved": 0, "rental_uris": {"android": "https://dc.lft.to/lastmile_qr_scan", "ios": "https://dc.lft.to/lastmile_qr_scan"}, "fusion_lon": 0.0}, {"lat": 38.892188166666664, "is_disabled": 0, "type": "electric_scooter", "lon": -77.03977883333333, "bike_id": "eb4ebab410d71b927069f42dfaf6eb8f", "fusion_lat": 0.0, "name": "eb4ebab410d71b927069f42dfaf6eb8f", "is_reserved": 0, "rental_uris": {"android": "https://dc.lft.to/lastmile_qr_scan", "ios": "https://dc.lft.to/lastmile_qr_scan"}, "fusion_lon": 0.0}, {"lat": 38.92032916666667, "is_disabled": 0, "type": "electric_scooter", "lon": -76.97806283333334, "bike_id": "1d69f62c0f6e6135a1f96cb03096dece", "fusion_lat": 0.0, "name": "1d69f62c0f6e6135a1f96cb03096dece", "is_reserved": 0, "rental_uris": {"android": "https://dc.lft.to/lastmile_qr_scan", "ios": "https://dc.lft.to/lastmile_qr_scan"}, "fusion_lon": 0.0}, {"lat": 38.887353166666664, "is_disabled": 0, "type": "electric_scooter", "lon": -77.02073333333334, "bike_id": "6d5a20d90ce381eaa15b00ffdd50cc0d", "fusion_lat": 0.0, "name": "6d5a20d90ce381eaa15b00ffdd50cc0d", "is_reserved": 0, "rental_uris": {"android": "https://dc.lft.to/lastmile_qr_scan", "ios": "https://dc.lft.to/lastmile_qr_scan"}, "fusion_lon": 0.0}, {"lat": 38.944442333333335, "is_disabled": 0, "type": "electric_scooter", "lon": -77.06406616666666, "bike_id": "47439133eacd813e0d63d6033db6a8b2", "fusion_lat": 0.0, "name": "47439133eacd813e0d63d6033db6a8b2", "is_reserved": 0, "rental_uris": {"android": "https://dc.lft.to/lastmile_qr_scan", "ios": "https://dc.lft.to/lastmile_qr_scan"}, "fusion_lon": 0.0}, {"lat": 38.902667, "is_disabled": 0, "type": "electric_scooter", "lon": -77.0336975, "bike_id": "2782c7c3f8b294b60d6eecbd5e0ebbfb", "fusion_lat": 0.0, "name": "2782c7c3f8b294b60d6eecbd5e0ebbfb", "is_reserved": 0, "rental_uris": {"android": "https://dc.lft.to/lastmile_qr_scan", "ios": "https://dc.lft.to/lastmile_qr_scan"}, "fusion_lon": 0.0}, {"lat": 38.86706933333333, "is_disabled": 0, "type": "electric_scooter", "lon": -76.98726166666667, "bike_id": "b0a292aee7d71404a4b5c7a158ec1642", "fusion_lat": 0.0, "name": "b0a292aee7d71404a4b5c7a158ec1642", "is_reserved": 0, "rental_uris": {"android": "https://dc.lft.to/lastmile_qr_scan", "ios": "https://dc.lft.to/lastmile_qr_scan"}, "fusion_lon": 0.0}, {"lat": 38.91683833333333, "is_disabled": 0, "type": "electric_scooter", "lon": -77.02292233333333, "bike_id": "b0995bb08335f9357b411dec7a24df88", "fusion_lat": 0.0, "name": "b0995bb08335f9357b411dec7a24df88", "is_reserved": 0, "rental_uris": {"android": "https://dc.lft.to/lastmile_qr_scan", "ios": "https://dc.lft.to/lastmile_qr_scan"}, "fusion_lon": 0.0}, {"lat": 38.855094666666666, "is_disabled": 0, "type": "electric_bike", "lon": -77.12056616666666, "bike_id": "0411838c419470dd40dda96eee5cc262", "fusion_lat": 0.0, "name": "0411838c419470dd40dda96eee5cc262", "is_reserved": 0, "rental_uris": {"android": "https://dc.lft.to/lastmile_qr_scan", "ios": "https://dc.lft.to/lastmile_qr_scan"}, "fusion_lon": 0.0}, {"lat": 38.91322683333333, "is_disabled": 0, "type": "electric_scooter", "lon": -77.01498133333334, "bike_id": "d5348d372293e82fb3c6ea7500b73c35", "fusion_lat": 0.0, "name": "d5348d372293e82fb3c6ea7500b73c35", "is_reserved": 0, "rental_uris": {"android": "https://dc.lft.to/lastmile_qr_scan", "ios": "https://dc.lft.to/lastmile_qr_scan"}, "fusion_lon": 0.0}, {"lat": 38.900127833333336, "is_disabled": 0, "type": "electric_scooter", "lon": -76.9922, "bike_id": "61369fa2fb81b3746749b22a33189e3f", "fusion_lat": 0.0, "name": "61369fa2fb81b3746749b22a33189e3f", "is_reserved": 0, "rental_uris": {"android": "https://dc.lft.to/lastmile_qr_scan", "ios": "https://dc.lft.to/lastmile_qr_scan"}, "fusion_lon": 0.0}, {"lat": 38.917117166666664, "is_disabled": 0, "type": "electric_scooter", "lon": -77.03221866666667, "bike_id": "3b3464f95a8db4e7daf1c7382c0001a7", "fusion_lat": 0.0, "name": "3b3464f95a8db4e7daf1c7382c0001a7", "is_reserved": 0, "rental_uris": {"android": "https://dc.lft.to/lastmile_qr_scan", "ios": "https://dc.lft.to/lastmile_qr_scan"}, "fusion_lon": 0.0}, {"lat": 38.86093066666667, "is_disabled": 0, "type": "electric_scooter", "lon": -76.983782, "bike_id": "25f06f31d5669ddd03d0c5c36c591d69", "fusion_lat": 0.0, "name": "25f06f31d5669ddd03d0c5c36c591d69", "is_reserved": 0, "rental_uris": {"android": "https://dc.lft.to/lastmile_qr_scan", "ios": "https://dc.lft.to/lastmile_qr_scan"}, "fusion_lon": 0.0}, {"lat": 38.83231766666667, "is_disabled": 0, "type": "electric_bike", "lon": -76.94628166666666, "bike_id": "72d814727568d9ae9355b0d92087edbd", "fusion_lat": 0.0, "name": "72d814727568d9ae9355b0d92087edbd", "is_reserved": 0, "rental_uris": {"android": "https://dc.lft.to/lastmile_qr_scan", "ios": "https://dc.lft.to/lastmile_qr_scan"}, "fusion_lon": 0.0}, {"lat": 38.924443833333335, "is_disabled": 0, "type": "electric_scooter", "lon": -77.020303, "bike_id": "b302aedd96da09750c3556f2bf8126a6", "fusion_lat": 0.0, "name": "b302aedd96da09750c3556f2bf8126a6", "is_reserved": 0, "rental_uris": {"android": "https://dc.lft.to/lastmile_qr_scan", "ios": "https://dc.lft.to/lastmile_qr_scan"}, "fusion_lon": 0.0}, {"lat": 38.9000635, "is_disabled": 0, "type": "electric_scooter", "lon": -76.998708, "bike_id": "8de64fb0f4c7ab3665f0d60aa7f75dd3", "fusion_lat": 0.0, "name": "8de64fb0f4c7ab3665f0d60aa7f75dd3", "is_reserved": 0, "rental_uris": {"android": "https://dc.lft.to/lastmile_qr_scan", "ios": "https://dc.lft.to/lastmile_qr_scan"}, "fusion_lon": 0.0}, {"lat": 38.9043135, "is_disabled": 0, "type": "electric_scooter", "lon": -77.029456, "bike_id": "96a43d2a1681a2f7503e827687ea3106", "fusion_lat": 0.0, "name": "96a43d2a1681a2f7503e827687ea3106", "is_reserved": 0, "rental_uris": {"android": "https://dc.lft.to/lastmile_qr_scan", "ios": "https://dc.lft.to/lastmile_qr_scan"}, "fusion_lon": 0.0}, {"lat": 38.943061166666666, "is_disabled": 0, "type": "electric_scooter", "lon": -77.059259, "bike_id": "43271cd7938b438fc08beec51f35ae2f", "fusion_lat": 0.0, "name": "43271cd7938b438fc08beec51f35ae2f", "is_reserved": 0, "rental_uris": {"android": "https://dc.lft.to/lastmile_qr_scan", "ios": "https://dc.lft.to/lastmile_qr_scan"}, "fusion_lon": 0.0}, {"lat": 38.86382616666667, "is_disabled": 0, "type": "electric_scooter", "lon": -76.99250316666667, "bike_id": "969f1e9ce140c02b3ca064425cf72394", "fusion_lat": 0.0, "name": "969f1e9ce140c02b3ca064425cf72394", "is_reserved": 0, "rental_uris": {"android": "https://dc.lft.to/lastmile_qr_scan", "ios": "https://dc.lft.to/lastmile_qr_scan"}, "fusion_lon": 0.0}, {"lat": 38.9063835, "is_disabled": 0, "type": "electric_scooter", "lon": -76.979484, "bike_id": "00034d700c4396e35ae12368c213bee8", "fusion_lat": 0.0, "name": "00034d700c4396e35ae12368c213bee8", "is_reserved": 0, "rental_uris": {"android": "https://dc.lft.to/lastmile_qr_scan", "ios": "https://dc.lft.to/lastmile_qr_scan"}, "fusion_lon": 0.0}, {"lat": 38.97834266666667, "is_disabled": 0, "type": "electric_bike", "lon": -77.026474, "bike_id": "f5886707190f918234558f75dbb27a86", "fusion_lat": 0.0, "name": "f5886707190f918234558f75dbb27a86", "is_reserved": 0, "rental_uris": {"android": "https://dc.lft.to/lastmile_qr_scan", "ios": "https://dc.lft.to/lastmile_qr_scan"}, "fusion_lon": 0.0}, {"lat": 38.897803, "is_disabled": 0, "type": "electric_scooter", "lon": -77.03008133333333, "bike_id": "144115713fd42646a1ec9a7d15f73204", "fusion_lat": 0.0, "name": "144115713fd42646a1ec9a7d15f73204", "is_reserved": 0, "rental_uris": {"android": "https://dc.lft.to/lastmile_qr_scan", "ios": "https://dc.lft.to/lastmile_qr_scan"}, "fusion_lon": 0.0}, {"lat": 38.90085366666667, "is_disabled": 0, "type": "electric_scooter", "lon": -77.0497955, "bike_id": "b5ec2aeb3790e06ce7e3b722b06e431a", "fusion_lat": 0.0, "name": "b5ec2aeb3790e06ce7e3b722b06e431a", "is_reserved": 0, "rental_uris": {"android": "https://dc.lft.to/lastmile_qr_scan", "ios": "https://dc.lft.to/lastmile_qr_scan"}, "fusion_lon": 0.0}, {"lat": 38.913387166666666, "is_disabled": 0, "type": "electric_scooter", "lon": -77.00221983333333, "bike_id": "9bcddb6a941562115ed125f1155857ac", "fusion_lat": 0.0, "name": "9bcddb6a941562115ed125f1155857ac", "is_reserved": 0, "rental_uris": {"android": "https://dc.lft.to/lastmile_qr_scan", "ios": "https://dc.lft.to/lastmile_qr_scan"}, "fusion_lon": 0.0}, {"lat": 38.91264116666667, "is_disabled": 0, "type": "electric_scooter", "lon": -77.002831, "bike_id": "dc1b53c5c93521ba34798446ddbb6e37", "fusion_lat": 0.0, "name": "dc1b53c5c93521ba34798446ddbb6e37", "is_reserved": 0, "rental_uris": {"android": "https://dc.lft.to/lastmile_qr_scan", "ios": "https://dc.lft.to/lastmile_qr_scan"}, "fusion_lon": 0.0}, {"lat": 38.883434666666666, "is_disabled": 0, "type": "electric_scooter", "lon": -77.03153066666667, "bike_id": "f7c01de1ebde2a7f55f445cd24305fc9", "fusion_lat": 0.0, "name": "f7c01de1ebde2a7f55f445cd24305fc9", "is_reserved": 0, "rental_uris": {"android": "https://dc.lft.to/lastmile_qr_scan", "ios": "https://dc.lft.to/lastmile_qr_scan"}, "fusion_lon": 0.0}, {"lat": 38.90033066666667, "is_disabled": 0, "type": "electric_scooter", "lon": -76.98739966666666, "bike_id": "23724e856fe6a2566212629e9d6e6261", "fusion_lat": 0.0, "name": "23724e856fe6a2566212629e9d6e6261", "is_reserved": 0, "rental_uris": {"android": "https://dc.lft.to/lastmile_qr_scan", "ios": "https://dc.lft.to/lastmile_qr_scan"}, "fusion_lon": 0.0}, {"lat": 38.923383, "is_disabled": 0, "type": "electric_scooter", "lon": -77.01906016666666, "bike_id": "9a08d608954bcd9cc7b021181ced03e6", "fusion_lat": 0.0, "name": "9a08d608954bcd9cc7b021181ced03e6", "is_reserved": 0, "rental_uris": {"android": "https://dc.lft.to/lastmile_qr_scan", "ios": "https://dc.lft.to/lastmile_qr_scan"}, "fusion_lon": 0.0}, {"lat": 38.910124333333336, "is_disabled": 0, "type": "electric_scooter", "lon": -76.9939145, "bike_id": "2adadf1284de8a4c0a202b7f9d7961d3", "fusion_lat": 0.0, "name": "2adadf1284de8a4c0a202b7f9d7961d3", "is_reserved": 0, "rental_uris": {"android": "https://dc.lft.to/lastmile_qr_scan", "ios": "https://dc.lft.to/lastmile_qr_scan"}, "fusion_lon": 0.0}, {"lat": 38.911114166666664, "is_disabled": 0, "type": "electric_scooter", "lon": -77.00245133333334, "bike_id": "06e9b676e8baa9e35a8e25e2fed40a82", "fusion_lat": 0.0, "name": "06e9b676e8baa9e35a8e25e2fed40a82", "is_reserved": 0, "rental_uris": {"android": "https://dc.lft.to/lastmile_qr_scan", "ios": "https://dc.lft.to/lastmile_qr_scan"}, "fusion_lon": 0.0}, {"lat": 38.861041666666665, "is_disabled": 0, "type": "electric_scooter", "lon": -76.98359683333334, "bike_id": "d8d6251aaa71eccfaf5d9d1bc9a03875", "fusion_lat": 0.0, "name": "d8d6251aaa71eccfaf5d9d1bc9a03875", "is_reserved": 0, "rental_uris": {"android": "https://dc.lft.to/lastmile_qr_scan", "ios": "https://dc.lft.to/lastmile_qr_scan"}, "fusion_lon": 0.0}, {"lat": 38.8972715, "is_disabled": 0, "type": "electric_scooter", "lon": -77.05523716666667, "bike_id": "c6bc1c8b9ef8c63530973ca8d86af15d", "fusion_lat": 0.0, "name": "c6bc1c8b9ef8c63530973ca8d86af15d", "is_reserved": 0, "rental_uris": {"android": "https://dc.lft.to/lastmile_qr_scan", "ios": "https://dc.lft.to/lastmile_qr_scan"}, "fusion_lon": 0.0}, {"lat": 38.964966833333335, "is_disabled": 0, "type": "electric_bike", "lon": -76.93840883333333, "bike_id": "98b87107e381b0e3b10ac322e5b77494", "fusion_lat": 0.0, "name": "98b87107e381b0e3b10ac322e5b77494", "is_reserved": 0, "rental_uris": {"android": "https://dc.lft.to/lastmile_qr_scan", "ios": "https://dc.lft.to/lastmile_qr_scan"}, "fusion_lon": 0.0}, {"lat": 38.91117116666667, "is_disabled": 0, "type": "electric_scooter", "lon": -77.0382985, "bike_id": "7fb2b36a6cae3983d6399e85d7c5cb26", "fusion_lat": 0.0, "name": "7fb2b36a6cae3983d6399e85d7c5cb26", "is_reserved": 0, "rental_uris": {"android": "https://dc.lft.to/lastmile_qr_scan", "ios": "https://dc.lft.to/lastmile_qr_scan"}, "fusion_lon": 0.0}, {"lat": 38.910382, "is_disabled": 0, "type": "electric_scooter", "lon": -77.04094, "bike_id": "5d2af5652acdc2808dbeb11d67f2f122", "fusion_lat": 0.0, "name": "5d2af5652acdc2808dbeb11d67f2f122", "is_reserved": 0, "rental_uris": {"android": "https://dc.lft.to/lastmile_qr_scan", "ios": "https://dc.lft.to/lastmile_qr_scan"}, "fusion_lon": 0.0}, {"lat": 38.88581083333333, "is_disabled": 0, "type": "electric_scooter", "lon": -77.01225966666667, "bike_id": "10c9f7616a257fc2745580f666b6e9f0", "fusion_lat": 0.0, "name": "10c9f7616a257fc2745580f666b6e9f0", "is_reserved": 0, "rental_uris": {"android": "https://dc.lft.to/lastmile_qr_scan", "ios": "https://dc.lft.to/lastmile_qr_scan"}, "fusion_lon": 0.0}, {"lat": 38.936170833333335, "is_disabled": 0, "type": "electric_scooter", "lon": -77.03214133333333, "bike_id": "049f6d09f361b8cdfe349de2893524d9", "fusion_lat": 0.0, "name": "049f6d09f361b8cdfe349de2893524d9", "is_reserved": 0, "rental_uris": {"android": "https://dc.lft.to/lastmile_qr_scan", "ios": "https://dc.lft.to/lastmile_qr_scan"}, "fusion_lon": 0.0}, {"lat": 38.862306833333335, "is_disabled": 0, "type": "electric_scooter", "lon": -76.99550716666667, "bike_id": "fb3589b5f580e68f34bba9abf1c758ea", "fusion_lat": 0.0, "name": "fb3589b5f580e68f34bba9abf1c758ea", "is_reserved": 0, "rental_uris": {"android": "https://dc.lft.to/lastmile_qr_scan", "ios": "https://dc.lft.to/lastmile_qr_scan"}, "fusion_lon": 0.0}, {"lat": 38.90767683333333, "is_disabled": 0, "type": "electric_scooter", "lon": -77.03855916666667, "bike_id": "16a091c27970d0d45dafca36945d984c", "fusion_lat": 0.0, "name": "16a091c27970d0d45dafca36945d984c", "is_reserved": 0, "rental_uris": {"android": "https://dc.lft.to/lastmile_qr_scan", "ios": "https://dc.lft.to/lastmile_qr_scan"}, "fusion_lon": 0.0}, {"lat": 39.030349333333334, "is_disabled": 0, "type": "electric_bike", "lon": -77.094791, "bike_id": "4164759d3bd54bc4b2ff4189cfa02316", "fusion_lat": 0.0, "name": "4164759d3bd54bc4b2ff4189cfa02316", "is_reserved": 0, "rental_uris": {"android": "https://dc.lft.to/lastmile_qr_scan", "ios": "https://dc.lft.to/lastmile_qr_scan"}, "fusion_lon": 0.0}, {"lat": 38.87212016666667, "is_disabled": 0, "type": "electric_scooter", "lon": -77.01765766666666, "bike_id": "1e926e2606f762f4f99731263e6a1f2f", "fusion_lat": 0.0, "name": "1e926e2606f762f4f99731263e6a1f2f", "is_reserved": 0, "rental_uris": {"android": "https://dc.lft.to/lastmile_qr_scan", "ios": "https://dc.lft.to/lastmile_qr_scan"}, "fusion_lon": 0.0}, {"lat": 38.916891166666666, "is_disabled": 0, "type": "electric_scooter", "lon": -77.02949033333333, "bike_id": "2027f7d26804685e6e6c155d9e235e3d", "fusion_lat": 0.0, "name": "2027f7d26804685e6e6c155d9e235e3d", "is_reserved": 0, "rental_uris": {"android": "https://dc.lft.to/lastmile_qr_scan", "ios": "https://dc.lft.to/lastmile_qr_scan"}, "fusion_lon": 0.0}, {"lat": 38.8996805, "is_disabled": 0, "type": "electric_scooter", "lon": -77.03357616666666, "bike_id": "ca2af882e6c7411e817f90208b5fce11", "fusion_lat": 0.0, "name": "ca2af882e6c7411e817f90208b5fce11", "is_reserved": 0, "rental_uris": {"android": "https://dc.lft.to/lastmile_qr_scan", "ios": "https://dc.lft.to/lastmile_qr_scan"}, "fusion_lon": 0.0}, {"lat": 39.0242835, "is_disabled": 0, "type": "electric_bike", "lon": -77.13098716666667, "bike_id": "70d911f63a27cf4808ba837c3185a449", "fusion_lat": 0.0, "name": "70d911f63a27cf4808ba837c3185a449", "is_reserved": 0, "rental_uris": {"android": "https://dc.lft.to/lastmile_qr_scan", "ios": "https://dc.lft.to/lastmile_qr_scan"}, "fusion_lon": 0.0}, {"lat": 38.91360516666667, "is_disabled": 0, "type": "electric_scooter", "lon": -77.04569816666667, "bike_id": "6a040fd25d6129dc1a931185685ea681", "fusion_lat": 0.0, "name": "6a040fd25d6129dc1a931185685ea681", "is_reserved": 0, "rental_uris": {"android": "https://dc.lft.to/lastmile_qr_scan", "ios": "https://dc.lft.to/lastmile_qr_scan"}, "fusion_lon": 0.0}, {"lat": 38.88722283333333, "is_disabled": 0, "type": "electric_scooter", "lon": -76.95478116666666, "bike_id": "99b324dc05881e38af845257b1637f9b", "fusion_lat": 0.0, "name": "99b324dc05881e38af845257b1637f9b", "is_reserved": 0, "rental_uris": {"android": "https://dc.lft.to/lastmile_qr_scan", "ios": "https://dc.lft.to/lastmile_qr_scan"}, "fusion_lon": 0.0}, {"lat": 38.90721966666667, "is_disabled": 0, "type": "electric_scooter", "lon": -77.02541666666667, "bike_id": "8e782fd0717b13a3271433c3650d33eb", "fusion_lat": 0.0, "name": "8e782fd0717b13a3271433c3650d33eb", "is_reserved": 0, "rental_uris": {"android": "https://dc.lft.to/lastmile_qr_scan", "ios": "https://dc.lft.to/lastmile_qr_scan"}, "fusion_lon": 0.0}, {"lat": 38.91823516666667, "is_disabled": 0, "type": "electric_scooter", "lon": -77.03444083333333, "bike_id": "2c22157c993c2dfc1d5c04979a0b88c8", "fusion_lat": 0.0, "name": "2c22157c993c2dfc1d5c04979a0b88c8", "is_reserved": 0, "rental_uris": {"android": "https://dc.lft.to/lastmile_qr_scan", "ios": "https://dc.lft.to/lastmile_qr_scan"}, "fusion_lon": 0.0}, {"lat": 38.92579, "is_disabled": 0, "type": "electric_scooter", "lon": -77.0276165, "bike_id": "2e23c82e04c60740e9e77b7eacf94c00", "fusion_lat": 0.0, "name": "2e23c82e04c60740e9e77b7eacf94c00", "is_reserved": 0, "rental_uris": {"android": "https://dc.lft.to/lastmile_qr_scan", "ios": "https://dc.lft.to/lastmile_qr_scan"}, "fusion_lon": 0.0}, {"lat": 38.89684716666667, "is_disabled": 0, "type": "electric_scooter", "lon": -76.93610866666667, "bike_id": "16e37a0569b1ccbb89f24fafefdcdbd7", "fusion_lat": 0.0, "name": "16e37a0569b1ccbb89f24fafefdcdbd7", "is_reserved": 0, "rental_uris": {"android": "https://dc.lft.to/lastmile_qr_scan", "ios": "https://dc.lft.to/lastmile_qr_scan"}, "fusion_lon": 0.0}, {"lat": 38.901051, "is_disabled": 0, "type": "electric_scooter", "lon": -77.0198575, "bike_id": "1c24e983d1cde30cf88084e6ef3ab467", "fusion_lat": 0.0, "name": "1c24e983d1cde30cf88084e6ef3ab467", "is_reserved": 0, "rental_uris": {"android": "https://dc.lft.to/lastmile_qr_scan", "ios": "https://dc.lft.to/lastmile_qr_scan"}, "fusion_lon": 0.0}, {"lat": 38.881105833333336, "is_disabled": 0, "type": "electric_bike", "lon": -77.016676, "bike_id": "b690115c35d79dc152afe5a3720bf5ad", "fusion_lat": 0.0, "name": "b690115c35d79dc152afe5a3720bf5ad", "is_reserved": 0, "rental_uris": {"android": "https://dc.lft.to/lastmile_qr_scan", "ios": "https://dc.lft.to/lastmile_qr_scan"}, "fusion_lon": 0.0}, {"lat": 38.887206166666665, "is_disabled": 0, "type": "electric_scooter", "lon": -77.01379983333334, "bike_id": "d9fd89d6e5f62886992e5e9353259f84", "fusion_lat": 0.0, "name": "d9fd89d6e5f62886992e5e9353259f84", "is_reserved": 0, "rental_uris": {"android": "https://dc.lft.to/lastmile_qr_scan", "ios": "https://dc.lft.to/lastmile_qr_scan"}, "fusion_lon": 0.0}, {"lat": 38.91926266666667, "is_disabled": 0, "type": "electric_scooter", "lon": -77.00097083333333, "bike_id": "3f4288fdf9200892c67933718d115aad", "fusion_lat": 0.0, "name": "3f4288fdf9200892c67933718d115aad", "is_reserved": 0, "rental_uris": {"android": "https://dc.lft.to/lastmile_qr_scan", "ios": "https://dc.lft.to/lastmile_qr_scan"}, "fusion_lon": 0.0}, {"lat": 38.90297533333333, "is_disabled": 0, "type": "electric_scooter", "lon": -77.02067133333334, "bike_id": "4563475cd2f4dc2b11140712e2ff55d3", "fusion_lat": 0.0, "name": "4563475cd2f4dc2b11140712e2ff55d3", "is_reserved": 0, "rental_uris": {"android": "https://dc.lft.to/lastmile_qr_scan", "ios": "https://dc.lft.to/lastmile_qr_scan"}, "fusion_lon": 0.0}, {"lat": 38.908775166666665, "is_disabled": 0, "type": "electric_scooter", "lon": -77.03674783333334, "bike_id": "ef87dbc5fe625c32d0ee666bf7080a0a", "fusion_lat": 0.0, "name": "ef87dbc5fe625c32d0ee666bf7080a0a", "is_reserved": 0, "rental_uris": {"android": "https://dc.lft.to/lastmile_qr_scan", "ios": "https://dc.lft.to/lastmile_qr_scan"}, "fusion_lon": 0.0}, {"lat": 38.91967183333333, "is_disabled": 0, "type": "electric_scooter", "lon": -77.0240525, "bike_id": "f36aa73b7293375eab1a60f9eb0b2ecb", "fusion_lat": 0.0, "name": "f36aa73b7293375eab1a60f9eb0b2ecb", "is_reserved": 0, "rental_uris": {"android": "https://dc.lft.to/lastmile_qr_scan", "ios": "https://dc.lft.to/lastmile_qr_scan"}, "fusion_lon": 0.0}, {"lat": 38.920534333333336, "is_disabled": 0, "type": "electric_scooter", "lon": -77.0328965, "bike_id": "a45b9627df9cecc02283d6d3cc6e5d03", "fusion_lat": 0.0, "name": "a45b9627df9cecc02283d6d3cc6e5d03", "is_reserved": 0, "rental_uris": {"android": "https://dc.lft.to/lastmile_qr_scan", "ios": "https://dc.lft.to/lastmile_qr_scan"}, "fusion_lon": 0.0}, {"lat": 38.863544833333336, "is_disabled": 0, "type": "electric_scooter", "lon": -76.98272283333333, "bike_id": "dc72326306fb8b6e72166004dcc89084", "fusion_lat": 0.0, "name": "dc72326306fb8b6e72166004dcc89084", "is_reserved": 0, "rental_uris": {"android": "https://dc.lft.to/lastmile_qr_scan", "ios": "https://dc.lft.to/lastmile_qr_scan"}, "fusion_lon": 0.0}, {"lat": 38.9521045, "is_disabled": 0, "type": "electric_scooter", "lon": -77.02017666666667, "bike_id": "0def260809f55baa9c97f7a1c401fac9", "fusion_lat": 0.0, "name": "0def260809f55baa9c97f7a1c401fac9", "is_reserved": 0, "rental_uris": {"android": "https://dc.lft.to/lastmile_qr_scan", "ios": "https://dc.lft.to/lastmile_qr_scan"}, "fusion_lon": 0.0}, {"lat": 38.93974566666667, "is_disabled": 0, "type": "electric_scooter", "lon": -77.03591583333333, "bike_id": "e107dca778625c7feaca36ba7804607f", "fusion_lat": 0.0, "name": "e107dca778625c7feaca36ba7804607f", "is_reserved": 0, "rental_uris": {"android": "https://dc.lft.to/lastmile_qr_scan", "ios": "https://dc.lft.to/lastmile_qr_scan"}, "fusion_lon": 0.0}, {"lat": 38.887286, "is_disabled": 0, "type": "electric_scooter", "lon": -77.02819783333334, "bike_id": "c712b6b78c5b87c3a7f96f14a73edd8c", "fusion_lat": 0.0, "name": "c712b6b78c5b87c3a7f96f14a73edd8c", "is_reserved": 0, "rental_uris": {"android": "https://dc.lft.to/lastmile_qr_scan", "ios": "https://dc.lft.to/lastmile_qr_scan"}, "fusion_lon": 0.0}, {"lat": 38.90537916666667, "is_disabled": 0, "type": "electric_scooter", "lon": -77.00613333333334, "bike_id": "f4f71f3171d69278ddd556c199633597", "fusion_lat": 0.0, "name": "f4f71f3171d69278ddd556c199633597", "is_reserved": 0, "rental_uris": {"android": "https://dc.lft.to/lastmile_qr_scan", "ios": "https://dc.lft.to/lastmile_qr_scan"}, "fusion_lon": 0.0}, {"lat": 38.9095185, "is_disabled": 0, "type": "electric_scooter", "lon": -77.04421666666667, "bike_id": "d461b4e58f3bb01411d79ba6df20b1a0", "fusion_lat": 0.0, "name": "d461b4e58f3bb01411d79ba6df20b1a0", "is_reserved": 0, "rental_uris": {"android": "https://dc.lft.to/lastmile_qr_scan", "ios": "https://dc.lft.to/lastmile_qr_scan"}, "fusion_lon": 0.0}, {"lat": 38.953315333333336, "is_disabled": 0, "type": "electric_bike", "lon": -76.988211, "bike_id": "71e24ada024f53464b0db9681c5a3ea7", "fusion_lat": 0.0, "name": "71e24ada024f53464b0db9681c5a3ea7", "is_reserved": 0, "rental_uris": {"android": "https://dc.lft.to/lastmile_qr_scan", "ios": "https://dc.lft.to/lastmile_qr_scan"}, "fusion_lon": 0.0}, {"lat": 38.9068545, "is_disabled": 0, "type": "electric_bike", "lon": -76.95195833333334, "bike_id": "d3eab8e0398585fc14315523014ca4f8", "fusion_lat": 0.0, "name": "d3eab8e0398585fc14315523014ca4f8", "is_reserved": 0, "rental_uris": {"android": "https://dc.lft.to/lastmile_qr_scan", "ios": "https://dc.lft.to/lastmile_qr_scan"}, "fusion_lon": 0.0}, {"lat": 38.866107, "is_disabled": 0, "type": "electric_scooter", "lon": -76.98668833333333, "bike_id": "a17ccb0def9864d0d065709cc9686298", "fusion_lat": 0.0, "name": "a17ccb0def9864d0d065709cc9686298", "is_reserved": 0, "rental_uris": {"android": "https://dc.lft.to/lastmile_qr_scan", "ios": "https://dc.lft.to/lastmile_qr_scan"}, "fusion_lon": 0.0}, {"lat": 38.9149285, "is_disabled": 0, "type": "electric_scooter", "lon": -77.01995516666666, "bike_id": "50ba7e941f8d760ad40e9eacc5e77c82", "fusion_lat": 0.0, "name": "50ba7e941f8d760ad40e9eacc5e77c82", "is_reserved": 0, "rental_uris": {"android": "https://dc.lft.to/lastmile_qr_scan", "ios": "https://dc.lft.to/lastmile_qr_scan"}, "fusion_lon": 0.0}, {"lat": 38.844251, "is_disabled": 0, "type": "electric_scooter", "lon": -76.9977965, "bike_id": "a9e3ab61dff57635600e8bb16c68938d", "fusion_lat": 0.0, "name": "a9e3ab61dff57635600e8bb16c68938d", "is_reserved": 0, "rental_uris": {"android": "https://dc.lft.to/lastmile_qr_scan", "ios": "https://dc.lft.to/lastmile_qr_scan"}, "fusion_lon": 0.0}, {"lat": 38.922486666666664, "is_disabled": 0, "type": "electric_scooter", "lon": -77.03909583333333, "bike_id": "3fd9e1ead35a91e6df33c0233cc4c93b", "fusion_lat": 0.0, "name": "3fd9e1ead35a91e6df33c0233cc4c93b", "is_reserved": 0, "rental_uris": {"android": "https://dc.lft.to/lastmile_qr_scan", "ios": "https://dc.lft.to/lastmile_qr_scan"}, "fusion_lon": 0.0}, {"lat": 38.916838166666665, "is_disabled": 0, "type": "electric_scooter", "lon": -77.02953333333333, "bike_id": "473a36c5ae49cca467a3d284e726cb83", "fusion_lat": 0.0, "name": "473a36c5ae49cca467a3d284e726cb83", "is_reserved": 0, "rental_uris": {"android": "https://dc.lft.to/lastmile_qr_scan", "ios": "https://dc.lft.to/lastmile_qr_scan"}, "fusion_lon": 0.0}, {"lat": 38.907291, "is_disabled": 0, "type": "electric_scooter", "lon": -77.031704, "bike_id": "bb61ee871d710ad99caf8aba01c7b961", "fusion_lat": 0.0, "name": "bb61ee871d710ad99caf8aba01c7b961", "is_reserved": 0, "rental_uris": {"android": "https://dc.lft.to/lastmile_qr_scan", "ios": "https://dc.lft.to/lastmile_qr_scan"}, "fusion_lon": 0.0}, {"lat": 38.91284116666667, "is_disabled": 0, "type": "electric_scooter", "lon": -77.022701, "bike_id": "1f3dee7b109a787cc09669baf194fa98", "fusion_lat": 0.0, "name": "1f3dee7b109a787cc09669baf194fa98", "is_reserved": 0, "rental_uris": {"android": "https://dc.lft.to/lastmile_qr_scan", "ios": "https://dc.lft.to/lastmile_qr_scan"}, "fusion_lon": 0.0}, {"lat": 38.915496166666664, "is_disabled": 0, "type": "electric_scooter", "lon": -77.03243733333333, "bike_id": "aff053bc91b4e87e3b977c91b385e1f7", "fusion_lat": 0.0, "name": "aff053bc91b4e87e3b977c91b385e1f7", "is_reserved": 0, "rental_uris": {"android": "https://dc.lft.to/lastmile_qr_scan", "ios": "https://dc.lft.to/lastmile_qr_scan"}, "fusion_lon": 0.0}, {"lat": 38.90033783333333, "is_disabled": 0, "type": "electric_scooter", "lon": -77.01227966666667, "bike_id": "19292e461051f5fca2bc6f8d2034f1d5", "fusion_lat": 0.0, "name": "19292e461051f5fca2bc6f8d2034f1d5", "is_reserved": 0, "rental_uris": {"android": "https://dc.lft.to/lastmile_qr_scan", "ios": "https://dc.lft.to/lastmile_qr_scan"}, "fusion_lon": 0.0}, {"lat": 38.890851, "is_disabled": 0, "type": "electric_scooter", "lon": -76.98679266666667, "bike_id": "346d6f146462eb32a3b06b26fada184d", "fusion_lat": 0.0, "name": "346d6f146462eb32a3b06b26fada184d", "is_reserved": 0, "rental_uris": {"android": "https://dc.lft.to/lastmile_qr_scan", "ios": "https://dc.lft.to/lastmile_qr_scan"}, "fusion_lon": 0.0}, {"lat": 38.914243166666665, "is_disabled": 0, "type": "electric_scooter", "lon": -77.03204383333333, "bike_id": "23c54f1d88866929c7836463e03e0a17", "fusion_lat": 0.0, "name": "23c54f1d88866929c7836463e03e0a17", "is_reserved": 0, "rental_uris": {"android": "https://dc.lft.to/lastmile_qr_scan", "ios": "https://dc.lft.to/lastmile_qr_scan"}, "fusion_lon": 0.0}, {"lat": 38.96015233333333, "is_disabled": 0, "type": "electric_bike", "lon": -77.01730666666667, "bike_id": "725ae7220089548fda5a155e42532420", "fusion_lat": 0.0, "name": "725ae7220089548fda5a155e42532420", "is_reserved": 0, "rental_uris": {"android": "https://dc.lft.to/lastmile_qr_scan", "ios": "https://dc.lft.to/lastmile_qr_scan"}, "fusion_lon": 0.0}, {"lat": 38.89985266666667, "is_disabled": 0, "type": "electric_scooter", "lon": -77.02281266666667, "bike_id": "e67fd5bd6bdc9c05a1124f6741c284e9", "fusion_lat": 0.0, "name": "e67fd5bd6bdc9c05a1124f6741c284e9", "is_reserved": 0, "rental_uris": {"android": "https://dc.lft.to/lastmile_qr_scan", "ios": "https://dc.lft.to/lastmile_qr_scan"}, "fusion_lon": 0.0}, {"lat": 38.95405683333333, "is_disabled": 0, "type": "electric_scooter", "lon": -77.0275135, "bike_id": "773b9b66cf3048d2c3c0204cb408eb08", "fusion_lat": 0.0, "name": "773b9b66cf3048d2c3c0204cb408eb08", "is_reserved": 0, "rental_uris": {"android": "https://dc.lft.to/lastmile_qr_scan", "ios": "https://dc.lft.to/lastmile_qr_scan"}, "fusion_lon": 0.0}, {"lat": 39.029320166666665, "is_disabled": 0, "type": "electric_bike", "lon": -77.0492745, "bike_id": "2b510e5af0ee4efd31afc0992de363fd", "fusion_lat": 0.0, "name": "2b510e5af0ee4efd31afc0992de363fd", "is_reserved": 0, "rental_uris": {"android": "https://dc.lft.to/lastmile_qr_scan", "ios": "https://dc.lft.to/lastmile_qr_scan"}, "fusion_lon": 0.0}, {"lat": 38.876602, "is_disabled": 0, "type": "electric_scooter", "lon": -77.0040985, "bike_id": "12109e5923991c0c7878d4d0a2530e92", "fusion_lat": 0.0, "name": "12109e5923991c0c7878d4d0a2530e92", "is_reserved": 0, "rental_uris": {"android": "https://dc.lft.to/lastmile_qr_scan", "ios": "https://dc.lft.to/lastmile_qr_scan"}, "fusion_lon": 0.0}, {"lat": 38.95919816666667, "is_disabled": 0, "type": "electric_bike", "lon": -77.03121916666667, "bike_id": "210ea1d36d136584ca2aa8ba4b824e72", "fusion_lat": 0.0, "name": "210ea1d36d136584ca2aa8ba4b824e72", "is_reserved": 0, "rental_uris": {"android": "https://dc.lft.to/lastmile_qr_scan", "ios": "https://dc.lft.to/lastmile_qr_scan"}, "fusion_lon": 0.0}, {"lat": 38.917228333333334, "is_disabled": 0, "type": "electric_scooter", "lon": -77.04103366666666, "bike_id": "81747e569b5f4fa631b49815dd90b6b9", "fusion_lat": 0.0, "name": "81747e569b5f4fa631b49815dd90b6b9", "is_reserved": 0, "rental_uris": {"android": "https://dc.lft.to/lastmile_qr_scan", "ios": "https://dc.lft.to/lastmile_qr_scan"}, "fusion_lon": 0.0}, {"lat": 38.919792666666666, "is_disabled": 0, "type": "electric_scooter", "lon": -76.973105, "bike_id": "22aab8ca59bc48676557d2ec9b7266ee", "fusion_lat": 0.0, "name": "22aab8ca59bc48676557d2ec9b7266ee", "is_reserved": 0, "rental_uris": {"android": "https://dc.lft.to/lastmile_qr_scan", "ios": "https://dc.lft.to/lastmile_qr_scan"}, "fusion_lon": 0.0}, {"lat": 38.884700333333335, "is_disabled": 0, "type": "electric_scooter", "lon": -76.99264683333334, "bike_id": "8d94d8a75f04ecb88f676930b300fcf0", "fusion_lat": 0.0, "name": "8d94d8a75f04ecb88f676930b300fcf0", "is_reserved": 0, "rental_uris": {"android": "https://dc.lft.to/lastmile_qr_scan", "ios": "https://dc.lft.to/lastmile_qr_scan"}, "fusion_lon": 0.0}, {"lat": 38.88078766666667, "is_disabled": 0, "type": "electric_scooter", "lon": -76.98535383333333, "bike_id": "384d28627d21518948786bd0e4e0b925", "fusion_lat": 0.0, "name": "384d28627d21518948786bd0e4e0b925", "is_reserved": 0, "rental_uris": {"android": "https://dc.lft.to/lastmile_qr_scan", "ios": "https://dc.lft.to/lastmile_qr_scan"}, "fusion_lon": 0.0}, {"lat": 38.908556833333336, "is_disabled": 0, "type": "electric_bike", "lon": -77.08075816666667, "bike_id": "e84a58ede7b5c3e696b60453044a2b87", "fusion_lat": 0.0, "name": "e84a58ede7b5c3e696b60453044a2b87", "is_reserved": 0, "rental_uris": {"android": "https://dc.lft.to/lastmile_qr_scan", "ios": "https://dc.lft.to/lastmile_qr_scan"}, "fusion_lon": 0.0}, {"lat": 38.950706833333335, "is_disabled": 0, "type": "electric_scooter", "lon": -77.00881566666666, "bike_id": "3a98b32d4fa4c8de9e34969c6579b8c7", "fusion_lat": 0.0, "name": "3a98b32d4fa4c8de9e34969c6579b8c7", "is_reserved": 0, "rental_uris": {"android": "https://dc.lft.to/lastmile_qr_scan", "ios": "https://dc.lft.to/lastmile_qr_scan"}, "fusion_lon": 0.0}, {"lat": 38.906832666666666, "is_disabled": 0, "type": "electric_scooter", "lon": -77.06351866666667, "bike_id": "8dcfb15b28f7371a6858c88d576effa2", "fusion_lat": 0.0, "name": "8dcfb15b28f7371a6858c88d576effa2", "is_reserved": 0, "rental_uris": {"android": "https://dc.lft.to/lastmile_qr_scan", "ios": "https://dc.lft.to/lastmile_qr_scan"}, "fusion_lon": 0.0}, {"lat": 39.000124666666665, "is_disabled": 0, "type": "electric_bike", "lon": -76.91082233333333, "bike_id": "6b54ea251950a2697e1dd67794155619", "fusion_lat": 0.0, "name": "6b54ea251950a2697e1dd67794155619", "is_reserved": 0, "rental_uris": {"android": "https://dc.lft.to/lastmile_qr_scan", "ios": "https://dc.lft.to/lastmile_qr_scan"}, "fusion_lon": 0.0}, {"lat": 38.933092, "is_disabled": 0, "type": "electric_scooter", "lon": -77.0328265, "bike_id": "289b1804ab5e93553c6a56cc28be390d", "fusion_lat": 0.0, "name": "289b1804ab5e93553c6a56cc28be390d", "is_reserved": 0, "rental_uris": {"android": "https://dc.lft.to/lastmile_qr_scan", "ios": "https://dc.lft.to/lastmile_qr_scan"}, "fusion_lon": 0.0}, {"lat": 38.927963166666665, "is_disabled": 0, "type": "electric_scooter", "lon": -77.05540883333333, "bike_id": "d6a36213f037ba2bac794eb8799a20d1", "fusion_lat": 0.0, "name": "d6a36213f037ba2bac794eb8799a20d1", "is_reserved": 0, "rental_uris": {"android": "https://dc.lft.to/lastmile_qr_scan", "ios": "https://dc.lft.to/lastmile_qr_scan"}, "fusion_lon": 0.0}, {"lat": 38.86229983333333, "is_disabled": 0, "type": "electric_scooter", "lon": -76.9954905, "bike_id": "4f5a29450df79b829f43362d5307bbd6", "fusion_lat": 0.0, "name": "4f5a29450df79b829f43362d5307bbd6", "is_reserved": 0, "rental_uris": {"android": "https://dc.lft.to/lastmile_qr_scan", "ios": "https://dc.lft.to/lastmile_qr_scan"}, "fusion_lon": 0.0}, {"lat": 38.91747216666667, "is_disabled": 0, "type": "electric_scooter", "lon": -77.0366535, "bike_id": "304b419079c90f3452eecfbd6f8f09b0", "fusion_lat": 0.0, "name": "304b419079c90f3452eecfbd6f8f09b0", "is_reserved": 0, "rental_uris": {"android": "https://dc.lft.to/lastmile_qr_scan", "ios": "https://dc.lft.to/lastmile_qr_scan"}, "fusion_lon": 0.0}, {"lat": 38.90658233333333, "is_disabled": 0, "type": "electric_scooter", "lon": -77.03855233333333, "bike_id": "db5e40133887c11901037b3704abd1cd", "fusion_lat": 0.0, "name": "db5e40133887c11901037b3704abd1cd", "is_reserved": 0, "rental_uris": {"android": "https://dc.lft.to/lastmile_qr_scan", "ios": "https://dc.lft.to/lastmile_qr_scan"}, "fusion_lon": 0.0}, {"lat": 38.951941, "is_disabled": 0, "type": "electric_bike", "lon": -76.9672945, "bike_id": "280dfa88ce660ca9fe697a96f385b485", "fusion_lat": 0.0, "name": "280dfa88ce660ca9fe697a96f385b485", "is_reserved": 0, "rental_uris": {"android": "https://dc.lft.to/lastmile_qr_scan", "ios": "https://dc.lft.to/lastmile_qr_scan"}, "fusion_lon": 0.0}, {"lat": 38.90136283333333, "is_disabled": 0, "type": "electric_scooter", "lon": -77.04178166666667, "bike_id": "07de80ad2a1584ba0a316c9855f13103", "fusion_lat": 0.0, "name": "07de80ad2a1584ba0a316c9855f13103", "is_reserved": 0, "rental_uris": {"android": "https://dc.lft.to/lastmile_qr_scan", "ios": "https://dc.lft.to/lastmile_qr_scan"}, "fusion_lon": 0.0}, {"lat": 38.853158666666666, "is_disabled": 0, "type": "electric_bike", "lon": -76.980046, "bike_id": "fca55a6a568ec54a01e5f2ba50e5e126", "fusion_lat": 0.0, "name": "fca55a6a568ec54a01e5f2ba50e5e126", "is_reserved": 0, "rental_uris": {"android": "https://dc.lft.to/lastmile_qr_scan", "ios": "https://dc.lft.to/lastmile_qr_scan"}, "fusion_lon": 0.0}, {"lat": 38.8638945, "is_disabled": 0, "type": "electric_bike", "lon": -76.98990016666667, "bike_id": "43bb2af4fcd63f9389c3550cf7ccf481", "fusion_lat": 0.0, "name": "43bb2af4fcd63f9389c3550cf7ccf481", "is_reserved": 0, "rental_uris": {"android": "https://dc.lft.to/lastmile_qr_scan", "ios": "https://dc.lft.to/lastmile_qr_scan"}, "fusion_lon": 0.0}, {"lat": 38.903521, "is_disabled": 0, "type": "electric_scooter", "lon": -77.01094466666666, "bike_id": "a3283f6a4fa207dd2f8e8096dd33b440", "fusion_lat": 0.0, "name": "a3283f6a4fa207dd2f8e8096dd33b440", "is_reserved": 0, "rental_uris": {"android": "https://dc.lft.to/lastmile_qr_scan", "ios": "https://dc.lft.to/lastmile_qr_scan"}, "fusion_lon": 0.0}, {"lat": 38.90365416666667, "is_disabled": 0, "type": "electric_scooter", "lon": -76.9765305, "bike_id": "c6b467f9ff34de04d423290eafe4505f", "fusion_lat": 0.0, "name": "c6b467f9ff34de04d423290eafe4505f", "is_reserved": 0, "rental_uris": {"android": "https://dc.lft.to/lastmile_qr_scan", "ios": "https://dc.lft.to/lastmile_qr_scan"}, "fusion_lon": 0.0}, {"lat": 38.880180333333335, "is_disabled": 0, "type": "electric_scooter", "lon": -76.93133466666667, "bike_id": "9ba2e2c5b3fc0ca872a5ea581de3d444", "fusion_lat": 0.0, "name": "9ba2e2c5b3fc0ca872a5ea581de3d444", "is_reserved": 0, "rental_uris": {"android": "https://dc.lft.to/lastmile_qr_scan", "ios": "https://dc.lft.to/lastmile_qr_scan"}, "fusion_lon": 0.0}, {"lat": 38.90205666666667, "is_disabled": 0, "type": "electric_scooter", "lon": -76.988446, "bike_id": "d125cc8dbc9c557da0ead7ba60b02eb4", "fusion_lat": 0.0, "name": "d125cc8dbc9c557da0ead7ba60b02eb4", "is_reserved": 0, "rental_uris": {"android": "https://dc.lft.to/lastmile_qr_scan", "ios": "https://dc.lft.to/lastmile_qr_scan"}, "fusion_lon": 0.0}, {"lat": 38.9465525, "is_disabled": 0, "type": "electric_scooter", "lon": -77.06485183333334, "bike_id": "f5325ac13d710613c010fdf7f8e2b4d0", "fusion_lat": 0.0, "name": "f5325ac13d710613c010fdf7f8e2b4d0", "is_reserved": 0, "rental_uris": {"android": "https://dc.lft.to/lastmile_qr_scan", "ios": "https://dc.lft.to/lastmile_qr_scan"}, "fusion_lon": 0.0}, {"lat": 38.9266235, "is_disabled": 0, "type": "electric_scooter", "lon": -77.05596966666667, "bike_id": "810e1c00942e4ed0bd1ad5088f6d7165", "fusion_lat": 0.0, "name": "810e1c00942e4ed0bd1ad5088f6d7165", "is_reserved": 0, "rental_uris": {"android": "https://dc.lft.to/lastmile_qr_scan", "ios": "https://dc.lft.to/lastmile_qr_scan"}, "fusion_lon": 0.0}, {"lat": 38.920559, "is_disabled": 0, "type": "electric_scooter", "lon": -77.03346633333334, "bike_id": "bdb2c4e7e8fe13dce64c239250530e2f", "fusion_lat": 0.0, "name": "bdb2c4e7e8fe13dce64c239250530e2f", "is_reserved": 0, "rental_uris": {"android": "https://dc.lft.to/lastmile_qr_scan", "ios": "https://dc.lft.to/lastmile_qr_scan"}, "fusion_lon": 0.0}, {"lat": 38.8955695, "is_disabled": 0, "type": "electric_scooter", "lon": -76.933684, "bike_id": "f04bd272bb47c2e32f69d1ea96eaec1b", "fusion_lat": 0.0, "name": "f04bd272bb47c2e32f69d1ea96eaec1b", "is_reserved": 0, "rental_uris": {"android": "https://dc.lft.to/lastmile_qr_scan", "ios": "https://dc.lft.to/lastmile_qr_scan"}, "fusion_lon": 0.0}, {"lat": 38.90458533333333, "is_disabled": 0, "type": "electric_scooter", "lon": -77.00779183333333, "bike_id": "4608f5750f4edc37577d3a8b6886daff", "fusion_lat": 0.0, "name": "4608f5750f4edc37577d3a8b6886daff", "is_reserved": 0, "rental_uris": {"android": "https://dc.lft.to/lastmile_qr_scan", "ios": "https://dc.lft.to/lastmile_qr_scan"}, "fusion_lon": 0.0}, {"lat": 38.91962383333333, "is_disabled": 0, "type": "electric_scooter", "lon": -77.03961666666666, "bike_id": "598c93630273c0c944993173c79e460f", "fusion_lat": 0.0, "name": "598c93630273c0c944993173c79e460f", "is_reserved": 0, "rental_uris": {"android": "https://dc.lft.to/lastmile_qr_scan", "ios": "https://dc.lft.to/lastmile_qr_scan"}, "fusion_lon": 0.0}, {"lat": 38.793038333333335, "is_disabled": 0, "type": "electric_bike", "lon": -77.04924416666667, "bike_id": "7456c3ece87246b69dd750cfaae18e45", "fusion_lat": 0.0, "name": "7456c3ece87246b69dd750cfaae18e45", "is_reserved": 0, "rental_uris": {"android": "https://dc.lft.to/lastmile_qr_scan", "ios": "https://dc.lft.to/lastmile_qr_scan"}, "fusion_lon": 0.0}, {"lat": 38.920705166666664, "is_disabled": 0, "type": "electric_scooter", "lon": -77.01418133333334, "bike_id": "79573d31bc65da92f3e67a07ef3e5e66", "fusion_lat": 0.0, "name": "79573d31bc65da92f3e67a07ef3e5e66", "is_reserved": 0, "rental_uris": {"android": "https://dc.lft.to/lastmile_qr_scan", "ios": "https://dc.lft.to/lastmile_qr_scan"}, "fusion_lon": 0.0}, {"lat": 38.902584, "is_disabled": 0, "type": "electric_scooter", "lon": -77.03443883333334, "bike_id": "2a48ffad407a6bed38c3910ac7511922", "fusion_lat": 0.0, "name": "2a48ffad407a6bed38c3910ac7511922", "is_reserved": 0, "rental_uris": {"android": "https://dc.lft.to/lastmile_qr_scan", "ios": "https://dc.lft.to/lastmile_qr_scan"}, "fusion_lon": 0.0}, {"lat": 38.904414, "is_disabled": 0, "type": "electric_scooter", "lon": -77.01786033333333, "bike_id": "2a5d46a5dfb696ce4679aebf3043d6ad", "fusion_lat": 0.0, "name": "2a5d46a5dfb696ce4679aebf3043d6ad", "is_reserved": 0, "rental_uris": {"android": "https://dc.lft.to/lastmile_qr_scan", "ios": "https://dc.lft.to/lastmile_qr_scan"}, "fusion_lon": 0.0}, {"lat": 38.904227, "is_disabled": 0, "type": "electric_scooter", "lon": -77.04355583333333, "bike_id": "8b35f15f010a5ca76a42cbb1ac069620", "fusion_lat": 0.0, "name": "8b35f15f010a5ca76a42cbb1ac069620", "is_reserved": 0, "rental_uris": {"android": "https://dc.lft.to/lastmile_qr_scan", "ios": "https://dc.lft.to/lastmile_qr_scan"}, "fusion_lon": 0.0}, {"lat": 38.909415, "is_disabled": 0, "type": "electric_scooter", "lon": -77.04054133333334, "bike_id": "4020039a61c8321a60623ce6d63f3779", "fusion_lat": 0.0, "name": "4020039a61c8321a60623ce6d63f3779", "is_reserved": 0, "rental_uris": {"android": "https://dc.lft.to/lastmile_qr_scan", "ios": "https://dc.lft.to/lastmile_qr_scan"}, "fusion_lon": 0.0}, {"lat": 38.95731766666667, "is_disabled": 0, "type": "electric_bike", "lon": -77.02323483333333, "bike_id": "dfd9e13ef0fd7d6b9b8f32ce55ecd2e6", "fusion_lat": 0.0, "name": "dfd9e13ef0fd7d6b9b8f32ce55ecd2e6", "is_reserved": 0, "rental_uris": {"android": "https://dc.lft.to/lastmile_qr_scan", "ios": "https://dc.lft.to/lastmile_qr_scan"}, "fusion_lon": 0.0}, {"lat": 38.900393666666666, "is_disabled": 0, "type": "electric_scooter", "lon": -77.00538, "bike_id": "e8f8d745cde42bdb135b814ed55c5ccb", "fusion_lat": 0.0, "name": "e8f8d745cde42bdb135b814ed55c5ccb", "is_reserved": 0, "rental_uris": {"android": "https://dc.lft.to/lastmile_qr_scan", "ios": "https://dc.lft.to/lastmile_qr_scan"}, "fusion_lon": 0.0}, {"lat": 38.9003555, "is_disabled": 0, "type": "electric_scooter", "lon": -77.00215816666666, "bike_id": "f9622b627ba1de18d06ce2e592ebe556", "fusion_lat": 0.0, "name": "f9622b627ba1de18d06ce2e592ebe556", "is_reserved": 0, "rental_uris": {"android": "https://dc.lft.to/lastmile_qr_scan", "ios": "https://dc.lft.to/lastmile_qr_scan"}, "fusion_lon": 0.0}, {"lat": 38.891418, "is_disabled": 0, "type": "electric_bike", "lon": -77.1130985, "bike_id": "dccb58d46dd750aa292cd2bbccd01cf5", "fusion_lat": 0.0, "name": "dccb58d46dd750aa292cd2bbccd01cf5", "is_reserved": 0, "rental_uris": {"android": "https://dc.lft.to/lastmile_qr_scan", "ios": "https://dc.lft.to/lastmile_qr_scan"}, "fusion_lon": 0.0}, {"lat": 38.91679166666667, "is_disabled": 0, "type": "electric_scooter", "lon": -77.04153583333333, "bike_id": "ed324edf5d2e0c212b006e442dca9648", "fusion_lat": 0.0, "name": "ed324edf5d2e0c212b006e442dca9648", "is_reserved": 0, "rental_uris": {"android": "https://dc.lft.to/lastmile_qr_scan", "ios": "https://dc.lft.to/lastmile_qr_scan"}, "fusion_lon": 0.0}, {"lat": 38.902425, "is_disabled": 0, "type": "electric_scooter", "lon": -77.01925616666666, "bike_id": "f1773ee2dd3d8c805ebf7c1b5f2e8dc8", "fusion_lat": 0.0, "name": "f1773ee2dd3d8c805ebf7c1b5f2e8dc8", "is_reserved": 0, "rental_uris": {"android": "https://dc.lft.to/lastmile_qr_scan", "ios": "https://dc.lft.to/lastmile_qr_scan"}, "fusion_lon": 0.0}, {"lat": 38.908178, "is_disabled": 0, "type": "electric_scooter", "lon": -76.996747, "bike_id": "c79b660446f2791d98f391117aad0ef3", "fusion_lat": 0.0, "name": "c79b660446f2791d98f391117aad0ef3", "is_reserved": 0, "rental_uris": {"android": "https://dc.lft.to/lastmile_qr_scan", "ios": "https://dc.lft.to/lastmile_qr_scan"}, "fusion_lon": 0.0}, {"lat": 38.8922235, "is_disabled": 0, "type": "electric_bike", "lon": -77.10781516666667, "bike_id": "423738f190fbef4b3fa157df9f106425", "fusion_lat": 0.0, "name": "423738f190fbef4b3fa157df9f106425", "is_reserved": 0, "rental_uris": {"android": "https://dc.lft.to/lastmile_qr_scan", "ios": "https://dc.lft.to/lastmile_qr_scan"}, "fusion_lon": 0.0}, {"lat": 38.884485833333336, "is_disabled": 0, "type": "electric_scooter", "lon": -77.015428, "bike_id": "3105fbd205bd27dcb8c33b1722c6c394", "fusion_lat": 0.0, "name": "3105fbd205bd27dcb8c33b1722c6c394", "is_reserved": 0, "rental_uris": {"android": "https://dc.lft.to/lastmile_qr_scan", "ios": "https://dc.lft.to/lastmile_qr_scan"}, "fusion_lon": 0.0}, {"lat": 38.92680883333333, "is_disabled": 0, "type": "electric_scooter", "lon": -77.00742866666667, "bike_id": "b876628d8ddeb5a0b9aa8dc061d9c9c0", "fusion_lat": 0.0, "name": "b876628d8ddeb5a0b9aa8dc061d9c9c0", "is_reserved": 0, "rental_uris": {"android": "https://dc.lft.to/lastmile_qr_scan", "ios": "https://dc.lft.to/lastmile_qr_scan"}, "fusion_lon": 0.0}, {"lat": 38.88862916666667, "is_disabled": 0, "type": "electric_scooter", "lon": -76.977381, "bike_id": "a902e6368e11992bae0f532a4a6f84e4", "fusion_lat": 0.0, "name": "a902e6368e11992bae0f532a4a6f84e4", "is_reserved": 0, "rental_uris": {"android": "https://dc.lft.to/lastmile_qr_scan", "ios": "https://dc.lft.to/lastmile_qr_scan"}, "fusion_lon": 0.0}, {"lat": 38.938472833333336, "is_disabled": 0, "type": "electric_scooter", "lon": -77.02583483333333, "bike_id": "98553816a7d8bd9aa0905dd356888f90", "fusion_lat": 0.0, "name": "98553816a7d8bd9aa0905dd356888f90", "is_reserved": 0, "rental_uris": {"android": "https://dc.lft.to/lastmile_qr_scan", "ios": "https://dc.lft.to/lastmile_qr_scan"}, "fusion_lon": 0.0}, {"lat": 38.856906333333335, "is_disabled": 0, "type": "electric_scooter", "lon": -76.98159933333334, "bike_id": "0e5990d83c5802d9d0c583ac61561347", "fusion_lat": 0.0, "name": "0e5990d83c5802d9d0c583ac61561347", "is_reserved": 0, "rental_uris": {"android": "https://dc.lft.to/lastmile_qr_scan", "ios": "https://dc.lft.to/lastmile_qr_scan"}, "fusion_lon": 0.0}, {"lat": 38.85514516666667, "is_disabled": 0, "type": "electric_bike", "lon": -76.98429566666667, "bike_id": "900fe94bcffab5b0ab02d1dd7369f1c5", "fusion_lat": 0.0, "name": "900fe94bcffab5b0ab02d1dd7369f1c5", "is_reserved": 0, "rental_uris": {"android": "https://dc.lft.to/lastmile_qr_scan", "ios": "https://dc.lft.to/lastmile_qr_scan"}, "fusion_lon": 0.0}, {"lat": 38.938265333333334, "is_disabled": 0, "type": "electric_bike", "lon": -77.02647583333334, "bike_id": "f4a1e49dc31dfe9c3aadacab84ac6842", "fusion_lat": 0.0, "name": "f4a1e49dc31dfe9c3aadacab84ac6842", "is_reserved": 0, "rental_uris": {"android": "https://dc.lft.to/lastmile_qr_scan", "ios": "https://dc.lft.to/lastmile_qr_scan"}, "fusion_lon": 0.0}, {"lat": 38.90566916666667, "is_disabled": 0, "type": "electric_scooter", "lon": -77.06276316666667, "bike_id": "e702180d4236434d2291008eb38ab911", "fusion_lat": 0.0, "name": "e702180d4236434d2291008eb38ab911", "is_reserved": 0, "rental_uris": {"android": "https://dc.lft.to/lastmile_qr_scan", "ios": "https://dc.lft.to/lastmile_qr_scan"}, "fusion_lon": 0.0}, {"lat": 38.83721366666666, "is_disabled": 0, "type": "electric_bike", "lon": -76.9976385, "bike_id": "029383be2258338225421ee0c057457c", "fusion_lat": 0.0, "name": "029383be2258338225421ee0c057457c", "is_reserved": 0, "rental_uris": {"android": "https://dc.lft.to/lastmile_qr_scan", "ios": "https://dc.lft.to/lastmile_qr_scan"}, "fusion_lon": 0.0}, {"lat": 38.8899645, "is_disabled": 0, "type": "electric_scooter", "lon": -76.9556845, "bike_id": "01e1e48a8c299b3afa3b177b328dac97", "fusion_lat": 0.0, "name": "01e1e48a8c299b3afa3b177b328dac97", "is_reserved": 0, "rental_uris": {"android": "https://dc.lft.to/lastmile_qr_scan", "ios": "https://dc.lft.to/lastmile_qr_scan"}, "fusion_lon": 0.0}, {"lat": 38.934182166666666, "is_disabled": 0, "type": "electric_scooter", "lon": -77.04142766666666, "bike_id": "7a50a7034d13b8a2d48bc1a279c338ac", "fusion_lat": 0.0, "name": "7a50a7034d13b8a2d48bc1a279c338ac", "is_reserved": 0, "rental_uris": {"android": "https://dc.lft.to/lastmile_qr_scan", "ios": "https://dc.lft.to/lastmile_qr_scan"}, "fusion_lon": 0.0}, {"lat": 38.91619766666667, "is_disabled": 0, "type": "electric_scooter", "lon": -77.02553316666666, "bike_id": "4f0c18c80f7d81b652055bbd0265593e", "fusion_lat": 0.0, "name": "4f0c18c80f7d81b652055bbd0265593e", "is_reserved": 0, "rental_uris": {"android": "https://dc.lft.to/lastmile_qr_scan", "ios": "https://dc.lft.to/lastmile_qr_scan"}, "fusion_lon": 0.0}, {"lat": 38.906789833333335, "is_disabled": 0, "type": "electric_scooter", "lon": -77.071742, "bike_id": "67c5685c3d633ee36f034b6e6b109fde", "fusion_lat": 0.0, "name": "67c5685c3d633ee36f034b6e6b109fde", "is_reserved": 0, "rental_uris": {"android": "https://dc.lft.to/lastmile_qr_scan", "ios": "https://dc.lft.to/lastmile_qr_scan"}, "fusion_lon": 0.0}, {"lat": 38.88607066666667, "is_disabled": 0, "type": "electric_scooter", "lon": -77.00362933333334, "bike_id": "a9b96d5db6ead772be0baec2c5ba8e16", "fusion_lat": 0.0, "name": "a9b96d5db6ead772be0baec2c5ba8e16", "is_reserved": 0, "rental_uris": {"android": "https://dc.lft.to/lastmile_qr_scan", "ios": "https://dc.lft.to/lastmile_qr_scan"}, "fusion_lon": 0.0}, {"lat": 38.8462835, "is_disabled": 0, "type": "electric_bike", "lon": -77.069393, "bike_id": "118086b4fd562b9f5f6e609bce14dc65", "fusion_lat": 0.0, "name": "118086b4fd562b9f5f6e609bce14dc65", "is_reserved": 0, "rental_uris": {"android": "https://dc.lft.to/lastmile_qr_scan", "ios": "https://dc.lft.to/lastmile_qr_scan"}, "fusion_lon": 0.0}, {"lat": 38.918041, "is_disabled": 0, "type": "electric_scooter", "lon": -77.0317715, "bike_id": "c2ea68db7782f2ae3c773bb887eae416", "fusion_lat": 0.0, "name": "c2ea68db7782f2ae3c773bb887eae416", "is_reserved": 0, "rental_uris": {"android": "https://dc.lft.to/lastmile_qr_scan", "ios": "https://dc.lft.to/lastmile_qr_scan"}, "fusion_lon": 0.0}, {"lat": 38.90977766666666, "is_disabled": 0, "type": "electric_scooter", "lon": -77.03186416666667, "bike_id": "e621c0373c7b3ee7f46e1b108aff11a5", "fusion_lat": 0.0, "name": "e621c0373c7b3ee7f46e1b108aff11a5", "is_reserved": 0, "rental_uris": {"android": "https://dc.lft.to/lastmile_qr_scan", "ios": "https://dc.lft.to/lastmile_qr_scan"}, "fusion_lon": 0.0}, {"lat": 38.890076, "is_disabled": 0, "type": "electric_scooter", "lon": -76.93748, "bike_id": "8e400588b705b8600e77fd39dbc2e29f", "fusion_lat": 0.0, "name": "8e400588b705b8600e77fd39dbc2e29f", "is_reserved": 0, "rental_uris": {"android": "https://dc.lft.to/lastmile_qr_scan", "ios": "https://dc.lft.to/lastmile_qr_scan"}, "fusion_lon": 0.0}, {"lat": 38.8949845, "is_disabled": 0, "type": "electric_scooter", "lon": -77.02747733333334, "bike_id": "b64eac2845547374745af58d7938a14f", "fusion_lat": 0.0, "name": "b64eac2845547374745af58d7938a14f", "is_reserved": 0, "rental_uris": {"android": "https://dc.lft.to/lastmile_qr_scan", "ios": "https://dc.lft.to/lastmile_qr_scan"}, "fusion_lon": 0.0}, {"lat": 38.91705416666667, "is_disabled": 0, "type": "electric_scooter", "lon": -77.03450683333334, "bike_id": "46482e98e01c131c67f29120e2b71278", "fusion_lat": 0.0, "name": "46482e98e01c131c67f29120e2b71278", "is_reserved": 0, "rental_uris": {"android": "https://dc.lft.to/lastmile_qr_scan", "ios": "https://dc.lft.to/lastmile_qr_scan"}, "fusion_lon": 0.0}, {"lat": 38.91217283333334, "is_disabled": 0, "type": "electric_scooter", "lon": -77.04349566666667, "bike_id": "36977b0a8b88552a43d7218d41f35391", "fusion_lat": 0.0, "name": "36977b0a8b88552a43d7218d41f35391", "is_reserved": 0, "rental_uris": {"android": "https://dc.lft.to/lastmile_qr_scan", "ios": "https://dc.lft.to/lastmile_qr_scan"}, "fusion_lon": 0.0}, {"lat": 38.91761783333333, "is_disabled": 0, "type": "electric_scooter", "lon": -77.0231305, "bike_id": "3983f47ef1adf51872766ed5380cee35", "fusion_lat": 0.0, "name": "3983f47ef1adf51872766ed5380cee35", "is_reserved": 0, "rental_uris": {"android": "https://dc.lft.to/lastmile_qr_scan", "ios": "https://dc.lft.to/lastmile_qr_scan"}, "fusion_lon": 0.0}, {"lat": 38.8932415, "is_disabled": 0, "type": "electric_bike", "lon": -77.02225183333333, "bike_id": "f54be6096b58eb6ebc8f4dd79e6f557a", "fusion_lat": 0.0, "name": "f54be6096b58eb6ebc8f4dd79e6f557a", "is_reserved": 0, "rental_uris": {"android": "https://dc.lft.to/lastmile_qr_scan", "ios": "https://dc.lft.to/lastmile_qr_scan"}, "fusion_lon": 0.0}, {"lat": 38.892748166666664, "is_disabled": 0, "type": "electric_scooter", "lon": -77.05032183333333, "bike_id": "1309c4c55ab4a3e98e6d0d5dd5445285", "fusion_lat": 0.0, "name": "1309c4c55ab4a3e98e6d0d5dd5445285", "is_reserved": 0, "rental_uris": {"android": "https://dc.lft.to/lastmile_qr_scan", "ios": "https://dc.lft.to/lastmile_qr_scan"}, "fusion_lon": 0.0}, {"lat": 38.918478666666665, "is_disabled": 0, "type": "electric_scooter", "lon": -76.96541833333333, "bike_id": "06892ae2a75c10c81f7d5835ce364c4a", "fusion_lat": 0.0, "name": "06892ae2a75c10c81f7d5835ce364c4a", "is_reserved": 0, "rental_uris": {"android": "https://dc.lft.to/lastmile_qr_scan", "ios": "https://dc.lft.to/lastmile_qr_scan"}, "fusion_lon": 0.0}, {"lat": 38.92377966666667, "is_disabled": 0, "type": "electric_scooter", "lon": -77.03076433333334, "bike_id": "dfa8c5bf9b4356382111c0841206dca5", "fusion_lat": 0.0, "name": "dfa8c5bf9b4356382111c0841206dca5", "is_reserved": 0, "rental_uris": {"android": "https://dc.lft.to/lastmile_qr_scan", "ios": "https://dc.lft.to/lastmile_qr_scan"}, "fusion_lon": 0.0}, {"lat": 38.90772483333333, "is_disabled": 0, "type": "electric_scooter", "lon": -77.04345833333333, "bike_id": "9d053ec4b79874b83dfe3da411682944", "fusion_lat": 0.0, "name": "9d053ec4b79874b83dfe3da411682944", "is_reserved": 0, "rental_uris": {"android": "https://dc.lft.to/lastmile_qr_scan", "ios": "https://dc.lft.to/lastmile_qr_scan"}, "fusion_lon": 0.0}, {"lat": 38.92469833333333, "is_disabled": 0, "type": "electric_scooter", "lon": -77.033812, "bike_id": "cce487afb1075f1697297a5a48793915", "fusion_lat": 0.0, "name": "cce487afb1075f1697297a5a48793915", "is_reserved": 0, "rental_uris": {"android": "https://dc.lft.to/lastmile_qr_scan", "ios": "https://dc.lft.to/lastmile_qr_scan"}, "fusion_lon": 0.0}, {"lat": 38.899603, "is_disabled": 0, "type": "electric_scooter", "lon": -77.01639483333334, "bike_id": "e78396ec7b2947d69b74c7ff9ffc3364", "fusion_lat": 0.0, "name": "e78396ec7b2947d69b74c7ff9ffc3364", "is_reserved": 0, "rental_uris": {"android": "https://dc.lft.to/lastmile_qr_scan", "ios": "https://dc.lft.to/lastmile_qr_scan"}, "fusion_lon": 0.0}, {"lat": 38.90566583333333, "is_disabled": 0, "type": "electric_scooter", "lon": -77.0055, "bike_id": "019d5ff4973576508c49277800169d90", "fusion_lat": 0.0, "name": "019d5ff4973576508c49277800169d90", "is_reserved": 0, "rental_uris": {"android": "https://dc.lft.to/lastmile_qr_scan", "ios": "https://dc.lft.to/lastmile_qr_scan"}, "fusion_lon": 0.0}, {"lat": 38.91726283333333, "is_disabled": 0, "type": "electric_scooter", "lon": -77.0239815, "bike_id": "beae87348c8eb495c2e746768ab34cff", "fusion_lat": 0.0, "name": "beae87348c8eb495c2e746768ab34cff", "is_reserved": 0, "rental_uris": {"android": "https://dc.lft.to/lastmile_qr_scan", "ios": "https://dc.lft.to/lastmile_qr_scan"}, "fusion_lon": 0.0}, {"lat": 38.895983333333334, "is_disabled": 0, "type": "electric_scooter", "lon": -76.95521116666667, "bike_id": "c31ad1da91dd9338ce01b67781220ab5", "fusion_lat": 0.0, "name": "c31ad1da91dd9338ce01b67781220ab5", "is_reserved": 0, "rental_uris": {"android": "https://dc.lft.to/lastmile_qr_scan", "ios": "https://dc.lft.to/lastmile_qr_scan"}, "fusion_lon": 0.0}, {"lat": 38.9080725, "is_disabled": 0, "type": "electric_scooter", "lon": -76.98294833333334, "bike_id": "1dbbead5f823889edf27d965fc9eba3f", "fusion_lat": 0.0, "name": "1dbbead5f823889edf27d965fc9eba3f", "is_reserved": 0, "rental_uris": {"android": "https://dc.lft.to/lastmile_qr_scan", "ios": "https://dc.lft.to/lastmile_qr_scan"}, "fusion_lon": 0.0}, {"lat": 38.884804, "is_disabled": 0, "type": "electric_scooter", "lon": -76.94528216666667, "bike_id": "d5e6b6b70e4b61f97709d738d57964ec", "fusion_lat": 0.0, "name": "d5e6b6b70e4b61f97709d738d57964ec", "is_reserved": 0, "rental_uris": {"android": "https://dc.lft.to/lastmile_qr_scan", "ios": "https://dc.lft.to/lastmile_qr_scan"}, "fusion_lon": 0.0}, {"lat": 38.9336435, "is_disabled": 0, "type": "electric_scooter", "lon": -77.03724216666667, "bike_id": "ac509793635329d3aca01c6162ed884b", "fusion_lat": 0.0, "name": "ac509793635329d3aca01c6162ed884b", "is_reserved": 0, "rental_uris": {"android": "https://dc.lft.to/lastmile_qr_scan", "ios": "https://dc.lft.to/lastmile_qr_scan"}, "fusion_lon": 0.0}, {"lat": 38.90974816666667, "is_disabled": 0, "type": "electric_scooter", "lon": -77.05262066666667, "bike_id": "7f63aa054b51604ddc3e6da675baed32", "fusion_lat": 0.0, "name": "7f63aa054b51604ddc3e6da675baed32", "is_reserved": 0, "rental_uris": {"android": "https://dc.lft.to/lastmile_qr_scan", "ios": "https://dc.lft.to/lastmile_qr_scan"}, "fusion_lon": 0.0}, {"lat": 38.929552666666666, "is_disabled": 0, "type": "electric_scooter", "lon": -77.03181133333334, "bike_id": "fd73ae7687ad201d0030b10d149c4a0d", "fusion_lat": 0.0, "name": "fd73ae7687ad201d0030b10d149c4a0d", "is_reserved": 0, "rental_uris": {"android": "https://dc.lft.to/lastmile_qr_scan", "ios": "https://dc.lft.to/lastmile_qr_scan"}, "fusion_lon": 0.0}, {"lat": 38.906340666666665, "is_disabled": 0, "type": "electric_scooter", "lon": -77.00824383333334, "bike_id": "aa0b5bc84ef738637b4f22ce3d24f401", "fusion_lat": 0.0, "name": "aa0b5bc84ef738637b4f22ce3d24f401", "is_reserved": 0, "rental_uris": {"android": "https://dc.lft.to/lastmile_qr_scan", "ios": "https://dc.lft.to/lastmile_qr_scan"}, "fusion_lon": 0.0}, {"lat": 38.86658033333333, "is_disabled": 0, "type": "electric_scooter", "lon": -76.98911766666667, "bike_id": "d29291500051d335b75b2dad74cfac07", "fusion_lat": 0.0, "name": "d29291500051d335b75b2dad74cfac07", "is_reserved": 0, "rental_uris": {"android": "https://dc.lft.to/lastmile_qr_scan", "ios": "https://dc.lft.to/lastmile_qr_scan"}, "fusion_lon": 0.0}, {"lat": 38.896405333333334, "is_disabled": 0, "type": "electric_scooter", "lon": -77.04658916666666, "bike_id": "130ca3634a1e126150434dd07981a02f", "fusion_lat": 0.0, "name": "130ca3634a1e126150434dd07981a02f", "is_reserved": 0, "rental_uris": {"android": "https://dc.lft.to/lastmile_qr_scan", "ios": "https://dc.lft.to/lastmile_qr_scan"}, "fusion_lon": 0.0}, {"lat": 38.9283425, "is_disabled": 0, "type": "electric_scooter", "lon": -77.05427816666666, "bike_id": "0e292feca1d9e4b9c541c3b351e5434c", "fusion_lat": 0.0, "name": "0e292feca1d9e4b9c541c3b351e5434c", "is_reserved": 0, "rental_uris": {"android": "https://dc.lft.to/lastmile_qr_scan", "ios": "https://dc.lft.to/lastmile_qr_scan"}, "fusion_lon": 0.0}, {"lat": 38.91010516666667, "is_disabled": 0, "type": "electric_scooter", "lon": -77.03017633333333, "bike_id": "3885425d20448973136fe4e5ef803202", "fusion_lat": 0.0, "name": "3885425d20448973136fe4e5ef803202", "is_reserved": 0, "rental_uris": {"android": "https://dc.lft.to/lastmile_qr_scan", "ios": "https://dc.lft.to/lastmile_qr_scan"}, "fusion_lon": 0.0}, {"lat": 38.8969945, "is_disabled": 0, "type": "electric_scooter", "lon": -77.021335, "bike_id": "e559caa7df6524e57e66460483f798bb", "fusion_lat": 0.0, "name": "e559caa7df6524e57e66460483f798bb", "is_reserved": 0, "rental_uris": {"android": "https://dc.lft.to/lastmile_qr_scan", "ios": "https://dc.lft.to/lastmile_qr_scan"}, "fusion_lon": 0.0}, {"lat": 38.938541, "is_disabled": 0, "type": "electric_scooter", "lon": -77.03389583333333, "bike_id": "f0d78edfb1e92d2e9df295e33d63fd32", "fusion_lat": 0.0, "name": "f0d78edfb1e92d2e9df295e33d63fd32", "is_reserved": 0, "rental_uris": {"android": "https://dc.lft.to/lastmile_qr_scan", "ios": "https://dc.lft.to/lastmile_qr_scan"}, "fusion_lon": 0.0}, {"lat": 38.91689933333333, "is_disabled": 0, "type": "electric_scooter", "lon": -77.03037416666666, "bike_id": "c7f13c2888ef8ea7b95032b86b0d2572", "fusion_lat": 0.0, "name": "c7f13c2888ef8ea7b95032b86b0d2572", "is_reserved": 0, "rental_uris": {"android": "https://dc.lft.to/lastmile_qr_scan", "ios": "https://dc.lft.to/lastmile_qr_scan"}, "fusion_lon": 0.0}, {"lat": 38.9168865, "is_disabled": 0, "type": "electric_scooter", "lon": -77.02897883333333, "bike_id": "891dc8cf4e6a01a5ee90ed88e8fc1d7e", "fusion_lat": 0.0, "name": "891dc8cf4e6a01a5ee90ed88e8fc1d7e", "is_reserved": 0, "rental_uris": {"android": "https://dc.lft.to/lastmile_qr_scan", "ios": "https://dc.lft.to/lastmile_qr_scan"}, "fusion_lon": 0.0}, {"lat": 38.932524, "is_disabled": 0, "type": "electric_scooter", "lon": -77.0401165, "bike_id": "4b6e138b76348c1adb741160b304cca6", "fusion_lat": 0.0, "name": "4b6e138b76348c1adb741160b304cca6", "is_reserved": 0, "rental_uris": {"android": "https://dc.lft.to/lastmile_qr_scan", "ios": "https://dc.lft.to/lastmile_qr_scan"}, "fusion_lon": 0.0}, {"lat": 38.88133466666667, "is_disabled": 0, "type": "electric_scooter", "lon": -76.9871995, "bike_id": "d08ac13929a63e2d15af96f4cacd1685", "fusion_lat": 0.0, "name": "d08ac13929a63e2d15af96f4cacd1685", "is_reserved": 0, "rental_uris": {"android": "https://dc.lft.to/lastmile_qr_scan", "ios": "https://dc.lft.to/lastmile_qr_scan"}, "fusion_lon": 0.0}, {"lat": 38.91402033333333, "is_disabled": 0, "type": "electric_scooter", "lon": -77.032265, "bike_id": "a315e673f85da34a2d565e47d6389f87", "fusion_lat": 0.0, "name": "a315e673f85da34a2d565e47d6389f87", "is_reserved": 0, "rental_uris": {"android": "https://dc.lft.to/lastmile_qr_scan", "ios": "https://dc.lft.to/lastmile_qr_scan"}, "fusion_lon": 0.0}, {"lat": 38.90077466666666, "is_disabled": 0, "type": "electric_scooter", "lon": -77.05008233333334, "bike_id": "fafd85ba67b9bc54eca2c85a9e2fb443", "fusion_lat": 0.0, "name": "fafd85ba67b9bc54eca2c85a9e2fb443", "is_reserved": 0, "rental_uris": {"android": "https://dc.lft.to/lastmile_qr_scan", "ios": "https://dc.lft.to/lastmile_qr_scan"}, "fusion_lon": 0.0}, {"lat": 38.89861283333333, "is_disabled": 0, "type": "electric_scooter", "lon": -77.01869033333334, "bike_id": "1b9092445254be1acb8c3c71674bdc3c", "fusion_lat": 0.0, "name": "1b9092445254be1acb8c3c71674bdc3c", "is_reserved": 0, "rental_uris": {"android": "https://dc.lft.to/lastmile_qr_scan", "ios": "https://dc.lft.to/lastmile_qr_scan"}, "fusion_lon": 0.0}, {"lat": 38.89743983333334, "is_disabled": 0, "type": "electric_scooter", "lon": -77.00864416666667, "bike_id": "4c722007cde2b7cb756eb58cc344fe63", "fusion_lat": 0.0, "name": "4c722007cde2b7cb756eb58cc344fe63", "is_reserved": 0, "rental_uris": {"android": "https://dc.lft.to/lastmile_qr_scan", "ios": "https://dc.lft.to/lastmile_qr_scan"}, "fusion_lon": 0.0}, {"lat": 38.9232545, "is_disabled": 0, "type": "electric_scooter", "lon": -77.03897033333334, "bike_id": "64cf36d2f4f0eb9e627160d36c825973", "fusion_lat": 0.0, "name": "64cf36d2f4f0eb9e627160d36c825973", "is_reserved": 0, "rental_uris": {"android": "https://dc.lft.to/lastmile_qr_scan", "ios": "https://dc.lft.to/lastmile_qr_scan"}, "fusion_lon": 0.0}, {"lat": 38.92181766666667, "is_disabled": 0, "type": "electric_scooter", "lon": -77.0297755, "bike_id": "937c069f0a7bc742da0eaf298d45cd1c", "fusion_lat": 0.0, "name": "937c069f0a7bc742da0eaf298d45cd1c", "is_reserved": 0, "rental_uris": {"android": "https://dc.lft.to/lastmile_qr_scan", "ios": "https://dc.lft.to/lastmile_qr_scan"}, "fusion_lon": 0.0}, {"lat": 38.94492283333334, "is_disabled": 0, "type": "electric_scooter", "lon": -77.015501, "bike_id": "73a25f8b8895686a061695e685db08e3", "fusion_lat": 0.0, "name": "73a25f8b8895686a061695e685db08e3", "is_reserved": 0, "rental_uris": {"android": "https://dc.lft.to/lastmile_qr_scan", "ios": "https://dc.lft.to/lastmile_qr_scan"}, "fusion_lon": 0.0}, {"lat": 38.895358333333334, "is_disabled": 0, "type": "electric_scooter", "lon": -77.0405865, "bike_id": "78ee8e00028329ec543e1e193c926dec", "fusion_lat": 0.0, "name": "78ee8e00028329ec543e1e193c926dec", "is_reserved": 0, "rental_uris": {"android": "https://dc.lft.to/lastmile_qr_scan", "ios": "https://dc.lft.to/lastmile_qr_scan"}, "fusion_lon": 0.0}, {"lat": 38.90889, "is_disabled": 0, "type": "electric_scooter", "lon": -77.04344666666667, "bike_id": "dcee3145bbd81808f26c8b55723ce0cc", "fusion_lat": 0.0, "name": "dcee3145bbd81808f26c8b55723ce0cc", "is_reserved": 0, "rental_uris": {"android": "https://dc.lft.to/lastmile_qr_scan", "ios": "https://dc.lft.to/lastmile_qr_scan"}, "fusion_lon": 0.0}, {"lat": 38.920658, "is_disabled": 0, "type": "electric_scooter", "lon": -77.0242525, "bike_id": "f7abe61dadb125480d5370c0dc17b81c", "fusion_lat": 0.0, "name": "f7abe61dadb125480d5370c0dc17b81c", "is_reserved": 0, "rental_uris": {"android": "https://dc.lft.to/lastmile_qr_scan", "ios": "https://dc.lft.to/lastmile_qr_scan"}, "fusion_lon": 0.0}, {"lat": 38.924836666666664, "is_disabled": 0, "type": "electric_scooter", "lon": -77.05218883333333, "bike_id": "8efa1d92771338f27b41a8c1735d1a09", "fusion_lat": 0.0, "name": "8efa1d92771338f27b41a8c1735d1a09", "is_reserved": 0, "rental_uris": {"android": "https://dc.lft.to/lastmile_qr_scan", "ios": "https://dc.lft.to/lastmile_qr_scan"}, "fusion_lon": 0.0}, {"lat": 38.91349183333333, "is_disabled": 0, "type": "electric_scooter", "lon": -77.031861, "bike_id": "e9d4b5a2169e825c7e65882705d32f1f", "fusion_lat": 0.0, "name": "e9d4b5a2169e825c7e65882705d32f1f", "is_reserved": 0, "rental_uris": {"android": "https://dc.lft.to/lastmile_qr_scan", "ios": "https://dc.lft.to/lastmile_qr_scan"}, "fusion_lon": 0.0}, {"lat": 38.937058, "is_disabled": 0, "type": "electric_bike", "lon": -77.02539933333334, "bike_id": "a9a2c71c54a5f661a75bca2c4d7aff68", "fusion_lat": 0.0, "name": "a9a2c71c54a5f661a75bca2c4d7aff68", "is_reserved": 0, "rental_uris": {"android": "https://dc.lft.to/lastmile_qr_scan", "ios": "https://dc.lft.to/lastmile_qr_scan"}, "fusion_lon": 0.0}, {"lat": 38.8634725, "is_disabled": 0, "type": "electric_scooter", "lon": -76.99002766666666, "bike_id": "3b56e104eb37594225720e92c322aa0c", "fusion_lat": 0.0, "name": "3b56e104eb37594225720e92c322aa0c", "is_reserved": 0, "rental_uris": {"android": "https://dc.lft.to/lastmile_qr_scan", "ios": "https://dc.lft.to/lastmile_qr_scan"}, "fusion_lon": 0.0}, {"lat": 38.8812645, "is_disabled": 0, "type": "electric_bike", "lon": -77.02708666666666, "bike_id": "1629f1aa9066f80d13de987599220df8", "fusion_lat": 0.0, "name": "1629f1aa9066f80d13de987599220df8", "is_reserved": 0, "rental_uris": {"android": "https://dc.lft.to/lastmile_qr_scan", "ios": "https://dc.lft.to/lastmile_qr_scan"}, "fusion_lon": 0.0}, {"lat": 38.91270133333333, "is_disabled": 0, "type": "electric_scooter", "lon": -77.01309133333334, "bike_id": "8e4ff537b6384f67f5d97720492db7a7", "fusion_lat": 0.0, "name": "8e4ff537b6384f67f5d97720492db7a7", "is_reserved": 0, "rental_uris": {"android": "https://dc.lft.to/lastmile_qr_scan", "ios": "https://dc.lft.to/lastmile_qr_scan"}, "fusion_lon": 0.0}, {"lat": 38.896871166666664, "is_disabled": 0, "type": "electric_scooter", "lon": -77.01970633333333, "bike_id": "185826b0b1febd90d8f8a59b19799895", "fusion_lat": 0.0, "name": "185826b0b1febd90d8f8a59b19799895", "is_reserved": 0, "rental_uris": {"android": "https://dc.lft.to/lastmile_qr_scan", "ios": "https://dc.lft.to/lastmile_qr_scan"}, "fusion_lon": 0.0}, {"lat": 38.91123316666667, "is_disabled": 0, "type": "electric_scooter", "lon": -77.03829633333334, "bike_id": "fd2aaefeeb9aed7e54b22b4494a3909c", "fusion_lat": 0.0, "name": "fd2aaefeeb9aed7e54b22b4494a3909c", "is_reserved": 0, "rental_uris": {"android": "https://dc.lft.to/lastmile_qr_scan", "ios": "https://dc.lft.to/lastmile_qr_scan"}, "fusion_lon": 0.0}, {"lat": 38.95778283333333, "is_disabled": 0, "type": "electric_scooter", "lon": -77.02466433333333, "bike_id": "4c5665ffd8d0dbef54e685748b18ea2c", "fusion_lat": 0.0, "name": "4c5665ffd8d0dbef54e685748b18ea2c", "is_reserved": 0, "rental_uris": {"android": "https://dc.lft.to/lastmile_qr_scan", "ios": "https://dc.lft.to/lastmile_qr_scan"}, "fusion_lon": 0.0}, {"lat": 38.9267795, "is_disabled": 0, "type": "electric_scooter", "lon": -77.0510945, "bike_id": "03ca2bbe0236985e69c1fce5b13b5ee7", "fusion_lat": 0.0, "name": "03ca2bbe0236985e69c1fce5b13b5ee7", "is_reserved": 0, "rental_uris": {"android": "https://dc.lft.to/lastmile_qr_scan", "ios": "https://dc.lft.to/lastmile_qr_scan"}, "fusion_lon": 0.0}, {"lat": 38.89914066666667, "is_disabled": 0, "type": "electric_scooter", "lon": -76.93380133333334, "bike_id": "0d442af41414122cb0353e3866f7ec6e", "fusion_lat": 0.0, "name": "0d442af41414122cb0353e3866f7ec6e", "is_reserved": 0, "rental_uris": {"android": "https://dc.lft.to/lastmile_qr_scan", "ios": "https://dc.lft.to/lastmile_qr_scan"}, "fusion_lon": 0.0}, {"lat": 38.906491833333334, "is_disabled": 0, "type": "electric_scooter", "lon": -77.03849683333334, "bike_id": "09700c3981ba8b4de2efa6e74e76cc90", "fusion_lat": 0.0, "name": "09700c3981ba8b4de2efa6e74e76cc90", "is_reserved": 0, "rental_uris": {"android": "https://dc.lft.to/lastmile_qr_scan", "ios": "https://dc.lft.to/lastmile_qr_scan"}, "fusion_lon": 0.0}, {"lat": 38.9022165, "is_disabled": 0, "type": "electric_scooter", "lon": -77.01632716666667, "bike_id": "ae045ff82a55ddbbe508a4450edcddc5", "fusion_lat": 0.0, "name": "ae045ff82a55ddbbe508a4450edcddc5", "is_reserved": 0, "rental_uris": {"android": "https://dc.lft.to/lastmile_qr_scan", "ios": "https://dc.lft.to/lastmile_qr_scan"}, "fusion_lon": 0.0}, {"lat": 38.842916, "is_disabled": 0, "type": "electric_scooter", "lon": -76.999503, "bike_id": "e991d54f69ca309314f924f488e1ad31", "fusion_lat": 0.0, "name": "e991d54f69ca309314f924f488e1ad31", "is_reserved": 0, "rental_uris": {"android": "https://dc.lft.to/lastmile_qr_scan", "ios": "https://dc.lft.to/lastmile_qr_scan"}, "fusion_lon": 0.0}, {"lat": 38.9555675, "is_disabled": 0, "type": "electric_bike", "lon": -76.93545333333333, "bike_id": "cc2139fabe8f2f87c440881cc9b3893a", "fusion_lat": 0.0, "name": "cc2139fabe8f2f87c440881cc9b3893a", "is_reserved": 0, "rental_uris": {"android": "https://dc.lft.to/lastmile_qr_scan", "ios": "https://dc.lft.to/lastmile_qr_scan"}, "fusion_lon": 0.0}, {"lat": 38.9007255, "is_disabled": 0, "type": "electric_scooter", "lon": -77.025931, "bike_id": "f44a2f7f83533015d138cdf2b0b465cd", "fusion_lat": 0.0, "name": "f44a2f7f83533015d138cdf2b0b465cd", "is_reserved": 0, "rental_uris": {"android": "https://dc.lft.to/lastmile_qr_scan", "ios": "https://dc.lft.to/lastmile_qr_scan"}, "fusion_lon": 0.0}, {"lat": 39.05204616666666, "is_disabled": 0, "type": "electric_bike", "lon": -77.10922416666666, "bike_id": "64937e777f79540fbf6cf3041a591617", "fusion_lat": 0.0, "name": "64937e777f79540fbf6cf3041a591617", "is_reserved": 0, "rental_uris": {"android": "https://dc.lft.to/lastmile_qr_scan", "ios": "https://dc.lft.to/lastmile_qr_scan"}, "fusion_lon": 0.0}, {"lat": 38.91751083333333, "is_disabled": 0, "type": "electric_scooter", "lon": -77.03661083333333, "bike_id": "450b95ec317d3578ef309c9e537138b8", "fusion_lat": 0.0, "name": "450b95ec317d3578ef309c9e537138b8", "is_reserved": 0, "rental_uris": {"android": "https://dc.lft.to/lastmile_qr_scan", "ios": "https://dc.lft.to/lastmile_qr_scan"}, "fusion_lon": 0.0}, {"lat": 38.892212666666666, "is_disabled": 0, "type": "electric_scooter", "lon": -77.04365416666667, "bike_id": "be1406f25b737fc69fa14b575a6d5b24", "fusion_lat": 0.0, "name": "be1406f25b737fc69fa14b575a6d5b24", "is_reserved": 0, "rental_uris": {"android": "https://dc.lft.to/lastmile_qr_scan", "ios": "https://dc.lft.to/lastmile_qr_scan"}, "fusion_lon": 0.0}, {"lat": 38.8900835, "is_disabled": 0, "type": "electric_scooter", "lon": -76.93754016666666, "bike_id": "f57046f4041d346ee1d22dfe0394001b", "fusion_lat": 0.0, "name": "f57046f4041d346ee1d22dfe0394001b", "is_reserved": 0, "rental_uris": {"android": "https://dc.lft.to/lastmile_qr_scan", "ios": "https://dc.lft.to/lastmile_qr_scan"}, "fusion_lon": 0.0}, {"lat": 38.90971166666667, "is_disabled": 0, "type": "electric_scooter", "lon": -77.04792283333333, "bike_id": "442a62670afd9ccb47a67f4f14a13473", "fusion_lat": 0.0, "name": "442a62670afd9ccb47a67f4f14a13473", "is_reserved": 0, "rental_uris": {"android": "https://dc.lft.to/lastmile_qr_scan", "ios": "https://dc.lft.to/lastmile_qr_scan"}, "fusion_lon": 0.0}, {"lat": 38.903853, "is_disabled": 0, "type": "electric_scooter", "lon": -77.05386, "bike_id": "bee887c06a413cd0fa41ec357e59b257", "fusion_lat": 0.0, "name": "bee887c06a413cd0fa41ec357e59b257", "is_reserved": 0, "rental_uris": {"android": "https://dc.lft.to/lastmile_qr_scan", "ios": "https://dc.lft.to/lastmile_qr_scan"}, "fusion_lon": 0.0}, {"lat": 38.92946833333333, "is_disabled": 0, "type": "electric_scooter", "lon": -77.01893316666667, "bike_id": "2ae265b68b491a30b157adb47f2fa619", "fusion_lat": 0.0, "name": "2ae265b68b491a30b157adb47f2fa619", "is_reserved": 0, "rental_uris": {"android": "https://dc.lft.to/lastmile_qr_scan", "ios": "https://dc.lft.to/lastmile_qr_scan"}, "fusion_lon": 0.0}, {"lat": 38.9001085, "is_disabled": 0, "type": "electric_scooter", "lon": -77.04465966666666, "bike_id": "45f9fb16f3dd20fb9d56fe7120ba1af6", "fusion_lat": 0.0, "name": "45f9fb16f3dd20fb9d56fe7120ba1af6", "is_reserved": 0, "rental_uris": {"android": "https://dc.lft.to/lastmile_qr_scan", "ios": "https://dc.lft.to/lastmile_qr_scan"}, "fusion_lon": 0.0}, {"lat": 38.908973833333334, "is_disabled": 0, "type": "electric_scooter", "lon": -77.03658116666666, "bike_id": "e0eb0a77fbb0e91b89f4b0b322f24563", "fusion_lat": 0.0, "name": "e0eb0a77fbb0e91b89f4b0b322f24563", "is_reserved": 0, "rental_uris": {"android": "https://dc.lft.to/lastmile_qr_scan", "ios": "https://dc.lft.to/lastmile_qr_scan"}, "fusion_lon": 0.0}, {"lat": 38.91974416666667, "is_disabled": 0, "type": "electric_scooter", "lon": -77.01352, "bike_id": "f91c81c27908e2652e3c518c15dab1d8", "fusion_lat": 0.0, "name": "f91c81c27908e2652e3c518c15dab1d8", "is_reserved": 0, "rental_uris": {"android": "https://dc.lft.to/lastmile_qr_scan", "ios": "https://dc.lft.to/lastmile_qr_scan"}, "fusion_lon": 0.0}, {"lat": 38.9154615, "is_disabled": 0, "type": "electric_scooter", "lon": -77.03243166666667, "bike_id": "14fd08236bfe8d39ae795538da3ae9e1", "fusion_lat": 0.0, "name": "14fd08236bfe8d39ae795538da3ae9e1", "is_reserved": 0, "rental_uris": {"android": "https://dc.lft.to/lastmile_qr_scan", "ios": "https://dc.lft.to/lastmile_qr_scan"}, "fusion_lon": 0.0}, {"lat": 38.91794066666667, "is_disabled": 0, "type": "electric_scooter", "lon": -77.02310033333333, "bike_id": "dcf2874123d27e5d84a18f66c8a2b7bd", "fusion_lat": 0.0, "name": "dcf2874123d27e5d84a18f66c8a2b7bd", "is_reserved": 0, "rental_uris": {"android": "https://dc.lft.to/lastmile_qr_scan", "ios": "https://dc.lft.to/lastmile_qr_scan"}, "fusion_lon": 0.0}, {"lat": 38.8977975, "is_disabled": 0, "type": "electric_scooter", "lon": -77.03010383333333, "bike_id": "fe8f72abda1b780454aa0dcc15d9455c", "fusion_lat": 0.0, "name": "fe8f72abda1b780454aa0dcc15d9455c", "is_reserved": 0, "rental_uris": {"android": "https://dc.lft.to/lastmile_qr_scan", "ios": "https://dc.lft.to/lastmile_qr_scan"}, "fusion_lon": 0.0}, {"lat": 38.89827983333333, "is_disabled": 0, "type": "electric_scooter", "lon": -77.04359466666666, "bike_id": "141788d3316547529d58b7f79f42b047", "fusion_lat": 0.0, "name": "141788d3316547529d58b7f79f42b047", "is_reserved": 0, "rental_uris": {"android": "https://dc.lft.to/lastmile_qr_scan", "ios": "https://dc.lft.to/lastmile_qr_scan"}, "fusion_lon": 0.0}, {"lat": 38.917288, "is_disabled": 0, "type": "electric_bike", "lon": -77.00799716666667, "bike_id": "f9c3baf5151b335f9fefad41a144c295", "fusion_lat": 0.0, "name": "f9c3baf5151b335f9fefad41a144c295", "is_reserved": 0, "rental_uris": {"android": "https://dc.lft.to/lastmile_qr_scan", "ios": "https://dc.lft.to/lastmile_qr_scan"}, "fusion_lon": 0.0}, {"lat": 38.896185833333334, "is_disabled": 0, "type": "electric_scooter", "lon": -76.99843133333333, "bike_id": "34af34f9e6fafda739d2f74d4667a778", "fusion_lat": 0.0, "name": "34af34f9e6fafda739d2f74d4667a778", "is_reserved": 0, "rental_uris": {"android": "https://dc.lft.to/lastmile_qr_scan", "ios": "https://dc.lft.to/lastmile_qr_scan"}, "fusion_lon": 0.0}, {"lat": 38.9019955, "is_disabled": 0, "type": "electric_scooter", "lon": -77.0236905, "bike_id": "4054323e9c0c1913b5261dd7caee2922", "fusion_lat": 0.0, "name": "4054323e9c0c1913b5261dd7caee2922", "is_reserved": 0, "rental_uris": {"android": "https://dc.lft.to/lastmile_qr_scan", "ios": "https://dc.lft.to/lastmile_qr_scan"}, "fusion_lon": 0.0}, {"lat": 38.89335483333333, "is_disabled": 0, "type": "electric_scooter", "lon": -76.92992166666667, "bike_id": "b7d1523cea6ec61494156dcbfbbcc5be", "fusion_lat": 0.0, "name": "b7d1523cea6ec61494156dcbfbbcc5be", "is_reserved": 0, "rental_uris": {"android": "https://dc.lft.to/lastmile_qr_scan", "ios": "https://dc.lft.to/lastmile_qr_scan"}, "fusion_lon": 0.0}, {"lat": 38.901013, "is_disabled": 0, "type": "electric_scooter", "lon": -77.0136725, "bike_id": "81c0ecd3ef117e3878f915fe84bd0067", "fusion_lat": 0.0, "name": "81c0ecd3ef117e3878f915fe84bd0067", "is_reserved": 0, "rental_uris": {"android": "https://dc.lft.to/lastmile_qr_scan", "ios": "https://dc.lft.to/lastmile_qr_scan"}, "fusion_lon": 0.0}, {"lat": 38.91804066666667, "is_disabled": 0, "type": "electric_scooter", "lon": -77.02689316666667, "bike_id": "e7bf6fbf37f5741834525e644d1e7e01", "fusion_lat": 0.0, "name": "e7bf6fbf37f5741834525e644d1e7e01", "is_reserved": 0, "rental_uris": {"android": "https://dc.lft.to/lastmile_qr_scan", "ios": "https://dc.lft.to/lastmile_qr_scan"}, "fusion_lon": 0.0}, {"lat": 38.9463895, "is_disabled": 0, "type": "electric_scooter", "lon": -77.01927116666667, "bike_id": "aea91af913804759a9a9a94c8ef0c9dc", "fusion_lat": 0.0, "name": "aea91af913804759a9a9a94c8ef0c9dc", "is_reserved": 0, "rental_uris": {"android": "https://dc.lft.to/lastmile_qr_scan", "ios": "https://dc.lft.to/lastmile_qr_scan"}, "fusion_lon": 0.0}, {"lat": 38.8762475, "is_disabled": 0, "type": "electric_scooter", "lon": -76.9652705, "bike_id": "aac4f70c0e513ddb17b61318a7c462ab", "fusion_lat": 0.0, "name": "aac4f70c0e513ddb17b61318a7c462ab", "is_reserved": 0, "rental_uris": {"android": "https://dc.lft.to/lastmile_qr_scan", "ios": "https://dc.lft.to/lastmile_qr_scan"}, "fusion_lon": 0.0}, {"lat": 38.90727483333333, "is_disabled": 0, "type": "electric_scooter", "lon": -77.0317475, "bike_id": "9b247eb0ce0ed4d3d3639ee45998b46b", "fusion_lat": 0.0, "name": "9b247eb0ce0ed4d3d3639ee45998b46b", "is_reserved": 0, "rental_uris": {"android": "https://dc.lft.to/lastmile_qr_scan", "ios": "https://dc.lft.to/lastmile_qr_scan"}, "fusion_lon": 0.0}, {"lat": 38.88927, "is_disabled": 0, "type": "electric_scooter", "lon": -77.0216865, "bike_id": "dda4e6491e31f6ff7ad2f18f9501b147", "fusion_lat": 0.0, "name": "dda4e6491e31f6ff7ad2f18f9501b147", "is_reserved": 0, "rental_uris": {"android": "https://dc.lft.to/lastmile_qr_scan", "ios": "https://dc.lft.to/lastmile_qr_scan"}, "fusion_lon": 0.0}, {"lat": 38.90310983333333, "is_disabled": 0, "type": "electric_scooter", "lon": -77.02048266666667, "bike_id": "04594c2723a141150ea0716e11097859", "fusion_lat": 0.0, "name": "04594c2723a141150ea0716e11097859", "is_reserved": 0, "rental_uris": {"android": "https://dc.lft.to/lastmile_qr_scan", "ios": "https://dc.lft.to/lastmile_qr_scan"}, "fusion_lon": 0.0}, {"lat": 39.034106, "is_disabled": 0, "type": "electric_bike", "lon": -77.04206983333333, "bike_id": "d5c9e0baa0ce7ece1c1964d6c1dd350b", "fusion_lat": 0.0, "name": "d5c9e0baa0ce7ece1c1964d6c1dd350b", "is_reserved": 0, "rental_uris": {"android": "https://dc.lft.to/lastmile_qr_scan", "ios": "https://dc.lft.to/lastmile_qr_scan"}, "fusion_lon": 0.0}, {"lat": 38.909636666666664, "is_disabled": 0, "type": "electric_scooter", "lon": -76.984705, "bike_id": "e10270fb65a2dd8c790d73e954fff461", "fusion_lat": 0.0, "name": "e10270fb65a2dd8c790d73e954fff461", "is_reserved": 0, "rental_uris": {"android": "https://dc.lft.to/lastmile_qr_scan", "ios": "https://dc.lft.to/lastmile_qr_scan"}, "fusion_lon": 0.0}, {"lat": 38.90962666666667, "is_disabled": 0, "type": "electric_scooter", "lon": -77.02373366666667, "bike_id": "960b7a21ebaf18248c6f125c1af8781a", "fusion_lat": 0.0, "name": "960b7a21ebaf18248c6f125c1af8781a", "is_reserved": 0, "rental_uris": {"android": "https://dc.lft.to/lastmile_qr_scan", "ios": "https://dc.lft.to/lastmile_qr_scan"}, "fusion_lon": 0.0}, {"lat": 38.897737166666666, "is_disabled": 0, "type": "electric_scooter", "lon": -77.02588033333333, "bike_id": "4740cc94d487c94885b4d3a258c87198", "fusion_lat": 0.0, "name": "4740cc94d487c94885b4d3a258c87198", "is_reserved": 0, "rental_uris": {"android": "https://dc.lft.to/lastmile_qr_scan", "ios": "https://dc.lft.to/lastmile_qr_scan"}, "fusion_lon": 0.0}, {"lat": 39.00382583333333, "is_disabled": 0, "type": "electric_bike", "lon": -77.01288, "bike_id": "e5a209ca58749a4331c68db8fc393c13", "fusion_lat": 0.0, "name": "e5a209ca58749a4331c68db8fc393c13", "is_reserved": 0, "rental_uris": {"android": "https://dc.lft.to/lastmile_qr_scan", "ios": "https://dc.lft.to/lastmile_qr_scan"}, "fusion_lon": 0.0}, {"lat": 38.918173333333336, "is_disabled": 0, "type": "electric_scooter", "lon": -77.02476133333333, "bike_id": "75338a24dfc5ad0401677aa22a5dd777", "fusion_lat": 0.0, "name": "75338a24dfc5ad0401677aa22a5dd777", "is_reserved": 0, "rental_uris": {"android": "https://dc.lft.to/lastmile_qr_scan", "ios": "https://dc.lft.to/lastmile_qr_scan"}, "fusion_lon": 0.0},