{"data": {"bikes": [{"is_disabled": 0, "fusion_lon": 0.0, "fusion_lat": 0.0, "lat": 38.929671666666664, "type": "electric_scooter", "lon": -77.036529, "bike_id": "1009980ff73d93f5c2fa1c33db13e01e", "rental_uris": {"android": "https://dc.lft.to/lastmile_qr_scan", "ios": "https://dc.lft.to/lastmile_qr_scan"}, "name": "1009980ff73d93f5c2fa1c33db13e01e", "is_reserved": 0}, {"is_disabled": 0, "fusion_lon": 0.0, "fusion_lat": 0.0, "lat": 38.90605266666667, "type": "electric_scooter", "lon": -77.04153966666667, "bike_id": "42ba0359cd990a8aad2b144df3af1266", "rental_uris": {"android": "https://dc.lft.to/lastmile_qr_scan", "ios": "https://dc.lft.to/lastmile_qr_scan"}, "name": "42ba0359cd990a8aad2b144df3af1266", "is_reserved": 0}, {"is_disabled": 0, "fusion_lon": 0.0, "fusion_lat": 0.0, "lat": 38.903830666666664, "type": "electric_scooter", "lon": -77.02984233333333, "bike_id": "20002afc3773c8df82c4f5a7373f406f", "rental_uris": {"android": "https://dc.lft.to/lastmile_qr_scan", "ios": "https://dc.lft.to/lastmile_qr_scan"}, "name": "20002afc3773c8df82c4f5a7373f406f", "is_reserved": 0}, {"is_disabled": 0, "fusion_lon": 0.0, "fusion_lat": 0.0, "lat": 38.8882425, "type": "electric_bike", "lon": -77.1274455, "bike_id": "6cec401bf506e4268a451d527b34b8ed", "rental_uris": {"android": "https://dc.lft.to/lastmile_qr_scan", "ios": "https://dc.lft.to/lastmile_qr_scan"}, "name": "6cec401bf506e4268a451d527b34b8ed", "is_reserved": 0}, {"is_disabled": 0, "fusion_lon": 0.0, "fusion_lat": 0.0, "lat": 38.9342935, "type": "electric_scooter", "lon": -77.03253983333333, "bike_id": "87f2f8a67b769381b1eba661ad8fa300", "rental_uris": {"android": "https://dc.lft.to/lastmile_qr_scan", "ios": "https://dc.lft.to/lastmile_qr_scan"}, "name": "87f2f8a67b769381b1eba661ad8fa300", "is_reserved": 0}, {"is_disabled": 0, "fusion_lon": 0.0, "fusion_lat": 0.0, "lat": 38.975729333333334, "type": "electric_bike", "lon": -76.96401883333333, "bike_id": "e982e913ce5cf874e5243a2f599a27c2", "rental_uris": {"android": "https://dc.lft.to/lastmile_qr_scan", "ios": "https://dc.lft.to/lastmile_qr_scan"}, "name": "e982e913ce5cf874e5243a2f599a27c2", "is_reserved": 0}, {"is_disabled": 0, "fusion_lon": 0.0, "fusion_lat": 0.0, "lat": 38.99091216666667, "type": "electric_bike", "lon": -76.874939, "bike_id": "d702e112a5b13e0d7350f2ec46c80ef2", "rental_uris": {"android": "https://dc.lft.to/lastmile_qr_scan", "ios": "https://dc.lft.to/lastmile_qr_scan"}, "name": "d702e112a5b13e0d7350f2ec46c80ef2", "is_reserved": 0}, {"is_disabled": 0, "fusion_lon": 0.0, "fusion_lat": 0.0, "lat": 38.88966633333333, "type": "electric_bike", "lon": -76.94865483333334, "bike_id": "6c0fc4630fc8e347b01fcd40d040d197", "rental_uris": {"android": "https://dc.lft.to/lastmile_qr_scan", "ios": "https://dc.lft.to/lastmile_qr_scan"}, "name": "6c0fc4630fc8e347b01fcd40d040d197", "is_reserved": 0}, {"is_disabled": 0, "fusion_lon": 0.0, "fusion_lat": 0.0, "lat": 38.9076925, "type": "electric_scooter", "lon": -77.0327315, "bike_id": "a30e4a18b30fd52a3588677eb85af15d", "rental_uris": {"android": "https://dc.lft.to/lastmile_qr_scan", "ios": "https://dc.lft.to/lastmile_qr_scan"}, "name": "a30e4a18b30fd52a3588677eb85af15d", "is_reserved": 0}, {"is_disabled": 0, "fusion_lon": 0.0, "fusion_lat": 0.0, "lat": 38.919458666666664, "type": "electric_scooter", "lon": -77.0233525, "bike_id": "8c55836973a80e5b717257fbf88def15", "rental_uris": {"android": "https://dc.lft.to/lastmile_qr_scan", "ios": "https://dc.lft.to/lastmile_qr_scan"}, "name": "8c55836973a80e5b717257fbf88def15", "is_reserved": 0}, {"is_disabled": 0, "fusion_lon": 0.0, "fusion_lat": 0.0, "lat": 38.99868983333333, "type": "electric_bike", "lon": -77.02871566666667, "bike_id": "a135baca05e5b4eed93cf0f4ac60555e", "rental_uris": {"android": "https://dc.lft.to/lastmile_qr_scan", "ios": "https://dc.lft.to/lastmile_qr_scan"}, "name": "a135baca05e5b4eed93cf0f4ac60555e", "is_reserved": 0}, {"is_disabled": 0, "fusion_lon": 0.0, "fusion_lat": 0.0, "lat": 38.858099833333334, "type": "electric_scooter", "lon": -76.98657616666667, "bike_id": "033c8f77be270e041874de864841c2c9", "rental_uris": {"android": "https://dc.lft.to/lastmile_qr_scan", "ios": "https://dc.lft.to/lastmile_qr_scan"}, "name": "033c8f77be270e041874de864841c2c9", "is_reserved": 0}, {"is_disabled": 0, "fusion_lon": 0.0, "fusion_lat": 0.0, "lat": 38.915821333333334, "type": "electric_scooter", "lon": -76.98108283333333, "bike_id": "bca6d045e2c8fe870165e55036c401c1", "rental_uris": {"android": "https://dc.lft.to/lastmile_qr_scan", "ios": "https://dc.lft.to/lastmile_qr_scan"}, "name": "bca6d045e2c8fe870165e55036c401c1", "is_reserved": 0}, {"is_disabled": 0, "fusion_lon": 0.0, "fusion_lat": 0.0, "lat": 38.92853516666667, "type": "electric_scooter", "lon": -77.01422033333333, "bike_id": "ad754ed2e21fdf0a5bc91038b4f0231f", "rental_uris": {"android": "https://dc.lft.to/lastmile_qr_scan", "ios": "https://dc.lft.to/lastmile_qr_scan"}, "name": "ad754ed2e21fdf0a5bc91038b4f0231f", "is_reserved": 0}, {"is_disabled": 0, "fusion_lon": 0.0, "fusion_lat": 0.0, "lat": 38.8460075, "type": "electric_bike", "lon": -76.9688005, "bike_id": "d3cf672bfb395ea8fa06a3bec085a43f", "rental_uris": {"android": "https://dc.lft.to/lastmile_qr_scan", "ios": "https://dc.lft.to/lastmile_qr_scan"}, "name": "d3cf672bfb395ea8fa06a3bec085a43f", "is_reserved": 0}, {"is_disabled": 0, "fusion_lon": 0.0, "fusion_lat": 0.0, "lat": 38.967609333333336, "type": "electric_bike", "lon": -77.091577, "bike_id": "f5a4453a3cad534159d2bd25983cc1dc", "rental_uris": {"android": "https://dc.lft.to/lastmile_qr_scan", "ios": "https://dc.lft.to/lastmile_qr_scan"}, "name": "f5a4453a3cad534159d2bd25983cc1dc", "is_reserved": 0}, {"is_disabled": 0, "fusion_lon": 0.0, "fusion_lat": 0.0, "lat": 38.924867, "type": "electric_scooter", "lon": -77.03493333333333, "bike_id": "202a85be1abe6a1c69cc014e0349cf6e", "rental_uris": {"android": "https://dc.lft.to/lastmile_qr_scan", "ios": "https://dc.lft.to/lastmile_qr_scan"}, "name": "202a85be1abe6a1c69cc014e0349cf6e", "is_reserved": 0}, {"is_disabled": 0, "fusion_lon": 0.0, "fusion_lat": 0.0, "lat": 38.86313033333333, "type": "electric_scooter", "lon": -76.9904485, "bike_id": "641ad5109ee962c8716eee789ea3b498", "rental_uris": {"android": "https://dc.lft.to/lastmile_qr_scan", "ios": "https://dc.lft.to/lastmile_qr_scan"}, "name": "641ad5109ee962c8716eee789ea3b498", "is_reserved": 0}, {"is_disabled": 0, "fusion_lon": 0.0, "fusion_lat": 0.0, "lat": 38.841985, "type": "electric_bike", "lon": -77.10682166666666, "bike_id": "e18345b8feb5d0c538fd4217d2afb948", "rental_uris": {"android": "https://dc.lft.to/lastmile_qr_scan", "ios": "https://dc.lft.to/lastmile_qr_scan"}, "name": "e18345b8feb5d0c538fd4217d2afb948", "is_reserved": 0}, {"is_disabled": 0, "fusion_lon": 0.0, "fusion_lat": 0.0, "lat": 38.8936905, "type": "electric_scooter", "lon": -77.02264033333333, "bike_id": "16a80e2a545fb011c6260f0b33419de2", "rental_uris": {"android": "https://dc.lft.to/lastmile_qr_scan", "ios": "https://dc.lft.to/lastmile_qr_scan"}, "name": "16a80e2a545fb011c6260f0b33419de2", "is_reserved": 0}, {"is_disabled": 0, "fusion_lon": 0.0, "fusion_lat": 0.0, "lat": 38.91708933333334, "type": "electric_scooter", "lon": -77.03470766666666, "bike_id": "ea50fb44a90e696d76eda86683f8cd14", "rental_uris": {"android": "https://dc.lft.to/lastmile_qr_scan", "ios": "https://dc.lft.to/lastmile_qr_scan"}, "name": "ea50fb44a90e696d76eda86683f8cd14", "is_reserved": 0}, {"is_disabled": 0, "fusion_lon": 0.0, "fusion_lat": 0.0, "lat": 38.914609166666665, "type": "electric_scooter", "lon": -76.98443416666667, "bike_id": "01f209a2bcda9c28816c6f42998daf66", "rental_uris": {"android": "https://dc.lft.to/lastmile_qr_scan", "ios": "https://dc.lft.to/lastmile_qr_scan"}, "name": "01f209a2bcda9c28816c6f42998daf66", "is_reserved": 0}, {"is_disabled": 0, "fusion_lon": 0.0, "fusion_lat": 0.0, "lat": 38.92117433333333, "type": "electric_scooter", "lon": -77.01772, "bike_id": "abb0b806f06a9cbaff4235b38cad2589", "rental_uris": {"android": "https://dc.lft.to/lastmile_qr_scan", "ios": "https://dc.lft.to/lastmile_qr_scan"}, "name": "abb0b806f06a9cbaff4235b38cad2589", "is_reserved": 0}, {"is_disabled": 0, "fusion_lon": 0.0, "fusion_lat": 0.0, "lat": 38.925756166666666, "type": "electric_scooter", "lon": -77.08050933333334, "bike_id": "e1338680f2970ce6678d9abdaa107cae", "rental_uris": {"android": "https://dc.lft.to/lastmile_qr_scan", "ios": "https://dc.lft.to/lastmile_qr_scan"}, "name": "e1338680f2970ce6678d9abdaa107cae", "is_reserved": 0}, {"is_disabled": 0, "fusion_lon": 0.0, "fusion_lat": 0.0, "lat": 38.853202833333334, "type": "electric_bike", "lon": -77.05333766666666, "bike_id": "2446abfa385aa3540241990fe4dbe9fd", "rental_uris": {"android": "https://dc.lft.to/lastmile_qr_scan", "ios": "https://dc.lft.to/lastmile_qr_scan"}, "name": "2446abfa385aa3540241990fe4dbe9fd", "is_reserved": 0}, {"is_disabled": 0, "fusion_lon": 0.0, "fusion_lat": 0.0, "lat": 38.93972516666667, "type": "electric_bike", "lon": -77.3609275, "bike_id": "122c20ca7ae8970749f31b3781d37a8d", "rental_uris": {"android": "https://dc.lft.to/lastmile_qr_scan", "ios": "https://dc.lft.to/lastmile_qr_scan"}, "name": "122c20ca7ae8970749f31b3781d37a8d", "is_reserved": 0}, {"is_disabled": 0, "fusion_lon": 0.0, "fusion_lat": 0.0, "lat": 38.92286166666667, "type": "electric_scooter", "lon": -77.04464933333334, "bike_id": "b33ecd0ccc9c8b88c3ebb15b2d146845", "rental_uris": {"android": "https://dc.lft.to/lastmile_qr_scan", "ios": "https://dc.lft.to/lastmile_qr_scan"}, "name": "b33ecd0ccc9c8b88c3ebb15b2d146845", "is_reserved": 0}, {"is_disabled": 0, "fusion_lon": 0.0, "fusion_lat": 0.0, "lat": 38.92461983333333, "type": "electric_scooter", "lon": -77.07865033333333, "bike_id": "458b5e9efbedee9092529c341ae639a0", "rental_uris": {"android": "https://dc.lft.to/lastmile_qr_scan", "ios": "https://dc.lft.to/lastmile_qr_scan"}, "name": "458b5e9efbedee9092529c341ae639a0", "is_reserved": 0}, {"is_disabled": 0, "fusion_lon": 0.0, "fusion_lat": 0.0, "lat": 38.9058045, "type": "electric_scooter", "lon": -77.05593733333333, "bike_id": "5768a76ad71df844bc4328fa407bb51b", "rental_uris": {"android": "https://dc.lft.to/lastmile_qr_scan", "ios": "https://dc.lft.to/lastmile_qr_scan"}, "name": "5768a76ad71df844bc4328fa407bb51b", "is_reserved": 0}, {"is_disabled": 0, "fusion_lon": 0.0, "fusion_lat": 0.0, "lat": 38.94080833333334, "type": "electric_scooter", "lon": -77.0288195, "bike_id": "f38795a5e3d22cbb01f523ed5ef29dbe", "rental_uris": {"android": "https://dc.lft.to/lastmile_qr_scan", "ios": "https://dc.lft.to/lastmile_qr_scan"}, "name": "f38795a5e3d22cbb01f523ed5ef29dbe", "is_reserved": 0}, {"is_disabled": 0, "fusion_lon": 0.0, "fusion_lat": 0.0, "lat": 38.877518, "type": "electric_bike", "lon": -76.9798705, "bike_id": "13334ba2443b3c2f8414d90fac5a768f", "rental_uris": {"android": "https://dc.lft.to/lastmile_qr_scan", "ios": "https://dc.lft.to/lastmile_qr_scan"}, "name": "13334ba2443b3c2f8414d90fac5a768f", "is_reserved": 0}, {"is_disabled": 0, "fusion_lon": 0.0, "fusion_lat": 0.0, "lat": 38.902870166666666, "type": "electric_scooter", "lon": -77.04899333333333, "bike_id": "c473484f85a888582dab669415056d05", "rental_uris": {"android": "https://dc.lft.to/lastmile_qr_scan", "ios": "https://dc.lft.to/lastmile_qr_scan"}, "name": "c473484f85a888582dab669415056d05", "is_reserved": 0}, {"is_disabled": 0, "fusion_lon": 0.0, "fusion_lat": 0.0, "lat": 38.895254, "type": "electric_scooter", "lon": -77.0485605, "bike_id": "aac3d3e315f8d0bd6d5967ef4d72cb83", "rental_uris": {"android": "https://dc.lft.to/lastmile_qr_scan", "ios": "https://dc.lft.to/lastmile_qr_scan"}, "name": "aac3d3e315f8d0bd6d5967ef4d72cb83", "is_reserved": 0}, {"is_disabled": 0, "fusion_lon": 0.0, "fusion_lat": 0.0, "lat": 38.8974005, "type": "electric_scooter", "lon": -77.00321366666667, "bike_id": "b59d38733d0ff9433a61f72954798763", "rental_uris": {"android": "https://dc.lft.to/lastmile_qr_scan", "ios": "https://dc.lft.to/lastmile_qr_scan"}, "name": "b59d38733d0ff9433a61f72954798763", "is_reserved": 0}, {"is_disabled": 0, "fusion_lon": 0.0, "fusion_lat": 0.0, "lat": 38.92749166666667, "type": "electric_scooter", "lon": -77.02486483333334, "bike_id": "4f96f195836d8510b433b65d31395268", "rental_uris": {"android": "https://dc.lft.to/lastmile_qr_scan", "ios": "https://dc.lft.to/lastmile_qr_scan"}, "name": "4f96f195836d8510b433b65d31395268", "is_reserved": 0}, {"is_disabled": 0, "fusion_lon": 0.0, "fusion_lat": 0.0, "lat": 38.93099516666667, "type": "electric_scooter", "lon": -77.02502466666667, "bike_id": "80a72c74a2bc1ebe852d8aa7c6086b2b", "rental_uris": {"android": "https://dc.lft.to/lastmile_qr_scan", "ios": "https://dc.lft.to/lastmile_qr_scan"}, "name": "80a72c74a2bc1ebe852d8aa7c6086b2b", "is_reserved": 0}, {"is_disabled": 0, "fusion_lon": 0.0, "fusion_lat": 0.0, "lat": 38.90877366666667, "type": "electric_scooter", "lon": -77.076386, "bike_id": "15baa96b76cc425fc99b8eed4323c7a5", "rental_uris": {"android": "https://dc.lft.to/lastmile_qr_scan", "ios": "https://dc.lft.to/lastmile_qr_scan"}, "name": "15baa96b76cc425fc99b8eed4323c7a5", "is_reserved": 0}, {"is_disabled": 0, "fusion_lon": 0.0, "fusion_lat": 0.0, "lat": 38.91840333333333, "type": "electric_scooter", "lon": -77.0351745, "bike_id": "7d9431a4a7ac69c4292028bfd0177cc9", "rental_uris": {"android": "https://dc.lft.to/lastmile_qr_scan", "ios": "https://dc.lft.to/lastmile_qr_scan"}, "name": "7d9431a4a7ac69c4292028bfd0177cc9", "is_reserved": 0}, {"is_disabled": 0, "fusion_lon": 0.0, "fusion_lat": 0.0, "lat": 38.996700833333335, "type": "electric_bike", "lon": -76.99142833333333, "bike_id": "45170c3d50530c81c60fe06ad64c2a4d", "rental_uris": {"android": "https://dc.lft.to/lastmile_qr_scan", "ios": "https://dc.lft.to/lastmile_qr_scan"}, "name": "45170c3d50530c81c60fe06ad64c2a4d", "is_reserved": 0}, {"is_disabled": 0, "fusion_lon": 0.0, "fusion_lat": 0.0, "lat": 38.896586166666665, "type": "electric_scooter", "lon": -77.04327116666667, "bike_id": "a1b28ccce3ecee3c307fdbf7c789f9c2", "rental_uris": {"android": "https://dc.lft.to/lastmile_qr_scan", "ios": "https://dc.lft.to/lastmile_qr_scan"}, "name": "a1b28ccce3ecee3c307fdbf7c789f9c2", "is_reserved": 0}, {"is_disabled": 0, "fusion_lon": 0.0, "fusion_lat": 0.0, "lat": 38.875327666666664, "type": "electric_scooter", "lon": -77.0137715, "bike_id": "157b07bded0576f9c5884f93b8168f16", "rental_uris": {"android": "https://dc.lft.to/lastmile_qr_scan", "ios": "https://dc.lft.to/lastmile_qr_scan"}, "name": "157b07bded0576f9c5884f93b8168f16", "is_reserved": 0}, {"is_disabled": 0, "fusion_lon": 0.0, "fusion_lat": 0.0, "lat": 38.9262505, "type": "electric_scooter", "lon": -77.04187033333334, "bike_id": "675f3fa179baeabbfe27b3cf84fdfda0", "rental_uris": {"android": "https://dc.lft.to/lastmile_qr_scan", "ios": "https://dc.lft.to/lastmile_qr_scan"}, "name": "675f3fa179baeabbfe27b3cf84fdfda0", "is_reserved": 0}, {"is_disabled": 0, "fusion_lon": 0.0, "fusion_lat": 0.0, "lat": 38.944539666666664, "type": "electric_scooter", "lon": -77.06024283333333, "bike_id": "60e58544e479e6003f3bb3ab2614c1af", "rental_uris": {"android": "https://dc.lft.to/lastmile_qr_scan", "ios": "https://dc.lft.to/lastmile_qr_scan"}, "name": "60e58544e479e6003f3bb3ab2614c1af", "is_reserved": 0}, {"is_disabled": 0, "fusion_lon": 0.0, "fusion_lat": 0.0, "lat": 38.90528366666667, "type": "electric_scooter", "lon": -77.02679966666666, "bike_id": "a4f18a7e1859ac136295f8266bb95eec", "rental_uris": {"android": "https://dc.lft.to/lastmile_qr_scan", "ios": "https://dc.lft.to/lastmile_qr_scan"}, "name": "a4f18a7e1859ac136295f8266bb95eec", "is_reserved": 0}, {"is_disabled": 0, "fusion_lon": 0.0, "fusion_lat": 0.0, "lat": 38.933563166666666, "type": "electric_scooter", "lon": -77.07381033333333, "bike_id": "6ba18ba032b82b68fac4f6f535ba62bf", "rental_uris": {"android": "https://dc.lft.to/lastmile_qr_scan", "ios": "https://dc.lft.to/lastmile_qr_scan"}, "name": "6ba18ba032b82b68fac4f6f535ba62bf", "is_reserved": 0}, {"is_disabled": 0, "fusion_lon": 0.0, "fusion_lat": 0.0, "lat": 38.935385, "type": "electric_scooter", "lon": -77.03410783333334, "bike_id": "cf5d2a6f2c37c606a8b1735fae068961", "rental_uris": {"android": "https://dc.lft.to/lastmile_qr_scan", "ios": "https://dc.lft.to/lastmile_qr_scan"}, "name": "cf5d2a6f2c37c606a8b1735fae068961", "is_reserved": 0}, {"is_disabled": 0, "fusion_lon": 0.0, "fusion_lat": 0.0, "lat": 38.930522333333336, "type": "electric_scooter", "lon": -76.99635516666666, "bike_id": "af2bcd8d704a1880d98184702ce741a0", "rental_uris": {"android": "https://dc.lft.to/lastmile_qr_scan", "ios": "https://dc.lft.to/lastmile_qr_scan"}, "name": "af2bcd8d704a1880d98184702ce741a0", "is_reserved": 0}, {"is_disabled": 0, "fusion_lon": 0.0, "fusion_lat": 0.0, "lat": 38.9225735, "type": "electric_scooter", "lon": -77.0713025, "bike_id": "1251999e591e61c59fa00e0333edf732", "rental_uris": {"android": "https://dc.lft.to/lastmile_qr_scan", "ios": "https://dc.lft.to/lastmile_qr_scan"}, "name": "1251999e591e61c59fa00e0333edf732", "is_reserved": 0}, {"is_disabled": 0, "fusion_lon": 0.0, "fusion_lat": 0.0, "lat": 38.911505, "type": "electric_scooter", "lon": -76.98503533333333, "bike_id": "e1e655a65a60e64923839e0425cd3620", "rental_uris": {"android": "https://dc.lft.to/lastmile_qr_scan", "ios": "https://dc.lft.to/lastmile_qr_scan"}, "name": "e1e655a65a60e64923839e0425cd3620", "is_reserved": 0}, {"is_disabled": 0, "fusion_lon": 0.0, "fusion_lat": 0.0, "lat": 38.90477283333333, "type": "electric_scooter", "lon": -76.99210933333333, "bike_id": "b8dd03926463e205edb6b31ec9feaed6", "rental_uris": {"android": "https://dc.lft.to/lastmile_qr_scan", "ios": "https://dc.lft.to/lastmile_qr_scan"}, "name": "b8dd03926463e205edb6b31ec9feaed6", "is_reserved": 0}, {"is_disabled": 0, "fusion_lon": 0.0, "fusion_lat": 0.0, "lat": 38.869533833333335, "type": "electric_scooter", "lon": -76.97935366666667, "bike_id": "c7e7a6ff765719ae3516e84cc8567f3a", "rental_uris": {"android": "https://dc.lft.to/lastmile_qr_scan", "ios": "https://dc.lft.to/lastmile_qr_scan"}, "name": "c7e7a6ff765719ae3516e84cc8567f3a", "is_reserved": 0}, {"is_disabled": 0, "fusion_lon": 0.0, "fusion_lat": 0.0, "lat": 38.925534, "type": "electric_scooter", "lon": -77.02561716666666, "bike_id": "62d2a0a36af010783a9e29470c5f244c", "rental_uris": {"android": "https://dc.lft.to/lastmile_qr_scan", "ios": "https://dc.lft.to/lastmile_qr_scan"}, "name": "62d2a0a36af010783a9e29470c5f244c", "is_reserved": 0}, {"is_disabled": 0, "fusion_lon": 0.0, "fusion_lat": 0.0, "lat": 38.918079, "type": "electric_scooter", "lon": -77.0239665, "bike_id": "ca2e80ebb62179e68b99f10365b10a5e", "rental_uris": {"android": "https://dc.lft.to/lastmile_qr_scan", "ios": "https://dc.lft.to/lastmile_qr_scan"}, "name": "ca2e80ebb62179e68b99f10365b10a5e", "is_reserved": 0}, {"is_disabled": 0, "fusion_lon": 0.0, "fusion_lat": 0.0, "lat": 38.90659333333333, "type": "electric_scooter", "lon": -77.0269215, "bike_id": "2fb0719e0031d4dd78d6b8484b3ad098", "rental_uris": {"android": "https://dc.lft.to/lastmile_qr_scan", "ios": "https://dc.lft.to/lastmile_qr_scan"}, "name": "2fb0719e0031d4dd78d6b8484b3ad098", "is_reserved": 0}, {"is_disabled": 0, "fusion_lon": 0.0, "fusion_lat": 0.0, "lat": 38.928240833333334, "type": "electric_scooter", "lon": -77.0225505, "bike_id": "37b5a46790292b5cb2f0a555f0eff934", "rental_uris": {"android": "https://dc.lft.to/lastmile_qr_scan", "ios": "https://dc.lft.to/lastmile_qr_scan"}, "name": "37b5a46790292b5cb2f0a555f0eff934", "is_reserved": 0}, {"is_disabled": 0, "fusion_lon": 0.0, "fusion_lat": 0.0, "lat": 38.9291055, "type": "electric_scooter", "lon": -77.02269266666667, "bike_id": "9ca8547263425724871991f21dd45fb8", "rental_uris": {"android": "https://dc.lft.to/lastmile_qr_scan", "ios": "https://dc.lft.to/lastmile_qr_scan"}, "name": "9ca8547263425724871991f21dd45fb8", "is_reserved": 0}, {"is_disabled": 0, "fusion_lon": 0.0, "fusion_lat": 0.0, "lat": 38.90417033333333, "type": "electric_scooter", "lon": -76.98547316666667, "bike_id": "989d959e4e3dd3485ef4c272ffd36009", "rental_uris": {"android": "https://dc.lft.to/lastmile_qr_scan", "ios": "https://dc.lft.to/lastmile_qr_scan"}, "name": "989d959e4e3dd3485ef4c272ffd36009", "is_reserved": 0}, {"is_disabled": 0, "fusion_lon": 0.0, "fusion_lat": 0.0, "lat": 38.9187425, "type": "electric_bike", "lon": -76.96088666666667, "bike_id": "03a53c3319726c4de85b6dbe827aad18", "rental_uris": {"android": "https://dc.lft.to/lastmile_qr_scan", "ios": "https://dc.lft.to/lastmile_qr_scan"}, "name": "03a53c3319726c4de85b6dbe827aad18", "is_reserved": 0}, {"is_disabled": 0, "fusion_lon": 0.0, "fusion_lat": 0.0, "lat": 38.937048833333336, "type": "electric_scooter", "lon": -77.0610385, "bike_id": "da8a59936eac9b694aacbf3dca0cc70a", "rental_uris": {"android": "https://dc.lft.to/lastmile_qr_scan", "ios": "https://dc.lft.to/lastmile_qr_scan"}, "name": "da8a59936eac9b694aacbf3dca0cc70a", "is_reserved": 0}, {"is_disabled": 0, "fusion_lon": 0.0, "fusion_lat": 0.0, "lat": 38.9068515, "type": "electric_scooter", "lon": -77.06303183333333, "bike_id": "1f1e6c824dd8635acd5902ced556d06f", "rental_uris": {"android": "https://dc.lft.to/lastmile_qr_scan", "ios": "https://dc.lft.to/lastmile_qr_scan"}, "name": "1f1e6c824dd8635acd5902ced556d06f", "is_reserved": 0}, {"is_disabled": 0, "fusion_lon": 0.0, "fusion_lat": 0.0, "lat": 38.938288166666666, "type": "electric_scooter", "lon": -77.02797233333334, "bike_id": "a53d877facafa074755a6c2de25d02f6", "rental_uris": {"android": "https://dc.lft.to/lastmile_qr_scan", "ios": "https://dc.lft.to/lastmile_qr_scan"}, "name": "a53d877facafa074755a6c2de25d02f6", "is_reserved": 0}, {"is_disabled": 0, "fusion_lon": 0.0, "fusion_lat": 0.0, "lat": 38.919060333333334, "type": "electric_scooter", "lon": -77.02753616666666, "bike_id": "4f7561e743164cd83107ca1b7b565b9f", "rental_uris": {"android": "https://dc.lft.to/lastmile_qr_scan", "ios": "https://dc.lft.to/lastmile_qr_scan"}, "name": "4f7561e743164cd83107ca1b7b565b9f", "is_reserved": 0}, {"is_disabled": 0, "fusion_lon": 0.0, "fusion_lat": 0.0, "lat": 38.91799066666667, "type": "electric_scooter", "lon": -77.03546216666666, "bike_id": "3e8af8e803ff28dfb60f75458705ea87", "rental_uris": {"android": "https://dc.lft.to/lastmile_qr_scan", "ios": "https://dc.lft.to/lastmile_qr_scan"}, "name": "3e8af8e803ff28dfb60f75458705ea87", "is_reserved": 0}, {"is_disabled": 0, "fusion_lon": 0.0, "fusion_lat": 0.0, "lat": 38.92794633333333, "type": "electric_scooter", "lon": -77.022976, "bike_id": "13708de7f7e87a9ac8044910b36d4082", "rental_uris": {"android": "https://dc.lft.to/lastmile_qr_scan", "ios": "https://dc.lft.to/lastmile_qr_scan"}, "name": "13708de7f7e87a9ac8044910b36d4082", "is_reserved": 0}, {"is_disabled": 0, "fusion_lon": 0.0, "fusion_lat": 0.0, "lat": 38.9051125, "type": "electric_scooter", "lon": -77.02943616666667, "bike_id": "8b3265247762f1dea1498e9421de17df", "rental_uris": {"android": "https://dc.lft.to/lastmile_qr_scan", "ios": "https://dc.lft.to/lastmile_qr_scan"}, "name": "8b3265247762f1dea1498e9421de17df", "is_reserved": 0}, {"is_disabled": 0, "fusion_lon": 0.0, "fusion_lat": 0.0, "lat": 38.93750333333333, "type": "electric_scooter", "lon": -77.02461233333334, "bike_id": "33c5848550f4288f0bf37a93944b455c", "rental_uris": {"android": "https://dc.lft.to/lastmile_qr_scan", "ios": "https://dc.lft.to/lastmile_qr_scan"}, "name": "33c5848550f4288f0bf37a93944b455c", "is_reserved": 0}, {"is_disabled": 0, "fusion_lon": 0.0, "fusion_lat": 0.0, "lat": 38.927369166666665, "type": "electric_bike", "lon": -76.99367733333334, "bike_id": "05328fea01c174ef9d9a139f97917e13", "rental_uris": {"android": "https://dc.lft.to/lastmile_qr_scan", "ios": "https://dc.lft.to/lastmile_qr_scan"}, "name": "05328fea01c174ef9d9a139f97917e13", "is_reserved": 0}, {"is_disabled": 0, "fusion_lon": 0.0, "fusion_lat": 0.0, "lat": 38.90248916666667, "type": "electric_scooter", "lon": -77.03435983333334, "bike_id": "9f3f0027ae3011364aee828c30f97571", "rental_uris": {"android": "https://dc.lft.to/lastmile_qr_scan", "ios": "https://dc.lft.to/lastmile_qr_scan"}, "name": "9f3f0027ae3011364aee828c30f97571", "is_reserved": 0}, {"is_disabled": 0, "fusion_lon": 0.0, "fusion_lat": 0.0, "lat": 38.95637766666667, "type": "electric_scooter", "lon": -77.02985383333333, "bike_id": "5358368e41ddfa6765217c3b6df48e15", "rental_uris": {"android": "https://dc.lft.to/lastmile_qr_scan", "ios": "https://dc.lft.to/lastmile_qr_scan"}, "name": "5358368e41ddfa6765217c3b6df48e15", "is_reserved": 0}, {"is_disabled": 0, "fusion_lon": 0.0, "fusion_lat": 0.0, "lat": 38.881607833333334, "type": "electric_scooter", "lon": -77.0087565, "bike_id": "2a25da3d4c3216ed56df4f53d629ef1e", "rental_uris": {"android": "https://dc.lft.to/lastmile_qr_scan", "ios": "https://dc.lft.to/lastmile_qr_scan"}, "name": "2a25da3d4c3216ed56df4f53d629ef1e", "is_reserved": 0}, {"is_disabled": 0, "fusion_lon": 0.0, "fusion_lat": 0.0, "lat": 38.8506755, "type": "electric_bike", "lon": -76.97331383333334, "bike_id": "8af94bd833405b0393cd0eb00e786aab", "rental_uris": {"android": "https://dc.lft.to/lastmile_qr_scan", "ios": "https://dc.lft.to/lastmile_qr_scan"}, "name": "8af94bd833405b0393cd0eb00e786aab", "is_reserved": 0}, {"is_disabled": 0, "fusion_lon": 0.0, "fusion_lat": 0.0, "lat": 38.85976566666667, "type": "electric_scooter", "lon": -76.98414433333333, "bike_id": "161c9d30a8ac4a46d4e0483867516c16", "rental_uris": {"android": "https://dc.lft.to/lastmile_qr_scan", "ios": "https://dc.lft.to/lastmile_qr_scan"}, "name": "161c9d30a8ac4a46d4e0483867516c16", "is_reserved": 0}, {"is_disabled": 0, "fusion_lon": 0.0, "fusion_lat": 0.0, "lat": 38.89505366666667, "type": "electric_scooter", "lon": -77.0107685, "bike_id": "d5630fad37c482bdcef70c324dc4da7c", "rental_uris": {"android": "https://dc.lft.to/lastmile_qr_scan", "ios": "https://dc.lft.to/lastmile_qr_scan"}, "name": "d5630fad37c482bdcef70c324dc4da7c", "is_reserved": 0}, {"is_disabled": 0, "fusion_lon": 0.0, "fusion_lat": 0.0, "lat": 38.83933616666667, "type": "electric_bike", "lon": -77.07897516666667, "bike_id": "8e0fcc39706d5c9fd906ebe2e1c6c6d7", "rental_uris": {"android": "https://dc.lft.to/lastmile_qr_scan", "ios": "https://dc.lft.to/lastmile_qr_scan"}, "name": "8e0fcc39706d5c9fd906ebe2e1c6c6d7", "is_reserved": 0}, {"is_disabled": 0, "fusion_lon": 0.0, "fusion_lat": 0.0, "lat": 38.897540666666664, "type": "electric_scooter", "lon": -77.010038, "bike_id": "b2eb8944968e73143fd4c1d891f8e89a", "rental_uris": {"android": "https://dc.lft.to/lastmile_qr_scan", "ios": "https://dc.lft.to/lastmile_qr_scan"}, "name": "b2eb8944968e73143fd4c1d891f8e89a", "is_reserved": 0}, {"is_disabled": 0, "fusion_lon": 0.0, "fusion_lat": 0.0, "lat": 38.9175625, "type": "electric_scooter", "lon": -77.04740316666667, "bike_id": "4b38b27bcc6f046e20dbfbcde4d87b4a", "rental_uris": {"android": "https://dc.lft.to/lastmile_qr_scan", "ios": "https://dc.lft.to/lastmile_qr_scan"}, "name": "4b38b27bcc6f046e20dbfbcde4d87b4a", "is_reserved": 0}, {"is_disabled": 0, "fusion_lon": 0.0, "fusion_lat": 0.0, "lat": 38.934656333333336, "type": "electric_scooter", "lon": -77.06872283333334, "bike_id": "1e8397353c12585dd126f63e14876a3a", "rental_uris": {"android": "https://dc.lft.to/lastmile_qr_scan", "ios": "https://dc.lft.to/lastmile_qr_scan"}, "name": "1e8397353c12585dd126f63e14876a3a", "is_reserved": 0}, {"is_disabled": 0, "fusion_lon": 0.0, "fusion_lat": 0.0, "lat": 38.89427633333333, "type": "electric_scooter", "lon": -77.01095833333333, "bike_id": "4d132e8ef6388212014e8d3172255920", "rental_uris": {"android": "https://dc.lft.to/lastmile_qr_scan", "ios": "https://dc.lft.to/lastmile_qr_scan"}, "name": "4d132e8ef6388212014e8d3172255920", "is_reserved": 0}, {"is_disabled": 0, "fusion_lon": 0.0, "fusion_lat": 0.0, "lat": 38.91922533333333, "type": "electric_scooter", "lon": -77.0339215, "bike_id": "aa49f9e1afb422fd8350f6f4686cc46e", "rental_uris": {"android": "https://dc.lft.to/lastmile_qr_scan", "ios": "https://dc.lft.to/lastmile_qr_scan"}, "name": "aa49f9e1afb422fd8350f6f4686cc46e", "is_reserved": 0}, {"is_disabled": 0, "fusion_lon": 0.0, "fusion_lat": 0.0, "lat": 38.90373866666667, "type": "electric_scooter", "lon": -77.01636866666666, "bike_id": "e42ff9f802a1e3971d08a2e23038e94b", "rental_uris": {"android": "https://dc.lft.to/lastmile_qr_scan", "ios": "https://dc.lft.to/lastmile_qr_scan"}, "name": "e42ff9f802a1e3971d08a2e23038e94b", "is_reserved": 0}, {"is_disabled": 0, "fusion_lon": 0.0, "fusion_lat": 0.0, "lat": 38.972628, "type": "electric_bike", "lon": -76.99167333333334, "bike_id": "6657252e532d3282356f8b6ce3e1d763", "rental_uris": {"android": "https://dc.lft.to/lastmile_qr_scan", "ios": "https://dc.lft.to/lastmile_qr_scan"}, "name": "6657252e532d3282356f8b6ce3e1d763", "is_reserved": 0}, {"is_disabled": 0, "fusion_lon": 0.0, "fusion_lat": 0.0, "lat": 38.852054833333334, "type": "electric_bike", "lon": -77.10128416666667, "bike_id": "fc1cba601b751870b17be1d7b758ad3d", "rental_uris": {"android": "https://dc.lft.to/lastmile_qr_scan", "ios": "https://dc.lft.to/lastmile_qr_scan"}, "name": "fc1cba601b751870b17be1d7b758ad3d", "is_reserved": 0}, {"is_disabled": 0, "fusion_lon": 0.0, "fusion_lat": 0.0, "lat": 38.908622666666666, "type": "electric_scooter", "lon": -77.0354805, "bike_id": "a53cf09207dff1bba579829882917e94", "rental_uris": {"android": "https://dc.lft.to/lastmile_qr_scan", "ios": "https://dc.lft.to/lastmile_qr_scan"}, "name": "a53cf09207dff1bba579829882917e94", "is_reserved": 0}, {"is_disabled": 0, "fusion_lon": 0.0, "fusion_lat": 0.0, "lat": 38.876203333333336, "type": "electric_scooter", "lon": -76.965422, "bike_id": "32d727e837fd4f01e5d00e78faec4c4c", "rental_uris": {"android": "https://dc.lft.to/lastmile_qr_scan", "ios": "https://dc.lft.to/lastmile_qr_scan"}, "name": "32d727e837fd4f01e5d00e78faec4c4c", "is_reserved": 0}, {"is_disabled": 0, "fusion_lon": 0.0, "fusion_lat": 0.0, "lat": 38.920026166666666, "type": "electric_scooter", "lon": -76.98493083333334, "bike_id": "d53efbf0dc122c73ab3e0ed17b9ea9b9", "rental_uris": {"android": "https://dc.lft.to/lastmile_qr_scan", "ios": "https://dc.lft.to/lastmile_qr_scan"}, "name": "d53efbf0dc122c73ab3e0ed17b9ea9b9", "is_reserved": 0}, {"is_disabled": 0, "fusion_lon": 0.0, "fusion_lat": 0.0, "lat": 38.919138, "type": "electric_scooter", "lon": -77.0480925, "bike_id": "63c79fcc4a2105efa6d76346e285c69f", "rental_uris": {"android": "https://dc.lft.to/lastmile_qr_scan", "ios": "https://dc.lft.to/lastmile_qr_scan"}, "name": "63c79fcc4a2105efa6d76346e285c69f", "is_reserved": 0}, {"is_disabled": 0, "fusion_lon": 0.0, "fusion_lat": 0.0, "lat": 38.92332783333333, "type": "electric_scooter", "lon": -77.03590466666667, "bike_id": "9d6f4480d91040359c769edc27f048da", "rental_uris": {"android": "https://dc.lft.to/lastmile_qr_scan", "ios": "https://dc.lft.to/lastmile_qr_scan"}, "name": "9d6f4480d91040359c769edc27f048da", "is_reserved": 0}, {"is_disabled": 0, "fusion_lon": 0.0, "fusion_lat": 0.0, "lat": 38.9167255, "type": "electric_scooter", "lon": -77.0385955, "bike_id": "298590899024f8aeadd78e1f800c2c0e", "rental_uris": {"android": "https://dc.lft.to/lastmile_qr_scan", "ios": "https://dc.lft.to/lastmile_qr_scan"}, "name": "298590899024f8aeadd78e1f800c2c0e", "is_reserved": 0}, {"is_disabled": 0, "fusion_lon": 0.0, "fusion_lat": 0.0, "lat": 38.9055435, "type": "electric_scooter", "lon": -77.00553266666667, "bike_id": "8140080a67d154fc04024707effd726b", "rental_uris": {"android": "https://dc.lft.to/lastmile_qr_scan", "ios": "https://dc.lft.to/lastmile_qr_scan"}, "name": "8140080a67d154fc04024707effd726b", "is_reserved": 0}, {"is_disabled": 0, "fusion_lon": 0.0, "fusion_lat": 0.0, "lat": 38.906457, "type": "electric_scooter", "lon": -77.0452985, "bike_id": "2abe1f87bc503cfbc1b734b4fa591e2c", "rental_uris": {"android": "https://dc.lft.to/lastmile_qr_scan", "ios": "https://dc.lft.to/lastmile_qr_scan"}, "name": "2abe1f87bc503cfbc1b734b4fa591e2c", "is_reserved": 0}, {"is_disabled": 0, "fusion_lon": 0.0, "fusion_lat": 0.0, "lat": 38.919244666666664, "type": "electric_scooter", "lon": -77.03101083333334, "bike_id": "3786b6d05017957a56d60ef0811b2453", "rental_uris": {"android": "https://dc.lft.to/lastmile_qr_scan", "ios": "https://dc.lft.to/lastmile_qr_scan"}, "name": "3786b6d05017957a56d60ef0811b2453", "is_reserved": 0}, {"is_disabled": 0, "fusion_lon": 0.0, "fusion_lat": 0.0, "lat": 39.007834833333334, "type": "electric_bike", "lon": -76.99563433333333, "bike_id": "9798e968e9cad9a54dd49c8eef2ba6c9", "rental_uris": {"android": "https://dc.lft.to/lastmile_qr_scan", "ios": "https://dc.lft.to/lastmile_qr_scan"}, "name": "9798e968e9cad9a54dd49c8eef2ba6c9", "is_reserved": 0}, {"is_disabled": 0, "fusion_lon": 0.0, "fusion_lat": 0.0, "lat": 38.90516566666667, "type": "electric_scooter", "lon": -76.98249616666666, "bike_id": "526e27057fd8ef8c4d1a061d50c83851", "rental_uris": {"android": "https://dc.lft.to/lastmile_qr_scan", "ios": "https://dc.lft.to/lastmile_qr_scan"}, "name": "526e27057fd8ef8c4d1a061d50c83851", "is_reserved": 0}, {"is_disabled": 0, "fusion_lon": 0.0, "fusion_lat": 0.0, "lat": 38.8343385, "type": "electric_bike", "lon": -77.10355933333334, "bike_id": "29e8bd907ef696035ed3a26b0b88af5b", "rental_uris": {"android": "https://dc.lft.to/lastmile_qr_scan", "ios": "https://dc.lft.to/lastmile_qr_scan"}, "name": "29e8bd907ef696035ed3a26b0b88af5b", "is_reserved": 0}, {"is_disabled": 0, "fusion_lon": 0.0, "fusion_lat": 0.0, "lat": 38.91808483333333, "type": "electric_scooter", "lon": -77.02689433333333, "bike_id": "994e676a90758ed0edfa67947aab717b", "rental_uris": {"android": "https://dc.lft.to/lastmile_qr_scan", "ios": "https://dc.lft.to/lastmile_qr_scan"}, "name": "994e676a90758ed0edfa67947aab717b", "is_reserved": 0}, {"is_disabled": 0, "fusion_lon": 0.0, "fusion_lat": 0.0, "lat": 38.868931833333335, "type": "electric_scooter", "lon": -76.98314866666666, "bike_id": "cde702be201290ac425ac59772512053", "rental_uris": {"android": "https://dc.lft.to/lastmile_qr_scan", "ios": "https://dc.lft.to/lastmile_qr_scan"}, "name": "cde702be201290ac425ac59772512053", "is_reserved": 0}, {"is_disabled": 0, "fusion_lon": 0.0, "fusion_lat": 0.0, "lat": 38.8599015, "type": "electric_bike", "lon": -76.970494, "bike_id": "651deed6b63af4d0c141ad2006f45afb", "rental_uris": {"android": "https://dc.lft.to/lastmile_qr_scan", "ios": "https://dc.lft.to/lastmile_qr_scan"}, "name": "651deed6b63af4d0c141ad2006f45afb", "is_reserved": 0}, {"is_disabled": 0, "fusion_lon": 0.0, "fusion_lat": 0.0, "lat": 38.92563283333333, "type": "electric_scooter", "lon": -77.02278766666667, "bike_id": "4fe1608b282ac714c344b106457e3e19", "rental_uris": {"android": "https://dc.lft.to/lastmile_qr_scan", "ios": "https://dc.lft.to/lastmile_qr_scan"}, "name": "4fe1608b282ac714c344b106457e3e19", "is_reserved": 0}, {"is_disabled": 0, "fusion_lon": 0.0, "fusion_lat": 0.0, "lat": 38.883764666666664, "type": "electric_scooter", "lon": -76.98565066666667, "bike_id": "0315b2c45837ca5e0392620e90a16167", "rental_uris": {"android": "https://dc.lft.to/lastmile_qr_scan", "ios": "https://dc.lft.to/lastmile_qr_scan"}, "name": "0315b2c45837ca5e0392620e90a16167", "is_reserved": 0}, {"is_disabled": 0, "fusion_lon": 0.0, "fusion_lat": 0.0, "lat": 38.994545333333335, "type": "electric_bike", "lon": -76.9081605, "bike_id": "21b1a352a5cd3817591e756eaa2a508e", "rental_uris": {"android": "https://dc.lft.to/lastmile_qr_scan", "ios": "https://dc.lft.to/lastmile_qr_scan"}, "name": "21b1a352a5cd3817591e756eaa2a508e", "is_reserved": 0}, {"is_disabled": 0, "fusion_lon": 0.0, "fusion_lat": 0.0, "lat": 38.9042705, "type": "electric_scooter", "lon": -77.04836566666667, "bike_id": "a5bb1c2909c9a303d847d53be7882f99", "rental_uris": {"android": "https://dc.lft.to/lastmile_qr_scan", "ios": "https://dc.lft.to/lastmile_qr_scan"}, "name": "a5bb1c2909c9a303d847d53be7882f99", "is_reserved": 0}, {"is_disabled": 0, "fusion_lon": 0.0, "fusion_lat": 0.0, "lat": 38.872457, "type": "electric_scooter", "lon": -76.977249, "bike_id": "3cd8d3856a444283c145f1e99d5801e8", "rental_uris": {"android": "https://dc.lft.to/lastmile_qr_scan", "ios": "https://dc.lft.to/lastmile_qr_scan"}, "name": "3cd8d3856a444283c145f1e99d5801e8", "is_reserved": 0}, {"is_disabled": 0, "fusion_lon": 0.0, "fusion_lat": 0.0, "lat": 38.83192716666667, "type": "electric_bike", "lon": -77.07685766666667, "bike_id": "0b282fe5072680ff077b45b0cf1dd74d", "rental_uris": {"android": "https://dc.lft.to/lastmile_qr_scan", "ios": "https://dc.lft.to/lastmile_qr_scan"}, "name": "0b282fe5072680ff077b45b0cf1dd74d", "is_reserved": 0}, {"is_disabled": 0, "fusion_lon": 0.0, "fusion_lat": 0.0, "lat": 38.9154385, "type": "electric_scooter", "lon": -77.03794333333333, "bike_id": "daf69d56c5e8ff649b94b8ddf131ff67", "rental_uris": {"android": "https://dc.lft.to/lastmile_qr_scan", "ios": "https://dc.lft.to/lastmile_qr_scan"}, "name": "daf69d56c5e8ff649b94b8ddf131ff67", "is_reserved": 0}, {"is_disabled": 0, "fusion_lon": 0.0, "fusion_lat": 0.0, "lat": 38.887671833333336, "type": "electric_bike", "lon": -77.12257816666667, "bike_id": "00fd2fd99c48c18de729727c73a0daa9", "rental_uris": {"android": "https://dc.lft.to/lastmile_qr_scan", "ios": "https://dc.lft.to/lastmile_qr_scan"}, "name": "00fd2fd99c48c18de729727c73a0daa9", "is_reserved": 0}, {"is_disabled": 0, "fusion_lon": 0.0, "fusion_lat": 0.0, "lat": 38.91329666666667, "type": "electric_scooter", "lon": -77.04855983333333, "bike_id": "c2d87b4d435bc1d3cf51c73cb602d4a3", "rental_uris": {"android": "https://dc.lft.to/lastmile_qr_scan", "ios": "https://dc.lft.to/lastmile_qr_scan"}, "name": "c2d87b4d435bc1d3cf51c73cb602d4a3", "is_reserved": 0}, {"is_disabled": 0, "fusion_lon": 0.0, "fusion_lat": 0.0, "lat": 38.92570333333333, "type": "electric_scooter", "lon": -77.0287115, "bike_id": "6fa1bc4ce5ad51891aeafa4e54e89520", "rental_uris": {"android": "https://dc.lft.to/lastmile_qr_scan", "ios": "https://dc.lft.to/lastmile_qr_scan"}, "name": "6fa1bc4ce5ad51891aeafa4e54e89520", "is_reserved": 0}, {"is_disabled": 0, "fusion_lon": 0.0, "fusion_lat": 0.0, "lat": 38.82880166666666, "type": "electric_bike", "lon": -77.112227, "bike_id": "17b5c344ae67b4951c0eeb5f3b12de67", "rental_uris": {"android": "https://dc.lft.to/lastmile_qr_scan", "ios": "https://dc.lft.to/lastmile_qr_scan"}, "name": "17b5c344ae67b4951c0eeb5f3b12de67", "is_reserved": 0}, {"is_disabled": 0, "fusion_lon": 0.0, "fusion_lat": 0.0, "lat": 38.951805, "type": "electric_scooter", "lon": -77.05656233333333, "bike_id": "f2957f84dc87a3e115e9714eb76b3e7c", "rental_uris": {"android": "https://dc.lft.to/lastmile_qr_scan", "ios": "https://dc.lft.to/lastmile_qr_scan"}, "name": "f2957f84dc87a3e115e9714eb76b3e7c", "is_reserved": 0}, {"is_disabled": 0, "fusion_lon": 0.0, "fusion_lat": 0.0, "lat": 38.965751166666664, "type": "electric_scooter", "lon": -77.0156945, "bike_id": "3f455a14c26b56ffc1111e15c06a0a0a", "rental_uris": {"android": "https://dc.lft.to/lastmile_qr_scan", "ios": "https://dc.lft.to/lastmile_qr_scan"}, "name": "3f455a14c26b56ffc1111e15c06a0a0a", "is_reserved": 0}, {"is_disabled": 0, "fusion_lon": 0.0, "fusion_lat": 0.0, "lat": 38.955557, "type": "electric_bike", "lon": -76.935372, "bike_id": "2c185ee7dcf41101f3f41b10aebd74ff", "rental_uris": {"android": "https://dc.lft.to/lastmile_qr_scan", "ios": "https://dc.lft.to/lastmile_qr_scan"}, "name": "2c185ee7dcf41101f3f41b10aebd74ff", "is_reserved": 0}, {"is_disabled": 0, "fusion_lon": 0.0, "fusion_lat": 0.0, "lat": 38.91815883333334, "type": "electric_scooter", "lon": -77.02477233333333, "bike_id": "15e3a415ce45671c210e3b40fadb83dd", "rental_uris": {"android": "https://dc.lft.to/lastmile_qr_scan", "ios": "https://dc.lft.to/lastmile_qr_scan"}, "name": "15e3a415ce45671c210e3b40fadb83dd", "is_reserved": 0}, {"is_disabled": 0, "fusion_lon": 0.0, "fusion_lat": 0.0, "lat": 38.876312, "type": "electric_scooter", "lon": -77.00939966666667, "bike_id": "7c023d01e346f3c81502835fbfdc874c", "rental_uris": {"android": "https://dc.lft.to/lastmile_qr_scan", "ios": "https://dc.lft.to/lastmile_qr_scan"}, "name": "7c023d01e346f3c81502835fbfdc874c", "is_reserved": 0}, {"is_disabled": 0, "fusion_lon": 0.0, "fusion_lat": 0.0, "lat": 38.90365116666667, "type": "electric_scooter", "lon": -77.01930183333333, "bike_id": "bb75819a328855aae4c2763a50bfc828", "rental_uris": {"android": "https://dc.lft.to/lastmile_qr_scan", "ios": "https://dc.lft.to/lastmile_qr_scan"}, "name": "bb75819a328855aae4c2763a50bfc828", "is_reserved": 0}, {"is_disabled": 0, "fusion_lon": 0.0, "fusion_lat": 0.0, "lat": 38.88263116666667, "type": "electric_scooter", "lon": -76.98539366666667, "bike_id": "73fca872c21251df9844e17eec31afb7", "rental_uris": {"android": "https://dc.lft.to/lastmile_qr_scan", "ios": "https://dc.lft.to/lastmile_qr_scan"}, "name": "73fca872c21251df9844e17eec31afb7", "is_reserved": 0}, {"is_disabled": 0, "fusion_lon": 0.0, "fusion_lat": 0.0, "lat": 38.842922, "type": "electric_scooter", "lon": -76.99948033333334, "bike_id": "b77429443a14faf7232fcd4c075e4f62", "rental_uris": {"android": "https://dc.lft.to/lastmile_qr_scan", "ios": "https://dc.lft.to/lastmile_qr_scan"}, "name": "b77429443a14faf7232fcd4c075e4f62", "is_reserved": 0}, {"is_disabled": 0, "fusion_lon": 0.0, "fusion_lat": 0.0, "lat": 38.9111625, "type": "electric_scooter", "lon": -77.04166883333333, "bike_id": "4b7c292140523affd0b65b17595eca3b", "rental_uris": {"android": "https://dc.lft.to/lastmile_qr_scan", "ios": "https://dc.lft.to/lastmile_qr_scan"}, "name": "4b7c292140523affd0b65b17595eca3b", "is_reserved": 0}, {"is_disabled": 0, "fusion_lon": 0.0, "fusion_lat": 0.0, "lat": 38.91978616666667, "type": "electric_scooter", "lon": -77.00015283333333, "bike_id": "5138ef9a213d4d1e73b4e1b419db0569", "rental_uris": {"android": "https://dc.lft.to/lastmile_qr_scan", "ios": "https://dc.lft.to/lastmile_qr_scan"}, "name": "5138ef9a213d4d1e73b4e1b419db0569", "is_reserved": 0}, {"is_disabled": 0, "fusion_lon": 0.0, "fusion_lat": 0.0, "lat": 38.916121833333335, "type": "electric_scooter", "lon": -77.0320415, "bike_id": "ed2bab2ae5897e993a823f99409b2e94", "rental_uris": {"android": "https://dc.lft.to/lastmile_qr_scan", "ios": "https://dc.lft.to/lastmile_qr_scan"}, "name": "ed2bab2ae5897e993a823f99409b2e94", "is_reserved": 0}, {"is_disabled": 0, "fusion_lon": 0.0, "fusion_lat": 0.0, "lat": 38.900164833333335, "type": "electric_scooter", "lon": -76.99686683333333, "bike_id": "48b3586307280fb1765fc1b28b93b388", "rental_uris": {"android": "https://dc.lft.to/lastmile_qr_scan", "ios": "https://dc.lft.to/lastmile_qr_scan"}, "name": "48b3586307280fb1765fc1b28b93b388", "is_reserved": 0}, {"is_disabled": 0, "fusion_lon": 0.0, "fusion_lat": 0.0, "lat": 38.90062616666667, "type": "electric_scooter", "lon": -76.9868455, "bike_id": "fd6fefc8aa6561b60b2eb55d66b4ee94", "rental_uris": {"android": "https://dc.lft.to/lastmile_qr_scan", "ios": "https://dc.lft.to/lastmile_qr_scan"}, "name": "fd6fefc8aa6561b60b2eb55d66b4ee94", "is_reserved": 0}, {"is_disabled": 0, "fusion_lon": 0.0, "fusion_lat": 0.0, "lat": 38.913787666666664, "type": "electric_scooter", "lon": -77.02967933333333, "bike_id": "5e5d58a257efc291fc2f197d0b8de746", "rental_uris": {"android": "https://dc.lft.to/lastmile_qr_scan", "ios": "https://dc.lft.to/lastmile_qr_scan"}, "name": "5e5d58a257efc291fc2f197d0b8de746", "is_reserved": 0}, {"is_disabled": 0, "fusion_lon": 0.0, "fusion_lat": 0.0, "lat": 38.8870935, "type": "electric_scooter", "lon": -76.95362566666667, "bike_id": "2871d14238247f19e0d21af31e043074", "rental_uris": {"android": "https://dc.lft.to/lastmile_qr_scan", "ios": "https://dc.lft.to/lastmile_qr_scan"}, "name": "2871d14238247f19e0d21af31e043074", "is_reserved": 0}, {"is_disabled": 0, "fusion_lon": 0.0, "fusion_lat": 0.0, "lat": 38.917781833333336, "type": "electric_scooter", "lon": -77.04302366666667, "bike_id": "b578abefef3a88b3e09506fa5ef12799", "rental_uris": {"android": "https://dc.lft.to/lastmile_qr_scan", "ios": "https://dc.lft.to/lastmile_qr_scan"}, "name": "b578abefef3a88b3e09506fa5ef12799", "is_reserved": 0}, {"is_disabled": 0, "fusion_lon": 0.0, "fusion_lat": 0.0, "lat": 38.88578916666667, "type": "electric_scooter", "lon": -76.91912616666667, "bike_id": "eb365b7432f8fda3c0d2a9042637667b", "rental_uris": {"android": "https://dc.lft.to/lastmile_qr_scan", "ios": "https://dc.lft.to/lastmile_qr_scan"}, "name": "eb365b7432f8fda3c0d2a9042637667b", "is_reserved": 0}, {"is_disabled": 0, "fusion_lon": 0.0, "fusion_lat": 0.0, "lat": 38.916608333333336, "type": "electric_scooter", "lon": -77.03851983333334, "bike_id": "c86710cfdef79e04fba464b5ee94bddc", "rental_uris": {"android": "https://dc.lft.to/lastmile_qr_scan", "ios": "https://dc.lft.to/lastmile_qr_scan"}, "name": "c86710cfdef79e04fba464b5ee94bddc", "is_reserved": 0}, {"is_disabled": 0, "fusion_lon": 0.0, "fusion_lat": 0.0, "lat": 38.908446, "type": "electric_scooter", "lon": -77.02692633333334, "bike_id": "cfaad471dcbd60e2de36341ccad8c93d", "rental_uris": {"android": "https://dc.lft.to/lastmile_qr_scan", "ios": "https://dc.lft.to/lastmile_qr_scan"}, "name": "cfaad471dcbd60e2de36341ccad8c93d", "is_reserved": 0}, {"is_disabled": 0, "fusion_lon": 0.0, "fusion_lat": 0.0, "lat": 38.944923333333335, "type": "electric_bike", "lon": -76.98657366666667, "bike_id": "02936a2b3624670133106b3d2fbd8a36", "rental_uris": {"android": "https://dc.lft.to/lastmile_qr_scan", "ios": "https://dc.lft.to/lastmile_qr_scan"}, "name": "02936a2b3624670133106b3d2fbd8a36", "is_reserved": 0}, {"is_disabled": 0, "fusion_lon": 0.0, "fusion_lat": 0.0, "lat": 38.91401233333333, "type": "electric_scooter", "lon": -77.00327366666667, "bike_id": "c8a2411ab3929d8d991ca98aaf3bc2c3", "rental_uris": {"android": "https://dc.lft.to/lastmile_qr_scan", "ios": "https://dc.lft.to/lastmile_qr_scan"}, "name": "c8a2411ab3929d8d991ca98aaf3bc2c3", "is_reserved": 0}, {"is_disabled": 0, "fusion_lon": 0.0, "fusion_lat": 0.0, "lat": 38.93051883333333, "type": "electric_scooter", "lon": -77.02803283333333, "bike_id": "6c71b1b141c08832d31015cc1616a8b9", "rental_uris": {"android": "https://dc.lft.to/lastmile_qr_scan", "ios": "https://dc.lft.to/lastmile_qr_scan"}, "name": "6c71b1b141c08832d31015cc1616a8b9", "is_reserved": 0}, {"is_disabled": 0, "fusion_lon": 0.0, "fusion_lat": 0.0, "lat": 38.92089983333334, "type": "electric_scooter", "lon": -77.025948, "bike_id": "0272286f9c4189c269473f17c971f486", "rental_uris": {"android": "https://dc.lft.to/lastmile_qr_scan", "ios": "https://dc.lft.to/lastmile_qr_scan"}, "name": "0272286f9c4189c269473f17c971f486", "is_reserved": 0}, {"is_disabled": 0, "fusion_lon": 0.0, "fusion_lat": 0.0, "lat": 38.9026445, "type": "electric_scooter", "lon": -77.03970216666667, "bike_id": "0deeb5f1da452478bb6fda1b9f75fd28", "rental_uris": {"android": "https://dc.lft.to/lastmile_qr_scan", "ios": "https://dc.lft.to/lastmile_qr_scan"}, "name": "0deeb5f1da452478bb6fda1b9f75fd28", "is_reserved": 0}, {"is_disabled": 0, "fusion_lon": 0.0, "fusion_lat": 0.0, "lat": 38.88449416666667, "type": "electric_scooter", "lon": -76.95098233333333, "bike_id": "988bedb1113e45387be45606f9703100", "rental_uris": {"android": "https://dc.lft.to/lastmile_qr_scan", "ios": "https://dc.lft.to/lastmile_qr_scan"}, "name": "988bedb1113e45387be45606f9703100", "is_reserved": 0}, {"is_disabled": 0, "fusion_lon": 0.0, "fusion_lat": 0.0, "lat": 38.89757983333333, "type": "electric_scooter", "lon": -77.04702383333333, "bike_id": "63ca53b3172d1be27b26bd29cab6671f", "rental_uris": {"android": "https://dc.lft.to/lastmile_qr_scan", "ios": "https://dc.lft.to/lastmile_qr_scan"}, "name": "63ca53b3172d1be27b26bd29cab6671f", "is_reserved": 0}, {"is_disabled": 0, "fusion_lon": 0.0, "fusion_lat": 0.0, "lat": 38.923434, "type": "electric_scooter", "lon": -77.0389135, "bike_id": "74f516f2389c4cd94ab386c3f0948b9c", "rental_uris": {"android": "https://dc.lft.to/lastmile_qr_scan", "ios": "https://dc.lft.to/lastmile_qr_scan"}, "name": "74f516f2389c4cd94ab386c3f0948b9c", "is_reserved": 0}, {"is_disabled": 0, "fusion_lon": 0.0, "fusion_lat": 0.0, "lat": 38.934159666666666, "type": "electric_scooter", "lon": -77.04268883333333, "bike_id": "14a0eb0217673c5cbf7fe79445f4626f", "rental_uris": {"android": "https://dc.lft.to/lastmile_qr_scan", "ios": "https://dc.lft.to/lastmile_qr_scan"}, "name": "14a0eb0217673c5cbf7fe79445f4626f", "is_reserved": 0}, {"is_disabled": 0, "fusion_lon": 0.0, "fusion_lat": 0.0, "lat": 38.895815, "type": "electric_bike", "lon": -76.97614666666666, "bike_id": "45e6cbc82ce3d79a914aed8d905c7be1", "rental_uris": {"android": "https://dc.lft.to/lastmile_qr_scan", "ios": "https://dc.lft.to/lastmile_qr_scan"}, "name": "45e6cbc82ce3d79a914aed8d905c7be1", "is_reserved": 0}, {"is_disabled": 0, "fusion_lon": 0.0, "fusion_lat": 0.0, "lat": 38.92053933333333, "type": "electric_scooter", "lon": -77.03440433333333, "bike_id": "7f20c4ddacab791b40fdea1770b2b16c", "rental_uris": {"android": "https://dc.lft.to/lastmile_qr_scan", "ios": "https://dc.lft.to/lastmile_qr_scan"}, "name": "7f20c4ddacab791b40fdea1770b2b16c", "is_reserved": 0}, {"is_disabled": 0, "fusion_lon": 0.0, "fusion_lat": 0.0, "lat": 38.910072666666665, "type": "electric_scooter", "lon": -77.02095183333333, "bike_id": "3e57dd7c0c89ee52bcc11c2d1fafa16c", "rental_uris": {"android": "https://dc.lft.to/lastmile_qr_scan", "ios": "https://dc.lft.to/lastmile_qr_scan"}, "name": "3e57dd7c0c89ee52bcc11c2d1fafa16c", "is_reserved": 0}, {"is_disabled": 0, "fusion_lon": 0.0, "fusion_lat": 0.0, "lat": 38.9095765, "type": "electric_scooter", "lon": -77.02303516666667, "bike_id": "4c6bcab731a81f56a282a0decb65053f", "rental_uris": {"android": "https://dc.lft.to/lastmile_qr_scan", "ios": "https://dc.lft.to/lastmile_qr_scan"}, "name": "4c6bcab731a81f56a282a0decb65053f", "is_reserved": 0}, {"is_disabled": 0, "fusion_lon": 0.0, "fusion_lat": 0.0, "lat": 38.90901316666667, "type": "electric_scooter", "lon": -76.998654, "bike_id": "c0f7af06c4f19defadc11aaacc6e2eac", "rental_uris": {"android": "https://dc.lft.to/lastmile_qr_scan", "ios": "https://dc.lft.to/lastmile_qr_scan"}, "name": "c0f7af06c4f19defadc11aaacc6e2eac", "is_reserved": 0}, {"is_disabled": 0, "fusion_lon": 0.0, "fusion_lat": 0.0, "lat": 38.933923166666666, "type": "electric_scooter", "lon": -77.03110166666667, "bike_id": "2467929a25b246bc0e79a47f82ea3eff", "rental_uris": {"android": "https://dc.lft.to/lastmile_qr_scan", "ios": "https://dc.lft.to/lastmile_qr_scan"}, "name": "2467929a25b246bc0e79a47f82ea3eff", "is_reserved": 0}, {"is_disabled": 0, "fusion_lon": 0.0, "fusion_lat": 0.0, "lat": 38.920269166666664, "type": "electric_scooter", "lon": -77.03882333333334, "bike_id": "b14c4cf6d3fd437df84a13dc72f8711a", "rental_uris": {"android": "https://dc.lft.to/lastmile_qr_scan", "ios": "https://dc.lft.to/lastmile_qr_scan"}, "name": "b14c4cf6d3fd437df84a13dc72f8711a", "is_reserved": 0}, {"is_disabled": 0, "fusion_lon": 0.0, "fusion_lat": 0.0, "lat": 38.9070905, "type": "electric_scooter", "lon": -77.02691433333334, "bike_id": "fb7c318ccbc8597417c942da95c7ac2e", "rental_uris": {"android": "https://dc.lft.to/lastmile_qr_scan", "ios": "https://dc.lft.to/lastmile_qr_scan"}, "name": "fb7c318ccbc8597417c942da95c7ac2e", "is_reserved": 0}, {"is_disabled": 0, "fusion_lon": 0.0, "fusion_lat": 0.0, "lat": 38.92035166666667, "type": "electric_scooter", "lon": -77.0258635, "bike_id": "d47704ba782cc5d9aede3bf64f39548c", "rental_uris": {"android": "https://dc.lft.to/lastmile_qr_scan", "ios": "https://dc.lft.to/lastmile_qr_scan"}, "name": "d47704ba782cc5d9aede3bf64f39548c", "is_reserved": 0}, {"is_disabled": 0, "fusion_lon": 0.0, "fusion_lat": 0.0, "lat": 38.988283, "type": "electric_bike", "lon": -76.98744566666667, "bike_id": "d590679d0df7c9d2fc7b3cc05ebe2367", "rental_uris": {"android": "https://dc.lft.to/lastmile_qr_scan", "ios": "https://dc.lft.to/lastmile_qr_scan"}, "name": "d590679d0df7c9d2fc7b3cc05ebe2367", "is_reserved": 0}, {"is_disabled": 0, "fusion_lon": 0.0, "fusion_lat": 0.0, "lat": 38.88511716666667, "type": "electric_scooter", "lon": -76.99850983333333, "bike_id": "287d9a445d28bec76730d1d1ec4e0512", "rental_uris": {"android": "https://dc.lft.to/lastmile_qr_scan", "ios": "https://dc.lft.to/lastmile_qr_scan"}, "name": "287d9a445d28bec76730d1d1ec4e0512", "is_reserved": 0}, {"is_disabled": 0, "fusion_lon": 0.0, "fusion_lat": 0.0, "lat": 38.879449, "type": "electric_scooter", "lon": -77.01343133333333, "bike_id": "d0762aec72b7e0bf592531ce7b46c6e6", "rental_uris": {"android": "https://dc.lft.to/lastmile_qr_scan", "ios": "https://dc.lft.to/lastmile_qr_scan"}, "name": "d0762aec72b7e0bf592531ce7b46c6e6", "is_reserved": 0}, {"is_disabled": 0, "fusion_lon": 0.0, "fusion_lat": 0.0, "lat": 38.89477466666666, "type": "electric_scooter", "lon": -76.9330305, "bike_id": "87acb5bad32ffeed2c0d334a28b124ea", "rental_uris": {"android": "https://dc.lft.to/lastmile_qr_scan", "ios": "https://dc.lft.to/lastmile_qr_scan"}, "name": "87acb5bad32ffeed2c0d334a28b124ea", "is_reserved": 0}, {"is_disabled": 0, "fusion_lon": 0.0, "fusion_lat": 0.0, "lat": 38.90808616666666, "type": "electric_scooter", "lon": -77.0414655, "bike_id": "8288dbc0cbef8ab382970a3302e58b98", "rental_uris": {"android": "https://dc.lft.to/lastmile_qr_scan", "ios": "https://dc.lft.to/lastmile_qr_scan"}, "name": "8288dbc0cbef8ab382970a3302e58b98", "is_reserved": 0}, {"is_disabled": 0, "fusion_lon": 0.0, "fusion_lat": 0.0, "lat": 38.8963175, "type": "electric_scooter", "lon": -77.02918333333334, "bike_id": "dec73186da77c1fd093e78a3b250d4bd", "rental_uris": {"android": "https://dc.lft.to/lastmile_qr_scan", "ios": "https://dc.lft.to/lastmile_qr_scan"}, "name": "dec73186da77c1fd093e78a3b250d4bd", "is_reserved": 0}, {"is_disabled": 0, "fusion_lon": 0.0, "fusion_lat": 0.0, "lat": 38.951175166666665, "type": "electric_scooter", "lon": -77.02790783333333, "bike_id": "9a733518ba654213228e17f11e9b8a68", "rental_uris": {"android": "https://dc.lft.to/lastmile_qr_scan", "ios": "https://dc.lft.to/lastmile_qr_scan"}, "name": "9a733518ba654213228e17f11e9b8a68", "is_reserved": 0}, {"is_disabled": 0, "fusion_lon": 0.0, "fusion_lat": 0.0, "lat": 38.904969333333334, "type": "electric_scooter", "lon": -77.0296535, "bike_id": "33da14d368cf65cfbb8343c832c748a9", "rental_uris": {"android": "https://dc.lft.to/lastmile_qr_scan", "ios": "https://dc.lft.to/lastmile_qr_scan"}, "name": "33da14d368cf65cfbb8343c832c748a9", "is_reserved": 0}, {"is_disabled": 0, "fusion_lon": 0.0, "fusion_lat": 0.0, "lat": 38.92100683333334, "type": "electric_scooter", "lon": -77.03048666666666, "bike_id": "b58969659526720c74f32892961a1fce", "rental_uris": {"android": "https://dc.lft.to/lastmile_qr_scan", "ios": "https://dc.lft.to/lastmile_qr_scan"}, "name": "b58969659526720c74f32892961a1fce", "is_reserved": 0}, {"is_disabled": 0, "fusion_lon": 0.0, "fusion_lat": 0.0, "lat": 38.92878666666667, "type": "electric_scooter", "lon": -77.04127133333333, "bike_id": "34635df7b30ebd82f9fe775398dcc79b", "rental_uris": {"android": "https://dc.lft.to/lastmile_qr_scan", "ios": "https://dc.lft.to/lastmile_qr_scan"}, "name": "34635df7b30ebd82f9fe775398dcc79b", "is_reserved": 0}, {"is_disabled": 0, "fusion_lon": 0.0, "fusion_lat": 0.0, "lat": 38.897353333333335, "type": "electric_scooter", "lon": -77.00929783333333, "bike_id": "ab18ee199a71fa3a2daf97fc883568e0", "rental_uris": {"android": "https://dc.lft.to/lastmile_qr_scan", "ios": "https://dc.lft.to/lastmile_qr_scan"}, "name": "ab18ee199a71fa3a2daf97fc883568e0", "is_reserved": 0}, {"is_disabled": 0, "fusion_lon": 0.0, "fusion_lat": 0.0, "lat": 38.890004833333336, "type": "electric_scooter", "lon": -77.04899083333333, "bike_id": "1ce7059fb559b931db408eb70086b8d8", "rental_uris": {"android": "https://dc.lft.to/lastmile_qr_scan", "ios": "https://dc.lft.to/lastmile_qr_scan"}, "name": "1ce7059fb559b931db408eb70086b8d8", "is_reserved": 0}, {"is_disabled": 0, "fusion_lon": 0.0, "fusion_lat": 0.0, "lat": 38.9312495, "type": "electric_scooter", "lon": -77.01988233333333, "bike_id": "714e298171f5d9140d912d648d7c5a8e", "rental_uris": {"android": "https://dc.lft.to/lastmile_qr_scan", "ios": "https://dc.lft.to/lastmile_qr_scan"}, "name": "714e298171f5d9140d912d648d7c5a8e", "is_reserved": 0}, {"is_disabled": 0, "fusion_lon": 0.0, "fusion_lat": 0.0, "lat": 38.941322666666665, "type": "electric_scooter", "lon": -77.0182085, "bike_id": "66793fd4c20e4501aa47b5d5f0ef6df5", "rental_uris": {"android": "https://dc.lft.to/lastmile_qr_scan", "ios": "https://dc.lft.to/lastmile_qr_scan"}, "name": "66793fd4c20e4501aa47b5d5f0ef6df5", "is_reserved": 0}, {"is_disabled": 0, "fusion_lon": 0.0, "fusion_lat": 0.0, "lat": 38.86056083333333, "type": "electric_scooter", "lon": -76.98510816666666, "bike_id": "872a612dba53b08994c8552ab5b1721f", "rental_uris": {"android": "https://dc.lft.to/lastmile_qr_scan", "ios": "https://dc.lft.to/lastmile_qr_scan"}, "name": "872a612dba53b08994c8552ab5b1721f", "is_reserved": 0}, {"is_disabled": 0, "fusion_lon": 0.0, "fusion_lat": 0.0, "lat": 38.900619166666665, "type": "electric_scooter", "lon": -77.01284983333333, "bike_id": "beae7b31ff03e688608699092d7c94b3", "rental_uris": {"android": "https://dc.lft.to/lastmile_qr_scan", "ios": "https://dc.lft.to/lastmile_qr_scan"}, "name": "beae7b31ff03e688608699092d7c94b3", "is_reserved": 0}, {"is_disabled": 0, "fusion_lon": 0.0, "fusion_lat": 0.0, "lat": 38.916161333333335, "type": "electric_scooter", "lon": -77.04861783333334, "bike_id": "8fc0d5fe5a15c0adeceb22d6aebb5710", "rental_uris": {"android": "https://dc.lft.to/lastmile_qr_scan", "ios": "https://dc.lft.to/lastmile_qr_scan"}, "name": "8fc0d5fe5a15c0adeceb22d6aebb5710", "is_reserved": 0}, {"is_disabled": 0, "fusion_lon": 0.0, "fusion_lat": 0.0, "lat": 38.9063245, "type": "electric_scooter", "lon": -77.02496066666667, "bike_id": "4fea060a707316594198ee0eb430eb5d", "rental_uris": {"android": "https://dc.lft.to/lastmile_qr_scan", "ios": "https://dc.lft.to/lastmile_qr_scan"}, "name": "4fea060a707316594198ee0eb430eb5d", "is_reserved": 0}, {"is_disabled": 0, "fusion_lon": 0.0, "fusion_lat": 0.0, "lat": 38.898469666666664, "type": "electric_scooter", "lon": -76.94558566666667, "bike_id": "fb96d5c13e78917801e1b22690350f68", "rental_uris": {"android": "https://dc.lft.to/lastmile_qr_scan", "ios": "https://dc.lft.to/lastmile_qr_scan"}, "name": "fb96d5c13e78917801e1b22690350f68", "is_reserved": 0}, {"is_disabled": 0, "fusion_lon": 0.0, "fusion_lat": 0.0, "lat": 38.8950095, "type": "electric_scooter", "lon": -76.948773, "bike_id": "7cc0620e2af06e95a7318a9ac2bbcf6b", "rental_uris": {"android": "https://dc.lft.to/lastmile_qr_scan", "ios": "https://dc.lft.to/lastmile_qr_scan"}, "name": "7cc0620e2af06e95a7318a9ac2bbcf6b", "is_reserved": 0}, {"is_disabled": 0, "fusion_lon": 0.0, "fusion_lat": 0.0, "lat": 38.99935266666667, "type": "electric_bike", "lon": -77.00123516666666, "bike_id": "10c53020f29d7784de9991a373d4bc06", "rental_uris": {"android": "https://dc.lft.to/lastmile_qr_scan", "ios": "https://dc.lft.to/lastmile_qr_scan"}, "name": "10c53020f29d7784de9991a373d4bc06", "is_reserved": 0}, {"is_disabled": 0, "fusion_lon": 0.0, "fusion_lat": 0.0, "lat": 38.8603065, "type": "electric_scooter", "lon": -76.99694366666667, "bike_id": "2667355ad1d4b3d798c656f0dc08c583", "rental_uris": {"android": "https://dc.lft.to/lastmile_qr_scan", "ios": "https://dc.lft.to/lastmile_qr_scan"}, "name": "2667355ad1d4b3d798c656f0dc08c583", "is_reserved": 0}, {"is_disabled": 0, "fusion_lon": 0.0, "fusion_lat": 0.0, "lat": 39.0959395, "type": "electric_bike", "lon": -77.147747, "bike_id": "2927f8b026ebe49aaeed6e3ded063496", "rental_uris": {"android": "https://dc.lft.to/lastmile_qr_scan", "ios": "https://dc.lft.to/lastmile_qr_scan"}, "name": "2927f8b026ebe49aaeed6e3ded063496", "is_reserved": 0}, {"is_disabled": 0, "fusion_lon": 0.0, "fusion_lat": 0.0, "lat": 38.85542066666667, "type": "electric_bike", "lon": -77.10718283333334, "bike_id": "1c6ee28d69e6295ff8be8bdc42a3c8de", "rental_uris": {"android": "https://dc.lft.to/lastmile_qr_scan", "ios": "https://dc.lft.to/lastmile_qr_scan"}, "name": "1c6ee28d69e6295ff8be8bdc42a3c8de", "is_reserved": 0}, {"is_disabled": 0, "fusion_lon": 0.0, "fusion_lat": 0.0, "lat": 38.919389, "type": "electric_scooter", "lon": -77.08133533333333, "bike_id": "b8a90a1d38df03a397746d0b652e06ea", "rental_uris": {"android": "https://dc.lft.to/lastmile_qr_scan", "ios": "https://dc.lft.to/lastmile_qr_scan"}, "name": "b8a90a1d38df03a397746d0b652e06ea", "is_reserved": 0}, {"is_disabled": 0, "fusion_lon": 0.0, "fusion_lat": 0.0, "lat": 38.9160825, "type": "electric_scooter", "lon": -77.04598666666666, "bike_id": "756d1d85385a79e79052c405262336d2", "rental_uris": {"android": "https://dc.lft.to/lastmile_qr_scan", "ios": "https://dc.lft.to/lastmile_qr_scan"}, "name": "756d1d85385a79e79052c405262336d2", "is_reserved": 0}, {"is_disabled": 0, "fusion_lon": 0.0, "fusion_lat": 0.0, "lat": 38.945645666666664, "type": "electric_bike", "lon": -77.05123733333333, "bike_id": "607a095508d6ca1b63c4f34d36eafef3", "rental_uris": {"android": "https://dc.lft.to/lastmile_qr_scan", "ios": "https://dc.lft.to/lastmile_qr_scan"}, "name": "607a095508d6ca1b63c4f34d36eafef3", "is_reserved": 0}, {"is_disabled": 0, "fusion_lon": 0.0, "fusion_lat": 0.0, "lat": 38.91346133333333, "type": "electric_scooter", "lon": -77.06417016666667, "bike_id": "8384161f733ff2982c43069c56b2ce71", "rental_uris": {"android": "https://dc.lft.to/lastmile_qr_scan", "ios": "https://dc.lft.to/lastmile_qr_scan"}, "name": "8384161f733ff2982c43069c56b2ce71", "is_reserved": 0}, {"is_disabled": 0, "fusion_lon": 0.0, "fusion_lat": 0.0, "lat": 38.89989166666667, "type": "electric_scooter", "lon": -77.02946616666667, "bike_id": "39b793d796796ebd471c080af910dc70", "rental_uris": {"android": "https://dc.lft.to/lastmile_qr_scan", "ios": "https://dc.lft.to/lastmile_qr_scan"}, "name": "39b793d796796ebd471c080af910dc70", "is_reserved": 0}, {"is_disabled": 0, "fusion_lon": 0.0, "fusion_lat": 0.0, "lat": 38.88634116666667, "type": "electric_scooter", "lon": -76.955139, "bike_id": "e1819dd636dc2b2575b38d7d62e1cf85", "rental_uris": {"android": "https://dc.lft.to/lastmile_qr_scan", "ios": "https://dc.lft.to/lastmile_qr_scan"}, "name": "e1819dd636dc2b2575b38d7d62e1cf85", "is_reserved": 0}, {"is_disabled": 0, "fusion_lon": 0.0, "fusion_lat": 0.0, "lat": 38.8556045, "type": "electric_bike", "lon": -77.10725116666667, "bike_id": "f33dfc4b5e4a46472ef503ad92e82d7e", "rental_uris": {"android": "https://dc.lft.to/lastmile_qr_scan", "ios": "https://dc.lft.to/lastmile_qr_scan"}, "name": "f33dfc4b5e4a46472ef503ad92e82d7e", "is_reserved": 0}, {"is_disabled": 0, "fusion_lon": 0.0, "fusion_lat": 0.0, "lat": 38.91591183333333, "type": "electric_scooter", "lon": -77.021258, "bike_id": "c314bbf901bd93d1698b3b3b05b1bfe0", "rental_uris": {"android": "https://dc.lft.to/lastmile_qr_scan", "ios": "https://dc.lft.to/lastmile_qr_scan"}, "name": "c314bbf901bd93d1698b3b3b05b1bfe0", "is_reserved": 0}, {"is_disabled": 0, "fusion_lon": 0.0, "fusion_lat": 0.0, "lat": 38.9248425, "type": "electric_scooter", "lon": -77.0377155, "bike_id": "381953accd5a46c5a4295c6429827ae3", "rental_uris": {"android": "https://dc.lft.to/lastmile_qr_scan", "ios": "https://dc.lft.to/lastmile_qr_scan"}, "name": "381953accd5a46c5a4295c6429827ae3", "is_reserved": 0}, {"is_disabled": 0, "fusion_lon": 0.0, "fusion_lat": 0.0, "lat": 38.916539, "type": "electric_scooter", "lon": -77.02811083333333, "bike_id": "44de852dc731d6e6589f8ff8d8fe6179", "rental_uris": {"android": "https://dc.lft.to/lastmile_qr_scan", "ios": "https://dc.lft.to/lastmile_qr_scan"}, "name": "44de852dc731d6e6589f8ff8d8fe6179", "is_reserved": 0}, {"is_disabled": 0, "fusion_lon": 0.0, "fusion_lat": 0.0, "lat": 38.90717133333333, "type": "electric_scooter", "lon": -77.02712183333334, "bike_id": "2bbf5236138e32191019e8d25b5a34e2", "rental_uris": {"android": "https://dc.lft.to/lastmile_qr_scan", "ios": "https://dc.lft.to/lastmile_qr_scan"}, "name": "2bbf5236138e32191019e8d25b5a34e2", "is_reserved": 0}, {"is_disabled": 0, "fusion_lon": 0.0, "fusion_lat": 0.0, "lat": 38.936298666666666, "type": "electric_scooter", "lon": -77.02457333333334, "bike_id": "86b1a97ebae6d387c2904f95a3587e3b", "rental_uris": {"android": "https://dc.lft.to/lastmile_qr_scan", "ios": "https://dc.lft.to/lastmile_qr_scan"}, "name": "86b1a97ebae6d387c2904f95a3587e3b", "is_reserved": 0}, {"is_disabled": 0, "fusion_lon": 0.0, "fusion_lat": 0.0, "lat": 38.84507966666666, "type": "electric_bike", "lon": -76.972145, "bike_id": "1ef6ac8876e67709adc6efe7dd4ddf15", "rental_uris": {"android": "https://dc.lft.to/lastmile_qr_scan", "ios": "https://dc.lft.to/lastmile_qr_scan"}, "name": "1ef6ac8876e67709adc6efe7dd4ddf15", "is_reserved": 0}, {"is_disabled": 0, "fusion_lon": 0.0, "fusion_lat": 0.0, "lat": 38.89912616666667, "type": "electric_scooter", "lon": -77.0399385, "bike_id": "c7570c94bb92dc005199779ef41eb2d5", "rental_uris": {"android": "https://dc.lft.to/lastmile_qr_scan", "ios": "https://dc.lft.to/lastmile_qr_scan"}, "name": "c7570c94bb92dc005199779ef41eb2d5", "is_reserved": 0}, {"is_disabled": 0, "fusion_lon": 0.0, "fusion_lat": 0.0, "lat": 38.8462015, "type": "electric_scooter", "lon": -76.99629866666666, "bike_id": "361b5c33191819a7195fcb8601cd1dcd", "rental_uris": {"android": "https://dc.lft.to/lastmile_qr_scan", "ios": "https://dc.lft.to/lastmile_qr_scan"}, "name": "361b5c33191819a7195fcb8601cd1dcd", "is_reserved": 0}, {"is_disabled": 0, "fusion_lon": 0.0, "fusion_lat": 0.0, "lat": 38.903415, "type": "electric_scooter", "lon": -76.98015316666667, "bike_id": "1ee0824232e71e4d22d2681c6996ab98", "rental_uris": {"android": "https://dc.lft.to/lastmile_qr_scan", "ios": "https://dc.lft.to/lastmile_qr_scan"}, "name": "1ee0824232e71e4d22d2681c6996ab98", "is_reserved": 0}, {"is_disabled": 0, "fusion_lon": 0.0, "fusion_lat": 0.0, "lat": 38.924412333333336, "type": "electric_scooter", "lon": -77.02607366666666, "bike_id": "94a6fbd828f057d5a5012ad4ee695811", "rental_uris": {"android": "https://dc.lft.to/lastmile_qr_scan", "ios": "https://dc.lft.to/lastmile_qr_scan"}, "name": "94a6fbd828f057d5a5012ad4ee695811", "is_reserved": 0}, {"is_disabled": 0, "fusion_lon": 0.0, "fusion_lat": 0.0, "lat": 38.9181185, "type": "electric_scooter", "lon": -77.03142416666667, "bike_id": "a98562c484d22b109350832aee838f47", "rental_uris": {"android": "https://dc.lft.to/lastmile_qr_scan", "ios": "https://dc.lft.to/lastmile_qr_scan"}, "name": "a98562c484d22b109350832aee838f47", "is_reserved": 0}, {"is_disabled": 0, "fusion_lon": 0.0, "fusion_lat": 0.0, "lat": 38.960179333333336, "type": "electric_scooter", "lon": -77.033102, "bike_id": "77ff8e6d6eee39bffc864b7a27c9edea", "rental_uris": {"android": "https://dc.lft.to/lastmile_qr_scan", "ios": "https://dc.lft.to/lastmile_qr_scan"}, "name": "77ff8e6d6eee39bffc864b7a27c9edea", "is_reserved": 0}, {"is_disabled": 0, "fusion_lon": 0.0, "fusion_lat": 0.0, "lat": 38.92761866666667, "type": "electric_scooter", "lon": -77.02793066666666, "bike_id": "fc97d29b56f94eef670d1f58e6337b4e", "rental_uris": {"android": "https://dc.lft.to/lastmile_qr_scan", "ios": "https://dc.lft.to/lastmile_qr_scan"}, "name": "fc97d29b56f94eef670d1f58e6337b4e", "is_reserved": 0}, {"is_disabled": 0, "fusion_lon": 0.0, "fusion_lat": 0.0, "lat": 38.865236833333334, "type": "electric_scooter", "lon": -76.98965533333333, "bike_id": "af9a51b09b031712b50bcd467081895a", "rental_uris": {"android": "https://dc.lft.to/lastmile_qr_scan", "ios": "https://dc.lft.to/lastmile_qr_scan"}, "name": "af9a51b09b031712b50bcd467081895a", "is_reserved": 0}, {"is_disabled": 0, "fusion_lon": 0.0, "fusion_lat": 0.0, "lat": 39.0038485, "type": "electric_bike", "lon": -77.01290383333334, "bike_id": "1fd6620719faa1dcca5e1bbf1f41e461", "rental_uris": {"android": "https://dc.lft.to/lastmile_qr_scan", "ios": "https://dc.lft.to/lastmile_qr_scan"}, "name": "1fd6620719faa1dcca5e1bbf1f41e461", "is_reserved": 0}, {"is_disabled": 0, "fusion_lon": 0.0, "fusion_lat": 0.0, "lat": 38.9012545, "type": "electric_scooter", "lon": -77.01814166666666, "bike_id": "7a9673e95555eb1f44a626f0e490a3e4", "rental_uris": {"android": "https://dc.lft.to/lastmile_qr_scan", "ios": "https://dc.lft.to/lastmile_qr_scan"}, "name": "7a9673e95555eb1f44a626f0e490a3e4", "is_reserved": 0}, {"is_disabled": 0, "fusion_lon": 0.0, "fusion_lat": 0.0, "lat": 38.9180815, "type": "electric_scooter", "lon": -77.02445733333333, "bike_id": "aa8fd996ff757af87d347f51c4a66f91", "rental_uris": {"android": "https://dc.lft.to/lastmile_qr_scan", "ios": "https://dc.lft.to/lastmile_qr_scan"}, "name": "aa8fd996ff757af87d347f51c4a66f91", "is_reserved": 0}, {"is_disabled": 0, "fusion_lon": 0.0, "fusion_lat": 0.0, "lat": 38.923105, "type": "electric_scooter", "lon": -77.0310735, "bike_id": "ebef8f9f47ebbdb8c7d1ec970ca2b045", "rental_uris": {"android": "https://dc.lft.to/lastmile_qr_scan", "ios": "https://dc.lft.to/lastmile_qr_scan"}, "name": "ebef8f9f47ebbdb8c7d1ec970ca2b045", "is_reserved": 0}, {"is_disabled": 0, "fusion_lon": 0.0, "fusion_lat": 0.0, "lat": 38.90716366666667, "type": "electric_scooter", "lon": -77.02715033333334, "bike_id": "1b3acb1326ef854999102bf735e54597", "rental_uris": {"android": "https://dc.lft.to/lastmile_qr_scan", "ios": "https://dc.lft.to/lastmile_qr_scan"}, "name": "1b3acb1326ef854999102bf735e54597", "is_reserved": 0}, {"is_disabled": 0, "fusion_lon": 0.0, "fusion_lat": 0.0, "lat": 38.934620333333335, "type": "electric_scooter", "lon": -77.02738833333333, "bike_id": "f5bb3d3770160af0d826f5847eb46c00", "rental_uris": {"android": "https://dc.lft.to/lastmile_qr_scan", "ios": "https://dc.lft.to/lastmile_qr_scan"}, "name": "f5bb3d3770160af0d826f5847eb46c00", "is_reserved": 0}, {"is_disabled": 0, "fusion_lon": 0.0, "fusion_lat": 0.0, "lat": 38.93489, "type": "electric_scooter", "lon": -77.03285633333333, "bike_id": "9f1ad473c52b5b0d1c1f5f7e5c1aa3a6", "rental_uris": {"android": "https://dc.lft.to/lastmile_qr_scan", "ios": "https://dc.lft.to/lastmile_qr_scan"}, "name": "9f1ad473c52b5b0d1c1f5f7e5c1aa3a6", "is_reserved": 0}, {"is_disabled": 0, "fusion_lon": 0.0, "fusion_lat": 0.0, "lat": 38.96558116666667, "type": "electric_bike", "lon": -77.02301733333333, "bike_id": "4cd3a2f38de4cf1e7e048cb78c6a4b4a", "rental_uris": {"android": "https://dc.lft.to/lastmile_qr_scan", "ios": "https://dc.lft.to/lastmile_qr_scan"}, "name": "4cd3a2f38de4cf1e7e048cb78c6a4b4a", "is_reserved": 0}, {"is_disabled": 0, "fusion_lon": 0.0, "fusion_lat": 0.0, "lat": 38.903266, "type": "electric_scooter", "lon": -77.02895433333333, "bike_id": "3fb4950d7fa9258c79bf0c401d3fca8c", "rental_uris": {"android": "https://dc.lft.to/lastmile_qr_scan", "ios": "https://dc.lft.to/lastmile_qr_scan"}, "name": "3fb4950d7fa9258c79bf0c401d3fca8c", "is_reserved": 0}, {"is_disabled": 0, "fusion_lon": 0.0, "fusion_lat": 0.0, "lat": 38.91779916666667, "type": "electric_scooter", "lon": -77.04151883333333, "bike_id": "89c19fb1407dedea29c7a2069de37c9a", "rental_uris": {"android": "https://dc.lft.to/lastmile_qr_scan", "ios": "https://dc.lft.to/lastmile_qr_scan"}, "name": "89c19fb1407dedea29c7a2069de37c9a", "is_reserved": 0}, {"is_disabled": 0, "fusion_lon": 0.0, "fusion_lat": 0.0, "lat": 38.91903933333333, "type": "electric_scooter", "lon": -77.02759183333333, "bike_id": "eb38c9879b43fe2be5a647a31f353f1a", "rental_uris": {"android": "https://dc.lft.to/lastmile_qr_scan", "ios": "https://dc.lft.to/lastmile_qr_scan"}, "name": "eb38c9879b43fe2be5a647a31f353f1a", "is_reserved": 0}, {"is_disabled": 0, "fusion_lon": 0.0, "fusion_lat": 0.0, "lat": 38.89755983333333, "type": "electric_scooter", "lon": -77.02761183333334, "bike_id": "152d4b2325911ed586067f07540d523f", "rental_uris": {"android": "https://dc.lft.to/lastmile_qr_scan", "ios": "https://dc.lft.to/lastmile_qr_scan"}, "name": "152d4b2325911ed586067f07540d523f", "is_reserved": 0}, {"is_disabled": 0, "fusion_lon": 0.0, "fusion_lat": 0.0, "lat": 38.873471333333335, "type": "electric_scooter", "lon": -77.01740766666667, "bike_id": "c9ef738ee65e444e0114c4cba67d2f88", "rental_uris": {"android": "https://dc.lft.to/lastmile_qr_scan", "ios": "https://dc.lft.to/lastmile_qr_scan"}, "name": "c9ef738ee65e444e0114c4cba67d2f88", "is_reserved": 0}, {"is_disabled": 0, "fusion_lon": 0.0, "fusion_lat": 0.0, "lat": 38.908513, "type": "electric_scooter", "lon": -77.06082416666666, "bike_id": "ee0c97f366c56cd825e2535329fb4ed5", "rental_uris": {"android": "https://dc.lft.to/lastmile_qr_scan", "ios": "https://dc.lft.to/lastmile_qr_scan"}, "name": "ee0c97f366c56cd825e2535329fb4ed5", "is_reserved": 0}, {"is_disabled": 0, "fusion_lon": 0.0, "fusion_lat": 0.0, "lat": 38.94518333333333, "type": "electric_bike", "lon": -77.02650366666667, "bike_id": "3371f86ceed3630cfcb17b3314bd6455", "rental_uris": {"android": "https://dc.lft.to/lastmile_qr_scan", "ios": "https://dc.lft.to/lastmile_qr_scan"}, "name": "3371f86ceed3630cfcb17b3314bd6455", "is_reserved": 0}, {"is_disabled": 0, "fusion_lon": 0.0, "fusion_lat": 0.0, "lat": 38.897399166666666, "type": "electric_scooter", "lon": -77.05121933333334, "bike_id": "ce64d831254b0343d25601709c0535cc", "rental_uris": {"android": "https://dc.lft.to/lastmile_qr_scan", "ios": "https://dc.lft.to/lastmile_qr_scan"}, "name": "ce64d831254b0343d25601709c0535cc", "is_reserved": 0}, {"is_disabled": 0, "fusion_lon": 0.0, "fusion_lat": 0.0, "lat": 38.89521166666667, "type": "electric_scooter", "lon": -76.94915116666667, "bike_id": "a50703e4b142e776a637ec87f3d9f6ef", "rental_uris": {"android": "https://dc.lft.to/lastmile_qr_scan", "ios": "https://dc.lft.to/lastmile_qr_scan"}, "name": "a50703e4b142e776a637ec87f3d9f6ef", "is_reserved": 0}, {"is_disabled": 0, "fusion_lon": 0.0, "fusion_lat": 0.0, "lat": 38.93640933333333, "type": "electric_scooter", "lon": -77.02693666666667, "bike_id": "cdf8e48ea6e1b30e7851edd26d6932ef", "rental_uris": {"android": "https://dc.lft.to/lastmile_qr_scan", "ios": "https://dc.lft.to/lastmile_qr_scan"}, "name": "cdf8e48ea6e1b30e7851edd26d6932ef", "is_reserved": 0}, {"is_disabled": 0, "fusion_lon": 0.0, "fusion_lat": 0.0, "lat": 38.894213, "type": "electric_bike", "lon": -76.98466416666666, "bike_id": "20ad122916064ada3549696a0c171d9d", "rental_uris": {"android": "https://dc.lft.to/lastmile_qr_scan", "ios": "https://dc.lft.to/lastmile_qr_scan"}, "name": "20ad122916064ada3549696a0c171d9d", "is_reserved": 0}, {"is_disabled": 0, "fusion_lon": 0.0, "fusion_lat": 0.0, "lat": 38.93528033333333, "type": "electric_scooter", "lon": -77.06636633333333, "bike_id": "e2082ce0b652a4e93424ee9207ea7f06", "rental_uris": {"android": "https://dc.lft.to/lastmile_qr_scan", "ios": "https://dc.lft.to/lastmile_qr_scan"}, "name": "e2082ce0b652a4e93424ee9207ea7f06", "is_reserved": 0}, {"is_disabled": 0, "fusion_lon": 0.0, "fusion_lat": 0.0, "lat": 38.9255865, "type": "electric_bike", "lon": -77.00140116666667, "bike_id": "0be0e9c579d8dff2b5d423ee0f68d9f5", "rental_uris": {"android": "https://dc.lft.to/lastmile_qr_scan", "ios": "https://dc.lft.to/lastmile_qr_scan"}, "name": "0be0e9c579d8dff2b5d423ee0f68d9f5", "is_reserved": 0}, {"is_disabled": 0, "fusion_lon": 0.0, "fusion_lat": 0.0, "lat": 38.903239166666665, "type": "electric_scooter", "lon": -77.04009883333333, "bike_id": "1e8b9a78c305f9ccae5776589e221fcb", "rental_uris": {"android": "https://dc.lft.to/lastmile_qr_scan", "ios": "https://dc.lft.to/lastmile_qr_scan"}, "name": "1e8b9a78c305f9ccae5776589e221fcb", "is_reserved": 0}, {"is_disabled": 0, "fusion_lon": 0.0, "fusion_lat": 0.0, "lat": 38.91779116666667, "type": "electric_scooter", "lon": -77.04300233333333, "bike_id": "9fa61317546ee6c48838838cc8db0bbb", "rental_uris": {"android": "https://dc.lft.to/lastmile_qr_scan", "ios": "https://dc.lft.to/lastmile_qr_scan"}, "name": "9fa61317546ee6c48838838cc8db0bbb", "is_reserved": 0}, {"is_disabled": 0, "fusion_lon": 0.0, "fusion_lat": 0.0, "lat": 38.916042166666664, "type": "electric_scooter", "lon": -77.045986, "bike_id": "d4c53ee35b7f9f2eaa727a6608033238", "rental_uris": {"android": "https://dc.lft.to/lastmile_qr_scan", "ios": "https://dc.lft.to/lastmile_qr_scan"}, "name": "d4c53ee35b7f9f2eaa727a6608033238", "is_reserved": 0}, {"is_disabled": 0, "fusion_lon": 0.0, "fusion_lat": 0.0, "lat": 38.9070505, "type": "electric_scooter", "lon": -76.986913, "bike_id": "33546056a262295be046d250585e637d", "rental_uris": {"android": "https://dc.lft.to/lastmile_qr_scan", "ios": "https://dc.lft.to/lastmile_qr_scan"}, "name": "33546056a262295be046d250585e637d", "is_reserved": 0}, {"is_disabled": 0, "fusion_lon": 0.0, "fusion_lat": 0.0, "lat": 38.9245845, "type": "electric_bike", "lon": -76.999482, "bike_id": "113d40d7e18930c606e26215e5ae7b65", "rental_uris": {"android": "https://dc.lft.to/lastmile_qr_scan", "ios": "https://dc.lft.to/lastmile_qr_scan"}, "name": "113d40d7e18930c606e26215e5ae7b65", "is_reserved": 0}, {"is_disabled": 0, "fusion_lon": 0.0, "fusion_lat": 0.0, "lat": 38.9682005, "type": "electric_scooter", "lon": -77.00892183333333, "bike_id": "af4132b61ff033243de875eeb4a188bc", "rental_uris": {"android": "https://dc.lft.to/lastmile_qr_scan", "ios": "https://dc.lft.to/lastmile_qr_scan"}, "name": "af4132b61ff033243de875eeb4a188bc", "is_reserved": 0}, {"is_disabled": 0, "fusion_lon": 0.0, "fusion_lat": 0.0, "lat": 38.91659533333333, "type": "electric_scooter", "lon": -77.04652666666667, "bike_id": "c8144e64a2958d796b816a3a05810384", "rental_uris": {"android": "https://dc.lft.to/lastmile_qr_scan", "ios": "https://dc.lft.to/lastmile_qr_scan"}, "name": "c8144e64a2958d796b816a3a05810384", "is_reserved": 0}, {"is_disabled": 0, "fusion_lon": 0.0, "fusion_lat": 0.0, "lat": 38.90169316666667, "type": "electric_scooter", "lon": -77.049848, "bike_id": "82b17377dc660b9b8812810a7de1e30a", "rental_uris": {"android": "https://dc.lft.to/lastmile_qr_scan", "ios": "https://dc.lft.to/lastmile_qr_scan"}, "name": "82b17377dc660b9b8812810a7de1e30a", "is_reserved": 0}, {"is_disabled": 0, "fusion_lon": 0.0, "fusion_lat": 0.0, "lat": 38.9150285, "type": "electric_scooter", "lon": -77.00917733333333, "bike_id": "5f0b83c315a51f0d7755702a63ccb594", "rental_uris": {"android": "https://dc.lft.to/lastmile_qr_scan", "ios": "https://dc.lft.to/lastmile_qr_scan"}, "name": "5f0b83c315a51f0d7755702a63ccb594", "is_reserved": 0}, {"is_disabled": 0, "fusion_lon": 0.0, "fusion_lat": 0.0, "lat": 38.93912533333334, "type": "electric_scooter", "lon": -77.07807166666667, "bike_id": "e1e2baeba2c9110705706c743d18f764", "rental_uris": {"android": "https://dc.lft.to/lastmile_qr_scan", "ios": "https://dc.lft.to/lastmile_qr_scan"}, "name": "e1e2baeba2c9110705706c743d18f764", "is_reserved": 0}, {"is_disabled": 0, "fusion_lon": 0.0, "fusion_lat": 0.0, "lat": 38.8868785, "type": "electric_scooter", "lon": -77.013804, "bike_id": "ce49a12157f1febd3dfb98b7e95c58d0", "rental_uris": {"android": "https://dc.lft.to/lastmile_qr_scan", "ios": "https://dc.lft.to/lastmile_qr_scan"}, "name": "ce49a12157f1febd3dfb98b7e95c58d0", "is_reserved": 0}, {"is_disabled": 0, "fusion_lon": 0.0, "fusion_lat": 0.0, "lat": 38.92733333333334, "type": "electric_scooter", "lon": -77.0270925, "bike_id": "b7d48d0f7adc6666026cc5d15d445f57", "rental_uris": {"android": "https://dc.lft.to/lastmile_qr_scan", "ios": "https://dc.lft.to/lastmile_qr_scan"}, "name": "b7d48d0f7adc6666026cc5d15d445f57", "is_reserved": 0}, {"is_disabled": 0, "fusion_lon": 0.0, "fusion_lat": 0.0, "lat": 38.8867275, "type": "electric_scooter", "lon": -77.003635, "bike_id": "611797305efc309eb9649b2236454cc3", "rental_uris": {"android": "https://dc.lft.to/lastmile_qr_scan", "ios": "https://dc.lft.to/lastmile_qr_scan"}, "name": "611797305efc309eb9649b2236454cc3", "is_reserved": 0}, {"is_disabled": 0, "fusion_lon": 0.0, "fusion_lat": 0.0, "lat": 38.89730316666667, "type": "electric_bike", "lon": -76.90537866666666, "bike_id": "b84bf4cdc1be3874b861e8a1055f2f4e", "rental_uris": {"android": "https://dc.lft.to/lastmile_qr_scan", "ios": "https://dc.lft.to/lastmile_qr_scan"}, "name": "b84bf4cdc1be3874b861e8a1055f2f4e", "is_reserved": 0}, {"is_disabled": 0, "fusion_lon": 0.0, "fusion_lat": 0.0, "lat": 39.0520825, "type": "electric_bike", "lon": -77.04411166666667, "bike_id": "47c2f6d7a50230b8a480f4af15583ca4", "rental_uris": {"android": "https://dc.lft.to/lastmile_qr_scan", "ios": "https://dc.lft.to/lastmile_qr_scan"}, "name": "47c2f6d7a50230b8a480f4af15583ca4", "is_reserved": 0}, {"is_disabled": 0, "fusion_lon": 0.0, "fusion_lat": 0.0, "lat": 38.90303133333333, "type": "electric_scooter", "lon": -76.97991666666667, "bike_id": "fda80126863be29200a12f0280836d40", "rental_uris": {"android": "https://dc.lft.to/lastmile_qr_scan", "ios": "https://dc.lft.to/lastmile_qr_scan"}, "name": "fda80126863be29200a12f0280836d40", "is_reserved": 0}, {"is_disabled": 0, "fusion_lon": 0.0, "fusion_lat": 0.0, "lat": 38.9045415, "type": "electric_scooter", "lon": -77.03191033333333, "bike_id": "2e49c0173bdd2663a5d5d642843512c1", "rental_uris": {"android": "https://dc.lft.to/lastmile_qr_scan", "ios": "https://dc.lft.to/lastmile_qr_scan"}, "name": "2e49c0173bdd2663a5d5d642843512c1", "is_reserved": 0}, {"is_disabled": 0, "fusion_lon": 0.0, "fusion_lat": 0.0, "lat": 38.921232, "type": "electric_scooter", "lon": -77.012132, "bike_id": "5eda26683ff0a4cc342e5348b5db03cf", "rental_uris": {"android": "https://dc.lft.to/lastmile_qr_scan", "ios": "https://dc.lft.to/lastmile_qr_scan"}, "name": "5eda26683ff0a4cc342e5348b5db03cf", "is_reserved": 0}, {"is_disabled": 0, "fusion_lon": 0.0, "fusion_lat": 0.0, "lat": 38.95965116666667, "type": "electric_scooter", "lon": -77.02111316666667, "bike_id": "3f13cf4ba9dd7646abf46b0a7fdd57a8", "rental_uris": {"android": "https://dc.lft.to/lastmile_qr_scan", "ios": "https://dc.lft.to/lastmile_qr_scan"}, "name": "3f13cf4ba9dd7646abf46b0a7fdd57a8", "is_reserved": 0}, {"is_disabled": 0, "fusion_lon": 0.0, "fusion_lat": 0.0, "lat": 38.90750333333333, "type": "electric_scooter", "lon": -77.0360235, "bike_id": "dec7e9799bedad8cee36aa517669289f", "rental_uris": {"android": "https://dc.lft.to/lastmile_qr_scan", "ios": "https://dc.lft.to/lastmile_qr_scan"}, "name": "dec7e9799bedad8cee36aa517669289f", "is_reserved": 0}, {"is_disabled": 0, "fusion_lon": 0.0, "fusion_lat": 0.0, "lat": 38.88389733333333, "type": "electric_bike", "lon": -77.03077566666667, "bike_id": "663a5f7e1ac651d150c7444c71c63729", "rental_uris": {"android": "https://dc.lft.to/lastmile_qr_scan", "ios": "https://dc.lft.to/lastmile_qr_scan"}, "name": "663a5f7e1ac651d150c7444c71c63729", "is_reserved": 0}, {"is_disabled": 0, "fusion_lon": 0.0, "fusion_lat": 0.0, "lat": 38.9356215, "type": "electric_scooter", "lon": -77.08198066666667, "bike_id": "f0a2daf7d262d966f3c6ce699e01620d", "rental_uris": {"android": "https://dc.lft.to/lastmile_qr_scan", "ios": "https://dc.lft.to/lastmile_qr_scan"}, "name": "f0a2daf7d262d966f3c6ce699e01620d", "is_reserved": 0}, {"is_disabled": 0, "fusion_lon": 0.0, "fusion_lat": 0.0, "lat": 38.8459875, "type": "electric_bike", "lon": -76.968864, "bike_id": "dbd22513e783006bb7957024a08bf468", "rental_uris": {"android": "https://dc.lft.to/lastmile_qr_scan", "ios": "https://dc.lft.to/lastmile_qr_scan"}, "name": "dbd22513e783006bb7957024a08bf468", "is_reserved": 0}, {"is_disabled": 0, "fusion_lon": 0.0, "fusion_lat": 0.0, "lat": 38.95632366666667, "type": "electric_scooter", "lon": -77.02984366666666, "bike_id": "1b4669cbc5575959e383449210d4994d", "rental_uris": {"android": "https://dc.lft.to/lastmile_qr_scan", "ios": "https://dc.lft.to/lastmile_qr_scan"}, "name": "1b4669cbc5575959e383449210d4994d", "is_reserved": 0}, {"is_disabled": 0, "fusion_lon": 0.0, "fusion_lat": 0.0, "lat": 38.8950805, "type": "electric_scooter", "lon": -77.01605783333333, "bike_id": "64e35b52df9b44ba191aa28959d07aa9", "rental_uris": {"android": "https://dc.lft.to/lastmile_qr_scan", "ios": "https://dc.lft.to/lastmile_qr_scan"}, "name": "64e35b52df9b44ba191aa28959d07aa9", "is_reserved": 0}, {"is_disabled": 0, "fusion_lon": 0.0, "fusion_lat": 0.0, "lat": 38.899113, "type": "electric_scooter", "lon": -76.93389433333333, "bike_id": "dbbe5f21cf0b66396e589409fdcdb0a9", "rental_uris": {"android": "https://dc.lft.to/lastmile_qr_scan", "ios": "https://dc.lft.to/lastmile_qr_scan"}, "name": "dbbe5f21cf0b66396e589409fdcdb0a9", "is_reserved": 0}, {"is_disabled": 0, "fusion_lon": 0.0, "fusion_lat": 0.0, "lat": 38.927520333333334, "type": "electric_scooter", "lon": -77.07594433333334, "bike_id": "b05b26b0823e40e88f851351af1bde99", "rental_uris": {"android": "https://dc.lft.to/lastmile_qr_scan", "ios": "https://dc.lft.to/lastmile_qr_scan"}, "name": "b05b26b0823e40e88f851351af1bde99", "is_reserved": 0}, {"is_disabled": 0, "fusion_lon": 0.0, "fusion_lat": 0.0, "lat": 38.928966833333334, "type": "electric_scooter", "lon": -76.98454016666666, "bike_id": "e8f4671ce63a218d5bae6f148dfbc318", "rental_uris": {"android": "https://dc.lft.to/lastmile_qr_scan", "ios": "https://dc.lft.to/lastmile_qr_scan"}, "name": "e8f4671ce63a218d5bae6f148dfbc318", "is_reserved": 0}, {"is_disabled": 0, "fusion_lon": 0.0, "fusion_lat": 0.0, "lat": 38.902882, "type": "electric_scooter", "lon": -77.04251266666667, "bike_id": "2a0dec486c510fd545b97400749771f3", "rental_uris": {"android": "https://dc.lft.to/lastmile_qr_scan", "ios": "https://dc.lft.to/lastmile_qr_scan"}, "name": "2a0dec486c510fd545b97400749771f3", "is_reserved": 0}, {"is_disabled": 0, "fusion_lon": 0.0, "fusion_lat": 0.0, "lat": 38.924470666666664, "type": "electric_bike", "lon": -76.96833216666667, "bike_id": "bada17218df57fc2650320593c54c783", "rental_uris": {"android": "https://dc.lft.to/lastmile_qr_scan", "ios": "https://dc.lft.to/lastmile_qr_scan"}, "name": "bada17218df57fc2650320593c54c783", "is_reserved": 0}, {"is_disabled": 0, "fusion_lon": 0.0, "fusion_lat": 0.0, "lat": 38.936314833333334, "type": "electric_scooter", "lon": -77.03659833333333, "bike_id": "4cfc37cdbfd9b3e42adee988ff2df414", "rental_uris": {"android": "https://dc.lft.to/lastmile_qr_scan", "ios": "https://dc.lft.to/lastmile_qr_scan"}, "name": "4cfc37cdbfd9b3e42adee988ff2df414", "is_reserved": 0}, {"is_disabled": 0, "fusion_lon": 0.0, "fusion_lat": 0.0, "lat": 39.105677666666665, "type": "electric_bike", "lon": -77.152693, "bike_id": "d77de9423fe79be09a2ab0f203325904", "rental_uris": {"android": "https://dc.lft.to/lastmile_qr_scan", "ios": "https://dc.lft.to/lastmile_qr_scan"}, "name": "d77de9423fe79be09a2ab0f203325904", "is_reserved": 0}, {"is_disabled": 0, "fusion_lon": 0.0, "fusion_lat": 0.0, "lat": 38.92309016666667, "type": "electric_bike", "lon": -76.99410083333333, "bike_id": "150ed0449b86fadf213c5f94ab85c188", "rental_uris": {"android": "https://dc.lft.to/lastmile_qr_scan", "ios": "https://dc.lft.to/lastmile_qr_scan"}, "name": "150ed0449b86fadf213c5f94ab85c188", "is_reserved": 0}, {"is_disabled": 0, "fusion_lon": 0.0, "fusion_lat": 0.0, "lat": 38.9285145, "type": "electric_bike", "lon": -77.020725, "bike_id": "6186926cab0706acad4abb42fa79ca08", "rental_uris": {"android": "https://dc.lft.to/lastmile_qr_scan", "ios": "https://dc.lft.to/lastmile_qr_scan"}, "name": "6186926cab0706acad4abb42fa79ca08", "is_reserved": 0}, {"is_disabled": 0, "fusion_lon": 0.0, "fusion_lat": 0.0, "lat": 38.9249145, "type": "electric_scooter", "lon": -76.99671516666666, "bike_id": "3ef756538a5ebf3c93b3f8b9ee76022c", "rental_uris": {"android": "https://dc.lft.to/lastmile_qr_scan", "ios": "https://dc.lft.to/lastmile_qr_scan"}, "name": "3ef756538a5ebf3c93b3f8b9ee76022c", "is_reserved": 0}, {"is_disabled": 0, "fusion_lon": 0.0, "fusion_lat": 0.0, "lat": 38.893711333333336, "type": "electric_scooter", "lon": -76.94997783333334, "bike_id": "d0a2f2342ce5f2ea2df0fb29b7e47e21", "rental_uris": {"android": "https://dc.lft.to/lastmile_qr_scan", "ios": "https://dc.lft.to/lastmile_qr_scan"}, "name": "d0a2f2342ce5f2ea2df0fb29b7e47e21", "is_reserved": 0}, {"is_disabled": 0, "fusion_lon": 0.0, "fusion_lat": 0.0, "lat": 38.9291575, "type": "electric_scooter", "lon": -77.02348516666666, "bike_id": "007f6e432b66c3d7ac5051e8cf2299fd", "rental_uris": {"android": "https://dc.lft.to/lastmile_qr_scan", "ios": "https://dc.lft.to/lastmile_qr_scan"}, "name": "007f6e432b66c3d7ac5051e8cf2299fd", "is_reserved": 0}, {"is_disabled": 0, "fusion_lon": 0.0, "fusion_lat": 0.0, "lat": 38.92083266666667, "type": "electric_bike", "lon": -77.00337433333333, "bike_id": "84ed753a459b5ca22a110cd554bddaf6", "rental_uris": {"android": "https://dc.lft.to/lastmile_qr_scan", "ios": "https://dc.lft.to/lastmile_qr_scan"}, "name": "84ed753a459b5ca22a110cd554bddaf6", "is_reserved": 0}, {"is_disabled": 0, "fusion_lon": 0.0, "fusion_lat": 0.0, "lat": 38.82731616666667, "type": "electric_bike", "lon": -77.0086555, "bike_id": "3dcaa7af1fba57ba3d16c6c7353caae3", "rental_uris": {"android": "https://dc.lft.to/lastmile_qr_scan", "ios": "https://dc.lft.to/lastmile_qr_scan"}, "name": "3dcaa7af1fba57ba3d16c6c7353caae3", "is_reserved": 0}, {"is_disabled": 0, "fusion_lon": 0.0, "fusion_lat": 0.0, "lat": 38.90615233333333, "type": "electric_scooter", "lon": -77.02797416666667, "bike_id": "c3ea8dffbc7010e9c4a81861a2b4b0ee", "rental_uris": {"android": "https://dc.lft.to/lastmile_qr_scan", "ios": "https://dc.lft.to/lastmile_qr_scan"}, "name": "c3ea8dffbc7010e9c4a81861a2b4b0ee", "is_reserved": 0}, {"is_disabled": 0, "fusion_lon": 0.0, "fusion_lat": 0.0, "lat": 38.906729166666665, "type": "electric_scooter", "lon": -77.02718633333333, "bike_id": "5b108944d219eef401bb998774cf52bb", "rental_uris": {"android": "https://dc.lft.to/lastmile_qr_scan", "ios": "https://dc.lft.to/lastmile_qr_scan"}, "name": "5b108944d219eef401bb998774cf52bb", "is_reserved": 0}, {"is_disabled": 0, "fusion_lon": 0.0, "fusion_lat": 0.0, "lat": 38.935315833333334, "type": "electric_scooter", "lon": -77.02378566666667, "bike_id": "48c283cbdaeaa9864868870bd876dac5", "rental_uris": {"android": "https://dc.lft.to/lastmile_qr_scan", "ios": "https://dc.lft.to/lastmile_qr_scan"}, "name": "48c283cbdaeaa9864868870bd876dac5", "is_reserved": 0}, {"is_disabled": 0, "fusion_lon": 0.0, "fusion_lat": 0.0, "lat": 38.893665, "type": "electric_scooter", "lon": -77.02261983333334, "bike_id": "e813bed70b74e9c68b013fb784653463", "rental_uris": {"android": "https://dc.lft.to/lastmile_qr_scan", "ios": "https://dc.lft.to/lastmile_qr_scan"}, "name": "e813bed70b74e9c68b013fb784653463", "is_reserved": 0}, {"is_disabled": 0, "fusion_lon": 0.0, "fusion_lat": 0.0, "lat": 38.90723116666667, "type": "electric_scooter", "lon": -77.03064416666666, "bike_id": "8b536917ba51f8b3f5e5a8f6d5f10606", "rental_uris": {"android": "https://dc.lft.to/lastmile_qr_scan", "ios": "https://dc.lft.to/lastmile_qr_scan"}, "name": "8b536917ba51f8b3f5e5a8f6d5f10606", "is_reserved": 0}, {"is_disabled": 0, "fusion_lon": 0.0, "fusion_lat": 0.0, "lat": 38.9056485, "type": "electric_scooter", "lon": -77.03015766666667, "bike_id": "c5afe4a0dc7b0b200a7ec541444066b8", "rental_uris": {"android": "https://dc.lft.to/lastmile_qr_scan", "ios": "https://dc.lft.to/lastmile_qr_scan"}, "name": "c5afe4a0dc7b0b200a7ec541444066b8", "is_reserved": 0}, {"is_disabled": 0, "fusion_lon": 0.0, "fusion_lat": 0.0, "lat": 38.8886865, "type": "electric_scooter", "lon": -76.9774005, "bike_id": "1845ceb7470e2e84f22ef483c922eaa9", "rental_uris": {"android": "https://dc.lft.to/lastmile_qr_scan", "ios": "https://dc.lft.to/lastmile_qr_scan"}, "name": "1845ceb7470e2e84f22ef483c922eaa9", "is_reserved": 0}, {"is_disabled": 0, "fusion_lon": 0.0, "fusion_lat": 0.0, "lat": 38.931307, "type": "electric_scooter", "lon": -77.05712466666667, "bike_id": "f928f2df605848c654b61bc0b9588aab", "rental_uris": {"android": "https://dc.lft.to/lastmile_qr_scan", "ios": "https://dc.lft.to/lastmile_qr_scan"}, "name": "f928f2df605848c654b61bc0b9588aab", "is_reserved": 0}, {"is_disabled": 0, "fusion_lon": 0.0, "fusion_lat": 0.0, "lat": 38.91815416666667, "type": "electric_scooter", "lon": -77.02447533333333, "bike_id": "a0ab8d0de2fb88b30c7a306f797c3641", "rental_uris": {"android": "https://dc.lft.to/lastmile_qr_scan", "ios": "https://dc.lft.to/lastmile_qr_scan"}, "name": "a0ab8d0de2fb88b30c7a306f797c3641", "is_reserved": 0}, {"is_disabled": 0, "fusion_lon": 0.0, "fusion_lat": 0.0, "lat": 38.8963745, "type": "electric_scooter", "lon": -77.04334633333333, "bike_id": "b8d1c7e917f77e56a4167c5d076bfc2a", "rental_uris": {"android": "https://dc.lft.to/lastmile_qr_scan", "ios": "https://dc.lft.to/lastmile_qr_scan"}, "name": "b8d1c7e917f77e56a4167c5d076bfc2a", "is_reserved": 0}, {"is_disabled": 0, "fusion_lon": 0.0, "fusion_lat": 0.0, "lat": 38.9119975, "type": "electric_scooter", "lon": -77.01210333333333, "bike_id": "a753b8cd6800eaad7a179abc2add5e62", "rental_uris": {"android": "https://dc.lft.to/lastmile_qr_scan", "ios": "https://dc.lft.to/lastmile_qr_scan"}, "name": "a753b8cd6800eaad7a179abc2add5e62", "is_reserved": 0}, {"is_disabled": 0, "fusion_lon": 0.0, "fusion_lat": 0.0, "lat": 38.935082666666666, "type": "electric_scooter", "lon": -77.02422866666667, "bike_id": "c617262d0c19b5d28049160c3e2c5cc2", "rental_uris": {"android": "https://dc.lft.to/lastmile_qr_scan", "ios": "https://dc.lft.to/lastmile_qr_scan"}, "name": "c617262d0c19b5d28049160c3e2c5cc2", "is_reserved": 0}, {"is_disabled": 0, "fusion_lon": 0.0, "fusion_lat": 0.0, "lat": 38.913282833333334, "type": "electric_scooter", "lon": -77.032531, "bike_id": "2f5a22b8cedcbeef3a10e3a4d7a842e8", "rental_uris": {"android": "https://dc.lft.to/lastmile_qr_scan", "ios": "https://dc.lft.to/lastmile_qr_scan"}, "name": "2f5a22b8cedcbeef3a10e3a4d7a842e8", "is_reserved": 0}, {"is_disabled": 0, "fusion_lon": 0.0, "fusion_lat": 0.0, "lat": 38.90561116666667, "type": "electric_scooter", "lon": -77.03414, "bike_id": "5b9c3a1f5814f492431164e00b70ffc1", "rental_uris": {"android": "https://dc.lft.to/lastmile_qr_scan", "ios": "https://dc.lft.to/lastmile_qr_scan"}, "name": "5b9c3a1f5814f492431164e00b70ffc1", "is_reserved": 0}, {"is_disabled": 0, "fusion_lon": 0.0, "fusion_lat": 0.0, "lat": 38.91727233333334, "type": "electric_scooter", "lon": -77.0320945, "bike_id": "1da7025c5d5c5cb21717befaeff18155", "rental_uris": {"android": "https://dc.lft.to/lastmile_qr_scan", "ios": "https://dc.lft.to/lastmile_qr_scan"}, "name": "1da7025c5d5c5cb21717befaeff18155", "is_reserved": 0}, {"is_disabled": 0, "fusion_lon": 0.0, "fusion_lat": 0.0, "lat": 38.88600683333333, "type": "electric_scooter", "lon": -77.02196133333334, "bike_id": "3dfef06f973fb594daefeef2208cc8b6", "rental_uris": {"android": "https://dc.lft.to/lastmile_qr_scan", "ios": "https://dc.lft.to/lastmile_qr_scan"}, "name": "3dfef06f973fb594daefeef2208cc8b6", "is_reserved": 0}, {"is_disabled": 0, "fusion_lon": 0.0, "fusion_lat": 0.0, "lat": 38.89194166666667, "type": "electric_scooter", "lon": -76.9883425, "bike_id": "a81b1a0c241d2e56ab97e13c16f0abbe", "rental_uris": {"android": "https://dc.lft.to/lastmile_qr_scan", "ios": "https://dc.lft.to/lastmile_qr_scan"}, "name": "a81b1a0c241d2e56ab97e13c16f0abbe", "is_reserved": 0}, {"is_disabled": 0, "fusion_lon": 0.0, "fusion_lat": 0.0, "lat": 38.910415666666665, "type": "electric_scooter", "lon": -77.0382845, "bike_id": "cab4c9975824bfd30fff1e16f5f81ef8", "rental_uris": {"android": "https://dc.lft.to/lastmile_qr_scan", "ios": "https://dc.lft.to/lastmile_qr_scan"}, "name": "cab4c9975824bfd30fff1e16f5f81ef8", "is_reserved": 0}, {"is_disabled": 0, "fusion_lon": 0.0, "fusion_lat": 0.0, "lat": 38.92321916666667, "type": "electric_scooter", "lon": -77.04525416666667, "bike_id": "d4a6c2a0fc541968e7c2d51383f6c3f9", "rental_uris": {"android": "https://dc.lft.to/lastmile_qr_scan", "ios": "https://dc.lft.to/lastmile_qr_scan"}, "name": "d4a6c2a0fc541968e7c2d51383f6c3f9", "is_reserved": 0}, {"is_disabled": 0, "fusion_lon": 0.0, "fusion_lat": 0.0, "lat": 38.859183, "type": "electric_scooter", "lon": -76.98782866666667, "bike_id": "2176ce9dc5648ec25c34fc3eed139220", "rental_uris": {"android": "https://dc.lft.to/lastmile_qr_scan", "ios": "https://dc.lft.to/lastmile_qr_scan"}, "name": "2176ce9dc5648ec25c34fc3eed139220", "is_reserved": 0}, {"is_disabled": 0, "fusion_lon": 0.0, "fusion_lat": 0.0, "lat": 38.92980166666667, "type": "electric_scooter", "lon": -77.03469666666666, "bike_id": "3276fde6a19e2ff3a1e6aebf00274cbd", "rental_uris": {"android": "https://dc.lft.to/lastmile_qr_scan", "ios": "https://dc.lft.to/lastmile_qr_scan"}, "name": "3276fde6a19e2ff3a1e6aebf00274cbd", "is_reserved": 0}, {"is_disabled": 0, "fusion_lon": 0.0, "fusion_lat": 0.0, "lat": 38.92603033333333, "type": "electric_scooter", "lon": -77.02155683333334, "bike_id": "2136975af1e3c420343b2898051352a7", "rental_uris": {"android": "https://dc.lft.to/lastmile_qr_scan", "ios": "https://dc.lft.to/lastmile_qr_scan"}, "name": "2136975af1e3c420343b2898051352a7", "is_reserved": 0}, {"is_disabled": 0, "fusion_lon": 0.0, "fusion_lat": 0.0, "lat": 38.902587833333335, "type": "electric_scooter", "lon": -77.01696116666666, "bike_id": "562ac5d6434e94f942bcdd75ad7bdc53", "rental_uris": {"android": "https://dc.lft.to/lastmile_qr_scan", "ios": "https://dc.lft.to/lastmile_qr_scan"}, "name": "562ac5d6434e94f942bcdd75ad7bdc53", "is_reserved": 0}, {"is_disabled": 0, "fusion_lon": 0.0, "fusion_lat": 0.0, "lat": 38.934964666666666, "type": "electric_scooter", "lon": -77.02605133333333, "bike_id": "49987c3ee13afc42cd89162b64b9375d", "rental_uris": {"android": "https://dc.lft.to/lastmile_qr_scan", "ios": "https://dc.lft.to/lastmile_qr_scan"}, "name": "49987c3ee13afc42cd89162b64b9375d", "is_reserved": 0}, {"is_disabled": 0, "fusion_lon": 0.0, "fusion_lat": 0.0, "lat": 38.883958166666666, "type": "electric_scooter", "lon": -77.0174155, "bike_id": "c3dbf6c8d4b4ac5a9b40c20c1cc1a502", "rental_uris": {"android": "https://dc.lft.to/lastmile_qr_scan", "ios": "https://dc.lft.to/lastmile_qr_scan"}, "name": "c3dbf6c8d4b4ac5a9b40c20c1cc1a502", "is_reserved": 0}, {"is_disabled": 0, "fusion_lon": 0.0, "fusion_lat": 0.0, "lat": 38.9284855, "type": "electric_scooter", "lon": -77.01408666666667, "bike_id": "17a203a0397a316ecfaf83dc04fa8bd1", "rental_uris": {"android": "https://dc.lft.to/lastmile_qr_scan", "ios": "https://dc.lft.to/lastmile_qr_scan"}, "name": "17a203a0397a316ecfaf83dc04fa8bd1", "is_reserved": 0}, {"is_disabled": 0, "fusion_lon": 0.0, "fusion_lat": 0.0, "lat": 38.9563055, "type": "electric_scooter", "lon": -77.02462316666667, "bike_id": "f1fc0b06446723019e1e0c5e54682107", "rental_uris": {"android": "https://dc.lft.to/lastmile_qr_scan", "ios": "https://dc.lft.to/lastmile_qr_scan"}, "name": "f1fc0b06446723019e1e0c5e54682107", "is_reserved": 0}, {"is_disabled": 0, "fusion_lon": 0.0, "fusion_lat": 0.0, "lat": 38.918085, "type": "electric_scooter", "lon": -77.02690083333333, "bike_id": "bae3542ade41d76b0fbbf621a21b84e7", "rental_uris": {"android": "https://dc.lft.to/lastmile_qr_scan", "ios": "https://dc.lft.to/lastmile_qr_scan"}, "name": "bae3542ade41d76b0fbbf621a21b84e7", "is_reserved": 0}, {"is_disabled": 0, "fusion_lon": 0.0, "fusion_lat": 0.0, "lat": 38.92442666666667, "type": "electric_scooter", "lon": -77.0402365, "bike_id": "375595483e795d8db56a7bd6c1f0d439", "rental_uris": {"android": "https://dc.lft.to/lastmile_qr_scan", "ios": "https://dc.lft.to/lastmile_qr_scan"}, "name": "375595483e795d8db56a7bd6c1f0d439", "is_reserved": 0}, {"is_disabled": 0, "fusion_lon": 0.0, "fusion_lat": 0.0, "lat": 38.916022166666664, "type": "electric_scooter", "lon": -77.02337033333333, "bike_id": "84e0b30f2b31f6e7c46eb55970b62120", "rental_uris": {"android": "https://dc.lft.to/lastmile_qr_scan", "ios": "https://dc.lft.to/lastmile_qr_scan"}, "name": "84e0b30f2b31f6e7c46eb55970b62120", "is_reserved": 0}, {"is_disabled": 0, "fusion_lon": 0.0, "fusion_lat": 0.0, "lat": 38.8634535, "type": "electric_scooter", "lon": -76.98255633333333, "bike_id": "22bd21f757c39041cbbea48dce5bb2bd", "rental_uris": {"android": "https://dc.lft.to/lastmile_qr_scan", "ios": "https://dc.lft.to/lastmile_qr_scan"}, "name": "22bd21f757c39041cbbea48dce5bb2bd", "is_reserved": 0}, {"is_disabled": 0, "fusion_lon": 0.0, "fusion_lat": 0.0, "lat": 38.9180905, "type": "electric_scooter", "lon": -77.02443766666667, "bike_id": "10cd34311b470ef91d3de16f6445ea71", "rental_uris": {"android": "https://dc.lft.to/lastmile_qr_scan", "ios": "https://dc.lft.to/lastmile_qr_scan"}, "name": "10cd34311b470ef91d3de16f6445ea71", "is_reserved": 0},