{"data": {"bikes": [{"fusion_lat": 0.0, "name": "b4016b0fac9fc9e032d4d7cc61f60299", "is_disabled": 0, "rental_uris": {"android": "https://dc.lft.to/lastmile_qr_scan", "ios": "https://dc.lft.to/lastmile_qr_scan"}, "fusion_lon": 0.0, "lat": 38.790223, "bike_id": "b4016b0fac9fc9e032d4d7cc61f60299", "type": "electric_bike", "is_reserved": 0, "lon": -77.01547083333334}, {"fusion_lat": 0.0, "name": "a5d73033496f53d16085e8f9f5dd0236", "is_disabled": 0, "rental_uris": {"android": "https://dc.lft.to/lastmile_qr_scan", "ios": "https://dc.lft.to/lastmile_qr_scan"}, "fusion_lon": 0.0, "lat": 38.90121283333333, "bike_id": "a5d73033496f53d16085e8f9f5dd0236", "type": "electric_scooter", "is_reserved": 0, "lon": -77.02179533333333}, {"fusion_lat": 0.0, "name": "7301688078a82beb03e5267a291543c1", "is_disabled": 0, "rental_uris": {"android": "https://dc.lft.to/lastmile_qr_scan", "ios": "https://dc.lft.to/lastmile_qr_scan"}, "fusion_lon": 0.0, "lat": 38.885754666666664, "bike_id": "7301688078a82beb03e5267a291543c1", "type": "electric_scooter", "is_reserved": 0, "lon": -77.01212166666667}, {"fusion_lat": 0.0, "name": "fa00f6d9ed073f695ab77e83dd3701a2", "is_disabled": 0, "rental_uris": {"android": "https://dc.lft.to/lastmile_qr_scan", "ios": "https://dc.lft.to/lastmile_qr_scan"}, "fusion_lon": 0.0, "lat": 38.9212475, "bike_id": "fa00f6d9ed073f695ab77e83dd3701a2", "type": "electric_scooter", "is_reserved": 0, "lon": -77.04698533333334}, {"fusion_lat": 0.0, "name": "d6274e62e13ba2f0838a4c4905d3219e", "is_disabled": 0, "rental_uris": {"android": "https://dc.lft.to/lastmile_qr_scan", "ios": "https://dc.lft.to/lastmile_qr_scan"}, "fusion_lon": 0.0, "lat": 38.9077435, "bike_id": "d6274e62e13ba2f0838a4c4905d3219e", "type": "electric_scooter", "is_reserved": 0, "lon": -77.03189483333334}, {"fusion_lat": 0.0, "name": "29705bb1dfca5a6dfbf00ca35775925c", "is_disabled": 0, "rental_uris": {"android": "https://dc.lft.to/lastmile_qr_scan", "ios": "https://dc.lft.to/lastmile_qr_scan"}, "fusion_lon": 0.0, "lat": 38.905964166666664, "bike_id": "29705bb1dfca5a6dfbf00ca35775925c", "type": "electric_scooter", "is_reserved": 0, "lon": -77.06479316666666}, {"fusion_lat": 0.0, "name": "9c553fb9039e2fbc9541e413fb0da968", "is_disabled": 0, "rental_uris": {"android": "https://dc.lft.to/lastmile_qr_scan", "ios": "https://dc.lft.to/lastmile_qr_scan"}, "fusion_lon": 0.0, "lat": 38.926704, "bike_id": "9c553fb9039e2fbc9541e413fb0da968", "type": "electric_scooter", "is_reserved": 0, "lon": -77.03053266666667}, {"fusion_lat": 0.0, "name": "8101a265e59bd14f74aafbfadd84f422", "is_disabled": 0, "rental_uris": {"android": "https://dc.lft.to/lastmile_qr_scan", "ios": "https://dc.lft.to/lastmile_qr_scan"}, "fusion_lon": 0.0, "lat": 38.94431083333333, "bike_id": "8101a265e59bd14f74aafbfadd84f422", "type": "electric_bike", "is_reserved": 0, "lon": -77.02602416666667}, {"fusion_lat": 0.0, "name": "e9976ca4181c40dccd082b3a5ec9b0aa", "is_disabled": 0, "rental_uris": {"android": "https://dc.lft.to/lastmile_qr_scan", "ios": "https://dc.lft.to/lastmile_qr_scan"}, "fusion_lon": 0.0, "lat": 38.8908905, "bike_id": "e9976ca4181c40dccd082b3a5ec9b0aa", "type": "electric_scooter", "is_reserved": 0, "lon": -76.919307}, {"fusion_lat": 0.0, "name": "7c36336492aa52a7cbb0432d0a30d4d2", "is_disabled": 0, "rental_uris": {"android": "https://dc.lft.to/lastmile_qr_scan", "ios": "https://dc.lft.to/lastmile_qr_scan"}, "fusion_lon": 0.0, "lat": 38.8874335, "bike_id": "7c36336492aa52a7cbb0432d0a30d4d2", "type": "electric_scooter", "is_reserved": 0, "lon": -77.0315975}, {"fusion_lat": 0.0, "name": "2c346d67f3f425fe6c2189d978be6917", "is_disabled": 0, "rental_uris": {"android": "https://dc.lft.to/lastmile_qr_scan", "ios": "https://dc.lft.to/lastmile_qr_scan"}, "fusion_lon": 0.0, "lat": 38.935933166666665, "bike_id": "2c346d67f3f425fe6c2189d978be6917", "type": "electric_scooter", "is_reserved": 0, "lon": -77.02297716666666}, {"fusion_lat": 0.0, "name": "c22a7e2c8d2dd96ad34bef8a471762ac", "is_disabled": 0, "rental_uris": {"android": "https://dc.lft.to/lastmile_qr_scan", "ios": "https://dc.lft.to/lastmile_qr_scan"}, "fusion_lon": 0.0, "lat": 38.918407, "bike_id": "c22a7e2c8d2dd96ad34bef8a471762ac", "type": "electric_scooter", "is_reserved": 0, "lon": -77.02426066666666}, {"fusion_lat": 0.0, "name": "ae416e1bbbb46eaa8e83dd8bc87e6741", "is_disabled": 0, "rental_uris": {"android": "https://dc.lft.to/lastmile_qr_scan", "ios": "https://dc.lft.to/lastmile_qr_scan"}, "fusion_lon": 0.0, "lat": 38.89220433333333, "bike_id": "ae416e1bbbb46eaa8e83dd8bc87e6741", "type": "electric_scooter", "is_reserved": 0, "lon": -77.04378483333333}, {"fusion_lat": 0.0, "name": "77af337991cf6b0b0965ed41c0ed72e2", "is_disabled": 0, "rental_uris": {"android": "https://dc.lft.to/lastmile_qr_scan", "ios": "https://dc.lft.to/lastmile_qr_scan"}, "fusion_lon": 0.0, "lat": 38.89482616666667, "bike_id": "77af337991cf6b0b0965ed41c0ed72e2", "type": "electric_scooter", "is_reserved": 0, "lon": -77.02177966666666}, {"fusion_lat": 0.0, "name": "df611a048dca6847e635e04a1251d3ed", "is_disabled": 0, "rental_uris": {"android": "https://dc.lft.to/lastmile_qr_scan", "ios": "https://dc.lft.to/lastmile_qr_scan"}, "fusion_lon": 0.0, "lat": 38.91805633333333, "bike_id": "df611a048dca6847e635e04a1251d3ed", "type": "electric_scooter", "is_reserved": 0, "lon": -77.03298383333333}, {"fusion_lat": 0.0, "name": "8cc9d636a6419e63ac6f3d79e625e74e", "is_disabled": 0, "rental_uris": {"android": "https://dc.lft.to/lastmile_qr_scan", "ios": "https://dc.lft.to/lastmile_qr_scan"}, "fusion_lon": 0.0, "lat": 38.92869483333333, "bike_id": "8cc9d636a6419e63ac6f3d79e625e74e", "type": "electric_scooter", "is_reserved": 0, "lon": -77.03481466666666}, {"fusion_lat": 0.0, "name": "50d91236ca895edb147d12937c98e1ef", "is_disabled": 0, "rental_uris": {"android": "https://dc.lft.to/lastmile_qr_scan", "ios": "https://dc.lft.to/lastmile_qr_scan"}, "fusion_lon": 0.0, "lat": 38.90055566666667, "bike_id": "50d91236ca895edb147d12937c98e1ef", "type": "electric_scooter", "is_reserved": 0, "lon": -77.00362416666667}, {"fusion_lat": 0.0, "name": "a70e8423d80bb3700c2ea5155901ca2b", "is_disabled": 0, "rental_uris": {"android": "https://dc.lft.to/lastmile_qr_scan", "ios": "https://dc.lft.to/lastmile_qr_scan"}, "fusion_lon": 0.0, "lat": 38.89806816666667, "bike_id": "a70e8423d80bb3700c2ea5155901ca2b", "type": "electric_scooter", "is_reserved": 0, "lon": -77.02702883333333}, {"fusion_lat": 0.0, "name": "02d879f17a75289e9f2926c9ff2b5d4c", "is_disabled": 0, "rental_uris": {"android": "https://dc.lft.to/lastmile_qr_scan", "ios": "https://dc.lft.to/lastmile_qr_scan"}, "fusion_lon": 0.0, "lat": 38.90940466666667, "bike_id": "02d879f17a75289e9f2926c9ff2b5d4c", "type": "electric_scooter", "is_reserved": 0, "lon": -77.02189083333333}, {"fusion_lat": 0.0, "name": "78c9da9b8b3ec213e5311e831ea37043", "is_disabled": 0, "rental_uris": {"android": "https://dc.lft.to/lastmile_qr_scan", "ios": "https://dc.lft.to/lastmile_qr_scan"}, "fusion_lon": 0.0, "lat": 38.915574166666666, "bike_id": "78c9da9b8b3ec213e5311e831ea37043", "type": "electric_scooter", "is_reserved": 0, "lon": -77.03821666666667}, {"fusion_lat": 0.0, "name": "501a56dbb50b7941cb371c7ad82ffc20", "is_disabled": 0, "rental_uris": {"android": "https://dc.lft.to/lastmile_qr_scan", "ios": "https://dc.lft.to/lastmile_qr_scan"}, "fusion_lon": 0.0, "lat": 38.914568833333334, "bike_id": "501a56dbb50b7941cb371c7ad82ffc20", "type": "electric_scooter", "is_reserved": 0, "lon": -77.0389175}, {"fusion_lat": 0.0, "name": "0fbc2180b899c90c98d427c84110017a", "is_disabled": 0, "rental_uris": {"android": "https://dc.lft.to/lastmile_qr_scan", "ios": "https://dc.lft.to/lastmile_qr_scan"}, "fusion_lon": 0.0, "lat": 38.9149885, "bike_id": "0fbc2180b899c90c98d427c84110017a", "type": "electric_scooter", "is_reserved": 0, "lon": -77.00916116666667}, {"fusion_lat": 0.0, "name": "9d869034a9493c795502c9a768e41022", "is_disabled": 0, "rental_uris": {"android": "https://dc.lft.to/lastmile_qr_scan", "ios": "https://dc.lft.to/lastmile_qr_scan"}, "fusion_lon": 0.0, "lat": 38.92103516666667, "bike_id": "9d869034a9493c795502c9a768e41022", "type": "electric_scooter", "is_reserved": 0, "lon": -77.07471016666666}, {"fusion_lat": 0.0, "name": "900fb32de08e46a10376a0334726f4d3", "is_disabled": 0, "rental_uris": {"android": "https://dc.lft.to/lastmile_qr_scan", "ios": "https://dc.lft.to/lastmile_qr_scan"}, "fusion_lon": 0.0, "lat": 38.9293775, "bike_id": "900fb32de08e46a10376a0334726f4d3", "type": "electric_scooter", "is_reserved": 0, "lon": -77.03279266666667}, {"fusion_lat": 0.0, "name": "64b486bf2deab3037f0306664f256d2a", "is_disabled": 0, "rental_uris": {"android": "https://dc.lft.to/lastmile_qr_scan", "ios": "https://dc.lft.to/lastmile_qr_scan"}, "fusion_lon": 0.0, "lat": 38.89866983333334, "bike_id": "64b486bf2deab3037f0306664f256d2a", "type": "electric_scooter", "is_reserved": 0, "lon": -77.02028216666666}, {"fusion_lat": 0.0, "name": "9f8ee51491636e7ba63d88026efc7f55", "is_disabled": 0, "rental_uris": {"android": "https://dc.lft.to/lastmile_qr_scan", "ios": "https://dc.lft.to/lastmile_qr_scan"}, "fusion_lon": 0.0, "lat": 38.938614333333334, "bike_id": "9f8ee51491636e7ba63d88026efc7f55", "type": "electric_scooter", "is_reserved": 0, "lon": -77.02458766666666}, {"fusion_lat": 0.0, "name": "659dfe432c99a37dc024adbd6aae377d", "is_disabled": 0, "rental_uris": {"android": "https://dc.lft.to/lastmile_qr_scan", "ios": "https://dc.lft.to/lastmile_qr_scan"}, "fusion_lon": 0.0, "lat": 38.87372366666666, "bike_id": "659dfe432c99a37dc024adbd6aae377d", "type": "electric_scooter", "is_reserved": 0, "lon": -77.001579}, {"fusion_lat": 0.0, "name": "f9abf5bf2fddbcb80b8f58e523a92307", "is_disabled": 0, "rental_uris": {"android": "https://dc.lft.to/lastmile_qr_scan", "ios": "https://dc.lft.to/lastmile_qr_scan"}, "fusion_lon": 0.0, "lat": 38.9266065, "bike_id": "f9abf5bf2fddbcb80b8f58e523a92307", "type": "electric_scooter", "is_reserved": 0, "lon": -77.02422783333333}, {"fusion_lat": 0.0, "name": "2ec05bdc69b1bfcb3806969bc5727e16", "is_disabled": 0, "rental_uris": {"android": "https://dc.lft.to/lastmile_qr_scan", "ios": "https://dc.lft.to/lastmile_qr_scan"}, "fusion_lon": 0.0, "lat": 38.89253033333333, "bike_id": "2ec05bdc69b1bfcb3806969bc5727e16", "type": "electric_scooter", "is_reserved": 0, "lon": -77.03346466666666}, {"fusion_lat": 0.0, "name": "c9723d06b37984ec72f7174fe09a69d3", "is_disabled": 0, "rental_uris": {"android": "https://dc.lft.to/lastmile_qr_scan", "ios": "https://dc.lft.to/lastmile_qr_scan"}, "fusion_lon": 0.0, "lat": 38.927512, "bike_id": "c9723d06b37984ec72f7174fe09a69d3", "type": "electric_scooter", "is_reserved": 0, "lon": -77.02534783333333}, {"fusion_lat": 0.0, "name": "1b20152afb9ecabd9e5c25b5184c4095", "is_disabled": 0, "rental_uris": {"android": "https://dc.lft.to/lastmile_qr_scan", "ios": "https://dc.lft.to/lastmile_qr_scan"}, "fusion_lon": 0.0, "lat": 38.9170155, "bike_id": "1b20152afb9ecabd9e5c25b5184c4095", "type": "electric_scooter", "is_reserved": 0, "lon": -77.034704}, {"fusion_lat": 0.0, "name": "a54d450a767ae827082054b686c0912c", "is_disabled": 0, "rental_uris": {"android": "https://dc.lft.to/lastmile_qr_scan", "ios": "https://dc.lft.to/lastmile_qr_scan"}, "fusion_lon": 0.0, "lat": 38.89218416666667, "bike_id": "a54d450a767ae827082054b686c0912c", "type": "electric_scooter", "is_reserved": 0, "lon": -77.03142633333333}, {"fusion_lat": 0.0, "name": "ba583d1ccf929f91817eefbe4bb2be54", "is_disabled": 0, "rental_uris": {"android": "https://dc.lft.to/lastmile_qr_scan", "ios": "https://dc.lft.to/lastmile_qr_scan"}, "fusion_lon": 0.0, "lat": 38.887711833333334, "bike_id": "ba583d1ccf929f91817eefbe4bb2be54", "type": "electric_scooter", "is_reserved": 0, "lon": -76.97749633333333}, {"fusion_lat": 0.0, "name": "5921634f19bd3e3a9b19412f25098066", "is_disabled": 0, "rental_uris": {"android": "https://dc.lft.to/lastmile_qr_scan", "ios": "https://dc.lft.to/lastmile_qr_scan"}, "fusion_lon": 0.0, "lat": 38.900565, "bike_id": "5921634f19bd3e3a9b19412f25098066", "type": "electric_scooter", "is_reserved": 0, "lon": -77.02616666666667}, {"fusion_lat": 0.0, "name": "5073e23c1c10fe3a43ec677f935cddf7", "is_disabled": 0, "rental_uris": {"android": "https://dc.lft.to/lastmile_qr_scan", "ios": "https://dc.lft.to/lastmile_qr_scan"}, "fusion_lon": 0.0, "lat": 38.93627266666667, "bike_id": "5073e23c1c10fe3a43ec677f935cddf7", "type": "electric_scooter", "is_reserved": 0, "lon": -77.0366365}, {"fusion_lat": 0.0, "name": "2d110236cedc6ce286ed3fd6c5c3eb9b", "is_disabled": 0, "rental_uris": {"android": "https://dc.lft.to/lastmile_qr_scan", "ios": "https://dc.lft.to/lastmile_qr_scan"}, "fusion_lon": 0.0, "lat": 38.878964333333336, "bike_id": "2d110236cedc6ce286ed3fd6c5c3eb9b", "type": "electric_scooter", "is_reserved": 0, "lon": -77.00813116666667}, {"fusion_lat": 0.0, "name": "5cd8f36b3d08ca525c0837ce6ec06e57", "is_disabled": 0, "rental_uris": {"android": "https://dc.lft.to/lastmile_qr_scan", "ios": "https://dc.lft.to/lastmile_qr_scan"}, "fusion_lon": 0.0, "lat": 38.854545333333334, "bike_id": "5cd8f36b3d08ca525c0837ce6ec06e57", "type": "electric_scooter", "is_reserved": 0, "lon": -76.97229383333334}, {"fusion_lat": 0.0, "name": "2630516420abd3c71ba288892db1f4b3", "is_disabled": 0, "rental_uris": {"android": "https://dc.lft.to/lastmile_qr_scan", "ios": "https://dc.lft.to/lastmile_qr_scan"}, "fusion_lon": 0.0, "lat": 38.92721783333333, "bike_id": "2630516420abd3c71ba288892db1f4b3", "type": "electric_scooter", "is_reserved": 0, "lon": -77.02294533333334}, {"fusion_lat": 0.0, "name": "b05d847d8c6fb983991b3ad5126db608", "is_disabled": 0, "rental_uris": {"android": "https://dc.lft.to/lastmile_qr_scan", "ios": "https://dc.lft.to/lastmile_qr_scan"}, "fusion_lon": 0.0, "lat": 38.89230766666667, "bike_id": "b05d847d8c6fb983991b3ad5126db608", "type": "electric_scooter", "is_reserved": 0, "lon": -77.017146}, {"fusion_lat": 0.0, "name": "a41005aadbe9ef45ed247e598491a884", "is_disabled": 0, "rental_uris": {"android": "https://dc.lft.to/lastmile_qr_scan", "ios": "https://dc.lft.to/lastmile_qr_scan"}, "fusion_lon": 0.0, "lat": 38.9054685, "bike_id": "a41005aadbe9ef45ed247e598491a884", "type": "electric_scooter", "is_reserved": 0, "lon": -77.03434716666666}, {"fusion_lat": 0.0, "name": "eecce5eef38f2fd02c4cfd486b908185", "is_disabled": 0, "rental_uris": {"android": "https://dc.lft.to/lastmile_qr_scan", "ios": "https://dc.lft.to/lastmile_qr_scan"}, "fusion_lon": 0.0, "lat": 38.909788, "bike_id": "eecce5eef38f2fd02c4cfd486b908185", "type": "electric_scooter", "is_reserved": 0, "lon": -77.00889733333334}, {"fusion_lat": 0.0, "name": "541a8a4baac9dc5ee4aaa64bf2478e79", "is_disabled": 0, "rental_uris": {"android": "https://dc.lft.to/lastmile_qr_scan", "ios": "https://dc.lft.to/lastmile_qr_scan"}, "fusion_lon": 0.0, "lat": 38.9284775, "bike_id": "541a8a4baac9dc5ee4aaa64bf2478e79", "type": "electric_scooter", "is_reserved": 0, "lon": -77.02437333333333}, {"fusion_lat": 0.0, "name": "b3f0047c70e5801db8572970e2bfc72d", "is_disabled": 0, "rental_uris": {"android": "https://dc.lft.to/lastmile_qr_scan", "ios": "https://dc.lft.to/lastmile_qr_scan"}, "fusion_lon": 0.0, "lat": 38.92468933333333, "bike_id": "b3f0047c70e5801db8572970e2bfc72d", "type": "electric_scooter", "is_reserved": 0, "lon": -77.02074316666666}, {"fusion_lat": 0.0, "name": "76cb48498ba5b30a8f707342f05cb7e6", "is_disabled": 0, "rental_uris": {"android": "https://dc.lft.to/lastmile_qr_scan", "ios": "https://dc.lft.to/lastmile_qr_scan"}, "fusion_lon": 0.0, "lat": 38.89219333333333, "bike_id": "76cb48498ba5b30a8f707342f05cb7e6", "type": "electric_scooter", "is_reserved": 0, "lon": -77.032212}, {"fusion_lat": 0.0, "name": "83115d98e001f2fc85007ea59deb153b", "is_disabled": 0, "rental_uris": {"android": "https://dc.lft.to/lastmile_qr_scan", "ios": "https://dc.lft.to/lastmile_qr_scan"}, "fusion_lon": 0.0, "lat": 38.900862333333336, "bike_id": "83115d98e001f2fc85007ea59deb153b", "type": "electric_scooter", "is_reserved": 0, "lon": -77.049568}, {"fusion_lat": 0.0, "name": "7156b100bf0379e9b4d23f0f568c0fe5", "is_disabled": 0, "rental_uris": {"android": "https://dc.lft.to/lastmile_qr_scan", "ios": "https://dc.lft.to/lastmile_qr_scan"}, "fusion_lon": 0.0, "lat": 38.90678, "bike_id": "7156b100bf0379e9b4d23f0f568c0fe5", "type": "electric_scooter", "is_reserved": 0, "lon": -77.02180583333333}, {"fusion_lat": 0.0, "name": "d2fedd577ed354ec4d87cd798b97ea6f", "is_disabled": 0, "rental_uris": {"android": "https://dc.lft.to/lastmile_qr_scan", "ios": "https://dc.lft.to/lastmile_qr_scan"}, "fusion_lon": 0.0, "lat": 38.935248, "bike_id": "d2fedd577ed354ec4d87cd798b97ea6f", "type": "electric_scooter", "is_reserved": 0, "lon": -77.02848683333333}, {"fusion_lat": 0.0, "name": "7be4646a2aa296afcce016c6fdb04a18", "is_disabled": 0, "rental_uris": {"android": "https://dc.lft.to/lastmile_qr_scan", "ios": "https://dc.lft.to/lastmile_qr_scan"}, "fusion_lon": 0.0, "lat": 38.907273333333336, "bike_id": "7be4646a2aa296afcce016c6fdb04a18", "type": "electric_scooter", "is_reserved": 0, "lon": -77.047603}, {"fusion_lat": 0.0, "name": "63bbcfb287cf6635c947988c5b48102b", "is_disabled": 0, "rental_uris": {"android": "https://dc.lft.to/lastmile_qr_scan", "ios": "https://dc.lft.to/lastmile_qr_scan"}, "fusion_lon": 0.0, "lat": 38.89192383333334, "bike_id": "63bbcfb287cf6635c947988c5b48102b", "type": "electric_scooter", "is_reserved": 0, "lon": -77.02230766666666}, {"fusion_lat": 0.0, "name": "8b0899718980346cfe36a2d2896fa988", "is_disabled": 0, "rental_uris": {"android": "https://dc.lft.to/lastmile_qr_scan", "ios": "https://dc.lft.to/lastmile_qr_scan"}, "fusion_lon": 0.0, "lat": 38.9389715, "bike_id": "8b0899718980346cfe36a2d2896fa988", "type": "electric_scooter", "is_reserved": 0, "lon": -77.03264916666667}, {"fusion_lat": 0.0, "name": "86f0e2bec12536f3234a56620d655ff5", "is_disabled": 0, "rental_uris": {"android": "https://dc.lft.to/lastmile_qr_scan", "ios": "https://dc.lft.to/lastmile_qr_scan"}, "fusion_lon": 0.0, "lat": 38.92601833333333, "bike_id": "86f0e2bec12536f3234a56620d655ff5", "type": "electric_scooter", "is_reserved": 0, "lon": -77.0215675}, {"fusion_lat": 0.0, "name": "c6b6060ebe903d5955f1b4d3b6f2842c", "is_disabled": 0, "rental_uris": {"android": "https://dc.lft.to/lastmile_qr_scan", "ios": "https://dc.lft.to/lastmile_qr_scan"}, "fusion_lon": 0.0, "lat": 38.928604666666665, "bike_id": "c6b6060ebe903d5955f1b4d3b6f2842c", "type": "electric_scooter", "is_reserved": 0, "lon": -77.03498583333334}, {"fusion_lat": 0.0, "name": "a229e52bf4963889d2c0200682963571", "is_disabled": 0, "rental_uris": {"android": "https://dc.lft.to/lastmile_qr_scan", "ios": "https://dc.lft.to/lastmile_qr_scan"}, "fusion_lon": 0.0, "lat": 38.905674833333336, "bike_id": "a229e52bf4963889d2c0200682963571", "type": "electric_scooter", "is_reserved": 0, "lon": -77.00489366666666}, {"fusion_lat": 0.0, "name": "a28eff23f7807279406bda8a860674b6", "is_disabled": 0, "rental_uris": {"android": "https://dc.lft.to/lastmile_qr_scan", "ios": "https://dc.lft.to/lastmile_qr_scan"}, "fusion_lon": 0.0, "lat": 38.979600833333336, "bike_id": "a28eff23f7807279406bda8a860674b6", "type": "electric_scooter", "is_reserved": 0, "lon": -77.02613}, {"fusion_lat": 0.0, "name": "183965970307d374637910b7f88170b6", "is_disabled": 0, "rental_uris": {"android": "https://dc.lft.to/lastmile_qr_scan", "ios": "https://dc.lft.to/lastmile_qr_scan"}, "fusion_lon": 0.0, "lat": 38.903031, "bike_id": "183965970307d374637910b7f88170b6", "type": "electric_scooter", "is_reserved": 0, "lon": -76.97651583333334}, {"fusion_lat": 0.0, "name": "540c8321a53c76e4c7c8c6af731445b3", "is_disabled": 0, "rental_uris": {"android": "https://dc.lft.to/lastmile_qr_scan", "ios": "https://dc.lft.to/lastmile_qr_scan"}, "fusion_lon": 0.0, "lat": 38.943762166666666, "bike_id": "540c8321a53c76e4c7c8c6af731445b3", "type": "electric_scooter", "is_reserved": 0, "lon": -77.02602566666667}, {"fusion_lat": 0.0, "name": "9c78be3ccf3eed1ef705587e5c0e3dfd", "is_disabled": 0, "rental_uris": {"android": "https://dc.lft.to/lastmile_qr_scan", "ios": "https://dc.lft.to/lastmile_qr_scan"}, "fusion_lon": 0.0, "lat": 38.88659416666667, "bike_id": "9c78be3ccf3eed1ef705587e5c0e3dfd", "type": "electric_scooter", "is_reserved": 0, "lon": -77.028148}, {"fusion_lat": 0.0, "name": "e500dea112312a73a297639353c77b80", "is_disabled": 0, "rental_uris": {"android": "https://dc.lft.to/lastmile_qr_scan", "ios": "https://dc.lft.to/lastmile_qr_scan"}, "fusion_lon": 0.0, "lat": 38.9319665, "bike_id": "e500dea112312a73a297639353c77b80", "type": "electric_scooter", "is_reserved": 0, "lon": -77.03750333333333}, {"fusion_lat": 0.0, "name": "e33bfe66f15d7a4b28f5d23b09fdad69", "is_disabled": 0, "rental_uris": {"android": "https://dc.lft.to/lastmile_qr_scan", "ios": "https://dc.lft.to/lastmile_qr_scan"}, "fusion_lon": 0.0, "lat": 38.994445, "bike_id": "e33bfe66f15d7a4b28f5d23b09fdad69", "type": "electric_bike", "is_reserved": 0, "lon": -76.99589233333333}, {"fusion_lat": 0.0, "name": "12c0ef838c3d113e613a3a0e19682ae0", "is_disabled": 0, "rental_uris": {"android": "https://dc.lft.to/lastmile_qr_scan", "ios": "https://dc.lft.to/lastmile_qr_scan"}, "fusion_lon": 0.0, "lat": 38.91768583333333, "bike_id": "12c0ef838c3d113e613a3a0e19682ae0", "type": "electric_scooter", "is_reserved": 0, "lon": -77.01451716666666}, {"fusion_lat": 0.0, "name": "e0bbcddeedf54d7e9e82012939e90778", "is_disabled": 0, "rental_uris": {"android": "https://dc.lft.to/lastmile_qr_scan", "ios": "https://dc.lft.to/lastmile_qr_scan"}, "fusion_lon": 0.0, "lat": 38.921072833333334, "bike_id": "e0bbcddeedf54d7e9e82012939e90778", "type": "electric_scooter", "is_reserved": 0, "lon": -77.04692383333334}, {"fusion_lat": 0.0, "name": "1640fb26f7468f6db874b07ff9493e11", "is_disabled": 0, "rental_uris": {"android": "https://dc.lft.to/lastmile_qr_scan", "ios": "https://dc.lft.to/lastmile_qr_scan"}, "fusion_lon": 0.0, "lat": 38.9168975, "bike_id": "1640fb26f7468f6db874b07ff9493e11", "type": "electric_scooter", "is_reserved": 0, "lon": -77.03776383333333}, {"fusion_lat": 0.0, "name": "b01be2bad59a42631867b4289802b43c", "is_disabled": 0, "rental_uris": {"android": "https://dc.lft.to/lastmile_qr_scan", "ios": "https://dc.lft.to/lastmile_qr_scan"}, "fusion_lon": 0.0, "lat": 38.94054116666667, "bike_id": "b01be2bad59a42631867b4289802b43c", "type": "electric_bike", "is_reserved": 0, "lon": -76.90417416666666}, {"fusion_lat": 0.0, "name": "eec7b3d6c47a57347dc0cb3741373c8a", "is_disabled": 0, "rental_uris": {"android": "https://dc.lft.to/lastmile_qr_scan", "ios": "https://dc.lft.to/lastmile_qr_scan"}, "fusion_lon": 0.0, "lat": 38.90168366666666, "bike_id": "eec7b3d6c47a57347dc0cb3741373c8a", "type": "electric_scooter", "is_reserved": 0, "lon": -76.98074516666667}, {"fusion_lat": 0.0, "name": "f2c9b0a350b5abb2c19f44b091227be3", "is_disabled": 0, "rental_uris": {"android": "https://dc.lft.to/lastmile_qr_scan", "ios": "https://dc.lft.to/lastmile_qr_scan"}, "fusion_lon": 0.0, "lat": 38.932619, "bike_id": "f2c9b0a350b5abb2c19f44b091227be3", "type": "electric_scooter", "is_reserved": 0, "lon": -77.03893933333333}, {"fusion_lat": 0.0, "name": "5315144345331ab8c49ae36b48ea6c1b", "is_disabled": 0, "rental_uris": {"android": "https://dc.lft.to/lastmile_qr_scan", "ios": "https://dc.lft.to/lastmile_qr_scan"}, "fusion_lon": 0.0, "lat": 38.90749233333333, "bike_id": "5315144345331ab8c49ae36b48ea6c1b", "type": "electric_scooter", "is_reserved": 0, "lon": -77.001739}, {"fusion_lat": 0.0, "name": "20724a5b556ecb6579b89afe8f2135d0", "is_disabled": 0, "rental_uris": {"android": "https://dc.lft.to/lastmile_qr_scan", "ios": "https://dc.lft.to/lastmile_qr_scan"}, "fusion_lon": 0.0, "lat": 38.91268316666667, "bike_id": "20724a5b556ecb6579b89afe8f2135d0", "type": "electric_scooter", "is_reserved": 0, "lon": -77.03384066666666}, {"fusion_lat": 0.0, "name": "c4011ae9db70c14932b859e8351a797a", "is_disabled": 0, "rental_uris": {"android": "https://dc.lft.to/lastmile_qr_scan", "ios": "https://dc.lft.to/lastmile_qr_scan"}, "fusion_lon": 0.0, "lat": 38.8923025, "bike_id": "c4011ae9db70c14932b859e8351a797a", "type": "electric_scooter", "is_reserved": 0, "lon": -77.05000316666667}, {"fusion_lat": 0.0, "name": "616f3302bc56e482d377780f241f3ca4", "is_disabled": 0, "rental_uris": {"android": "https://dc.lft.to/lastmile_qr_scan", "ios": "https://dc.lft.to/lastmile_qr_scan"}, "fusion_lon": 0.0, "lat": 38.907193166666666, "bike_id": "616f3302bc56e482d377780f241f3ca4", "type": "electric_scooter", "is_reserved": 0, "lon": -77.02503466666667}, {"fusion_lat": 0.0, "name": "66cb1f3c51bd0e6777a7453b28e6668f", "is_disabled": 0, "rental_uris": {"android": "https://dc.lft.to/lastmile_qr_scan", "ios": "https://dc.lft.to/lastmile_qr_scan"}, "fusion_lon": 0.0, "lat": 38.91253916666667, "bike_id": "66cb1f3c51bd0e6777a7453b28e6668f", "type": "electric_scooter", "is_reserved": 0, "lon": -77.04927966666666}, {"fusion_lat": 0.0, "name": "58413726594f4ad60fed667dbbbe6585", "is_disabled": 0, "rental_uris": {"android": "https://dc.lft.to/lastmile_qr_scan", "ios": "https://dc.lft.to/lastmile_qr_scan"}, "fusion_lon": 0.0, "lat": 38.9133715, "bike_id": "58413726594f4ad60fed667dbbbe6585", "type": "electric_scooter", "is_reserved": 0, "lon": -77.04875816666667}, {"fusion_lat": 0.0, "name": "4d39a57d27cd541436288c06504eab69", "is_disabled": 0, "rental_uris": {"android": "https://dc.lft.to/lastmile_qr_scan", "ios": "https://dc.lft.to/lastmile_qr_scan"}, "fusion_lon": 0.0, "lat": 38.923012666666665, "bike_id": "4d39a57d27cd541436288c06504eab69", "type": "electric_scooter", "is_reserved": 0, "lon": -77.042559}, {"fusion_lat": 0.0, "name": "cdd6fc464ebeca3a42915ad78dce795a", "is_disabled": 0, "rental_uris": {"android": "https://dc.lft.to/lastmile_qr_scan", "ios": "https://dc.lft.to/lastmile_qr_scan"}, "fusion_lon": 0.0, "lat": 38.90458983333333, "bike_id": "cdd6fc464ebeca3a42915ad78dce795a", "type": "electric_scooter", "is_reserved": 0, "lon": -77.0334885}, {"fusion_lat": 0.0, "name": "47b8317fcf421c69ad389f0cf19f4711", "is_disabled": 0, "rental_uris": {"android": "https://dc.lft.to/lastmile_qr_scan", "ios": "https://dc.lft.to/lastmile_qr_scan"}, "fusion_lon": 0.0, "lat": 38.87656033333333, "bike_id": "47b8317fcf421c69ad389f0cf19f4711", "type": "electric_scooter", "is_reserved": 0, "lon": -77.00757766666666}, {"fusion_lat": 0.0, "name": "97c45fc1daee1944b9a96a322c7a7e61", "is_disabled": 0, "rental_uris": {"android": "https://dc.lft.to/lastmile_qr_scan", "ios": "https://dc.lft.to/lastmile_qr_scan"}, "fusion_lon": 0.0, "lat": 38.923613333333336, "bike_id": "97c45fc1daee1944b9a96a322c7a7e61", "type": "electric_scooter", "is_reserved": 0, "lon": -77.02057116666667}, {"fusion_lat": 0.0, "name": "b21562b52db0442995787a02fcb18145", "is_disabled": 0, "rental_uris": {"android": "https://dc.lft.to/lastmile_qr_scan", "ios": "https://dc.lft.to/lastmile_qr_scan"}, "fusion_lon": 0.0, "lat": 38.902108166666665, "bike_id": "b21562b52db0442995787a02fcb18145", "type": "electric_scooter", "is_reserved": 0, "lon": -77.05130066666666}, {"fusion_lat": 0.0, "name": "b49ca315708ac78c4d1a0b550c2b3a3b", "is_disabled": 0, "rental_uris": {"android": "https://dc.lft.to/lastmile_qr_scan", "ios": "https://dc.lft.to/lastmile_qr_scan"}, "fusion_lon": 0.0, "lat": 38.92260516666666, "bike_id": "b49ca315708ac78c4d1a0b550c2b3a3b", "type": "electric_scooter", "is_reserved": 0, "lon": -77.03660283333333}, {"fusion_lat": 0.0, "name": "700c03ec473890abd00784a561f3a61c", "is_disabled": 0, "rental_uris": {"android": "https://dc.lft.to/lastmile_qr_scan", "ios": "https://dc.lft.to/lastmile_qr_scan"}, "fusion_lon": 0.0, "lat": 38.958791166666664, "bike_id": "700c03ec473890abd00784a561f3a61c", "type": "electric_scooter", "is_reserved": 0, "lon": -77.01166383333333}, {"fusion_lat": 0.0, "name": "1eb1bdb4b6221029f832476c1edf0d86", "is_disabled": 0, "rental_uris": {"android": "https://dc.lft.to/lastmile_qr_scan", "ios": "https://dc.lft.to/lastmile_qr_scan"}, "fusion_lon": 0.0, "lat": 38.914853, "bike_id": "1eb1bdb4b6221029f832476c1edf0d86", "type": "electric_scooter", "is_reserved": 0, "lon": -77.04164066666667}, {"fusion_lat": 0.0, "name": "f96228af76c2a8440c2e2e2320cf40a3", "is_disabled": 0, "rental_uris": {"android": "https://dc.lft.to/lastmile_qr_scan", "ios": "https://dc.lft.to/lastmile_qr_scan"}, "fusion_lon": 0.0, "lat": 38.87658866666666, "bike_id": "f96228af76c2a8440c2e2e2320cf40a3", "type": "electric_scooter", "is_reserved": 0, "lon": -77.00909116666666}, {"fusion_lat": 0.0, "name": "356b63786791d93bb6985625005730c0", "is_disabled": 0, "rental_uris": {"android": "https://dc.lft.to/lastmile_qr_scan", "ios": "https://dc.lft.to/lastmile_qr_scan"}, "fusion_lon": 0.0, "lat": 38.91475766666667, "bike_id": "356b63786791d93bb6985625005730c0", "type": "electric_scooter", "is_reserved": 0, "lon": -77.0318795}, {"fusion_lat": 0.0, "name": "30b12ae13bc44ebf72f036481973ce6a", "is_disabled": 0, "rental_uris": {"android": "https://dc.lft.to/lastmile_qr_scan", "ios": "https://dc.lft.to/lastmile_qr_scan"}, "fusion_lon": 0.0, "lat": 38.887438333333336, "bike_id": "30b12ae13bc44ebf72f036481973ce6a", "type": "electric_scooter", "is_reserved": 0, "lon": -77.03153716666667}, {"fusion_lat": 0.0, "name": "1b1c39601f973bf71067b52c39c016fe", "is_disabled": 0, "rental_uris": {"android": "https://dc.lft.to/lastmile_qr_scan", "ios": "https://dc.lft.to/lastmile_qr_scan"}, "fusion_lon": 0.0, "lat": 38.907786, "bike_id": "1b1c39601f973bf71067b52c39c016fe", "type": "electric_scooter", "is_reserved": 0, "lon": -77.0186205}, {"fusion_lat": 0.0, "name": "0f92fadd83c4d64a5a9d202f39d876da", "is_disabled": 0, "rental_uris": {"android": "https://dc.lft.to/lastmile_qr_scan", "ios": "https://dc.lft.to/lastmile_qr_scan"}, "fusion_lon": 0.0, "lat": 38.9133675, "bike_id": "0f92fadd83c4d64a5a9d202f39d876da", "type": "electric_scooter", "is_reserved": 0, "lon": -77.04283683333334}, {"fusion_lat": 0.0, "name": "b56d3562ecfc0ecaa5388c967adea246", "is_disabled": 0, "rental_uris": {"android": "https://dc.lft.to/lastmile_qr_scan", "ios": "https://dc.lft.to/lastmile_qr_scan"}, "fusion_lon": 0.0, "lat": 38.91715383333333, "bike_id": "b56d3562ecfc0ecaa5388c967adea246", "type": "electric_scooter", "is_reserved": 0, "lon": -77.0301415}, {"fusion_lat": 0.0, "name": "51b5ea7dfea9cfd411ea58e2c19275a5", "is_disabled": 0, "rental_uris": {"android": "https://dc.lft.to/lastmile_qr_scan", "ios": "https://dc.lft.to/lastmile_qr_scan"}, "fusion_lon": 0.0, "lat": 38.93610433333333, "bike_id": "51b5ea7dfea9cfd411ea58e2c19275a5", "type": "electric_scooter", "is_reserved": 0, "lon": -77.03190683333334}, {"fusion_lat": 0.0, "name": "1dca4fea2d310be13dc5b30f1a6120b3", "is_disabled": 0, "rental_uris": {"android": "https://dc.lft.to/lastmile_qr_scan", "ios": "https://dc.lft.to/lastmile_qr_scan"}, "fusion_lon": 0.0, "lat": 38.95738566666667, "bike_id": "1dca4fea2d310be13dc5b30f1a6120b3", "type": "electric_bike", "is_reserved": 0, "lon": -76.98089916666666}, {"fusion_lat": 0.0, "name": "bf60738bea2ff46487f368dfa33f3f00", "is_disabled": 0, "rental_uris": {"android": "https://dc.lft.to/lastmile_qr_scan", "ios": "https://dc.lft.to/lastmile_qr_scan"}, "fusion_lon": 0.0, "lat": 38.894758833333334, "bike_id": "bf60738bea2ff46487f368dfa33f3f00", "type": "electric_scooter", "is_reserved": 0, "lon": -77.0217125}, {"fusion_lat": 0.0, "name": "b0f7dc9f08177238e71739f8897afa83", "is_disabled": 0, "rental_uris": {"android": "https://dc.lft.to/lastmile_qr_scan", "ios": "https://dc.lft.to/lastmile_qr_scan"}, "fusion_lon": 0.0, "lat": 38.892316, "bike_id": "b0f7dc9f08177238e71739f8897afa83", "type": "electric_scooter", "is_reserved": 0, "lon": -77.03186383333333}, {"fusion_lat": 0.0, "name": "c0af9efe570d05f8b14a1a4b25c8d944", "is_disabled": 0, "rental_uris": {"android": "https://dc.lft.to/lastmile_qr_scan", "ios": "https://dc.lft.to/lastmile_qr_scan"}, "fusion_lon": 0.0, "lat": 38.892235666666664, "bike_id": "c0af9efe570d05f8b14a1a4b25c8d944", "type": "electric_scooter", "is_reserved": 0, "lon": -77.04684816666666}, {"fusion_lat": 0.0, "name": "8db6cfd58714f9233747e64f711352db", "is_disabled": 0, "rental_uris": {"android": "https://dc.lft.to/lastmile_qr_scan", "ios": "https://dc.lft.to/lastmile_qr_scan"}, "fusion_lon": 0.0, "lat": 38.903585, "bike_id": "8db6cfd58714f9233747e64f711352db", "type": "electric_scooter", "is_reserved": 0, "lon": -77.04677516666666}, {"fusion_lat": 0.0, "name": "71f853d33350205aeb81a1d640178cd6", "is_disabled": 0, "rental_uris": {"android": "https://dc.lft.to/lastmile_qr_scan", "ios": "https://dc.lft.to/lastmile_qr_scan"}, "fusion_lon": 0.0, "lat": 38.95066083333333, "bike_id": "71f853d33350205aeb81a1d640178cd6", "type": "electric_bike", "is_reserved": 0, "lon": -77.01197466666666}, {"fusion_lat": 0.0, "name": "1840ef722af7c22d54bef9ceb3c4cd9a", "is_disabled": 0, "rental_uris": {"android": "https://dc.lft.to/lastmile_qr_scan", "ios": "https://dc.lft.to/lastmile_qr_scan"}, "fusion_lon": 0.0, "lat": 38.92693716666667, "bike_id": "1840ef722af7c22d54bef9ceb3c4cd9a", "type": "electric_scooter", "is_reserved": 0, "lon": -77.02423483333334}, {"fusion_lat": 0.0, "name": "4fc70388f968344ec9b8692bd7ff47ee", "is_disabled": 0, "rental_uris": {"android": "https://dc.lft.to/lastmile_qr_scan", "ios": "https://dc.lft.to/lastmile_qr_scan"}, "fusion_lon": 0.0, "lat": 38.90234433333333, "bike_id": "4fc70388f968344ec9b8692bd7ff47ee", "type": "electric_scooter", "is_reserved": 0, "lon": -77.04905883333333}, {"fusion_lat": 0.0, "name": "295fc7b7474fd8b05bfadaca067c55fc", "is_disabled": 0, "rental_uris": {"android": "https://dc.lft.to/lastmile_qr_scan", "ios": "https://dc.lft.to/lastmile_qr_scan"}, "fusion_lon": 0.0, "lat": 38.93214533333333, "bike_id": "295fc7b7474fd8b05bfadaca067c55fc", "type": "electric_scooter", "is_reserved": 0, "lon": -77.03343083333333}, {"fusion_lat": 0.0, "name": "35d3db5e364dc43363d64caf6d2b2127", "is_disabled": 0, "rental_uris": {"android": "https://dc.lft.to/lastmile_qr_scan", "ios": "https://dc.lft.to/lastmile_qr_scan"}, "fusion_lon": 0.0, "lat": 38.89902083333333, "bike_id": "35d3db5e364dc43363d64caf6d2b2127", "type": "electric_scooter", "is_reserved": 0, "lon": -76.93355516666666}, {"fusion_lat": 0.0, "name": "799e69d4fb4e3d24c73b5815e5045a27", "is_disabled": 0, "rental_uris": {"android": "https://dc.lft.to/lastmile_qr_scan", "ios": "https://dc.lft.to/lastmile_qr_scan"}, "fusion_lon": 0.0, "lat": 38.92195233333333, "bike_id": "799e69d4fb4e3d24c73b5815e5045a27", "type": "electric_scooter", "is_reserved": 0, "lon": -77.08088016666666}, {"fusion_lat": 0.0, "name": "8ad1947431848d920025ece0bdcd428b", "is_disabled": 0, "rental_uris": {"android": "https://dc.lft.to/lastmile_qr_scan", "ios": "https://dc.lft.to/lastmile_qr_scan"}, "fusion_lon": 0.0, "lat": 38.895881833333334, "bike_id": "8ad1947431848d920025ece0bdcd428b", "type": "electric_scooter", "is_reserved": 0, "lon": -77.02513533333334}, {"fusion_lat": 0.0, "name": "eefb992127284725363764dd31b0f292", "is_disabled": 0, "rental_uris": {"android": "https://dc.lft.to/lastmile_qr_scan", "ios": "https://dc.lft.to/lastmile_qr_scan"}, "fusion_lon": 0.0, "lat": 38.9045455, "bike_id": "eefb992127284725363764dd31b0f292", "type": "electric_scooter", "is_reserved": 0, "lon": -77.00162166666667}, {"fusion_lat": 0.0, "name": "dc3390917a34bff9f37bc40951f0141f", "is_disabled": 0, "rental_uris": {"android": "https://dc.lft.to/lastmile_qr_scan", "ios": "https://dc.lft.to/lastmile_qr_scan"}, "fusion_lon": 0.0, "lat": 38.911556166666664, "bike_id": "dc3390917a34bff9f37bc40951f0141f", "type": "electric_scooter", "is_reserved": 0, "lon": -77.0199925}, {"fusion_lat": 0.0, "name": "dfdac0b9a131b91f001a12cac1bbf7e2", "is_disabled": 0, "rental_uris": {"android": "https://dc.lft.to/lastmile_qr_scan", "ios": "https://dc.lft.to/lastmile_qr_scan"}, "fusion_lon": 0.0, "lat": 38.89674816666667, "bike_id": "dfdac0b9a131b91f001a12cac1bbf7e2", "type": "electric_scooter", "is_reserved": 0, "lon": -77.00795533333333}, {"fusion_lat": 0.0, "name": "b6bc39917e5615b734e7b39df71f823a", "is_disabled": 0, "rental_uris": {"android": "https://dc.lft.to/lastmile_qr_scan", "ios": "https://dc.lft.to/lastmile_qr_scan"}, "fusion_lon": 0.0, "lat": 38.9000425, "bike_id": "b6bc39917e5615b734e7b39df71f823a", "type": "electric_scooter", "is_reserved": 0, "lon": -77.00669516666666}, {"fusion_lat": 0.0, "name": "da8ab5286e5fd9bd743c19e32ec1019d", "is_disabled": 0, "rental_uris": {"android": "https://dc.lft.to/lastmile_qr_scan", "ios": "https://dc.lft.to/lastmile_qr_scan"}, "fusion_lon": 0.0, "lat": 38.88524266666667, "bike_id": "da8ab5286e5fd9bd743c19e32ec1019d", "type": "electric_scooter", "is_reserved": 0, "lon": -77.01512366666667}, {"fusion_lat": 0.0, "name": "6703ec59017992368d51ed9a1fe707d1", "is_disabled": 0, "rental_uris": {"android": "https://dc.lft.to/lastmile_qr_scan", "ios": "https://dc.lft.to/lastmile_qr_scan"}, "fusion_lon": 0.0, "lat": 38.930527833333336, "bike_id": "6703ec59017992368d51ed9a1fe707d1", "type": "electric_scooter", "is_reserved": 0, "lon": -77.03185016666667}, {"fusion_lat": 0.0, "name": "db68de53d028c9858e023ff39b75ed12", "is_disabled": 0, "rental_uris": {"android": "https://dc.lft.to/lastmile_qr_scan", "ios": "https://dc.lft.to/lastmile_qr_scan"}, "fusion_lon": 0.0, "lat": 38.904218166666666, "bike_id": "db68de53d028c9858e023ff39b75ed12", "type": "electric_scooter", "is_reserved": 0, "lon": -76.9497475}, {"fusion_lat": 0.0, "name": "02c953772617e5533916aee211b4f0ea", "is_disabled": 0, "rental_uris": {"android": "https://dc.lft.to/lastmile_qr_scan", "ios": "https://dc.lft.to/lastmile_qr_scan"}, "fusion_lon": 0.0, "lat": 38.93698783333333, "bike_id": "02c953772617e5533916aee211b4f0ea", "type": "electric_scooter", "is_reserved": 0, "lon": -77.05598383333333}, {"fusion_lat": 0.0, "name": "58d286640c0ca9ea775dd8090f1874fa", "is_disabled": 0, "rental_uris": {"android": "https://dc.lft.to/lastmile_qr_scan", "ios": "https://dc.lft.to/lastmile_qr_scan"}, "fusion_lon": 0.0, "lat": 38.940735333333336, "bike_id": "58d286640c0ca9ea775dd8090f1874fa", "type": "electric_scooter", "is_reserved": 0, "lon": -77.0239135}, {"fusion_lat": 0.0, "name": "5c508e70db1b5c9a15e620ed9478ef7a", "is_disabled": 0, "rental_uris": {"android": "https://dc.lft.to/lastmile_qr_scan", "ios": "https://dc.lft.to/lastmile_qr_scan"}, "fusion_lon": 0.0, "lat": 38.9095635, "bike_id": "5c508e70db1b5c9a15e620ed9478ef7a", "type": "electric_scooter", "is_reserved": 0, "lon": -77.01038116666666}, {"fusion_lat": 0.0, "name": "e696ba34e37dba737a4ea322d5d8d879", "is_disabled": 0, "rental_uris": {"android": "https://dc.lft.to/lastmile_qr_scan", "ios": "https://dc.lft.to/lastmile_qr_scan"}, "fusion_lon": 0.0, "lat": 38.932493, "bike_id": "e696ba34e37dba737a4ea322d5d8d879", "type": "electric_scooter", "is_reserved": 0, "lon": -77.04012416666667}, {"fusion_lat": 0.0, "name": "84017dba8815ba3d60f975c28eedf3a0", "is_disabled": 0, "rental_uris": {"android": "https://dc.lft.to/lastmile_qr_scan", "ios": "https://dc.lft.to/lastmile_qr_scan"}, "fusion_lon": 0.0, "lat": 38.928196666666665, "bike_id": "84017dba8815ba3d60f975c28eedf3a0", "type": "electric_scooter", "is_reserved": 0, "lon": -77.02258616666667}, {"fusion_lat": 0.0, "name": "012f161188111952abac6187232e51c6", "is_disabled": 0, "rental_uris": {"android": "https://dc.lft.to/lastmile_qr_scan", "ios": "https://dc.lft.to/lastmile_qr_scan"}, "fusion_lon": 0.0, "lat": 38.924867666666664, "bike_id": "012f161188111952abac6187232e51c6", "type": "electric_scooter", "is_reserved": 0, "lon": -77.05758433333334}, {"fusion_lat": 0.0, "name": "98aa742fb9be3a5b05c3fc5baca431d9", "is_disabled": 0, "rental_uris": {"android": "https://dc.lft.to/lastmile_qr_scan", "ios": "https://dc.lft.to/lastmile_qr_scan"}, "fusion_lon": 0.0, "lat": 38.919207666666665, "bike_id": "98aa742fb9be3a5b05c3fc5baca431d9", "type": "electric_scooter", "is_reserved": 0, "lon": -77.0227295}, {"fusion_lat": 0.0, "name": "527ebf4a62508ecedec191f0c8b079ba", "is_disabled": 0, "rental_uris": {"android": "https://dc.lft.to/lastmile_qr_scan", "ios": "https://dc.lft.to/lastmile_qr_scan"}, "fusion_lon": 0.0, "lat": 38.962278833333336, "bike_id": "527ebf4a62508ecedec191f0c8b079ba", "type": "electric_bike", "is_reserved": 0, "lon": -77.02618433333333}, {"fusion_lat": 0.0, "name": "65d68e5d58b5a0f833ad9a0259036f24", "is_disabled": 0, "rental_uris": {"android": "https://dc.lft.to/lastmile_qr_scan", "ios": "https://dc.lft.to/lastmile_qr_scan"}, "fusion_lon": 0.0, "lat": 38.925331, "bike_id": "65d68e5d58b5a0f833ad9a0259036f24", "type": "electric_scooter", "is_reserved": 0, "lon": -77.0511535}, {"fusion_lat": 0.0, "name": "89bc2888c6d87af6e9228c480818db03", "is_disabled": 0, "rental_uris": {"android": "https://dc.lft.to/lastmile_qr_scan", "ios": "https://dc.lft.to/lastmile_qr_scan"}, "fusion_lon": 0.0, "lat": 38.946181833333334, "bike_id": "89bc2888c6d87af6e9228c480818db03", "type": "electric_scooter", "is_reserved": 0, "lon": -77.080232}, {"fusion_lat": 0.0, "name": "23c998d2b6e645b68389729f616846e3", "is_disabled": 0, "rental_uris": {"android": "https://dc.lft.to/lastmile_qr_scan", "ios": "https://dc.lft.to/lastmile_qr_scan"}, "fusion_lon": 0.0, "lat": 38.905285166666665, "bike_id": "23c998d2b6e645b68389729f616846e3", "type": "electric_scooter", "is_reserved": 0, "lon": -77.05970266666667}, {"fusion_lat": 0.0, "name": "8357244e6a659188786930efefe41a2b", "is_disabled": 0, "rental_uris": {"android": "https://dc.lft.to/lastmile_qr_scan", "ios": "https://dc.lft.to/lastmile_qr_scan"}, "fusion_lon": 0.0, "lat": 38.843517, "bike_id": "8357244e6a659188786930efefe41a2b", "type": "electric_bike", "is_reserved": 0, "lon": -76.9782285}, {"fusion_lat": 0.0, "name": "93338e5ad4365822e6348d34d5e4e2d2", "is_disabled": 0, "rental_uris": {"android": "https://dc.lft.to/lastmile_qr_scan", "ios": "https://dc.lft.to/lastmile_qr_scan"}, "fusion_lon": 0.0, "lat": 38.91201183333333, "bike_id": "93338e5ad4365822e6348d34d5e4e2d2", "type": "electric_bike", "is_reserved": 0, "lon": -77.00283033333334}, {"fusion_lat": 0.0, "name": "67f56a847c791090d5f9b3532bfba2df", "is_disabled": 0, "rental_uris": {"android": "https://dc.lft.to/lastmile_qr_scan", "ios": "https://dc.lft.to/lastmile_qr_scan"}, "fusion_lon": 0.0, "lat": 38.921339333333336, "bike_id": "67f56a847c791090d5f9b3532bfba2df", "type": "electric_bike", "is_reserved": 1, "lon": -77.012185}, {"fusion_lat": 0.0, "name": "4cc9c254c956274d0a850634d9d1e3aa", "is_disabled": 0, "rental_uris": {"android": "https://dc.lft.to/lastmile_qr_scan", "ios": "https://dc.lft.to/lastmile_qr_scan"}, "fusion_lon": 0.0, "lat": 38.9124855, "bike_id": "4cc9c254c956274d0a850634d9d1e3aa", "type": "electric_scooter", "is_reserved": 0, "lon": -77.03864383333334}, {"fusion_lat": 0.0, "name": "abd2909575630521bb71cf56560af478", "is_disabled": 0, "rental_uris": {"android": "https://dc.lft.to/lastmile_qr_scan", "ios": "https://dc.lft.to/lastmile_qr_scan"}, "fusion_lon": 0.0, "lat": 38.88360983333333, "bike_id": "abd2909575630521bb71cf56560af478", "type": "electric_scooter", "is_reserved": 0, "lon": -76.94160716666667}, {"fusion_lat": 0.0, "name": "56aacb51b1efd49812907f2f1ac7018e", "is_disabled": 0, "rental_uris": {"android": "https://dc.lft.to/lastmile_qr_scan", "ios": "https://dc.lft.to/lastmile_qr_scan"}, "fusion_lon": 0.0, "lat": 38.912662, "bike_id": "56aacb51b1efd49812907f2f1ac7018e", "type": "electric_scooter", "is_reserved": 0, "lon": -77.022605}, {"fusion_lat": 0.0, "name": "2c6bd1389cd34a62b45b3d55dee9695b", "is_disabled": 0, "rental_uris": {"android": "https://dc.lft.to/lastmile_qr_scan", "ios": "https://dc.lft.to/lastmile_qr_scan"}, "fusion_lon": 0.0, "lat": 38.94498, "bike_id": "2c6bd1389cd34a62b45b3d55dee9695b", "type": "electric_scooter", "is_reserved": 0, "lon": -77.0314765}, {"fusion_lat": 0.0, "name": "3d24776bb803e37c17f12886953daea2", "is_disabled": 0, "rental_uris": {"android": "https://dc.lft.to/lastmile_qr_scan", "ios": "https://dc.lft.to/lastmile_qr_scan"}, "fusion_lon": 0.0, "lat": 38.87709266666667, "bike_id": "3d24776bb803e37c17f12886953daea2", "type": "electric_scooter", "is_reserved": 0, "lon": -77.00350983333334}, {"fusion_lat": 0.0, "name": "e9b5f772f58111cd007a1837272ab2f0", "is_disabled": 0, "rental_uris": {"android": "https://dc.lft.to/lastmile_qr_scan", "ios": "https://dc.lft.to/lastmile_qr_scan"}, "fusion_lon": 0.0, "lat": 38.91180716666667, "bike_id": "e9b5f772f58111cd007a1837272ab2f0", "type": "electric_scooter", "is_reserved": 0, "lon": -77.04547433333333}, {"fusion_lat": 0.0, "name": "f1fc08281e9d4d59e280e8f6fb5b53d8", "is_disabled": 0, "rental_uris": {"android": "https://dc.lft.to/lastmile_qr_scan", "ios": "https://dc.lft.to/lastmile_qr_scan"}, "fusion_lon": 0.0, "lat": 38.898969666666666, "bike_id": "f1fc08281e9d4d59e280e8f6fb5b53d8", "type": "electric_scooter", "is_reserved": 0, "lon": -77.015023}, {"fusion_lat": 0.0, "name": "df3017649e060ade1441ba9baee291e7", "is_disabled": 0, "rental_uris": {"android": "https://dc.lft.to/lastmile_qr_scan", "ios": "https://dc.lft.to/lastmile_qr_scan"}, "fusion_lon": 0.0, "lat": 38.942662, "bike_id": "df3017649e060ade1441ba9baee291e7", "type": "electric_bike", "is_reserved": 0, "lon": -76.99458066666666}, {"fusion_lat": 0.0, "name": "af2a3cc4764c8761b62d088ec010ada9", "is_disabled": 0, "rental_uris": {"android": "https://dc.lft.to/lastmile_qr_scan", "ios": "https://dc.lft.to/lastmile_qr_scan"}, "fusion_lon": 0.0, "lat": 38.866211166666666, "bike_id": "af2a3cc4764c8761b62d088ec010ada9", "type": "electric_bike", "is_reserved": 0, "lon": -76.94574866666666}, {"fusion_lat": 0.0, "name": "66180a3080fe667903cfae03903ba7e5", "is_disabled": 0, "rental_uris": {"android": "https://dc.lft.to/lastmile_qr_scan", "ios": "https://dc.lft.to/lastmile_qr_scan"}, "fusion_lon": 0.0, "lat": 38.96127366666666, "bike_id": "66180a3080fe667903cfae03903ba7e5", "type": "electric_bike", "is_reserved": 0, "lon": -77.08513183333334}, {"fusion_lat": 0.0, "name": "e5ff6d695c68e0dcfa827d56948159ad", "is_disabled": 0, "rental_uris": {"android": "https://dc.lft.to/lastmile_qr_scan", "ios": "https://dc.lft.to/lastmile_qr_scan"}, "fusion_lon": 0.0, "lat": 38.90367483333333, "bike_id": "e5ff6d695c68e0dcfa827d56948159ad", "type": "electric_scooter", "is_reserved": 0, "lon": -77.04468333333334}, {"fusion_lat": 0.0, "name": "3628645163ca354a2fee4b7d1ab43b10", "is_disabled": 0, "rental_uris": {"android": "https://dc.lft.to/lastmile_qr_scan", "ios": "https://dc.lft.to/lastmile_qr_scan"}, "fusion_lon": 0.0, "lat": 38.9193845, "bike_id": "3628645163ca354a2fee4b7d1ab43b10", "type": "electric_scooter", "is_reserved": 0, "lon": -77.02507416666667}, {"fusion_lat": 0.0, "name": "4eb9759d11774d61be3c7645eed9114c", "is_disabled": 0, "rental_uris": {"android": "https://dc.lft.to/lastmile_qr_scan", "ios": "https://dc.lft.to/lastmile_qr_scan"}, "fusion_lon": 0.0, "lat": 38.87941633333333, "bike_id": "4eb9759d11774d61be3c7645eed9114c", "type": "electric_bike", "is_reserved": 0, "lon": -77.01009483333333}, {"fusion_lat": 0.0, "name": "787d8b0bb45c7cc7827eca43e168310d", "is_disabled": 0, "rental_uris": {"android": "https://dc.lft.to/lastmile_qr_scan", "ios": "https://dc.lft.to/lastmile_qr_scan"}, "fusion_lon": 0.0, "lat": 38.932494166666665, "bike_id": "787d8b0bb45c7cc7827eca43e168310d", "type": "electric_scooter", "is_reserved": 0, "lon": -77.04007933333334}, {"fusion_lat": 0.0, "name": "a27a6a598455ab13f3731f1419201474", "is_disabled": 0, "rental_uris": {"android": "https://dc.lft.to/lastmile_qr_scan", "ios": "https://dc.lft.to/lastmile_qr_scan"}, "fusion_lon": 0.0, "lat": 38.903576666666666, "bike_id": "a27a6a598455ab13f3731f1419201474", "type": "electric_scooter", "is_reserved": 0, "lon": -77.0351725}, {"fusion_lat": 0.0, "name": "7452937e03054194e919084de72ff3e7", "is_disabled": 0, "rental_uris": {"android": "https://dc.lft.to/lastmile_qr_scan", "ios": "https://dc.lft.to/lastmile_qr_scan"}, "fusion_lon": 0.0, "lat": 38.92257266666667, "bike_id": "7452937e03054194e919084de72ff3e7", "type": "electric_scooter", "is_reserved": 0, "lon": -77.07483533333334}, {"fusion_lat": 0.0, "name": "a0d381a4abc21ed8ecb33cde35e5b294", "is_disabled": 0, "rental_uris": {"android": "https://dc.lft.to/lastmile_qr_scan", "ios": "https://dc.lft.to/lastmile_qr_scan"}, "fusion_lon": 0.0, "lat": 38.89714083333333, "bike_id": "a0d381a4abc21ed8ecb33cde35e5b294", "type": "electric_scooter", "is_reserved": 0, "lon": -77.01958683333334}, {"fusion_lat": 0.0, "name": "04216e38f5d8f0e6fe015a0d6589bbd0", "is_disabled": 0, "rental_uris": {"android": "https://dc.lft.to/lastmile_qr_scan", "ios": "https://dc.lft.to/lastmile_qr_scan"}, "fusion_lon": 0.0, "lat": 38.870433, "bike_id": "04216e38f5d8f0e6fe015a0d6589bbd0", "type": "electric_scooter", "is_reserved": 0, "lon": -77.00972033333333}, {"fusion_lat": 0.0, "name": "020beafa5dae4e388367bb2928eb2a77", "is_disabled": 0, "rental_uris": {"android": "https://dc.lft.to/lastmile_qr_scan", "ios": "https://dc.lft.to/lastmile_qr_scan"}, "fusion_lon": 0.0, "lat": 38.912724833333336, "bike_id": "020beafa5dae4e388367bb2928eb2a77", "type": "electric_scooter", "is_reserved": 0, "lon": -77.02259016666666}, {"fusion_lat": 0.0, "name": "151d5c5e9835a0743b478d10ac875a9d", "is_disabled": 0, "rental_uris": {"android": "https://dc.lft.to/lastmile_qr_scan", "ios": "https://dc.lft.to/lastmile_qr_scan"}, "fusion_lon": 0.0, "lat": 38.8844985, "bike_id": "151d5c5e9835a0743b478d10ac875a9d", "type": "electric_scooter", "is_reserved": 0, "lon": -76.993917}, {"fusion_lat": 0.0, "name": "b4aa1862f204c0990e09223e18b87930", "is_disabled": 0, "rental_uris": {"android": "https://dc.lft.to/lastmile_qr_scan", "ios": "https://dc.lft.to/lastmile_qr_scan"}, "fusion_lon": 0.0, "lat": 38.8755365, "bike_id": "b4aa1862f204c0990e09223e18b87930", "type": "electric_bike", "is_reserved": 0, "lon": -77.000896}, {"fusion_lat": 0.0, "name": "15c364df38b1279b8ce77054db1308dd", "is_disabled": 0, "rental_uris": {"android": "https://dc.lft.to/lastmile_qr_scan", "ios": "https://dc.lft.to/lastmile_qr_scan"}, "fusion_lon": 0.0, "lat": 38.93743766666667, "bike_id": "15c364df38b1279b8ce77054db1308dd", "type": "electric_scooter", "is_reserved": 0, "lon": -77.03596666666667}, {"fusion_lat": 0.0, "name": "5759e8647d6a3dfbf9d2fc445466e1a3", "is_disabled": 0, "rental_uris": {"android": "https://dc.lft.to/lastmile_qr_scan", "ios": "https://dc.lft.to/lastmile_qr_scan"}, "fusion_lon": 0.0, "lat": 38.91113333333333, "bike_id": "5759e8647d6a3dfbf9d2fc445466e1a3", "type": "electric_scooter", "is_reserved": 0, "lon": -77.02082133333333}, {"fusion_lat": 0.0, "name": "5a2f940b475801a3c76895425708bda2", "is_disabled": 0, "rental_uris": {"android": "https://dc.lft.to/lastmile_qr_scan", "ios": "https://dc.lft.to/lastmile_qr_scan"}, "fusion_lon": 0.0, "lat": 38.907097, "bike_id": "5a2f940b475801a3c76895425708bda2", "type": "electric_scooter", "is_reserved": 0, "lon": -77.05051583333334}, {"fusion_lat": 0.0, "name": "c7b5f2b3f0240605f479a191d8434e8e", "is_disabled": 0, "rental_uris": {"android": "https://dc.lft.to/lastmile_qr_scan", "ios": "https://dc.lft.to/lastmile_qr_scan"}, "fusion_lon": 0.0, "lat": 38.9085575, "bike_id": "c7b5f2b3f0240605f479a191d8434e8e", "type": "electric_scooter", "is_reserved": 0, "lon": -77.04742833333333}, {"fusion_lat": 0.0, "name": "9b834190d5564985f40d9066163526dc", "is_disabled": 0, "rental_uris": {"android": "https://dc.lft.to/lastmile_qr_scan", "ios": "https://dc.lft.to/lastmile_qr_scan"}, "fusion_lon": 0.0, "lat": 38.806687, "bike_id": "9b834190d5564985f40d9066163526dc", "type": "electric_bike", "is_reserved": 0, "lon": -77.06917483333334}, {"fusion_lat": 0.0, "name": "d1f9c910c9054d2099062acd14de0c1d", "is_disabled": 0, "rental_uris": {"android": "https://dc.lft.to/lastmile_qr_scan", "ios": "https://dc.lft.to/lastmile_qr_scan"}, "fusion_lon": 0.0, "lat": 38.89608033333333, "bike_id": "d1f9c910c9054d2099062acd14de0c1d", "type": "electric_scooter", "is_reserved": 0, "lon": -77.00927583333333}, {"fusion_lat": 0.0, "name": "e5b286e228af14c24758cc81acc1d16c", "is_disabled": 0, "rental_uris": {"android": "https://dc.lft.to/lastmile_qr_scan", "ios": "https://dc.lft.to/lastmile_qr_scan"}, "fusion_lon": 0.0, "lat": 38.892157, "bike_id": "e5b286e228af14c24758cc81acc1d16c", "type": "electric_scooter", "is_reserved": 0, "lon": -77.02366083333334}, {"fusion_lat": 0.0, "name": "9a6dc1aaca9b305f0a04954f4c2493ae", "is_disabled": 0, "rental_uris": {"android": "https://dc.lft.to/lastmile_qr_scan", "ios": "https://dc.lft.to/lastmile_qr_scan"}, "fusion_lon": 0.0, "lat": 38.9190925, "bike_id": "9a6dc1aaca9b305f0a04954f4c2493ae", "type": "electric_bike", "is_reserved": 0, "lon": -77.03140666666667}, {"fusion_lat": 0.0, "name": "34eb0b12d74c313c2938317013cfbfe6", "is_disabled": 0, "rental_uris": {"android": "https://dc.lft.to/lastmile_qr_scan", "ios": "https://dc.lft.to/lastmile_qr_scan"}, "fusion_lon": 0.0, "lat": 38.8850075, "bike_id": "34eb0b12d74c313c2938317013cfbfe6", "type": "electric_scooter", "is_reserved": 0, "lon": -76.99756516666666}, {"fusion_lat": 0.0, "name": "f4f4e978814922d335bff6fda40db7b3", "is_disabled": 0, "rental_uris": {"android": "https://dc.lft.to/lastmile_qr_scan", "ios": "https://dc.lft.to/lastmile_qr_scan"}, "fusion_lon": 0.0, "lat": 38.917213833333335, "bike_id": "f4f4e978814922d335bff6fda40db7b3", "type": "electric_scooter", "is_reserved": 0, "lon": -77.02795016666667}, {"fusion_lat": 0.0, "name": "df8147bb8107294c9d323d19b5701978", "is_disabled": 0, "rental_uris": {"android": "https://dc.lft.to/lastmile_qr_scan", "ios": "https://dc.lft.to/lastmile_qr_scan"}, "fusion_lon": 0.0, "lat": 38.92156466666667, "bike_id": "df8147bb8107294c9d323d19b5701978", "type": "electric_scooter", "is_reserved": 0, "lon": -77.020937}, {"fusion_lat": 0.0, "name": "7eeeaf5bd63dae5786636ec340840eae", "is_disabled": 0, "rental_uris": {"android": "https://dc.lft.to/lastmile_qr_scan", "ios": "https://dc.lft.to/lastmile_qr_scan"}, "fusion_lon": 0.0, "lat": 38.896889, "bike_id": "7eeeaf5bd63dae5786636ec340840eae", "type": "electric_scooter", "is_reserved": 0, "lon": -77.0238765}, {"fusion_lat": 0.0, "name": "6a7af4a5f6630f179a4b81a9fbc08c21", "is_disabled": 0, "rental_uris": {"android": "https://dc.lft.to/lastmile_qr_scan", "ios": "https://dc.lft.to/lastmile_qr_scan"}, "fusion_lon": 0.0, "lat": 38.8956305, "bike_id": "6a7af4a5f6630f179a4b81a9fbc08c21", "type": "electric_scooter", "is_reserved": 0, "lon": -76.99433433333333}, {"fusion_lat": 0.0, "name": "19b4748118d55ac15340e7a58645adc3", "is_disabled": 0, "rental_uris": {"android": "https://dc.lft.to/lastmile_qr_scan", "ios": "https://dc.lft.to/lastmile_qr_scan"}, "fusion_lon": 0.0, "lat": 39.01415083333333, "bike_id": "19b4748118d55ac15340e7a58645adc3", "type": "electric_bike", "is_reserved": 0, "lon": -77.04501716666667}, {"fusion_lat": 0.0, "name": "9f78aae63ff6526a9edb98facc4a3110", "is_disabled": 0, "rental_uris": {"android": "https://dc.lft.to/lastmile_qr_scan", "ios": "https://dc.lft.to/lastmile_qr_scan"}, "fusion_lon": 0.0, "lat": 38.908097, "bike_id": "9f78aae63ff6526a9edb98facc4a3110", "type": "electric_scooter", "is_reserved": 0, "lon": -77.04327533333333}, {"fusion_lat": 0.0, "name": "760407bd4974319c7de0c997488d2750", "is_disabled": 0, "rental_uris": {"android": "https://dc.lft.to/lastmile_qr_scan", "ios": "https://dc.lft.to/lastmile_qr_scan"}, "fusion_lon": 0.0, "lat": 38.901506166666664, "bike_id": "760407bd4974319c7de0c997488d2750", "type": "electric_scooter", "is_reserved": 0, "lon": -77.02015816666666}, {"fusion_lat": 0.0, "name": "944a5bc5373d55d839ef37f85ce36b14", "is_disabled": 0, "rental_uris": {"android": "https://dc.lft.to/lastmile_qr_scan", "ios": "https://dc.lft.to/lastmile_qr_scan"}, "fusion_lon": 0.0, "lat": 38.95610283333333, "bike_id": "944a5bc5373d55d839ef37f85ce36b14", "type": "electric_scooter", "is_reserved": 0, "lon": -77.02763083333333}, {"fusion_lat": 0.0, "name": "97fa95be48eda7fbc8601cca425f828b", "is_disabled": 0, "rental_uris": {"android": "https://dc.lft.to/lastmile_qr_scan", "ios": "https://dc.lft.to/lastmile_qr_scan"}, "fusion_lon": 0.0, "lat": 38.94634933333333, "bike_id": "97fa95be48eda7fbc8601cca425f828b", "type": "electric_scooter", "is_reserved": 0, "lon": -77.0954335}, {"fusion_lat": 0.0, "name": "6643e0e83f562d9b6ef21ffd8ba77292", "is_disabled": 0, "rental_uris": {"android": "https://dc.lft.to/lastmile_qr_scan", "ios": "https://dc.lft.to/lastmile_qr_scan"}, "fusion_lon": 0.0, "lat": 38.9026405, "bike_id": "6643e0e83f562d9b6ef21ffd8ba77292", "type": "electric_scooter", "is_reserved": 0, "lon": -77.02952183333333}, {"fusion_lat": 0.0, "name": "94d066ecd0750712c5b623fac546aac3", "is_disabled": 0, "rental_uris": {"android": "https://dc.lft.to/lastmile_qr_scan", "ios": "https://dc.lft.to/lastmile_qr_scan"}, "fusion_lon": 0.0, "lat": 38.91335816666667, "bike_id": "94d066ecd0750712c5b623fac546aac3", "type": "electric_scooter", "is_reserved": 0, "lon": -77.04272866666666}, {"fusion_lat": 0.0, "name": "720b991edd965a93463fe34341fa2759", "is_disabled": 0, "rental_uris": {"android": "https://dc.lft.to/lastmile_qr_scan", "ios": "https://dc.lft.to/lastmile_qr_scan"}, "fusion_lon": 0.0, "lat": 38.920756, "bike_id": "720b991edd965a93463fe34341fa2759", "type": "electric_scooter", "is_reserved": 0, "lon": -77.01481433333333}, {"fusion_lat": 0.0, "name": "8537ccef13eecc10bc738aaa1965841d", "is_disabled": 0, "rental_uris": {"android": "https://dc.lft.to/lastmile_qr_scan", "ios": "https://dc.lft.to/lastmile_qr_scan"}, "fusion_lon": 0.0, "lat": 38.9155535, "bike_id": "8537ccef13eecc10bc738aaa1965841d", "type": "electric_scooter", "is_reserved": 0, "lon": -77.03067516666667}, {"fusion_lat": 0.0, "name": "60a87268dbe49d7d9aef6539a510cc48", "is_disabled": 0, "rental_uris": {"android": "https://dc.lft.to/lastmile_qr_scan", "ios": "https://dc.lft.to/lastmile_qr_scan"}, "fusion_lon": 0.0, "lat": 38.8782, "bike_id": "60a87268dbe49d7d9aef6539a510cc48", "type": "electric_scooter", "is_reserved": 0, "lon": -76.9900095}, {"fusion_lat": 0.0, "name": "c839aea9c8a833dbcf56f454412301a8", "is_disabled": 0, "rental_uris": {"android": "https://dc.lft.to/lastmile_qr_scan", "ios": "https://dc.lft.to/lastmile_qr_scan"}, "fusion_lon": 0.0, "lat": 39.03896366666667, "bike_id": "c839aea9c8a833dbcf56f454412301a8", "type": "electric_bike", "is_reserved": 0, "lon": -77.05024}, {"fusion_lat": 0.0, "name": "0e71557a0030694a59f7c671decf3ddd", "is_disabled": 0, "rental_uris": {"android": "https://dc.lft.to/lastmile_qr_scan", "ios": "https://dc.lft.to/lastmile_qr_scan"}, "fusion_lon": 0.0, "lat": 38.9300375, "bike_id": "0e71557a0030694a59f7c671decf3ddd", "type": "electric_scooter", "is_reserved": 0, "lon": -77.02079133333334}, {"fusion_lat": 0.0, "name": "7ed52f456135b2470e945cc3310ade28", "is_disabled": 0, "rental_uris": {"android": "https://dc.lft.to/lastmile_qr_scan", "ios": "https://dc.lft.to/lastmile_qr_scan"}, "fusion_lon": 0.0, "lat": 38.917988333333334, "bike_id": "7ed52f456135b2470e945cc3310ade28", "type": "electric_scooter", "is_reserved": 0, "lon": -77.02706433333333}, {"fusion_lat": 0.0, "name": "946bd95207067ff926752703c5a64b71", "is_disabled": 0, "rental_uris": {"android": "https://dc.lft.to/lastmile_qr_scan", "ios": "https://dc.lft.to/lastmile_qr_scan"}, "fusion_lon": 0.0, "lat": 38.909665, "bike_id": "946bd95207067ff926752703c5a64b71", "type": "electric_scooter", "is_reserved": 0, "lon": -77.04723516666667}, {"fusion_lat": 0.0, "name": "97174fdfdbc345fd91d327a04944bf96", "is_disabled": 0, "rental_uris": {"android": "https://dc.lft.to/lastmile_qr_scan", "ios": "https://dc.lft.to/lastmile_qr_scan"}, "fusion_lon": 0.0, "lat": 38.90732333333333, "bike_id": "97174fdfdbc345fd91d327a04944bf96", "type": "electric_scooter", "is_reserved": 0, "lon": -77.02611016666667}, {"fusion_lat": 0.0, "name": "af7f76106f409717eb8a21dde26f5804", "is_disabled": 0, "rental_uris": {"android": "https://dc.lft.to/lastmile_qr_scan", "ios": "https://dc.lft.to/lastmile_qr_scan"}, "fusion_lon": 0.0, "lat": 38.914269833333336, "bike_id": "af7f76106f409717eb8a21dde26f5804", "type": "electric_scooter", "is_reserved": 0, "lon": -76.984383}, {"fusion_lat": 0.0, "name": "83e8400fa13ecb35c27fd76a2b6828da", "is_disabled": 0, "rental_uris": {"android": "https://dc.lft.to/lastmile_qr_scan", "ios": "https://dc.lft.to/lastmile_qr_scan"}, "fusion_lon": 0.0, "lat": 38.900055333333334, "bike_id": "83e8400fa13ecb35c27fd76a2b6828da", "type": "electric_scooter", "is_reserved": 0, "lon": -76.99847433333333}, {"fusion_lat": 0.0, "name": "f4afb8ed67d3c90e3ec93b0f7fc32b9c", "is_disabled": 0, "rental_uris": {"android": "https://dc.lft.to/lastmile_qr_scan", "ios": "https://dc.lft.to/lastmile_qr_scan"}, "fusion_lon": 0.0, "lat": 38.90460866666667, "bike_id": "f4afb8ed67d3c90e3ec93b0f7fc32b9c", "type": "electric_scooter", "is_reserved": 0, "lon": -77.0035355}, {"fusion_lat": 0.0, "name": "2baf31089a9127883dbda794904844fe", "is_disabled": 0, "rental_uris": {"android": "https://dc.lft.to/lastmile_qr_scan", "ios": "https://dc.lft.to/lastmile_qr_scan"}, "fusion_lon": 0.0, "lat": 38.92481383333333, "bike_id": "2baf31089a9127883dbda794904844fe", "type": "electric_scooter", "is_reserved": 0, "lon": -77.02714433333334}, {"fusion_lat": 0.0, "name": "87684a95d44ab282c4fe9e2b7991142e", "is_disabled": 0, "rental_uris": {"android": "https://dc.lft.to/lastmile_qr_scan", "ios": "https://dc.lft.to/lastmile_qr_scan"}, "fusion_lon": 0.0, "lat": 38.90981383333333, "bike_id": "87684a95d44ab282c4fe9e2b7991142e", "type": "electric_scooter", "is_reserved": 0, "lon": -77.031866}, {"fusion_lat": 0.0, "name": "d9ae9a4645060e2f106eed287d052caf", "is_disabled": 0, "rental_uris": {"android": "https://dc.lft.to/lastmile_qr_scan", "ios": "https://dc.lft.to/lastmile_qr_scan"}, "fusion_lon": 0.0, "lat": 38.85357333333333, "bike_id": "d9ae9a4645060e2f106eed287d052caf", "type": "electric_bike", "is_reserved": 0, "lon": -77.1150785}, {"fusion_lat": 0.0, "name": "6288a227d6f100ba5176676f497abce7", "is_disabled": 0, "rental_uris": {"android": "https://dc.lft.to/lastmile_qr_scan", "ios": "https://dc.lft.to/lastmile_qr_scan"}, "fusion_lon": 0.0, "lat": 38.93857783333333, "bike_id": "6288a227d6f100ba5176676f497abce7", "type": "electric_scooter", "is_reserved": 0, "lon": -77.03208233333334}, {"fusion_lat": 0.0, "name": "8359aaf49c603743a61028c407bd2cec", "is_disabled": 0, "rental_uris": {"android": "https://dc.lft.to/lastmile_qr_scan", "ios": "https://dc.lft.to/lastmile_qr_scan"}, "fusion_lon": 0.0, "lat": 38.900407333333334, "bike_id": "8359aaf49c603743a61028c407bd2cec", "type": "electric_scooter", "is_reserved": 0, "lon": -77.04480433333333}, {"fusion_lat": 0.0, "name": "d32779bc8ccfa60ab8f237ecbb386b11", "is_disabled": 0, "rental_uris": {"android": "https://dc.lft.to/lastmile_qr_scan", "ios": "https://dc.lft.to/lastmile_qr_scan"}, "fusion_lon": 0.0, "lat": 38.91699666666667, "bike_id": "d32779bc8ccfa60ab8f237ecbb386b11", "type": "electric_scooter", "is_reserved": 0, "lon": -77.03755033333333}, {"fusion_lat": 0.0, "name": "2f7482b9829058c84ed169e8bc76bc85", "is_disabled": 0, "rental_uris": {"android": "https://dc.lft.to/lastmile_qr_scan", "ios": "https://dc.lft.to/lastmile_qr_scan"}, "fusion_lon": 0.0, "lat": 38.94975483333333, "bike_id": "2f7482b9829058c84ed169e8bc76bc85", "type": "electric_scooter", "is_reserved": 0, "lon": -77.024452}, {"fusion_lat": 0.0, "name": "45d5c55b793c0544093b59a5b6abe8e6", "is_disabled": 0, "rental_uris": {"android": "https://dc.lft.to/lastmile_qr_scan", "ios": "https://dc.lft.to/lastmile_qr_scan"}, "fusion_lon": 0.0, "lat": 38.9245075, "bike_id": "45d5c55b793c0544093b59a5b6abe8e6", "type": "electric_scooter", "is_reserved": 0, "lon": -77.039771}, {"fusion_lat": 0.0, "name": "a3388eda765ec037791e4123a574910c", "is_disabled": 0, "rental_uris": {"android": "https://dc.lft.to/lastmile_qr_scan", "ios": "https://dc.lft.to/lastmile_qr_scan"}, "fusion_lon": 0.0, "lat": 38.89224033333333, "bike_id": "a3388eda765ec037791e4123a574910c", "type": "electric_scooter", "is_reserved": 0, "lon": -77.0503705}, {"fusion_lat": 0.0, "name": "9b71b5422ecb38eb3a8b8a36973c7c2f", "is_disabled": 0, "rental_uris": {"android": "https://dc.lft.to/lastmile_qr_scan", "ios": "https://dc.lft.to/lastmile_qr_scan"}, "fusion_lon": 0.0, "lat": 38.931021666666666, "bike_id": "9b71b5422ecb38eb3a8b8a36973c7c2f", "type": "electric_scooter", "is_reserved": 0, "lon": -77.02476866666667}, {"fusion_lat": 0.0, "name": "0b7c03c385ee36d314b835feb60516e6", "is_disabled": 0, "rental_uris": {"android": "https://dc.lft.to/lastmile_qr_scan", "ios": "https://dc.lft.to/lastmile_qr_scan"}, "fusion_lon": 0.0, "lat": 38.88709766666667, "bike_id": "0b7c03c385ee36d314b835feb60516e6", "type": "electric_scooter", "is_reserved": 0, "lon": -76.99674966666667}, {"fusion_lat": 0.0, "name": "805144ec32f85579548e60911206aaee", "is_disabled": 0, "rental_uris": {"android": "https://dc.lft.to/lastmile_qr_scan", "ios": "https://dc.lft.to/lastmile_qr_scan"}, "fusion_lon": 0.0, "lat": 38.9095045, "bike_id": "805144ec32f85579548e60911206aaee", "type": "electric_scooter", "is_reserved": 0, "lon": -77.0271725}, {"fusion_lat": 0.0, "name": "cce0e5ce5f835bed0d882ac8e020cf61", "is_disabled": 0, "rental_uris": {"android": "https://dc.lft.to/lastmile_qr_scan", "ios": "https://dc.lft.to/lastmile_qr_scan"}, "fusion_lon": 0.0, "lat": 38.928746333333336, "bike_id": "cce0e5ce5f835bed0d882ac8e020cf61", "type": "electric_scooter", "is_reserved": 0, "lon": -77.03258066666666}, {"fusion_lat": 0.0, "name": "3682ca14c0dab60dc635dead1ad26e79", "is_disabled": 0, "rental_uris": {"android": "https://dc.lft.to/lastmile_qr_scan", "ios": "https://dc.lft.to/lastmile_qr_scan"}, "fusion_lon": 0.0, "lat": 38.90464433333333, "bike_id": "3682ca14c0dab60dc635dead1ad26e79", "type": "electric_scooter", "is_reserved": 0, "lon": -77.0169955}, {"fusion_lat": 0.0, "name": "c41f8226e8327f95d796b43db2e17bb5", "is_disabled": 0, "rental_uris": {"android": "https://dc.lft.to/lastmile_qr_scan", "ios": "https://dc.lft.to/lastmile_qr_scan"}, "fusion_lon": 0.0, "lat": 38.940094, "bike_id": "c41f8226e8327f95d796b43db2e17bb5", "type": "electric_scooter", "is_reserved": 0, "lon": -77.0841825}, {"fusion_lat": 0.0, "name": "3728779e9599d8ea94a416969e93c6a1", "is_disabled": 0, "rental_uris": {"android": "https://dc.lft.to/lastmile_qr_scan", "ios": "https://dc.lft.to/lastmile_qr_scan"}, "fusion_lon": 0.0, "lat": 38.886739166666665, "bike_id": "3728779e9599d8ea94a416969e93c6a1", "type": "electric_scooter", "is_reserved": 0, "lon": -77.0136995}, {"fusion_lat": 0.0, "name": "512c70cb4b255ea2b2b3911f07d91ac8", "is_disabled": 0, "rental_uris": {"android": "https://dc.lft.to/lastmile_qr_scan", "ios": "https://dc.lft.to/lastmile_qr_scan"}, "fusion_lon": 0.0, "lat": 38.90764733333334, "bike_id": "512c70cb4b255ea2b2b3911f07d91ac8", "type": "electric_scooter", "is_reserved": 0, "lon": -77.05593333333333}, {"fusion_lat": 0.0, "name": "2f5a8c6a110dd92d3400dee00f8c8d87", "is_disabled": 0, "rental_uris": {"android": "https://dc.lft.to/lastmile_qr_scan", "ios": "https://dc.lft.to/lastmile_qr_scan"}, "fusion_lon": 0.0, "lat": 38.9003095, "bike_id": "2f5a8c6a110dd92d3400dee00f8c8d87", "type": "electric_scooter", "is_reserved": 0, "lon": -76.9948145}, {"fusion_lat": 0.0, "name": "c566898298f254e2f5e1bead20450844", "is_disabled": 0, "rental_uris": {"android": "https://dc.lft.to/lastmile_qr_scan", "ios": "https://dc.lft.to/lastmile_qr_scan"}, "fusion_lon": 0.0, "lat": 38.90059333333333, "bike_id": "c566898298f254e2f5e1bead20450844", "type": "electric_scooter", "is_reserved": 0, "lon": -76.93385733333334}, {"fusion_lat": 0.0, "name": "64de6c82b96d0101a384cdc9063d7e8c", "is_disabled": 0, "rental_uris": {"android": "https://dc.lft.to/lastmile_qr_scan", "ios": "https://dc.lft.to/lastmile_qr_scan"}, "fusion_lon": 0.0, "lat": 38.83511033333333, "bike_id": "64de6c82b96d0101a384cdc9063d7e8c", "type": "electric_bike", "is_reserved": 0, "lon": -76.98669716666667}, {"fusion_lat": 0.0, "name": "622bcbb75d6eb27fc3383406f37b371a", "is_disabled": 0, "rental_uris": {"android": "https://dc.lft.to/lastmile_qr_scan", "ios": "https://dc.lft.to/lastmile_qr_scan"}, "fusion_lon": 0.0, "lat": 38.883895, "bike_id": "622bcbb75d6eb27fc3383406f37b371a", "type": "electric_scooter", "is_reserved": 0, "lon": -76.985836}, {"fusion_lat": 0.0, "name": "19de1afc8d0f5e8911fb4c5761306303", "is_disabled": 0, "rental_uris": {"android": "https://dc.lft.to/lastmile_qr_scan", "ios": "https://dc.lft.to/lastmile_qr_scan"}, "fusion_lon": 0.0, "lat": 38.948563166666666, "bike_id": "19de1afc8d0f5e8911fb4c5761306303", "type": "electric_scooter", "is_reserved": 0, "lon": -77.02569116666666}, {"fusion_lat": 0.0, "name": "b756dc93792aa74fc8e855ba13f55b87", "is_disabled": 0, "rental_uris": {"android": "https://dc.lft.to/lastmile_qr_scan", "ios": "https://dc.lft.to/lastmile_qr_scan"}, "fusion_lon": 0.0, "lat": 38.94271283333333, "bike_id": "b756dc93792aa74fc8e855ba13f55b87", "type": "electric_scooter", "is_reserved": 0, "lon": -77.03259266666667}, {"fusion_lat": 0.0, "name": "12e60ff8959102fa496d2b35a54eb161", "is_disabled": 0, "rental_uris": {"android": "https://dc.lft.to/lastmile_qr_scan", "ios": "https://dc.lft.to/lastmile_qr_scan"}, "fusion_lon": 0.0, "lat": 38.88733516666667, "bike_id": "12e60ff8959102fa496d2b35a54eb161", "type": "electric_scooter", "is_reserved": 0, "lon": -77.03177083333334}, {"fusion_lat": 0.0, "name": "a97f0ad330ec32c9037575c6453f3e72", "is_disabled": 0, "rental_uris": {"android": "https://dc.lft.to/lastmile_qr_scan", "ios": "https://dc.lft.to/lastmile_qr_scan"}, "fusion_lon": 0.0, "lat": 38.900446333333335, "bike_id": "a97f0ad330ec32c9037575c6453f3e72", "type": "electric_scooter", "is_reserved": 0, "lon": -77.00223583333333}, {"fusion_lat": 0.0, "name": "ff6406ce97b5ecf38925fd0bf8ecf7ca", "is_disabled": 0, "rental_uris": {"android": "https://dc.lft.to/lastmile_qr_scan", "ios": "https://dc.lft.to/lastmile_qr_scan"}, "fusion_lon": 0.0, "lat": 38.91551366666667, "bike_id": "ff6406ce97b5ecf38925fd0bf8ecf7ca", "type": "electric_scooter", "is_reserved": 0, "lon": -77.01134533333334}, {"fusion_lat": 0.0, "name": "c96919a905db37e7719daeb28e48d3d1", "is_disabled": 0, "rental_uris": {"android": "https://dc.lft.to/lastmile_qr_scan", "ios": "https://dc.lft.to/lastmile_qr_scan"}, "fusion_lon": 0.0, "lat": 38.90134183333333, "bike_id": "c96919a905db37e7719daeb28e48d3d1", "type": "electric_bike", "is_reserved": 0, "lon": -77.02742216666667}, {"fusion_lat": 0.0, "name": "fd2f0203525d5f0c8a784939d6719aa4", "is_disabled": 0, "rental_uris": {"android": "https://dc.lft.to/lastmile_qr_scan", "ios": "https://dc.lft.to/lastmile_qr_scan"}, "fusion_lon": 0.0, "lat": 38.90360883333334, "bike_id": "fd2f0203525d5f0c8a784939d6719aa4", "type": "electric_scooter", "is_reserved": 0, "lon": -77.05481333333333}, {"fusion_lat": 0.0, "name": "a0121c7b66bbc77f5f46813c81b689aa", "is_disabled": 0, "rental_uris": {"android": "https://dc.lft.to/lastmile_qr_scan", "ios": "https://dc.lft.to/lastmile_qr_scan"}, "fusion_lon": 0.0, "lat": 38.925559666666665, "bike_id": "a0121c7b66bbc77f5f46813c81b689aa", "type": "electric_scooter", "is_reserved": 0, "lon": -77.07761466666666}, {"fusion_lat": 0.0, "name": "459e4c77b524ca075cb99f4e8f5306d3", "is_disabled": 0, "rental_uris": {"android": "https://dc.lft.to/lastmile_qr_scan", "ios": "https://dc.lft.to/lastmile_qr_scan"}, "fusion_lon": 0.0, "lat": 38.878327, "bike_id": "459e4c77b524ca075cb99f4e8f5306d3", "type": "electric_scooter", "is_reserved": 0, "lon": -76.96327583333333}, {"fusion_lat": 0.0, "name": "43eb34b54f60af9ae0ef4ee7a4ca8b63", "is_disabled": 0, "rental_uris": {"android": "https://dc.lft.to/lastmile_qr_scan", "ios": "https://dc.lft.to/lastmile_qr_scan"}, "fusion_lon": 0.0, "lat": 38.937693833333334, "bike_id": "43eb34b54f60af9ae0ef4ee7a4ca8b63", "type": "electric_scooter", "is_reserved": 0, "lon": -77.0326105}, {"fusion_lat": 0.0, "name": "7be97b324a6b969ae8efed680246c19b", "is_disabled": 0, "rental_uris": {"android": "https://dc.lft.to/lastmile_qr_scan", "ios": "https://dc.lft.to/lastmile_qr_scan"}, "fusion_lon": 0.0, "lat": 38.900774166666665, "bike_id": "7be97b324a6b969ae8efed680246c19b", "type": "electric_scooter", "is_reserved": 0, "lon": -77.018135}, {"fusion_lat": 0.0, "name": "33c0f3b28dd0dfdfa83061ba0f192189", "is_disabled": 0, "rental_uris": {"android": "https://dc.lft.to/lastmile_qr_scan", "ios": "https://dc.lft.to/lastmile_qr_scan"}, "fusion_lon": 0.0, "lat": 38.8928115, "bike_id": "33c0f3b28dd0dfdfa83061ba0f192189", "type": "electric_scooter", "is_reserved": 0, "lon": -76.98308666666667}, {"fusion_lat": 0.0, "name": "9cbac4e62ee96458218dcca62ef68586", "is_disabled": 0, "rental_uris": {"android": "https://dc.lft.to/lastmile_qr_scan", "ios": "https://dc.lft.to/lastmile_qr_scan"}, "fusion_lon": 0.0, "lat": 38.91806233333333, "bike_id": "9cbac4e62ee96458218dcca62ef68586", "type": "electric_scooter", "is_reserved": 0, "lon": -77.01131866666667}, {"fusion_lat": 0.0, "name": "22fc627945ec673107fc9842b79d219e", "is_disabled": 0, "rental_uris": {"android": "https://dc.lft.to/lastmile_qr_scan", "ios": "https://dc.lft.to/lastmile_qr_scan"}, "fusion_lon": 0.0, "lat": 38.913067166666664, "bike_id": "22fc627945ec673107fc9842b79d219e", "type": "electric_scooter", "is_reserved": 0, "lon": -77.04873516666666}, {"fusion_lat": 0.0, "name": "7c4cec9867f63a9300c03a10d1c7d8a2", "is_disabled": 0, "rental_uris": {"android": "https://dc.lft.to/lastmile_qr_scan", "ios": "https://dc.lft.to/lastmile_qr_scan"}, "fusion_lon": 0.0, "lat": 38.90773316666667, "bike_id": "7c4cec9867f63a9300c03a10d1c7d8a2", "type": "electric_scooter", "is_reserved": 0, "lon": -77.0321275}, {"fusion_lat": 0.0, "name": "b1c7786d0f7771da7f585b4efa9f37f3", "is_disabled": 0, "rental_uris": {"android": "https://dc.lft.to/lastmile_qr_scan", "ios": "https://dc.lft.to/lastmile_qr_scan"}, "fusion_lon": 0.0, "lat": 38.948763, "bike_id": "b1c7786d0f7771da7f585b4efa9f37f3", "type": "electric_scooter", "is_reserved": 0, "lon": -77.02687966666667}, {"fusion_lat": 0.0, "name": "9105121577aa79e17058161ad6005fb8", "is_disabled": 0, "rental_uris": {"android": "https://dc.lft.to/lastmile_qr_scan", "ios": "https://dc.lft.to/lastmile_qr_scan"}, "fusion_lon": 0.0, "lat": 38.9279015, "bike_id": "9105121577aa79e17058161ad6005fb8", "type": "electric_scooter", "is_reserved": 0, "lon": -77.03211383333333}, {"fusion_lat": 0.0, "name": "d024289a0bfdd57ede24ed910b53baf3", "is_disabled": 0, "rental_uris": {"android": "https://dc.lft.to/lastmile_qr_scan", "ios": "https://dc.lft.to/lastmile_qr_scan"}, "fusion_lon": 0.0, "lat": 38.93629716666667, "bike_id": "d024289a0bfdd57ede24ed910b53baf3", "type": "electric_scooter", "is_reserved": 0, "lon": -77.036613}, {"fusion_lat": 0.0, "name": "ec9174e7935588996cd1e295810f8cb4", "is_disabled": 0, "rental_uris": {"android": "https://dc.lft.to/lastmile_qr_scan", "ios": "https://dc.lft.to/lastmile_qr_scan"}, "fusion_lon": 0.0, "lat": 38.94892516666667, "bike_id": "ec9174e7935588996cd1e295810f8cb4", "type": "electric_bike", "is_reserved": 0, "lon": -76.96377516666666}, {"fusion_lat": 0.0, "name": "def4ab138a7e638b50f5691232ecbb62", "is_disabled": 0, "rental_uris": {"android": "https://dc.lft.to/lastmile_qr_scan", "ios": "https://dc.lft.to/lastmile_qr_scan"}, "fusion_lon": 0.0, "lat": 38.9195745, "bike_id": "def4ab138a7e638b50f5691232ecbb62", "type": "electric_scooter", "is_reserved": 0, "lon": -77.07095516666666}, {"fusion_lat": 0.0, "name": "5cb8d9935b9db4bd832a4c41012b1f96", "is_disabled": 0, "rental_uris": {"android": "https://dc.lft.to/lastmile_qr_scan", "ios": "https://dc.lft.to/lastmile_qr_scan"}, "fusion_lon": 0.0, "lat": 38.935059333333335, "bike_id": "5cb8d9935b9db4bd832a4c41012b1f96", "type": "electric_scooter", "is_reserved": 0, "lon": -77.0737145}, {"fusion_lat": 0.0, "name": "d46a277c112980a5173fb315beebe545", "is_disabled": 0, "rental_uris": {"android": "https://dc.lft.to/lastmile_qr_scan", "ios": "https://dc.lft.to/lastmile_qr_scan"}, "fusion_lon": 0.0, "lat": 38.92648166666667, "bike_id": "d46a277c112980a5173fb315beebe545", "type": "electric_scooter", "is_reserved": 0, "lon": -77.03714316666667}, {"fusion_lat": 0.0, "name": "60fc24900b1744ef9b18cc8175def3a7", "is_disabled": 0, "rental_uris": {"android": "https://dc.lft.to/lastmile_qr_scan", "ios": "https://dc.lft.to/lastmile_qr_scan"}, "fusion_lon": 0.0, "lat": 38.983902666666665, "bike_id": "60fc24900b1744ef9b18cc8175def3a7", "type": "electric_scooter", "is_reserved": 0, "lon": -77.02631566666666}, {"fusion_lat": 0.0, "name": "2b6c8dc7bd3672a6043dd6771de7b2ec", "is_disabled": 0, "rental_uris": {"android": "https://dc.lft.to/lastmile_qr_scan", "ios": "https://dc.lft.to/lastmile_qr_scan"}, "fusion_lon": 0.0, "lat": 38.891945, "bike_id": "2b6c8dc7bd3672a6043dd6771de7b2ec", "type": "electric_scooter", "is_reserved": 0, "lon": -77.0223225}, {"fusion_lat": 0.0, "name": "2008e01e72fe6e2a1575bedaa8e22288", "is_disabled": 0, "rental_uris": {"android": "https://dc.lft.to/lastmile_qr_scan", "ios": "https://dc.lft.to/lastmile_qr_scan"}, "fusion_lon": 0.0, "lat": 38.917180333333334, "bike_id": "2008e01e72fe6e2a1575bedaa8e22288", "type": "electric_scooter", "is_reserved": 0, "lon": -77.03726633333333}, {"fusion_lat": 0.0, "name": "b7d606e9bbb6e7783a076ea16b036166", "is_disabled": 0, "rental_uris": {"android": "https://dc.lft.to/lastmile_qr_scan", "ios": "https://dc.lft.to/lastmile_qr_scan"}, "fusion_lon": 0.0, "lat": 38.9190135, "bike_id": "b7d606e9bbb6e7783a076ea16b036166", "type": "electric_scooter", "is_reserved": 0, "lon": -77.01216633333334}, {"fusion_lat": 0.0, "name": "04e081f1d1759ded7cf62b0407c6fd4d", "is_disabled": 0, "rental_uris": {"android": "https://dc.lft.to/lastmile_qr_scan", "ios": "https://dc.lft.to/lastmile_qr_scan"}, "fusion_lon": 0.0, "lat": 38.895035666666665, "bike_id": "04e081f1d1759ded7cf62b0407c6fd4d", "type": "electric_scooter", "is_reserved": 0, "lon": -76.94886033333333}, {"fusion_lat": 0.0, "name": "b506c5d9344a8f66f8441c19569894b5", "is_disabled": 0, "rental_uris": {"android": "https://dc.lft.to/lastmile_qr_scan", "ios": "https://dc.lft.to/lastmile_qr_scan"}, "fusion_lon": 0.0, "lat": 38.912819166666665, "bike_id": "b506c5d9344a8f66f8441c19569894b5", "type": "electric_scooter", "is_reserved": 0, "lon": -77.0465565}, {"fusion_lat": 0.0, "name": "9f0b64bbef13e2843c6bcf2bc98dd2d9", "is_disabled": 0, "rental_uris": {"android": "https://dc.lft.to/lastmile_qr_scan", "ios": "https://dc.lft.to/lastmile_qr_scan"}, "fusion_lon": 0.0, "lat": 38.91514316666667, "bike_id": "9f0b64bbef13e2843c6bcf2bc98dd2d9", "type": "electric_scooter", "is_reserved": 0, "lon": -77.02704366666667}, {"fusion_lat": 0.0, "name": "d9922c278a87237fedfeb3cadaaf36cd", "is_disabled": 0, "rental_uris": {"android": "https://dc.lft.to/lastmile_qr_scan", "ios": "https://dc.lft.to/lastmile_qr_scan"}, "fusion_lon": 0.0, "lat": 38.92181816666667, "bike_id": "d9922c278a87237fedfeb3cadaaf36cd", "type": "electric_scooter", "is_reserved": 0, "lon": -77.04230216666667}, {"fusion_lat": 0.0, "name": "92effc86b002f37056f96f24812e40f1", "is_disabled": 0, "rental_uris": {"android": "https://dc.lft.to/lastmile_qr_scan", "ios": "https://dc.lft.to/lastmile_qr_scan"}, "fusion_lon": 0.0, "lat": 38.94520766666667, "bike_id": "92effc86b002f37056f96f24812e40f1", "type": "electric_scooter", "is_reserved": 0, "lon": -77.02271166666667}, {"fusion_lat": 0.0, "name": "3c4fd23e389e5a4ea2ad6b08a007db2a", "is_disabled": 0, "rental_uris": {"android": "https://dc.lft.to/lastmile_qr_scan", "ios": "https://dc.lft.to/lastmile_qr_scan"}, "fusion_lon": 0.0, "lat": 38.87708166666667, "bike_id": "3c4fd23e389e5a4ea2ad6b08a007db2a", "type": "electric_scooter", "is_reserved": 0, "lon": -76.9938225}, {"fusion_lat": 0.0, "name": "aea3a5214c9b2e2d49f71f8ccbe857b5", "is_disabled": 0, "rental_uris": {"android": "https://dc.lft.to/lastmile_qr_scan", "ios": "https://dc.lft.to/lastmile_qr_scan"}, "fusion_lon": 0.0, "lat": 38.92403566666667, "bike_id": "aea3a5214c9b2e2d49f71f8ccbe857b5", "type": "electric_scooter", "is_reserved": 0, "lon": -77.02551233333334}, {"fusion_lat": 0.0, "name": "5f20880fad302697197fe06d7f188c58", "is_disabled": 0, "rental_uris": {"android": "https://dc.lft.to/lastmile_qr_scan", "ios": "https://dc.lft.to/lastmile_qr_scan"}, "fusion_lon": 0.0, "lat": 38.911551333333335, "bike_id": "5f20880fad302697197fe06d7f188c58", "type": "electric_scooter", "is_reserved": 0, "lon": -76.98726016666667}, {"fusion_lat": 0.0, "name": "d0418ff25e3da6176bbe25ac672d0ff1", "is_disabled": 0, "rental_uris": {"android": "https://dc.lft.to/lastmile_qr_scan", "ios": "https://dc.lft.to/lastmile_qr_scan"}, "fusion_lon": 0.0, "lat": 38.87374116666667, "bike_id": "d0418ff25e3da6176bbe25ac672d0ff1", "type": "electric_scooter", "is_reserved": 0, "lon": -77.0012965}, {"fusion_lat": 0.0, "name": "722f58efdf87a9a334901ffc4c1b57f4", "is_disabled": 0, "rental_uris": {"android": "https://dc.lft.to/lastmile_qr_scan", "ios": "https://dc.lft.to/lastmile_qr_scan"}, "fusion_lon": 0.0, "lat": 38.86760183333333, "bike_id": "722f58efdf87a9a334901ffc4c1b57f4", "type": "electric_scooter", "is_reserved": 0, "lon": -76.982682}, {"fusion_lat": 0.0, "name": "5ad9f2c4603671e49a7c6b80acae13ad", "is_disabled": 0, "rental_uris": {"android": "https://dc.lft.to/lastmile_qr_scan", "ios": "https://dc.lft.to/lastmile_qr_scan"}, "fusion_lon": 0.0, "lat": 38.89219, "bike_id": "5ad9f2c4603671e49a7c6b80acae13ad", "type": "electric_scooter", "is_reserved": 0, "lon": -77.04365916666667}, {"fusion_lat": 0.0, "name": "d58d4413da0871f752e0eedc42b0f4e1", "is_disabled": 0, "rental_uris": {"android": "https://dc.lft.to/lastmile_qr_scan", "ios": "https://dc.lft.to/lastmile_qr_scan"}, "fusion_lon": 0.0, "lat": 38.914904666666665, "bike_id": "d58d4413da0871f752e0eedc42b0f4e1", "type": "electric_scooter", "is_reserved": 0, "lon": -77.01415366666667}, {"fusion_lat": 0.0, "name": "4b17250433738b2f5ccf80d54a5f11a5", "is_disabled": 0, "rental_uris": {"android": "https://dc.lft.to/lastmile_qr_scan", "ios": "https://dc.lft.to/lastmile_qr_scan"}, "fusion_lon": 0.0, "lat": 38.902189166666666, "bike_id": "4b17250433738b2f5ccf80d54a5f11a5", "type": "electric_scooter", "is_reserved": 0, "lon": -77.02203533333333}, {"fusion_lat": 0.0, "name": "1b84bc2bec8c2ecac9c62a267b1902ed", "is_disabled": 0, "rental_uris": {"android": "https://dc.lft.to/lastmile_qr_scan", "ios": "https://dc.lft.to/lastmile_qr_scan"}, "fusion_lon": 0.0, "lat": 38.89629766666667, "bike_id": "1b84bc2bec8c2ecac9c62a267b1902ed", "type": "electric_scooter", "is_reserved": 0, "lon": -77.02665116666667}, {"fusion_lat": 0.0, "name": "7e40c22bc1364231a9ec36a49ddba7ba", "is_disabled": 0, "rental_uris": {"android": "https://dc.lft.to/lastmile_qr_scan", "ios": "https://dc.lft.to/lastmile_qr_scan"}, "fusion_lon": 0.0, "lat": 38.92661283333333, "bike_id": "7e40c22bc1364231a9ec36a49ddba7ba", "type": "electric_scooter", "is_reserved": 0, "lon": -77.05158033333333}, {"fusion_lat": 0.0, "name": "c9c61e2de06964f0d61966796b96d179", "is_disabled": 0, "rental_uris": {"android": "https://dc.lft.to/lastmile_qr_scan", "ios": "https://dc.lft.to/lastmile_qr_scan"}, "fusion_lon": 0.0, "lat": 38.8896075, "bike_id": "c9c61e2de06964f0d61966796b96d179", "type": "electric_scooter", "is_reserved": 0, "lon": -77.01504683333333}, {"fusion_lat": 0.0, "name": "2ac30f84d7c57f6e667c57a48a145ff5", "is_disabled": 0, "rental_uris": {"android": "https://dc.lft.to/lastmile_qr_scan", "ios": "https://dc.lft.to/lastmile_qr_scan"}, "fusion_lon": 0.0, "lat": 38.92063383333333, "bike_id": "2ac30f84d7c57f6e667c57a48a145ff5", "type": "electric_scooter", "is_reserved": 0, "lon": -77.027145}, {"fusion_lat": 0.0, "name": "b0284bf62a09baf61f65cbd341c48221", "is_disabled": 0, "rental_uris": {"android": "https://dc.lft.to/lastmile_qr_scan", "ios": "https://dc.lft.to/lastmile_qr_scan"}, "fusion_lon": 0.0, "lat": 38.9017815, "bike_id": "b0284bf62a09baf61f65cbd341c48221", "type": "electric_scooter", "is_reserved": 0, "lon": -77.05914466666667}, {"fusion_lat": 0.0, "name": "399e3dd5377ce824555ea85d3d19b5bf", "is_disabled": 0, "rental_uris": {"android": "https://dc.lft.to/lastmile_qr_scan", "ios": "https://dc.lft.to/lastmile_qr_scan"}, "fusion_lon": 0.0, "lat": 38.89218833333334, "bike_id": "399e3dd5377ce824555ea85d3d19b5bf", "type": "electric_scooter", "is_reserved": 0, "lon": -77.02415066666667}, {"fusion_lat": 0.0, "name": "1487fecfc8d246ec6489f44c91b0312c", "is_disabled": 0, "rental_uris": {"android": "https://dc.lft.to/lastmile_qr_scan", "ios": "https://dc.lft.to/lastmile_qr_scan"}, "fusion_lon": 0.0, "lat": 38.92584383333333, "bike_id": "1487fecfc8d246ec6489f44c91b0312c", "type": "electric_scooter", "is_reserved": 0, "lon": -77.02731233333333}, {"fusion_lat": 0.0, "name": "e30db2be9ab639f4a253ee69a1ee7c12", "is_disabled": 0, "rental_uris": {"android": "https://dc.lft.to/lastmile_qr_scan", "ios": "https://dc.lft.to/lastmile_qr_scan"}, "fusion_lon": 0.0, "lat": 38.92365683333333, "bike_id": "e30db2be9ab639f4a253ee69a1ee7c12", "type": "electric_scooter", "is_reserved": 0, "lon": -77.08150833333333}, {"fusion_lat": 0.0, "name": "7964a30814c6145acf9df0886c2b54ea", "is_disabled": 0, "rental_uris": {"android": "https://dc.lft.to/lastmile_qr_scan", "ios": "https://dc.lft.to/lastmile_qr_scan"}, "fusion_lon": 0.0, "lat": 38.9111975, "bike_id": "7964a30814c6145acf9df0886c2b54ea", "type": "electric_scooter", "is_reserved": 0, "lon": -77.0220155}, {"fusion_lat": 0.0, "name": "ccdf2d8548e9ae3a0af7cbccaf52abd6", "is_disabled": 0, "rental_uris": {"android": "https://dc.lft.to/lastmile_qr_scan", "ios": "https://dc.lft.to/lastmile_qr_scan"}, "fusion_lon": 0.0, "lat": 38.900318166666665, "bike_id": "ccdf2d8548e9ae3a0af7cbccaf52abd6", "type": "electric_scooter", "is_reserved": 0, "lon": -76.9913685}, {"fusion_lat": 0.0, "name": "b7e57df533db93b31f351da58839f668", "is_disabled": 0, "rental_uris": {"android": "https://dc.lft.to/lastmile_qr_scan", "ios": "https://dc.lft.to/lastmile_qr_scan"}, "fusion_lon": 0.0, "lat": 38.96987466666667, "bike_id": "b7e57df533db93b31f351da58839f668", "type": "electric_scooter", "is_reserved": 0, "lon": -77.0115895}, {"fusion_lat": 0.0, "name": "5f4e3352e6b866df88803d463a01fb5c", "is_disabled": 0, "rental_uris": {"android": "https://dc.lft.to/lastmile_qr_scan", "ios": "https://dc.lft.to/lastmile_qr_scan"}, "fusion_lon": 0.0, "lat": 38.92309566666667, "bike_id": "5f4e3352e6b866df88803d463a01fb5c", "type": "electric_scooter", "is_reserved": 0, "lon": -76.993997}, {"fusion_lat": 0.0, "name": "f36d6f018e3ec520a98b78400ff4cde4", "is_disabled": 0, "rental_uris": {"android": "https://dc.lft.to/lastmile_qr_scan", "ios": "https://dc.lft.to/lastmile_qr_scan"}, "fusion_lon": 0.0, "lat": 38.890169, "bike_id": "f36d6f018e3ec520a98b78400ff4cde4", "type": "electric_scooter", "is_reserved": 0, "lon": -76.93736633333333}, {"fusion_lat": 0.0, "name": "c70f64ff5c97a09e5b36b03d0068c7e0", "is_disabled": 0, "rental_uris": {"android": "https://dc.lft.to/lastmile_qr_scan", "ios": "https://dc.lft.to/lastmile_qr_scan"}, "fusion_lon": 0.0, "lat": 38.91549916666666, "bike_id": "c70f64ff5c97a09e5b36b03d0068c7e0", "type": "electric_scooter", "is_reserved": 0, "lon": -77.0323875}, {"fusion_lat": 0.0, "name": "bc5d2e2b5039c519ad2ed71b9d4602e3", "is_disabled": 0, "rental_uris": {"android": "https://dc.lft.to/lastmile_qr_scan", "ios": "https://dc.lft.to/lastmile_qr_scan"}, "fusion_lon": 0.0, "lat": 38.9052745, "bike_id": "bc5d2e2b5039c519ad2ed71b9d4602e3", "type": "electric_scooter", "is_reserved": 0, "lon": -77.03478816666667}, {"fusion_lat": 0.0, "name": "a92b4c0846c6e16e6e16ce6d750f842a", "is_disabled": 0, "rental_uris": {"android": "https://dc.lft.to/lastmile_qr_scan", "ios": "https://dc.lft.to/lastmile_qr_scan"}, "fusion_lon": 0.0, "lat": 38.907618166666666, "bike_id": "a92b4c0846c6e16e6e16ce6d750f842a", "type": "electric_scooter", "is_reserved": 0, "lon": -77.00082216666667}, {"fusion_lat": 0.0, "name": "20c913ed99cd7cfa436b6ed71f0f7fc4", "is_disabled": 0, "rental_uris": {"android": "https://dc.lft.to/lastmile_qr_scan", "ios": "https://dc.lft.to/lastmile_qr_scan"}, "fusion_lon": 0.0, "lat": 38.892206333333334, "bike_id": "20c913ed99cd7cfa436b6ed71f0f7fc4", "type": "electric_scooter", "is_reserved": 0, "lon": -77.04368283333334}, {"fusion_lat": 0.0, "name": "8ef884d21a49d591cb49ee64cd3011fb", "is_disabled": 0, "rental_uris": {"android": "https://dc.lft.to/lastmile_qr_scan", "ios": "https://dc.lft.to/lastmile_qr_scan"}, "fusion_lon": 0.0, "lat": 38.8847655, "bike_id": "8ef884d21a49d591cb49ee64cd3011fb", "type": "electric_scooter", "is_reserved": 0, "lon": -77.02413733333333}, {"fusion_lat": 0.0, "name": "c9e1eb2b23ec683c313c6493b3765dcd", "is_disabled": 0, "rental_uris": {"android": "https://dc.lft.to/lastmile_qr_scan", "ios": "https://dc.lft.to/lastmile_qr_scan"}, "fusion_lon": 0.0, "lat": 38.91345583333333, "bike_id": "c9e1eb2b23ec683c313c6493b3765dcd", "type": "electric_scooter", "is_reserved": 0, "lon": -77.00342266666667}, {"fusion_lat": 0.0, "name": "793fefc3e552c0aa3febb18c3e13a292", "is_disabled": 0, "rental_uris": {"android": "https://dc.lft.to/lastmile_qr_scan", "ios": "https://dc.lft.to/lastmile_qr_scan"}, "fusion_lon": 0.0, "lat": 38.90383383333333, "bike_id": "793fefc3e552c0aa3febb18c3e13a292", "type": "electric_scooter", "is_reserved": 0, "lon": -76.98480916666666}, {"fusion_lat": 0.0, "name": "223ee81163b3cb3b93e06b018c026ca5", "is_disabled": 0, "rental_uris": {"android": "https://dc.lft.to/lastmile_qr_scan", "ios": "https://dc.lft.to/lastmile_qr_scan"}, "fusion_lon": 0.0, "lat": 38.8744475, "bike_id": "223ee81163b3cb3b93e06b018c026ca5", "type": "electric_scooter", "is_reserved": 0, "lon": -77.01889083333333}, {"fusion_lat": 0.0, "name": "4e5c1f9d4e5304bdf9b20b0554784f34", "is_disabled": 0, "rental_uris": {"android": "https://dc.lft.to/lastmile_qr_scan", "ios": "https://dc.lft.to/lastmile_qr_scan"}, "fusion_lon": 0.0, "lat": 38.929837, "bike_id": "4e5c1f9d4e5304bdf9b20b0554784f34", "type": "electric_scooter", "is_reserved": 0, "lon": -77.03236366666667}, {"fusion_lat": 0.0, "name": "0a61875a2fb93ebda2378848e4d4bde0", "is_disabled": 0, "rental_uris": {"android": "https://dc.lft.to/lastmile_qr_scan", "ios": "https://dc.lft.to/lastmile_qr_scan"}, "fusion_lon": 0.0, "lat": 38.924635333333335, "bike_id": "0a61875a2fb93ebda2378848e4d4bde0", "type": "electric_scooter", "is_reserved": 0, "lon": -77.023999}, {"fusion_lat": 0.0, "name": "962951829edc0c97c9694390a7aa500d", "is_disabled": 0, "rental_uris": {"android": "https://dc.lft.to/lastmile_qr_scan", "ios": "https://dc.lft.to/lastmile_qr_scan"}, "fusion_lon": 0.0, "lat": 38.937016, "bike_id": "962951829edc0c97c9694390a7aa500d", "type": "electric_scooter", "is_reserved": 0, "lon": -77.06105383333333}, {"fusion_lat": 0.0, "name": "65fc8cc18ed3c88dd7ecbb73e3a3edf9", "is_disabled": 0, "rental_uris": {"android": "https://dc.lft.to/lastmile_qr_scan", "ios": "https://dc.lft.to/lastmile_qr_scan"}, "fusion_lon": 0.0, "lat": 38.88432366666667, "bike_id": "65fc8cc18ed3c88dd7ecbb73e3a3edf9", "type": "electric_scooter", "is_reserved": 0, "lon": -77.02903233333333}, {"fusion_lat": 0.0, "name": "eedd5cfabac037e2a75bce038f282513", "is_disabled": 0, "rental_uris": {"android": "https://dc.lft.to/lastmile_qr_scan", "ios": "https://dc.lft.to/lastmile_qr_scan"}, "fusion_lon": 0.0, "lat": 38.935810000000004, "bike_id": "eedd5cfabac037e2a75bce038f282513", "type": "electric_scooter", "is_reserved": 0, "lon": -77.02385366666667}, {"fusion_lat": 0.0, "name": "f791c8035bb935658c8beab81c4a98a1", "is_disabled": 0, "rental_uris": {"android": "https://dc.lft.to/lastmile_qr_scan", "ios": "https://dc.lft.to/lastmile_qr_scan"}, "fusion_lon": 0.0, "lat": 38.90123716666667, "bike_id": "f791c8035bb935658c8beab81c4a98a1", "type": "electric_scooter", "is_reserved": 0, "lon": -77.04019966666667}, {"fusion_lat": 0.0, "name": "f6c6ef21518419ae0323419f44732e74", "is_disabled": 0, "rental_uris": {"android": "https://dc.lft.to/lastmile_qr_scan", "ios": "https://dc.lft.to/lastmile_qr_scan"}, "fusion_lon": 0.0, "lat": 38.887519833333336, "bike_id": "f6c6ef21518419ae0323419f44732e74", "type": "electric_scooter", "is_reserved": 0, "lon": -76.99783733333334}, {"fusion_lat": 0.0, "name": "91fad20b8280881322824278bb2d4f2d", "is_disabled": 0, "rental_uris": {"android": "https://dc.lft.to/lastmile_qr_scan", "ios": "https://dc.lft.to/lastmile_qr_scan"}, "fusion_lon": 0.0, "lat": 38.917085, "bike_id": "91fad20b8280881322824278bb2d4f2d", "type": "electric_scooter", "is_reserved": 0, "lon": -77.02743883333333}, {"fusion_lat": 0.0, "name": "213c83c562a864a1d8c5470042bf917b", "is_disabled": 0, "rental_uris": {"android": "https://dc.lft.to/lastmile_qr_scan", "ios": "https://dc.lft.to/lastmile_qr_scan"}, "fusion_lon": 0.0, "lat": 38.921124166666665, "bike_id": "213c83c562a864a1d8c5470042bf917b", "type": "electric_scooter", "is_reserved": 0, "lon": -77.0316185}, {"fusion_lat": 0.0, "name": "89f56088c47df9c1ec6bc15d00ef648d", "is_disabled": 0, "rental_uris": {"android": "https://dc.lft.to/lastmile_qr_scan", "ios": "https://dc.lft.to/lastmile_qr_scan"}, "fusion_lon": 0.0, "lat": 38.945173833333335, "bike_id": "89f56088c47df9c1ec6bc15d00ef648d", "type": "electric_scooter", "is_reserved": 0, "lon": -77.03885116666666}, {"fusion_lat": 0.0, "name": "5684178fc66d836b32dadb135a3c81b8", "is_disabled": 0, "rental_uris": {"android": "https://dc.lft.to/lastmile_qr_scan", "ios": "https://dc.lft.to/lastmile_qr_scan"}, "fusion_lon": 0.0, "lat": 38.847565333333336, "bike_id": "5684178fc66d836b32dadb135a3c81b8", "type": "electric_scooter", "is_reserved": 0, "lon": -76.99499766666666}, {"fusion_lat": 0.0, "name": "c4b7917a5515d321732cbd16d990dd41", "is_disabled": 0, "rental_uris": {"android": "https://dc.lft.to/lastmile_qr_scan", "ios": "https://dc.lft.to/lastmile_qr_scan"}, "fusion_lon": 0.0, "lat": 38.9234515, "bike_id": "c4b7917a5515d321732cbd16d990dd41", "type": "electric_scooter", "is_reserved": 0, "lon": -76.99247716666666}, {"fusion_lat": 0.0, "name": "e9953898df9a695b027cd08c029ca772", "is_disabled": 0, "rental_uris": {"android": "https://dc.lft.to/lastmile_qr_scan", "ios": "https://dc.lft.to/lastmile_qr_scan"}, "fusion_lon": 0.0, "lat": 38.89989766666667, "bike_id": "e9953898df9a695b027cd08c029ca772", "type": "electric_scooter", "is_reserved": 0, "lon": -77.0318805}, {"fusion_lat": 0.0, "name": "298e8cd5b72c4b1ff9aef57835a6227f", "is_disabled": 0, "rental_uris": {"android": "https://dc.lft.to/lastmile_qr_scan", "ios": "https://dc.lft.to/lastmile_qr_scan"}, "fusion_lon": 0.0, "lat": 38.936709666666665, "bike_id": "298e8cd5b72c4b1ff9aef57835a6227f", "type": "electric_scooter", "is_reserved": 0, "lon": -77.03652666666666}, {"fusion_lat": 0.0, "name": "3e7251132abbb0e5bc555fb76ec40aac", "is_disabled": 0, "rental_uris": {"android": "https://dc.lft.to/lastmile_qr_scan", "ios": "https://dc.lft.to/lastmile_qr_scan"}, "fusion_lon": 0.0, "lat": 38.88990733333333, "bike_id": "3e7251132abbb0e5bc555fb76ec40aac", "type": "electric_scooter", "is_reserved": 0, "lon": -76.92990333333333}, {"fusion_lat": 0.0, "name": "30a7ab048ae9f2a6059a2ff83aa02bf2", "is_disabled": 0, "rental_uris": {"android": "https://dc.lft.to/lastmile_qr_scan", "ios": "https://dc.lft.to/lastmile_qr_scan"}, "fusion_lon": 0.0, "lat": 38.90680283333333, "bike_id": "30a7ab048ae9f2a6059a2ff83aa02bf2", "type": "electric_scooter", "is_reserved": 0, "lon": -77.0700725}, {"fusion_lat": 0.0, "name": "1d4bbf6759d2db41983c4fd05505cde8", "is_disabled": 0, "rental_uris": {"android": "https://dc.lft.to/lastmile_qr_scan", "ios": "https://dc.lft.to/lastmile_qr_scan"}, "fusion_lon": 0.0, "lat": 38.9257035, "bike_id": "1d4bbf6759d2db41983c4fd05505cde8", "type": "electric_scooter", "is_reserved": 0, "lon": -77.03739783333333}, {"fusion_lat": 0.0, "name": "995dbeb7ab24e068c3421f6d31845c62", "is_disabled": 0, "rental_uris": {"android": "https://dc.lft.to/lastmile_qr_scan", "ios": "https://dc.lft.to/lastmile_qr_scan"}, "fusion_lon": 0.0, "lat": 38.90079216666667, "bike_id": "995dbeb7ab24e068c3421f6d31845c62", "type": "electric_scooter", "is_reserved": 0, "lon": -77.05838}, {"fusion_lat": 0.0, "name": "5caeb15124dedd964d7ba92e604327ee", "is_disabled": 0, "rental_uris": {"android": "https://dc.lft.to/lastmile_qr_scan", "ios": "https://dc.lft.to/lastmile_qr_scan"}, "fusion_lon": 0.0, "lat": 38.899074166666665, "bike_id": "5caeb15124dedd964d7ba92e604327ee", "type": "electric_scooter", "is_reserved": 0, "lon": -76.93347433333334}, {"fusion_lat": 0.0, "name": "69b48f711b61b6cb661663ee702578a2", "is_disabled": 0, "rental_uris": {"android": "https://dc.lft.to/lastmile_qr_scan", "ios": "https://dc.lft.to/lastmile_qr_scan"}, "fusion_lon": 0.0, "lat": 38.90842883333333, "bike_id": "69b48f711b61b6cb661663ee702578a2", "type": "electric_scooter", "is_reserved": 0, "lon": -77.0427055}, {"fusion_lat": 0.0, "name": "d05f2e2f55850f3df91035723e36f5c6", "is_disabled": 0, "rental_uris": {"android": "https://dc.lft.to/lastmile_qr_scan", "ios": "https://dc.lft.to/lastmile_qr_scan"}, "fusion_lon": 0.0, "lat": 38.935143333333336, "bike_id": "d05f2e2f55850f3df91035723e36f5c6", "type": "electric_scooter", "is_reserved": 0, "lon": -77.024168}, {"fusion_lat": 0.0, "name": "5da11b88c6f662955ddd86e66ebabe70", "is_disabled": 0, "rental_uris": {"android": "https://dc.lft.to/lastmile_qr_scan", "ios": "https://dc.lft.to/lastmile_qr_scan"}, "fusion_lon": 0.0, "lat": 38.934073166666664, "bike_id": "5da11b88c6f662955ddd86e66ebabe70", "type": "electric_scooter", "is_reserved": 0, "lon": -77.0415735}, {"fusion_lat": 0.0, "name": "dd4fec2af58b79f8abc1a831dc5797de", "is_disabled": 0, "rental_uris": {"android": "https://dc.lft.to/lastmile_qr_scan", "ios": "https://dc.lft.to/lastmile_qr_scan"}, "fusion_lon": 0.0, "lat": 38.916194833333336, "bike_id": "dd4fec2af58b79f8abc1a831dc5797de", "type": "electric_scooter", "is_reserved": 0, "lon": -77.03854633333333}, {"fusion_lat": 0.0, "name": "2be63f600fe106cd27e8dcc16249597d", "is_disabled": 0, "rental_uris": {"android": "https://dc.lft.to/lastmile_qr_scan", "ios": "https://dc.lft.to/lastmile_qr_scan"}, "fusion_lon": 0.0, "lat": 38.89714933333333, "bike_id": "2be63f600fe106cd27e8dcc16249597d", "type": "electric_scooter", "is_reserved": 0, "lon": -77.02155516666667}, {"fusion_lat": 0.0, "name": "16e5767896e1c822200a86d5738e17fc", "is_disabled": 0, "rental_uris": {"android": "https://dc.lft.to/lastmile_qr_scan", "ios": "https://dc.lft.to/lastmile_qr_scan"}, "fusion_lon": 0.0, "lat": 38.907959, "bike_id": "16e5767896e1c822200a86d5738e17fc", "type": "electric_scooter", "is_reserved": 0, "lon": -77.04337983333333}, {"fusion_lat": 0.0, "name": "15ab69ae4b06d779fd90ba6e35d1ee78", "is_disabled": 0, "rental_uris": {"android": "https://dc.lft.to/lastmile_qr_scan", "ios": "https://dc.lft.to/lastmile_qr_scan"}, "fusion_lon": 0.0, "lat": 38.935793833333335, "bike_id": "15ab69ae4b06d779fd90ba6e35d1ee78", "type": "electric_scooter", "is_reserved": 0, "lon": -77.0236775}, {"fusion_lat": 0.0, "name": "cb48d3e0f920f0cf8cf9d6c5ac519f35", "is_disabled": 0, "rental_uris": {"android": "https://dc.lft.to/lastmile_qr_scan", "ios": "https://dc.lft.to/lastmile_qr_scan"}, "fusion_lon": 0.0, "lat": 38.91097516666667, "bike_id": "cb48d3e0f920f0cf8cf9d6c5ac519f35", "type": "electric_scooter", "is_reserved": 0, "lon": -77.01152166666667}, {"fusion_lat": 0.0, "name": "4dbf99ddf4f5df460790474a06ff9409", "is_disabled": 0, "rental_uris": {"android": "https://dc.lft.to/lastmile_qr_scan", "ios": "https://dc.lft.to/lastmile_qr_scan"}, "fusion_lon": 0.0, "lat": 38.9570995, "bike_id": "4dbf99ddf4f5df460790474a06ff9409", "type": "electric_scooter", "is_reserved": 0, "lon": -77.02403333333334}, {"fusion_lat": 0.0, "name": "42e630f449dc8ef682085807129bb5ee", "is_disabled": 0, "rental_uris": {"android": "https://dc.lft.to/lastmile_qr_scan", "ios": "https://dc.lft.to/lastmile_qr_scan"}, "fusion_lon": 0.0, "lat": 38.92989766666667, "bike_id": "42e630f449dc8ef682085807129bb5ee", "type": "electric_scooter", "is_reserved": 0, "lon": -77.032359}, {"fusion_lat": 0.0, "name": "86f93381cb0bb35b7b7729164e853342", "is_disabled": 0, "rental_uris": {"android": "https://dc.lft.to/lastmile_qr_scan", "ios": "https://dc.lft.to/lastmile_qr_scan"},