{"data": {"bikes": [{"bike_id": "9be2522160debfbc156e3d3d80ad955e", "fusion_lon": 0.0, "type": "electric_scooter", "name": "9be2522160debfbc156e3d3d80ad955e", "rental_uris": {"android": "https://dc.lft.to/lastmile_qr_scan", "ios": "https://dc.lft.to/lastmile_qr_scan"}, "fusion_lat": 0.0, "lat": 38.899631, "is_disabled": 0, "lon": -77.0249655, "is_reserved": 0}, {"bike_id": "1e5a91ff8550c22b7df7c5e7ed116ef9", "fusion_lon": 0.0, "type": "electric_scooter", "name": "1e5a91ff8550c22b7df7c5e7ed116ef9", "rental_uris": {"android": "https://dc.lft.to/lastmile_qr_scan", "ios": "https://dc.lft.to/lastmile_qr_scan"}, "fusion_lat": 0.0, "lat": 38.9042415, "is_disabled": 0, "lon": -77.04340433333333, "is_reserved": 0}, {"bike_id": "b6bb7ae0d19ea2920d39b048c436df6a", "fusion_lon": 0.0, "type": "electric_scooter", "name": "b6bb7ae0d19ea2920d39b048c436df6a", "rental_uris": {"android": "https://dc.lft.to/lastmile_qr_scan", "ios": "https://dc.lft.to/lastmile_qr_scan"}, "fusion_lat": 0.0, "lat": 38.9160975, "is_disabled": 0, "lon": -77.02136483333334, "is_reserved": 0}, {"bike_id": "e351250b45cd35147dc63a71790ca91b", "fusion_lon": 0.0, "type": "electric_scooter", "name": "e351250b45cd35147dc63a71790ca91b", "rental_uris": {"android": "https://dc.lft.to/lastmile_qr_scan", "ios": "https://dc.lft.to/lastmile_qr_scan"}, "fusion_lat": 0.0, "lat": 38.9128885, "is_disabled": 0, "lon": -77.00923816666666, "is_reserved": 0}, {"bike_id": "5aa6d0d01ff3fed13bb312b5ff02ba3a", "fusion_lon": 0.0, "type": "electric_scooter", "name": "5aa6d0d01ff3fed13bb312b5ff02ba3a", "rental_uris": {"android": "https://dc.lft.to/lastmile_qr_scan", "ios": "https://dc.lft.to/lastmile_qr_scan"}, "fusion_lat": 0.0, "lat": 38.90366733333333, "is_disabled": 0, "lon": -77.03551883333333, "is_reserved": 0}, {"bike_id": "6a5a98aeb32620e26b909311b99bec84", "fusion_lon": 0.0, "type": "electric_scooter", "name": "6a5a98aeb32620e26b909311b99bec84", "rental_uris": {"android": "https://dc.lft.to/lastmile_qr_scan", "ios": "https://dc.lft.to/lastmile_qr_scan"}, "fusion_lat": 0.0, "lat": 38.91554416666666, "is_disabled": 0, "lon": -77.00596716666666, "is_reserved": 0}, {"bike_id": "aff30b22a7fc8e821818a68c342e6d91", "fusion_lon": 0.0, "type": "electric_scooter", "name": "aff30b22a7fc8e821818a68c342e6d91", "rental_uris": {"android": "https://dc.lft.to/lastmile_qr_scan", "ios": "https://dc.lft.to/lastmile_qr_scan"}, "fusion_lat": 0.0, "lat": 38.86242, "is_disabled": 0, "lon": -76.99488466666666, "is_reserved": 0}, {"bike_id": "0cfe41db891a05e4b550da4818e19a84", "fusion_lon": 0.0, "type": "electric_scooter", "name": "0cfe41db891a05e4b550da4818e19a84", "rental_uris": {"android": "https://dc.lft.to/lastmile_qr_scan", "ios": "https://dc.lft.to/lastmile_qr_scan"}, "fusion_lat": 0.0, "lat": 38.92213266666667, "is_disabled": 0, "lon": -77.04336683333334, "is_reserved": 0}, {"bike_id": "04644bbfcdd8c5e37eb417ce725506a5", "fusion_lon": 0.0, "type": "electric_scooter", "name": "04644bbfcdd8c5e37eb417ce725506a5", "rental_uris": {"android": "https://dc.lft.to/lastmile_qr_scan", "ios": "https://dc.lft.to/lastmile_qr_scan"}, "fusion_lat": 0.0, "lat": 38.890044333333336, "is_disabled": 0, "lon": -76.93840316666666, "is_reserved": 0}, {"bike_id": "3142c76dbdd69850dd282231f41318f6", "fusion_lon": 0.0, "type": "electric_scooter", "name": "3142c76dbdd69850dd282231f41318f6", "rental_uris": {"android": "https://dc.lft.to/lastmile_qr_scan", "ios": "https://dc.lft.to/lastmile_qr_scan"}, "fusion_lat": 0.0, "lat": 38.93286633333334, "is_disabled": 0, "lon": -77.03634016666666, "is_reserved": 0}, {"bike_id": "704a25332cad9ffd991f6e21bd6f9964", "fusion_lon": 0.0, "type": "electric_bike", "name": "704a25332cad9ffd991f6e21bd6f9964", "rental_uris": {"android": "https://dc.lft.to/lastmile_qr_scan", "ios": "https://dc.lft.to/lastmile_qr_scan"}, "fusion_lat": 0.0, "lat": 39.02418333333333, "is_disabled": 0, "lon": -77.12502616666667, "is_reserved": 0}, {"bike_id": "109e5d76c5a9795478403d0c284804ea", "fusion_lon": 0.0, "type": "electric_scooter", "name": "109e5d76c5a9795478403d0c284804ea", "rental_uris": {"android": "https://dc.lft.to/lastmile_qr_scan", "ios": "https://dc.lft.to/lastmile_qr_scan"}, "fusion_lat": 0.0, "lat": 38.9044065, "is_disabled": 0, "lon": -77.01996033333333, "is_reserved": 0}, {"bike_id": "50a0c7684861b5991616e01a85037d63", "fusion_lon": 0.0, "type": "electric_scooter", "name": "50a0c7684861b5991616e01a85037d63", "rental_uris": {"android": "https://dc.lft.to/lastmile_qr_scan", "ios": "https://dc.lft.to/lastmile_qr_scan"}, "fusion_lat": 0.0, "lat": 38.96202233333333, "is_disabled": 0, "lon": -77.02345816666667, "is_reserved": 0}, {"bike_id": "e9f7515513745ec9a24fc71c71fad0ab", "fusion_lon": 0.0, "type": "electric_scooter", "name": "e9f7515513745ec9a24fc71c71fad0ab", "rental_uris": {"android": "https://dc.lft.to/lastmile_qr_scan", "ios": "https://dc.lft.to/lastmile_qr_scan"}, "fusion_lat": 0.0, "lat": 38.8999985, "is_disabled": 0, "lon": -77.00113366666666, "is_reserved": 0}, {"bike_id": "b1479b38d9b4bc23d3c897c3e23fd2ea", "fusion_lon": 0.0, "type": "electric_scooter", "name": "b1479b38d9b4bc23d3c897c3e23fd2ea", "rental_uris": {"android": "https://dc.lft.to/lastmile_qr_scan", "ios": "https://dc.lft.to/lastmile_qr_scan"}, "fusion_lat": 0.0, "lat": 38.89222083333333, "is_disabled": 0, "lon": -77.03228883333334, "is_reserved": 0}, {"bike_id": "517b902fd128bda7daf861a6b62dcff3", "fusion_lon": 0.0, "type": "electric_scooter", "name": "517b902fd128bda7daf861a6b62dcff3", "rental_uris": {"android": "https://dc.lft.to/lastmile_qr_scan", "ios": "https://dc.lft.to/lastmile_qr_scan"}, "fusion_lat": 0.0, "lat": 38.90240466666667, "is_disabled": 0, "lon": -77.00199, "is_reserved": 0}, {"bike_id": "c5041da97924d3b9add49dde1f80207b", "fusion_lon": 0.0, "type": "electric_scooter", "name": "c5041da97924d3b9add49dde1f80207b", "rental_uris": {"android": "https://dc.lft.to/lastmile_qr_scan", "ios": "https://dc.lft.to/lastmile_qr_scan"}, "fusion_lat": 0.0, "lat": 38.922945166666665, "is_disabled": 0, "lon": -77.04149483333333, "is_reserved": 0}, {"bike_id": "28b55d98e7301372a3b148240fc3b541", "fusion_lon": 0.0, "type": "electric_scooter", "name": "28b55d98e7301372a3b148240fc3b541", "rental_uris": {"android": "https://dc.lft.to/lastmile_qr_scan", "ios": "https://dc.lft.to/lastmile_qr_scan"}, "fusion_lat": 0.0, "lat": 38.8656055, "is_disabled": 0, "lon": -76.9742435, "is_reserved": 0}, {"bike_id": "2f7205e5559e5a0eceae6db0052f3470", "fusion_lon": 0.0, "type": "electric_scooter", "name": "2f7205e5559e5a0eceae6db0052f3470", "rental_uris": {"android": "https://dc.lft.to/lastmile_qr_scan", "ios": "https://dc.lft.to/lastmile_qr_scan"}, "fusion_lat": 0.0, "lat": 38.918798833333334, "is_disabled": 0, "lon": -77.01607083333333, "is_reserved": 0}, {"bike_id": "ade3abebaacf99ded5808038c7366389", "fusion_lon": 0.0, "type": "electric_scooter", "name": "ade3abebaacf99ded5808038c7366389", "rental_uris": {"android": "https://dc.lft.to/lastmile_qr_scan", "ios": "https://dc.lft.to/lastmile_qr_scan"}, "fusion_lat": 0.0, "lat": 38.923412, "is_disabled": 0, "lon": -77.043433, "is_reserved": 0}, {"bike_id": "b42b23a5cc4346397844024fefc78d4a", "fusion_lon": 0.0, "type": "electric_scooter", "name": "b42b23a5cc4346397844024fefc78d4a", "rental_uris": {"android": "https://dc.lft.to/lastmile_qr_scan", "ios": "https://dc.lft.to/lastmile_qr_scan"}, "fusion_lat": 0.0, "lat": 38.92457683333333, "is_disabled": 0, "lon": -77.0523495, "is_reserved": 0}, {"bike_id": "aa5a98a51a8b4d0bfc512f4947fa58a2", "fusion_lon": 0.0, "type": "electric_scooter", "name": "aa5a98a51a8b4d0bfc512f4947fa58a2", "rental_uris": {"android": "https://dc.lft.to/lastmile_qr_scan", "ios": "https://dc.lft.to/lastmile_qr_scan"}, "fusion_lat": 0.0, "lat": 38.90842116666666, "is_disabled": 0, "lon": -77.03295733333333, "is_reserved": 0}, {"bike_id": "614724718fabd7e7ac6cf937cfca51ec", "fusion_lon": 0.0, "type": "electric_scooter", "name": "614724718fabd7e7ac6cf937cfca51ec", "rental_uris": {"android": "https://dc.lft.to/lastmile_qr_scan", "ios": "https://dc.lft.to/lastmile_qr_scan"}, "fusion_lat": 0.0, "lat": 38.91264566666667, "is_disabled": 0, "lon": -77.03732333333333, "is_reserved": 0}, {"bike_id": "5ad6218b7f220282338f0b8792e7a36d", "fusion_lon": 0.0, "type": "electric_scooter", "name": "5ad6218b7f220282338f0b8792e7a36d", "rental_uris": {"android": "https://dc.lft.to/lastmile_qr_scan", "ios": "https://dc.lft.to/lastmile_qr_scan"}, "fusion_lat": 0.0, "lat": 38.89951816666667, "is_disabled": 0, "lon": -76.98551166666667, "is_reserved": 0}, {"bike_id": "1417a1ad5c84ef2b6f9487d757b1a65b", "fusion_lon": 0.0, "type": "electric_scooter", "name": "1417a1ad5c84ef2b6f9487d757b1a65b", "rental_uris": {"android": "https://dc.lft.to/lastmile_qr_scan", "ios": "https://dc.lft.to/lastmile_qr_scan"}, "fusion_lat": 0.0, "lat": 38.90322716666667, "is_disabled": 0, "lon": -77.03460816666667, "is_reserved": 0}, {"bike_id": "ab6efe613bcec96b82cd52105fdbd8fd", "fusion_lon": 0.0, "type": "electric_scooter", "name": "ab6efe613bcec96b82cd52105fdbd8fd", "rental_uris": {"android": "https://dc.lft.to/lastmile_qr_scan", "ios": "https://dc.lft.to/lastmile_qr_scan"}, "fusion_lat": 0.0, "lat": 38.922575, "is_disabled": 0, "lon": -77.04292733333334, "is_reserved": 0}, {"bike_id": "728c2d5802ef1bb2f2bf49d50c05565f", "fusion_lon": 0.0, "type": "electric_scooter", "name": "728c2d5802ef1bb2f2bf49d50c05565f", "rental_uris": {"android": "https://dc.lft.to/lastmile_qr_scan", "ios": "https://dc.lft.to/lastmile_qr_scan"}, "fusion_lat": 0.0, "lat": 38.884937666666666, "is_disabled": 0, "lon": -77.02168, "is_reserved": 0}, {"bike_id": "6e9eb863d37e63302b406a6879a076f1", "fusion_lon": 0.0, "type": "electric_scooter", "name": "6e9eb863d37e63302b406a6879a076f1", "rental_uris": {"android": "https://dc.lft.to/lastmile_qr_scan", "ios": "https://dc.lft.to/lastmile_qr_scan"}, "fusion_lat": 0.0, "lat": 38.86441633333333, "is_disabled": 0, "lon": -76.98991416666667, "is_reserved": 0}, {"bike_id": "9397d3c1906ba4fb93a95ad33c9d4694", "fusion_lon": 0.0, "type": "electric_scooter", "name": "9397d3c1906ba4fb93a95ad33c9d4694", "rental_uris": {"android": "https://dc.lft.to/lastmile_qr_scan", "ios": "https://dc.lft.to/lastmile_qr_scan"}, "fusion_lat": 0.0, "lat": 38.92214833333333, "is_disabled": 0, "lon": -77.04336883333333, "is_reserved": 0}, {"bike_id": "46be6a5dac0ca951c9b4f790458ef50f", "fusion_lon": 0.0, "type": "electric_scooter", "name": "46be6a5dac0ca951c9b4f790458ef50f", "rental_uris": {"android": "https://dc.lft.to/lastmile_qr_scan", "ios": "https://dc.lft.to/lastmile_qr_scan"}, "fusion_lat": 0.0, "lat": 38.906607666666666, "is_disabled": 0, "lon": -77.05145733333333, "is_reserved": 0}, {"bike_id": "673e98a6bc8675527718245a8b4e1457", "fusion_lon": 0.0, "type": "electric_scooter", "name": "673e98a6bc8675527718245a8b4e1457", "rental_uris": {"android": "https://dc.lft.to/lastmile_qr_scan", "ios": "https://dc.lft.to/lastmile_qr_scan"}, "fusion_lat": 0.0, "lat": 38.913256, "is_disabled": 0, "lon": -77.031905, "is_reserved": 0}, {"bike_id": "f08e2950f67aa673c65f7f9903bb83f4", "fusion_lon": 0.0, "type": "electric_scooter", "name": "f08e2950f67aa673c65f7f9903bb83f4", "rental_uris": {"android": "https://dc.lft.to/lastmile_qr_scan", "ios": "https://dc.lft.to/lastmile_qr_scan"}, "fusion_lat": 0.0, "lat": 38.900460333333335, "is_disabled": 0, "lon": -77.00074633333334, "is_reserved": 0}, {"bike_id": "f11b23ff1f61b884017e0a75c6ce7edc", "fusion_lon": 0.0, "type": "electric_scooter", "name": "f11b23ff1f61b884017e0a75c6ce7edc", "rental_uris": {"android": "https://dc.lft.to/lastmile_qr_scan", "ios": "https://dc.lft.to/lastmile_qr_scan"}, "fusion_lat": 0.0, "lat": 38.9003535, "is_disabled": 0, "lon": -76.99616216666666, "is_reserved": 0}, {"bike_id": "65eb55bc56828abb169bdebef111a671", "fusion_lon": 0.0, "type": "electric_scooter", "name": "65eb55bc56828abb169bdebef111a671", "rental_uris": {"android": "https://dc.lft.to/lastmile_qr_scan", "ios": "https://dc.lft.to/lastmile_qr_scan"}, "fusion_lat": 0.0, "lat": 38.93580566666667, "is_disabled": 0, "lon": -77.019383, "is_reserved": 0}, {"bike_id": "513a12e433ac3f6238a2f43d74e8b48f", "fusion_lon": 0.0, "type": "electric_scooter", "name": "513a12e433ac3f6238a2f43d74e8b48f", "rental_uris": {"android": "https://dc.lft.to/lastmile_qr_scan", "ios": "https://dc.lft.to/lastmile_qr_scan"}, "fusion_lat": 0.0, "lat": 38.930984, "is_disabled": 0, "lon": -77.0379225, "is_reserved": 0}, {"bike_id": "774b6cd3276a0deff2c640899497a1d5", "fusion_lon": 0.0, "type": "electric_scooter", "name": "774b6cd3276a0deff2c640899497a1d5", "rental_uris": {"android": "https://dc.lft.to/lastmile_qr_scan", "ios": "https://dc.lft.to/lastmile_qr_scan"}, "fusion_lat": 0.0, "lat": 38.884176333333336, "is_disabled": 0, "lon": -76.99542766666667, "is_reserved": 0}, {"bike_id": "36d5436f75911b3b5901ed35e9f2d91a", "fusion_lon": 0.0, "type": "electric_scooter", "name": "36d5436f75911b3b5901ed35e9f2d91a", "rental_uris": {"android": "https://dc.lft.to/lastmile_qr_scan", "ios": "https://dc.lft.to/lastmile_qr_scan"}, "fusion_lat": 0.0, "lat": 38.91178, "is_disabled": 0, "lon": -77.04499866666667, "is_reserved": 0}, {"bike_id": "870d8dd9383ff46bed0be0f7c2ce5f95", "fusion_lon": 0.0, "type": "electric_scooter", "name": "870d8dd9383ff46bed0be0f7c2ce5f95", "rental_uris": {"android": "https://dc.lft.to/lastmile_qr_scan", "ios": "https://dc.lft.to/lastmile_qr_scan"}, "fusion_lat": 0.0, "lat": 38.9620445, "is_disabled": 0, "lon": -77.02346033333333, "is_reserved": 0}, {"bike_id": "5c3c42c0ea324c3836d60b80c1b422a5", "fusion_lon": 0.0, "type": "electric_scooter", "name": "5c3c42c0ea324c3836d60b80c1b422a5", "rental_uris": {"android": "https://dc.lft.to/lastmile_qr_scan", "ios": "https://dc.lft.to/lastmile_qr_scan"}, "fusion_lat": 0.0, "lat": 38.934497, "is_disabled": 0, "lon": -76.96414366666667, "is_reserved": 0}, {"bike_id": "dafaf1c1a5f8355ee7d8e18213c74742", "fusion_lon": 0.0, "type": "electric_scooter", "name": "dafaf1c1a5f8355ee7d8e18213c74742", "rental_uris": {"android": "https://dc.lft.to/lastmile_qr_scan", "ios": "https://dc.lft.to/lastmile_qr_scan"}, "fusion_lat": 0.0, "lat": 38.9337115, "is_disabled": 0, "lon": -77.0573325, "is_reserved": 0}, {"bike_id": "a3a4d9f0c660df1006023d1fdc537f68", "fusion_lon": 0.0, "type": "electric_bike", "name": "a3a4d9f0c660df1006023d1fdc537f68", "rental_uris": {"android": "https://dc.lft.to/lastmile_qr_scan", "ios": "https://dc.lft.to/lastmile_qr_scan"}, "fusion_lat": 0.0, "lat": 38.88088116666667, "is_disabled": 0, "lon": -77.112097, "is_reserved": 0}, {"bike_id": "7460f1d62f478a59448644fb536c985f", "fusion_lon": 0.0, "type": "electric_scooter", "name": "7460f1d62f478a59448644fb536c985f", "rental_uris": {"android": "https://dc.lft.to/lastmile_qr_scan", "ios": "https://dc.lft.to/lastmile_qr_scan"}, "fusion_lat": 0.0, "lat": 38.9267555, "is_disabled": 0, "lon": -77.00758733333333, "is_reserved": 0}, {"bike_id": "24536f72b5f49ae6a9f310d4d2f0ca63", "fusion_lon": 0.0, "type": "electric_scooter", "name": "24536f72b5f49ae6a9f310d4d2f0ca63", "rental_uris": {"android": "https://dc.lft.to/lastmile_qr_scan", "ios": "https://dc.lft.to/lastmile_qr_scan"}, "fusion_lat": 0.0, "lat": 38.87697466666667, "is_disabled": 0, "lon": -77.0072385, "is_reserved": 0}, {"bike_id": "8f1d36915f87d9377bc160f1bb8794d1", "fusion_lon": 0.0, "type": "electric_scooter", "name": "8f1d36915f87d9377bc160f1bb8794d1", "rental_uris": {"android": "https://dc.lft.to/lastmile_qr_scan", "ios": "https://dc.lft.to/lastmile_qr_scan"}, "fusion_lat": 0.0, "lat": 38.90017533333334, "is_disabled": 0, "lon": -77.04655683333333, "is_reserved": 0}, {"bike_id": "8530db6a28e2845de9ee847e601e8b1b", "fusion_lon": 0.0, "type": "electric_scooter", "name": "8530db6a28e2845de9ee847e601e8b1b", "rental_uris": {"android": "https://dc.lft.to/lastmile_qr_scan", "ios": "https://dc.lft.to/lastmile_qr_scan"}, "fusion_lat": 0.0, "lat": 38.897305833333334, "is_disabled": 0, "lon": -77.03150866666667, "is_reserved": 0}, {"bike_id": "d2492f65c0dde0691342a803699e3350", "fusion_lon": 0.0, "type": "electric_bike", "name": "d2492f65c0dde0691342a803699e3350", "rental_uris": {"android": "https://dc.lft.to/lastmile_qr_scan", "ios": "https://dc.lft.to/lastmile_qr_scan"}, "fusion_lat": 0.0, "lat": 38.861584, "is_disabled": 0, "lon": -77.13097816666667, "is_reserved": 0}, {"bike_id": "e96dc1c6449da9708936d96b971ec5b4", "fusion_lon": 0.0, "type": "electric_scooter", "name": "e96dc1c6449da9708936d96b971ec5b4", "rental_uris": {"android": "https://dc.lft.to/lastmile_qr_scan", "ios": "https://dc.lft.to/lastmile_qr_scan"}, "fusion_lat": 0.0, "lat": 38.92197866666667, "is_disabled": 0, "lon": -77.0426045, "is_reserved": 0}, {"bike_id": "57bcfd909ba052789e2de60a3c069a15", "fusion_lon": 0.0, "type": "electric_scooter", "name": "57bcfd909ba052789e2de60a3c069a15", "rental_uris": {"android": "https://dc.lft.to/lastmile_qr_scan", "ios": "https://dc.lft.to/lastmile_qr_scan"}, "fusion_lat": 0.0, "lat": 38.887332, "is_disabled": 0, "lon": -77.0318015, "is_reserved": 0}, {"bike_id": "0120b9e54d5f0a218265dafc89568d8b", "fusion_lon": 0.0, "type": "electric_scooter", "name": "0120b9e54d5f0a218265dafc89568d8b", "rental_uris": {"android": "https://dc.lft.to/lastmile_qr_scan", "ios": "https://dc.lft.to/lastmile_qr_scan"}, "fusion_lat": 0.0, "lat": 38.9328825, "is_disabled": 0, "lon": -77.024453, "is_reserved": 0}, {"bike_id": "677b100d3b17e652d3cd41fc81665b66", "fusion_lon": 0.0, "type": "electric_scooter", "name": "677b100d3b17e652d3cd41fc81665b66", "rental_uris": {"android": "https://dc.lft.to/lastmile_qr_scan", "ios": "https://dc.lft.to/lastmile_qr_scan"}, "fusion_lat": 0.0, "lat": 38.90940833333333, "is_disabled": 0, "lon": -76.99913583333333, "is_reserved": 0}, {"bike_id": "979d1485713b7de203a68b24c6e0c01b", "fusion_lon": 0.0, "type": "electric_scooter", "name": "979d1485713b7de203a68b24c6e0c01b", "rental_uris": {"android": "https://dc.lft.to/lastmile_qr_scan", "ios": "https://dc.lft.to/lastmile_qr_scan"}, "fusion_lat": 0.0, "lat": 38.91916616666666, "is_disabled": 0, "lon": -77.034143, "is_reserved": 0}, {"bike_id": "dbd2d85b562f76c3673a95c18cdebfb8", "fusion_lon": 0.0, "type": "electric_scooter", "name": "dbd2d85b562f76c3673a95c18cdebfb8", "rental_uris": {"android": "https://dc.lft.to/lastmile_qr_scan", "ios": "https://dc.lft.to/lastmile_qr_scan"}, "fusion_lat": 0.0, "lat": 38.93863783333333, "is_disabled": 0, "lon": -77.024642, "is_reserved": 0}, {"bike_id": "50b7b17b9a5539ad3c152226d42492ba", "fusion_lon": 0.0, "type": "electric_scooter", "name": "50b7b17b9a5539ad3c152226d42492ba", "rental_uris": {"android": "https://dc.lft.to/lastmile_qr_scan", "ios": "https://dc.lft.to/lastmile_qr_scan"}, "fusion_lat": 0.0, "lat": 38.922375, "is_disabled": 0, "lon": -77.0352205, "is_reserved": 0}, {"bike_id": "385480e485e83a1541b72e838326038c", "fusion_lon": 0.0, "type": "electric_scooter", "name": "385480e485e83a1541b72e838326038c", "rental_uris": {"android": "https://dc.lft.to/lastmile_qr_scan", "ios": "https://dc.lft.to/lastmile_qr_scan"}, "fusion_lat": 0.0, "lat": 38.9241675, "is_disabled": 0, "lon": -77.0565005, "is_reserved": 0}, {"bike_id": "7cf3e2d0d789046191684d93369a6d64", "fusion_lon": 0.0, "type": "electric_scooter", "name": "7cf3e2d0d789046191684d93369a6d64", "rental_uris": {"android": "https://dc.lft.to/lastmile_qr_scan", "ios": "https://dc.lft.to/lastmile_qr_scan"}, "fusion_lat": 0.0, "lat": 38.90349483333333, "is_disabled": 0, "lon": -77.067679, "is_reserved": 0}, {"bike_id": "11cc8b415e819ae6f63ff5682a6289b3", "fusion_lon": 0.0, "type": "electric_scooter", "name": "11cc8b415e819ae6f63ff5682a6289b3", "rental_uris": {"android": "https://dc.lft.to/lastmile_qr_scan", "ios": "https://dc.lft.to/lastmile_qr_scan"}, "fusion_lat": 0.0, "lat": 38.902103833333335, "is_disabled": 0, "lon": -77.04774216666667, "is_reserved": 0}, {"bike_id": "3ea899571d0497349747f45f5b224ee7", "fusion_lon": 0.0, "type": "electric_scooter", "name": "3ea899571d0497349747f45f5b224ee7", "rental_uris": {"android": "https://dc.lft.to/lastmile_qr_scan", "ios": "https://dc.lft.to/lastmile_qr_scan"}, "fusion_lat": 0.0, "lat": 38.90124483333334, "is_disabled": 0, "lon": -77.04880333333334, "is_reserved": 0}, {"bike_id": "ca86cf836cc02c109910444877016a6d", "fusion_lon": 0.0, "type": "electric_bike", "name": "ca86cf836cc02c109910444877016a6d", "rental_uris": {"android": "https://dc.lft.to/lastmile_qr_scan", "ios": "https://dc.lft.to/lastmile_qr_scan"}, "fusion_lat": 0.0, "lat": 38.8287035, "is_disabled": 0, "lon": -77.11227583333333, "is_reserved": 0}, {"bike_id": "d6881166334417b2c80033c4559af506", "fusion_lon": 0.0, "type": "electric_bike", "name": "d6881166334417b2c80033c4559af506", "rental_uris": {"android": "https://dc.lft.to/lastmile_qr_scan", "ios": "https://dc.lft.to/lastmile_qr_scan"}, "fusion_lat": 0.0, "lat": 38.955532, "is_disabled": 0, "lon": -76.93547433333333, "is_reserved": 0}, {"bike_id": "8b01ade56c2c2679ba5056a92641f67a", "fusion_lon": 0.0, "type": "electric_scooter", "name": "8b01ade56c2c2679ba5056a92641f67a", "rental_uris": {"android": "https://dc.lft.to/lastmile_qr_scan", "ios": "https://dc.lft.to/lastmile_qr_scan"}, "fusion_lat": 0.0, "lat": 38.920866333333336, "is_disabled": 0, "lon": -77.07558483333334, "is_reserved": 0}, {"bike_id": "c8edbf193e8fbcc4eaf2ff90c5ea6a60", "fusion_lon": 0.0, "type": "electric_scooter", "name": "c8edbf193e8fbcc4eaf2ff90c5ea6a60", "rental_uris": {"android": "https://dc.lft.to/lastmile_qr_scan", "ios": "https://dc.lft.to/lastmile_qr_scan"}, "fusion_lat": 0.0, "lat": 38.879162, "is_disabled": 0, "lon": -76.99163833333333, "is_reserved": 0}, {"bike_id": "839095bb16388af98142d240ac335adb", "fusion_lon": 0.0, "type": "electric_scooter", "name": "839095bb16388af98142d240ac335adb", "rental_uris": {"android": "https://dc.lft.to/lastmile_qr_scan", "ios": "https://dc.lft.to/lastmile_qr_scan"}, "fusion_lat": 0.0, "lat": 38.9572295, "is_disabled": 0, "lon": -77.03569333333333, "is_reserved": 0}, {"bike_id": "69aaa650e977c9c707a4a8116880779d", "fusion_lon": 0.0, "type": "electric_bike", "name": "69aaa650e977c9c707a4a8116880779d", "rental_uris": {"android": "https://dc.lft.to/lastmile_qr_scan", "ios": "https://dc.lft.to/lastmile_qr_scan"}, "fusion_lat": 0.0, "lat": 38.8918625, "is_disabled": 0, "lon": -77.12266783333334, "is_reserved": 0}, {"bike_id": "aed1d376c6ca02bf2bd7295b7201e44b", "fusion_lon": 0.0, "type": "electric_scooter", "name": "aed1d376c6ca02bf2bd7295b7201e44b", "rental_uris": {"android": "https://dc.lft.to/lastmile_qr_scan", "ios": "https://dc.lft.to/lastmile_qr_scan"}, "fusion_lat": 0.0, "lat": 38.902203, "is_disabled": 0, "lon": -77.04738683333333, "is_reserved": 0}, {"bike_id": "eb2b8390f97326a2775d9ee179e1f49f", "fusion_lon": 0.0, "type": "electric_bike", "name": "eb2b8390f97326a2775d9ee179e1f49f", "rental_uris": {"android": "https://dc.lft.to/lastmile_qr_scan", "ios": "https://dc.lft.to/lastmile_qr_scan"}, "fusion_lat": 0.0, "lat": 38.831929833333334, "is_disabled": 0, "lon": -77.076875, "is_reserved": 0}, {"bike_id": "7ca619fd3cff24a82fb10821b4d751b0", "fusion_lon": 0.0, "type": "electric_scooter", "name": "7ca619fd3cff24a82fb10821b4d751b0", "rental_uris": {"android": "https://dc.lft.to/lastmile_qr_scan", "ios": "https://dc.lft.to/lastmile_qr_scan"}, "fusion_lat": 0.0, "lat": 38.905545333333336, "is_disabled": 0, "lon": -77.0110235, "is_reserved": 0}, {"bike_id": "eb08f3834c4771119948d5225cd087b1", "fusion_lon": 0.0, "type": "electric_scooter", "name": "eb08f3834c4771119948d5225cd087b1", "rental_uris": {"android": "https://dc.lft.to/lastmile_qr_scan", "ios": "https://dc.lft.to/lastmile_qr_scan"}, "fusion_lat": 0.0, "lat": 38.89217583333333, "is_disabled": 0, "lon": -77.048695, "is_reserved": 0}, {"bike_id": "bdedbbf877ffffb45e8d15bc5c5b3720", "fusion_lon": 0.0, "type": "electric_scooter", "name": "bdedbbf877ffffb45e8d15bc5c5b3720", "rental_uris": {"android": "https://dc.lft.to/lastmile_qr_scan", "ios": "https://dc.lft.to/lastmile_qr_scan"}, "fusion_lat": 0.0, "lat": 38.902963666666665, "is_disabled": 0, "lon": -77.034612, "is_reserved": 0}, {"bike_id": "4889001f9af73671dafe7e4fea9847c1", "fusion_lon": 0.0, "type": "electric_scooter", "name": "4889001f9af73671dafe7e4fea9847c1", "rental_uris": {"android": "https://dc.lft.to/lastmile_qr_scan", "ios": "https://dc.lft.to/lastmile_qr_scan"}, "fusion_lat": 0.0, "lat": 38.912640333333336, "is_disabled": 0, "lon": -77.04556333333333, "is_reserved": 0}, {"bike_id": "24f78c6842fe1afa49db7d339a4fe4fb", "fusion_lon": 0.0, "type": "electric_bike", "name": "24f78c6842fe1afa49db7d339a4fe4fb", "rental_uris": {"android": "https://dc.lft.to/lastmile_qr_scan", "ios": "https://dc.lft.to/lastmile_qr_scan"}, "fusion_lat": 0.0, "lat": 38.94428833333333, "is_disabled": 0, "lon": -76.98734833333333, "is_reserved": 0}, {"bike_id": "331c019b024ebca958a0f6f716158fdd", "fusion_lon": 0.0, "type": "electric_scooter", "name": "331c019b024ebca958a0f6f716158fdd", "rental_uris": {"android": "https://dc.lft.to/lastmile_qr_scan", "ios": "https://dc.lft.to/lastmile_qr_scan"}, "fusion_lat": 0.0, "lat": 38.9560845, "is_disabled": 0, "lon": -77.02819666666667, "is_reserved": 0}, {"bike_id": "4dcdc3ca9d4119f805c66fab0c1eebb0", "fusion_lon": 0.0, "type": "electric_scooter", "name": "4dcdc3ca9d4119f805c66fab0c1eebb0", "rental_uris": {"android": "https://dc.lft.to/lastmile_qr_scan", "ios": "https://dc.lft.to/lastmile_qr_scan"}, "fusion_lat": 0.0, "lat": 38.91253433333333, "is_disabled": 0, "lon": -77.04968033333333, "is_reserved": 0}, {"bike_id": "a3c0771de1b44e693d7c4e378da328d7", "fusion_lon": 0.0, "type": "electric_scooter", "name": "a3c0771de1b44e693d7c4e378da328d7", "rental_uris": {"android": "https://dc.lft.to/lastmile_qr_scan", "ios": "https://dc.lft.to/lastmile_qr_scan"}, "fusion_lat": 0.0, "lat": 38.9350845, "is_disabled": 0, "lon": -77.08206983333334, "is_reserved": 0}, {"bike_id": "8fef72756c5247c0994ef20955a599c0", "fusion_lon": 0.0, "type": "electric_scooter", "name": "8fef72756c5247c0994ef20955a599c0", "rental_uris": {"android": "https://dc.lft.to/lastmile_qr_scan", "ios": "https://dc.lft.to/lastmile_qr_scan"}, "fusion_lat": 0.0, "lat": 38.9170975, "is_disabled": 0, "lon": -77.0246655, "is_reserved": 0}, {"bike_id": "47ce8d5f807b838765bf48a66459a87b", "fusion_lon": 0.0, "type": "electric_scooter", "name": "47ce8d5f807b838765bf48a66459a87b", "rental_uris": {"android": "https://dc.lft.to/lastmile_qr_scan", "ios": "https://dc.lft.to/lastmile_qr_scan"}, "fusion_lat": 0.0, "lat": 38.89250583333333, "is_disabled": 0, "lon": -77.02218316666666, "is_reserved": 0}, {"bike_id": "49779d5a1624972272b6bce24fd60c5f", "fusion_lon": 0.0, "type": "electric_scooter", "name": "49779d5a1624972272b6bce24fd60c5f", "rental_uris": {"android": "https://dc.lft.to/lastmile_qr_scan", "ios": "https://dc.lft.to/lastmile_qr_scan"}, "fusion_lat": 0.0, "lat": 38.86406516666667, "is_disabled": 0, "lon": -76.99030883333333, "is_reserved": 0}, {"bike_id": "9077a8e7835844ef4bbb676010d54688", "fusion_lon": 0.0, "type": "electric_scooter", "name": "9077a8e7835844ef4bbb676010d54688", "rental_uris": {"android": "https://dc.lft.to/lastmile_qr_scan", "ios": "https://dc.lft.to/lastmile_qr_scan"}, "fusion_lat": 0.0, "lat": 38.90027533333333, "is_disabled": 0, "lon": -76.98779966666666, "is_reserved": 0}, {"bike_id": "5b4c9520d38a4607bc8c22eaf7afc11e", "fusion_lon": 0.0, "type": "electric_bike", "name": "5b4c9520d38a4607bc8c22eaf7afc11e", "rental_uris": {"android": "https://dc.lft.to/lastmile_qr_scan", "ios": "https://dc.lft.to/lastmile_qr_scan"}, "fusion_lat": 0.0, "lat": 38.83804083333333, "is_disabled": 0, "lon": -77.09554316666667, "is_reserved": 0}, {"bike_id": "1fa6e6138cb16b8bbdce13c31ee40b84", "fusion_lon": 0.0, "type": "electric_scooter", "name": "1fa6e6138cb16b8bbdce13c31ee40b84", "rental_uris": {"android": "https://dc.lft.to/lastmile_qr_scan", "ios": "https://dc.lft.to/lastmile_qr_scan"}, "fusion_lat": 0.0, "lat": 38.8885955, "is_disabled": 0, "lon": -76.996026, "is_reserved": 0}, {"bike_id": "e41b3e8b86e9d9d0e46e02d7289e89aa", "fusion_lon": 0.0, "type": "electric_scooter", "name": "e41b3e8b86e9d9d0e46e02d7289e89aa", "rental_uris": {"android": "https://dc.lft.to/lastmile_qr_scan", "ios": "https://dc.lft.to/lastmile_qr_scan"}, "fusion_lat": 0.0, "lat": 38.91300666666667, "is_disabled": 0, "lon": -77.03223066666666, "is_reserved": 0}, {"bike_id": "2afc5f6ad4396ab064cfa9b6cba66cfb", "fusion_lon": 0.0, "type": "electric_scooter", "name": "2afc5f6ad4396ab064cfa9b6cba66cfb", "rental_uris": {"android": "https://dc.lft.to/lastmile_qr_scan", "ios": "https://dc.lft.to/lastmile_qr_scan"}, "fusion_lat": 0.0, "lat": 38.91815733333333, "is_disabled": 0, "lon": -77.024793, "is_reserved": 0}, {"bike_id": "4c8620bb6f1c4504a3f126302a786a2f", "fusion_lon": 0.0, "type": "electric_bike", "name": "4c8620bb6f1c4504a3f126302a786a2f", "rental_uris": {"android": "https://dc.lft.to/lastmile_qr_scan", "ios": "https://dc.lft.to/lastmile_qr_scan"}, "fusion_lat": 0.0, "lat": 38.92844783333334, "is_disabled": 0, "lon": -77.10507716666666, "is_reserved": 0}, {"bike_id": "add4692ecd994dc6c36195aa9619f5d5", "fusion_lon": 0.0, "type": "electric_scooter", "name": "add4692ecd994dc6c36195aa9619f5d5", "rental_uris": {"android": "https://dc.lft.to/lastmile_qr_scan", "ios": "https://dc.lft.to/lastmile_qr_scan"}, "fusion_lat": 0.0, "lat": 38.85969166666667, "is_disabled": 0, "lon": -76.98430766666667, "is_reserved": 0}, {"bike_id": "89c85e88de054861229a5e70a95fea62", "fusion_lon": 0.0, "type": "electric_scooter", "name": "89c85e88de054861229a5e70a95fea62", "rental_uris": {"android": "https://dc.lft.to/lastmile_qr_scan", "ios": "https://dc.lft.to/lastmile_qr_scan"}, "fusion_lat": 0.0, "lat": 38.9077355, "is_disabled": 0, "lon": -77.04501266666666, "is_reserved": 0}, {"bike_id": "2d2ce8b5431e7c0b4cbcdd8d5042a9fc", "fusion_lon": 0.0, "type": "electric_bike", "name": "2d2ce8b5431e7c0b4cbcdd8d5042a9fc", "rental_uris": {"android": "https://dc.lft.to/lastmile_qr_scan", "ios": "https://dc.lft.to/lastmile_qr_scan"}, "fusion_lat": 0.0, "lat": 38.918609000000004, "is_disabled": 0, "lon": -76.99946516666667, "is_reserved": 0}, {"bike_id": "5ca379239be0ebc3638727e46bd6dd22", "fusion_lon": 0.0, "type": "electric_scooter", "name": "5ca379239be0ebc3638727e46bd6dd22", "rental_uris": {"android": "https://dc.lft.to/lastmile_qr_scan", "ios": "https://dc.lft.to/lastmile_qr_scan"}, "fusion_lat": 0.0, "lat": 38.9428605, "is_disabled": 0, "lon": -77.02764966666666, "is_reserved": 0}, {"bike_id": "ba27019d500276dbeb650f65aa38defa", "fusion_lon": 0.0, "type": "electric_bike", "name": "ba27019d500276dbeb650f65aa38defa", "rental_uris": {"android": "https://dc.lft.to/lastmile_qr_scan", "ios": "https://dc.lft.to/lastmile_qr_scan"}, "fusion_lat": 0.0, "lat": 38.858610166666665, "is_disabled": 0, "lon": -77.1010355, "is_reserved": 0}, {"bike_id": "b9594d61aaf6944bac2a3fc0388611f0", "fusion_lon": 0.0, "type": "electric_scooter", "name": "b9594d61aaf6944bac2a3fc0388611f0", "rental_uris": {"android": "https://dc.lft.to/lastmile_qr_scan", "ios": "https://dc.lft.to/lastmile_qr_scan"}, "fusion_lat": 0.0, "lat": 38.917729666666666, "is_disabled": 0, "lon": -77.04250583333334, "is_reserved": 0}, {"bike_id": "77048a5b56dfec662c301de5845a1814", "fusion_lon": 0.0, "type": "electric_scooter", "name": "77048a5b56dfec662c301de5845a1814", "rental_uris": {"android": "https://dc.lft.to/lastmile_qr_scan", "ios": "https://dc.lft.to/lastmile_qr_scan"}, "fusion_lat": 0.0, "lat": 38.88987633333333, "is_disabled": 0, "lon": -76.9240425, "is_reserved": 0}, {"bike_id": "5e2882bad91039449381e6124506db16", "fusion_lon": 0.0, "type": "electric_scooter", "name": "5e2882bad91039449381e6124506db16", "rental_uris": {"android": "https://dc.lft.to/lastmile_qr_scan", "ios": "https://dc.lft.to/lastmile_qr_scan"}, "fusion_lat": 0.0, "lat": 38.8931705, "is_disabled": 0, "lon": -77.02969883333333, "is_reserved": 0}, {"bike_id": "17dafba8ba60335923f61f7649dea9fb", "fusion_lon": 0.0, "type": "electric_scooter", "name": "17dafba8ba60335923f61f7649dea9fb", "rental_uris": {"android": "https://dc.lft.to/lastmile_qr_scan", "ios": "https://dc.lft.to/lastmile_qr_scan"}, "fusion_lat": 0.0, "lat": 38.87913966666667, "is_disabled": 0, "lon": -76.991668, "is_reserved": 0}, {"bike_id": "17242aea404e4244a8df133118875fcf", "fusion_lon": 0.0, "type": "electric_scooter", "name": "17242aea404e4244a8df133118875fcf", "rental_uris": {"android": "https://dc.lft.to/lastmile_qr_scan", "ios": "https://dc.lft.to/lastmile_qr_scan"}, "fusion_lat": 0.0, "lat": 38.903627666666665, "is_disabled": 0, "lon": -77.04487633333333, "is_reserved": 0}, {"bike_id": "80f48bed71097cf74fc96b502245b9ed", "fusion_lon": 0.0, "type": "electric_scooter", "name": "80f48bed71097cf74fc96b502245b9ed", "rental_uris": {"android": "https://dc.lft.to/lastmile_qr_scan", "ios": "https://dc.lft.to/lastmile_qr_scan"}, "fusion_lat": 0.0, "lat": 38.89246983333334, "is_disabled": 0, "lon": -77.022053, "is_reserved": 0}, {"bike_id": "a002f265e7cfdec9c1bd05dea48d0a2e", "fusion_lon": 0.0, "type": "electric_scooter", "name": "a002f265e7cfdec9c1bd05dea48d0a2e", "rental_uris": {"android": "https://dc.lft.to/lastmile_qr_scan", "ios": "https://dc.lft.to/lastmile_qr_scan"}, "fusion_lat": 0.0, "lat": 38.9272675, "is_disabled": 0, "lon": -77.0227815, "is_reserved": 0}, {"bike_id": "6ba32903223ef650c2e384b2af9a702e", "fusion_lon": 0.0, "type": "electric_scooter", "name": "6ba32903223ef650c2e384b2af9a702e", "rental_uris": {"android": "https://dc.lft.to/lastmile_qr_scan", "ios": "https://dc.lft.to/lastmile_qr_scan"}, "fusion_lat": 0.0, "lat": 38.907698, "is_disabled": 0, "lon": -77.04492, "is_reserved": 0}, {"bike_id": "a218c46069aede2cdf464b27b4bd128e", "fusion_lon": 0.0, "type": "electric_scooter", "name": "a218c46069aede2cdf464b27b4bd128e", "rental_uris": {"android": "https://dc.lft.to/lastmile_qr_scan", "ios": "https://dc.lft.to/lastmile_qr_scan"}, "fusion_lat": 0.0, "lat": 38.90681633333333, "is_disabled": 0, "lon": -77.06287416666666, "is_reserved": 0}, {"bike_id": "b542830cdce2b2c7d3e4c1b8db89e332", "fusion_lon": 0.0, "type": "electric_scooter", "name": "b542830cdce2b2c7d3e4c1b8db89e332", "rental_uris": {"android": "https://dc.lft.to/lastmile_qr_scan", "ios": "https://dc.lft.to/lastmile_qr_scan"}, "fusion_lat": 0.0, "lat": 38.865205333333336, "is_disabled": 0, "lon": -76.97352533333333, "is_reserved": 0}, {"bike_id": "4b0909962f128a2574de65905e8fb158", "fusion_lon": 0.0, "type": "electric_scooter", "name": "4b0909962f128a2574de65905e8fb158", "rental_uris": {"android": "https://dc.lft.to/lastmile_qr_scan", "ios": "https://dc.lft.to/lastmile_qr_scan"}, "fusion_lat": 0.0, "lat": 38.90456616666667, "is_disabled": 0, "lon": -77.03459666666667, "is_reserved": 0}, {"bike_id": "4d75641fd9275fc1d5238a498705df87", "fusion_lon": 0.0, "type": "electric_scooter", "name": "4d75641fd9275fc1d5238a498705df87", "rental_uris": {"android": "https://dc.lft.to/lastmile_qr_scan", "ios": "https://dc.lft.to/lastmile_qr_scan"}, "fusion_lat": 0.0, "lat": 38.938820166666666, "is_disabled": 0, "lon": -77.02481766666666, "is_reserved": 0}, {"bike_id": "d38b6cd676354db96087c91039700235", "fusion_lon": 0.0, "type": "electric_scooter", "name": "d38b6cd676354db96087c91039700235", "rental_uris": {"android": "https://dc.lft.to/lastmile_qr_scan", "ios": "https://dc.lft.to/lastmile_qr_scan"}, "fusion_lat": 0.0, "lat": 38.909371666666665, "is_disabled": 0, "lon": -77.01901933333333, "is_reserved": 0}, {"bike_id": "e78ab67d684055687477278febbaa575", "fusion_lon": 0.0, "type": "electric_scooter", "name": "e78ab67d684055687477278febbaa575", "rental_uris": {"android": "https://dc.lft.to/lastmile_qr_scan", "ios": "https://dc.lft.to/lastmile_qr_scan"}, "fusion_lat": 0.0, "lat": 38.90360033333333, "is_disabled": 0, "lon": -77.00050616666667, "is_reserved": 0}, {"bike_id": "7b8455f8e146f79aae22725f4da57a76", "fusion_lon": 0.0, "type": "electric_scooter", "name": "7b8455f8e146f79aae22725f4da57a76", "rental_uris": {"android": "https://dc.lft.to/lastmile_qr_scan", "ios": "https://dc.lft.to/lastmile_qr_scan"}, "fusion_lat": 0.0, "lat": 38.94306383333333, "is_disabled": 0, "lon": -77.01541483333334, "is_reserved": 0}, {"bike_id": "2ea20f4fe85c7dee2fbc1fbcc8039619", "fusion_lon": 0.0, "type": "electric_scooter", "name": "2ea20f4fe85c7dee2fbc1fbcc8039619", "rental_uris": {"android": "https://dc.lft.to/lastmile_qr_scan", "ios": "https://dc.lft.to/lastmile_qr_scan"}, "fusion_lat": 0.0, "lat": 38.884811166666665, "is_disabled": 0, "lon": -76.94924883333333, "is_reserved": 0}, {"bike_id": "26e75f2571e32458b1043f9b430a1d91", "fusion_lon": 0.0, "type": "electric_scooter", "name": "26e75f2571e32458b1043f9b430a1d91", "rental_uris": {"android": "https://dc.lft.to/lastmile_qr_scan", "ios": "https://dc.lft.to/lastmile_qr_scan"}, "fusion_lat": 0.0, "lat": 38.84614533333333, "is_disabled": 0, "lon": -76.99630166666667, "is_reserved": 0}, {"bike_id": "a264f9220384bfc7a435c38ab0c48f58", "fusion_lon": 0.0, "type": "electric_scooter", "name": "a264f9220384bfc7a435c38ab0c48f58", "rental_uris": {"android": "https://dc.lft.to/lastmile_qr_scan", "ios": "https://dc.lft.to/lastmile_qr_scan"}, "fusion_lat": 0.0, "lat": 38.894020833333336, "is_disabled": 0, "lon": -77.0215245, "is_reserved": 0}, {"bike_id": "82f3d2fde6dff5033a8bb627eca3912e", "fusion_lon": 0.0, "type": "electric_scooter", "name": "82f3d2fde6dff5033a8bb627eca3912e", "rental_uris": {"android": "https://dc.lft.to/lastmile_qr_scan", "ios": "https://dc.lft.to/lastmile_qr_scan"}, "fusion_lat": 0.0, "lat": 38.86121716666667, "is_disabled": 0, "lon": -76.99018716666667, "is_reserved": 0}, {"bike_id": "67509eb538316736060531aa18951727", "fusion_lon": 0.0, "type": "electric_scooter", "name": "67509eb538316736060531aa18951727", "rental_uris": {"android": "https://dc.lft.to/lastmile_qr_scan", "ios": "https://dc.lft.to/lastmile_qr_scan"}, "fusion_lat": 0.0, "lat": 38.8952575, "is_disabled": 0, "lon": -76.94894716666667, "is_reserved": 0}, {"bike_id": "77ddacd357f3ed9bbf5e778c2580eae5", "fusion_lon": 0.0, "type": "electric_scooter", "name": "77ddacd357f3ed9bbf5e778c2580eae5", "rental_uris": {"android": "https://dc.lft.to/lastmile_qr_scan", "ios": "https://dc.lft.to/lastmile_qr_scan"}, "fusion_lat": 0.0, "lat": 38.91855, "is_disabled": 0, "lon": -77.032257, "is_reserved": 0}, {"bike_id": "afba73b120bddd5161fdb70d9e323269", "fusion_lon": 0.0, "type": "electric_scooter", "name": "afba73b120bddd5161fdb70d9e323269", "rental_uris": {"android": "https://dc.lft.to/lastmile_qr_scan", "ios": "https://dc.lft.to/lastmile_qr_scan"}, "fusion_lat": 0.0, "lat": 38.90957266666667, "is_disabled": 0, "lon": -77.03888416666666, "is_reserved": 0}, {"bike_id": "a13ac8f952fed2c66ecd800bc0781040", "fusion_lon": 0.0, "type": "electric_bike", "name": "a13ac8f952fed2c66ecd800bc0781040", "rental_uris": {"android": "https://dc.lft.to/lastmile_qr_scan", "ios": "https://dc.lft.to/lastmile_qr_scan"}, "fusion_lat": 0.0, "lat": 38.841241, "is_disabled": 0, "lon": -77.06316333333334, "is_reserved": 0}, {"bike_id": "5929e017e2b83be2a69be6402c88a6b2", "fusion_lon": 0.0, "type": "electric_scooter", "name": "5929e017e2b83be2a69be6402c88a6b2", "rental_uris": {"android": "https://dc.lft.to/lastmile_qr_scan", "ios": "https://dc.lft.to/lastmile_qr_scan"}, "fusion_lat": 0.0, "lat": 38.93014266666667, "is_disabled": 0, "lon": -77.02118666666667, "is_reserved": 0}, {"bike_id": "504be0a49c355dc9836077a45c4e3912", "fusion_lon": 0.0, "type": "electric_scooter", "name": "504be0a49c355dc9836077a45c4e3912", "rental_uris": {"android": "https://dc.lft.to/lastmile_qr_scan", "ios": "https://dc.lft.to/lastmile_qr_scan"}, "fusion_lat": 0.0, "lat": 38.91867716666667, "is_disabled": 0, "lon": -77.04197233333333, "is_reserved": 0}, {"bike_id": "8cc17807a9cbb202db482742e34c7a3c", "fusion_lon": 0.0, "type": "electric_scooter", "name": "8cc17807a9cbb202db482742e34c7a3c", "rental_uris": {"android": "https://dc.lft.to/lastmile_qr_scan", "ios": "https://dc.lft.to/lastmile_qr_scan"}, "fusion_lat": 0.0, "lat": 38.885162333333334, "is_disabled": 0, "lon": -77.00603083333333, "is_reserved": 0}, {"bike_id": "cf14bc15979ca090149fa0fe99c54248", "fusion_lon": 0.0, "type": "electric_scooter", "name": "cf14bc15979ca090149fa0fe99c54248", "rental_uris": {"android": "https://dc.lft.to/lastmile_qr_scan", "ios": "https://dc.lft.to/lastmile_qr_scan"}, "fusion_lat": 0.0, "lat": 38.93365716666667, "is_disabled": 0, "lon": -77.03742166666666, "is_reserved": 0}, {"bike_id": "4157c1762e2025055b87a72012e40c3f", "fusion_lon": 0.0, "type": "electric_scooter", "name": "4157c1762e2025055b87a72012e40c3f", "rental_uris": {"android": "https://dc.lft.to/lastmile_qr_scan", "ios": "https://dc.lft.to/lastmile_qr_scan"}, "fusion_lat": 0.0, "lat": 38.923541, "is_disabled": 0, "lon": -77.05057283333333, "is_reserved": 0}, {"bike_id": "69252de2c746b56494e6c1ab8b864b90", "fusion_lon": 0.0, "type": "electric_scooter", "name": "69252de2c746b56494e6c1ab8b864b90", "rental_uris": {"android": "https://dc.lft.to/lastmile_qr_scan", "ios": "https://dc.lft.to/lastmile_qr_scan"}, "fusion_lat": 0.0, "lat": 38.90384316666667, "is_disabled": 0, "lon": -77.04498816666667, "is_reserved": 0}, {"bike_id": "6f25946a3ea92eaa85dfccdee4a4aab4", "fusion_lon": 0.0, "type": "electric_bike", "name": "6f25946a3ea92eaa85dfccdee4a4aab4", "rental_uris": {"android": "https://dc.lft.to/lastmile_qr_scan", "ios": "https://dc.lft.to/lastmile_qr_scan"}, "fusion_lat": 0.0, "lat": 38.8928105, "is_disabled": 0, "lon": -76.9762865, "is_reserved": 0}, {"bike_id": "2815b5552020807a5bfebae68b79a846", "fusion_lon": 0.0, "type": "electric_scooter", "name": "2815b5552020807a5bfebae68b79a846", "rental_uris": {"android": "https://dc.lft.to/lastmile_qr_scan", "ios": "https://dc.lft.to/lastmile_qr_scan"}, "fusion_lat": 0.0, "lat": 38.877813, "is_disabled": 0, "lon": -76.9941465, "is_reserved": 0}, {"bike_id": "e6a5ed6009d14b975dfadc885c79a493", "fusion_lon": 0.0, "type": "electric_bike", "name": "e6a5ed6009d14b975dfadc885c79a493", "rental_uris": {"android": "https://dc.lft.to/lastmile_qr_scan", "ios": "https://dc.lft.to/lastmile_qr_scan"}, "fusion_lat": 0.0, "lat": 38.941953833333336, "is_disabled": 0, "lon": -77.0242675, "is_reserved": 0}, {"bike_id": "9483c7d7a75c2a9d76694fe0db878dd9", "fusion_lon": 0.0, "type": "electric_scooter", "name": "9483c7d7a75c2a9d76694fe0db878dd9", "rental_uris": {"android": "https://dc.lft.to/lastmile_qr_scan", "ios": "https://dc.lft.to/lastmile_qr_scan"}, "fusion_lat": 0.0, "lat": 38.918211, "is_disabled": 0, "lon": -77.027014, "is_reserved": 0}, {"bike_id": "937703e92c4884a6c1941965dc18f077", "fusion_lon": 0.0, "type": "electric_scooter", "name": "937703e92c4884a6c1941965dc18f077", "rental_uris": {"android": "https://dc.lft.to/lastmile_qr_scan", "ios": "https://dc.lft.to/lastmile_qr_scan"}, "fusion_lat": 0.0, "lat": 38.899165333333336, "is_disabled": 0, "lon": -76.9860935, "is_reserved": 0}, {"bike_id": "36203ed6d5715198602406a2068cd004", "fusion_lon": 0.0, "type": "electric_scooter", "name": "36203ed6d5715198602406a2068cd004", "rental_uris": {"android": "https://dc.lft.to/lastmile_qr_scan", "ios": "https://dc.lft.to/lastmile_qr_scan"}, "fusion_lat": 0.0, "lat": 38.898815666666664, "is_disabled": 0, "lon": -77.05296033333333, "is_reserved": 0}, {"bike_id": "ecf2b3501a3dc35fb4ecbce4671592dd", "fusion_lon": 0.0, "type": "electric_scooter", "name": "ecf2b3501a3dc35fb4ecbce4671592dd", "rental_uris": {"android": "https://dc.lft.to/lastmile_qr_scan", "ios": "https://dc.lft.to/lastmile_qr_scan"}, "fusion_lat": 0.0, "lat": 38.91885716666667, "is_disabled": 0, "lon": -77.03492433333334, "is_reserved": 0}, {"bike_id": "415639a044689d2ea4beaf0920f7efa9", "fusion_lon": 0.0, "type": "electric_scooter", "name": "415639a044689d2ea4beaf0920f7efa9", "rental_uris": {"android": "https://dc.lft.to/lastmile_qr_scan", "ios": "https://dc.lft.to/lastmile_qr_scan"}, "fusion_lat": 0.0, "lat": 38.90767833333334, "is_disabled": 0, "lon": -77.03204833333334, "is_reserved": 0}, {"bike_id": "954798aa9eff7d6b729f6f808ba027fa", "fusion_lon": 0.0, "type": "electric_scooter", "name": "954798aa9eff7d6b729f6f808ba027fa", "rental_uris": {"android": "https://dc.lft.to/lastmile_qr_scan", "ios": "https://dc.lft.to/lastmile_qr_scan"}, "fusion_lat": 0.0, "lat": 38.885077333333335, "is_disabled": 0, "lon": -77.03364816666667, "is_reserved": 0}, {"bike_id": "0f47535ea19de6b7518ffd19caea442a", "fusion_lon": 0.0, "type": "electric_scooter", "name": "0f47535ea19de6b7518ffd19caea442a", "rental_uris": {"android": "https://dc.lft.to/lastmile_qr_scan", "ios": "https://dc.lft.to/lastmile_qr_scan"}, "fusion_lat": 0.0, "lat": 38.90778233333333, "is_disabled": 0, "lon": -77.0111265, "is_reserved": 0}, {"bike_id": "354c2b12337c5bf2e39a0f827e7b5f48", "fusion_lon": 0.0, "type": "electric_scooter", "name": "354c2b12337c5bf2e39a0f827e7b5f48", "rental_uris": {"android": "https://dc.lft.to/lastmile_qr_scan", "ios": "https://dc.lft.to/lastmile_qr_scan"}, "fusion_lat": 0.0, "lat": 38.90451233333334, "is_disabled": 0, "lon": -77.043464, "is_reserved": 0}, {"bike_id": "268a4331d97dba6ec7f0b730c8ed55aa", "fusion_lon": 0.0, "type": "electric_scooter", "name": "268a4331d97dba6ec7f0b730c8ed55aa", "rental_uris": {"android": "https://dc.lft.to/lastmile_qr_scan", "ios": "https://dc.lft.to/lastmile_qr_scan"}, "fusion_lat": 0.0, "lat": 38.884182333333335, "is_disabled": 0, "lon": -76.995564, "is_reserved": 0}, {"bike_id": "ddb5d48ff976ac3c53765b84c36f276c", "fusion_lon": 0.0, "type": "electric_scooter", "name": "ddb5d48ff976ac3c53765b84c36f276c", "rental_uris": {"android": "https://dc.lft.to/lastmile_qr_scan", "ios": "https://dc.lft.to/lastmile_qr_scan"}, "fusion_lat": 0.0, "lat": 38.907183, "is_disabled": 0, "lon": -77.02987783333333, "is_reserved": 0}, {"bike_id": "8c404e74cb50e8a3ac82541b9143974d", "fusion_lon": 0.0, "type": "electric_scooter", "name": "8c404e74cb50e8a3ac82541b9143974d", "rental_uris": {"android": "https://dc.lft.to/lastmile_qr_scan", "ios": "https://dc.lft.to/lastmile_qr_scan"}, "fusion_lat": 0.0, "lat": 38.91473216666667, "is_disabled": 0, "lon": -77.04190983333334, "is_reserved": 0}, {"bike_id": "412abbcc5119deba8ff37e549d235b6f", "fusion_lon": 0.0, "type": "electric_scooter", "name": "412abbcc5119deba8ff37e549d235b6f", "rental_uris": {"android": "https://dc.lft.to/lastmile_qr_scan", "ios": "https://dc.lft.to/lastmile_qr_scan"}, "fusion_lat": 0.0, "lat": 38.89367883333333, "is_disabled": 0, "lon": -76.94967266666667, "is_reserved": 0}, {"bike_id": "e07720116567d081c08003d71e1a4913", "fusion_lon": 0.0, "type": "electric_scooter", "name": "e07720116567d081c08003d71e1a4913", "rental_uris": {"android": "https://dc.lft.to/lastmile_qr_scan", "ios": "https://dc.lft.to/lastmile_qr_scan"}, "fusion_lat": 0.0, "lat": 38.92774633333333, "is_disabled": 0, "lon": -77.05590716666667, "is_reserved": 0}, {"bike_id": "d819c21c8b35e6ca040b08da636860b8", "fusion_lon": 0.0, "type": "electric_scooter", "name": "d819c21c8b35e6ca040b08da636860b8", "rental_uris": {"android": "https://dc.lft.to/lastmile_qr_scan", "ios": "https://dc.lft.to/lastmile_qr_scan"}, "fusion_lat": 0.0, "lat": 38.907741, "is_disabled": 0, "lon": -77.071713, "is_reserved": 0}, {"bike_id": "ba068f06b08698ce884b7601c294c97b", "fusion_lon": 0.0, "type": "electric_scooter", "name": "ba068f06b08698ce884b7601c294c97b", "rental_uris": {"android": "https://dc.lft.to/lastmile_qr_scan", "ios": "https://dc.lft.to/lastmile_qr_scan"}, "fusion_lat": 0.0, "lat": 38.89218833333334, "is_disabled": 0, "lon": -77.02842616666666, "is_reserved": 0}, {"bike_id": "edffe05edde374eb9a38f0626321f04e", "fusion_lon": 0.0, "type": "electric_bike", "name": "edffe05edde374eb9a38f0626321f04e", "rental_uris": {"android": "https://dc.lft.to/lastmile_qr_scan", "ios": "https://dc.lft.to/lastmile_qr_scan"}, "fusion_lat": 0.0, "lat": 38.916191, "is_disabled": 0, "lon": -77.03282816666666, "is_reserved": 0}, {"bike_id": "6e1f63213e3d1fe4dc3407afe00aa3f1", "fusion_lon": 0.0, "type": "electric_scooter", "name": "6e1f63213e3d1fe4dc3407afe00aa3f1", "rental_uris": {"android": "https://dc.lft.to/lastmile_qr_scan", "ios": "https://dc.lft.to/lastmile_qr_scan"}, "fusion_lat": 0.0, "lat": 38.97367166666667, "is_disabled": 0, "lon": -77.03127716666667, "is_reserved": 0}, {"bike_id": "027f38143ab16773212e001998235a5a", "fusion_lon": 0.0, "type": "electric_scooter", "name": "027f38143ab16773212e001998235a5a", "rental_uris": {"android": "https://dc.lft.to/lastmile_qr_scan", "ios": "https://dc.lft.to/lastmile_qr_scan"}, "fusion_lat": 0.0, "lat": 38.893044, "is_disabled": 0, "lon": -77.046595, "is_reserved": 0}, {"bike_id": "33e4f35c70aed3773a8b67fc2717fc8d", "fusion_lon": 0.0, "type": "electric_scooter", "name": "33e4f35c70aed3773a8b67fc2717fc8d", "rental_uris": {"android": "https://dc.lft.to/lastmile_qr_scan", "ios": "https://dc.lft.to/lastmile_qr_scan"}, "fusion_lat": 0.0, "lat": 38.93768933333333, "is_disabled": 0, "lon": -77.03282966666667, "is_reserved": 0}, {"bike_id": "5ce971f3388ba373fe45900efeec71b7", "fusion_lon": 0.0, "type": "electric_bike", "name": "5ce971f3388ba373fe45900efeec71b7", "rental_uris": {"android": "https://dc.lft.to/lastmile_qr_scan", "ios": "https://dc.lft.to/lastmile_qr_scan"}, "fusion_lat": 0.0, "lat": 38.96761866666667, "is_disabled": 0, "lon": -77.0916585, "is_reserved": 0}, {"bike_id": "64619be95fa0cb221c88e687d5a29b5e", "fusion_lon": 0.0, "type": "electric_bike", "name": "64619be95fa0cb221c88e687d5a29b5e", "rental_uris": {"android": "https://dc.lft.to/lastmile_qr_scan", "ios": "https://dc.lft.to/lastmile_qr_scan"}, "fusion_lat": 0.0, "lat": 38.9562325, "is_disabled": 0, "lon": -77.03625283333334, "is_reserved": 0}, {"bike_id": "163b7efdd67ecc0daa581a56ad39075e", "fusion_lon": 0.0, "type": "electric_scooter", "name": "163b7efdd67ecc0daa581a56ad39075e", "rental_uris": {"android": "https://dc.lft.to/lastmile_qr_scan", "ios": "https://dc.lft.to/lastmile_qr_scan"}, "fusion_lat": 0.0, "lat": 38.87426, "is_disabled": 0, "lon": -77.04407383333333, "is_reserved": 0}, {"bike_id": "5b125f940fd9318807bd32bdccf238df", "fusion_lon": 0.0, "type": "electric_scooter", "name": "5b125f940fd9318807bd32bdccf238df", "rental_uris": {"android": "https://dc.lft.to/lastmile_qr_scan", "ios": "https://dc.lft.to/lastmile_qr_scan"}, "fusion_lat": 0.0, "lat": 38.910449166666666, "is_disabled": 0, "lon": -77.03375566666666, "is_reserved": 0}, {"bike_id": "a33973bf80c2d35b4430dd54fa867c42", "fusion_lon": 0.0, "type": "electric_scooter", "name": "a33973bf80c2d35b4430dd54fa867c42", "rental_uris": {"android": "https://dc.lft.to/lastmile_qr_scan", "ios": "https://dc.lft.to/lastmile_qr_scan"}, "fusion_lat": 0.0, "lat": 38.87705016666666, "is_disabled": 0, "lon": -77.0172575, "is_reserved": 0}, {"bike_id": "78d43dc08a377d349067868fe3b44120", "fusion_lon": 0.0, "type": "electric_scooter", "name": "78d43dc08a377d349067868fe3b44120", "rental_uris": {"android": "https://dc.lft.to/lastmile_qr_scan", "ios": "https://dc.lft.to/lastmile_qr_scan"}, "fusion_lat": 0.0, "lat": 38.911985, "is_disabled": 0, "lon": -77.0382675, "is_reserved": 0}, {"bike_id": "7ad4b94dbf2bcfc23462168d8d9cbc44", "fusion_lon": 0.0, "type": "electric_scooter", "name": "7ad4b94dbf2bcfc23462168d8d9cbc44", "rental_uris": {"android": "https://dc.lft.to/lastmile_qr_scan", "ios": "https://dc.lft.to/lastmile_qr_scan"}, "fusion_lat": 0.0, "lat": 38.855257, "is_disabled": 0, "lon": -76.96921016666667, "is_reserved": 0}, {"bike_id": "5fe5cbcdab063aab8c237be1a96ef75c", "fusion_lon": 0.0, "type": "electric_scooter", "name": "5fe5cbcdab063aab8c237be1a96ef75c", "rental_uris": {"android": "https://dc.lft.to/lastmile_qr_scan", "ios": "https://dc.lft.to/lastmile_qr_scan"}, "fusion_lat": 0.0, "lat": 38.9302315, "is_disabled": 0, "lon": -77.03310666666667, "is_reserved": 0}, {"bike_id": "7cd09cfbcf8db07aee2036bffbf4fd2b", "fusion_lon": 0.0, "type": "electric_scooter", "name": "7cd09cfbcf8db07aee2036bffbf4fd2b", "rental_uris": {"android": "https://dc.lft.to/lastmile_qr_scan", "ios": "https://dc.lft.to/lastmile_qr_scan"}, "fusion_lat": 0.0, "lat": 38.919226333333334, "is_disabled": 0, "lon": -77.02506633333333, "is_reserved": 0}, {"bike_id": "11dbd1d7e4ae5a6365982055939f68c7", "fusion_lon": 0.0, "type": "electric_scooter", "name": "11dbd1d7e4ae5a6365982055939f68c7", "rental_uris": {"android": "https://dc.lft.to/lastmile_qr_scan", "ios": "https://dc.lft.to/lastmile_qr_scan"}, "fusion_lat": 0.0, "lat": 38.92174033333333, "is_disabled": 0, "lon": -77.041249, "is_reserved": 0}, {"bike_id": "ef65cfd26fb02b53413ebd4bbd5fa466", "fusion_lon": 0.0, "type": "electric_scooter", "name": "ef65cfd26fb02b53413ebd4bbd5fa466", "rental_uris": {"android": "https://dc.lft.to/lastmile_qr_scan", "ios": "https://dc.lft.to/lastmile_qr_scan"}, "fusion_lat": 0.0, "lat": 38.9123935, "is_disabled": 0, "lon": -77.03272033333333, "is_reserved": 0}, {"bike_id": "ead60c4be79c6731fc31ac0882d6bdf1", "fusion_lon": 0.0, "type": "electric_scooter", "name": "ead60c4be79c6731fc31ac0882d6bdf1", "rental_uris": {"android": "https://dc.lft.to/lastmile_qr_scan", "ios": "https://dc.lft.to/lastmile_qr_scan"}, "fusion_lat": 0.0, "lat": 38.90591633333333, "is_disabled": 0, "lon": -77.0059635, "is_reserved": 0}, {"bike_id": "a1798ca8cc9346b80c5ee5793fadb316", "fusion_lon": 0.0, "type": "electric_bike", "name": "a1798ca8cc9346b80c5ee5793fadb316", "rental_uris": {"android": "https://dc.lft.to/lastmile_qr_scan", "ios": "https://dc.lft.to/lastmile_qr_scan"}, "fusion_lat": 0.0, "lat": 38.94730883333333, "is_disabled": 0, "lon": -76.95678366666667, "is_reserved": 0}, {"bike_id": "daf28321fa96545d7fdbe5f03b5b10ba", "fusion_lon": 0.0, "type": "electric_scooter", "name": "daf28321fa96545d7fdbe5f03b5b10ba", "rental_uris": {"android": "https://dc.lft.to/lastmile_qr_scan", "ios": "https://dc.lft.to/lastmile_qr_scan"}, "fusion_lat": 0.0, "lat": 38.90695683333333, "is_disabled": 0, "lon": -76.98616966666667, "is_reserved": 0}, {"bike_id": "96e60029e7857d7de6af8290aba0782d", "fusion_lon": 0.0, "type": "electric_scooter", "name": "96e60029e7857d7de6af8290aba0782d", "rental_uris": {"android": "https://dc.lft.to/lastmile_qr_scan", "ios": "https://dc.lft.to/lastmile_qr_scan"}, "fusion_lat": 0.0, "lat": 38.90047066666666, "is_disabled": 0, "lon": -77.01216483333333, "is_reserved": 0}, {"bike_id": "88873106401d813ddd4f050ef611f6c5", "fusion_lon": 0.0, "type": "electric_scooter", "name": "88873106401d813ddd4f050ef611f6c5", "rental_uris": {"android": "https://dc.lft.to/lastmile_qr_scan", "ios": "https://dc.lft.to/lastmile_qr_scan"}, "fusion_lat": 0.0, "lat": 38.914345, "is_disabled": 0, "lon": -77.02216066666666, "is_reserved": 0}, {"bike_id": "5753e7a11cf8c71e0b3c11c3f196a26c", "fusion_lon": 0.0, "type": "electric_bike", "name": "5753e7a11cf8c71e0b3c11c3f196a26c", "rental_uris": {"android": "https://dc.lft.to/lastmile_qr_scan", "ios": "https://dc.lft.to/lastmile_qr_scan"}, "fusion_lat": 0.0, "lat": 38.84839566666667, "is_disabled": 0, "lon": -77.0806025, "is_reserved": 0}, {"bike_id": "9ae1d02a79fd916b1814eb538a6a78f1", "fusion_lon": 0.0, "type": "electric_scooter", "name": "9ae1d02a79fd916b1814eb538a6a78f1", "rental_uris": {"android": "https://dc.lft.to/lastmile_qr_scan", "ios": "https://dc.lft.to/lastmile_qr_scan"}, "fusion_lat": 0.0, "lat": 38.870963, "is_disabled": 0, "lon": -77.01116983333333, "is_reserved": 0}, {"bike_id": "3dd1223938e63bdad3670178b38454bf", "fusion_lon": 0.0, "type": "electric_bike", "name": "3dd1223938e63bdad3670178b38454bf", "rental_uris": {"android": "https://dc.lft.to/lastmile_qr_scan", "ios": "https://dc.lft.to/lastmile_qr_scan"}, "fusion_lat": 0.0, "lat": 38.90864916666666, "is_disabled": 0, "lon": -76.99698633333334, "is_reserved": 0}, {"bike_id": "ef36ce2d008c0578ebefae1a6dc61ca8", "fusion_lon": 0.0, "type": "electric_scooter", "name": "ef36ce2d008c0578ebefae1a6dc61ca8", "rental_uris": {"android": "https://dc.lft.to/lastmile_qr_scan", "ios": "https://dc.lft.to/lastmile_qr_scan"}, "fusion_lat": 0.0, "lat": 38.91840233333333, "is_disabled": 0, "lon": -77.04832133333333, "is_reserved": 0}, {"bike_id": "330dc7f0ac65da455140635010078d88", "fusion_lon": 0.0, "type": "electric_scooter", "name": "330dc7f0ac65da455140635010078d88", "rental_uris": {"android": "https://dc.lft.to/lastmile_qr_scan", "ios": "https://dc.lft.to/lastmile_qr_scan"}, "fusion_lat": 0.0, "lat": 38.88792866666667, "is_disabled": 0, "lon": -76.95112616666667, "is_reserved": 0}, {"bike_id": "1dd78ca732ebbeb3e6c48074b17ce869", "fusion_lon": 0.0, "type": "electric_scooter", "name": "1dd78ca732ebbeb3e6c48074b17ce869", "rental_uris": {"android": "https://dc.lft.to/lastmile_qr_scan", "ios": "https://dc.lft.to/lastmile_qr_scan"}, "fusion_lat": 0.0, "lat": 38.9118765, "is_disabled": 0, "lon": -77.0209465, "is_reserved": 0}, {"bike_id": "c8d2aa9830096a87b38598a62910dc4e", "fusion_lon": 0.0, "type": "electric_scooter", "name": "c8d2aa9830096a87b38598a62910dc4e", "rental_uris": {"android": "https://dc.lft.to/lastmile_qr_scan", "ios": "https://dc.lft.to/lastmile_qr_scan"}, "fusion_lat": 0.0, "lat": 38.90508233333333, "is_disabled": 0, "lon": -77.0434315, "is_reserved": 0}, {"bike_id": "cac994763fe2d196db36b6c375e67fa0", "fusion_lon": 0.0, "type": "electric_scooter", "name": "cac994763fe2d196db36b6c375e67fa0", "rental_uris": {"android": "https://dc.lft.to/lastmile_qr_scan", "ios": "https://dc.lft.to/lastmile_qr_scan"}, "fusion_lat": 0.0, "lat": 38.89883233333333, "is_disabled": 0, "lon": -76.93176, "is_reserved": 0}, {"bike_id": "c3ee7502358ced09fbd01373845efce3", "fusion_lon": 0.0, "type": "electric_scooter", "name": "c3ee7502358ced09fbd01373845efce3", "rental_uris": {"android": "https://dc.lft.to/lastmile_qr_scan", "ios": "https://dc.lft.to/lastmile_qr_scan"}, "fusion_lat": 0.0, "lat": 38.91486966666667, "is_disabled": 0, "lon": -77.022132, "is_reserved": 0}, {"bike_id": "25d603428e8caa1a87d7534e39b53282", "fusion_lon": 0.0, "type": "electric_scooter", "name": "25d603428e8caa1a87d7534e39b53282", "rental_uris": {"android": "https://dc.lft.to/lastmile_qr_scan", "ios": "https://dc.lft.to/lastmile_qr_scan"}, "fusion_lat": 0.0, "lat": 38.904541333333334, "is_disabled": 0, "lon": -77.03215766666666, "is_reserved": 0}, {"bike_id": "919aa621c1f4d946fe873ceb579e758c", "fusion_lon": 0.0, "type": "electric_scooter", "name": "919aa621c1f4d946fe873ceb579e758c", "rental_uris": {"android": "https://dc.lft.to/lastmile_qr_scan", "ios": "https://dc.lft.to/lastmile_qr_scan"}, "fusion_lat": 0.0, "lat": 38.90379933333333, "is_disabled": 0, "lon": -77.02155833333333, "is_reserved": 0}, {"bike_id": "b20295c1314a5b9d52a0e216008be950", "fusion_lon": 0.0, "type": "electric_scooter", "name": "b20295c1314a5b9d52a0e216008be950", "rental_uris": {"android": "https://dc.lft.to/lastmile_qr_scan", "ios": "https://dc.lft.to/lastmile_qr_scan"}, "fusion_lat": 0.0, "lat": 38.90507733333333, "is_disabled": 0, "lon": -77.0297165, "is_reserved": 0}, {"bike_id": "0f0244692691327352fcaae6580501f0", "fusion_lon": 0.0, "type": "electric_scooter", "name": "0f0244692691327352fcaae6580501f0", "rental_uris": {"android": "https://dc.lft.to/lastmile_qr_scan", "ios": "https://dc.lft.to/lastmile_qr_scan"}, "fusion_lat": 0.0, "lat": 38.917575166666666, "is_disabled": 0, "lon": -77.00373816666666, "is_reserved": 0}, {"bike_id": "e9232dbf44c93e48650a81467150f863", "fusion_lon": 0.0, "type": "electric_scooter", "name": "e9232dbf44c93e48650a81467150f863", "rental_uris": {"android": "https://dc.lft.to/lastmile_qr_scan", "ios": "https://dc.lft.to/lastmile_qr_scan"}, "fusion_lat": 0.0, "lat": 38.8516215, "is_disabled": 0, "lon": -76.99462366666667, "is_reserved": 0}, {"bike_id": "6d1c6e37db54da1d5ff6c38d996318d6", "fusion_lon": 0.0, "type": "electric_scooter", "name": "6d1c6e37db54da1d5ff6c38d996318d6", "rental_uris": {"android": "https://dc.lft.to/lastmile_qr_scan", "ios": "https://dc.lft.to/lastmile_qr_scan"}, "fusion_lat": 0.0, "lat": 38.923118, "is_disabled": 0, "lon": -77.05435066666666, "is_reserved": 0}, {"bike_id": "70b84d8f5e6c0066078c7b4db7b19c1e", "fusion_lon": 0.0, "type": "electric_scooter", "name": "70b84d8f5e6c0066078c7b4db7b19c1e", "rental_uris": {"android": "https://dc.lft.to/lastmile_qr_scan", "ios": "https://dc.lft.to/lastmile_qr_scan"}, "fusion_lat": 0.0, "lat": 38.900461666666665, "is_disabled": 0, "lon": -77.00075466666667, "is_reserved": 0}, {"bike_id": "ac5c952c713c3a808c00de25e3eb31df", "fusion_lon": 0.0, "type": "electric_scooter", "name": "ac5c952c713c3a808c00de25e3eb31df", "rental_uris": {"android": "https://dc.lft.to/lastmile_qr_scan", "ios": "https://dc.lft.to/lastmile_qr_scan"}, "fusion_lat": 0.0, "lat": 38.89607783333334, "is_disabled": 0, "lon": -77.00931533333333, "is_reserved": 0}, {"bike_id": "408c15e9320cdcb37c719a4fc76a57ad", "fusion_lon": 0.0, "type": "electric_scooter", "name": "408c15e9320cdcb37c719a4fc76a57ad", "rental_uris": {"android": "https://dc.lft.to/lastmile_qr_scan", "ios": "https://dc.lft.to/lastmile_qr_scan"}, "fusion_lat": 0.0, "lat": 38.95133033333333, "is_disabled": 0, "lon": -77.02728983333333, "is_reserved": 0}, {"bike_id": "be06a70f5c5eb42b87984fb206905582", "fusion_lon": 0.0, "type": "electric_scooter", "name": "be06a70f5c5eb42b87984fb206905582", "rental_uris": {"android": "https://dc.lft.to/lastmile_qr_scan", "ios": "https://dc.lft.to/lastmile_qr_scan"}, "fusion_lat": 0.0, "lat": 38.9027415, "is_disabled": 0, "lon": -77.034501, "is_reserved": 0}, {"bike_id": "0206607b99203f28b7cc57b59db97632", "fusion_lon": 0.0, "type": "electric_bike", "name": "0206607b99203f28b7cc57b59db97632", "rental_uris": {"android": "https://dc.lft.to/lastmile_qr_scan", "ios": "https://dc.lft.to/lastmile_qr_scan"}, "fusion_lat": 0.0, "lat": 38.9500155, "is_disabled": 0, "lon": -77.3531395, "is_reserved": 0}, {"bike_id": "963de383c6e6089508d5658eaee5af1c", "fusion_lon": 0.0, "type": "electric_scooter", "name": "963de383c6e6089508d5658eaee5af1c", "rental_uris": {"android": "https://dc.lft.to/lastmile_qr_scan", "ios": "https://dc.lft.to/lastmile_qr_scan"}, "fusion_lat": 0.0, "lat": 38.912339, "is_disabled": 0, "lon": -77.0450285, "is_reserved": 0}, {"bike_id": "13c22fefe8c1a8c5bf83ec593bb42b45", "fusion_lon": 0.0, "type": "electric_scooter", "name": "13c22fefe8c1a8c5bf83ec593bb42b45", "rental_uris": {"android": "https://dc.lft.to/lastmile_qr_scan", "ios": "https://dc.lft.to/lastmile_qr_scan"}, "fusion_lat": 0.0, "lat": 38.8987585, "is_disabled": 0, "lon": -76.92958516666667, "is_reserved": 0}, {"bike_id": "10077fa2bb803ea50f9fd7390d518e5c", "fusion_lon": 0.0, "type": "electric_scooter", "name": "10077fa2bb803ea50f9fd7390d518e5c", "rental_uris": {"android": "https://dc.lft.to/lastmile_qr_scan", "ios": "https://dc.lft.to/lastmile_qr_scan"}, "fusion_lat": 0.0, "lat": 38.9294065, "is_disabled": 0, "lon": -77.03422583333334, "is_reserved": 0}, {"bike_id": "e3204ac579b73ff4c1b378e87c060005", "fusion_lon": 0.0, "type": "electric_scooter", "name": "e3204ac579b73ff4c1b378e87c060005", "rental_uris": {"android": "https://dc.lft.to/lastmile_qr_scan", "ios": "https://dc.lft.to/lastmile_qr_scan"}, "fusion_lat": 0.0, "lat": 38.92123316666667, "is_disabled": 0, "lon": -77.04438616666667, "is_reserved": 0}, {"bike_id": "1a4d461237f71fd4bff9fbcd1bada73a", "fusion_lon": 0.0, "type": "electric_scooter", "name": "1a4d461237f71fd4bff9fbcd1bada73a", "rental_uris": {"android": "https://dc.lft.to/lastmile_qr_scan", "ios": "https://dc.lft.to/lastmile_qr_scan"}, "fusion_lat": 0.0, "lat": 38.90043766666667, "is_disabled": 0, "lon": -77.0170695, "is_reserved": 0}, {"bike_id": "18c34c03448421f8236c9e8e4e1fb5ba", "fusion_lon": 0.0, "type": "electric_bike", "name": "18c34c03448421f8236c9e8e4e1fb5ba", "rental_uris": {"android": "https://dc.lft.to/lastmile_qr_scan", "ios": "https://dc.lft.to/lastmile_qr_scan"}, "fusion_lat": 0.0, "lat": 38.996775166666666, "is_disabled": 0, "lon": -77.03788616666667, "is_reserved": 0}, {"bike_id": "a003f30834ed153b2eb939f69f5b27d3", "fusion_lon": 0.0, "type": "electric_scooter", "name": "a003f30834ed153b2eb939f69f5b27d3", "rental_uris": {"android": "https://dc.lft.to/lastmile_qr_scan", "ios": "https://dc.lft.to/lastmile_qr_scan"}, "fusion_lat": 0.0, "lat": 38.91571666666667, "is_disabled": 0, "lon": -77.046646, "is_reserved": 0}, {"bike_id": "a28ed0ce03fd208d52af6c5013b029bf", "fusion_lon": 0.0, "type": "electric_scooter", "name": "a28ed0ce03fd208d52af6c5013b029bf", "rental_uris": {"android": "https://dc.lft.to/lastmile_qr_scan", "ios": "https://dc.lft.to/lastmile_qr_scan"}, "fusion_lat": 0.0, "lat": 38.89329266666667, "is_disabled": 0, "lon": -77.01213366666667, "is_reserved": 0}, {"bike_id": "8f8436ad19eb931b7a4d17f11d81e534", "fusion_lon": 0.0, "type": "electric_scooter", "name": "8f8436ad19eb931b7a4d17f11d81e534", "rental_uris": {"android": "https://dc.lft.to/lastmile_qr_scan", "ios": "https://dc.lft.to/lastmile_qr_scan"}, "fusion_lat": 0.0, "lat": 38.90123966666667, "is_disabled": 0, "lon": -77.04993816666666, "is_reserved": 0}, {"bike_id": "6e098827039dedcac3085316a7e14ad3", "fusion_lon": 0.0, "type": "electric_scooter", "name": "6e098827039dedcac3085316a7e14ad3", "rental_uris": {"android": "https://dc.lft.to/lastmile_qr_scan", "ios": "https://dc.lft.to/lastmile_qr_scan"}, "fusion_lat": 0.0, "lat": 38.8804275, "is_disabled": 0, "lon": -77.03068833333333, "is_reserved": 0}, {"bike_id": "5f0de8b4cd82410363f65e9847be77c5", "fusion_lon": 0.0, "type": "electric_scooter", "name": "5f0de8b4cd82410363f65e9847be77c5", "rental_uris": {"android": "https://dc.lft.to/lastmile_qr_scan", "ios": "https://dc.lft.to/lastmile_qr_scan"}, "fusion_lat": 0.0, "lat": 38.916697666666664, "is_disabled": 0, "lon": -77.02420566666666, "is_reserved": 0}, {"bike_id": "92fcf28b1a6b163b9cc0c8c9a2bd4585", "fusion_lon": 0.0, "type": "electric_bike", "name": "92fcf28b1a6b163b9cc0c8c9a2bd4585", "rental_uris": {"android": "https://dc.lft.to/lastmile_qr_scan", "ios": "https://dc.lft.to/lastmile_qr_scan"}, "fusion_lat": 0.0, "lat": 38.8988065, "is_disabled": 0, "lon": -76.98394733333333, "is_reserved": 0}, {"bike_id": "8d3b1b84e936018758e3b18e6cbbe95a", "fusion_lon": 0.0, "type": "electric_bike", "name": "8d3b1b84e936018758e3b18e6cbbe95a", "rental_uris": {"android": "https://dc.lft.to/lastmile_qr_scan", "ios": "https://dc.lft.to/lastmile_qr_scan"}, "fusion_lat": 0.0, "lat": 38.8690435, "is_disabled": 0, "lon": -77.13180666666666, "is_reserved": 0}, {"bike_id": "214d46da0921e231052ffeebbfe0fe2c", "fusion_lon": 0.0, "type": "electric_scooter", "name": "214d46da0921e231052ffeebbfe0fe2c", "rental_uris": {"android": "https://dc.lft.to/lastmile_qr_scan", "ios": "https://dc.lft.to/lastmile_qr_scan"}, "fusion_lat": 0.0, "lat": 38.910921, "is_disabled": 0, "lon": -77.02806766666667, "is_reserved": 0}, {"bike_id": "8ec34661f7cab0b773842ae14bd2b6bc", "fusion_lon": 0.0, "type": "electric_scooter", "name": "8ec34661f7cab0b773842ae14bd2b6bc", "rental_uris": {"android": "https://dc.lft.to/lastmile_qr_scan", "ios": "https://dc.lft.to/lastmile_qr_scan"}, "fusion_lat": 0.0, "lat": 38.891763833333336, "is_disabled": 0, "lon": -77.00339666666666, "is_reserved": 0}, {"bike_id": "3b68ae001db9c5ec851bece97b37b6c0", "fusion_lon": 0.0, "type": "electric_scooter", "name": "3b68ae001db9c5ec851bece97b37b6c0", "rental_uris": {"android": "https://dc.lft.to/lastmile_qr_scan", "ios": "https://dc.lft.to/lastmile_qr_scan"}, "fusion_lat": 0.0, "lat": 38.91685283333333, "is_disabled": 0, "lon": -77.029515, "is_reserved": 0}, {"bike_id": "8913b909f912652bf71a61cb911cd480", "fusion_lon": 0.0, "type": "electric_scooter", "name": "8913b909f912652bf71a61cb911cd480", "rental_uris": {"android": "https://dc.lft.to/lastmile_qr_scan", "ios": "https://dc.lft.to/lastmile_qr_scan"}, "fusion_lat": 0.0, "lat": 38.879144, "is_disabled": 0, "lon": -76.9917995, "is_reserved": 0}, {"bike_id": "a44fcc12f6f8f3a4bd61b46d097edc94", "fusion_lon": 0.0, "type": "electric_scooter", "name": "a44fcc12f6f8f3a4bd61b46d097edc94", "rental_uris": {"android": "https://dc.lft.to/lastmile_qr_scan", "ios": "https://dc.lft.to/lastmile_qr_scan"}, "fusion_lat": 0.0, "lat": 38.899200666666665, "is_disabled": 0, "lon": -77.0188705, "is_reserved": 0}, {"bike_id": "e51932072267e925c2a647ed95bc9387", "fusion_lon": 0.0, "type": "electric_bike", "name": "e51932072267e925c2a647ed95bc9387", "rental_uris": {"android": "https://dc.lft.to/lastmile_qr_scan", "ios": "https://dc.lft.to/lastmile_qr_scan"}, "fusion_lat": 0.0, "lat": 39.0890065, "is_disabled": 0, "lon": -77.17852733333334, "is_reserved": 0}, {"bike_id": "d77a06af29a7fe7ca6a63e9c8d1a0a5d", "fusion_lon": 0.0, "type": "electric_scooter", "name": "d77a06af29a7fe7ca6a63e9c8d1a0a5d", "rental_uris": {"android": "https://dc.lft.to/lastmile_qr_scan", "ios": "https://dc.lft.to/lastmile_qr_scan"}, "fusion_lat": 0.0, "lat": 38.89462183333333, "is_disabled": 0, "lon": -77.003576, "is_reserved": 0}, {"bike_id": "f821c2424875c3866d3a61a361365aab", "fusion_lon": 0.0, "type": "electric_scooter", "name": "f821c2424875c3866d3a61a361365aab", "rental_uris": {"android": "https://dc.lft.to/lastmile_qr_scan", "ios": "https://dc.lft.to/lastmile_qr_scan"}, "fusion_lat": 0.0, "lat": 38.922429, "is_disabled": 0, "lon": -77.04401533333333, "is_reserved": 0}, {"bike_id": "19bf7ccfb34ada21dbae8163e714915d", "fusion_lon": 0.0, "type": "electric_bike", "name": "19bf7ccfb34ada21dbae8163e714915d", "rental_uris": {"android": "https://dc.lft.to/lastmile_qr_scan", "ios": "https://dc.lft.to/lastmile_qr_scan"}, "fusion_lat": 0.0, "lat": 39.05446333333333, "is_disabled": 0, "lon": -77.04311483333333, "is_reserved": 0}, {"bike_id": "0adb4f8b94fe059af1a0528f3ab7bf7d", "fusion_lon": 0.0, "type": "electric_scooter", "name": "0adb4f8b94fe059af1a0528f3ab7bf7d", "rental_uris": {"android": "https://dc.lft.to/lastmile_qr_scan", "ios": "https://dc.lft.to/lastmile_qr_scan"}, "fusion_lat": 0.0, "lat": 38.9299385, "is_disabled": 0, "lon": -77.02357216666667, "is_reserved": 0}, {"bike_id": "e93dec7d85497534bfebde8cd443bfe2", "fusion_lon": 0.0, "type": "electric_scooter", "name": "e93dec7d85497534bfebde8cd443bfe2", "rental_uris": {"android": "https://dc.lft.to/lastmile_qr_scan", "ios": "https://dc.lft.to/lastmile_qr_scan"}, "fusion_lat": 0.0, "lat": 38.94992716666667, "is_disabled": 0, "lon": -77.02712116666666, "is_reserved": 0}, {"bike_id": "50d3c1734e440fac86dc3448057b6cf8", "fusion_lon": 0.0, "type": "electric_scooter", "name": "50d3c1734e440fac86dc3448057b6cf8", "rental_uris": {"android": "https://dc.lft.to/lastmile_qr_scan", "ios": "https://dc.lft.to/lastmile_qr_scan"}, "fusion_lat": 0.0, "lat": 38.9355415, "is_disabled": 0, "lon": -77.08214383333333, "is_reserved": 0}, {"bike_id": "28ebd248280d62e43953c2ab56e4a10f", "fusion_lon": 0.0, "type": "electric_scooter", "name": "28ebd248280d62e43953c2ab56e4a10f", "rental_uris": {"android": "https://dc.lft.to/lastmile_qr_scan", "ios": "https://dc.lft.to/lastmile_qr_scan"}, "fusion_lat": 0.0, "lat": 38.9095215, "is_disabled": 0, "lon": -77.04612416666667, "is_reserved": 0}, {"bike_id": "ca021be01cc0a13baba1377572dc4208", "fusion_lon": 0.0, "type": "electric_scooter", "name": "ca021be01cc0a13baba1377572dc4208", "rental_uris": {"android": "https://dc.lft.to/lastmile_qr_scan", "ios": "https://dc.lft.to/lastmile_qr_scan"}, "fusion_lat": 0.0, "lat": 38.90571933333333, "is_disabled": 0, "lon": -76.976327, "is_reserved": 0}, {"bike_id": "6d12ffc274f48af152cd688698c07948", "fusion_lon": 0.0, "type": "electric_scooter", "name": "6d12ffc274f48af152cd688698c07948", "rental_uris": {"android": "https://dc.lft.to/lastmile_qr_scan", "ios": "https://dc.lft.to/lastmile_qr_scan"}, "fusion_lat": 0.0, "lat": 38.914828166666666, "is_disabled": 0, "lon": -77.0482875, "is_reserved": 0}, {"bike_id": "d31cf28e5c1605b8f656f93af7d78695", "fusion_lon": 0.0, "type": "electric_scooter", "name": "d31cf28e5c1605b8f656f93af7d78695", "rental_uris": {"android": "https://dc.lft.to/lastmile_qr_scan", "ios": "https://dc.lft.to/lastmile_qr_scan"}, "fusion_lat": 0.0, "lat": 38.96150333333333, "is_disabled": 0, "lon": -77.02822433333333, "is_reserved": 0}, {"bike_id": "99bbe7a2f04fae5e1be82a74f3c20098", "fusion_lon": 0.0, "type": "electric_scooter", "name": "99bbe7a2f04fae5e1be82a74f3c20098", "rental_uris": {"android": "https://dc.lft.to/lastmile_qr_scan", "ios": "https://dc.lft.to/lastmile_qr_scan"}, "fusion_lat": 0.0, "lat": 38.8820355, "is_disabled": 0, "lon": -76.986873, "is_reserved": 0}, {"bike_id": "4423bd5e096382b73bc1a5a2d43e5518", "fusion_lon": 0.0, "type": "electric_scooter", "name": "4423bd5e096382b73bc1a5a2d43e5518", "rental_uris": {"android": "https://dc.lft.to/lastmile_qr_scan", "ios": "https://dc.lft.to/lastmile_qr_scan"}, "fusion_lat": 0.0, "lat": 38.903951, "is_disabled": 0, "lon": -76.9901405, "is_reserved": 0}, {"bike_id": "fcc52301a11a5a40c436f61f34362262", "fusion_lon": 0.0, "type": "electric_scooter", "name": "fcc52301a11a5a40c436f61f34362262", "rental_uris": {"android": "https://dc.lft.to/lastmile_qr_scan", "ios": "https://dc.lft.to/lastmile_qr_scan"}, "fusion_lat": 0.0, "lat": 38.910319666666666, "is_disabled": 0, "lon": -77.03277833333334, "is_reserved": 0}, {"bike_id": "73f7a8fc75d139ca245c29b510aeef2e", "fusion_lon": 0.0, "type": "electric_scooter", "name": "73f7a8fc75d139ca245c29b510aeef2e", "rental_uris": {"android": "https://dc.lft.to/lastmile_qr_scan", "ios": "https://dc.lft.to/lastmile_qr_scan"}, "fusion_lat": 0.0, "lat": 38.93987933333333, "is_disabled": 0, "lon": -77.032876, "is_reserved": 0}, {"bike_id": "25c888da7cb63d8f78ded60b7942d649", "fusion_lon": 0.0, "type": "electric_scooter", "name": "25c888da7cb63d8f78ded60b7942d649", "rental_uris": {"android": "https://dc.lft.to/lastmile_qr_scan", "ios": "https://dc.lft.to/lastmile_qr_scan"}, "fusion_lat": 0.0, "lat": 38.905859666666665, "is_disabled": 0, "lon": -77.062854, "is_reserved": 0}, {"bike_id": "38d4e54e50f25e21a2cb9872ff850275", "fusion_lon": 0.0, "type": "electric_scooter", "name": "38d4e54e50f25e21a2cb9872ff850275", "rental_uris": {"android": "https://dc.lft.to/lastmile_qr_scan", "ios": "https://dc.lft.to/lastmile_qr_scan"}, "fusion_lat": 0.0, "lat": 38.939371666666666, "is_disabled": 0, "lon": -77.060307, "is_reserved": 0}, {"bike_id": "66f33d7846b1fc24e37f7baa499e49c1", "fusion_lon": 0.0, "type": "electric_scooter", "name": "66f33d7846b1fc24e37f7baa499e49c1", "rental_uris": {"android": "https://dc.lft.to/lastmile_qr_scan", "ios": "https://dc.lft.to/lastmile_qr_scan"}, "fusion_lat": 0.0, "lat": 38.90458366666667, "is_disabled": 0, "lon": -77.0073495, "is_reserved": 0}, {"bike_id": "1430112b7ac810ce0eaf8c2c8cf21707", "fusion_lon": 0.0, "type": "electric_scooter", "name": "1430112b7ac810ce0eaf8c2c8cf21707", "rental_uris": {"android": "https://dc.lft.to/lastmile_qr_scan", "ios": "https://dc.lft.to/lastmile_qr_scan"}, "fusion_lat": 0.0, "lat": 38.88448233333333, "is_disabled": 0, "lon": -76.99605966666667, "is_reserved": 0}, {"bike_id": "979b0af30f39f4aec15e3a85b7226360", "fusion_lon": 0.0, "type": "electric_scooter", "name": "979b0af30f39f4aec15e3a85b7226360", "rental_uris": {"android": "https://dc.lft.to/lastmile_qr_scan", "ios": "https://dc.lft.to/lastmile_qr_scan"}, "fusion_lat": 0.0, "lat": 38.9079245, "is_disabled": 0, "lon": -76.94125583333333, "is_reserved": 0}, {"bike_id": "718cbad38e8f392f0b47b5ab482ded55", "fusion_lon": 0.0, "type": "electric_scooter", "name": "718cbad38e8f392f0b47b5ab482ded55", "rental_uris": {"android": "https://dc.lft.to/lastmile_qr_scan", "ios": "https://dc.lft.to/lastmile_qr_scan"}, "fusion_lat": 0.0, "lat": 38.89228083333333, "is_disabled": 0, "lon": -77.02829133333333, "is_reserved": 0}, {"bike_id": "34d80dfd64dae2ee6810e0fa1a0d2a41", "fusion_lon": 0.0, "type": "electric_scooter", "name": "34d80dfd64dae2ee6810e0fa1a0d2a41", "rental_uris": {"android": "https://dc.lft.to/lastmile_qr_scan", "ios": "https://dc.lft.to/lastmile_qr_scan"}, "fusion_lat": 0.0, "lat": 38.90918083333333, "is_disabled": 0, "lon": -77.02313816666667, "is_reserved": 0}, {"bike_id": "ebc8e72b0e66238ac13040bac4a2c7a5", "fusion_lon": 0.0, "type": "electric_scooter", "name": "ebc8e72b0e66238ac13040bac4a2c7a5", "rental_uris": {"android": "https://dc.lft.to/lastmile_qr_scan", "ios": "https://dc.lft.to/lastmile_qr_scan"}, "fusion_lat": 0.0, "lat": 38.91692583333333, "is_disabled": 0, "lon": -77.0294865, "is_reserved": 0}, {"bike_id": "ec06ff3e7c0e4e58715b555798247003", "fusion_lon": 0.0, "type": "electric_scooter", "name": "ec06ff3e7c0e4e58715b555798247003", "rental_uris": {"android": "https://dc.lft.to/lastmile_qr_scan", "ios": "https://dc.lft.to/lastmile_qr_scan"}, "fusion_lat": 0.0, "lat": 38.9044105, "is_disabled": 0, "lon": -77.051617, "is_reserved": 0}, {"bike_id": "3d3d781823d60865d98e6ee17987a748", "fusion_lon": 0.0, "type": "electric_scooter", "name": "3d3d781823d60865d98e6ee17987a748", "rental_uris": {"android": "https://dc.lft.to/lastmile_qr_scan", "ios": "https://dc.lft.to/lastmile_qr_scan"}, "fusion_lat": 0.0, "lat": 38.9290655, "is_disabled": 0, "lon": -77.063741, "is_reserved": 0}, {"bike_id": "b032ca41f8547ea4f58a6636bc01cb8c", "fusion_lon": 0.0, "type": "electric_scooter", "name": "b032ca41f8547ea4f58a6636bc01cb8c", "rental_uris": {"android": "https://dc.lft.to/lastmile_qr_scan", "ios": "https://dc.lft.to/lastmile_qr_scan"}, "fusion_lat": 0.0, "lat": 38.926097666666664, "is_disabled": 0, "lon": -77.02166816666667, "is_reserved": 0}, {"bike_id": "291f22591c3eba3444457d15711219db", "fusion_lon": 0.0, "type": "electric_scooter", "name": "291f22591c3eba3444457d15711219db", "rental_uris": {"android": "https://dc.lft.to/lastmile_qr_scan", "ios": "https://dc.lft.to/lastmile_qr_scan"}, "fusion_lat": 0.0, "lat": 38.919238, "is_disabled": 0, "lon": -77.031317, "is_reserved": 0}, {"bike_id": "936178ae999c622f36565c6d1756b133", "fusion_lon": 0.0, "type": "electric_scooter", "name": "936178ae999c622f36565c6d1756b133", "rental_uris": {"android": "https://dc.lft.to/lastmile_qr_scan", "ios": "https://dc.lft.to/lastmile_qr_scan"}, "fusion_lat": 0.0, "lat": 38.92404283333333, "is_disabled": 0, "lon": -77.04036666666667, "is_reserved": 0}, {"bike_id": "4dea542462e9ecb174119d099f33aab1", "fusion_lon": 0.0, "type": "electric_scooter", "name": "4dea542462e9ecb174119d099f33aab1", "rental_uris": {"android": "https://dc.lft.to/lastmile_qr_scan", "ios": "https://dc.lft.to/lastmile_qr_scan"}, "fusion_lat": 0.0, "lat": 38.89217716666667, "is_disabled": 0, "lon": -77.02725016666666, "is_reserved": 0}, {"bike_id": "83373f8eddc8e181dbb0a5c1e81b1d4b", "fusion_lon": 0.0, "type": "electric_scooter", "name": "83373f8eddc8e181dbb0a5c1e81b1d4b", "rental_uris": {"android": "https://dc.lft.to/lastmile_qr_scan", "ios": "https://dc.lft.to/lastmile_qr_scan"}, "fusion_lat": 0.0, "lat": 38.934252, "is_disabled": 0, "lon": -77.044071, "is_reserved": 0}, {"bike_id": "06855092b0581127a9fa71a05ba46aca", "fusion_lon": 0.0, "type": "electric_scooter", "name": "06855092b0581127a9fa71a05ba46aca", "rental_uris": {"android": "https://dc.lft.to/lastmile_qr_scan", "ios": "https://dc.lft.to/lastmile_qr_scan"}, "fusion_lat": 0.0, "lat": 38.89072933333333, "is_disabled": 0, "lon": -76.91928933333334, "is_reserved": 0}, {"bike_id": "3d76b5e74a81c0d908235f7fe674402c", "fusion_lon": 0.0, "type": "electric_scooter", "name": "3d76b5e74a81c0d908235f7fe674402c", "rental_uris": {"android": "https://dc.lft.to/lastmile_qr_scan", "ios": "https://dc.lft.to/lastmile_qr_scan"}, "fusion_lat": 0.0, "lat": 38.93058283333333, "is_disabled": 0, "lon": -77.028082, "is_reserved": 0}, {"bike_id": "1276e89fb7ec2cb14a9cd56a4a0ad990", "fusion_lon": 0.0, "type": "electric_scooter", "name": "1276e89fb7ec2cb14a9cd56a4a0ad990", "rental_uris": {"android": "https://dc.lft.to/lastmile_qr_scan", "ios": "https://dc.lft.to/lastmile_qr_scan"}, "fusion_lat": 0.0, "lat": 38.91107316666667, "is_disabled": 0, "lon": -77.04502783333334, "is_reserved": 0}, {"bike_id": "36625f103a2ed7e279f11a161a5a85a2", "fusion_lon": 0.0, "type": "electric_scooter", "name": "36625f103a2ed7e279f11a161a5a85a2", "rental_uris": {"android": "https://dc.lft.to/lastmile_qr_scan", "ios": "https://dc.lft.to/lastmile_qr_scan"}, "fusion_lat": 0.0, "lat": 38.904046666666666, "is_disabled": 0, "lon": -77.04882016666667, "is_reserved": 0}, {"bike_id": "40dd73b27552e6f792440ed63bec6052", "fusion_lon": 0.0, "type": "electric_scooter", "name": "40dd73b27552e6f792440ed63bec6052", "rental_uris": {"android": "https://dc.lft.to/lastmile_qr_scan", "ios": "https://dc.lft.to/lastmile_qr_scan"}, "fusion_lat": 0.0, "lat": 38.90052983333333, "is_disabled": 0, "lon": -77.048418, "is_reserved": 0}, {"bike_id": "84585d2377cc3afe0ea4190ffe4004e7", "fusion_lon": 0.0, "type": "electric_scooter", "name": "84585d2377cc3afe0ea4190ffe4004e7", "rental_uris": {"android": "https://dc.lft.to/lastmile_qr_scan", "ios": "https://dc.lft.to/lastmile_qr_scan"}, "fusion_lat": 0.0, "lat": 38.92059483333333, "is_disabled": 0, "lon": -77.038188, "is_reserved": 0}, {"bike_id": "4e354511d1c2bc169531c189a9195182", "fusion_lon": 0.0, "type": "electric_scooter", "name": "4e354511d1c2bc169531c189a9195182", "rental_uris": {"android": "https://dc.lft.to/lastmile_qr_scan", "ios": "https://dc.lft.to/lastmile_qr_scan"}, "fusion_lat": 0.0, "lat": 38.91732866666667, "is_disabled": 0, "lon": -77.0692, "is_reserved": 0}, {"bike_id": "ba25e3d0fc53429501d07df4d8c1606f", "fusion_lon": 0.0, "type": "electric_scooter", "name": "ba25e3d0fc53429501d07df4d8c1606f", "rental_uris": {"android": "https://dc.lft.to/lastmile_qr_scan", "ios": "https://dc.lft.to/lastmile_qr_scan"}, "fusion_lat": 0.0, "lat": 38.900011166666665, "is_disabled": 0, "lon": -76.98412566666667, "is_reserved": 0}, {"bike_id": "664cdbc32be39a65c8681814fd18d855", "fusion_lon": 0.0, "type": "electric_scooter", "name": "664cdbc32be39a65c8681814fd18d855", "rental_uris": {"android": "https://dc.lft.to/lastmile_qr_scan", "ios": "https://dc.lft.to/lastmile_qr_scan"}, "fusion_lat": 0.0, "lat": 38.877159166666665, "is_disabled": 0, "lon": -77.016573, "is_reserved": 0}, {"bike_id": "051df22fe58d8db55dea7c7bfe2a25c8", "fusion_lon": 0.0, "type": "electric_scooter", "name": "051df22fe58d8db55dea7c7bfe2a25c8", "rental_uris": {"android": "https://dc.lft.to/lastmile_qr_scan", "ios": "https://dc.lft.to/lastmile_qr_scan"}, "fusion_lat": 0.0, "lat": 38.876331, "is_disabled": 0, "lon": -77.01958566666667, "is_reserved": 0}, {"bike_id": "8792beb11704457c434d4f5ef62faecd", "fusion_lon": 0.0, "type": "electric_scooter", "name": "8792beb11704457c434d4f5ef62faecd", "rental_uris": {"android": "https://dc.lft.to/lastmile_qr_scan", "ios": "https://dc.lft.to/lastmile_qr_scan"}, "fusion_lat": 0.0, "lat": 38.9038525, "is_disabled": 0, "lon": -77.03376816666666, "is_reserved": 0}, {"bike_id": "f47c37121dd232f3030844933edaafcf", "fusion_lon": 0.0, "type": "electric_scooter", "name": "f47c37121dd232f3030844933edaafcf", "rental_uris": {"android": "https://dc.lft.to/lastmile_qr_scan", "ios": "https://dc.lft.to/lastmile_qr_scan"}, "fusion_lat": 0.0, "lat": 38.960399333333335, "is_disabled": 0, "lon": -77.02823066666667, "is_reserved": 0}, {"bike_id": "ab4ccab1dfd9a8cc23d213d61573663a", "fusion_lon": 0.0, "type": "electric_bike", "name": "ab4ccab1dfd9a8cc23d213d61573663a", "rental_uris": {"android": "https://dc.lft.to/lastmile_qr_scan", "ios": "https://dc.lft.to/lastmile_qr_scan"}, "fusion_lat": 0.0, "lat": 38.898021, "is_disabled": 0, "lon": -77.00598, "is_reserved": 0}, {"bike_id": "f1c071d2e6578b616808e7ca3d684443", "fusion_lon": 0.0, "type": "electric_scooter", "name": "f1c071d2e6578b616808e7ca3d684443", "rental_uris": {"android": "https://dc.lft.to/lastmile_qr_scan", "ios": "https://dc.lft.to/lastmile_qr_scan"}, "fusion_lat": 0.0, "lat": 38.9519315, "is_disabled": 0, "lon": -77.02790583333334, "is_reserved": 0}, {"bike_id": "e123029a952a5122b1e5c8257e13a0a0", "fusion_lon": 0.0, "type": "electric_scooter", "name": "e123029a952a5122b1e5c8257e13a0a0", "rental_uris": {"android": "https://dc.lft.to/lastmile_qr_scan", "ios": "https://dc.lft.to/lastmile_qr_scan"}, "fusion_lat": 0.0, "lat": 38.900728666666666, "is_disabled": 0, "lon": -77.00204916666667, "is_reserved": 0}, {"bike_id": "0ee12d26416b526b68df89354ce26800", "fusion_lon": 0.0, "type": "electric_scooter", "name": "0ee12d26416b526b68df89354ce26800", "rental_uris": {"android": "https://dc.lft.to/lastmile_qr_scan", "ios": "https://dc.lft.to/lastmile_qr_scan"}, "fusion_lat": 0.0, "lat": 38.91631833333334, "is_disabled": 0, "lon": -77.03972266666666, "is_reserved": 0}, {"bike_id": "a8baa135883e30d0a3504215197c9e75", "fusion_lon": 0.0, "type": "electric_scooter", "name": "a8baa135883e30d0a3504215197c9e75", "rental_uris": {"android": "https://dc.lft.to/lastmile_qr_scan", "ios": "https://dc.lft.to/lastmile_qr_scan"}, "fusion_lat": 0.0, "lat": 38.90239866666667, "is_disabled": 0, "lon": -77.03260516666667, "is_reserved": 0}, {"bike_id": "11bd7ed3f796b41bfe1658c157a34812", "fusion_lon": 0.0, "type": "electric_scooter", "name": "11bd7ed3f796b41bfe1658c157a34812", "rental_uris": {"android": "https://dc.lft.to/lastmile_qr_scan", "ios": "https://dc.lft.to/lastmile_qr_scan"}, "fusion_lat": 0.0, "lat": 38.89604083333333, "is_disabled": 0, "lon": -76.97825083333333, "is_reserved": 0}, {"bike_id": "6e96938b13bca451fa8d7930c6281bd8", "fusion_lon": 0.0, "type": "electric_scooter", "name": "6e96938b13bca451fa8d7930c6281bd8", "rental_uris": {"android": "https://dc.lft.to/lastmile_qr_scan", "ios": "https://dc.lft.to/lastmile_qr_scan"}, "fusion_lat": 0.0, "lat": 38.92150916666667, "is_disabled": 0, "lon": -77.03870433333333, "is_reserved": 0}, {"bike_id": "9751fd37a5d532a0f17d2843eabf127e", "fusion_lon": 0.0, "type": "electric_scooter", "name": "9751fd37a5d532a0f17d2843eabf127e", "rental_uris": {"android": "https://dc.lft.to/lastmile_qr_scan", "ios": "https://dc.lft.to/lastmile_qr_scan"}, "fusion_lat": 0.0, "lat": 38.8921895, "is_disabled": 0, "lon": -77.02776833333333, "is_reserved": 0}, {"bike_id": "1f58c13c4a6d40467eab2cca6ca7c0bc", "fusion_lon": 0.0, "type": "electric_scooter", "name": "1f58c13c4a6d40467eab2cca6ca7c0bc", "rental_uris": {"android": "https://dc.lft.to/lastmile_qr_scan", "ios": "https://dc.lft.to/lastmile_qr_scan"}, "fusion_lat": 0.0, "lat": 38.93063983333333, "is_disabled": 0, "lon": -77.028095, "is_reserved": 0}, {"bike_id": "e749890bb109cb35d68ad0522f20bc81", "fusion_lon": 0.0, "type": "electric_scooter", "name": "e749890bb109cb35d68ad0522f20bc81", "rental_uris": {"android": "https://dc.lft.to/lastmile_qr_scan", "ios": "https://dc.lft.to/lastmile_qr_scan"}, "fusion_lat": 0.0, "lat": 38.913987666666664, "is_disabled": 0, "lon": -77.0418725, "is_reserved": 0}, {"bike_id": "b1dbb3c44c644a750fd763985e75673f", "fusion_lon": 0.0, "type": "electric_scooter", "name": "b1dbb3c44c644a750fd763985e75673f", "rental_uris": {"android": "https://dc.lft.to/lastmile_qr_scan", "ios": "https://dc.lft.to/lastmile_qr_scan"}, "fusion_lat": 0.0, "lat": 38.9171215, "is_disabled": 0, "lon": -77.03178833333334, "is_reserved": 0}, {"bike_id": "dbaf590e91ea14cec7fc3187061742c4", "fusion_lon": 0.0, "type": "electric_scooter", "name": "dbaf590e91ea14cec7fc3187061742c4", "rental_uris": {"android": "https://dc.lft.to/lastmile_qr_scan", "ios": "https://dc.lft.to/lastmile_qr_scan"}, "fusion_lat": 0.0, "lat": 38.9034155, "is_disabled": 0, "lon": -76.988512, "is_reserved": 0}, {"bike_id": "a0a101a9880c803c7c4ee143e3c50297", "fusion_lon": 0.0, "type": "electric_scooter", "name": "a0a101a9880c803c7c4ee143e3c50297", "rental_uris": {"android": "https://dc.lft.to/lastmile_qr_scan", "ios": "https://dc.lft.to/lastmile_qr_scan"}, "fusion_lat": 0.0, "lat": 38.92359716666667, "is_disabled": 0, "lon": -77.05268916666667, "is_reserved": 0}, {"bike_id": "d6471c31661873c0c7514c118df442ff", "fusion_lon": 0.0, "type": "electric_bike", "name": "d6471c31661873c0c7514c118df442ff", "rental_uris": {"android": "https://dc.lft.to/lastmile_qr_scan", "ios": "https://dc.lft.to/lastmile_qr_scan"}, "fusion_lat": 0.0, "lat": 38.82443516666667, "is_disabled": 0, "lon": -77.07049916666666, "is_reserved": 0}, {"bike_id": "fcf62158f7cc35f83b2d2388c4e1e86f", "fusion_lon": 0.0, "type": "electric_scooter", "name": "fcf62158f7cc35f83b2d2388c4e1e86f", "rental_uris": {"android": "https://dc.lft.to/lastmile_qr_scan", "ios": "https://dc.lft.to/lastmile_qr_scan"}, "fusion_lat": 0.0, "lat": 38.900086, "is_disabled": 0, "lon": -77.01213733333333, "is_reserved": 0}, {"bike_id": "b7b08f1309f6244b3b70f67941af8232", "fusion_lon": 0.0, "type": "electric_scooter", "name": "b7b08f1309f6244b3b70f67941af8232", "rental_uris": {"android": "https://dc.lft.to/lastmile_qr_scan", "ios": "https://dc.lft.to/lastmile_qr_scan"}, "fusion_lat": 0.0, "lat": 38.86537366666667, "is_disabled": 0, "lon": -76.98709333333333, "is_reserved": 0}, {"bike_id": "ee452392d2ead9e6760a5a8d33ceb76d", "fusion_lon": 0.0, "type": "electric_scooter", "name": "ee452392d2ead9e6760a5a8d33ceb76d", "rental_uris": {"android": "https://dc.lft.to/lastmile_qr_scan", "ios": "https://dc.lft.to/lastmile_qr_scan"}, "fusion_lat": 0.0, "lat": 38.90548616666667, "is_disabled": 0, "lon": -77.04006516666666, "is_reserved": 0}, {"bike_id": "74fe636eeb1bb6ea1d25436410c76e56", "fusion_lon": 0.0, "type": "electric_bike", "name": "74fe636eeb1bb6ea1d25436410c76e56", "rental_uris": {"android": "https://dc.lft.to/lastmile_qr_scan", "ios": "https://dc.lft.to/lastmile_qr_scan"}, "fusion_lat": 0.0, "lat": 38.8651825, "is_disabled": 0, "lon": -77.128144, "is_reserved": 0}, {"bike_id": "4427af50b98e8a31b0640e9fb9317f80", "fusion_lon": 0.0, "type": "electric_scooter", "name": "4427af50b98e8a31b0640e9fb9317f80", "rental_uris": {"android": "https://dc.lft.to/lastmile_qr_scan", "ios": "https://dc.lft.to/lastmile_qr_scan"}, "fusion_lat": 0.0, "lat": 38.92819766666667, "is_disabled": 0, "lon": -77.02261916666667, "is_reserved": 0}, {"bike_id": "354b1cae0be83fbaad34338375615381", "fusion_lon": 0.0, "type": "electric_bike", "name": "354b1cae0be83fbaad34338375615381", "rental_uris": {"android": "https://dc.lft.to/lastmile_qr_scan", "ios": "https://dc.lft.to/lastmile_qr_scan"}, "fusion_lat": 0.0, "lat": 38.7998755, "is_disabled": 0, "lon": -77.12990466666666, "is_reserved": 0}, {"bike_id": "232dce816a1357e197cbb7c569955014", "fusion_lon": 0.0, "type": "electric_scooter", "name": "232dce816a1357e197cbb7c569955014", "rental_uris": {"android": "https://dc.lft.to/lastmile_qr_scan", "ios": "https://dc.lft.to/lastmile_qr_scan"}, "fusion_lat": 0.0, "lat": 38.9236575, "is_disabled": 0, "lon": -77.05054033333333, "is_reserved": 0}, {"bike_id": "17627e546e54f20b8a7f29ea1523d40d", "fusion_lon": 0.0, "type": "electric_scooter", "name": "17627e546e54f20b8a7f29ea1523d40d", "rental_uris": {"android": "https://dc.lft.to/lastmile_qr_scan", "ios": "https://dc.lft.to/lastmile_qr_scan"}, "fusion_lat": 0.0, "lat": 38.93459983333333, "is_disabled": 0, "lon": -77.057819, "is_reserved": 0}, {"bike_id": "c26c044a9a38032001da0a43e30afb56", "fusion_lon": 0.0, "type": "electric_scooter", "name": "c26c044a9a38032001da0a43e30afb56", "rental_uris": {"android": "https://dc.lft.to/lastmile_qr_scan", "ios": "https://dc.lft.to/lastmile_qr_scan"}, "fusion_lat": 0.0, "lat": 38.896676666666664, "is_disabled": 0, "lon": -76.94720816666667, "is_reserved": 0}, {"bike_id": "4de0568f91439a28be76ce464a212fd4", "fusion_lon": 0.0, "type": "electric_scooter", "name": "4de0568f91439a28be76ce464a212fd4", "rental_uris": {"android": "https://dc.lft.to/lastmile_qr_scan", "ios": "https://dc.lft.to/lastmile_qr_scan"}, "fusion_lat": 0.0, "lat": 38.919741, "is_disabled": 0, "lon": -77.01851466666666, "is_reserved": 0}, {"bike_id": "c83d4745d82754ac678be9bf761e1e52", "fusion_lon": 0.0, "type": "electric_scooter", "name": "c83d4745d82754ac678be9bf761e1e52", "rental_uris": {"android": "https://dc.lft.to/lastmile_qr_scan", "ios": "https://dc.lft.to/lastmile_qr_scan"}, "fusion_lat": 0.0, "lat": 38.94969116666667, "is_disabled": 0, "lon": -77.06766233333333, "is_reserved": 0}, {"bike_id": "7b0651d11647fd7cf21e24558691f2c7", "fusion_lon": 0.0, "type": "electric_scooter", "name": "7b0651d11647fd7cf21e24558691f2c7", "rental_uris": {"android": "https://dc.lft.to/lastmile_qr_scan", "ios": "https://dc.lft.to/lastmile_qr_scan"}, "fusion_lat": 0.0, "lat": 38.8999935, "is_disabled": 0, "lon": -77.03187916666667, "is_reserved": 0}, {"bike_id": "c33312a51ad60c5b5c4e37293e773201", "fusion_lon": 0.0, "type": "electric_scooter", "name": "c33312a51ad60c5b5c4e37293e773201", "rental_uris": {"android": "https://dc.lft.to/lastmile_qr_scan", "ios": "https://dc.lft.to/lastmile_qr_scan"}, "fusion_lat": 0.0, "lat": 38.90852616666667, "is_disabled": 0, "lon": -77.02388483333333, "is_reserved": 0}, {"bike_id": "15b259f04d191051c21cbaf12a54ca5b", "fusion_lon": 0.0, "type": "electric_scooter", "name": "15b259f04d191051c21cbaf12a54ca5b", "rental_uris": {"android": "https://dc.lft.to/lastmile_qr_scan", "ios": "https://dc.lft.to/lastmile_qr_scan"}, "fusion_lat": 0.0, "lat": 38.9241185, "is_disabled": 0, "lon": -77.0201495, "is_reserved": 0}, {"bike_id": "14bbdf42a64edb0ec70e419960b803bc", "fusion_lon": 0.0, "type": "electric_bike", "name": "14bbdf42a64edb0ec70e419960b803bc", "rental_uris": {"android": "https://dc.lft.to/lastmile_qr_scan", "ios": "https://dc.lft.to/lastmile_qr_scan"}, "fusion_lat": 0.0, "lat": 38.84594633333333, "is_disabled": 0, "lon": -76.96884516666667, "is_reserved": 0}, {"bike_id": "8995d76ce378fde9745d0c56b162d622", "fusion_lon": 0.0, "type": "electric_scooter", "name": "8995d76ce378fde9745d0c56b162d622", "rental_uris": {"android": "https://dc.lft.to/lastmile_qr_scan", "ios": "https://dc.lft.to/lastmile_qr_scan"}, "fusion_lat": 0.0, "lat": 38.90834983333333, "is_disabled": 0, "lon": -77.0259675, "is_reserved": 0}, {"bike_id": "d67598dff7b8f10dc1c7d13c1f8de4d6", "fusion_lon": 0.0, "type": "electric_scooter", "name": "d67598dff7b8f10dc1c7d13c1f8de4d6", "rental_uris": {"android": "https://dc.lft.to/lastmile_qr_scan", "ios": "https://dc.lft.to/lastmile_qr_scan"}, "fusion_lat": 0.0, "lat": 38.903199, "is_disabled": 0, "lon": -77.0519135, "is_reserved": 0}, {"bike_id": "bde5900aaa2971a41ab477b7f2e3c757", "fusion_lon": 0.0, "type": "electric_scooter", "name": "bde5900aaa2971a41ab477b7f2e3c757", "rental_uris": {"android": "https://dc.lft.to/lastmile_qr_scan", "ios": "https://dc.lft.to/lastmile_qr_scan"}, "fusion_lat": 0.0, "lat": 38.9123915, "is_disabled": 0, "lon": -77.0326845, "is_reserved": 0}, {"bike_id": "5b09b80d06a5ce643e93ba2f4fa3a850", "fusion_lon": 0.0, "type": "electric_scooter", "name": "5b09b80d06a5ce643e93ba2f4fa3a850", "rental_uris": {"android": "https://dc.lft.to/lastmile_qr_scan", "ios": "https://dc.lft.to/lastmile_qr_scan"}, "fusion_lat": 0.0, "lat": 38.9326655, "is_disabled": 0, "lon": -77.03925033333333, "is_reserved": 0}, {"bike_id": "c2c4a00ebf44f0a1895b9beb374484fe", "fusion_lon": 0.0, "type": "electric_scooter", "name": "c2c4a00ebf44f0a1895b9beb374484fe", "rental_uris": {"android": "https://dc.lft.to/lastmile_qr_scan", "ios": "https://dc.lft.to/lastmile_qr_scan"}, "fusion_lat": 0.0, "lat": 38.95880316666667, "is_disabled": 0, "lon": -77.00774333333334, "is_reserved": 0}, {"bike_id": "819fc80d1aef303f1e07f1670fb9e9a6", "fusion_lon": 0.0, "type": "electric_scooter", "name": "819fc80d1aef303f1e07f1670fb9e9a6", "rental_uris": {"android": "https://dc.lft.to/lastmile_qr_scan", "ios": "https://dc.lft.to/lastmile_qr_scan"}, "fusion_lat": 0.0, "lat": 38.939639166666666, "is_disabled": 0, "lon": -77.0320895, "is_reserved": 0}, {"bike_id": "b6cd7cad166bb9b06cb44081126e2ee0", "fusion_lon": 0.0, "type": "electric_bike", "name": "b6cd7cad166bb9b06cb44081126e2ee0", "rental_uris": {"android": "https://dc.lft.to/lastmile_qr_scan", "ios": "https://dc.lft.to/lastmile_qr_scan"}, "fusion_lat": 0.0, "lat": 38.84478633333333, "is_disabled": 0, "lon": -76.97221183333333, "is_reserved": 0}, {"bike_id": "af15be3963e69e5d59bc1098f71694af", "fusion_lon": 0.0, "type": "electric_scooter", "name": "af15be3963e69e5d59bc1098f71694af", "rental_uris": {"android": "https://dc.lft.to/lastmile_qr_scan", "ios": "https://dc.lft.to/lastmile_qr_scan"}, "fusion_lat": 0.0, "lat": 38.91912166666667, "is_disabled": 0, "lon": -77.03419133333334, "is_reserved": 0}, {"bike_id": "02924c1b0995741763f65ce18c546eb4", "fusion_lon": 0.0, "type": "electric_scooter", "name": "02924c1b0995741763f65ce18c546eb4", "rental_uris": {"android": "https://dc.lft.to/lastmile_qr_scan", "ios": "https://dc.lft.to/lastmile_qr_scan"}, "fusion_lat": 0.0, "lat": 38.925093, "is_disabled": 0, "lon": -77.04093783333333, "is_reserved": 0}, {"bike_id": "3f8d842d22534016d1586aceccb5f379", "fusion_lon": 0.0, "type": "electric_scooter", "name": "3f8d842d22534016d1586aceccb5f379", "rental_uris": {"android": "https://dc.lft.to/lastmile_qr_scan", "ios": "https://dc.lft.to/lastmile_qr_scan"}, "fusion_lat": 0.0, "lat": 38.89875466666667, "is_disabled": 0, "lon": -76.931865, "is_reserved": 0}, {"bike_id": "f10fb8d8a0e3a3446980abf4f4b83b38", "fusion_lon": 0.0, "type": "electric_scooter", "name": "f10fb8d8a0e3a3446980abf4f4b83b38", "rental_uris": {"android": "https://dc.lft.to/lastmile_qr_scan", "ios": "https://dc.lft.to/lastmile_qr_scan"}, "fusion_lat": 0.0, "lat": 38.876837333333334, "is_disabled": 0, "lon": -77.01605983333333, "is_reserved": 0}, {"bike_id": "819e909807f3fe806602ef98769e0173", "fusion_lon": 0.0, "type": "electric_scooter", "name": "819e909807f3fe806602ef98769e0173", "rental_uris": {"android": "https://dc.lft.to/lastmile_qr_scan", "ios": "https://dc.lft.to/lastmile_qr_scan"}, "fusion_lat": 0.0, "lat": 38.9187865, "is_disabled": 0, "lon": -77.041859, "is_reserved": 0}, {"bike_id": "8f986cffeb038d9082faf4cab7a8831b", "fusion_lon": 0.0, "type": "electric_bike", "name": "8f986cffeb038d9082faf4cab7a8831b", "rental_uris": {"android": "https://dc.lft.to/lastmile_qr_scan", "ios": "https://dc.lft.to/lastmile_qr_scan"}, "fusion_lat": 0.0, "lat": 38.93667633333333, "is_disabled": 0, "lon": -76.95211333333333, "is_reserved": 0}, {"bike_id": "b68ad64f4f3772ce098ad1993fc17c1f", "fusion_lon": 0.0, "type": "electric_scooter", "name": "b68ad64f4f3772ce098ad1993fc17c1f", "rental_uris": {"android": "https://dc.lft.to/lastmile_qr_scan", "ios": "https://dc.lft.to/lastmile_qr_scan"}, "fusion_lat": 0.0, "lat": 38.90404216666667, "is_disabled": 0, "lon": -77.0014135, "is_reserved": 0}, {"bike_id": "d42669b4dcfbcd24ec39c91fdc0565f3", "fusion_lon": 0.0, "type": "electric_scooter", "name": "d42669b4dcfbcd24ec39c91fdc0565f3", "rental_uris": {"android": "https://dc.lft.to/lastmile_qr_scan", "ios": "https://dc.lft.to/lastmile_qr_scan"}, "fusion_lat": 0.0, "lat": 38.90943716666666, "is_disabled": 0, "lon": -77.04481583333333, "is_reserved": 0}, {"bike_id": "65e717a00a75706faa295a289af83743", "fusion_lon": 0.0, "type": "electric_scooter", "name": "65e717a00a75706faa295a289af83743", "rental_uris": {"android": "https://dc.lft.to/lastmile_qr_scan", "ios": "https://dc.lft.to/lastmile_qr_scan"}, "fusion_lat": 0.0, "lat": 38.92979783333333, "is_disabled": 0, "lon": -77.02353133333334, "is_reserved": 0}, {"bike_id": "765c3ad5cb939d0c608fdbcc73ee2570", "fusion_lon": 0.0, "type": "electric_bike", "name": "765c3ad5cb939d0c608fdbcc73ee2570", "rental_uris": {"android": "https://dc.lft.to/lastmile_qr_scan", "ios": "https://dc.lft.to/lastmile_qr_scan"}, "fusion_lat": 0.0, "lat": 38.89810266666667, "is_disabled": 0, "lon": -76.990347, "is_reserved": 0}, {"bike_id": "801eb5cf74f39b9518caa5f24dd5a935", "fusion_lon": 0.0, "type": "electric_scooter", "name": "801eb5cf74f39b9518caa5f24dd5a935", "rental_uris": {"android": "https://dc.lft.to/lastmile_qr_scan", "ios": "https://dc.lft.to/lastmile_qr_scan"}, "fusion_lat": 0.0, "lat": 38.927232000000004, "is_disabled": 0, "lon": -77.03432716666667, "is_reserved": 0}, {"bike_id": "231d2aa4247f20fedb997927653940c7", "fusion_lon": 0.0, "type": "electric_scooter", "name": "231d2aa4247f20fedb997927653940c7", "rental_uris": {"android": "https://dc.lft.to/lastmile_qr_scan", "ios": "https://dc.lft.to/lastmile_qr_scan"}, "fusion_lat": 0.0, "lat": 38.9109265, "is_disabled": 0, "lon": -77.00153233333333, "is_reserved": 0}, {"bike_id": "68e4b140a3f335bba6a9a36d5e80d350", "fusion_lon": 0.0, "type": "electric_scooter", "name": "68e4b140a3f335bba6a9a36d5e80d350", "rental_uris": {"android": "https://dc.lft.to/lastmile_qr_scan", "ios": "https://dc.lft.to/lastmile_qr_scan"},