{"data": {"bikes": [{"rental_uris": {"android": "https://dc.lft.to/lastmile_qr_scan", "ios": "https://dc.lft.to/lastmile_qr_scan"}, "type": "electric_scooter", "lon": -77.02658116666667, "name": "8f451ac5ee932d4f4cf1ec85cda9f033", "bike_id": "8f451ac5ee932d4f4cf1ec85cda9f033", "fusion_lat": 0.0, "is_reserved": 0, "lat": 38.89983133333333, "fusion_lon": 0.0, "is_disabled": 0}, {"rental_uris": {"android": "https://dc.lft.to/lastmile_qr_scan", "ios": "https://dc.lft.to/lastmile_qr_scan"}, "type": "electric_scooter", "lon": -77.00312633333333, "name": "4cf04677542cdbf6f097ca1cf8ea36eb", "bike_id": "4cf04677542cdbf6f097ca1cf8ea36eb", "fusion_lat": 0.0, "is_reserved": 0, "lat": 38.90898383333333, "fusion_lon": 0.0, "is_disabled": 0}, {"rental_uris": {"android": "https://dc.lft.to/lastmile_qr_scan", "ios": "https://dc.lft.to/lastmile_qr_scan"}, "type": "electric_scooter", "lon": -77.04829883333333, "name": "c99f989255dc5d3d5f88527b408d30a0", "bike_id": "c99f989255dc5d3d5f88527b408d30a0", "fusion_lat": 0.0, "is_reserved": 0, "lat": 38.91632666666667, "fusion_lon": 0.0, "is_disabled": 0}, {"rental_uris": {"android": "https://dc.lft.to/lastmile_qr_scan", "ios": "https://dc.lft.to/lastmile_qr_scan"}, "type": "electric_scooter", "lon": -77.04228483333333, "name": "5b8fe3728a128dd4f0bc995a80f60d11", "bike_id": "5b8fe3728a128dd4f0bc995a80f60d11", "fusion_lat": 0.0, "is_reserved": 0, "lat": 38.911109, "fusion_lon": 0.0, "is_disabled": 0}, {"rental_uris": {"android": "https://dc.lft.to/lastmile_qr_scan", "ios": "https://dc.lft.to/lastmile_qr_scan"}, "type": "electric_scooter", "lon": -77.018238, "name": "6f8171c504f9d5f2fad394f8fd9a2097", "bike_id": "6f8171c504f9d5f2fad394f8fd9a2097", "fusion_lat": 0.0, "is_reserved": 0, "lat": 38.9111355, "fusion_lon": 0.0, "is_disabled": 0}, {"rental_uris": {"android": "https://dc.lft.to/lastmile_qr_scan", "ios": "https://dc.lft.to/lastmile_qr_scan"}, "type": "electric_scooter", "lon": -77.0269405, "name": "7f3c5f9a89577507aefc57efaf2dcd18", "bike_id": "7f3c5f9a89577507aefc57efaf2dcd18", "fusion_lat": 0.0, "is_reserved": 0, "lat": 38.90846416666667, "fusion_lon": 0.0, "is_disabled": 0}, {"rental_uris": {"android": "https://dc.lft.to/lastmile_qr_scan", "ios": "https://dc.lft.to/lastmile_qr_scan"}, "type": "electric_scooter", "lon": -76.94634283333333, "name": "95a7880ac2f5ff99a95f769b24cdd011", "bike_id": "95a7880ac2f5ff99a95f769b24cdd011", "fusion_lat": 0.0, "is_reserved": 0, "lat": 38.8985035, "fusion_lon": 0.0, "is_disabled": 0}, {"rental_uris": {"android": "https://dc.lft.to/lastmile_qr_scan", "ios": "https://dc.lft.to/lastmile_qr_scan"}, "type": "electric_scooter", "lon": -77.03085833333333, "name": "6a9da1705c9c80fb4f31d97c2919a891", "bike_id": "6a9da1705c9c80fb4f31d97c2919a891", "fusion_lat": 0.0, "is_reserved": 0, "lat": 38.922435166666666, "fusion_lon": 0.0, "is_disabled": 0}, {"rental_uris": {"android": "https://dc.lft.to/lastmile_qr_scan", "ios": "https://dc.lft.to/lastmile_qr_scan"}, "type": "electric_scooter", "lon": -77.06497433333334, "name": "2275b3e15255b8d7be4df3a7b5c6d41b", "bike_id": "2275b3e15255b8d7be4df3a7b5c6d41b", "fusion_lat": 0.0, "is_reserved": 0, "lat": 38.90516066666667, "fusion_lon": 0.0, "is_disabled": 0}, {"rental_uris": {"android": "https://dc.lft.to/lastmile_qr_scan", "ios": "https://dc.lft.to/lastmile_qr_scan"}, "type": "electric_scooter", "lon": -77.031341, "name": "84015c9d6bce623c8c71fb9a363e9107", "bike_id": "84015c9d6bce623c8c71fb9a363e9107", "fusion_lat": 0.0, "is_reserved": 0, "lat": 38.90454166666667, "fusion_lon": 0.0, "is_disabled": 0}, {"rental_uris": {"android": "https://dc.lft.to/lastmile_qr_scan", "ios": "https://dc.lft.to/lastmile_qr_scan"}, "type": "electric_scooter", "lon": -76.94724833333333, "name": "d4da47fbe89170ac9a23e41ef952c303", "bike_id": "d4da47fbe89170ac9a23e41ef952c303", "fusion_lat": 0.0, "is_reserved": 0, "lat": 38.89739333333333, "fusion_lon": 0.0, "is_disabled": 0}, {"rental_uris": {"android": "https://dc.lft.to/lastmile_qr_scan", "ios": "https://dc.lft.to/lastmile_qr_scan"}, "type": "electric_scooter", "lon": -77.05919516666667, "name": "790ea7ea1ebd37aaa5a0d35982e1cdbf", "bike_id": "790ea7ea1ebd37aaa5a0d35982e1cdbf", "fusion_lat": 0.0, "is_reserved": 0, "lat": 38.90541366666667, "fusion_lon": 0.0, "is_disabled": 0}, {"rental_uris": {"android": "https://dc.lft.to/lastmile_qr_scan", "ios": "https://dc.lft.to/lastmile_qr_scan"}, "type": "electric_scooter", "lon": -77.02200783333333, "name": "549ffb4e8b65453c477879b4fd743c55", "bike_id": "549ffb4e8b65453c477879b4fd743c55", "fusion_lat": 0.0, "is_reserved": 0, "lat": 38.91691566666667, "fusion_lon": 0.0, "is_disabled": 0}, {"rental_uris": {"android": "https://dc.lft.to/lastmile_qr_scan", "ios": "https://dc.lft.to/lastmile_qr_scan"}, "type": "electric_scooter", "lon": -76.98122916666667, "name": "7b5c70b7e5613e94f89837f686c6d6ab", "bike_id": "7b5c70b7e5613e94f89837f686c6d6ab", "fusion_lat": 0.0, "is_reserved": 0, "lat": 38.891996666666664, "fusion_lon": 0.0, "is_disabled": 0}, {"rental_uris": {"android": "https://dc.lft.to/lastmile_qr_scan", "ios": "https://dc.lft.to/lastmile_qr_scan"}, "type": "electric_scooter", "lon": -77.01947733333333, "name": "c6a5cbc371d8a66799bb3f6972c00c56", "bike_id": "c6a5cbc371d8a66799bb3f6972c00c56", "fusion_lat": 0.0, "is_reserved": 0, "lat": 38.92253783333334, "fusion_lon": 0.0, "is_disabled": 0}, {"rental_uris": {"android": "https://dc.lft.to/lastmile_qr_scan", "ios": "https://dc.lft.to/lastmile_qr_scan"}, "type": "electric_scooter", "lon": -77.00747766666667, "name": "9685f5db82c8c86de6c3aee0f12b0852", "bike_id": "9685f5db82c8c86de6c3aee0f12b0852", "fusion_lat": 0.0, "is_reserved": 0, "lat": 38.87656783333333, "fusion_lon": 0.0, "is_disabled": 0}, {"rental_uris": {"android": "https://dc.lft.to/lastmile_qr_scan", "ios": "https://dc.lft.to/lastmile_qr_scan"}, "type": "electric_scooter", "lon": -76.95515933333333, "name": "3df23dab4334733bebf606873e8eef9c", "bike_id": "3df23dab4334733bebf606873e8eef9c", "fusion_lat": 0.0, "is_reserved": 0, "lat": 38.89057916666667, "fusion_lon": 0.0, "is_disabled": 0}, {"rental_uris": {"android": "https://dc.lft.to/lastmile_qr_scan", "ios": "https://dc.lft.to/lastmile_qr_scan"}, "type": "electric_scooter", "lon": -77.029708, "name": "8dc5ad0dc70cbbc8e65b8c0eb15b8830", "bike_id": "8dc5ad0dc70cbbc8e65b8c0eb15b8830", "fusion_lat": 0.0, "is_reserved": 0, "lat": 38.923147, "fusion_lon": 0.0, "is_disabled": 0}, {"rental_uris": {"android": "https://dc.lft.to/lastmile_qr_scan", "ios": "https://dc.lft.to/lastmile_qr_scan"}, "type": "electric_scooter", "lon": -77.0271775, "name": "0709601e5d33b9eb36ceeb73ac4c30c5", "bike_id": "0709601e5d33b9eb36ceeb73ac4c30c5", "fusion_lat": 0.0, "is_reserved": 0, "lat": 38.90671416666667, "fusion_lon": 0.0, "is_disabled": 0}, {"rental_uris": {"android": "https://dc.lft.to/lastmile_qr_scan", "ios": "https://dc.lft.to/lastmile_qr_scan"}, "type": "electric_scooter", "lon": -77.03489166666667, "name": "caa6eb485bf84bcc148a08616f4dc695", "bike_id": "caa6eb485bf84bcc148a08616f4dc695", "fusion_lat": 0.0, "is_reserved": 0, "lat": 38.93574816666667, "fusion_lon": 0.0, "is_disabled": 0}, {"rental_uris": {"android": "https://dc.lft.to/lastmile_qr_scan", "ios": "https://dc.lft.to/lastmile_qr_scan"}, "type": "electric_bike", "lon": -76.98555133333333, "name": "5a85a80f6dbc1017c2b296c0efc28850", "bike_id": "5a85a80f6dbc1017c2b296c0efc28850", "fusion_lat": 0.0, "is_reserved": 0, "lat": 38.868933166666665, "fusion_lon": 0.0, "is_disabled": 0}, {"rental_uris": {"android": "https://dc.lft.to/lastmile_qr_scan", "ios": "https://dc.lft.to/lastmile_qr_scan"}, "type": "electric_scooter", "lon": -77.04675183333333, "name": "6b6edab52cdfe7d1ab77aee62f9678df", "bike_id": "6b6edab52cdfe7d1ab77aee62f9678df", "fusion_lat": 0.0, "is_reserved": 0, "lat": 38.90845983333333, "fusion_lon": 0.0, "is_disabled": 0}, {"rental_uris": {"android": "https://dc.lft.to/lastmile_qr_scan", "ios": "https://dc.lft.to/lastmile_qr_scan"}, "type": "electric_bike", "lon": -77.064753, "name": "44f6582cf28d31d9a5bafad27d788992", "bike_id": "44f6582cf28d31d9a5bafad27d788992", "fusion_lat": 0.0, "is_reserved": 0, "lat": 38.9738585, "fusion_lon": 0.0, "is_disabled": 0}, {"rental_uris": {"android": "https://dc.lft.to/lastmile_qr_scan", "ios": "https://dc.lft.to/lastmile_qr_scan"}, "type": "electric_bike", "lon": -77.025888, "name": "2caf29b6ebf424dee5e2e5404dbea919", "bike_id": "2caf29b6ebf424dee5e2e5404dbea919", "fusion_lat": 0.0, "is_reserved": 0, "lat": 38.98235, "fusion_lon": 0.0, "is_disabled": 0}, {"rental_uris": {"android": "https://dc.lft.to/lastmile_qr_scan", "ios": "https://dc.lft.to/lastmile_qr_scan"}, "type": "electric_scooter", "lon": -77.04230283333334, "name": "87572a22a87de9ec93226bab576e454b", "bike_id": "87572a22a87de9ec93226bab576e454b", "fusion_lat": 0.0, "is_reserved": 0, "lat": 38.911090333333334, "fusion_lon": 0.0, "is_disabled": 0}, {"rental_uris": {"android": "https://dc.lft.to/lastmile_qr_scan", "ios": "https://dc.lft.to/lastmile_qr_scan"}, "type": "electric_scooter", "lon": -77.03337483333334, "name": "2d8df2e60c423a35104af98dce780d58", "bike_id": "2d8df2e60c423a35104af98dce780d58", "fusion_lat": 0.0, "is_reserved": 0, "lat": 38.903749833333336, "fusion_lon": 0.0, "is_disabled": 0}, {"rental_uris": {"android": "https://dc.lft.to/lastmile_qr_scan", "ios": "https://dc.lft.to/lastmile_qr_scan"}, "type": "electric_scooter", "lon": -76.9916975, "name": "9d6483f3a4beb446e53ee19369fb7ac6", "bike_id": "9d6483f3a4beb446e53ee19369fb7ac6", "fusion_lat": 0.0, "is_reserved": 0, "lat": 38.87925516666667, "fusion_lon": 0.0, "is_disabled": 0}, {"rental_uris": {"android": "https://dc.lft.to/lastmile_qr_scan", "ios": "https://dc.lft.to/lastmile_qr_scan"}, "type": "electric_scooter", "lon": -77.01202933333333, "name": "bae1e36c86997bd4f1b6f21dd3c9fcce", "bike_id": "bae1e36c86997bd4f1b6f21dd3c9fcce", "fusion_lat": 0.0, "is_reserved": 0, "lat": 38.9067175, "fusion_lon": 0.0, "is_disabled": 0}, {"rental_uris": {"android": "https://dc.lft.to/lastmile_qr_scan", "ios": "https://dc.lft.to/lastmile_qr_scan"}, "type": "electric_scooter", "lon": -76.99610766666666, "name": "c42b94b39050b22df56a7848cfa060dc", "bike_id": "c42b94b39050b22df56a7848cfa060dc", "fusion_lat": 0.0, "is_reserved": 0, "lat": 38.926179833333336, "fusion_lon": 0.0, "is_disabled": 0}, {"rental_uris": {"android": "https://dc.lft.to/lastmile_qr_scan", "ios": "https://dc.lft.to/lastmile_qr_scan"}, "type": "electric_scooter", "lon": -76.9914255, "name": "6fc2566f7798395456efbe2977dfdb8c", "bike_id": "6fc2566f7798395456efbe2977dfdb8c", "fusion_lat": 0.0, "is_reserved": 0, "lat": 38.882275666666665, "fusion_lon": 0.0, "is_disabled": 0}, {"rental_uris": {"android": "https://dc.lft.to/lastmile_qr_scan", "ios": "https://dc.lft.to/lastmile_qr_scan"}, "type": "electric_scooter", "lon": -77.0105435, "name": "3528e9578052da581bfe54642223b870", "bike_id": "3528e9578052da581bfe54642223b870", "fusion_lat": 0.0, "is_reserved": 0, "lat": 38.92992533333334, "fusion_lon": 0.0, "is_disabled": 0}, {"rental_uris": {"android": "https://dc.lft.to/lastmile_qr_scan", "ios": "https://dc.lft.to/lastmile_qr_scan"}, "type": "electric_scooter", "lon": -77.03831966666667, "name": "b12fc2d697032b26a7ff8a48d2a3ea51", "bike_id": "b12fc2d697032b26a7ff8a48d2a3ea51", "fusion_lat": 0.0, "is_reserved": 0, "lat": 38.91570083333333, "fusion_lon": 0.0, "is_disabled": 0}, {"rental_uris": {"android": "https://dc.lft.to/lastmile_qr_scan", "ios": "https://dc.lft.to/lastmile_qr_scan"}, "type": "electric_scooter", "lon": -77.043172, "name": "c8dab374c5c24f08a96ebe6222e5bfec", "bike_id": "c8dab374c5c24f08a96ebe6222e5bfec", "fusion_lat": 0.0, "is_reserved": 0, "lat": 38.892269166666665, "fusion_lon": 0.0, "is_disabled": 0}, {"rental_uris": {"android": "https://dc.lft.to/lastmile_qr_scan", "ios": "https://dc.lft.to/lastmile_qr_scan"}, "type": "electric_scooter", "lon": -77.04709083333333, "name": "6fddf5ff3623753eef4c7d219e3b8cb3", "bike_id": "6fddf5ff3623753eef4c7d219e3b8cb3", "fusion_lat": 0.0, "is_reserved": 0, "lat": 38.91271033333334, "fusion_lon": 0.0, "is_disabled": 0}, {"rental_uris": {"android": "https://dc.lft.to/lastmile_qr_scan", "ios": "https://dc.lft.to/lastmile_qr_scan"}, "type": "electric_scooter", "lon": -77.0258395, "name": "e5651316c72f9cd27633e6c0ebdc914c", "bike_id": "e5651316c72f9cd27633e6c0ebdc914c", "fusion_lat": 0.0, "is_reserved": 0, "lat": 38.90494666666667, "fusion_lon": 0.0, "is_disabled": 0}, {"rental_uris": {"android": "https://dc.lft.to/lastmile_qr_scan", "ios": "https://dc.lft.to/lastmile_qr_scan"}, "type": "electric_bike", "lon": -77.02426133333333, "name": "795a25851659b8a0e6288a39460809d4", "bike_id": "795a25851659b8a0e6288a39460809d4", "fusion_lat": 0.0, "is_reserved": 0, "lat": 38.92605416666667, "fusion_lon": 0.0, "is_disabled": 0}, {"rental_uris": {"android": "https://dc.lft.to/lastmile_qr_scan", "ios": "https://dc.lft.to/lastmile_qr_scan"}, "type": "electric_scooter", "lon": -77.09198016666667, "name": "57338ee852003d8e639a34d0d418cff4", "bike_id": "57338ee852003d8e639a34d0d418cff4", "fusion_lat": 0.0, "is_reserved": 0, "lat": 38.91708083333333, "fusion_lon": 0.0, "is_disabled": 0}, {"rental_uris": {"android": "https://dc.lft.to/lastmile_qr_scan", "ios": "https://dc.lft.to/lastmile_qr_scan"}, "type": "electric_scooter", "lon": -77.03201216666666, "name": "8e14d60b5326b609af44dbc33d094aa3", "bike_id": "8e14d60b5326b609af44dbc33d094aa3", "fusion_lat": 0.0, "is_reserved": 0, "lat": 38.90918933333333, "fusion_lon": 0.0, "is_disabled": 0}, {"rental_uris": {"android": "https://dc.lft.to/lastmile_qr_scan", "ios": "https://dc.lft.to/lastmile_qr_scan"}, "type": "electric_scooter", "lon": -77.02427366666667, "name": "ac500fed7ec4897fe78083bcfabd0df2", "bike_id": "ac500fed7ec4897fe78083bcfabd0df2", "fusion_lat": 0.0, "is_reserved": 0, "lat": 38.927549, "fusion_lon": 0.0, "is_disabled": 0}, {"rental_uris": {"android": "https://dc.lft.to/lastmile_qr_scan", "ios": "https://dc.lft.to/lastmile_qr_scan"}, "type": "electric_scooter", "lon": -77.02759616666667, "name": "394ec110e27facf553f47b5e10c1fe6d", "bike_id": "394ec110e27facf553f47b5e10c1fe6d", "fusion_lat": 0.0, "is_reserved": 0, "lat": 38.923907666666665, "fusion_lon": 0.0, "is_disabled": 0}, {"rental_uris": {"android": "https://dc.lft.to/lastmile_qr_scan", "ios": "https://dc.lft.to/lastmile_qr_scan"}, "type": "electric_scooter", "lon": -77.05628066666667, "name": "d4471e4ab96d9fb692aaf575b5aa9855", "bike_id": "d4471e4ab96d9fb692aaf575b5aa9855", "fusion_lat": 0.0, "is_reserved": 0, "lat": 38.9241835, "fusion_lon": 0.0, "is_disabled": 0}, {"rental_uris": {"android": "https://dc.lft.to/lastmile_qr_scan", "ios": "https://dc.lft.to/lastmile_qr_scan"}, "type": "electric_scooter", "lon": -77.00449133333333, "name": "27b582e096ba184c90540a6f46683f17", "bike_id": "27b582e096ba184c90540a6f46683f17", "fusion_lat": 0.0, "is_reserved": 0, "lat": 38.92899883333333, "fusion_lon": 0.0, "is_disabled": 0}, {"rental_uris": {"android": "https://dc.lft.to/lastmile_qr_scan", "ios": "https://dc.lft.to/lastmile_qr_scan"}, "type": "electric_scooter", "lon": -77.04985166666667, "name": "09677c00d70374bfcdd9a267bc79b1e3", "bike_id": "09677c00d70374bfcdd9a267bc79b1e3", "fusion_lat": 0.0, "is_reserved": 0, "lat": 38.90087916666667, "fusion_lon": 0.0, "is_disabled": 0}, {"rental_uris": {"android": "https://dc.lft.to/lastmile_qr_scan", "ios": "https://dc.lft.to/lastmile_qr_scan"}, "type": "electric_scooter", "lon": -77.039547, "name": "a50e95060bb20a68b76f0baefa0af545", "bike_id": "a50e95060bb20a68b76f0baefa0af545", "fusion_lat": 0.0, "is_reserved": 0, "lat": 38.9042245, "fusion_lon": 0.0, "is_disabled": 0}, {"rental_uris": {"android": "https://dc.lft.to/lastmile_qr_scan", "ios": "https://dc.lft.to/lastmile_qr_scan"}, "type": "electric_scooter", "lon": -77.022326, "name": "671b3ff9dd2bba9e996b1ee8ab82517c", "bike_id": "671b3ff9dd2bba9e996b1ee8ab82517c", "fusion_lat": 0.0, "is_reserved": 0, "lat": 38.91358866666667, "fusion_lon": 0.0, "is_disabled": 0}, {"rental_uris": {"android": "https://dc.lft.to/lastmile_qr_scan", "ios": "https://dc.lft.to/lastmile_qr_scan"}, "type": "electric_scooter", "lon": -77.02717883333334, "name": "acdc465bfa0774826fbfb1241a48834e", "bike_id": "acdc465bfa0774826fbfb1241a48834e", "fusion_lat": 0.0, "is_reserved": 0, "lat": 38.934015333333335, "fusion_lon": 0.0, "is_disabled": 0}, {"rental_uris": {"android": "https://dc.lft.to/lastmile_qr_scan", "ios": "https://dc.lft.to/lastmile_qr_scan"}, "type": "electric_scooter", "lon": -77.046567, "name": "cd3ee08218d0cd6a5c3598818b1219d2", "bike_id": "cd3ee08218d0cd6a5c3598818b1219d2", "fusion_lat": 0.0, "is_reserved": 0, "lat": 38.90502333333333, "fusion_lon": 0.0, "is_disabled": 0}, {"rental_uris": {"android": "https://dc.lft.to/lastmile_qr_scan", "ios": "https://dc.lft.to/lastmile_qr_scan"}, "type": "electric_bike", "lon": -77.00595466666667, "name": "7762b7221f5859ebb825cc004af5afcb", "bike_id": "7762b7221f5859ebb825cc004af5afcb", "fusion_lat": 0.0, "is_reserved": 0, "lat": 38.876361333333335, "fusion_lon": 0.0, "is_disabled": 0}, {"rental_uris": {"android": "https://dc.lft.to/lastmile_qr_scan", "ios": "https://dc.lft.to/lastmile_qr_scan"}, "type": "electric_scooter", "lon": -77.03381683333333, "name": "1a097a294be28d11589695ce7109c3cb", "bike_id": "1a097a294be28d11589695ce7109c3cb", "fusion_lat": 0.0, "is_reserved": 0, "lat": 38.921544833333336, "fusion_lon": 0.0, "is_disabled": 0}, {"rental_uris": {"android": "https://dc.lft.to/lastmile_qr_scan", "ios": "https://dc.lft.to/lastmile_qr_scan"}, "type": "electric_scooter", "lon": -77.0328375, "name": "260982d36bfc403ab717840f4856744f", "bike_id": "260982d36bfc403ab717840f4856744f", "fusion_lat": 0.0, "is_reserved": 0, "lat": 38.93990066666667, "fusion_lon": 0.0, "is_disabled": 0}, {"rental_uris": {"android": "https://dc.lft.to/lastmile_qr_scan", "ios": "https://dc.lft.to/lastmile_qr_scan"}, "type": "electric_scooter", "lon": -77.04318183333334, "name": "c3265acb9cb824145749fb82647846e3", "bike_id": "c3265acb9cb824145749fb82647846e3", "fusion_lat": 0.0, "is_reserved": 0, "lat": 38.89225916666667, "fusion_lon": 0.0, "is_disabled": 0}, {"rental_uris": {"android": "https://dc.lft.to/lastmile_qr_scan", "ios": "https://dc.lft.to/lastmile_qr_scan"}, "type": "electric_scooter", "lon": -77.03763666666667, "name": "dd03a4e7ebe76244779a4c370fd0a7c6", "bike_id": "dd03a4e7ebe76244779a4c370fd0a7c6", "fusion_lat": 0.0, "is_reserved": 0, "lat": 38.90684433333333, "fusion_lon": 0.0, "is_disabled": 0}, {"rental_uris": {"android": "https://dc.lft.to/lastmile_qr_scan", "ios": "https://dc.lft.to/lastmile_qr_scan"}, "type": "electric_bike", "lon": -77.00507516666667, "name": "2a4a2bc00cbe09ad85cc573d0969a957", "bike_id": "2a4a2bc00cbe09ad85cc573d0969a957", "fusion_lat": 0.0, "is_reserved": 0, "lat": 38.87535183333333, "fusion_lon": 0.0, "is_disabled": 0}, {"rental_uris": {"android": "https://dc.lft.to/lastmile_qr_scan", "ios": "https://dc.lft.to/lastmile_qr_scan"}, "type": "electric_scooter", "lon": -76.9960915, "name": "d27277965781505e1509693c61b302dd", "bike_id": "d27277965781505e1509693c61b302dd", "fusion_lat": 0.0, "is_reserved": 0, "lat": 38.897642833333336, "fusion_lon": 0.0, "is_disabled": 0}, {"rental_uris": {"android": "https://dc.lft.to/lastmile_qr_scan", "ios": "https://dc.lft.to/lastmile_qr_scan"}, "type": "electric_scooter", "lon": -77.0688745, "name": "8c48d0583ab715108bac954e25dbec5e", "bike_id": "8c48d0583ab715108bac954e25dbec5e", "fusion_lat": 0.0, "is_reserved": 0, "lat": 38.90517, "fusion_lon": 0.0, "is_disabled": 0}, {"rental_uris": {"android": "https://dc.lft.to/lastmile_qr_scan", "ios": "https://dc.lft.to/lastmile_qr_scan"}, "type": "electric_scooter", "lon": -77.01837816666666, "name": "fa365a4887b141fbb51b3634ff5d79ff", "bike_id": "fa365a4887b141fbb51b3634ff5d79ff", "fusion_lat": 0.0, "is_reserved": 0, "lat": 38.90959616666667, "fusion_lon": 0.0, "is_disabled": 0}, {"rental_uris": {"android": "https://dc.lft.to/lastmile_qr_scan", "ios": "https://dc.lft.to/lastmile_qr_scan"}, "type": "electric_scooter", "lon": -77.02167866666667, "name": "78efae7677d994d525e9f726e6983ec0", "bike_id": "78efae7677d994d525e9f726e6983ec0", "fusion_lat": 0.0, "is_reserved": 0, "lat": 38.88747383333333, "fusion_lon": 0.0, "is_disabled": 0}, {"rental_uris": {"android": "https://dc.lft.to/lastmile_qr_scan", "ios": "https://dc.lft.to/lastmile_qr_scan"}, "type": "electric_scooter", "lon": -77.02197566666666, "name": "9ef5e42320c2c571296433881cce8640", "bike_id": "9ef5e42320c2c571296433881cce8640", "fusion_lat": 0.0, "is_reserved": 0, "lat": 38.896141166666666, "fusion_lon": 0.0, "is_disabled": 0}, {"rental_uris": {"android": "https://dc.lft.to/lastmile_qr_scan", "ios": "https://dc.lft.to/lastmile_qr_scan"}, "type": "electric_scooter", "lon": -77.03076033333333, "name": "5792f98cf5ed71e4b6681ee4ca5a6b92", "bike_id": "5792f98cf5ed71e4b6681ee4ca5a6b92", "fusion_lat": 0.0, "is_reserved": 0, "lat": 38.92721483333333, "fusion_lon": 0.0, "is_disabled": 0}, {"rental_uris": {"android": "https://dc.lft.to/lastmile_qr_scan", "ios": "https://dc.lft.to/lastmile_qr_scan"}, "type": "electric_scooter", "lon": -77.023784, "name": "e3cc2bd5c02c8ec88a5b54f4063d5528", "bike_id": "e3cc2bd5c02c8ec88a5b54f4063d5528", "fusion_lat": 0.0, "is_reserved": 0, "lat": 38.90714233333333, "fusion_lon": 0.0, "is_disabled": 0}, {"rental_uris": {"android": "https://dc.lft.to/lastmile_qr_scan", "ios": "https://dc.lft.to/lastmile_qr_scan"}, "type": "electric_bike", "lon": -76.94570983333334, "name": "28fd93cbc4e37f0687427896fc7cae81", "bike_id": "28fd93cbc4e37f0687427896fc7cae81", "fusion_lat": 0.0, "is_reserved": 0, "lat": 38.86626016666666, "fusion_lon": 0.0, "is_disabled": 0}, {"rental_uris": {"android": "https://dc.lft.to/lastmile_qr_scan", "ios": "https://dc.lft.to/lastmile_qr_scan"}, "type": "electric_scooter", "lon": -76.9968215, "name": "db055997c71577a21f72591707cde02f", "bike_id": "db055997c71577a21f72591707cde02f", "fusion_lat": 0.0, "is_reserved": 0, "lat": 38.887056666666666, "fusion_lon": 0.0, "is_disabled": 0}, {"rental_uris": {"android": "https://dc.lft.to/lastmile_qr_scan", "ios": "https://dc.lft.to/lastmile_qr_scan"}, "type": "electric_scooter", "lon": -77.03847933333333, "name": "e3016b61cb8895a109a2ba2e3bfb9fa5", "bike_id": "e3016b61cb8895a109a2ba2e3bfb9fa5", "fusion_lat": 0.0, "is_reserved": 0, "lat": 38.9154395, "fusion_lon": 0.0, "is_disabled": 0}, {"rental_uris": {"android": "https://dc.lft.to/lastmile_qr_scan", "ios": "https://dc.lft.to/lastmile_qr_scan"}, "type": "electric_scooter", "lon": -77.02092066666667, "name": "64f88e9c3fb5f90111b749efb6611621", "bike_id": "64f88e9c3fb5f90111b749efb6611621", "fusion_lat": 0.0, "is_reserved": 0, "lat": 38.911102, "fusion_lon": 0.0, "is_disabled": 0}, {"rental_uris": {"android": "https://dc.lft.to/lastmile_qr_scan", "ios": "https://dc.lft.to/lastmile_qr_scan"}, "type": "electric_scooter", "lon": -77.02170183333334, "name": "b317c676549962324a71b849b27e88c5", "bike_id": "b317c676549962324a71b849b27e88c5", "fusion_lat": 0.0, "is_reserved": 0, "lat": 38.94296583333333, "fusion_lon": 0.0, "is_disabled": 0}, {"rental_uris": {"android": "https://dc.lft.to/lastmile_qr_scan", "ios": "https://dc.lft.to/lastmile_qr_scan"}, "type": "electric_scooter", "lon": -77.005818, "name": "4fef3565164578adb90ced347448af07", "bike_id": "4fef3565164578adb90ced347448af07", "fusion_lat": 0.0, "is_reserved": 0, "lat": 38.876384, "fusion_lon": 0.0, "is_disabled": 0}, {"rental_uris": {"android": "https://dc.lft.to/lastmile_qr_scan", "ios": "https://dc.lft.to/lastmile_qr_scan"}, "type": "electric_scooter", "lon": -76.99378166666666, "name": "dfe21692b29ba427387d345692cc984d", "bike_id": "dfe21692b29ba427387d345692cc984d", "fusion_lat": 0.0, "is_reserved": 0, "lat": 38.886947, "fusion_lon": 0.0, "is_disabled": 0}, {"rental_uris": {"android": "https://dc.lft.to/lastmile_qr_scan", "ios": "https://dc.lft.to/lastmile_qr_scan"}, "type": "electric_scooter", "lon": -76.99482716666667, "name": "6645bf9942a7337baeb04ed90a5b86a8", "bike_id": "6645bf9942a7337baeb04ed90a5b86a8", "fusion_lat": 0.0, "is_reserved": 0, "lat": 38.900967333333334, "fusion_lon": 0.0, "is_disabled": 0}, {"rental_uris": {"android": "https://dc.lft.to/lastmile_qr_scan", "ios": "https://dc.lft.to/lastmile_qr_scan"}, "type": "electric_scooter", "lon": -77.04000483333333, "name": "539fda04cb0b82b8379f059387b72dd8", "bike_id": "539fda04cb0b82b8379f059387b72dd8", "fusion_lat": 0.0, "is_reserved": 0, "lat": 38.9026725, "fusion_lon": 0.0, "is_disabled": 0}, {"rental_uris": {"android": "https://dc.lft.to/lastmile_qr_scan", "ios": "https://dc.lft.to/lastmile_qr_scan"}, "type": "electric_bike", "lon": -77.13230216666666, "name": "9228a28659e96dbf91c3592148905743", "bike_id": "9228a28659e96dbf91c3592148905743", "fusion_lat": 0.0, "is_reserved": 0, "lat": 38.8697735, "fusion_lon": 0.0, "is_disabled": 0}, {"rental_uris": {"android": "https://dc.lft.to/lastmile_qr_scan", "ios": "https://dc.lft.to/lastmile_qr_scan"}, "type": "electric_scooter", "lon": -77.06820883333333, "name": "bf933a6dd2a205c2b89072f97ad19baa", "bike_id": "bf933a6dd2a205c2b89072f97ad19baa", "fusion_lat": 0.0, "is_reserved": 0, "lat": 38.91646566666667, "fusion_lon": 0.0, "is_disabled": 0}, {"rental_uris": {"android": "https://dc.lft.to/lastmile_qr_scan", "ios": "https://dc.lft.to/lastmile_qr_scan"}, "type": "electric_scooter", "lon": -77.05792516666666, "name": "9625002d44deb44525b3ec4758493dc4", "bike_id": "9625002d44deb44525b3ec4758493dc4", "fusion_lat": 0.0, "is_reserved": 0, "lat": 38.90372466666667, "fusion_lon": 0.0, "is_disabled": 0}, {"rental_uris": {"android": "https://dc.lft.to/lastmile_qr_scan", "ios": "https://dc.lft.to/lastmile_qr_scan"}, "type": "electric_scooter", "lon": -77.02598483333334, "name": "1d0d398934857561b8b4caa7812ea480", "bike_id": "1d0d398934857561b8b4caa7812ea480", "fusion_lat": 0.0, "is_reserved": 0, "lat": 38.90022366666667, "fusion_lon": 0.0, "is_disabled": 0}, {"rental_uris": {"android": "https://dc.lft.to/lastmile_qr_scan", "ios": "https://dc.lft.to/lastmile_qr_scan"}, "type": "electric_scooter", "lon": -77.05143933333333, "name": "f1220532a6524e583bd7bbb7505f0c39", "bike_id": "f1220532a6524e583bd7bbb7505f0c39", "fusion_lat": 0.0, "is_reserved": 0, "lat": 38.90803616666667, "fusion_lon": 0.0, "is_disabled": 0}, {"rental_uris": {"android": "https://dc.lft.to/lastmile_qr_scan", "ios": "https://dc.lft.to/lastmile_qr_scan"}, "type": "electric_scooter", "lon": -77.05295566666666, "name": "2a8a8ec6b8b17dc5aebc0c83d6d8aa0b", "bike_id": "2a8a8ec6b8b17dc5aebc0c83d6d8aa0b", "fusion_lat": 0.0, "is_reserved": 0, "lat": 38.92781216666667, "fusion_lon": 0.0, "is_disabled": 0}, {"rental_uris": {"android": "https://dc.lft.to/lastmile_qr_scan", "ios": "https://dc.lft.to/lastmile_qr_scan"}, "type": "electric_scooter", "lon": -77.0388965, "name": "c3259f937cd27aea0829cf226333c7c7", "bike_id": "c3259f937cd27aea0829cf226333c7c7", "fusion_lat": 0.0, "is_reserved": 0, "lat": 38.9223495, "fusion_lon": 0.0, "is_disabled": 0}, {"rental_uris": {"android": "https://dc.lft.to/lastmile_qr_scan", "ios": "https://dc.lft.to/lastmile_qr_scan"}, "type": "electric_scooter", "lon": -77.02851883333334, "name": "15f7d35cd79842f8692db7a1d12026d5", "bike_id": "15f7d35cd79842f8692db7a1d12026d5", "fusion_lat": 0.0, "is_reserved": 0, "lat": 38.922232, "fusion_lon": 0.0, "is_disabled": 0}, {"rental_uris": {"android": "https://dc.lft.to/lastmile_qr_scan", "ios": "https://dc.lft.to/lastmile_qr_scan"}, "type": "electric_scooter", "lon": -77.03261616666667, "name": "1a418c9a92ba583fef008c3097eba836", "bike_id": "1a418c9a92ba583fef008c3097eba836", "fusion_lat": 0.0, "is_reserved": 0, "lat": 38.93667633333333, "fusion_lon": 0.0, "is_disabled": 0}, {"rental_uris": {"android": "https://dc.lft.to/lastmile_qr_scan", "ios": "https://dc.lft.to/lastmile_qr_scan"}, "type": "electric_scooter", "lon": -77.00220833333333, "name": "df25fa59707a05c35333d16a6e0e336c", "bike_id": "df25fa59707a05c35333d16a6e0e336c", "fusion_lat": 0.0, "is_reserved": 0, "lat": 38.908325833333336, "fusion_lon": 0.0, "is_disabled": 0}, {"rental_uris": {"android": "https://dc.lft.to/lastmile_qr_scan", "ios": "https://dc.lft.to/lastmile_qr_scan"}, "type": "electric_scooter", "lon": -76.9482085, "name": "c58deedfad3c599123243ce70de53519", "bike_id": "c58deedfad3c599123243ce70de53519", "fusion_lat": 0.0, "is_reserved": 0, "lat": 38.89345633333333, "fusion_lon": 0.0, "is_disabled": 0}, {"rental_uris": {"android": "https://dc.lft.to/lastmile_qr_scan", "ios": "https://dc.lft.to/lastmile_qr_scan"}, "type": "electric_scooter", "lon": -76.9343215, "name": "c7b1234b3108457879b63f2a9f8e87de", "bike_id": "c7b1234b3108457879b63f2a9f8e87de", "fusion_lat": 0.0, "is_reserved": 0, "lat": 38.89966316666667, "fusion_lon": 0.0, "is_disabled": 0}, {"rental_uris": {"android": "https://dc.lft.to/lastmile_qr_scan", "ios": "https://dc.lft.to/lastmile_qr_scan"}, "type": "electric_bike", "lon": -76.97903966666667, "name": "3cdeff4849139ea09429a4efcc1e06ba", "bike_id": "3cdeff4849139ea09429a4efcc1e06ba", "fusion_lat": 0.0, "is_reserved": 0, "lat": 38.888363166666664, "fusion_lon": 0.0, "is_disabled": 0}, {"rental_uris": {"android": "https://dc.lft.to/lastmile_qr_scan", "ios": "https://dc.lft.to/lastmile_qr_scan"}, "type": "electric_scooter", "lon": -76.990016, "name": "4a854fa6b714b2fc926e401407f12c89", "bike_id": "4a854fa6b714b2fc926e401407f12c89", "fusion_lat": 0.0, "is_reserved": 0, "lat": 38.86508366666666, "fusion_lon": 0.0, "is_disabled": 0}, {"rental_uris": {"android": "https://dc.lft.to/lastmile_qr_scan", "ios": "https://dc.lft.to/lastmile_qr_scan"}, "type": "electric_scooter", "lon": -77.01770416666666, "name": "b3fc80645c28d89b88e914ade6e6ad10", "bike_id": "b3fc80645c28d89b88e914ade6e6ad10", "fusion_lat": 0.0, "is_reserved": 0, "lat": 38.8729555, "fusion_lon": 0.0, "is_disabled": 0}, {"rental_uris": {"android": "https://dc.lft.to/lastmile_qr_scan", "ios": "https://dc.lft.to/lastmile_qr_scan"}, "type": "electric_scooter", "lon": -77.0113745, "name": "d73fbecd711fc4a776bcb384afc221ec", "bike_id": "d73fbecd711fc4a776bcb384afc221ec", "fusion_lat": 0.0, "is_reserved": 0, "lat": 38.90734633333334, "fusion_lon": 0.0, "is_disabled": 0}, {"rental_uris": {"android": "https://dc.lft.to/lastmile_qr_scan", "ios": "https://dc.lft.to/lastmile_qr_scan"}, "type": "electric_scooter", "lon": -77.02782666666667, "name": "18e4dcb0490fdd306461f440ef928cc9", "bike_id": "18e4dcb0490fdd306461f440ef928cc9", "fusion_lat": 0.0, "is_reserved": 0, "lat": 38.8963305, "fusion_lon": 0.0, "is_disabled": 0}, {"rental_uris": {"android": "https://dc.lft.to/lastmile_qr_scan", "ios": "https://dc.lft.to/lastmile_qr_scan"}, "type": "electric_scooter", "lon": -77.03156333333334, "name": "84de8e16a84f7b138ca4fbaa819d2a80", "bike_id": "84de8e16a84f7b138ca4fbaa819d2a80", "fusion_lat": 0.0, "is_reserved": 0, "lat": 38.928101833333336, "fusion_lon": 0.0, "is_disabled": 0}, {"rental_uris": {"android": "https://dc.lft.to/lastmile_qr_scan", "ios": "https://dc.lft.to/lastmile_qr_scan"}, "type": "electric_bike", "lon": -76.98751033333333, "name": "59e7f8a6c5d6c701617c335318ebbd4a", "bike_id": "59e7f8a6c5d6c701617c335318ebbd4a", "fusion_lat": 0.0, "is_reserved": 0, "lat": 38.988238333333335, "fusion_lon": 0.0, "is_disabled": 0}, {"rental_uris": {"android": "https://dc.lft.to/lastmile_qr_scan", "ios": "https://dc.lft.to/lastmile_qr_scan"}, "type": "electric_scooter", "lon": -77.0465165, "name": "fda6adb38a35f0552426a5e0c1616319", "bike_id": "fda6adb38a35f0552426a5e0c1616319", "fusion_lat": 0.0, "is_reserved": 0, "lat": 38.89246466666667, "fusion_lon": 0.0, "is_disabled": 0}, {"rental_uris": {"android": "https://dc.lft.to/lastmile_qr_scan", "ios": "https://dc.lft.to/lastmile_qr_scan"}, "type": "electric_bike", "lon": -76.9388665, "name": "351ff5c4a0125ae97f71baf1e243aa7b", "bike_id": "351ff5c4a0125ae97f71baf1e243aa7b", "fusion_lat": 0.0, "is_reserved": 0, "lat": 38.95632533333333, "fusion_lon": 0.0, "is_disabled": 0}, {"rental_uris": {"android": "https://dc.lft.to/lastmile_qr_scan", "ios": "https://dc.lft.to/lastmile_qr_scan"}, "type": "electric_scooter", "lon": -76.9962805, "name": "566ac7dd65a7975ca164fb2043059196", "bike_id": "566ac7dd65a7975ca164fb2043059196", "fusion_lat": 0.0, "is_reserved": 0, "lat": 38.846205499999996, "fusion_lon": 0.0, "is_disabled": 0}, {"rental_uris": {"android": "https://dc.lft.to/lastmile_qr_scan", "ios": "https://dc.lft.to/lastmile_qr_scan"}, "type": "electric_scooter", "lon": -77.02296866666667, "name": "465eb416e8eec5b1d6f0e95a370ce86b", "bike_id": "465eb416e8eec5b1d6f0e95a370ce86b", "fusion_lat": 0.0, "is_reserved": 0, "lat": 38.9177235, "fusion_lon": 0.0, "is_disabled": 0}, {"rental_uris": {"android": "https://dc.lft.to/lastmile_qr_scan", "ios": "https://dc.lft.to/lastmile_qr_scan"}, "type": "electric_scooter", "lon": -77.01137, "name": "2bdb4639e401eaa39c36ccc790f19a5a", "bike_id": "2bdb4639e401eaa39c36ccc790f19a5a", "fusion_lat": 0.0, "is_reserved": 0, "lat": 38.90646816666667, "fusion_lon": 0.0, "is_disabled": 0}, {"rental_uris": {"android": "https://dc.lft.to/lastmile_qr_scan", "ios": "https://dc.lft.to/lastmile_qr_scan"}, "type": "electric_scooter", "lon": -76.93463083333333, "name": "d3327327fc1de60f804c59c453784bff", "bike_id": "d3327327fc1de60f804c59c453784bff", "fusion_lat": 0.0, "is_reserved": 0, "lat": 38.90187366666667, "fusion_lon": 0.0, "is_disabled": 0}, {"rental_uris": {"android": "https://dc.lft.to/lastmile_qr_scan", "ios": "https://dc.lft.to/lastmile_qr_scan"}, "type": "electric_scooter", "lon": -77.01934016666667, "name": "382d6deeecbefeb205f62c2b807371d3", "bike_id": "382d6deeecbefeb205f62c2b807371d3", "fusion_lat": 0.0, "is_reserved": 0, "lat": 38.924163166666666, "fusion_lon": 0.0, "is_disabled": 0}, {"rental_uris": {"android": "https://dc.lft.to/lastmile_qr_scan", "ios": "https://dc.lft.to/lastmile_qr_scan"}, "type": "electric_scooter", "lon": -76.997841, "name": "6059bb19071a67802a40ad19b7b9962a", "bike_id": "6059bb19071a67802a40ad19b7b9962a", "fusion_lat": 0.0, "is_reserved": 0, "lat": 38.84426783333333, "fusion_lon": 0.0, "is_disabled": 0}, {"rental_uris": {"android": "https://dc.lft.to/lastmile_qr_scan", "ios": "https://dc.lft.to/lastmile_qr_scan"}, "type": "electric_scooter", "lon": -77.02175833333334, "name": "c827f326b2fb50b139a35777301baabd", "bike_id": "c827f326b2fb50b139a35777301baabd", "fusion_lat": 0.0, "is_reserved": 0, "lat": 38.92017766666667, "fusion_lon": 0.0, "is_disabled": 0}, {"rental_uris": {"android": "https://dc.lft.to/lastmile_qr_scan", "ios": "https://dc.lft.to/lastmile_qr_scan"}, "type": "electric_scooter", "lon": -77.02382166666666, "name": "6958fc106ca2d8928c6f05664374ba2e", "bike_id": "6958fc106ca2d8928c6f05664374ba2e", "fusion_lat": 0.0, "is_reserved": 0, "lat": 38.919747, "fusion_lon": 0.0, "is_disabled": 0}, {"rental_uris": {"android": "https://dc.lft.to/lastmile_qr_scan", "ios": "https://dc.lft.to/lastmile_qr_scan"}, "type": "electric_scooter", "lon": -77.02303566666667, "name": "185b476f19f3fd42211bf0a398fa1a95", "bike_id": "185b476f19f3fd42211bf0a398fa1a95", "fusion_lat": 0.0, "is_reserved": 0, "lat": 38.91610683333333, "fusion_lon": 0.0, "is_disabled": 0}, {"rental_uris": {"android": "https://dc.lft.to/lastmile_qr_scan", "ios": "https://dc.lft.to/lastmile_qr_scan"}, "type": "electric_scooter", "lon": -77.02796166666667, "name": "4e1813067f7f2f6305dcb4f2fb94499c", "bike_id": "4e1813067f7f2f6305dcb4f2fb94499c", "fusion_lat": 0.0, "is_reserved": 0, "lat": 38.892428833333334, "fusion_lon": 0.0, "is_disabled": 0}, {"rental_uris": {"android": "https://dc.lft.to/lastmile_qr_scan", "ios": "https://dc.lft.to/lastmile_qr_scan"}, "type": "electric_scooter", "lon": -77.036613, "name": "9b2987d5d7c82cf624ad7a97954e1e62", "bike_id": "9b2987d5d7c82cf624ad7a97954e1e62", "fusion_lat": 0.0, "is_reserved": 0, "lat": 38.906729, "fusion_lon": 0.0, "is_disabled": 0}, {"rental_uris": {"android": "https://dc.lft.to/lastmile_qr_scan", "ios": "https://dc.lft.to/lastmile_qr_scan"}, "type": "electric_scooter", "lon": -77.00540866666667, "name": "aefb0528b0613b56a8ff045c043fd466", "bike_id": "aefb0528b0613b56a8ff045c043fd466", "fusion_lat": 0.0, "is_reserved": 0, "lat": 38.874612666666664, "fusion_lon": 0.0, "is_disabled": 0}, {"rental_uris": {"android": "https://dc.lft.to/lastmile_qr_scan", "ios": "https://dc.lft.to/lastmile_qr_scan"}, "type": "electric_scooter", "lon": -77.00266616666667, "name": "c084f07fe15d19852974ce3f04d03965", "bike_id": "c084f07fe15d19852974ce3f04d03965", "fusion_lat": 0.0, "is_reserved": 0, "lat": 38.903846333333334, "fusion_lon": 0.0, "is_disabled": 0}, {"rental_uris": {"android": "https://dc.lft.to/lastmile_qr_scan", "ios": "https://dc.lft.to/lastmile_qr_scan"}, "type": "electric_scooter", "lon": -76.98095266666667, "name": "dcdb6d53a76d55b1963a2f5704315117", "bike_id": "dcdb6d53a76d55b1963a2f5704315117", "fusion_lat": 0.0, "is_reserved": 0, "lat": 38.850665, "fusion_lon": 0.0, "is_disabled": 0}, {"rental_uris": {"android": "https://dc.lft.to/lastmile_qr_scan", "ios": "https://dc.lft.to/lastmile_qr_scan"}, "type": "electric_scooter", "lon": -77.027231, "name": "01be36c86789ac82f34ac14039dc080d", "bike_id": "01be36c86789ac82f34ac14039dc080d", "fusion_lat": 0.0, "is_reserved": 0, "lat": 38.9513455, "fusion_lon": 0.0, "is_disabled": 0}, {"rental_uris": {"android": "https://dc.lft.to/lastmile_qr_scan", "ios": "https://dc.lft.to/lastmile_qr_scan"}, "type": "electric_scooter", "lon": -77.043599, "name": "b79369875d9141ce6347502f80fe3221", "bike_id": "b79369875d9141ce6347502f80fe3221", "fusion_lat": 0.0, "is_reserved": 0, "lat": 38.8924045, "fusion_lon": 0.0, "is_disabled": 0}, {"rental_uris": {"android": "https://dc.lft.to/lastmile_qr_scan", "ios": "https://dc.lft.to/lastmile_qr_scan"}, "type": "electric_scooter", "lon": -77.01632933333333, "name": "202656264c83dcb02a22d4a816525775", "bike_id": "202656264c83dcb02a22d4a816525775", "fusion_lat": 0.0, "is_reserved": 0, "lat": 38.9035335, "fusion_lon": 0.0, "is_disabled": 0}, {"rental_uris": {"android": "https://dc.lft.to/lastmile_qr_scan", "ios": "https://dc.lft.to/lastmile_qr_scan"}, "type": "electric_bike", "lon": -77.0798905, "name": "76161bed184ab7835b158686922a89ea", "bike_id": "76161bed184ab7835b158686922a89ea", "fusion_lat": 0.0, "is_reserved": 0, "lat": 38.92256783333333, "fusion_lon": 0.0, "is_disabled": 0}, {"rental_uris": {"android": "https://dc.lft.to/lastmile_qr_scan", "ios": "https://dc.lft.to/lastmile_qr_scan"}, "type": "electric_scooter", "lon": -77.02979483333333, "name": "6842113e2e2249ea152ad10468fc14df", "bike_id": "6842113e2e2249ea152ad10468fc14df", "fusion_lat": 0.0, "is_reserved": 0, "lat": 38.96232633333333, "fusion_lon": 0.0, "is_disabled": 0}, {"rental_uris": {"android": "https://dc.lft.to/lastmile_qr_scan", "ios": "https://dc.lft.to/lastmile_qr_scan"}, "type": "electric_bike", "lon": -77.0211585, "name": "1ab6f020cd988a32ab9b37d7a208047a", "bike_id": "1ab6f020cd988a32ab9b37d7a208047a", "fusion_lat": 0.0, "is_reserved": 0, "lat": 38.936006, "fusion_lon": 0.0, "is_disabled": 0}, {"rental_uris": {"android": "https://dc.lft.to/lastmile_qr_scan", "ios": "https://dc.lft.to/lastmile_qr_scan"}, "type": "electric_bike", "lon": -77.1012655, "name": "4fa3899b4b18e1d1e14b8cfd66c37c4a", "bike_id": "4fa3899b4b18e1d1e14b8cfd66c37c4a", "fusion_lat": 0.0, "is_reserved": 0, "lat": 38.85204516666667, "fusion_lon": 0.0, "is_disabled": 0}, {"rental_uris": {"android": "https://dc.lft.to/lastmile_qr_scan", "ios": "https://dc.lft.to/lastmile_qr_scan"}, "type": "electric_scooter", "lon": -77.04393416666667, "name": "b80360c59cba613c2da1833f285992b6", "bike_id": "b80360c59cba613c2da1833f285992b6", "fusion_lat": 0.0, "is_reserved": 0, "lat": 38.92360716666666, "fusion_lon": 0.0, "is_disabled": 0}, {"rental_uris": {"android": "https://dc.lft.to/lastmile_qr_scan", "ios": "https://dc.lft.to/lastmile_qr_scan"}, "type": "electric_scooter", "lon": -77.03071616666666, "name": "187f8aa14a64e10cc546faa606290fc9", "bike_id": "187f8aa14a64e10cc546faa606290fc9", "fusion_lat": 0.0, "is_reserved": 0, "lat": 38.922454, "fusion_lon": 0.0, "is_disabled": 0}, {"rental_uris": {"android": "https://dc.lft.to/lastmile_qr_scan", "ios": "https://dc.lft.to/lastmile_qr_scan"}, "type": "electric_scooter", "lon": -77.034956, "name": "9cf79937e1a803bf731bdbf0c627903f", "bike_id": "9cf79937e1a803bf731bdbf0c627903f", "fusion_lat": 0.0, "is_reserved": 0, "lat": 38.903694333333334, "fusion_lon": 0.0, "is_disabled": 0}, {"rental_uris": {"android": "https://dc.lft.to/lastmile_qr_scan", "ios": "https://dc.lft.to/lastmile_qr_scan"}, "type": "electric_scooter", "lon": -76.994889, "name": "939b4850ac55101069322ba693af59ba", "bike_id": "939b4850ac55101069322ba693af59ba", "fusion_lat": 0.0, "is_reserved": 0, "lat": 38.862212666666665, "fusion_lon": 0.0, "is_disabled": 0}, {"rental_uris": {"android": "https://dc.lft.to/lastmile_qr_scan", "ios": "https://dc.lft.to/lastmile_qr_scan"}, "type": "electric_scooter", "lon": -77.03400016666667, "name": "6bd4570bccc68a941eecca48f31382e1", "bike_id": "6bd4570bccc68a941eecca48f31382e1", "fusion_lat": 0.0, "is_reserved": 0, "lat": 38.920434, "fusion_lon": 0.0, "is_disabled": 0}, {"rental_uris": {"android": "https://dc.lft.to/lastmile_qr_scan", "ios": "https://dc.lft.to/lastmile_qr_scan"}, "type": "electric_scooter", "lon": -77.00190083333334, "name": "4f5c80a0f0438321d95643607942016e", "bike_id": "4f5c80a0f0438321d95643607942016e", "fusion_lat": 0.0, "is_reserved": 0, "lat": 38.9038145, "fusion_lon": 0.0, "is_disabled": 0}, {"rental_uris": {"android": "https://dc.lft.to/lastmile_qr_scan", "ios": "https://dc.lft.to/lastmile_qr_scan"}, "type": "electric_scooter", "lon": -77.0093815, "name": "810efa93466620462cdb79e5411a012b", "bike_id": "810efa93466620462cdb79e5411a012b", "fusion_lat": 0.0, "is_reserved": 0, "lat": 38.87631233333333, "fusion_lon": 0.0, "is_disabled": 0}, {"rental_uris": {"android": "https://dc.lft.to/lastmile_qr_scan", "ios": "https://dc.lft.to/lastmile_qr_scan"}, "type": "electric_scooter", "lon": -77.02925366666666, "name": "5353b7e887998886f7b0bef55f3be54a", "bike_id": "5353b7e887998886f7b0bef55f3be54a", "fusion_lat": 0.0, "is_reserved": 0, "lat": 38.88221766666667, "fusion_lon": 0.0, "is_disabled": 0}, {"rental_uris": {"android": "https://dc.lft.to/lastmile_qr_scan", "ios": "https://dc.lft.to/lastmile_qr_scan"}, "type": "electric_scooter", "lon": -77.04101166666666, "name": "327d2e8bb1942b4934f590f47ba93df1", "bike_id": "327d2e8bb1942b4934f590f47ba93df1", "fusion_lat": 0.0, "is_reserved": 0, "lat": 38.92084716666667, "fusion_lon": 0.0, "is_disabled": 0}, {"rental_uris": {"android": "https://dc.lft.to/lastmile_qr_scan", "ios": "https://dc.lft.to/lastmile_qr_scan"}, "type": "electric_scooter", "lon": -76.98457216666667, "name": "6a467056506293cc14338572d58f4e4b", "bike_id": "6a467056506293cc14338572d58f4e4b", "fusion_lat": 0.0, "is_reserved": 0, "lat": 38.88012, "fusion_lon": 0.0, "is_disabled": 0}, {"rental_uris": {"android": "https://dc.lft.to/lastmile_qr_scan", "ios": "https://dc.lft.to/lastmile_qr_scan"}, "type": "electric_scooter", "lon": -77.025125, "name": "5feae442b1cbc351dc67aa61df6a5aeb", "bike_id": "5feae442b1cbc351dc67aa61df6a5aeb", "fusion_lat": 0.0, "is_reserved": 0, "lat": 38.941802, "fusion_lon": 0.0, "is_disabled": 0}, {"rental_uris": {"android": "https://dc.lft.to/lastmile_qr_scan", "ios": "https://dc.lft.to/lastmile_qr_scan"}, "type": "electric_scooter", "lon": -77.00006166666667, "name": "2e63e49bfaf3df580c4ba9a434ccf5e2", "bike_id": "2e63e49bfaf3df580c4ba9a434ccf5e2", "fusion_lat": 0.0, "is_reserved": 0, "lat": 38.9001525, "fusion_lon": 0.0, "is_disabled": 0}, {"rental_uris": {"android": "https://dc.lft.to/lastmile_qr_scan", "ios": "https://dc.lft.to/lastmile_qr_scan"}, "type": "electric_bike", "lon": -76.98165216666666, "name": "8785b6f5ab45756fc0dee10938d565c8", "bike_id": "8785b6f5ab45756fc0dee10938d565c8", "fusion_lat": 0.0, "is_reserved": 0, "lat": 38.95958616666667, "fusion_lon": 0.0, "is_disabled": 0}, {"rental_uris": {"android": "https://dc.lft.to/lastmile_qr_scan", "ios": "https://dc.lft.to/lastmile_qr_scan"}, "type": "electric_scooter", "lon": -77.01867033333333, "name": "cde4df986fb0758bf3dea2920ca7644b", "bike_id": "cde4df986fb0758bf3dea2920ca7644b", "fusion_lat": 0.0, "is_reserved": 0, "lat": 38.94892633333333, "fusion_lon": 0.0, "is_disabled": 0}, {"rental_uris": {"android": "https://dc.lft.to/lastmile_qr_scan", "ios": "https://dc.lft.to/lastmile_qr_scan"}, "type": "electric_bike", "lon": -77.0162275, "name": "e29b7fc0a251c7d222eb38b77bc8c87b", "bike_id": "e29b7fc0a251c7d222eb38b77bc8c87b", "fusion_lat": 0.0, "is_reserved": 0, "lat": 38.99090566666667, "fusion_lon": 0.0, "is_disabled": 0}, {"rental_uris": {"android": "https://dc.lft.to/lastmile_qr_scan", "ios": "https://dc.lft.to/lastmile_qr_scan"}, "type": "electric_scooter", "lon": -77.03431366666666, "name": "09fd2f1eb55b210c2db210821ab2d4f3", "bike_id": "09fd2f1eb55b210c2db210821ab2d4f3", "fusion_lat": 0.0, "is_reserved": 0, "lat": 38.9043785, "fusion_lon": 0.0, "is_disabled": 0}, {"rental_uris": {"android": "https://dc.lft.to/lastmile_qr_scan", "ios": "https://dc.lft.to/lastmile_qr_scan"}, "type": "electric_scooter", "lon": -77.02688166666667, "name": "2242800bfa79b66f9808b2bf4b5279b0", "bike_id": "2242800bfa79b66f9808b2bf4b5279b0", "fusion_lat": 0.0, "is_reserved": 0, "lat": 38.912774, "fusion_lon": 0.0, "is_disabled": 0}, {"rental_uris": {"android": "https://dc.lft.to/lastmile_qr_scan", "ios": "https://dc.lft.to/lastmile_qr_scan"}, "type": "electric_bike", "lon": -76.96685116666667, "name": "5ce0599997f978a6984210adf3a5a2d2", "bike_id": "5ce0599997f978a6984210adf3a5a2d2", "fusion_lat": 0.0, "is_reserved": 0, "lat": 38.94565333333333, "fusion_lon": 0.0, "is_disabled": 0}, {"rental_uris": {"android": "https://dc.lft.to/lastmile_qr_scan", "ios": "https://dc.lft.to/lastmile_qr_scan"}, "type": "electric_scooter", "lon": -77.04508533333333, "name": "dc926f937d75858ca6512ed78b3c21e9", "bike_id": "dc926f937d75858ca6512ed78b3c21e9", "fusion_lat": 0.0, "is_reserved": 0, "lat": 38.89223783333333, "fusion_lon": 0.0, "is_disabled": 0}, {"rental_uris": {"android": "https://dc.lft.to/lastmile_qr_scan", "ios": "https://dc.lft.to/lastmile_qr_scan"}, "type": "electric_scooter", "lon": -76.99653116666667, "name": "77c9514a50f8e7ffcf2204ff3e67c5fc", "bike_id": "77c9514a50f8e7ffcf2204ff3e67c5fc", "fusion_lat": 0.0, "is_reserved": 0, "lat": 38.89890283333333, "fusion_lon": 0.0, "is_disabled": 0}, {"rental_uris": {"android": "https://dc.lft.to/lastmile_qr_scan", "ios": "https://dc.lft.to/lastmile_qr_scan"}, "type": "electric_scooter", "lon": -77.0238425, "name": "ab05e44e829a61d436c913d9fc1f004b", "bike_id": "ab05e44e829a61d436c913d9fc1f004b", "fusion_lat": 0.0, "is_reserved": 0, "lat": 38.8990105, "fusion_lon": 0.0, "is_disabled": 0}, {"rental_uris": {"android": "https://dc.lft.to/lastmile_qr_scan", "ios": "https://dc.lft.to/lastmile_qr_scan"}, "type": "electric_scooter", "lon": -77.02701966666666, "name": "ba54628e9346b873293ebf3b485f863a", "bike_id": "ba54628e9346b873293ebf3b485f863a", "fusion_lat": 0.0, "is_reserved": 0, "lat": 38.91821866666667, "fusion_lon": 0.0, "is_disabled": 0}, {"rental_uris": {"android": "https://dc.lft.to/lastmile_qr_scan", "ios": "https://dc.lft.to/lastmile_qr_scan"}, "type": "electric_bike", "lon": -77.06977016666667, "name": "2735c76292fe946a20aa8566fb75fa6b", "bike_id": "2735c76292fe946a20aa8566fb75fa6b", "fusion_lat": 0.0, "is_reserved": 0, "lat": 38.952721833333335, "fusion_lon": 0.0, "is_disabled": 0}, {"rental_uris": {"android": "https://dc.lft.to/lastmile_qr_scan", "ios": "https://dc.lft.to/lastmile_qr_scan"}, "type": "electric_scooter", "lon": -77.0282955, "name": "7409c14d4018c1754413900369f96ab4", "bike_id": "7409c14d4018c1754413900369f96ab4", "fusion_lat": 0.0, "is_reserved": 0, "lat": 38.950871166666666, "fusion_lon": 0.0, "is_disabled": 0}, {"rental_uris": {"android": "https://dc.lft.to/lastmile_qr_scan", "ios": "https://dc.lft.to/lastmile_qr_scan"}, "type": "electric_scooter", "lon": -77.0530155, "name": "453bb3fa0b1f5dd540e9ac95d42c1362", "bike_id": "453bb3fa0b1f5dd540e9ac95d42c1362", "fusion_lat": 0.0, "is_reserved": 0, "lat": 38.916972666666666, "fusion_lon": 0.0, "is_disabled": 0}, {"rental_uris": {"android": "https://dc.lft.to/lastmile_qr_scan", "ios": "https://dc.lft.to/lastmile_qr_scan"}, "type": "electric_scooter", "lon": -77.03169166666666, "name": "e46672cc527a1cd3cf9cf95427cbce40", "bike_id": "e46672cc527a1cd3cf9cf95427cbce40", "fusion_lat": 0.0, "is_reserved": 0, "lat": 38.9181555, "fusion_lon": 0.0, "is_disabled": 0}, {"rental_uris": {"android": "https://dc.lft.to/lastmile_qr_scan", "ios": "https://dc.lft.to/lastmile_qr_scan"}, "type": "electric_scooter", "lon": -76.99854116666667, "name": "9637e51b9924d09cbc5b30e5b3b68c39", "bike_id": "9637e51b9924d09cbc5b30e5b3b68c39", "fusion_lat": 0.0, "is_reserved": 0, "lat": 38.907718333333335, "fusion_lon": 0.0, "is_disabled": 0}, {"rental_uris": {"android": "https://dc.lft.to/lastmile_qr_scan", "ios": "https://dc.lft.to/lastmile_qr_scan"}, "type": "electric_scooter", "lon": -77.01762633333334, "name": "50f91e62629cb96744d556bfaf3547a1", "bike_id": "50f91e62629cb96744d556bfaf3547a1", "fusion_lat": 0.0, "is_reserved": 0, "lat": 38.87348266666667, "fusion_lon": 0.0, "is_disabled": 0}, {"rental_uris": {"android": "https://dc.lft.to/lastmile_qr_scan", "ios": "https://dc.lft.to/lastmile_qr_scan"}, "type": "electric_scooter", "lon": -77.03156866666667, "name": "e40442e483c890eacc47edd37787f715", "bike_id": "e40442e483c890eacc47edd37787f715", "fusion_lat": 0.0, "is_reserved": 0, "lat": 38.912656, "fusion_lon": 0.0, "is_disabled": 0}, {"rental_uris": {"android": "https://dc.lft.to/lastmile_qr_scan", "ios": "https://dc.lft.to/lastmile_qr_scan"}, "type": "electric_scooter", "lon": -77.04829066666667, "name": "bc3b2ac3cdecc4db23c32e50e07066f0", "bike_id": "bc3b2ac3cdecc4db23c32e50e07066f0", "fusion_lat": 0.0, "is_reserved": 0, "lat": 38.9114665, "fusion_lon": 0.0, "is_disabled": 0}, {"rental_uris": {"android": "https://dc.lft.to/lastmile_qr_scan", "ios": "https://dc.lft.to/lastmile_qr_scan"}, "type": "electric_scooter", "lon": -77.04707116666667, "name": "a7c5332bc069ecb85eaf0ee5e03b75b6", "bike_id": "a7c5332bc069ecb85eaf0ee5e03b75b6", "fusion_lat": 0.0, "is_reserved": 0, "lat": 38.912674833333334, "fusion_lon": 0.0, "is_disabled": 0}, {"rental_uris": {"android": "https://dc.lft.to/lastmile_qr_scan", "ios": "https://dc.lft.to/lastmile_qr_scan"}, "type": "electric_scooter", "lon": -77.00211866666666, "name": "a17c6dd95030726037604f22779969e2", "bike_id": "a17c6dd95030726037604f22779969e2", "fusion_lat": 0.0, "is_reserved": 0, "lat": 38.902965333333334, "fusion_lon": 0.0, "is_disabled": 0}, {"rental_uris": {"android": "https://dc.lft.to/lastmile_qr_scan", "ios": "https://dc.lft.to/lastmile_qr_scan"}, "type": "electric_scooter", "lon": -77.00881833333334, "name": "c8dccd1fa4f1d5a19dd395683a64867d", "bike_id": "c8dccd1fa4f1d5a19dd395683a64867d", "fusion_lat": 0.0, "is_reserved": 0, "lat": 38.87370033333333, "fusion_lon": 0.0, "is_disabled": 0}, {"rental_uris": {"android": "https://dc.lft.to/lastmile_qr_scan", "ios": "https://dc.lft.to/lastmile_qr_scan"}, "type": "electric_bike", "lon": -76.9905805, "name": "9cdfad93a1e5460a6ae78a394ec97c85", "bike_id": "9cdfad93a1e5460a6ae78a394ec97c85", "fusion_lat": 0.0, "is_reserved": 0, "lat": 38.936882833333335, "fusion_lon": 0.0, "is_disabled": 0}, {"rental_uris": {"android": "https://dc.lft.to/lastmile_qr_scan", "ios": "https://dc.lft.to/lastmile_qr_scan"}, "type": "electric_scooter", "lon": -77.03816066666667, "name": "82a52a2bf5dc2d589df4d1467e2e8793", "bike_id": "82a52a2bf5dc2d589df4d1467e2e8793", "fusion_lat": 0.0, "is_reserved": 0, "lat": 38.9206525, "fusion_lon": 0.0, "is_disabled": 0}, {"rental_uris": {"android": "https://dc.lft.to/lastmile_qr_scan", "ios": "https://dc.lft.to/lastmile_qr_scan"}, "type": "electric_scooter", "lon": -77.03336583333333, "name": "13975f68f21194a77625f14085962c04", "bike_id": "13975f68f21194a77625f14085962c04", "fusion_lat": 0.0, "is_reserved": 0, "lat": 38.92257933333333, "fusion_lon": 0.0, "is_disabled": 0}, {"rental_uris": {"android": "https://dc.lft.to/lastmile_qr_scan", "ios": "https://dc.lft.to/lastmile_qr_scan"}, "type": "electric_scooter", "lon": -76.91917983333333, "name": "6a89a06bec7a9a5688d9671606bc8bc3", "bike_id": "6a89a06bec7a9a5688d9671606bc8bc3", "fusion_lat": 0.0, "is_reserved": 0, "lat": 38.890816, "fusion_lon": 0.0, "is_disabled": 0}, {"rental_uris": {"android": "https://dc.lft.to/lastmile_qr_scan", "ios": "https://dc.lft.to/lastmile_qr_scan"}, "type": "electric_scooter", "lon": -76.98564416666666, "name": "757a44dd9fad753936cddc99b0045236", "bike_id": "757a44dd9fad753936cddc99b0045236", "fusion_lat": 0.0, "is_reserved": 0, "lat": 38.90927666666666, "fusion_lon": 0.0, "is_disabled": 0}, {"rental_uris": {"android": "https://dc.lft.to/lastmile_qr_scan", "ios": "https://dc.lft.to/lastmile_qr_scan"}, "type": "electric_scooter", "lon": -77.04719633333333, "name": "9fc776889bdb48e93d07b19cefcae196", "bike_id": "9fc776889bdb48e93d07b19cefcae196", "fusion_lat": 0.0, "is_reserved": 0, "lat": 38.899556833333335, "fusion_lon": 0.0, "is_disabled": 0}, {"rental_uris": {"android": "https://dc.lft.to/lastmile_qr_scan", "ios": "https://dc.lft.to/lastmile_qr_scan"}, "type": "electric_scooter", "lon": -77.072722, "name": "a96033f8bf51226afcc7d64718079f33", "bike_id": "a96033f8bf51226afcc7d64718079f33", "fusion_lat": 0.0, "is_reserved": 0, "lat": 38.934818166666666, "fusion_lon": 0.0, "is_disabled": 0}, {"rental_uris": {"android": "https://dc.lft.to/lastmile_qr_scan", "ios": "https://dc.lft.to/lastmile_qr_scan"}, "type": "electric_bike", "lon": -77.15266183333334, "name": "0974e9f736285a753a383464ee9dc206", "bike_id": "0974e9f736285a753a383464ee9dc206", "fusion_lat": 0.0, "is_reserved": 0, "lat": 39.10567116666667, "fusion_lon": 0.0, "is_disabled": 0}, {"rental_uris": {"android": "https://dc.lft.to/lastmile_qr_scan", "ios": "https://dc.lft.to/lastmile_qr_scan"}, "type": "electric_scooter", "lon": -77.07062316666666, "name": "d01795f407aabc7be8d3414c0e686f84", "bike_id": "d01795f407aabc7be8d3414c0e686f84", "fusion_lat": 0.0, "is_reserved": 0, "lat": 38.91939283333333, "fusion_lon": 0.0, "is_disabled": 0}, {"rental_uris": {"android": "https://dc.lft.to/lastmile_qr_scan", "ios": "https://dc.lft.to/lastmile_qr_scan"}, "type": "electric_scooter", "lon": -77.03804833333334, "name": "17852de1971ba36392106cc3551a6a38", "bike_id": "17852de1971ba36392106cc3551a6a38", "fusion_lat": 0.0, "is_reserved": 0, "lat": 38.930206166666665, "fusion_lon": 0.0, "is_disabled": 0}, {"rental_uris": {"android": "https://dc.lft.to/lastmile_qr_scan", "ios": "https://dc.lft.to/lastmile_qr_scan"}, "type": "electric_scooter", "lon": -77.02715566666667, "name": "1665af6537fb69d09b5fbfa110eed997", "bike_id": "1665af6537fb69d09b5fbfa110eed997", "fusion_lat": 0.0, "is_reserved": 0, "lat": 38.92469583333333, "fusion_lon": 0.0, "is_disabled": 0}, {"rental_uris": {"android": "https://dc.lft.to/lastmile_qr_scan", "ios": "https://dc.lft.to/lastmile_qr_scan"}, "type": "electric_scooter", "lon": -76.983249, "name": "895665862aaf37b29a1b08d9632e63ce", "bike_id": "895665862aaf37b29a1b08d9632e63ce", "fusion_lat": 0.0, "is_reserved": 0, "lat": 38.861704333333336, "fusion_lon": 0.0, "is_disabled": 0}, {"rental_uris": {"android": "https://dc.lft.to/lastmile_qr_scan", "ios": "https://dc.lft.to/lastmile_qr_scan"}, "type": "electric_scooter", "lon": -76.96505016666667, "name": "92b288b8fb48ea64f44a1a1c52552a42", "bike_id": "92b288b8fb48ea64f44a1a1c52552a42", "fusion_lat": 0.0, "is_reserved": 0, "lat": 38.876486166666666, "fusion_lon": 0.0, "is_disabled": 0}, {"rental_uris": {"android": "https://dc.lft.to/lastmile_qr_scan", "ios": "https://dc.lft.to/lastmile_qr_scan"}, "type": "electric_bike", "lon": -76.9684, "name": "619e204c919eb1faa36070e32378d1f3", "bike_id": "619e204c919eb1faa36070e32378d1f3", "fusion_lat": 0.0, "is_reserved": 0, "lat": 38.92448316666667, "fusion_lon": 0.0, "is_disabled": 0}, {"rental_uris": {"android": "https://dc.lft.to/lastmile_qr_scan", "ios": "https://dc.lft.to/lastmile_qr_scan"}, "type": "electric_bike", "lon": -76.9299595, "name": "37eb887eba858646cb3853292f97c810", "bike_id": "37eb887eba858646cb3853292f97c810", "fusion_lat": 0.0, "is_reserved": 0, "lat": 38.888009, "fusion_lon": 0.0, "is_disabled": 0}, {"rental_uris": {"android": "https://dc.lft.to/lastmile_qr_scan", "ios": "https://dc.lft.to/lastmile_qr_scan"}, "type": "electric_scooter", "lon": -77.03210433333334, "name": "cd11dedff40c0080bd737fc5f27d1861", "bike_id": "cd11dedff40c0080bd737fc5f27d1861", "fusion_lat": 0.0, "is_reserved": 0, "lat": 38.918901166666664, "fusion_lon": 0.0, "is_disabled": 0}, {"rental_uris": {"android": "https://dc.lft.to/lastmile_qr_scan", "ios": "https://dc.lft.to/lastmile_qr_scan"}, "type": "electric_bike", "lon": -76.947894, "name": "0a8bc65fb63c0911d1645aaaff957ef2", "bike_id": "0a8bc65fb63c0911d1645aaaff957ef2", "fusion_lat": 0.0, "is_reserved": 0, "lat": 38.89647633333333, "fusion_lon": 0.0, "is_disabled": 0}, {"rental_uris": {"android": "https://dc.lft.to/lastmile_qr_scan", "ios": "https://dc.lft.to/lastmile_qr_scan"}, "type": "electric_scooter", "lon": -76.97018966666667, "name": "f5555d9e3259925fea352bc062bd1fe7", "bike_id": "f5555d9e3259925fea352bc062bd1fe7", "fusion_lat": 0.0, "is_reserved": 0, "lat": 38.920329333333335, "fusion_lon": 0.0, "is_disabled": 0}, {"rental_uris": {"android": "https://dc.lft.to/lastmile_qr_scan", "ios": "https://dc.lft.to/lastmile_qr_scan"}, "type": "electric_scooter", "lon": -77.050061, "name": "d4d005c60827137415edd533aee181c5", "bike_id": "d4d005c60827137415edd533aee181c5", "fusion_lat": 0.0, "is_reserved": 0, "lat": 38.900801666666666, "fusion_lon": 0.0, "is_disabled": 0}, {"rental_uris": {"android": "https://dc.lft.to/lastmile_qr_scan", "ios": "https://dc.lft.to/lastmile_qr_scan"}, "type": "electric_scooter", "lon": -76.98461533333334, "name": "3f652da49d43264988f265334bd6ba43", "bike_id": "3f652da49d43264988f265334bd6ba43", "fusion_lat": 0.0, "is_reserved": 0, "lat": 38.89367383333333, "fusion_lon": 0.0, "is_disabled": 0}, {"rental_uris": {"android": "https://dc.lft.to/lastmile_qr_scan", "ios": "https://dc.lft.to/lastmile_qr_scan"}, "type": "electric_scooter", "lon": -77.01897333333334, "name": "dfcbeaecd4aede500e95a1b62d9b02c4", "bike_id": "dfcbeaecd4aede500e95a1b62d9b02c4", "fusion_lat": 0.0, "is_reserved": 0, "lat": 38.93919183333333, "fusion_lon": 0.0, "is_disabled": 0}, {"rental_uris": {"android": "https://dc.lft.to/lastmile_qr_scan", "ios": "https://dc.lft.to/lastmile_qr_scan"}, "type": "electric_scooter", "lon": -77.02154116666667, "name": "80cc1c8cfa0d8ba4afac1e83d0bab7df", "bike_id": "80cc1c8cfa0d8ba4afac1e83d0bab7df", "fusion_lat": 0.0, "is_reserved": 0, "lat": 38.87921766666667, "fusion_lon": 0.0, "is_disabled": 0}, {"rental_uris": {"android": "https://dc.lft.to/lastmile_qr_scan", "ios": "https://dc.lft.to/lastmile_qr_scan"}, "type": "electric_scooter", "lon": -77.03860333333333, "name": "86cd078aa65a8d7b20cd53a08760897b", "bike_id": "86cd078aa65a8d7b20cd53a08760897b", "fusion_lat": 0.0, "is_reserved": 0, "lat": 38.917102166666666, "fusion_lon": 0.0, "is_disabled": 0}, {"rental_uris": {"android": "https://dc.lft.to/lastmile_qr_scan", "ios": "https://dc.lft.to/lastmile_qr_scan"}, "type": "electric_scooter", "lon": -76.99079283333333, "name": "b687a17c15f6512f110c67865990f46d", "bike_id": "b687a17c15f6512f110c67865990f46d", "fusion_lat": 0.0, "is_reserved": 0, "lat": 38.84290816666667, "fusion_lon": 0.0, "is_disabled": 0}, {"rental_uris": {"android": "https://dc.lft.to/lastmile_qr_scan", "ios": "https://dc.lft.to/lastmile_qr_scan"}, "type": "electric_bike", "lon": -77.002795, "name": "d542f91d85a9583ecd936e5d395ca478", "bike_id": "d542f91d85a9583ecd936e5d395ca478", "fusion_lat": 0.0, "is_reserved": 0, "lat": 38.91106516666667, "fusion_lon": 0.0, "is_disabled": 0}, {"rental_uris": {"android": "https://dc.lft.to/lastmile_qr_scan", "ios": "https://dc.lft.to/lastmile_qr_scan"}, "type": "electric_bike", "lon": -76.990984, "name": "ce8be6698699c509e92b228331e52498", "bike_id": "ce8be6698699c509e92b228331e52498", "fusion_lat": 0.0, "is_reserved": 0, "lat": 38.93379016666667, "fusion_lon": 0.0, "is_disabled": 0}, {"rental_uris": {"android": "https://dc.lft.to/lastmile_qr_scan", "ios": "https://dc.lft.to/lastmile_qr_scan"}, "type": "electric_scooter", "lon": -77.0120695, "name": "5435e7a9c6663384d96893839588ee00", "bike_id": "5435e7a9c6663384d96893839588ee00", "fusion_lat": 0.0, "is_reserved": 0, "lat": 38.918225666666665, "fusion_lon": 0.0, "is_disabled": 0}, {"rental_uris": {"android": "https://dc.lft.to/lastmile_qr_scan", "ios": "https://dc.lft.to/lastmile_qr_scan"}, "type": "electric_scooter", "lon": -77.049887, "name": "d4b6bb899a5c7f217f0be08900a8c529", "bike_id": "d4b6bb899a5c7f217f0be08900a8c529", "fusion_lat": 0.0, "is_reserved": 0, "lat": 38.897306, "fusion_lon": 0.0, "is_disabled": 0}, {"rental_uris": {"android": "https://dc.lft.to/lastmile_qr_scan", "ios": "https://dc.lft.to/lastmile_qr_scan"}, "type": "electric_scooter", "lon": -77.00151866666667, "name": "c544bc9cc3971258abb2247ae8df161a", "bike_id": "c544bc9cc3971258abb2247ae8df161a", "fusion_lat": 0.0, "is_reserved": 0, "lat": 38.90008516666666, "fusion_lon": 0.0, "is_disabled": 0}, {"rental_uris": {"android": "https://dc.lft.to/lastmile_qr_scan", "ios": "https://dc.lft.to/lastmile_qr_scan"}, "type": "electric_scooter", "lon": -77.03461616666667, "name": "e8a705220b1be903f4f27f875c85928f", "bike_id": "e8a705220b1be903f4f27f875c85928f", "fusion_lat": 0.0, "is_reserved": 0, "lat": 38.93553266666667, "fusion_lon": 0.0, "is_disabled": 0}, {"rental_uris": {"android": "https://dc.lft.to/lastmile_qr_scan", "ios": "https://dc.lft.to/lastmile_qr_scan"}, "type": "electric_scooter", "lon": -77.034378, "name": "4a404fd1724e8b813dfd1f11e20fd42c", "bike_id": "4a404fd1724e8b813dfd1f11e20fd42c", "fusion_lat": 0.0, "is_reserved": 0, "lat": 38.902769166666666, "fusion_lon": 0.0, "is_disabled": 0}, {"rental_uris": {"android": "https://dc.lft.to/lastmile_qr_scan", "ios": "https://dc.lft.to/lastmile_qr_scan"}, "type": "electric_scooter", "lon": -76.94727583333334, "name": "d7f993ee3fec5203067466a9e6fea962", "bike_id": "d7f993ee3fec5203067466a9e6fea962", "fusion_lat": 0.0, "is_reserved": 0, "lat": 38.89740366666667, "fusion_lon": 0.0, "is_disabled": 0}, {"rental_uris": {"android": "https://dc.lft.to/lastmile_qr_scan", "ios": "https://dc.lft.to/lastmile_qr_scan"}, "type": "electric_scooter", "lon": -77.0240415, "name": "d6614dee07abf2e7a8dd58d5574f5ae3", "bike_id": "d6614dee07abf2e7a8dd58d5574f5ae3", "fusion_lat": 0.0, "is_reserved": 0, "lat": 38.920906333333335, "fusion_lon": 0.0, "is_disabled": 0}, {"rental_uris": {"android": "https://dc.lft.to/lastmile_qr_scan", "ios": "https://dc.lft.to/lastmile_qr_scan"}, "type": "electric_scooter", "lon": -77.04173866666666, "name": "39d53317a68c35fea3c092e925759692", "bike_id": "39d53317a68c35fea3c092e925759692", "fusion_lat": 0.0, "is_reserved": 0, "lat": 38.9159505, "fusion_lon": 0.0, "is_disabled": 0}, {"rental_uris": {"android": "https://dc.lft.to/lastmile_qr_scan", "ios": "https://dc.lft.to/lastmile_qr_scan"}, "type": "electric_scooter", "lon": -76.974613, "name": "881a47ddbd26aeb6e0de326438099dd6", "bike_id": "881a47ddbd26aeb6e0de326438099dd6", "fusion_lat": 0.0, "is_reserved": 0, "lat": 38.88400633333333, "fusion_lon": 0.0, "is_disabled": 0}, {"rental_uris": {"android": "https://dc.lft.to/lastmile_qr_scan", "ios": "https://dc.lft.to/lastmile_qr_scan"}, "type": "electric_scooter", "lon": -77.02693383333333, "name": "0da0edf9a42fcd6bf7e18eea3fe1f988", "bike_id": "0da0edf9a42fcd6bf7e18eea3fe1f988", "fusion_lat": 0.0, "is_reserved": 0, "lat": 38.908467333333334, "fusion_lon": 0.0, "is_disabled": 0}, {"rental_uris": {"android": "https://dc.lft.to/lastmile_qr_scan", "ios": "https://dc.lft.to/lastmile_qr_scan"}, "type": "electric_scooter", "lon": -77.02398683333334, "name": "009f22b71a8a5def6fa3cc532efbefe6", "bike_id": "009f22b71a8a5def6fa3cc532efbefe6", "fusion_lat": 0.0, "is_reserved": 0, "lat": 38.9169105, "fusion_lon": 0.0, "is_disabled": 0}, {"rental_uris": {"android": "https://dc.lft.to/lastmile_qr_scan", "ios": "https://dc.lft.to/lastmile_qr_scan"}, "type": "electric_scooter", "lon": -77.04493983333333, "name": "c4ec9ed59965f3ccf950a45192f94122", "bike_id": "c4ec9ed59965f3ccf950a45192f94122", "fusion_lat": 0.0, "is_reserved": 0, "lat": 38.90699516666667, "fusion_lon": 0.0, "is_disabled": 0}, {"rental_uris": {"android": "https://dc.lft.to/lastmile_qr_scan", "ios": "https://dc.lft.to/lastmile_qr_scan"}, "type": "electric_scooter", "lon": -76.98923066666667, "name": "5f01f09043aff7ee44b60e252dab2e91", "bike_id": "5f01f09043aff7ee44b60e252dab2e91", "fusion_lat": 0.0, "is_reserved": 0, "lat": 38.882019166666666, "fusion_lon": 0.0, "is_disabled": 0}, {"rental_uris": {"android": "https://dc.lft.to/lastmile_qr_scan", "ios": "https://dc.lft.to/lastmile_qr_scan"}, "type": "electric_scooter", "lon": -77.04491233333333, "name": "88998fa2d43c8df5327a59906e71b023", "bike_id": "88998fa2d43c8df5327a59906e71b023", "fusion_lat": 0.0, "is_reserved": 0, "lat": 38.919443333333334, "fusion_lon": 0.0, "is_disabled": 0}, {"rental_uris": {"android": "https://dc.lft.to/lastmile_qr_scan", "ios": "https://dc.lft.to/lastmile_qr_scan"}, "type": "electric_scooter", "lon": -77.034897, "name": "7fdba9ecafb72d015128ffe424cc01ff", "bike_id": "7fdba9ecafb72d015128ffe424cc01ff", "fusion_lat": 0.0, "is_reserved": 0, "lat": 38.9374665, "fusion_lon": 0.0, "is_disabled": 0}, {"rental_uris": {"android": "https://dc.lft.to/lastmile_qr_scan", "ios": "https://dc.lft.to/lastmile_qr_scan"}, "type": "electric_scooter", "lon": -77.02482, "name": "dfbc856111d2ebdef49d0aff5911eb00", "bike_id": "dfbc856111d2ebdef49d0aff5911eb00", "fusion_lat": 0.0, "is_reserved": 0, "lat": 38.9388165, "fusion_lon": 0.0, "is_disabled": 0}, {"rental_uris": {"android": "https://dc.lft.to/lastmile_qr_scan", "ios": "https://dc.lft.to/lastmile_qr_scan"}, "type": "electric_scooter", "lon": -77.005225, "name": "389fd4a347b73ee2d50b86d2f11fd290", "bike_id": "389fd4a347b73ee2d50b86d2f11fd290", "fusion_lat": 0.0, "is_reserved": 0, "lat": 38.91697633333333, "fusion_lon": 0.0, "is_disabled": 0}, {"rental_uris": {"android": "https://dc.lft.to/lastmile_qr_scan", "ios": "https://dc.lft.to/lastmile_qr_scan"}, "type": "electric_scooter", "lon": -77.01766966666666, "name": "5106327c815761cf2d37c27f075e5277", "bike_id": "5106327c815761cf2d37c27f075e5277", "fusion_lat": 0.0, "is_reserved": 0, "lat": 38.921163, "fusion_lon": 0.0, "is_disabled": 0}, {"rental_uris": {"android": "https://dc.lft.to/lastmile_qr_scan", "ios": "https://dc.lft.to/lastmile_qr_scan"}, "type": "electric_bike", "lon": -76.97625866666667, "name": "63e1629ea578da265e62be3391e3792d", "bike_id": "63e1629ea578da265e62be3391e3792d", "fusion_lat": 0.0, "is_reserved": 0, "lat": 38.8957665, "fusion_lon": 0.0, "is_disabled": 0}, {"rental_uris": {"android": "https://dc.lft.to/lastmile_qr_scan", "ios": "https://dc.lft.to/lastmile_qr_scan"}, "type": "electric_scooter", "lon": -77.00669183333333, "name": "d516ce86a93a6899ca506a9f11809bff", "bike_id": "d516ce86a93a6899ca506a9f11809bff", "fusion_lat": 0.0, "is_reserved": 0, "lat": 38.8998915, "fusion_lon": 0.0, "is_disabled": 0}, {"rental_uris": {"android": "https://dc.lft.to/lastmile_qr_scan", "ios": "https://dc.lft.to/lastmile_qr_scan"}, "type": "electric_scooter", "lon": -77.02495183333333, "name": "22a37842593f2dce44b95a64b7c85505", "bike_id": "22a37842593f2dce44b95a64b7c85505", "fusion_lat": 0.0, "is_reserved": 0, "lat": 38.9040035, "fusion_lon": 0.0, "is_disabled": 0}, {"rental_uris": {"android": "https://dc.lft.to/lastmile_qr_scan", "ios": "https://dc.lft.to/lastmile_qr_scan"}, "type": "electric_scooter", "lon": -77.01586066666667, "name": "c0cdfae598cfa4b95cab11dd92b8d755", "bike_id": "c0cdfae598cfa4b95cab11dd92b8d755", "fusion_lat": 0.0, "is_reserved": 0, "lat": 38.9284555, "fusion_lon": 0.0, "is_disabled": 0}, {"rental_uris": {"android": "https://dc.lft.to/lastmile_qr_scan", "ios": "https://dc.lft.to/lastmile_qr_scan"}, "type": "electric_scooter", "lon": -77.010574, "name": "7759220bcd076dc40a31efc56ee9598e", "bike_id": "7759220bcd076dc40a31efc56ee9598e", "fusion_lat": 0.0, "is_reserved": 0, "lat": 38.872436666666665, "fusion_lon": 0.0, "is_disabled": 0}, {"rental_uris": {"android": "https://dc.lft.to/lastmile_qr_scan", "ios": "https://dc.lft.to/lastmile_qr_scan"}, "type": "electric_scooter", "lon": -77.04632283333333, "name": "a23b95369191fb49c8610afe24f68bbe", "bike_id": "a23b95369191fb49c8610afe24f68bbe", "fusion_lat": 0.0, "is_reserved": 0, "lat": 38.8974045, "fusion_lon": 0.0, "is_disabled": 0}, {"rental_uris": {"android": "https://dc.lft.to/lastmile_qr_scan", "ios": "https://dc.lft.to/lastmile_qr_scan"}, "type": "electric_scooter", "lon": -77.02376866666667, "name": "5b27068fca03083745b17b74553270ac", "bike_id": "5b27068fca03083745b17b74553270ac", "fusion_lat": 0.0, "is_reserved": 0, "lat": 38.892365, "fusion_lon": 0.0, "is_disabled": 0}, {"rental_uris": {"android": "https://dc.lft.to/lastmile_qr_scan", "ios": "https://dc.lft.to/lastmile_qr_scan"}, "type": "electric_scooter", "lon": -77.03859133333333, "name": "1f6129855a44eaecb1ac74b7463c9459", "bike_id": "1f6129855a44eaecb1ac74b7463c9459", "fusion_lat": 0.0, "is_reserved": 0, "lat": 38.91282116666667, "fusion_lon": 0.0, "is_disabled": 0}, {"rental_uris": {"android": "https://dc.lft.to/lastmile_qr_scan", "ios": "https://dc.lft.to/lastmile_qr_scan"}, "type": "electric_scooter", "lon": -77.023924, "name": "9d933061857d181cd917ef0b3fbf6ced", "bike_id": "9d933061857d181cd917ef0b3fbf6ced", "fusion_lat": 0.0, "is_reserved": 0, "lat": 38.887394, "fusion_lon": 0.0, "is_disabled": 0}, {"rental_uris": {"android": "https://dc.lft.to/lastmile_qr_scan", "ios": "https://dc.lft.to/lastmile_qr_scan"}, "type": "electric_scooter", "lon": -76.93157266666667, "name": "801832352c6ae8d5953a9abb47d89075", "bike_id": "801832352c6ae8d5953a9abb47d89075", "fusion_lat": 0.0, "is_reserved": 0, "lat": 38.89880333333333, "fusion_lon": 0.0, "is_disabled": 0}, {"rental_uris": {"android": "https://dc.lft.to/lastmile_qr_scan", "ios": "https://dc.lft.to/lastmile_qr_scan"}, "type": "electric_scooter", "lon": -77.06153966666666, "name": "f1541f434387b7362e6cc1506d6e9c21", "bike_id": "f1541f434387b7362e6cc1506d6e9c21", "fusion_lat": 0.0, "is_reserved": 0, "lat": 38.9422105, "fusion_lon": 0.0, "is_disabled": 0}, {"rental_uris": {"android": "https://dc.lft.to/lastmile_qr_scan", "ios": "https://dc.lft.to/lastmile_qr_scan"}, "type": "electric_scooter", "lon": -76.941203, "name": "72204525ed1cbf7927d33b9702d90c06", "bike_id": "72204525ed1cbf7927d33b9702d90c06", "fusion_lat": 0.0, "is_reserved": 0, "lat": 38.90792316666667, "fusion_lon": 0.0, "is_disabled": 0}, {"rental_uris": {"android": "https://dc.lft.to/lastmile_qr_scan", "ios": "https://dc.lft.to/lastmile_qr_scan"}, "type": "electric_scooter", "lon": -76.98696433333333, "name": "ccfaf129c49768064f1cd7e3e09cbe78", "bike_id": "ccfaf129c49768064f1cd7e3e09cbe78", "fusion_lat": 0.0, "is_reserved": 0, "lat": 38.855667, "fusion_lon": 0.0, "is_disabled": 0}, {"rental_uris": {"android": "https://dc.lft.to/lastmile_qr_scan", "ios": "https://dc.lft.to/lastmile_qr_scan"}, "type": "electric_scooter", "lon": -77.04345116666667, "name": "ad587ff2e092fa2edb72e3713a0720ca", "bike_id": "ad587ff2e092fa2edb72e3713a0720ca", "fusion_lat": 0.0, "is_reserved": 0, "lat": 38.921407333333335, "fusion_lon": 0.0, "is_disabled": 0}, {"rental_uris": {"android": "https://dc.lft.to/lastmile_qr_scan", "ios": "https://dc.lft.to/lastmile_qr_scan"}, "type": "electric_scooter", "lon": -77.03996433333333, "name": "965f1db63ec68eadc62d850eaaa4faa9", "bike_id": "965f1db63ec68eadc62d850eaaa4faa9", "fusion_lat": 0.0, "is_reserved": 0, "lat": 38.91421616666667, "fusion_lon": 0.0, "is_disabled": 0}, {"rental_uris": {"android": "https://dc.lft.to/lastmile_qr_scan", "ios": "https://dc.lft.to/lastmile_qr_scan"}, "type": "electric_scooter", "lon": -77.02152933333333, "name": "22db4a917e6ae02d8ca189be587c2621", "bike_id": "22db4a917e6ae02d8ca189be587c2621", "fusion_lat": 0.0, "is_reserved": 0, "lat": 38.879314, "fusion_lon": 0.0, "is_disabled": 0}, {"rental_uris": {"android": "https://dc.lft.to/lastmile_qr_scan", "ios": "https://dc.lft.to/lastmile_qr_scan"}, "type": "electric_scooter", "lon": -77.02404616666666, "name": "69fd300f51f2af51ce4c957bc10361f9", "bike_id": "69fd300f51f2af51ce4c957bc10361f9", "fusion_lat": 0.0, "is_reserved": 0, "lat": 38.883975, "fusion_lon": 0.0, "is_disabled": 0}, {"rental_uris": {"android": "https://dc.lft.to/lastmile_qr_scan", "ios": "https://dc.lft.to/lastmile_qr_scan"}, "type": "electric_bike", "lon": -76.96880466666667, "name": "b886cd41e2c1361ea94141fcda4956aa", "bike_id": "b886cd41e2c1361ea94141fcda4956aa", "fusion_lat": 0.0, "is_reserved": 0, "lat": 38.84609, "fusion_lon": 0.0, "is_disabled": 0}, {"rental_uris": {"android": "https://dc.lft.to/lastmile_qr_scan", "ios": "https://dc.lft.to/lastmile_qr_scan"}, "type": "electric_scooter", "lon": -77.04170366666666, "name": "0e5d25efe61f6b6c1515782de85df468", "bike_id": "0e5d25efe61f6b6c1515782de85df468", "fusion_lat": 0.0, "is_reserved": 0, "lat": 38.915885333333335, "fusion_lon": 0.0, "is_disabled": 0}, {"rental_uris": {"android": "https://dc.lft.to/lastmile_qr_scan", "ios": "https://dc.lft.to/lastmile_qr_scan"}, "type": "electric_scooter", "lon": -76.99451016666667, "name": "bd854ac327433b125f7091211ea07d28", "bike_id": "bd854ac327433b125f7091211ea07d28", "fusion_lat": 0.0, "is_reserved": 0, "lat": 38.876602, "fusion_lon": 0.0, "is_disabled": 0}, {"rental_uris": {"android": "https://dc.lft.to/lastmile_qr_scan", "ios": "https://dc.lft.to/lastmile_qr_scan"}, "type": "electric_bike", "lon": -77.12742266666666, "name": "15864afe18df3a12bdc869fdc26d1bae", "bike_id": "15864afe18df3a12bdc869fdc26d1bae", "fusion_lat": 0.0, "is_reserved": 0, "lat": 38.888222666666664, "fusion_lon": 0.0, "is_disabled": 0}, {"rental_uris": {"android": "https://dc.lft.to/lastmile_qr_scan", "ios": "https://dc.lft.to/lastmile_qr_scan"}, "type": "electric_scooter", "lon": -77.06586716666666, "name": "abfe30eb2fffc8dd279e57cf1f6365e9", "bike_id": "abfe30eb2fffc8dd279e57cf1f6365e9", "fusion_lat": 0.0, "is_reserved": 0, "lat": 38.91368816666667, "fusion_lon": 0.0, "is_disabled": 0}, {"rental_uris": {"android": "https://dc.lft.to/lastmile_qr_scan", "ios": "https://dc.lft.to/lastmile_qr_scan"}, "type": "electric_scooter", "lon": -77.0240725, "name": "c036eeea7910b0a31c3c6ae1f654f285", "bike_id": "c036eeea7910b0a31c3c6ae1f654f285", "fusion_lat": 0.0, "is_reserved": 0, "lat": 38.9168705, "fusion_lon": 0.0, "is_disabled": 0}, {"rental_uris": {"android": "https://dc.lft.to/lastmile_qr_scan", "ios": "https://dc.lft.to/lastmile_qr_scan"}, "type": "electric_scooter", "lon": -77.01698266666666, "name": "72b5b3ee81e06a0f0073d167ade499bf", "bike_id": "72b5b3ee81e06a0f0073d167ade499bf", "fusion_lat": 0.0, "is_reserved": 0, "lat": 38.900498, "fusion_lon": 0.0, "is_disabled": 0}, {"rental_uris": {"android": "https://dc.lft.to/lastmile_qr_scan", "ios": "https://dc.lft.to/lastmile_qr_scan"}, "type": "electric_scooter", "lon": -77.03665366666667, "name": "bd1c17307bc111b5a489f62b291cbf45", "bike_id": "bd1c17307bc111b5a489f62b291cbf45", "fusion_lat": 0.0, "is_reserved": 0, "lat": 38.9172555, "fusion_lon": 0.0, "is_disabled": 0}, {"rental_uris": {"android": "https://dc.lft.to/lastmile_qr_scan", "ios": "https://dc.lft.to/lastmile_qr_scan"}, "type": "electric_scooter", "lon": -76.987725, "name": "70d6e9ec1250fd5358be77b56cc18c47", "bike_id": "70d6e9ec1250fd5358be77b56cc18c47", "fusion_lat": 0.0, "is_reserved": 0, "lat": 38.911734833333334, "fusion_lon": 0.0, "is_disabled": 0}, {"rental_uris": {"android": "https://dc.lft.to/lastmile_qr_scan", "ios": "https://dc.lft.to/lastmile_qr_scan"}, "type": "electric_scooter", "lon": -77.02393033333334, "name": "3d38db9d8439e5ee576e859309cde25e", "bike_id": "3d38db9d8439e5ee576e859309cde25e", "fusion_lat": 0.0, "is_reserved": 0, "lat": 38.920785333333335, "fusion_lon": 0.0, "is_disabled": 0}, {"rental_uris": {"android": "https://dc.lft.to/lastmile_qr_scan", "ios": "https://dc.lft.to/lastmile_qr_scan"}, "type": "electric_scooter", "lon": -77.040993, "name": "4e7b4f854c9b9d84324676b06bf90ed3", "bike_id": "4e7b4f854c9b9d84324676b06bf90ed3", "fusion_lat": 0.0, "is_reserved": 0, "lat": 38.9140785, "fusion_lon": 0.0, "is_disabled": 0}, {"rental_uris": {"android": "https://dc.lft.to/lastmile_qr_scan", "ios": "https://dc.lft.to/lastmile_qr_scan"}, "type": "electric_scooter", "lon": -77.0059225, "name": "9a6c189065313cb27d618dd44a472ac8", "bike_id": "9a6c189065313cb27d618dd44a472ac8", "fusion_lat": 0.0, "is_reserved": 0, "lat": 38.90580766666667, "fusion_lon": 0.0, "is_disabled": 0}, {"rental_uris": {"android": "https://dc.lft.to/lastmile_qr_scan", "ios": "https://dc.lft.to/lastmile_qr_scan"}, "type": "electric_scooter", "lon": -77.0187475, "name": "83113d761850e869d2c7c926732865c4", "bike_id": "83113d761850e869d2c7c926732865c4", "fusion_lat": 0.0, "is_reserved": 0, "lat": 38.91765516666667, "fusion_lon": 0.0, "is_disabled": 0}, {"rental_uris": {"android": "https://dc.lft.to/lastmile_qr_scan", "ios": "https://dc.lft.to/lastmile_qr_scan"}, "type": "electric_scooter", "lon": -76.99508533333334, "name": "d5902bc8c91f061f0f4f3848fc55945d", "bike_id": "d5902bc8c91f061f0f4f3848fc55945d", "fusion_lat": 0.0, "is_reserved": 0, "lat": 38.8446815, "fusion_lon": 0.0, "is_disabled": 0}, {"rental_uris": {"android": "https://dc.lft.to/lastmile_qr_scan", "ios": "https://dc.lft.to/lastmile_qr_scan"}, "type": "electric_scooter", "lon": -77.03316366666667, "name": "9e560753c1fd21b9bf3e12112939581a", "bike_id": "9e560753c1fd21b9bf3e12112939581a", "fusion_lat": 0.0, "is_reserved": 0, "lat": 38.89232466666667, "fusion_lon": 0.0, "is_disabled": 0}, {"rental_uris": {"android": "https://dc.lft.to/lastmile_qr_scan", "ios": "https://dc.lft.to/lastmile_qr_scan"}, "type": "electric_scooter", "lon": -77.03655433333333, "name": "09ce4974469f86d4eb0b2db3b1159c45", "bike_id": "09ce4974469f86d4eb0b2db3b1159c45", "fusion_lat": 0.0, "is_reserved": 0, "lat": 38.922462833333334, "fusion_lon": 0.0, "is_disabled": 0}, {"rental_uris": {"android": "https://dc.lft.to/lastmile_qr_scan", "ios": "https://dc.lft.to/lastmile_qr_scan"}, "type": "electric_scooter", "lon": -77.00295216666666, "name": "2d13ffe7d9ccd77a30f6d5e7ab068859", "bike_id": "2d13ffe7d9ccd77a30f6d5e7ab068859", "fusion_lat": 0.0, "is_reserved": 0, "lat": 38.90578333333333, "fusion_lon": 0.0, "is_disabled": 0}, {"rental_uris": {"android": "https://dc.lft.to/lastmile_qr_scan", "ios": "https://dc.lft.to/lastmile_qr_scan"}, "type": "electric_scooter", "lon": -77.02282333333333, "name": "9730f70c51aba54047e520d1538854f8", "bike_id": "9730f70c51aba54047e520d1538854f8", "fusion_lat": 0.0, "is_reserved": 0, "lat": 38.9269185, "fusion_lon": 0.0, "is_disabled": 0}, {"rental_uris": {"android": "https://dc.lft.to/lastmile_qr_scan", "ios": "https://dc.lft.to/lastmile_qr_scan"}, "type": "electric_scooter", "lon": -77.00161533333333, "name": "e98bf7a5fb7f11309cb047cd80d81710", "bike_id": "e98bf7a5fb7f11309cb047cd80d81710", "fusion_lat": 0.0, "is_reserved": 0, "lat": 38.907836333333336, "fusion_lon": 0.0, "is_disabled": 0}, {"rental_uris": {"android": "https://dc.lft.to/lastmile_qr_scan", "ios": "https://dc.lft.to/lastmile_qr_scan"}, "type": "electric_scooter", "lon": -77.04114, "name": "7d92892373b177e7db1f7c2483807489", "bike_id": "7d92892373b177e7db1f7c2483807489", "fusion_lat": 0.0, "is_reserved": 0, "lat": 38.925310333333336, "fusion_lon": 0.0, "is_disabled": 0}, {"rental_uris": {"android": "https://dc.lft.to/lastmile_qr_scan", "ios": "https://dc.lft.to/lastmile_qr_scan"}, "type": "electric_scooter", "lon": -76.99622583333333, "name": "9c371315292a71233ff600a4ebf48c13", "bike_id": "9c371315292a71233ff600a4ebf48c13", "fusion_lat": 0.0, "is_reserved": 0, "lat": 38.880329333333336, "fusion_lon": 0.0, "is_disabled": 0}, {"rental_uris": {"android": "https://dc.lft.to/lastmile_qr_scan", "ios": "https://dc.lft.to/lastmile_qr_scan"}, "type": "electric_bike", "lon": -77.039862, "name": "d1fe72a45541bbffe54ac3da7a5b17df", "bike_id": "d1fe72a45541bbffe54ac3da7a5b17df", "fusion_lat": 0.0, "is_reserved": 0, "lat": 38.80298883333333, "fusion_lon": 0.0, "is_disabled": 0}, {"rental_uris": {"android": "https://dc.lft.to/lastmile_qr_scan", "ios": "https://dc.lft.to/lastmile_qr_scan"}, "type": "electric_scooter", "lon": -76.99091383333334, "name": "2ea7e53593ec7049cd1378cddecae554", "bike_id": "2ea7e53593ec7049cd1378cddecae554", "fusion_lat": 0.0, "is_reserved": 0, "lat": 38.92951133333333, "fusion_lon": 0.0, "is_disabled": 0}, {"rental_uris": {"android": "https://dc.lft.to/lastmile_qr_scan", "ios": "https://dc.lft.to/lastmile_qr_scan"}, "type": "electric_scooter", "lon": -77.01816683333334, "name": "00cb708072f1813755628b3e93c9ee7f", "bike_id": "00cb708072f1813755628b3e93c9ee7f", "fusion_lat": 0.0, "is_reserved": 0, "lat": 38.903904833333335, "fusion_lon": 0.0, "is_disabled": 0}, {"rental_uris": {"android": "https://dc.lft.to/lastmile_qr_scan", "ios": "https://dc.lft.to/lastmile_qr_scan"}, "type": "electric_scooter", "lon": -76.9893505, "name": "e87b75ddb58aa07bf6ff63f6aea3e931", "bike_id": "e87b75ddb58aa07bf6ff63f6aea3e931", "fusion_lat": 0.0, "is_reserved": 0, "lat": 38.86592266666667, "fusion_lon": 0.0, "is_disabled": 0}, {"rental_uris": {"android": "https://dc.lft.to/lastmile_qr_scan", "ios": "https://dc.lft.to/lastmile_qr_scan"}, "type": "electric_scooter", "lon": -77.03164933333333, "name": "eea85f366af7232b95c19437ff448a1b", "bike_id": "eea85f366af7232b95c19437ff448a1b", "fusion_lat": 0.0, "is_reserved": 0, "lat": 38.886650333333336, "fusion_lon": 0.0, "is_disabled": 0}, {"rental_uris": {"android": "https://dc.lft.to/lastmile_qr_scan", "ios": "https://dc.lft.to/lastmile_qr_scan"}, "type": "electric_bike", "lon": -77.00189283333333, "name": "4331761e5a0a6c0a52a09bf4bfb40710", "bike_id": "4331761e5a0a6c0a52a09bf4bfb40710", "fusion_lat": 0.0, "is_reserved": 0, "lat": 38.89739066666667, "fusion_lon": 0.0, "is_disabled": 0}, {"rental_uris": {"android": "https://dc.lft.to/lastmile_qr_scan", "ios": "https://dc.lft.to/lastmile_qr_scan"}, "type": "electric_scooter", "lon": -77.01558733333333, "name": "4b2ff6845004bc5a863337ae417f4602", "bike_id": "4b2ff6845004bc5a863337ae417f4602", "fusion_lat": 0.0, "is_reserved": 0, "lat": 38.913718833333334, "fusion_lon": 0.0, "is_disabled": 0}, {"rental_uris": {"android": "https://dc.lft.to/lastmile_qr_scan", "ios": "https://dc.lft.to/lastmile_qr_scan"}, "type": "electric_scooter", "lon": -77.01574183333334, "name": "29b5607ec1504bb926feb49888020c9f", "bike_id": "29b5607ec1504bb926feb49888020c9f", "fusion_lat": 0.0, "is_reserved": 0, "lat": 38.916830833333336, "fusion_lon": 0.0, "is_disabled": 0}, {"rental_uris": {"android": "https://dc.lft.to/lastmile_qr_scan", "ios": "https://dc.lft.to/lastmile_qr_scan"}, "type": "electric_scooter", "lon": -77.03154066666667, "name": "606282d4e35455f9fe18e99b151abf7f", "bike_id": "606282d4e35455f9fe18e99b151abf7f", "fusion_lat": 0.0, "is_reserved": 0, "lat": 38.89723033333333, "fusion_lon": 0.0, "is_disabled": 0}, {"rental_uris": {"android": "https://dc.lft.to/lastmile_qr_scan", "ios": "https://dc.lft.to/lastmile_qr_scan"}, "type": "electric_scooter", "lon": -77.02403333333334, "name": "5e994639f987c4ba14018e1cef1ed06d", "bike_id": "5e994639f987c4ba14018e1cef1ed06d", "fusion_lat": 0.0, "is_reserved": 0, "lat": 38.920886333333335, "fusion_lon": 0.0, "is_disabled": 0}, {"rental_uris": {"android": "https://dc.lft.to/lastmile_qr_scan", "ios": "https://dc.lft.to/lastmile_qr_scan"}, "type": "electric_scooter", "lon": -76.991983, "name": "d5db8d74c7e9d4da6242f596190bd54a", "bike_id": "d5db8d74c7e9d4da6242f596190bd54a", "fusion_lat": 0.0, "is_reserved": 0, "lat": 38.89520066666667, "fusion_lon": 0.0, "is_disabled": 0}, {"rental_uris": {"android": "https://dc.lft.to/lastmile_qr_scan", "ios": "https://dc.lft.to/lastmile_qr_scan"}, "type": "electric_scooter", "lon": -77.00746383333333, "name": "f7e26d2b1644786b66292a8d2d0f944a", "bike_id": "f7e26d2b1644786b66292a8d2d0f944a", "fusion_lat": 0.0, "is_reserved": 0, "lat": 38.90083633333333, "fusion_lon": 0.0, "is_disabled": 0}, {"rental_uris": {"android": "https://dc.lft.to/lastmile_qr_scan", "ios": "https://dc.lft.to/lastmile_qr_scan"}, "type": "electric_scooter", "lon": -77.04875766666666, "name": "95df2759fb4bfde35abfcd1a3ef4366f", "bike_id": "95df2759fb4bfde35abfcd1a3ef4366f", "fusion_lat": 0.0, "is_reserved": 0, "lat": 38.90975433333333, "fusion_lon": 0.0, "is_disabled": 0}, {"rental_uris": {"android": "https://dc.lft.to/lastmile_qr_scan", "ios": "https://dc.lft.to/lastmile_qr_scan"}, "type": "electric_bike", "lon": -77.09518383333334, "name": "14b406b5fefb150a17c80085b70fb407", "bike_id": "14b406b5fefb150a17c80085b70fb407", "fusion_lat": 0.0, "is_reserved": 0, "lat": 38.83812733333333, "fusion_lon": 0.0, "is_disabled": 0}, {"rental_uris": {"android": "https://dc.lft.to/lastmile_qr_scan", "ios": "https://dc.lft.to/lastmile_qr_scan"}, "type": "electric_scooter", "lon": -77.024285, "name": "056aebc296fdaa2653383efd13b3a40f", "bike_id": "056aebc296fdaa2653383efd13b3a40f", "fusion_lat": 0.0, "is_reserved": 0, "lat": 38.904037833333334, "fusion_lon": 0.0, "is_disabled": 0}, {"rental_uris": {"android": "https://dc.lft.to/lastmile_qr_scan", "ios": "https://dc.lft.to/lastmile_qr_scan"}, "type": "electric_scooter", "lon": -77.04208383333334, "name": "4b30d2795491cb97d7150e1e17835da4", "bike_id": "4b30d2795491cb97d7150e1e17835da4", "fusion_lat": 0.0, "is_reserved": 0, "lat": 38.92128566666667, "fusion_lon": 0.0, "is_disabled": 0}, {"rental_uris": {"android": "https://dc.lft.to/lastmile_qr_scan", "ios": "https://dc.lft.to/lastmile_qr_scan"}, "type": "electric_scooter", "lon": -77.045796, "name": "509f12620caf2c50a96d9d0f4952788e", "bike_id": "509f12620caf2c50a96d9d0f4952788e", "fusion_lat": 0.0, "is_reserved": 0, "lat": 38.92135833333333, "fusion_lon": 0.0, "is_disabled": 0}, {"rental_uris": {"android": "https://dc.lft.to/lastmile_qr_scan", "ios": "https://dc.lft.to/lastmile_qr_scan"}, "type": "electric_scooter", "lon": -77.05288566666667, "name": "c0325e78b165dc32aa2a6d6fc53320fb", "bike_id": "c0325e78b165dc32aa2a6d6fc53320fb", "fusion_lat": 0.0, "is_reserved": 0, "lat": 38.910604166666666, "fusion_lon": 0.0, "is_disabled": 0}, {"rental_uris": {"android": "https://dc.lft.to/lastmile_qr_scan", "ios": "https://dc.lft.to/lastmile_qr_scan"}, "type": "electric_scooter", "lon": -77.02171333333334, "name": "1a1b0635581d61f5682d419d1e1ce429", "bike_id": "1a1b0635581d61f5682d419d1e1ce429", "fusion_lat": 0.0, "is_reserved": 0, "lat": 38.9431415, "fusion_lon": 0.0, "is_disabled": 0}, {"rental_uris": {"android": "https://dc.lft.to/lastmile_qr_scan", "ios": "https://dc.lft.to/lastmile_qr_scan"}, "type": "electric_scooter", "lon": -76.99545666666667, "name": "53a9f2b229b7852a083f7bdd0f214e1a", "bike_id": "53a9f2b229b7852a083f7bdd0f214e1a", "fusion_lat": 0.0, "is_reserved": 0, "lat": 38.88421833333334, "fusion_lon": 0.0, "is_disabled": 0}, {"rental_uris": {"android": "https://dc.lft.to/lastmile_qr_scan", "ios": "https://dc.lft.to/lastmile_qr_scan"}, "type": "electric_scooter", "lon": -77.03456266666667, "name": "8bc24adf89dd6f2c70eda8d8126141e6", "bike_id": "8bc24adf89dd6f2c70eda8d8126141e6", "fusion_lat": 0.0, "is_reserved": 0, "lat": 38.914714000000004, "fusion_lon": 0.0, "is_disabled": 0}, {"rental_uris": {"android": "https://dc.lft.to/lastmile_qr_scan", "ios": "https://dc.lft.to/lastmile_qr_scan"}, "type": "electric_scooter", "lon": -77.0326525, "name": "19ff29119785df23b57affc7928214db", "bike_id": "19ff29119785df23b57affc7928214db", "fusion_lat": 0.0, "is_reserved": 0, "lat": 38.932588, "fusion_lon": 0.0, "is_disabled": 0}, {"rental_uris": {"android": "https://dc.lft.to/lastmile_qr_scan", "ios": "https://dc.lft.to/lastmile_qr_scan"}, "type": "electric_scooter", "lon": -77.0321105, "name": "d4cc619840e813960a51b1754c606d10", "bike_id": "d4cc619840e813960a51b1754c606d10", "fusion_lat": 0.0, "is_reserved": 0, "lat": 38.918564, "fusion_lon": 0.0, "is_disabled": 0}, {"rental_uris": {"android": "https://dc.lft.to/lastmile_qr_scan", "ios": "https://dc.lft.to/lastmile_qr_scan"}, "type": "electric_bike", "lon": -77.0145295, "name": "61f3ae258abf55495cecfdeb4ccb011f", "bike_id": "61f3ae258abf55495cecfdeb4ccb011f", "fusion_lat": 0.0, "is_reserved": 0, "lat": 38.8767975, "fusion_lon": 0.0, "is_disabled": 0}, {"rental_uris": {"android": "https://dc.lft.to/lastmile_qr_scan", "ios": "https://dc.lft.to/lastmile_qr_scan"}, "type": "electric_scooter", "lon": -77.03123083333334, "name": "5c4f46793357907b901e3b370cf7dd89", "bike_id": "5c4f46793357907b901e3b370cf7dd89", "fusion_lat": 0.0, "is_reserved": 0, "lat": 38.973802666666664, "fusion_lon": 0.0, "is_disabled": 0}, {"rental_uris": {"android": "https://dc.lft.to/lastmile_qr_scan", "ios": "https://dc.lft.to/lastmile_qr_scan"}, "type": "electric_scooter", "lon": -77.04653966666666, "name": "573c0f02406ca6a74fae0e75fb13946a", "bike_id": "573c0f02406ca6a74fae0e75fb13946a", "fusion_lat": 0.0, "is_reserved": 0, "lat": 38.8930225, "fusion_lon": 0.0, "is_disabled": 0}, {"rental_uris": {"android": "https://dc.lft.to/lastmile_qr_scan", "ios": "https://dc.lft.to/lastmile_qr_scan"}, "type": "electric_scooter", "lon": -77.02358916666667, "name": "183e5ec7203517ec7f0e945fb86ca4bc", "bike_id": "183e5ec7203517ec7f0e945fb86ca4bc", "fusion_lat": 0.0, "is_reserved": 0, "lat": 38.91770866666667, "fusion_lon": 0.0, "is_disabled": 0}, {"rental_uris": {"android": "https://dc.lft.to/lastmile_qr_scan", "ios": "https://dc.lft.to/lastmile_qr_scan"}, "type": "electric_bike", "lon": -77.05033216666666, "name": "65d46502d2bf87c785b72591454b25c2", "bike_id": "65d46502d2bf87c785b72591454b25c2", "fusion_lat": 0.0, "is_reserved": 0, "lat": 38.911133666666665, "fusion_lon": 0.0, "is_disabled": 0}, {"rental_uris": {"android": "https://dc.lft.to/lastmile_qr_scan", "ios": "https://dc.lft.to/lastmile_qr_scan"}, "type": "electric_scooter", "lon": -76.969164, "name": "85bb6cac95901de43a134944feea96d5", "bike_id": "85bb6cac95901de43a134944feea96d5", "fusion_lat": 0.0, "is_reserved": 0, "lat": 38.85528583333333, "fusion_lon": 0.0, "is_disabled": 0}, {"rental_uris": {"android": "https://dc.lft.to/lastmile_qr_scan", "ios": "https://dc.lft.to/lastmile_qr_scan"}, "type": "electric_scooter", "lon": -77.040463, "name": "2dd60bc8de8244dab5825a03b111f95a", "bike_id": "2dd60bc8de8244dab5825a03b111f95a", "fusion_lat": 0.0, "is_reserved": 0, "lat": 38.928775333333334, "fusion_lon": 0.0, "is_disabled": 0}, {"rental_uris": {"android": "https://dc.lft.to/lastmile_qr_scan", "ios": "https://dc.lft.to/lastmile_qr_scan"}, "type": "electric_scooter", "lon": -77.04403716666667, "name": "72c3bfc928fcd178b1cf6b135a00fd82", "bike_id": "72c3bfc928fcd178b1cf6b135a00fd82", "fusion_lat": 0.0, "is_reserved": 0, "lat": 38.87431633333333, "fusion_lon": 0.0, "is_disabled": 0}, {"rental_uris": {"android": "https://dc.lft.to/lastmile_qr_scan", "ios": "https://dc.lft.to/lastmile_qr_scan"}, "type": "electric_scooter", "lon": -77.03262183333334, "name": "6f35392ef442c7beb6b4017d63a7d837", "bike_id": "6f35392ef442c7beb6b4017d63a7d837", "fusion_lat": 0.0, "is_reserved": 0, "lat": 38.94256766666667, "fusion_lon": 0.0, "is_disabled": 0}, {"rental_uris": {"android": "https://dc.lft.to/lastmile_qr_scan", "ios": "https://dc.lft.to/lastmile_qr_scan"}, "type": "electric_bike", "lon": -77.09154283333334, "name": "3a46dfa7666e2ac445fa100f7a8b4bdd", "bike_id": "3a46dfa7666e2ac445fa100f7a8b4bdd", "fusion_lat": 0.0, "is_reserved": 0, "lat": 38.96764233333333, "fusion_lon": 0.0, "is_disabled": 0}, {"rental_uris": {"android": "https://dc.lft.to/lastmile_qr_scan", "ios": "https://dc.lft.to/lastmile_qr_scan"}, "type": "electric_scooter", "lon": -77.02286383333333, "name": "f6278f79f6fdb6558d338b81747ee0e4", "bike_id": "f6278f79f6fdb6558d338b81747ee0e4", "fusion_lat": 0.0, "is_reserved": 0, "lat": 38.917464333333335, "fusion_lon": 0.0, "is_disabled": 0}, {"rental_uris": {"android": "https://dc.lft.to/lastmile_qr_scan", "ios": "https://dc.lft.to/lastmile_qr_scan"}, "type": "electric_scooter", "lon": -77.03834916666666, "name": "c44737467b68ab2917bfbe3f27a3bd9b", "bike_id": "c44737467b68ab2917bfbe3f27a3bd9b", "fusion_lat": 0.0, "is_reserved": 0, "lat": 38.9310655, "fusion_lon": 0.0, "is_disabled": 0}, {"rental_uris": {"android": "https://dc.lft.to/lastmile_qr_scan", "ios": "https://dc.lft.to/lastmile_qr_scan"}, "type": "electric_scooter", "lon": -76.98618833333333, "name": "7d93e5d008b582876ac0bc64351568ab", "bike_id": "7d93e5d008b582876ac0bc64351568ab", "fusion_lat": 0.0, "is_reserved": 0, "lat": 38.905868, "fusion_lon": 0.0, "is_disabled": 0}, {"rental_uris": {"android": "https://dc.lft.to/lastmile_qr_scan", "ios": "https://dc.lft.to/lastmile_qr_scan"}, "type": "electric_scooter", "lon": -77.07271683333333, "name": "ff3d041f701820f4f34353e7ff41c6fb", "bike_id": "ff3d041f701820f4f34353e7ff41c6fb", "fusion_lat": 0.0, "is_reserved": 0, "lat": 38.934810666666664, "fusion_lon": 0.0, "is_disabled": 0}, {"rental_uris": {"android": "https://dc.lft.to/lastmile_qr_scan", "ios": "https://dc.lft.to/lastmile_qr_scan"}, "type": "electric_scooter", "lon": -77.02006366666667, "name": "077667a644a58d4af5d82f84ae0f5767", "bike_id": "077667a644a58d4af5d82f84ae0f5767", "fusion_lat": 0.0, "is_reserved": 0, "lat": 38.879405166666665, "fusion_lon": 0.0, "is_disabled": 0}, {"rental_uris": {"android": "https://dc.lft.to/lastmile_qr_scan", "ios": "https://dc.lft.to/lastmile_qr_scan"}, "type": "electric_scooter", "lon": -77.024798, "name": "29f5c030b8786f0c44d9827304c4090e", "bike_id": "29f5c030b8786f0c44d9827304c4090e", "fusion_lat": 0.0, "is_reserved": 0, "lat": 38.938799333333336, "fusion_lon": 0.0, "is_disabled": 0}, {"rental_uris": {"android": "https://dc.lft.to/lastmile_qr_scan", "ios": "https://dc.lft.to/lastmile_qr_scan"}, "type": "electric_scooter", "lon": -77.038553, "name": "e03a996cefaa35826df0058057ceb3cc", "bike_id": "e03a996cefaa35826df0058057ceb3cc", "fusion_lat": 0.0, "is_reserved": 0, "lat": 38.91179666666667, "fusion_lon": 0.0, "is_disabled": 0}, {"rental_uris": {"android": "https://dc.lft.to/lastmile_qr_scan", "ios": "https://dc.lft.to/lastmile_qr_scan"}, "type": "electric_scooter", "lon": -77.07364716666666, "name": "0b11eac1f0f5470c48913c4c66bbc3b6", "bike_id": "0b11eac1f0f5470c48913c4c66bbc3b6", "fusion_lat": 0.0, "is_reserved": 0, "lat": 38.94324483333333, "fusion_lon": 0.0, "is_disabled": 0}, {"rental_uris": {"android": "https://dc.lft.to/lastmile_qr_scan", "ios": "https://dc.lft.to/lastmile_qr_scan"}, "type": "electric_scooter", "lon": -77.017609, "name": "523a1c395e234020bf1e797538f386fc", "bike_id": "523a1c395e234020bf1e797538f386fc", "fusion_lat": 0.0, "is_reserved": 0, "lat": 38.9020865, "fusion_lon": 0.0, "is_disabled": 0}, {"rental_uris": {"android": "https://dc.lft.to/lastmile_qr_scan", "ios": "https://dc.lft.to/lastmile_qr_scan"}, "type": "electric_bike", "lon": -77.00861816666666, "name": "9f9c24573d000fa5e8b0367ddf79ca30", "bike_id": "9f9c24573d000fa5e8b0367ddf79ca30", "fusion_lat": 0.0, "is_reserved": 0, "lat": 38.827321, "fusion_lon": 0.0, "is_disabled": 0}, {"rental_uris": {"android": "https://dc.lft.to/lastmile_qr_scan", "ios": "https://dc.lft.to/lastmile_qr_scan"}, "type": "electric_scooter", "lon": -77.03453033333334, "name": "916f18680aed68205d1a192cef56a026", "bike_id": "916f18680aed68205d1a192cef56a026", "fusion_lat": 0.0, "is_reserved": 0, "lat": 38.90870683333333, "fusion_lon": 0.0, "is_disabled": 0}, {"rental_uris": {"android": "https://dc.lft.to/lastmile_qr_scan", "ios": "https://dc.lft.to/lastmile_qr_scan"}, "type": "electric_scooter", "lon": -77.00758216666667, "name": "6dee970bd42b54aff3e5dfafb25ecbc2", "bike_id": "6dee970bd42b54aff3e5dfafb25ecbc2", "fusion_lat": 0.0, "is_reserved": 0, "lat": 38.9102785, "fusion_lon": 0.0, "is_disabled": 0}, {"rental_uris": {"android": "https://dc.lft.to/lastmile_qr_scan", "ios": "https://dc.lft.to/lastmile_qr_scan"}, "type": "electric_scooter", "lon": -76.99380933333333, "name": "d15f2f469a7b4f57200a359c0a5af4e6", "bike_id": "d15f2f469a7b4f57200a359c0a5af4e6", "fusion_lat": 0.0, "is_reserved": 0, "lat": 38.92402533333333, "fusion_lon": 0.0, "is_disabled": 0}, {"rental_uris": {"android": "https://dc.lft.to/lastmile_qr_scan", "ios": "https://dc.lft.to/lastmile_qr_scan"}, "type": "electric_scooter", "lon": -76.985581, "name": "b767fee0f8530cdf0667940bfac9ab76", "bike_id": "b767fee0f8530cdf0667940bfac9ab76", "fusion_lat": 0.0, "is_reserved": 0, "lat": 38.85594066666667, "fusion_lon": 0.0, "is_disabled": 0}, {"rental_uris": {"android": "https://dc.lft.to/lastmile_qr_scan", "ios": "https://dc.lft.to/lastmile_qr_scan"}, "type": "electric_scooter", "lon": -76.9648785, "name": "b6748c22387a381a5d32c209d64a7564", "bike_id": "b6748c22387a381a5d32c209d64a7564", "fusion_lat": 0.0, "is_reserved": 0, "lat": 38.875522833333335, "fusion_lon": 0.0, "is_disabled": 0}, {"rental_uris": {"android": "https://dc.lft.to/lastmile_qr_scan", "ios": "https://dc.lft.to/lastmile_qr_scan"}, "type": "electric_scooter", "lon": -77.01719116666666, "name": "02f9be0f6e8352b1d5b19bd18955c0e3", "bike_id": "02f9be0f6e8352b1d5b19bd18955c0e3", "fusion_lat": 0.0, "is_reserved": 0, "lat": 38.87940116666667, "fusion_lon": 0.0, "is_disabled": 0}, {"rental_uris": {"android": "https://dc.lft.to/lastmile_qr_scan", "ios": "https://dc.lft.to/lastmile_qr_scan"}, "type": "electric_bike", "lon": -76.95805716666666, "name": "e2778391dc0eb4f1eaf9dc17c8672b08", "bike_id": "e2778391dc0eb4f1eaf9dc17c8672b08", "fusion_lat": 0.0, "is_reserved": 0, "lat": 38.980513333333334, "fusion_lon": 0.0, "is_disabled": 0}, {"rental_uris": {"android": "https://dc.lft.to/lastmile_qr_scan", "ios": "https://dc.lft.to/lastmile_qr_scan"}, "type": "electric_scooter", "lon": -76.99367866666667, "name": "996f14e15fa9785a39adc1ee6a244ff3", "bike_id": "996f14e15fa9785a39adc1ee6a244ff3", "fusion_lat": 0.0, "is_reserved": 0, "lat": 38.928428, "fusion_lon": 0.0, "is_disabled": 0}, {"rental_uris": {"android": "https://dc.lft.to/lastmile_qr_scan", "ios": "https://dc.lft.to/lastmile_qr_scan"}, "type": "electric_scooter", "lon": -77.05882183333334, "name": "cd3ff3a28572286c9878569d13fb3102", "bike_id": "cd3ff3a28572286c9878569d13fb3102", "fusion_lat": 0.0, "is_reserved": 0, "lat": 38.93638983333334, "fusion_lon": 0.0, "is_disabled": 0}, {"rental_uris": {"android": "https://dc.lft.to/lastmile_qr_scan", "ios": "https://dc.lft.to/lastmile_qr_scan"}, "type": "electric_scooter", "lon": -76.99397833333333, "name": "ac103ef37e25f4f4cde5d8a699ebfcf0", "bike_id": "ac103ef37e25f4f4cde5d8a699ebfcf0", "fusion_lat": 0.0, "is_reserved": 0, "lat": 38.92269366666667, "fusion_lon": 0.0, "is_disabled": 0}, {"rental_uris": {"android": "https://dc.lft.to/lastmile_qr_scan", "ios": "https://dc.lft.to/lastmile_qr_scan"}, "type": "electric_scooter", "lon": -76.99003566666667, "name": "b594881418bf370f4e1cf0c0f5c16b9d", "bike_id": "b594881418bf370f4e1cf0c0f5c16b9d", "fusion_lat": 0.0, "is_reserved": 0, "lat": 38.86511683333333, "fusion_lon": 0.0, "is_disabled": 0}, {"rental_uris": {"android": "https://dc.lft.to/lastmile_qr_scan", "ios": "https://dc.lft.to/lastmile_qr_scan"}, "type": "electric_scooter", "lon": -76.99073316666667, "name": "b7f65381138793d3bf37f2c9dc1bf285", "bike_id": "b7f65381138793d3bf37f2c9dc1bf285", "fusion_lat": 0.0, "is_reserved": 0, "lat": 38.86054816666667, "fusion_lon": 0.0, "is_disabled": 0}, {"rental_uris": {"android": "https://dc.lft.to/lastmile_qr_scan", "ios": "https://dc.lft.to/lastmile_qr_scan"}, "type": "electric_scooter", "lon": -77.0228095, "name": "080a7d2fd92252bf008197d766b297cc", "bike_id": "080a7d2fd92252bf008197d766b297cc", "fusion_lat": 0.0, "is_reserved": 0, "lat": 38.909590666666666, "fusion_lon": 0.0, "is_disabled": 0},