{"data": {"bikes": [{"lon": -77.01977633333334, "is_disabled": 0, "lat": 38.88403733333333, "fusion_lat": 0.0, "is_reserved": 0, "rental_uris": {"ios": "https://dc.lft.to/lastmile_qr_scan", "android": "https://dc.lft.to/lastmile_qr_scan"}, "fusion_lon": 0.0, "type": "electric_scooter", "bike_id": "b61c6fdb0720445261492075a5b0a09b", "name": "b61c6fdb0720445261492075a5b0a09b"}, {"lon": -76.98012866666667, "is_disabled": 0, "lat": 38.853150666666664, "fusion_lat": 0.0, "is_reserved": 0, "rental_uris": {"ios": "https://dc.lft.to/lastmile_qr_scan", "android": "https://dc.lft.to/lastmile_qr_scan"}, "fusion_lon": 0.0, "type": "electric_scooter", "bike_id": "c4c14cdee9384127c2b95d7532b3ab82", "name": "c4c14cdee9384127c2b95d7532b3ab82"}, {"lon": -76.92682766666667, "is_disabled": 0, "lat": 38.88849166666667, "fusion_lat": 0.0, "is_reserved": 0, "rental_uris": {"ios": "https://dc.lft.to/lastmile_qr_scan", "android": "https://dc.lft.to/lastmile_qr_scan"}, "fusion_lon": 0.0, "type": "electric_scooter", "bike_id": "807a78660e0022668e5c90153d8e7c40", "name": "807a78660e0022668e5c90153d8e7c40"}, {"lon": -76.9841725, "is_disabled": 0, "lat": 38.913863666666664, "fusion_lat": 0.0, "is_reserved": 0, "rental_uris": {"ios": "https://dc.lft.to/lastmile_qr_scan", "android": "https://dc.lft.to/lastmile_qr_scan"}, "fusion_lon": 0.0, "type": "electric_scooter", "bike_id": "476af7a74f06308e876ced5f822459d0", "name": "476af7a74f06308e876ced5f822459d0"}, {"lon": -77.0059445, "is_disabled": 0, "lat": 38.875713833333336, "fusion_lat": 0.0, "is_reserved": 0, "rental_uris": {"ios": "https://dc.lft.to/lastmile_qr_scan", "android": "https://dc.lft.to/lastmile_qr_scan"}, "fusion_lon": 0.0, "type": "electric_scooter", "bike_id": "3be64862aa8b240efbc0e61634f02f5c", "name": "3be64862aa8b240efbc0e61634f02f5c"}, {"lon": -77.03660433333333, "is_disabled": 0, "lat": 38.926033333333336, "fusion_lat": 0.0, "is_reserved": 0, "rental_uris": {"ios": "https://dc.lft.to/lastmile_qr_scan", "android": "https://dc.lft.to/lastmile_qr_scan"}, "fusion_lon": 0.0, "type": "electric_scooter", "bike_id": "56b83264694b033c353bdd85757eb2be", "name": "56b83264694b033c353bdd85757eb2be"}, {"lon": -76.96985866666667, "is_disabled": 0, "lat": 38.87865016666667, "fusion_lat": 0.0, "is_reserved": 0, "rental_uris": {"ios": "https://dc.lft.to/lastmile_qr_scan", "android": "https://dc.lft.to/lastmile_qr_scan"}, "fusion_lon": 0.0, "type": "electric_scooter", "bike_id": "dce4b39439c01334eb668ab99fa7323a", "name": "dce4b39439c01334eb668ab99fa7323a"}, {"lon": -77.02478333333333, "is_disabled": 0, "lat": 38.91884366666667, "fusion_lat": 0.0, "is_reserved": 0, "rental_uris": {"ios": "https://dc.lft.to/lastmile_qr_scan", "android": "https://dc.lft.to/lastmile_qr_scan"}, "fusion_lon": 0.0, "type": "electric_scooter", "bike_id": "f4327d0b30bf3646d8674c2ec71f6115", "name": "f4327d0b30bf3646d8674c2ec71f6115"}, {"lon": -77.0531935, "is_disabled": 0, "lat": 38.9043855, "fusion_lat": 0.0, "is_reserved": 0, "rental_uris": {"ios": "https://dc.lft.to/lastmile_qr_scan", "android": "https://dc.lft.to/lastmile_qr_scan"}, "fusion_lon": 0.0, "type": "electric_scooter", "bike_id": "3aa17c7c0338556be2ceddb25e04231e", "name": "3aa17c7c0338556be2ceddb25e04231e"}, {"lon": -76.96909233333334, "is_disabled": 0, "lat": 38.874214333333335, "fusion_lat": 0.0, "is_reserved": 0, "rental_uris": {"ios": "https://dc.lft.to/lastmile_qr_scan", "android": "https://dc.lft.to/lastmile_qr_scan"}, "fusion_lon": 0.0, "type": "electric_scooter", "bike_id": "8368445df8ac53f4a85c85eed4011145", "name": "8368445df8ac53f4a85c85eed4011145"}, {"lon": -77.00325866666667, "is_disabled": 0, "lat": 38.919412333333334, "fusion_lat": 0.0, "is_reserved": 0, "rental_uris": {"ios": "https://dc.lft.to/lastmile_qr_scan", "android": "https://dc.lft.to/lastmile_qr_scan"}, "fusion_lon": 0.0, "type": "electric_scooter", "bike_id": "bbdfbcd283b38bfdae9f1f70dd0fc3a5", "name": "bbdfbcd283b38bfdae9f1f70dd0fc3a5"}, {"lon": -77.02206216666667, "is_disabled": 0, "lat": 38.89629816666667, "fusion_lat": 0.0, "is_reserved": 0, "rental_uris": {"ios": "https://dc.lft.to/lastmile_qr_scan", "android": "https://dc.lft.to/lastmile_qr_scan"}, "fusion_lon": 0.0, "type": "electric_scooter", "bike_id": "49ae156807a1754b53e806352972969a", "name": "49ae156807a1754b53e806352972969a"}, {"lon": -77.04458116666666, "is_disabled": 0, "lat": 38.911149333333334, "fusion_lat": 0.0, "is_reserved": 0, "rental_uris": {"ios": "https://dc.lft.to/lastmile_qr_scan", "android": "https://dc.lft.to/lastmile_qr_scan"}, "fusion_lon": 0.0, "type": "electric_scooter", "bike_id": "f4322c09270267913111c8ed4f09239b", "name": "f4322c09270267913111c8ed4f09239b"}, {"lon": -76.942504, "is_disabled": 0, "lat": 38.898497, "fusion_lat": 0.0, "is_reserved": 0, "rental_uris": {"ios": "https://dc.lft.to/lastmile_qr_scan", "android": "https://dc.lft.to/lastmile_qr_scan"}, "fusion_lon": 0.0, "type": "electric_scooter", "bike_id": "9de92964a3fe5396218017770a328b5e", "name": "9de92964a3fe5396218017770a328b5e"}, {"lon": -76.9307115, "is_disabled": 0, "lat": 38.901678, "fusion_lat": 0.0, "is_reserved": 0, "rental_uris": {"ios": "https://dc.lft.to/lastmile_qr_scan", "android": "https://dc.lft.to/lastmile_qr_scan"}, "fusion_lon": 0.0, "type": "electric_scooter", "bike_id": "38f2d24175295734bc16b02c2c1fc6ec", "name": "38f2d24175295734bc16b02c2c1fc6ec"}, {"lon": -77.06659266666666, "is_disabled": 0, "lat": 38.950766, "fusion_lat": 0.0, "is_reserved": 0, "rental_uris": {"ios": "https://dc.lft.to/lastmile_qr_scan", "android": "https://dc.lft.to/lastmile_qr_scan"}, "fusion_lon": 0.0, "type": "electric_bike", "bike_id": "8115d9b87c57782d4fda632e32d118cd", "name": "8115d9b87c57782d4fda632e32d118cd"}, {"lon": -77.02183, "is_disabled": 0, "lat": 38.913144833333334, "fusion_lat": 0.0, "is_reserved": 0, "rental_uris": {"ios": "https://dc.lft.to/lastmile_qr_scan", "android": "https://dc.lft.to/lastmile_qr_scan"}, "fusion_lon": 0.0, "type": "electric_scooter", "bike_id": "b88a4b6e0ae1ccf499d14336c623d1ba", "name": "b88a4b6e0ae1ccf499d14336c623d1ba"}, {"lon": -77.06120216666666, "is_disabled": 0, "lat": 38.94356883333333, "fusion_lat": 0.0, "is_reserved": 0, "rental_uris": {"ios": "https://dc.lft.to/lastmile_qr_scan", "android": "https://dc.lft.to/lastmile_qr_scan"}, "fusion_lon": 0.0, "type": "electric_scooter", "bike_id": "ade7bb090081249ca0651cb0ec8d662b", "name": "ade7bb090081249ca0651cb0ec8d662b"}, {"lon": -77.06278683333333, "is_disabled": 0, "lat": 38.905821, "fusion_lat": 0.0, "is_reserved": 0, "rental_uris": {"ios": "https://dc.lft.to/lastmile_qr_scan", "android": "https://dc.lft.to/lastmile_qr_scan"}, "fusion_lon": 0.0, "type": "electric_scooter", "bike_id": "eda7c977ac5c63918cb01ba38ddfed55", "name": "eda7c977ac5c63918cb01ba38ddfed55"}, {"lon": -77.0216365, "is_disabled": 0, "lat": 38.92613033333333, "fusion_lat": 0.0, "is_reserved": 0, "rental_uris": {"ios": "https://dc.lft.to/lastmile_qr_scan", "android": "https://dc.lft.to/lastmile_qr_scan"}, "fusion_lon": 0.0, "type": "electric_scooter", "bike_id": "5a977906f9cb065c83f110db801e0b58", "name": "5a977906f9cb065c83f110db801e0b58"}, {"lon": -77.056814, "is_disabled": 0, "lat": 38.951602, "fusion_lat": 0.0, "is_reserved": 0, "rental_uris": {"ios": "https://dc.lft.to/lastmile_qr_scan", "android": "https://dc.lft.to/lastmile_qr_scan"}, "fusion_lon": 0.0, "type": "electric_scooter", "bike_id": "10b8db60fb091c9d1515571c11bd0ad6", "name": "10b8db60fb091c9d1515571c11bd0ad6"}, {"lon": -77.0433545, "is_disabled": 0, "lat": 38.90723916666666, "fusion_lat": 0.0, "is_reserved": 0, "rental_uris": {"ios": "https://dc.lft.to/lastmile_qr_scan", "android": "https://dc.lft.to/lastmile_qr_scan"}, "fusion_lon": 0.0, "type": "electric_scooter", "bike_id": "aeca5b80b0acdd82d101d7e285db51ed", "name": "aeca5b80b0acdd82d101d7e285db51ed"}, {"lon": -77.0390805, "is_disabled": 0, "lat": 38.903799166666666, "fusion_lat": 0.0, "is_reserved": 0, "rental_uris": {"ios": "https://dc.lft.to/lastmile_qr_scan", "android": "https://dc.lft.to/lastmile_qr_scan"}, "fusion_lon": 0.0, "type": "electric_scooter", "bike_id": "15ce0eea5482f5912db705ccf806640a", "name": "15ce0eea5482f5912db705ccf806640a"}, {"lon": -77.036547, "is_disabled": 0, "lat": 38.9028255, "fusion_lat": 0.0, "is_reserved": 0, "rental_uris": {"ios": "https://dc.lft.to/lastmile_qr_scan", "android": "https://dc.lft.to/lastmile_qr_scan"}, "fusion_lon": 0.0, "type": "electric_scooter", "bike_id": "0e3d6fb502c432dc40bc9c70642560aa", "name": "0e3d6fb502c432dc40bc9c70642560aa"}, {"lon": -77.00682883333333, "is_disabled": 0, "lat": 38.87174533333334, "fusion_lat": 0.0, "is_reserved": 0, "rental_uris": {"ios": "https://dc.lft.to/lastmile_qr_scan", "android": "https://dc.lft.to/lastmile_qr_scan"}, "fusion_lon": 0.0, "type": "electric_scooter", "bike_id": "123f071859df7e9e45b1c41e0b2da489", "name": "123f071859df7e9e45b1c41e0b2da489"}, {"lon": -77.02084683333334, "is_disabled": 0, "lat": 38.92405, "fusion_lat": 0.0, "is_reserved": 0, "rental_uris": {"ios": "https://dc.lft.to/lastmile_qr_scan", "android": "https://dc.lft.to/lastmile_qr_scan"}, "fusion_lon": 0.0, "type": "electric_scooter", "bike_id": "d0c3165651adebd9ce649974c98c58c0", "name": "d0c3165651adebd9ce649974c98c58c0"}, {"lon": -77.02121683333333, "is_disabled": 0, "lat": 38.914158666666665, "fusion_lat": 0.0, "is_reserved": 0, "rental_uris": {"ios": "https://dc.lft.to/lastmile_qr_scan", "android": "https://dc.lft.to/lastmile_qr_scan"}, "fusion_lon": 0.0, "type": "electric_scooter", "bike_id": "e42156eb21f42d8487e471cc79a0d117", "name": "e42156eb21f42d8487e471cc79a0d117"}, {"lon": -76.9493695, "is_disabled": 0, "lat": 38.893578, "fusion_lat": 0.0, "is_reserved": 0, "rental_uris": {"ios": "https://dc.lft.to/lastmile_qr_scan", "android": "https://dc.lft.to/lastmile_qr_scan"}, "fusion_lon": 0.0, "type": "electric_scooter", "bike_id": "df846f3cb6bf768b8aade296dd559b75", "name": "df846f3cb6bf768b8aade296dd559b75"}, {"lon": -77.04874683333334, "is_disabled": 0, "lat": 38.90977683333333, "fusion_lat": 0.0, "is_reserved": 0, "rental_uris": {"ios": "https://dc.lft.to/lastmile_qr_scan", "android": "https://dc.lft.to/lastmile_qr_scan"}, "fusion_lon": 0.0, "type": "electric_scooter", "bike_id": "35ba6078d82f3943bfc6a5c2ef44b84d", "name": "35ba6078d82f3943bfc6a5c2ef44b84d"}, {"lon": -77.05044666666667, "is_disabled": 0, "lat": 38.92342383333333, "fusion_lat": 0.0, "is_reserved": 0, "rental_uris": {"ios": "https://dc.lft.to/lastmile_qr_scan", "android": "https://dc.lft.to/lastmile_qr_scan"}, "fusion_lon": 0.0, "type": "electric_scooter", "bike_id": "91706ad7486c3ab32912a9fe82b81edc", "name": "91706ad7486c3ab32912a9fe82b81edc"}, {"lon": -76.99769816666667, "is_disabled": 0, "lat": 38.90894566666667, "fusion_lat": 0.0, "is_reserved": 0, "rental_uris": {"ios": "https://dc.lft.to/lastmile_qr_scan", "android": "https://dc.lft.to/lastmile_qr_scan"}, "fusion_lon": 0.0, "type": "electric_scooter", "bike_id": "20cc67ec883e92294ce4cce4ae1625cd", "name": "20cc67ec883e92294ce4cce4ae1625cd"}, {"lon": -77.01506766666667, "is_disabled": 0, "lat": 38.884909, "fusion_lat": 0.0, "is_reserved": 0, "rental_uris": {"ios": "https://dc.lft.to/lastmile_qr_scan", "android": "https://dc.lft.to/lastmile_qr_scan"}, "fusion_lon": 0.0, "type": "electric_scooter", "bike_id": "a5a7243ee504f0b076271b56f9cee3e2", "name": "a5a7243ee504f0b076271b56f9cee3e2"}, {"lon": -76.99501866666667, "is_disabled": 0, "lat": 38.82172633333333, "fusion_lat": 0.0, "is_reserved": 0, "rental_uris": {"ios": "https://dc.lft.to/lastmile_qr_scan", "android": "https://dc.lft.to/lastmile_qr_scan"}, "fusion_lon": 0.0, "type": "electric_bike", "bike_id": "30d5d0fc374ace08d6d98eaba26ba8f8", "name": "30d5d0fc374ace08d6d98eaba26ba8f8"}, {"lon": -77.0196145, "is_disabled": 0, "lat": 38.92413883333333, "fusion_lat": 0.0, "is_reserved": 0, "rental_uris": {"ios": "https://dc.lft.to/lastmile_qr_scan", "android": "https://dc.lft.to/lastmile_qr_scan"}, "fusion_lon": 0.0, "type": "electric_scooter", "bike_id": "ce6c38ac21da7b5660033bd37d2cf309", "name": "ce6c38ac21da7b5660033bd37d2cf309"}, {"lon": -76.98544516666666, "is_disabled": 0, "lat": 38.86690516666667, "fusion_lat": 0.0, "is_reserved": 0, "rental_uris": {"ios": "https://dc.lft.to/lastmile_qr_scan", "android": "https://dc.lft.to/lastmile_qr_scan"}, "fusion_lon": 0.0, "type": "electric_scooter", "bike_id": "c871ee4eb7bead91ae8ee48d5bcbde2e", "name": "c871ee4eb7bead91ae8ee48d5bcbde2e"}, {"lon": -77.04679016666667, "is_disabled": 0, "lat": 38.895107833333334, "fusion_lat": 0.0, "is_reserved": 0, "rental_uris": {"ios": "https://dc.lft.to/lastmile_qr_scan", "android": "https://dc.lft.to/lastmile_qr_scan"}, "fusion_lon": 0.0, "type": "electric_scooter", "bike_id": "7bd3950a016aa6a0721a3a3789b6e98b", "name": "7bd3950a016aa6a0721a3a3789b6e98b"}, {"lon": -76.99755566666667, "is_disabled": 0, "lat": 38.877516166666666, "fusion_lat": 0.0, "is_reserved": 0, "rental_uris": {"ios": "https://dc.lft.to/lastmile_qr_scan", "android": "https://dc.lft.to/lastmile_qr_scan"}, "fusion_lon": 0.0, "type": "electric_scooter", "bike_id": "b28318f31f8688f078378fc58982c4ca", "name": "b28318f31f8688f078378fc58982c4ca"}, {"lon": -77.02363366666667, "is_disabled": 0, "lat": 38.900008166666666, "fusion_lat": 0.0, "is_reserved": 0, "rental_uris": {"ios": "https://dc.lft.to/lastmile_qr_scan", "android": "https://dc.lft.to/lastmile_qr_scan"}, "fusion_lon": 0.0, "type": "electric_scooter", "bike_id": "c311d14dd4ae862f4f04d6aed54e8dcb", "name": "c311d14dd4ae862f4f04d6aed54e8dcb"}, {"lon": -76.9913025, "is_disabled": 0, "lat": 38.846410666666664, "fusion_lat": 0.0, "is_reserved": 0, "rental_uris": {"ios": "https://dc.lft.to/lastmile_qr_scan", "android": "https://dc.lft.to/lastmile_qr_scan"}, "fusion_lon": 0.0, "type": "electric_scooter", "bike_id": "758b31caa9b8912c8b2958b0e0d2194c", "name": "758b31caa9b8912c8b2958b0e0d2194c"}, {"lon": -77.0173955, "is_disabled": 0, "lat": 38.902838, "fusion_lat": 0.0, "is_reserved": 0, "rental_uris": {"ios": "https://dc.lft.to/lastmile_qr_scan", "android": "https://dc.lft.to/lastmile_qr_scan"}, "fusion_lon": 0.0, "type": "electric_scooter", "bike_id": "8fef8575c363ebafc2688dd9063db64b", "name": "8fef8575c363ebafc2688dd9063db64b"}, {"lon": -76.94635616666666, "is_disabled": 0, "lat": 38.8983135, "fusion_lat": 0.0, "is_reserved": 0, "rental_uris": {"ios": "https://dc.lft.to/lastmile_qr_scan", "android": "https://dc.lft.to/lastmile_qr_scan"}, "fusion_lon": 0.0, "type": "electric_scooter", "bike_id": "01cdf163dad92eb464b9fb1ae072cf95", "name": "01cdf163dad92eb464b9fb1ae072cf95"}, {"lon": -77.00049666666666, "is_disabled": 0, "lat": 38.92328666666667, "fusion_lat": 0.0, "is_reserved": 0, "rental_uris": {"ios": "https://dc.lft.to/lastmile_qr_scan", "android": "https://dc.lft.to/lastmile_qr_scan"}, "fusion_lon": 0.0, "type": "electric_scooter", "bike_id": "9d3dce7eb5dde233c6c0e6a6d32124ac", "name": "9d3dce7eb5dde233c6c0e6a6d32124ac"}, {"lon": -77.03256333333333, "is_disabled": 0, "lat": 38.93968383333333, "fusion_lat": 0.0, "is_reserved": 0, "rental_uris": {"ios": "https://dc.lft.to/lastmile_qr_scan", "android": "https://dc.lft.to/lastmile_qr_scan"}, "fusion_lon": 0.0, "type": "electric_scooter", "bike_id": "0446caffa870bf585b4fbb767b305ec9", "name": "0446caffa870bf585b4fbb767b305ec9"}, {"lon": -77.0177465, "is_disabled": 0, "lat": 38.9150515, "fusion_lat": 0.0, "is_reserved": 0, "rental_uris": {"ios": "https://dc.lft.to/lastmile_qr_scan", "android": "https://dc.lft.to/lastmile_qr_scan"}, "fusion_lon": 0.0, "type": "electric_scooter", "bike_id": "ce1103460661645fc820503fe30bd04e", "name": "ce1103460661645fc820503fe30bd04e"}, {"lon": -77.042604, "is_disabled": 0, "lat": 38.923668666666664, "fusion_lat": 0.0, "is_reserved": 0, "rental_uris": {"ios": "https://dc.lft.to/lastmile_qr_scan", "android": "https://dc.lft.to/lastmile_qr_scan"}, "fusion_lon": 0.0, "type": "electric_scooter", "bike_id": "72732c7e4be2ba99cb7370bd5e069975", "name": "72732c7e4be2ba99cb7370bd5e069975"}, {"lon": -77.1086015, "is_disabled": 0, "lat": 38.84600833333333, "fusion_lat": 0.0, "is_reserved": 0, "rental_uris": {"ios": "https://dc.lft.to/lastmile_qr_scan", "android": "https://dc.lft.to/lastmile_qr_scan"}, "fusion_lon": 0.0, "type": "electric_bike", "bike_id": "302f717df5e5f7e984f1501f83b18e51", "name": "302f717df5e5f7e984f1501f83b18e51"}, {"lon": -77.04187216666666, "is_disabled": 0, "lat": 38.90145966666667, "fusion_lat": 0.0, "is_reserved": 0, "rental_uris": {"ios": "https://dc.lft.to/lastmile_qr_scan", "android": "https://dc.lft.to/lastmile_qr_scan"}, "fusion_lon": 0.0, "type": "electric_scooter", "bike_id": "8124b61557ed65ad2242d1bff09a7a85", "name": "8124b61557ed65ad2242d1bff09a7a85"}, {"lon": -77.01077583333333, "is_disabled": 0, "lat": 38.9096195, "fusion_lat": 0.0, "is_reserved": 0, "rental_uris": {"ios": "https://dc.lft.to/lastmile_qr_scan", "android": "https://dc.lft.to/lastmile_qr_scan"}, "fusion_lon": 0.0, "type": "electric_scooter", "bike_id": "6a5a66b679be1ae3c25e1dfc116680a6", "name": "6a5a66b679be1ae3c25e1dfc116680a6"}, {"lon": -76.97369233333333, "is_disabled": 0, "lat": 38.9631925, "fusion_lat": 0.0, "is_reserved": 0, "rental_uris": {"ios": "https://dc.lft.to/lastmile_qr_scan", "android": "https://dc.lft.to/lastmile_qr_scan"}, "fusion_lon": 0.0, "type": "electric_bike", "bike_id": "c4553937c3816e70ceadd48d68200a28", "name": "c4553937c3816e70ceadd48d68200a28"}, {"lon": -77.0169855, "is_disabled": 0, "lat": 38.97502133333333, "fusion_lat": 0.0, "is_reserved": 0, "rental_uris": {"ios": "https://dc.lft.to/lastmile_qr_scan", "android": "https://dc.lft.to/lastmile_qr_scan"}, "fusion_lon": 0.0, "type": "electric_scooter", "bike_id": "972c6f3faba9e407d3b0e8080487cbdd", "name": "972c6f3faba9e407d3b0e8080487cbdd"}, {"lon": -77.00148633333333, "is_disabled": 0, "lat": 38.873096833333335, "fusion_lat": 0.0, "is_reserved": 0, "rental_uris": {"ios": "https://dc.lft.to/lastmile_qr_scan", "android": "https://dc.lft.to/lastmile_qr_scan"}, "fusion_lon": 0.0, "type": "electric_scooter", "bike_id": "aab7a89fb1912ce5ebe67e38e72f02da", "name": "aab7a89fb1912ce5ebe67e38e72f02da"}, {"lon": -77.01982, "is_disabled": 0, "lat": 38.887196, "fusion_lat": 0.0, "is_reserved": 0, "rental_uris": {"ios": "https://dc.lft.to/lastmile_qr_scan", "android": "https://dc.lft.to/lastmile_qr_scan"}, "fusion_lon": 0.0, "type": "electric_scooter", "bike_id": "48aadc4944e04f0c10e9cb307fd4cd12", "name": "48aadc4944e04f0c10e9cb307fd4cd12"}, {"lon": -77.03163516666666, "is_disabled": 0, "lat": 38.9209065, "fusion_lat": 0.0, "is_reserved": 0, "rental_uris": {"ios": "https://dc.lft.to/lastmile_qr_scan", "android": "https://dc.lft.to/lastmile_qr_scan"}, "fusion_lon": 0.0, "type": "electric_scooter", "bike_id": "158a9345a5080c72f506f9817d978b5f", "name": "158a9345a5080c72f506f9817d978b5f"}, {"lon": -76.97254966666667, "is_disabled": 0, "lat": 38.957471, "fusion_lat": 0.0, "is_reserved": 0, "rental_uris": {"ios": "https://dc.lft.to/lastmile_qr_scan", "android": "https://dc.lft.to/lastmile_qr_scan"}, "fusion_lon": 0.0, "type": "electric_bike", "bike_id": "2efc8ddd4741a42de30c08be14914cdd", "name": "2efc8ddd4741a42de30c08be14914cdd"}, {"lon": -77.02309733333334, "is_disabled": 0, "lat": 38.955259, "fusion_lat": 0.0, "is_reserved": 0, "rental_uris": {"ios": "https://dc.lft.to/lastmile_qr_scan", "android": "https://dc.lft.to/lastmile_qr_scan"}, "fusion_lon": 0.0, "type": "electric_scooter", "bike_id": "be9531f43d90ff7f6bdd6744c4e12471", "name": "be9531f43d90ff7f6bdd6744c4e12471"}, {"lon": -77.0943305, "is_disabled": 0, "lat": 38.944894, "fusion_lat": 0.0, "is_reserved": 0, "rental_uris": {"ios": "https://dc.lft.to/lastmile_qr_scan", "android": "https://dc.lft.to/lastmile_qr_scan"}, "fusion_lon": 0.0, "type": "electric_scooter", "bike_id": "865c1c3473e87d6757beb5320044a278", "name": "865c1c3473e87d6757beb5320044a278"}, {"lon": -77.04496366666666, "is_disabled": 0, "lat": 38.903659833333336, "fusion_lat": 0.0, "is_reserved": 0, "rental_uris": {"ios": "https://dc.lft.to/lastmile_qr_scan", "android": "https://dc.lft.to/lastmile_qr_scan"}, "fusion_lon": 0.0, "type": "electric_scooter", "bike_id": "fe01fd878d2f05b2cbe2cb234aadac89", "name": "fe01fd878d2f05b2cbe2cb234aadac89"}, {"lon": -77.011188, "is_disabled": 0, "lat": 38.9631435, "fusion_lat": 0.0, "is_reserved": 0, "rental_uris": {"ios": "https://dc.lft.to/lastmile_qr_scan", "android": "https://dc.lft.to/lastmile_qr_scan"}, "fusion_lon": 0.0, "type": "electric_bike", "bike_id": "d1f87311a2ed1ba761e2d5775da759cd", "name": "d1f87311a2ed1ba761e2d5775da759cd"}, {"lon": -77.0469055, "is_disabled": 0, "lat": 38.897427666666665, "fusion_lat": 0.0, "is_reserved": 0, "rental_uris": {"ios": "https://dc.lft.to/lastmile_qr_scan", "android": "https://dc.lft.to/lastmile_qr_scan"}, "fusion_lon": 0.0, "type": "electric_scooter", "bike_id": "110d61091a280fa4fb4f8b02f5ec34df", "name": "110d61091a280fa4fb4f8b02f5ec34df"}, {"lon": -77.03648933333334, "is_disabled": 0, "lat": 38.90802866666667, "fusion_lat": 0.0, "is_reserved": 0, "rental_uris": {"ios": "https://dc.lft.to/lastmile_qr_scan", "android": "https://dc.lft.to/lastmile_qr_scan"}, "fusion_lon": 0.0, "type": "electric_scooter", "bike_id": "67c5a80e422c4c62e4b13cb6e9f82076", "name": "67c5a80e422c4c62e4b13cb6e9f82076"}, {"lon": -77.03450783333334, "is_disabled": 0, "lat": 38.916951, "fusion_lat": 0.0, "is_reserved": 0, "rental_uris": {"ios": "https://dc.lft.to/lastmile_qr_scan", "android": "https://dc.lft.to/lastmile_qr_scan"}, "fusion_lon": 0.0, "type": "electric_scooter", "bike_id": "007b64f5b2cb9960eb44801b9db962ea", "name": "007b64f5b2cb9960eb44801b9db962ea"}, {"lon": -77.0258755, "is_disabled": 0, "lat": 38.942091, "fusion_lat": 0.0, "is_reserved": 0, "rental_uris": {"ios": "https://dc.lft.to/lastmile_qr_scan", "android": "https://dc.lft.to/lastmile_qr_scan"}, "fusion_lon": 0.0, "type": "electric_scooter", "bike_id": "531cf123861cc3a1987111590a53ef69", "name": "531cf123861cc3a1987111590a53ef69"}, {"lon": -76.93157416666666, "is_disabled": 0, "lat": 38.899247333333335, "fusion_lat": 0.0, "is_reserved": 0, "rental_uris": {"ios": "https://dc.lft.to/lastmile_qr_scan", "android": "https://dc.lft.to/lastmile_qr_scan"}, "fusion_lon": 0.0, "type": "electric_scooter", "bike_id": "97411d948be6d9a3b317ecc7aee4c8e5", "name": "97411d948be6d9a3b317ecc7aee4c8e5"}, {"lon": -77.02950066666666, "is_disabled": 0, "lat": 38.9022835, "fusion_lat": 0.0, "is_reserved": 0, "rental_uris": {"ios": "https://dc.lft.to/lastmile_qr_scan", "android": "https://dc.lft.to/lastmile_qr_scan"}, "fusion_lon": 0.0, "type": "electric_scooter", "bike_id": "5c8a318d41afd562a53dce54cf7afb3c", "name": "5c8a318d41afd562a53dce54cf7afb3c"}, {"lon": -77.0384015, "is_disabled": 0, "lat": 38.92172683333333, "fusion_lat": 0.0, "is_reserved": 0, "rental_uris": {"ios": "https://dc.lft.to/lastmile_qr_scan", "android": "https://dc.lft.to/lastmile_qr_scan"}, "fusion_lon": 0.0, "type": "electric_scooter", "bike_id": "89e659c30f367403ec62f31031e37139", "name": "89e659c30f367403ec62f31031e37139"}, {"lon": -77.016956, "is_disabled": 0, "lat": 38.97495133333334, "fusion_lat": 0.0, "is_reserved": 0, "rental_uris": {"ios": "https://dc.lft.to/lastmile_qr_scan", "android": "https://dc.lft.to/lastmile_qr_scan"}, "fusion_lon": 0.0, "type": "electric_scooter", "bike_id": "f10982e9e4a0b4862f06a907437f7413", "name": "f10982e9e4a0b4862f06a907437f7413"}, {"lon": -77.0269765, "is_disabled": 0, "lat": 38.90666, "fusion_lat": 0.0, "is_reserved": 0, "rental_uris": {"ios": "https://dc.lft.to/lastmile_qr_scan", "android": "https://dc.lft.to/lastmile_qr_scan"}, "fusion_lon": 0.0, "type": "electric_scooter", "bike_id": "a9b56cc8ae6872e18db049241337cd5c", "name": "a9b56cc8ae6872e18db049241337cd5c"}, {"lon": -77.03295716666666, "is_disabled": 0, "lat": 38.928563833333335, "fusion_lat": 0.0, "is_reserved": 0, "rental_uris": {"ios": "https://dc.lft.to/lastmile_qr_scan", "android": "https://dc.lft.to/lastmile_qr_scan"}, "fusion_lon": 0.0, "type": "electric_scooter", "bike_id": "76d5e93d2a9de87488c070ab6fd07271", "name": "76d5e93d2a9de87488c070ab6fd07271"}, {"lon": -77.01211866666667, "is_disabled": 0, "lat": 38.918014, "fusion_lat": 0.0, "is_reserved": 0, "rental_uris": {"ios": "https://dc.lft.to/lastmile_qr_scan", "android": "https://dc.lft.to/lastmile_qr_scan"}, "fusion_lon": 0.0, "type": "electric_scooter", "bike_id": "68f8395c465bba62e6980515d2879dd9", "name": "68f8395c465bba62e6980515d2879dd9"}, {"lon": -77.02714883333333, "is_disabled": 0, "lat": 38.90079766666667, "fusion_lat": 0.0, "is_reserved": 0, "rental_uris": {"ios": "https://dc.lft.to/lastmile_qr_scan", "android": "https://dc.lft.to/lastmile_qr_scan"}, "fusion_lon": 0.0, "type": "electric_scooter", "bike_id": "62f74ce24d6a0e38616b51c11825121f", "name": "62f74ce24d6a0e38616b51c11825121f"}, {"lon": -77.02220383333334, "is_disabled": 0, "lat": 38.9247685, "fusion_lat": 0.0, "is_reserved": 0, "rental_uris": {"ios": "https://dc.lft.to/lastmile_qr_scan", "android": "https://dc.lft.to/lastmile_qr_scan"}, "fusion_lon": 0.0, "type": "electric_scooter", "bike_id": "e7c66590205c8b7417617c2513c35a04", "name": "e7c66590205c8b7417617c2513c35a04"}, {"lon": -77.02234883333334, "is_disabled": 0, "lat": 38.9110305, "fusion_lat": 0.0, "is_reserved": 0, "rental_uris": {"ios": "https://dc.lft.to/lastmile_qr_scan", "android": "https://dc.lft.to/lastmile_qr_scan"}, "fusion_lon": 0.0, "type": "electric_scooter", "bike_id": "dc0fc5e4665d41c6c8a63a79fc0b5da8", "name": "dc0fc5e4665d41c6c8a63a79fc0b5da8"}, {"lon": -77.00043833333334, "is_disabled": 0, "lat": 38.873897, "fusion_lat": 0.0, "is_reserved": 0, "rental_uris": {"ios": "https://dc.lft.to/lastmile_qr_scan", "android": "https://dc.lft.to/lastmile_qr_scan"}, "fusion_lon": 0.0, "type": "electric_scooter", "bike_id": "cce2bbc99a47d195382c0bbddf800cea", "name": "cce2bbc99a47d195382c0bbddf800cea"}, {"lon": -77.005802, "is_disabled": 0, "lat": 38.905912, "fusion_lat": 0.0, "is_reserved": 0, "rental_uris": {"ios": "https://dc.lft.to/lastmile_qr_scan", "android": "https://dc.lft.to/lastmile_qr_scan"}, "fusion_lon": 0.0, "type": "electric_scooter", "bike_id": "896f0cbdcbdc48e3098c98314a4f2193", "name": "896f0cbdcbdc48e3098c98314a4f2193"}, {"lon": -77.03359316666666, "is_disabled": 0, "lat": 38.920486333333336, "fusion_lat": 0.0, "is_reserved": 0, "rental_uris": {"ios": "https://dc.lft.to/lastmile_qr_scan", "android": "https://dc.lft.to/lastmile_qr_scan"}, "fusion_lon": 0.0, "type": "electric_scooter", "bike_id": "55365cb870d7c3ed64f4b9c527340045", "name": "55365cb870d7c3ed64f4b9c527340045"}, {"lon": -76.92658083333333, "is_disabled": 0, "lat": 38.9016995, "fusion_lat": 0.0, "is_reserved": 0, "rental_uris": {"ios": "https://dc.lft.to/lastmile_qr_scan", "android": "https://dc.lft.to/lastmile_qr_scan"}, "fusion_lon": 0.0, "type": "electric_scooter", "bike_id": "10f3b1a3e94b4a6d8372454b53646600", "name": "10f3b1a3e94b4a6d8372454b53646600"}, {"lon": -77.06111033333333, "is_disabled": 0, "lat": 38.90536016666667, "fusion_lat": 0.0, "is_reserved": 0, "rental_uris": {"ios": "https://dc.lft.to/lastmile_qr_scan", "android": "https://dc.lft.to/lastmile_qr_scan"}, "fusion_lon": 0.0, "type": "electric_scooter", "bike_id": "99bf1c62a5c4faf6422a5396d3328395", "name": "99bf1c62a5c4faf6422a5396d3328395"}, {"lon": -77.0279745, "is_disabled": 0, "lat": 38.89929566666667, "fusion_lat": 0.0, "is_reserved": 0, "rental_uris": {"ios": "https://dc.lft.to/lastmile_qr_scan", "android": "https://dc.lft.to/lastmile_qr_scan"}, "fusion_lon": 0.0, "type": "electric_scooter", "bike_id": "2e1ef089d8ed270ecd789ae2dc74d5a7", "name": "2e1ef089d8ed270ecd789ae2dc74d5a7"}, {"lon": -77.011974, "is_disabled": 0, "lat": 38.9003825, "fusion_lat": 0.0, "is_reserved": 0, "rental_uris": {"ios": "https://dc.lft.to/lastmile_qr_scan", "android": "https://dc.lft.to/lastmile_qr_scan"}, "fusion_lon": 0.0, "type": "electric_scooter", "bike_id": "8ffefbde8bff5beb8491cf739a29e125", "name": "8ffefbde8bff5beb8491cf739a29e125"}, {"lon": -77.02084783333333, "is_disabled": 0, "lat": 38.88192133333333, "fusion_lat": 0.0, "is_reserved": 0, "rental_uris": {"ios": "https://dc.lft.to/lastmile_qr_scan", "android": "https://dc.lft.to/lastmile_qr_scan"}, "fusion_lon": 0.0, "type": "electric_scooter", "bike_id": "9cab7cc77fb29d219915e54db9d7f010", "name": "9cab7cc77fb29d219915e54db9d7f010"}, {"lon": -77.00102666666666, "is_disabled": 0, "lat": 38.9077935, "fusion_lat": 0.0, "is_reserved": 0, "rental_uris": {"ios": "https://dc.lft.to/lastmile_qr_scan", "android": "https://dc.lft.to/lastmile_qr_scan"}, "fusion_lon": 0.0, "type": "electric_scooter", "bike_id": "204452aef8e7662dc3344d168426d8e7", "name": "204452aef8e7662dc3344d168426d8e7"}, {"lon": -77.0321155, "is_disabled": 0, "lat": 38.89233566666667, "fusion_lat": 0.0, "is_reserved": 0, "rental_uris": {"ios": "https://dc.lft.to/lastmile_qr_scan", "android": "https://dc.lft.to/lastmile_qr_scan"}, "fusion_lon": 0.0, "type": "electric_scooter", "bike_id": "50d2e50fd5df6bbdec65d5b899da7453", "name": "50d2e50fd5df6bbdec65d5b899da7453"}, {"lon": -77.04872416666667, "is_disabled": 0, "lat": 38.90976766666667, "fusion_lat": 0.0, "is_reserved": 0, "rental_uris": {"ios": "https://dc.lft.to/lastmile_qr_scan", "android": "https://dc.lft.to/lastmile_qr_scan"}, "fusion_lon": 0.0, "type": "electric_scooter", "bike_id": "371fdf8561e745fa19385d08dec3e093", "name": "371fdf8561e745fa19385d08dec3e093"}, {"lon": -76.99128733333333, "is_disabled": 0, "lat": 38.90863516666667, "fusion_lat": 0.0, "is_reserved": 0, "rental_uris": {"ios": "https://dc.lft.to/lastmile_qr_scan", "android": "https://dc.lft.to/lastmile_qr_scan"}, "fusion_lon": 0.0, "type": "electric_bike", "bike_id": "2f81f16d390169379b9f8cb461792802", "name": "2f81f16d390169379b9f8cb461792802"}, {"lon": -77.040028, "is_disabled": 0, "lat": 38.934293833333335, "fusion_lat": 0.0, "is_reserved": 0, "rental_uris": {"ios": "https://dc.lft.to/lastmile_qr_scan", "android": "https://dc.lft.to/lastmile_qr_scan"}, "fusion_lon": 0.0, "type": "electric_scooter", "bike_id": "01f8cebbceb0dd8e49707ba018a0c67b", "name": "01f8cebbceb0dd8e49707ba018a0c67b"}, {"lon": -77.052596, "is_disabled": 0, "lat": 38.927828166666664, "fusion_lat": 0.0, "is_reserved": 0, "rental_uris": {"ios": "https://dc.lft.to/lastmile_qr_scan", "android": "https://dc.lft.to/lastmile_qr_scan"}, "fusion_lon": 0.0, "type": "electric_scooter", "bike_id": "712824c92c0cc64981df7a9c392676c7", "name": "712824c92c0cc64981df7a9c392676c7"}, {"lon": -76.9948215, "is_disabled": 0, "lat": 38.8918215, "fusion_lat": 0.0, "is_reserved": 0, "rental_uris": {"ios": "https://dc.lft.to/lastmile_qr_scan", "android": "https://dc.lft.to/lastmile_qr_scan"}, "fusion_lon": 0.0, "type": "electric_scooter", "bike_id": "b1bafdad4e570a9fe9c81fd0e5d42dad", "name": "b1bafdad4e570a9fe9c81fd0e5d42dad"}, {"lon": -77.0141285, "is_disabled": 0, "lat": 38.928671333333334, "fusion_lat": 0.0, "is_reserved": 0, "rental_uris": {"ios": "https://dc.lft.to/lastmile_qr_scan", "android": "https://dc.lft.to/lastmile_qr_scan"}, "fusion_lon": 0.0, "type": "electric_scooter", "bike_id": "008da8cdea71ded778d3464f4b044e3d", "name": "008da8cdea71ded778d3464f4b044e3d"}, {"lon": -77.03463883333333, "is_disabled": 0, "lat": 38.908194333333334, "fusion_lat": 0.0, "is_reserved": 0, "rental_uris": {"ios": "https://dc.lft.to/lastmile_qr_scan", "android": "https://dc.lft.to/lastmile_qr_scan"}, "fusion_lon": 0.0, "type": "electric_scooter", "bike_id": "5974614ad842cc6389be86578421a2f1", "name": "5974614ad842cc6389be86578421a2f1"}, {"lon": -76.94891816666667, "is_disabled": 0, "lat": 38.89532166666667, "fusion_lat": 0.0, "is_reserved": 0, "rental_uris": {"ios": "https://dc.lft.to/lastmile_qr_scan", "android": "https://dc.lft.to/lastmile_qr_scan"}, "fusion_lon": 0.0, "type": "electric_scooter", "bike_id": "579835a356389d443d637c9fe7b6e2a8", "name": "579835a356389d443d637c9fe7b6e2a8"}, {"lon": -77.031995, "is_disabled": 0, "lat": 38.8923885, "fusion_lat": 0.0, "is_reserved": 0, "rental_uris": {"ios": "https://dc.lft.to/lastmile_qr_scan", "android": "https://dc.lft.to/lastmile_qr_scan"}, "fusion_lon": 0.0, "type": "electric_scooter", "bike_id": "0603cd7753ee82c2b9520d01e8caa3bc", "name": "0603cd7753ee82c2b9520d01e8caa3bc"}, {"lon": -77.03799833333333, "is_disabled": 0, "lat": 38.925040833333334, "fusion_lat": 0.0, "is_reserved": 0, "rental_uris": {"ios": "https://dc.lft.to/lastmile_qr_scan", "android": "https://dc.lft.to/lastmile_qr_scan"}, "fusion_lon": 0.0, "type": "electric_scooter", "bike_id": "6539395b2fb58456b30bf9cca281f64e", "name": "6539395b2fb58456b30bf9cca281f64e"}, {"lon": -76.93365233333333, "is_disabled": 0, "lat": 38.89918433333333, "fusion_lat": 0.0, "is_reserved": 0, "rental_uris": {"ios": "https://dc.lft.to/lastmile_qr_scan", "android": "https://dc.lft.to/lastmile_qr_scan"}, "fusion_lon": 0.0, "type": "electric_scooter", "bike_id": "0e9c6cda4e6e205f967fe27303f8467c", "name": "0e9c6cda4e6e205f967fe27303f8467c"}, {"lon": -77.04852516666666, "is_disabled": 0, "lat": 38.90441233333333, "fusion_lat": 0.0, "is_reserved": 0, "rental_uris": {"ios": "https://dc.lft.to/lastmile_qr_scan", "android": "https://dc.lft.to/lastmile_qr_scan"}, "fusion_lon": 0.0, "type": "electric_scooter", "bike_id": "b3cb42062d41d943f170d8d976a06f39", "name": "b3cb42062d41d943f170d8d976a06f39"}, {"lon": -76.98086116666667, "is_disabled": 0, "lat": 38.922438666666665, "fusion_lat": 0.0, "is_reserved": 0, "rental_uris": {"ios": "https://dc.lft.to/lastmile_qr_scan", "android": "https://dc.lft.to/lastmile_qr_scan"}, "fusion_lon": 0.0, "type": "electric_scooter", "bike_id": "21ce9da6f6ff9203bb80925a32b513d6", "name": "21ce9da6f6ff9203bb80925a32b513d6"}, {"lon": -76.9949895, "is_disabled": 0, "lat": 38.909853, "fusion_lat": 0.0, "is_reserved": 0, "rental_uris": {"ios": "https://dc.lft.to/lastmile_qr_scan", "android": "https://dc.lft.to/lastmile_qr_scan"}, "fusion_lon": 0.0, "type": "electric_scooter", "bike_id": "ebf41593a355eac02baf6d9b6448b40d", "name": "ebf41593a355eac02baf6d9b6448b40d"}, {"lon": -77.02181766666666, "is_disabled": 0, "lat": 38.92865916666667, "fusion_lat": 0.0, "is_reserved": 0, "rental_uris": {"ios": "https://dc.lft.to/lastmile_qr_scan", "android": "https://dc.lft.to/lastmile_qr_scan"}, "fusion_lon": 0.0, "type": "electric_scooter", "bike_id": "4ecdffa644a5a3c8881b8b05744f42d6", "name": "4ecdffa644a5a3c8881b8b05744f42d6"}, {"lon": -77.0190275, "is_disabled": 0, "lat": 38.917828666666665, "fusion_lat": 0.0, "is_reserved": 0, "rental_uris": {"ios": "https://dc.lft.to/lastmile_qr_scan", "android": "https://dc.lft.to/lastmile_qr_scan"}, "fusion_lon": 0.0, "type": "electric_scooter", "bike_id": "5da55b64adb04b3e89968e03ac4f0a72", "name": "5da55b64adb04b3e89968e03ac4f0a72"}, {"lon": -77.0211875, "is_disabled": 0, "lat": 38.92367683333333, "fusion_lat": 0.0, "is_reserved": 0, "rental_uris": {"ios": "https://dc.lft.to/lastmile_qr_scan", "android": "https://dc.lft.to/lastmile_qr_scan"}, "fusion_lon": 0.0, "type": "electric_scooter", "bike_id": "b7fe7808bf824d1d87494157f341b4ba", "name": "b7fe7808bf824d1d87494157f341b4ba"}, {"lon": -77.05218216666667, "is_disabled": 0, "lat": 38.92449883333333, "fusion_lat": 0.0, "is_reserved": 0, "rental_uris": {"ios": "https://dc.lft.to/lastmile_qr_scan", "android": "https://dc.lft.to/lastmile_qr_scan"}, "fusion_lon": 0.0, "type": "electric_scooter", "bike_id": "1b53e29eaf0aa7425a740044edae5f8f", "name": "1b53e29eaf0aa7425a740044edae5f8f"}, {"lon": -76.9800785, "is_disabled": 0, "lat": 38.90444933333333, "fusion_lat": 0.0, "is_reserved": 0, "rental_uris": {"ios": "https://dc.lft.to/lastmile_qr_scan", "android": "https://dc.lft.to/lastmile_qr_scan"}, "fusion_lon": 0.0, "type": "electric_scooter", "bike_id": "7f508fd6017627c8c607b7d715c9d3db", "name": "7f508fd6017627c8c607b7d715c9d3db"}, {"lon": -77.03855416666667, "is_disabled": 0, "lat": 38.9323795, "fusion_lat": 0.0, "is_reserved": 0, "rental_uris": {"ios": "https://dc.lft.to/lastmile_qr_scan", "android": "https://dc.lft.to/lastmile_qr_scan"}, "fusion_lon": 0.0, "type": "electric_scooter", "bike_id": "10a16b588d516461fbf5a8fdc7532408", "name": "10a16b588d516461fbf5a8fdc7532408"}, {"lon": -77.023445, "is_disabled": 0, "lat": 38.893904166666665, "fusion_lat": 0.0, "is_reserved": 0, "rental_uris": {"ios": "https://dc.lft.to/lastmile_qr_scan", "android": "https://dc.lft.to/lastmile_qr_scan"}, "fusion_lon": 0.0, "type": "electric_scooter", "bike_id": "419c56947a37551d181c8d2eca09e50c", "name": "419c56947a37551d181c8d2eca09e50c"}, {"lon": -77.0328205, "is_disabled": 0, "lat": 38.8989845, "fusion_lat": 0.0, "is_reserved": 0, "rental_uris": {"ios": "https://dc.lft.to/lastmile_qr_scan", "android": "https://dc.lft.to/lastmile_qr_scan"}, "fusion_lon": 0.0, "type": "electric_scooter", "bike_id": "6760aa7b5fcf4b5ff965587e7cc462a8", "name": "6760aa7b5fcf4b5ff965587e7cc462a8"}, {"lon": -77.03270233333333, "is_disabled": 0, "lat": 38.902415166666664, "fusion_lat": 0.0, "is_reserved": 0, "rental_uris": {"ios": "https://dc.lft.to/lastmile_qr_scan", "android": "https://dc.lft.to/lastmile_qr_scan"}, "fusion_lon": 0.0, "type": "electric_scooter", "bike_id": "f2839d929235d61de3cdc22492468aed", "name": "f2839d929235d61de3cdc22492468aed"}, {"lon": -77.02293966666667, "is_disabled": 0, "lat": 38.916814333333335, "fusion_lat": 0.0, "is_reserved": 0, "rental_uris": {"ios": "https://dc.lft.to/lastmile_qr_scan", "android": "https://dc.lft.to/lastmile_qr_scan"}, "fusion_lon": 0.0, "type": "electric_scooter", "bike_id": "e415d8400ed06977492dc66f1919bfbf", "name": "e415d8400ed06977492dc66f1919bfbf"}, {"lon": -77.06051033333334, "is_disabled": 0, "lat": 38.93918683333333, "fusion_lat": 0.0, "is_reserved": 0, "rental_uris": {"ios": "https://dc.lft.to/lastmile_qr_scan", "android": "https://dc.lft.to/lastmile_qr_scan"}, "fusion_lon": 0.0, "type": "electric_scooter", "bike_id": "f50b62f4661cd1f709a639cef12c7c79", "name": "f50b62f4661cd1f709a639cef12c7c79"}, {"lon": -77.01911783333334, "is_disabled": 0, "lat": 38.937721, "fusion_lat": 0.0, "is_reserved": 0, "rental_uris": {"ios": "https://dc.lft.to/lastmile_qr_scan", "android": "https://dc.lft.to/lastmile_qr_scan"}, "fusion_lon": 0.0, "type": "electric_bike", "bike_id": "eb638d4c4e0f01e0b1742faedf0e0742", "name": "eb638d4c4e0f01e0b1742faedf0e0742"}, {"lon": -77.0808735, "is_disabled": 0, "lat": 38.95095933333333, "fusion_lat": 0.0, "is_reserved": 0, "rental_uris": {"ios": "https://dc.lft.to/lastmile_qr_scan", "android": "https://dc.lft.to/lastmile_qr_scan"}, "fusion_lon": 0.0, "type": "electric_bike", "bike_id": "5c3e2096ca97288c9207da4bd17cac52", "name": "5c3e2096ca97288c9207da4bd17cac52"}, {"lon": -76.98788966666666, "is_disabled": 0, "lat": 38.91236083333333, "fusion_lat": 0.0, "is_reserved": 0, "rental_uris": {"ios": "https://dc.lft.to/lastmile_qr_scan", "android": "https://dc.lft.to/lastmile_qr_scan"}, "fusion_lon": 0.0, "type": "electric_scooter", "bike_id": "568fc4f3cd1067cabbad891ae35a0d47", "name": "568fc4f3cd1067cabbad891ae35a0d47"}, {"lon": -77.04831916666667, "is_disabled": 0, "lat": 38.8983835, "fusion_lat": 0.0, "is_reserved": 0, "rental_uris": {"ios": "https://dc.lft.to/lastmile_qr_scan", "android": "https://dc.lft.to/lastmile_qr_scan"}, "fusion_lon": 0.0, "type": "electric_scooter", "bike_id": "eeb0f6dc0bdeca4136f9528464424ae5", "name": "eeb0f6dc0bdeca4136f9528464424ae5"}, {"lon": -77.0261505, "is_disabled": 0, "lat": 38.914156166666665, "fusion_lat": 0.0, "is_reserved": 0, "rental_uris": {"ios": "https://dc.lft.to/lastmile_qr_scan", "android": "https://dc.lft.to/lastmile_qr_scan"}, "fusion_lon": 0.0, "type": "electric_scooter", "bike_id": "0104d1136a18b60e1599a1a2a0f6b583", "name": "0104d1136a18b60e1599a1a2a0f6b583"}, {"lon": -77.0229755, "is_disabled": 0, "lat": 38.915920666666665, "fusion_lat": 0.0, "is_reserved": 0, "rental_uris": {"ios": "https://dc.lft.to/lastmile_qr_scan", "android": "https://dc.lft.to/lastmile_qr_scan"}, "fusion_lon": 0.0, "type": "electric_scooter", "bike_id": "4f1a220096018d2e656f60fe855fcdab", "name": "4f1a220096018d2e656f60fe855fcdab"}, {"lon": -77.06395783333333, "is_disabled": 0, "lat": 38.944205333333336, "fusion_lat": 0.0, "is_reserved": 0, "rental_uris": {"ios": "https://dc.lft.to/lastmile_qr_scan", "android": "https://dc.lft.to/lastmile_qr_scan"}, "fusion_lon": 0.0, "type": "electric_scooter", "bike_id": "6aa36020c251a85fe0055811d37e1c50", "name": "6aa36020c251a85fe0055811d37e1c50"}, {"lon": -77.022131, "is_disabled": 0, "lat": 38.92992066666667, "fusion_lat": 0.0, "is_reserved": 0, "rental_uris": {"ios": "https://dc.lft.to/lastmile_qr_scan", "android": "https://dc.lft.to/lastmile_qr_scan"}, "fusion_lon": 0.0, "type": "electric_scooter", "bike_id": "a8b83d5f590901b76a275076efe530a1", "name": "a8b83d5f590901b76a275076efe530a1"}, {"lon": -77.028627, "is_disabled": 0, "lat": 39.0370095, "fusion_lat": 0.0, "is_reserved": 0, "rental_uris": {"ios": "https://dc.lft.to/lastmile_qr_scan", "android": "https://dc.lft.to/lastmile_qr_scan"}, "fusion_lon": 0.0, "type": "electric_bike", "bike_id": "1b62c64c489c9e51d77ba99c74555514", "name": "1b62c64c489c9e51d77ba99c74555514"}, {"lon": -77.04265316666667, "is_disabled": 0, "lat": 38.908561666666664, "fusion_lat": 0.0, "is_reserved": 0, "rental_uris": {"ios": "https://dc.lft.to/lastmile_qr_scan", "android": "https://dc.lft.to/lastmile_qr_scan"}, "fusion_lon": 0.0, "type": "electric_scooter", "bike_id": "12e24cf15f01773c862f7daf09617546", "name": "12e24cf15f01773c862f7daf09617546"}, {"lon": -77.00059783333333, "is_disabled": 0, "lat": 38.900342333333334, "fusion_lat": 0.0, "is_reserved": 0, "rental_uris": {"ios": "https://dc.lft.to/lastmile_qr_scan", "android": "https://dc.lft.to/lastmile_qr_scan"}, "fusion_lon": 0.0, "type": "electric_scooter", "bike_id": "1bf9f64a36febc5cfa41c3b5a900f15d", "name": "1bf9f64a36febc5cfa41c3b5a900f15d"}, {"lon": -77.01395316666667, "is_disabled": 0, "lat": 38.919496333333335, "fusion_lat": 0.0, "is_reserved": 0, "rental_uris": {"ios": "https://dc.lft.to/lastmile_qr_scan", "android": "https://dc.lft.to/lastmile_qr_scan"}, "fusion_lon": 0.0, "type": "electric_scooter", "bike_id": "0e77ecb35c89dd244e94a83b9bc76dab", "name": "0e77ecb35c89dd244e94a83b9bc76dab"}, {"lon": -77.02188833333334, "is_disabled": 0, "lat": 38.91035766666667, "fusion_lat": 0.0, "is_reserved": 0, "rental_uris": {"ios": "https://dc.lft.to/lastmile_qr_scan", "android": "https://dc.lft.to/lastmile_qr_scan"}, "fusion_lon": 0.0, "type": "electric_scooter", "bike_id": "fd00eb702263a8b7ef79d60a7c5c2eb3", "name": "fd00eb702263a8b7ef79d60a7c5c2eb3"}, {"lon": -77.0450155, "is_disabled": 0, "lat": 38.9037405, "fusion_lat": 0.0, "is_reserved": 0, "rental_uris": {"ios": "https://dc.lft.to/lastmile_qr_scan", "android": "https://dc.lft.to/lastmile_qr_scan"}, "fusion_lon": 0.0, "type": "electric_scooter", "bike_id": "e3053cb1766377e045a9834121e60a32", "name": "e3053cb1766377e045a9834121e60a32"}, {"lon": -77.00894566666666, "is_disabled": 0, "lat": 38.92324416666666, "fusion_lat": 0.0, "is_reserved": 0, "rental_uris": {"ios": "https://dc.lft.to/lastmile_qr_scan", "android": "https://dc.lft.to/lastmile_qr_scan"}, "fusion_lon": 0.0, "type": "electric_scooter", "bike_id": "4938d37bf1341c99b0dee530b004d692", "name": "4938d37bf1341c99b0dee530b004d692"}, {"lon": -77.00728283333333, "is_disabled": 0, "lat": 38.884941833333336, "fusion_lat": 0.0, "is_reserved": 0, "rental_uris": {"ios": "https://dc.lft.to/lastmile_qr_scan", "android": "https://dc.lft.to/lastmile_qr_scan"}, "fusion_lon": 0.0, "type": "electric_scooter", "bike_id": "66889341cd51edb9c4f1a0989e4f94a4", "name": "66889341cd51edb9c4f1a0989e4f94a4"}, {"lon": -77.03220466666667, "is_disabled": 0, "lat": 38.918384, "fusion_lat": 0.0, "is_reserved": 0, "rental_uris": {"ios": "https://dc.lft.to/lastmile_qr_scan", "android": "https://dc.lft.to/lastmile_qr_scan"}, "fusion_lon": 0.0, "type": "electric_scooter", "bike_id": "e2f7027c28c19843aaff55e3d7c6570d", "name": "e2f7027c28c19843aaff55e3d7c6570d"}, {"lon": -76.97921733333334, "is_disabled": 0, "lat": 38.9165425, "fusion_lat": 0.0, "is_reserved": 0, "rental_uris": {"ios": "https://dc.lft.to/lastmile_qr_scan", "android": "https://dc.lft.to/lastmile_qr_scan"}, "fusion_lon": 0.0, "type": "electric_scooter", "bike_id": "08f7e065cc1a800ca0e7d9e556ea855d", "name": "08f7e065cc1a800ca0e7d9e556ea855d"}, {"lon": -77.03239266666667, "is_disabled": 0, "lat": 38.91258216666667, "fusion_lat": 0.0, "is_reserved": 0, "rental_uris": {"ios": "https://dc.lft.to/lastmile_qr_scan", "android": "https://dc.lft.to/lastmile_qr_scan"}, "fusion_lon": 0.0, "type": "electric_scooter", "bike_id": "2b925f72809129c8d4ed2bd4a63116c6", "name": "2b925f72809129c8d4ed2bd4a63116c6"}, {"lon": -77.14057066666666, "is_disabled": 0, "lat": 38.98772366666667, "fusion_lat": 0.0, "is_reserved": 0, "rental_uris": {"ios": "https://dc.lft.to/lastmile_qr_scan", "android": "https://dc.lft.to/lastmile_qr_scan"}, "fusion_lon": 0.0, "type": "electric_bike", "bike_id": "6ed1cd4340d7d1d40942c59416f753a2", "name": "6ed1cd4340d7d1d40942c59416f753a2"}, {"lon": -76.98699166666667, "is_disabled": 0, "lat": 38.86723816666667, "fusion_lat": 0.0, "is_reserved": 0, "rental_uris": {"ios": "https://dc.lft.to/lastmile_qr_scan", "android": "https://dc.lft.to/lastmile_qr_scan"}, "fusion_lon": 0.0, "type": "electric_scooter", "bike_id": "026bb090b5627c5c9623eeecfb3d93b3", "name": "026bb090b5627c5c9623eeecfb3d93b3"}, {"lon": -77.00304483333333, "is_disabled": 0, "lat": 38.92032366666667, "fusion_lat": 0.0, "is_reserved": 0, "rental_uris": {"ios": "https://dc.lft.to/lastmile_qr_scan", "android": "https://dc.lft.to/lastmile_qr_scan"}, "fusion_lon": 0.0, "type": "electric_scooter", "bike_id": "6ee38b7b1c755765726ef6bd5e6bf405", "name": "6ee38b7b1c755765726ef6bd5e6bf405"}, {"lon": -77.02972766666667, "is_disabled": 0, "lat": 38.912983833333335, "fusion_lat": 0.0, "is_reserved": 0, "rental_uris": {"ios": "https://dc.lft.to/lastmile_qr_scan", "android": "https://dc.lft.to/lastmile_qr_scan"}, "fusion_lon": 0.0, "type": "electric_scooter", "bike_id": "2609d6b468fbffde8e791d8536d24035", "name": "2609d6b468fbffde8e791d8536d24035"}, {"lon": -77.04345983333333, "is_disabled": 0, "lat": 38.9219015, "fusion_lat": 0.0, "is_reserved": 0, "rental_uris": {"ios": "https://dc.lft.to/lastmile_qr_scan", "android": "https://dc.lft.to/lastmile_qr_scan"}, "fusion_lon": 0.0, "type": "electric_scooter", "bike_id": "c6d91caf6caa6646a0c1a134ae8c22ef", "name": "c6d91caf6caa6646a0c1a134ae8c22ef"}, {"lon": -76.93374933333334, "is_disabled": 0, "lat": 38.89918766666667, "fusion_lat": 0.0, "is_reserved": 0, "rental_uris": {"ios": "https://dc.lft.to/lastmile_qr_scan", "android": "https://dc.lft.to/lastmile_qr_scan"}, "fusion_lon": 0.0, "type": "electric_scooter", "bike_id": "e08fb843e7b9e42a1cf82c30fac2f303", "name": "e08fb843e7b9e42a1cf82c30fac2f303"}, {"lon": -76.99408833333334, "is_disabled": 0, "lat": 38.87784416666667, "fusion_lat": 0.0, "is_reserved": 0, "rental_uris": {"ios": "https://dc.lft.to/lastmile_qr_scan", "android": "https://dc.lft.to/lastmile_qr_scan"}, "fusion_lon": 0.0, "type": "electric_scooter", "bike_id": "968b209f9850fe0283d2a397e08c88f3", "name": "968b209f9850fe0283d2a397e08c88f3"}, {"lon": -77.00244033333334, "is_disabled": 0, "lat": 38.875003166666666, "fusion_lat": 0.0, "is_reserved": 0, "rental_uris": {"ios": "https://dc.lft.to/lastmile_qr_scan", "android": "https://dc.lft.to/lastmile_qr_scan"}, "fusion_lon": 0.0, "type": "electric_scooter", "bike_id": "d5956f1b81aab3c31a2275d108c39070", "name": "d5956f1b81aab3c31a2275d108c39070"}, {"lon": -77.13928983333334, "is_disabled": 0, "lat": 38.873028833333336, "fusion_lat": 0.0, "is_reserved": 0, "rental_uris": {"ios": "https://dc.lft.to/lastmile_qr_scan", "android": "https://dc.lft.to/lastmile_qr_scan"}, "fusion_lon": 0.0, "type": "electric_bike", "bike_id": "6ccc510ed36161a8785d3f1123ce3c4b", "name": "6ccc510ed36161a8785d3f1123ce3c4b"}, {"lon": -76.97028333333333, "is_disabled": 0, "lat": 38.873618666666665, "fusion_lat": 0.0, "is_reserved": 0, "rental_uris": {"ios": "https://dc.lft.to/lastmile_qr_scan", "android": "https://dc.lft.to/lastmile_qr_scan"}, "fusion_lon": 0.0, "type": "electric_scooter", "bike_id": "f26f5011b0c10721784f01eddb18e8d1", "name": "f26f5011b0c10721784f01eddb18e8d1"}, {"lon": -77.025555, "is_disabled": 0, "lat": 38.91914383333334, "fusion_lat": 0.0, "is_reserved": 0, "rental_uris": {"ios": "https://dc.lft.to/lastmile_qr_scan", "android": "https://dc.lft.to/lastmile_qr_scan"}, "fusion_lon": 0.0, "type": "electric_scooter", "bike_id": "d8d892e3c5a279fd481e83a05b245720", "name": "d8d892e3c5a279fd481e83a05b245720"}, {"lon": -76.9795095, "is_disabled": 0, "lat": 38.90430833333333, "fusion_lat": 0.0, "is_reserved": 0, "rental_uris": {"ios": "https://dc.lft.to/lastmile_qr_scan", "android": "https://dc.lft.to/lastmile_qr_scan"}, "fusion_lon": 0.0, "type": "electric_scooter", "bike_id": "5cf9d0aa1d920fe54cd0ef1a252ee1b2", "name": "5cf9d0aa1d920fe54cd0ef1a252ee1b2"}, {"lon": -77.0430745, "is_disabled": 0, "lat": 38.901394, "fusion_lat": 0.0, "is_reserved": 0, "rental_uris": {"ios": "https://dc.lft.to/lastmile_qr_scan", "android": "https://dc.lft.to/lastmile_qr_scan"}, "fusion_lon": 0.0, "type": "electric_scooter", "bike_id": "17b6216cb0328b7b396096d77ee93998", "name": "17b6216cb0328b7b396096d77ee93998"}, {"lon": -77.01547733333334, "is_disabled": 0, "lat": 38.8858945, "fusion_lat": 0.0, "is_reserved": 0, "rental_uris": {"ios": "https://dc.lft.to/lastmile_qr_scan", "android": "https://dc.lft.to/lastmile_qr_scan"}, "fusion_lon": 0.0, "type": "electric_scooter", "bike_id": "b7c2dcab0073180c269f99ea913b2458", "name": "b7c2dcab0073180c269f99ea913b2458"}, {"lon": -77.02452083333333, "is_disabled": 0, "lat": 38.918296166666664, "fusion_lat": 0.0, "is_reserved": 0, "rental_uris": {"ios": "https://dc.lft.to/lastmile_qr_scan", "android": "https://dc.lft.to/lastmile_qr_scan"}, "fusion_lon": 0.0, "type": "electric_scooter", "bike_id": "4c86fa8bd6209b28783b4972615bff80", "name": "4c86fa8bd6209b28783b4972615bff80"}, {"lon": -77.0018425, "is_disabled": 0, "lat": 38.844673, "fusion_lat": 0.0, "is_reserved": 0, "rental_uris": {"ios": "https://dc.lft.to/lastmile_qr_scan", "android": "https://dc.lft.to/lastmile_qr_scan"}, "fusion_lon": 0.0, "type": "electric_bike", "bike_id": "4afd564ba3ebb202a90fb1af363f3a37", "name": "4afd564ba3ebb202a90fb1af363f3a37"}, {"lon": -76.96058283333333, "is_disabled": 0, "lat": 38.88327616666667, "fusion_lat": 0.0, "is_reserved": 0, "rental_uris": {"ios": "https://dc.lft.to/lastmile_qr_scan", "android": "https://dc.lft.to/lastmile_qr_scan"}, "fusion_lon": 0.0, "type": "electric_bike", "bike_id": "e08123806c5b505941f850777b50d594", "name": "e08123806c5b505941f850777b50d594"}, {"lon": -77.02020933333333, "is_disabled": 0, "lat": 38.92445433333334, "fusion_lat": 0.0, "is_reserved": 0, "rental_uris": {"ios": "https://dc.lft.to/lastmile_qr_scan", "android": "https://dc.lft.to/lastmile_qr_scan"}, "fusion_lon": 0.0, "type": "electric_scooter", "bike_id": "5177bc38ed958b741a456be57b08b18b", "name": "5177bc38ed958b741a456be57b08b18b"}, {"lon": -77.0383985, "is_disabled": 0, "lat": 38.921673166666665, "fusion_lat": 0.0, "is_reserved": 0, "rental_uris": {"ios": "https://dc.lft.to/lastmile_qr_scan", "android": "https://dc.lft.to/lastmile_qr_scan"}, "fusion_lon": 0.0, "type": "electric_scooter", "bike_id": "18af53104f3cd9f31f9990c4ccd2d1fb", "name": "18af53104f3cd9f31f9990c4ccd2d1fb"}, {"lon": -77.04197833333333, "is_disabled": 0, "lat": 38.90583083333333, "fusion_lat": 0.0, "is_reserved": 0, "rental_uris": {"ios": "https://dc.lft.to/lastmile_qr_scan", "android": "https://dc.lft.to/lastmile_qr_scan"}, "fusion_lon": 0.0, "type": "electric_scooter", "bike_id": "4d7771480394cee6f70da90a15bd339b", "name": "4d7771480394cee6f70da90a15bd339b"}, {"lon": -77.02966616666667, "is_disabled": 0, "lat": 38.9275085, "fusion_lat": 0.0, "is_reserved": 0, "rental_uris": {"ios": "https://dc.lft.to/lastmile_qr_scan", "android": "https://dc.lft.to/lastmile_qr_scan"}, "fusion_lon": 0.0, "type": "electric_scooter", "bike_id": "0a204fd6c648e1f50e79dcf7f2df79e8", "name": "0a204fd6c648e1f50e79dcf7f2df79e8"}, {"lon": -77.04493783333334, "is_disabled": 0, "lat": 38.9312985, "fusion_lat": 0.0, "is_reserved": 0, "rental_uris": {"ios": "https://dc.lft.to/lastmile_qr_scan", "android": "https://dc.lft.to/lastmile_qr_scan"}, "fusion_lon": 0.0, "type": "electric_scooter", "bike_id": "6010f194f525993f1f60df9fb6c041b0", "name": "6010f194f525993f1f60df9fb6c041b0"}, {"lon": -77.03404133333333, "is_disabled": 0, "lat": 38.924362333333335, "fusion_lat": 0.0, "is_reserved": 0, "rental_uris": {"ios": "https://dc.lft.to/lastmile_qr_scan", "android": "https://dc.lft.to/lastmile_qr_scan"}, "fusion_lon": 0.0, "type": "electric_scooter", "bike_id": "6db1bdef8c330b6a6042a59dee5659ea", "name": "6db1bdef8c330b6a6042a59dee5659ea"}, {"lon": -77.06012166666666, "is_disabled": 0, "lat": 38.905043, "fusion_lat": 0.0, "is_reserved": 0, "rental_uris": {"ios": "https://dc.lft.to/lastmile_qr_scan", "android": "https://dc.lft.to/lastmile_qr_scan"}, "fusion_lon": 0.0, "type": "electric_bike", "bike_id": "7195bd6846102b7ee880791e9ab8a877", "name": "7195bd6846102b7ee880791e9ab8a877"}, {"lon": -77.0483335, "is_disabled": 0, "lat": 38.8983725, "fusion_lat": 0.0, "is_reserved": 0, "rental_uris": {"ios": "https://dc.lft.to/lastmile_qr_scan", "android": "https://dc.lft.to/lastmile_qr_scan"}, "fusion_lon": 0.0, "type": "electric_scooter", "bike_id": "0cee99767d1937bae9d729bc9013df23", "name": "0cee99767d1937bae9d729bc9013df23"}, {"lon": -77.046199, "is_disabled": 0, "lat": 38.916141833333334, "fusion_lat": 0.0, "is_reserved": 0, "rental_uris": {"ios": "https://dc.lft.to/lastmile_qr_scan", "android": "https://dc.lft.to/lastmile_qr_scan"}, "fusion_lon": 0.0, "type": "electric_scooter", "bike_id": "53fceb79ad543d5380cf47e8ed151b4d", "name": "53fceb79ad543d5380cf47e8ed151b4d"}, {"lon": -77.02545366666666, "is_disabled": 0, "lat": 38.892249166666666, "fusion_lat": 0.0, "is_reserved": 0, "rental_uris": {"ios": "https://dc.lft.to/lastmile_qr_scan", "android": "https://dc.lft.to/lastmile_qr_scan"}, "fusion_lon": 0.0, "type": "electric_scooter", "bike_id": "70921df3ffe3fcbd9eeccc6655260e6e", "name": "70921df3ffe3fcbd9eeccc6655260e6e"}, {"lon": -77.00124866666667, "is_disabled": 0, "lat": 38.907635, "fusion_lat": 0.0, "is_reserved": 0, "rental_uris": {"ios": "https://dc.lft.to/lastmile_qr_scan", "android": "https://dc.lft.to/lastmile_qr_scan"}, "fusion_lon": 0.0, "type": "electric_scooter", "bike_id": "6d819fd433d5e382b9c6961325299190", "name": "6d819fd433d5e382b9c6961325299190"}, {"lon": -77.00093166666667, "is_disabled": 0, "lat": 38.92553066666667, "fusion_lat": 0.0, "is_reserved": 0, "rental_uris": {"ios": "https://dc.lft.to/lastmile_qr_scan", "android": "https://dc.lft.to/lastmile_qr_scan"}, "fusion_lon": 0.0, "type": "electric_scooter", "bike_id": "f5f0c0b9b4e9647ab9ee824c9e044f28", "name": "f5f0c0b9b4e9647ab9ee824c9e044f28"}, {"lon": -77.02705033333334, "is_disabled": 0, "lat": 38.899837833333336, "fusion_lat": 0.0, "is_reserved": 0, "rental_uris": {"ios": "https://dc.lft.to/lastmile_qr_scan", "android": "https://dc.lft.to/lastmile_qr_scan"}, "fusion_lon": 0.0, "type": "electric_scooter", "bike_id": "20befb39783a73f6f69a5027b77ccf82", "name": "20befb39783a73f6f69a5027b77ccf82"}, {"lon": -76.99012483333334, "is_disabled": 0, "lat": 38.911413833333334, "fusion_lat": 0.0, "is_reserved": 0, "rental_uris": {"ios": "https://dc.lft.to/lastmile_qr_scan", "android": "https://dc.lft.to/lastmile_qr_scan"}, "fusion_lon": 0.0, "type": "electric_scooter", "bike_id": "2e45d3075f8ee79c56cfb5d64c29aad5", "name": "2e45d3075f8ee79c56cfb5d64c29aad5"}, {"lon": -77.04053366666666, "is_disabled": 0, "lat": 38.908735166666666, "fusion_lat": 0.0, "is_reserved": 0, "rental_uris": {"ios": "https://dc.lft.to/lastmile_qr_scan", "android": "https://dc.lft.to/lastmile_qr_scan"}, "fusion_lon": 0.0, "type": "electric_scooter", "bike_id": "61c1983131f2618ff4e3f04023fba5a0", "name": "61c1983131f2618ff4e3f04023fba5a0"}, {"lon": -77.044465, "is_disabled": 0, "lat": 38.8960225, "fusion_lat": 0.0, "is_reserved": 0, "rental_uris": {"ios": "https://dc.lft.to/lastmile_qr_scan", "android": "https://dc.lft.to/lastmile_qr_scan"}, "fusion_lon": 0.0, "type": "electric_scooter", "bike_id": "5be5c858f689018b8120befddab28ab1", "name": "5be5c858f689018b8120befddab28ab1"}, {"lon": -77.01910616666666, "is_disabled": 0, "lat": 38.9024325, "fusion_lat": 0.0, "is_reserved": 0, "rental_uris": {"ios": "https://dc.lft.to/lastmile_qr_scan", "android": "https://dc.lft.to/lastmile_qr_scan"}, "fusion_lon": 0.0, "type": "electric_scooter", "bike_id": "5e116624513e9b06da71ac65aeb26ad1", "name": "5e116624513e9b06da71ac65aeb26ad1"}, {"lon": -77.00627366666667, "is_disabled": 0, "lat": 38.87174866666667, "fusion_lat": 0.0, "is_reserved": 0, "rental_uris": {"ios": "https://dc.lft.to/lastmile_qr_scan", "android": "https://dc.lft.to/lastmile_qr_scan"}, "fusion_lon": 0.0, "type": "electric_scooter", "bike_id": "774dc66a790c39481f009425566f5620", "name": "774dc66a790c39481f009425566f5620"}, {"lon": -76.9761365, "is_disabled": 0, "lat": 38.903436666666664, "fusion_lat": 0.0, "is_reserved": 0, "rental_uris": {"ios": "https://dc.lft.to/lastmile_qr_scan", "android": "https://dc.lft.to/lastmile_qr_scan"}, "fusion_lon": 0.0, "type": "electric_scooter", "bike_id": "765518e139eb708644f4937f27191c11", "name": "765518e139eb708644f4937f27191c11"}, {"lon": -77.13925683333333, "is_disabled": 0, "lat": 38.87299933333333, "fusion_lat": 0.0, "is_reserved": 0, "rental_uris": {"ios": "https://dc.lft.to/lastmile_qr_scan", "android": "https://dc.lft.to/lastmile_qr_scan"}, "fusion_lon": 0.0, "type": "electric_bike", "bike_id": "25c9d30e7b4a9d5693cb1996d86fa2f2", "name": "25c9d30e7b4a9d5693cb1996d86fa2f2"}, {"lon": -77.03873, "is_disabled": 0, "lat": 38.914609, "fusion_lat": 0.0, "is_reserved": 0, "rental_uris": {"ios": "https://dc.lft.to/lastmile_qr_scan", "android": "https://dc.lft.to/lastmile_qr_scan"}, "fusion_lon": 0.0, "type": "electric_scooter", "bike_id": "7d7a5920e479db33cd53d67da34d7c14", "name": "7d7a5920e479db33cd53d67da34d7c14"}, {"lon": -77.0448255, "is_disabled": 0, "lat": 38.906395333333336, "fusion_lat": 0.0, "is_reserved": 0, "rental_uris": {"ios": "https://dc.lft.to/lastmile_qr_scan", "android": "https://dc.lft.to/lastmile_qr_scan"}, "fusion_lon": 0.0, "type": "electric_scooter", "bike_id": "61bcd3d614c44ad8a0ca8c44255c4591", "name": "61bcd3d614c44ad8a0ca8c44255c4591"}, {"lon": -77.03439083333333, "is_disabled": 0, "lat": 38.90254133333333, "fusion_lat": 0.0, "is_reserved": 0, "rental_uris": {"ios": "https://dc.lft.to/lastmile_qr_scan", "android": "https://dc.lft.to/lastmile_qr_scan"}, "fusion_lon": 0.0, "type": "electric_scooter", "bike_id": "9fd2b00072f6319a92cda30fa34b49c2", "name": "9fd2b00072f6319a92cda30fa34b49c2"}, {"lon": -76.9951205, "is_disabled": 0, "lat": 38.90638, "fusion_lat": 0.0, "is_reserved": 0, "rental_uris": {"ios": "https://dc.lft.to/lastmile_qr_scan", "android": "https://dc.lft.to/lastmile_qr_scan"}, "fusion_lon": 0.0, "type": "electric_scooter", "bike_id": "b584ed74eda075707251f42d27049cfe", "name": "b584ed74eda075707251f42d27049cfe"}, {"lon": -77.0217055, "is_disabled": 0, "lat": 38.911080166666665, "fusion_lat": 0.0, "is_reserved": 0, "rental_uris": {"ios": "https://dc.lft.to/lastmile_qr_scan", "android": "https://dc.lft.to/lastmile_qr_scan"}, "fusion_lon": 0.0, "type": "electric_scooter", "bike_id": "8da0e9587295661ae7ebf421889415a0", "name": "8da0e9587295661ae7ebf421889415a0"}, {"lon": -77.0317385, "is_disabled": 0, "lat": 38.91557916666667, "fusion_lat": 0.0, "is_reserved": 0, "rental_uris": {"ios": "https://dc.lft.to/lastmile_qr_scan", "android": "https://dc.lft.to/lastmile_qr_scan"}, "fusion_lon": 0.0, "type": "electric_scooter", "bike_id": "826148b724a5bcd5c315144633711563", "name": "826148b724a5bcd5c315144633711563"}, {"lon": -77.01204733333333, "is_disabled": 0, "lat": 38.917169666666666, "fusion_lat": 0.0, "is_reserved": 0, "rental_uris": {"ios": "https://dc.lft.to/lastmile_qr_scan", "android": "https://dc.lft.to/lastmile_qr_scan"}, "fusion_lon": 0.0, "type": "electric_scooter", "bike_id": "dffea13e439d4eea8ca59b553196c251", "name": "dffea13e439d4eea8ca59b553196c251"}, {"lon": -76.9213415, "is_disabled": 0, "lat": 39.01375016666667, "fusion_lat": 0.0, "is_reserved": 0, "rental_uris": {"ios": "https://dc.lft.to/lastmile_qr_scan", "android": "https://dc.lft.to/lastmile_qr_scan"}, "fusion_lon": 0.0, "type": "electric_bike", "bike_id": "050e7f477c0cb61f316aa6d87d4c70a9", "name": "050e7f477c0cb61f316aa6d87d4c70a9"}, {"lon": -77.01775966666666, "is_disabled": 0, "lat": 38.887156166666664, "fusion_lat": 0.0, "is_reserved": 0, "rental_uris": {"ios": "https://dc.lft.to/lastmile_qr_scan", "android": "https://dc.lft.to/lastmile_qr_scan"}, "fusion_lon": 0.0, "type": "electric_scooter", "bike_id": "5dc627ef68ca4fb92fbb40953c0be97c", "name": "5dc627ef68ca4fb92fbb40953c0be97c"}, {"lon": -77.02116033333333, "is_disabled": 0, "lat": 38.91413133333333, "fusion_lat": 0.0, "is_reserved": 0, "rental_uris": {"ios": "https://dc.lft.to/lastmile_qr_scan", "android": "https://dc.lft.to/lastmile_qr_scan"}, "fusion_lon": 0.0, "type": "electric_scooter", "bike_id": "94dcd114fce671c682a289760ea53d7e", "name": "94dcd114fce671c682a289760ea53d7e"}, {"lon": -77.02957666666667, "is_disabled": 0, "lat": 38.917688, "fusion_lat": 0.0, "is_reserved": 0, "rental_uris": {"ios": "https://dc.lft.to/lastmile_qr_scan", "android": "https://dc.lft.to/lastmile_qr_scan"}, "fusion_lon": 0.0, "type": "electric_scooter", "bike_id": "9af59d596e654f63a5561fbb7d7e011f", "name": "9af59d596e654f63a5561fbb7d7e011f"}, {"lon": -77.03634083333333, "is_disabled": 0, "lat": 38.930594, "fusion_lat": 0.0, "is_reserved": 0, "rental_uris": {"ios": "https://dc.lft.to/lastmile_qr_scan", "android": "https://dc.lft.to/lastmile_qr_scan"}, "fusion_lon": 0.0, "type": "electric_scooter", "bike_id": "2cf10ff6d30d33dd8e363b5702e9c77b", "name": "2cf10ff6d30d33dd8e363b5702e9c77b"}, {"lon": -77.01982566666666, "is_disabled": 0, "lat": 38.88039333333333, "fusion_lat": 0.0, "is_reserved": 0, "rental_uris": {"ios": "https://dc.lft.to/lastmile_qr_scan", "android": "https://dc.lft.to/lastmile_qr_scan"}, "fusion_lon": 0.0, "type": "electric_scooter", "bike_id": "9d344d5d473d79bc2a082b6752464feb", "name": "9d344d5d473d79bc2a082b6752464feb"}, {"lon": -77.005812, "is_disabled": 0, "lat": 38.8854175, "fusion_lat": 0.0, "is_reserved": 0, "rental_uris": {"ios": "https://dc.lft.to/lastmile_qr_scan", "android": "https://dc.lft.to/lastmile_qr_scan"}, "fusion_lon": 0.0, "type": "electric_scooter", "bike_id": "89b937c43819808dfe7a5ed8309c9b7d", "name": "89b937c43819808dfe7a5ed8309c9b7d"}, {"lon": -77.01989183333333, "is_disabled": 0, "lat": 38.914227833333335, "fusion_lat": 0.0, "is_reserved": 0, "rental_uris": {"ios": "https://dc.lft.to/lastmile_qr_scan", "android": "https://dc.lft.to/lastmile_qr_scan"}, "fusion_lon": 0.0, "type": "electric_scooter", "bike_id": "7772969c38ed58a07b3ca19361c775d1", "name": "7772969c38ed58a07b3ca19361c775d1"}, {"lon": -77.01935733333333, "is_disabled": 0, "lat": 38.904674666666665, "fusion_lat": 0.0, "is_reserved": 0, "rental_uris": {"ios": "https://dc.lft.to/lastmile_qr_scan", "android": "https://dc.lft.to/lastmile_qr_scan"}, "fusion_lon": 0.0, "type": "electric_scooter", "bike_id": "5a92ffefabcca7d80f229c8ed1b2c8c5", "name": "5a92ffefabcca7d80f229c8ed1b2c8c5"}, {"lon": -77.04863566666667, "is_disabled": 0, "lat": 38.90316166666667, "fusion_lat": 0.0, "is_reserved": 0, "rental_uris": {"ios": "https://dc.lft.to/lastmile_qr_scan", "android": "https://dc.lft.to/lastmile_qr_scan"}, "fusion_lon": 0.0, "type": "electric_scooter", "bike_id": "1044308b735f73058ae5b16533f5d923", "name": "1044308b735f73058ae5b16533f5d923"}, {"lon": -76.97414866666666, "is_disabled": 0, "lat": 38.90213, "fusion_lat": 0.0, "is_reserved": 0, "rental_uris": {"ios": "https://dc.lft.to/lastmile_qr_scan", "android": "https://dc.lft.to/lastmile_qr_scan"}, "fusion_lon": 0.0, "type": "electric_bike", "bike_id": "a10a7b22a878a3391d4b759e59f4f17b", "name": "a10a7b22a878a3391d4b759e59f4f17b"}, {"lon": -76.95209, "is_disabled": 0, "lat": 38.93671583333333, "fusion_lat": 0.0, "is_reserved": 0, "rental_uris": {"ios": "https://dc.lft.to/lastmile_qr_scan", "android": "https://dc.lft.to/lastmile_qr_scan"}, "fusion_lon": 0.0, "type": "electric_bike", "bike_id": "52d61cbe57b1633f0efcaab3d441c38a", "name": "52d61cbe57b1633f0efcaab3d441c38a"}, {"lon": -77.02423116666667, "is_disabled": 0, "lat": 38.92657066666666, "fusion_lat": 0.0, "is_reserved": 0, "rental_uris": {"ios": "https://dc.lft.to/lastmile_qr_scan", "android": "https://dc.lft.to/lastmile_qr_scan"}, "fusion_lon": 0.0, "type": "electric_scooter", "bike_id": "8d11e16533575dc131415a49c6c7406f", "name": "8d11e16533575dc131415a49c6c7406f"}, {"lon": -77.22559516666666, "is_disabled": 0, "lat": 38.92455116666667, "fusion_lat": 0.0, "is_reserved": 0, "rental_uris": {"ios": "https://dc.lft.to/lastmile_qr_scan", "android": "https://dc.lft.to/lastmile_qr_scan"}, "fusion_lon": 0.0, "type": "electric_bike", "bike_id": "4f4b84dd302e8a75489eb60b6ab62dc6", "name": "4f4b84dd302e8a75489eb60b6ab62dc6"}, {"lon": -77.024103, "is_disabled": 0, "lat": 38.879958333333335, "fusion_lat": 0.0, "is_reserved": 0, "rental_uris": {"ios": "https://dc.lft.to/lastmile_qr_scan", "android": "https://dc.lft.to/lastmile_qr_scan"}, "fusion_lon": 0.0, "type": "electric_scooter", "bike_id": "c48ba2b51bbc166f26cbe2f7062b8e97", "name": "c48ba2b51bbc166f26cbe2f7062b8e97"}, {"lon": -76.99493783333334, "is_disabled": 0, "lat": 38.929985, "fusion_lat": 0.0, "is_reserved": 0, "rental_uris": {"ios": "https://dc.lft.to/lastmile_qr_scan", "android": "https://dc.lft.to/lastmile_qr_scan"}, "fusion_lon": 0.0, "type": "electric_scooter", "bike_id": "21f79cbe37ef45ee310958e212bac148", "name": "21f79cbe37ef45ee310958e212bac148"}, {"lon": -77.03379966666667, "is_disabled": 0, "lat": 38.92054133333333, "fusion_lat": 0.0, "is_reserved": 0, "rental_uris": {"ios": "https://dc.lft.to/lastmile_qr_scan", "android": "https://dc.lft.to/lastmile_qr_scan"}, "fusion_lon": 0.0, "type": "electric_scooter", "bike_id": "52539c3fd2db2677592601388331cc53", "name": "52539c3fd2db2677592601388331cc53"}, {"lon": -77.03465866666667, "is_disabled": 0, "lat": 38.90845633333333, "fusion_lat": 0.0, "is_reserved": 0, "rental_uris": {"ios": "https://dc.lft.to/lastmile_qr_scan", "android": "https://dc.lft.to/lastmile_qr_scan"}, "fusion_lon": 0.0, "type": "electric_scooter", "bike_id": "92a03484fa1e90131a510e0f18e023dc", "name": "92a03484fa1e90131a510e0f18e023dc"}, {"lon": -77.0220495, "is_disabled": 0, "lat": 38.926882666666664, "fusion_lat": 0.0, "is_reserved": 0, "rental_uris": {"ios": "https://dc.lft.to/lastmile_qr_scan", "android": "https://dc.lft.to/lastmile_qr_scan"}, "fusion_lon": 0.0, "type": "electric_scooter", "bike_id": "e8c74405383440e0da884eda1d083e8b", "name": "e8c74405383440e0da884eda1d083e8b"}, {"lon": -77.01313133333333, "is_disabled": 0, "lat": 38.90049366666667, "fusion_lat": 0.0, "is_reserved": 0, "rental_uris": {"ios": "https://dc.lft.to/lastmile_qr_scan", "android": "https://dc.lft.to/lastmile_qr_scan"}, "fusion_lon": 0.0, "type": "electric_scooter", "bike_id": "93e1e030a37c12b2d433a7081a34f291", "name": "93e1e030a37c12b2d433a7081a34f291"}, {"lon": -76.98423966666667, "is_disabled": 0, "lat": 38.92645133333333, "fusion_lat": 0.0, "is_reserved": 0, "rental_uris": {"ios": "https://dc.lft.to/lastmile_qr_scan", "android": "https://dc.lft.to/lastmile_qr_scan"}, "fusion_lon": 0.0, "type": "electric_bike", "bike_id": "c61580c54d8bcec17b571c3c3ece8125", "name": "c61580c54d8bcec17b571c3c3ece8125"}, {"lon": -76.95775316666666, "is_disabled": 0, "lat": 38.8688085, "fusion_lat": 0.0, "is_reserved": 0, "rental_uris": {"ios": "https://dc.lft.to/lastmile_qr_scan", "android": "https://dc.lft.to/lastmile_qr_scan"}, "fusion_lon": 0.0, "type": "electric_bike", "bike_id": "a8454bad02b9738a2f9c42b2e2f0a0fc", "name": "a8454bad02b9738a2f9c42b2e2f0a0fc"}, {"lon": -77.04955083333333, "is_disabled": 0, "lat": 38.89831816666667, "fusion_lat": 0.0, "is_reserved": 0, "rental_uris": {"ios": "https://dc.lft.to/lastmile_qr_scan", "android": "https://dc.lft.to/lastmile_qr_scan"}, "fusion_lon": 0.0, "type": "electric_scooter", "bike_id": "26c500cf141b736b8ffcbe733b62e504", "name": "26c500cf141b736b8ffcbe733b62e504"}, {"lon": -77.0494155, "is_disabled": 0, "lat": 38.9182645, "fusion_lat": 0.0, "is_reserved": 0, "rental_uris": {"ios": "https://dc.lft.to/lastmile_qr_scan", "android": "https://dc.lft.to/lastmile_qr_scan"}, "fusion_lon": 0.0, "type": "electric_scooter", "bike_id": "e06c185cacb72dac21189ede0abdcc93", "name": "e06c185cacb72dac21189ede0abdcc93"}, {"lon": -76.96543866666667, "is_disabled": 0, "lat": 38.91848433333333, "fusion_lat": 0.0, "is_reserved": 0, "rental_uris": {"ios": "https://dc.lft.to/lastmile_qr_scan", "android": "https://dc.lft.to/lastmile_qr_scan"}, "fusion_lon": 0.0, "type": "electric_scooter", "bike_id": "af40c2ba9619b4f841384d3059f8a899", "name": "af40c2ba9619b4f841384d3059f8a899"}, {"lon": -77.022863, "is_disabled": 0, "lat": 38.894983833333335, "fusion_lat": 0.0, "is_reserved": 0, "rental_uris": {"ios": "https://dc.lft.to/lastmile_qr_scan", "android": "https://dc.lft.to/lastmile_qr_scan"}, "fusion_lon": 0.0, "type": "electric_scooter", "bike_id": "55078cd7351ebd60f09d8d3d7d3a076e", "name": "55078cd7351ebd60f09d8d3d7d3a076e"}, {"lon": -76.97026033333333, "is_disabled": 0, "lat": 38.873578, "fusion_lat": 0.0, "is_reserved": 0, "rental_uris": {"ios": "https://dc.lft.to/lastmile_qr_scan", "android": "https://dc.lft.to/lastmile_qr_scan"}, "fusion_lon": 0.0, "type": "electric_scooter", "bike_id": "dbd4616ef31179e8fb769b8eae733f2f", "name": "dbd4616ef31179e8fb769b8eae733f2f"}, {"lon": -77.02953233333334, "is_disabled": 0, "lat": 38.93249866666667, "fusion_lat": 0.0, "is_reserved": 0, "rental_uris": {"ios": "https://dc.lft.to/lastmile_qr_scan", "android": "https://dc.lft.to/lastmile_qr_scan"}, "fusion_lon": 0.0, "type": "electric_scooter", "bike_id": "2b968a502550ca350f685bfdebcb4089", "name": "2b968a502550ca350f685bfdebcb4089"}, {"lon": -77.040141, "is_disabled": 0, "lat": 38.89635166666667, "fusion_lat": 0.0, "is_reserved": 0, "rental_uris": {"ios": "https://dc.lft.to/lastmile_qr_scan", "android": "https://dc.lft.to/lastmile_qr_scan"}, "fusion_lon": 0.0, "type": "electric_scooter", "bike_id": "7da504c3f2b8ed2fa011c939402c256c", "name": "7da504c3f2b8ed2fa011c939402c256c"}, {"lon": -77.01529, "is_disabled": 0, "lat": 38.887414, "fusion_lat": 0.0, "is_reserved": 0, "rental_uris": {"ios": "https://dc.lft.to/lastmile_qr_scan", "android": "https://dc.lft.to/lastmile_qr_scan"}, "fusion_lon": 0.0, "type": "electric_scooter", "bike_id": "8e8693e8d68cd85427abb43a00cf2336", "name": "8e8693e8d68cd85427abb43a00cf2336"}, {"lon": -77.08067983333333, "is_disabled": 0, "lat": 39.052536, "fusion_lat": 0.0, "is_reserved": 0, "rental_uris": {"ios": "https://dc.lft.to/lastmile_qr_scan", "android": "https://dc.lft.to/lastmile_qr_scan"}, "fusion_lon": 0.0, "type": "electric_bike", "bike_id": "da4e2fe69c9fc35b2387d1964c28c1c5", "name": "da4e2fe69c9fc35b2387d1964c28c1c5"}, {"lon": -77.02407733333334, "is_disabled": 0, "lat": 38.914027833333336, "fusion_lat": 0.0, "is_reserved": 0, "rental_uris": {"ios": "https://dc.lft.to/lastmile_qr_scan", "android": "https://dc.lft.to/lastmile_qr_scan"}, "fusion_lon": 0.0, "type": "electric_scooter", "bike_id": "a6c799e1c1293e4c547ea302fc46cda7", "name": "a6c799e1c1293e4c547ea302fc46cda7"}, {"lon": -77.045103, "is_disabled": 0, "lat": 38.915075333333334, "fusion_lat": 0.0, "is_reserved": 0, "rental_uris": {"ios": "https://dc.lft.to/lastmile_qr_scan", "android": "https://dc.lft.to/lastmile_qr_scan"}, "fusion_lon": 0.0, "type": "electric_scooter", "bike_id": "38a899e2369c22a2fe122bc2e500c813", "name": "38a899e2369c22a2fe122bc2e500c813"}, {"lon": -77.0176085, "is_disabled": 0, "lat": 38.9025785, "fusion_lat": 0.0, "is_reserved": 0, "rental_uris": {"ios": "https://dc.lft.to/lastmile_qr_scan", "android": "https://dc.lft.to/lastmile_qr_scan"}, "fusion_lon": 0.0, "type": "electric_scooter", "bike_id": "d1c4332129296e41b5f271f19bd3f8d0", "name": "d1c4332129296e41b5f271f19bd3f8d0"}, {"lon": -77.02056733333333, "is_disabled": 0, "lat": 38.93341816666667, "fusion_lat": 0.0, "is_reserved": 0, "rental_uris": {"ios": "https://dc.lft.to/lastmile_qr_scan", "android": "https://dc.lft.to/lastmile_qr_scan"}, "fusion_lon": 0.0, "type": "electric_scooter", "bike_id": "bdec27d2f58bc57c2ed0c1cc4190c474", "name": "bdec27d2f58bc57c2ed0c1cc4190c474"}, {"lon": -77.03832366666667, "is_disabled": 0, "lat": 38.907843166666666, "fusion_lat": 0.0, "is_reserved": 0, "rental_uris": {"ios": "https://dc.lft.to/lastmile_qr_scan", "android": "https://dc.lft.to/lastmile_qr_scan"}, "fusion_lon": 0.0, "type": "electric_scooter", "bike_id": "00a6839c7fc580647f3a4d54c688ca77", "name": "00a6839c7fc580647f3a4d54c688ca77"}, {"lon": -77.03436266666667, "is_disabled": 0, "lat": 38.9043375, "fusion_lat": 0.0, "is_reserved": 0, "rental_uris": {"ios": "https://dc.lft.to/lastmile_qr_scan", "android": "https://dc.lft.to/lastmile_qr_scan"}, "fusion_lon": 0.0, "type": "electric_scooter", "bike_id": "6a6b74b7815139f8c9c2ff1fc00c381b", "name": "6a6b74b7815139f8c9c2ff1fc00c381b"}, {"lon": -77.00592266666666, "is_disabled": 0, "lat": 38.875703, "fusion_lat": 0.0, "is_reserved": 0, "rental_uris": {"ios": "https://dc.lft.to/lastmile_qr_scan", "android": "https://dc.lft.to/lastmile_qr_scan"}, "fusion_lon": 0.0, "type": "electric_scooter", "bike_id": "00efc2dcd44f06a2727f72e5dae1da81", "name": "00efc2dcd44f06a2727f72e5dae1da81"}, {"lon": -77.01755383333334, "is_disabled": 0, "lat": 38.876892833333336, "fusion_lat": 0.0, "is_reserved": 0, "rental_uris": {"ios": "https://dc.lft.to/lastmile_qr_scan", "android": "https://dc.lft.to/lastmile_qr_scan"}, "fusion_lon": 0.0, "type": "electric_scooter", "bike_id": "a4870f98ee99ba9d2b56f30c88131ae1", "name": "a4870f98ee99ba9d2b56f30c88131ae1"}, {"lon": -77.0222425, "is_disabled": 0, "lat": 38.89219633333333, "fusion_lat": 0.0, "is_reserved": 0, "rental_uris": {"ios": "https://dc.lft.to/lastmile_qr_scan", "android": "https://dc.lft.to/lastmile_qr_scan"}, "fusion_lon": 0.0, "type": "electric_scooter", "bike_id": "99790ee965170fdd5ad26e22c8393f46", "name": "99790ee965170fdd5ad26e22c8393f46"}, {"lon": -77.03376583333333, "is_disabled": 0, "lat": 38.89922416666667, "fusion_lat": 0.0, "is_reserved": 0, "rental_uris": {"ios": "https://dc.lft.to/lastmile_qr_scan", "android": "https://dc.lft.to/lastmile_qr_scan"}, "fusion_lon": 0.0, "type": "electric_scooter", "bike_id": "934b75413feb50c620e7c6e2d305bb95", "name": "934b75413feb50c620e7c6e2d305bb95"}, {"lon": -77.062866, "is_disabled": 0, "lat": 38.905682, "fusion_lat": 0.0, "is_reserved": 0, "rental_uris": {"ios": "https://dc.lft.to/lastmile_qr_scan", "android": "https://dc.lft.to/lastmile_qr_scan"}, "fusion_lon": 0.0, "type": "electric_scooter", "bike_id": "237bcd787787cd71ba3b0c2d9549dc8c", "name": "237bcd787787cd71ba3b0c2d9549dc8c"}, {"lon": -77.03190366666666, "is_disabled": 0, "lat": 38.91714366666667, "fusion_lat": 0.0, "is_reserved": 0, "rental_uris": {"ios": "https://dc.lft.to/lastmile_qr_scan", "android": "https://dc.lft.to/lastmile_qr_scan"}, "fusion_lon": 0.0, "type": "electric_scooter", "bike_id": "423fd25af91cb1528de990616ab1997c", "name": "423fd25af91cb1528de990616ab1997c"}, {"lon": -77.00600383333334, "is_disabled": 0, "lat": 38.875939333333335, "fusion_lat": 0.0, "is_reserved": 0, "rental_uris": {"ios": "https://dc.lft.to/lastmile_qr_scan", "android": "https://dc.lft.to/lastmile_qr_scan"}, "fusion_lon": 0.0, "type": "electric_scooter", "bike_id": "bea4ecb38fe86a9e6807cc91fc2f58e1", "name": "bea4ecb38fe86a9e6807cc91fc2f58e1"}, {"lon": -77.02846133333334, "is_disabled": 0, "lat": 38.89348866666667, "fusion_lat": 0.0, "is_reserved": 0, "rental_uris": {"ios": "https://dc.lft.to/lastmile_qr_scan", "android": "https://dc.lft.to/lastmile_qr_scan"}, "fusion_lon": 0.0, "type": "electric_scooter", "bike_id": "4e57a55572c3c797072df295daffb7b8", "name": "4e57a55572c3c797072df295daffb7b8"}, {"lon": -77.03838566666667, "is_disabled": 0, "lat": 38.941937333333335, "fusion_lat": 0.0, "is_reserved": 0, "rental_uris": {"ios": "https://dc.lft.to/lastmile_qr_scan", "android": "https://dc.lft.to/lastmile_qr_scan"}, "fusion_lon": 0.0, "type": "electric_scooter", "bike_id": "19fb3e1b1deecb0a4f3e809cca599693", "name": "19fb3e1b1deecb0a4f3e809cca599693"}, {"lon": -77.02827716666667, "is_disabled": 0, "lat": 38.88660016666667, "fusion_lat": 0.0, "is_reserved": 0, "rental_uris": {"ios": "https://dc.lft.to/lastmile_qr_scan", "android": "https://dc.lft.to/lastmile_qr_scan"}, "fusion_lon": 0.0, "type": "electric_scooter", "bike_id": "8f52656a9f4dfb66982ac79f54c2fe4e", "name": "8f52656a9f4dfb66982ac79f54c2fe4e"}, {"lon": -77.0382525, "is_disabled": 0, "lat": 38.93130083333333, "fusion_lat": 0.0, "is_reserved": 0, "rental_uris": {"ios": "https://dc.lft.to/lastmile_qr_scan", "android": "https://dc.lft.to/lastmile_qr_scan"}, "fusion_lon": 0.0, "type": "electric_scooter", "bike_id": "768223e993228d0c2c7d2497c9367682", "name": "768223e993228d0c2c7d2497c9367682"}, {"lon": -77.0257195, "is_disabled": 0, "lat": 38.89750316666667, "fusion_lat": 0.0, "is_reserved": 0, "rental_uris": {"ios": "https://dc.lft.to/lastmile_qr_scan", "android": "https://dc.lft.to/lastmile_qr_scan"}, "fusion_lon": 0.0, "type": "electric_scooter", "bike_id": "6656a7b83c63a8520174c0295adc6f65", "name": "6656a7b83c63a8520174c0295adc6f65"}, {"lon": -77.0592185, "is_disabled": 0, "lat": 38.902759, "fusion_lat": 0.0, "is_reserved": 0, "rental_uris": {"ios": "https://dc.lft.to/lastmile_qr_scan", "android": "https://dc.lft.to/lastmile_qr_scan"}, "fusion_lon": 0.0, "type": "electric_scooter", "bike_id": "d04426a16f3bd3cacf57624c550e8a67", "name": "d04426a16f3bd3cacf57624c550e8a67"}, {"lon": -77.03198433333333, "is_disabled": 0, "lat": 38.892343833333335, "fusion_lat": 0.0, "is_reserved": 0, "rental_uris": {"ios": "https://dc.lft.to/lastmile_qr_scan", "android": "https://dc.lft.to/lastmile_qr_scan"}, "fusion_lon": 0.0, "type": "electric_scooter", "bike_id": "3237de150ef98df6f751178701b6f38a", "name": "3237de150ef98df6f751178701b6f38a"}, {"lon": -77.02494266666666, "is_disabled": 0, "lat": 38.918093, "fusion_lat": 0.0, "is_reserved": 0, "rental_uris": {"ios": "https://dc.lft.to/lastmile_qr_scan", "android": "https://dc.lft.to/lastmile_qr_scan"}, "fusion_lon": 0.0, "type": "electric_scooter", "bike_id": "da2f4cf29f4085ac03bf7d54b8a344ca", "name": "da2f4cf29f4085ac03bf7d54b8a344ca"}, {"lon": -77.02394933333333, "is_disabled": 0, "lat": 38.91713266666667, "fusion_lat": 0.0, "is_reserved": 0, "rental_uris": {"ios": "https://dc.lft.to/lastmile_qr_scan", "android": "https://dc.lft.to/lastmile_qr_scan"}, "fusion_lon": 0.0, "type": "electric_scooter", "bike_id": "4469c98824bbd4270f5adeafd968a204", "name": "4469c98824bbd4270f5adeafd968a204"}, {"lon": -77.12658333333333, "is_disabled": 0, "lat": 38.815152499999996, "fusion_lat": 0.0, "is_reserved": 0, "rental_uris": {"ios": "https://dc.lft.to/lastmile_qr_scan", "android": "https://dc.lft.to/lastmile_qr_scan"}, "fusion_lon": 0.0, "type": "electric_bike", "bike_id": "6120cb08c476a6536682cd283132a7b2", "name": "6120cb08c476a6536682cd283132a7b2"}, {"lon": -77.04460816666666, "is_disabled": 0, "lat": 38.909635, "fusion_lat": 0.0, "is_reserved": 0, "rental_uris": {"ios": "https://dc.lft.to/lastmile_qr_scan", "android": "https://dc.lft.to/lastmile_qr_scan"}, "fusion_lon": 0.0, "type": "electric_scooter", "bike_id": "3eaf1ea4b1f69783059dde594ebde4a0", "name": "3eaf1ea4b1f69783059dde594ebde4a0"}, {"lon": -76.98182266666667, "is_disabled": 0, "lat": 38.895854, "fusion_lat": 0.0, "is_reserved": 0, "rental_uris": {"ios": "https://dc.lft.to/lastmile_qr_scan", "android": "https://dc.lft.to/lastmile_qr_scan"}, "fusion_lon": 0.0, "type": "electric_scooter", "bike_id": "d5161e4c1587640a1a5b9dcc7f902282", "name": "d5161e4c1587640a1a5b9dcc7f902282"}, {"lon": -76.98542733333333, "is_disabled": 0, "lat": 38.866904166666664, "fusion_lat": 0.0, "is_reserved": 0, "rental_uris": {"ios": "https://dc.lft.to/lastmile_qr_scan", "android": "https://dc.lft.to/lastmile_qr_scan"}, "fusion_lon": 0.0, "type": "electric_scooter", "bike_id": "bdb04616354b0d5b6e7c4d823b9e8f98", "name": "bdb04616354b0d5b6e7c4d823b9e8f98"}, {"lon": -77.011971, "is_disabled": 0, "lat": 38.91569716666667, "fusion_lat": 0.0, "is_reserved": 0, "rental_uris": {"ios": "https://dc.lft.to/lastmile_qr_scan", "android": "https://dc.lft.to/lastmile_qr_scan"}, "fusion_lon": 0.0, "type": "electric_scooter", "bike_id": "d5669e8f43ab371b5e98b1ce51bfc6d2", "name": "d5669e8f43ab371b5e98b1ce51bfc6d2"}, {"lon": -77.02211233333334, "is_disabled": 0, "lat": 38.90835083333333, "fusion_lat": 0.0, "is_reserved": 0, "rental_uris": {"ios": "https://dc.lft.to/lastmile_qr_scan", "android": "https://dc.lft.to/lastmile_qr_scan"}, "fusion_lon": 0.0, "type": "electric_scooter", "bike_id": "029d8d03f40599d6e1c85fc6846e1315", "name": "029d8d03f40599d6e1c85fc6846e1315"}, {"lon": -76.94641333333334, "is_disabled": 0, "lat": 38.898672166666664, "fusion_lat": 0.0, "is_reserved": 0, "rental_uris": {"ios": "https://dc.lft.to/lastmile_qr_scan", "android": "https://dc.lft.to/lastmile_qr_scan"}, "fusion_lon": 0.0, "type": "electric_scooter", "bike_id": "4454b58b1a56af0d97a9b755c049af80", "name": "4454b58b1a56af0d97a9b755c049af80"}, {"lon": -77.001578, "is_disabled": 0, "lat": 38.873719666666666, "fusion_lat": 0.0, "is_reserved": 0, "rental_uris": {"ios": "https://dc.lft.to/lastmile_qr_scan", "android": "https://dc.lft.to/lastmile_qr_scan"}, "fusion_lon": 0.0, "type": "electric_scooter", "bike_id": "698eb40da8ed88f04a89e1ea21268743", "name": "698eb40da8ed88f04a89e1ea21268743"}, {"lon": -76.9924565, "is_disabled": 0, "lat": 38.794740166666664, "fusion_lat": 0.0, "is_reserved": 0, "rental_uris": {"ios": "https://dc.lft.to/lastmile_qr_scan", "android": "https://dc.lft.to/lastmile_qr_scan"}, "fusion_lon": 0.0, "type": "electric_bike", "bike_id": "65d79af411de6d8da539cef9ef7153d0", "name": "65d79af411de6d8da539cef9ef7153d0"}, {"lon": -77.03182366666667, "is_disabled": 0, "lat": 38.9029995, "fusion_lat": 0.0, "is_reserved": 0, "rental_uris": {"ios": "https://dc.lft.to/lastmile_qr_scan", "android": "https://dc.lft.to/lastmile_qr_scan"}, "fusion_lon": 0.0, "type": "electric_scooter", "bike_id": "2f1475536b221bef1d0ab6deafb44f73", "name": "2f1475536b221bef1d0ab6deafb44f73"}, {"lon": -77.03226583333333, "is_disabled": 0, "lat": 38.9086445, "fusion_lat": 0.0, "is_reserved": 0, "rental_uris": {"ios": "https://dc.lft.to/lastmile_qr_scan", "android": "https://dc.lft.to/lastmile_qr_scan"}, "fusion_lon": 0.0, "type": "electric_scooter", "bike_id": "673657262138b93f0e125eb3bdcbb067", "name": "673657262138b93f0e125eb3bdcbb067"}, {"lon": -77.0068505, "is_disabled": 0, "lat": 38.8717255, "fusion_lat": 0.0, "is_reserved": 0, "rental_uris": {"ios": "https://dc.lft.to/lastmile_qr_scan", "android": "https://dc.lft.to/lastmile_qr_scan"}, "fusion_lon": 0.0, "type": "electric_scooter", "bike_id": "fc74164b44ccb12f1274ebfae6dd31f4", "name": "fc74164b44ccb12f1274ebfae6dd31f4"}, {"lon": -76.99803183333333, "is_disabled": 0, "lat": 38.90854783333333, "fusion_lat": 0.0, "is_reserved": 0, "rental_uris": {"ios": "https://dc.lft.to/lastmile_qr_scan", "android": "https://dc.lft.to/lastmile_qr_scan"}, "fusion_lon": 0.0, "type": "electric_scooter", "bike_id": "b2fda49ab36f3b2144cb09056bd05e51", "name": "b2fda49ab36f3b2144cb09056bd05e51"}, {"lon": -77.03545816666667, "is_disabled": 0, "lat": 38.91267116666667, "fusion_lat": 0.0, "is_reserved": 0, "rental_uris": {"ios": "https://dc.lft.to/lastmile_qr_scan", "android": "https://dc.lft.to/lastmile_qr_scan"}, "fusion_lon": 0.0, "type": "electric_scooter", "bike_id": "e891549061debf78e941bb9cd47259d0", "name": "e891549061debf78e941bb9cd47259d0"}, {"lon": -77.02393633333334, "is_disabled": 0, "lat": 38.906861666666664, "fusion_lat": 0.0, "is_reserved": 0, "rental_uris": {"ios": "https://dc.lft.to/lastmile_qr_scan", "android": "https://dc.lft.to/lastmile_qr_scan"}, "fusion_lon": 0.0, "type": "electric_scooter", "bike_id": "d473f513e410d693a3d5b08ebdfe309c", "name": "d473f513e410d693a3d5b08ebdfe309c"}, {"lon": -76.972118, "is_disabled": 0, "lat": 38.914567166666664, "fusion_lat": 0.0, "is_reserved": 0, "rental_uris": {"ios": "https://dc.lft.to/lastmile_qr_scan", "android": "https://dc.lft.to/lastmile_qr_scan"}, "fusion_lon": 0.0, "type": "electric_scooter", "bike_id": "3e5a100559a74bda625318476bc1b1e1", "name": "3e5a100559a74bda625318476bc1b1e1"}, {"lon": -77.03680366666667, "is_disabled": 0, "lat": 38.92270216666667, "fusion_lat": 0.0, "is_reserved": 0, "rental_uris": {"ios": "https://dc.lft.to/lastmile_qr_scan", "android": "https://dc.lft.to/lastmile_qr_scan"}, "fusion_lon": 0.0, "type": "electric_scooter", "bike_id": "44c5afb25da5202cdae321fa29b92466", "name": "44c5afb25da5202cdae321fa29b92466"}, {"lon": -77.02411083333334, "is_disabled": 0, "lat": 38.909699833333335, "fusion_lat": 0.0, "is_reserved": 0, "rental_uris": {"ios": "https://dc.lft.to/lastmile_qr_scan", "android": "https://dc.lft.to/lastmile_qr_scan"}, "fusion_lon": 0.0, "type": "electric_scooter", "bike_id": "04e340883ae01c80571d0ee4b0c7ecb3", "name": "04e340883ae01c80571d0ee4b0c7ecb3"}, {"lon": -77.02163516666667, "is_disabled": 0, "lat": 38.92517466666666, "fusion_lat": 0.0, "is_reserved": 0, "rental_uris": {"ios": "https://dc.lft.to/lastmile_qr_scan", "android": "https://dc.lft.to/lastmile_qr_scan"}, "fusion_lon": 0.0, "type": "electric_scooter", "bike_id": "5075f107097ee672668ddbd45373734b", "name": "5075f107097ee672668ddbd45373734b"}, {"lon": -77.02492533333333, "is_disabled": 0, "lat": 38.9417895, "fusion_lat": 0.0, "is_reserved": 0, "rental_uris": {"ios": "https://dc.lft.to/lastmile_qr_scan", "android": "https://dc.lft.to/lastmile_qr_scan"}, "fusion_lon": 0.0, "type": "electric_scooter", "bike_id": "91607fde58a55a582b7dbda4e02db2b9", "name": "91607fde58a55a582b7dbda4e02db2b9"}, {"lon": -76.99500333333333, "is_disabled": 0, "lat": 38.862475333333336, "fusion_lat": 0.0, "is_reserved": 0, "rental_uris": {"ios": "https://dc.lft.to/lastmile_qr_scan", "android": "https://dc.lft.to/lastmile_qr_scan"}, "fusion_lon": 0.0, "type": "electric_scooter", "bike_id": "1226cad65fb653233041e83be882cbaf", "name": "1226cad65fb653233041e83be882cbaf"}, {"lon": -77.00369683333334, "is_disabled": 0, "lat": 38.89732083333333, "fusion_lat": 0.0, "is_reserved": 0, "rental_uris": {"ios": "https://dc.lft.to/lastmile_qr_scan", "android": "https://dc.lft.to/lastmile_qr_scan"}, "fusion_lon": 0.0, "type": "electric_scooter", "bike_id": "50495221cba811b189197bf8c42f0d1a", "name": "50495221cba811b189197bf8c42f0d1a"}, {"lon": -77.03282266666666, "is_disabled": 0, "lat": 38.89894183333333, "fusion_lat": 0.0, "is_reserved": 0, "rental_uris": {"ios": "https://dc.lft.to/lastmile_qr_scan", "android": "https://dc.lft.to/lastmile_qr_scan"}, "fusion_lon": 0.0, "type": "electric_scooter", "bike_id": "5a0c1760377875f13af2d57486e9a018", "name": "5a0c1760377875f13af2d57486e9a018"}, {"lon": -77.02379583333334, "is_disabled": 0, "lat": 38.916624, "fusion_lat": 0.0, "is_reserved": 0, "rental_uris": {"ios": "https://dc.lft.to/lastmile_qr_scan", "android": "https://dc.lft.to/lastmile_qr_scan"}, "fusion_lon": 0.0, "type": "electric_scooter", "bike_id": "1d4a264a9b051ebf9a251fe77c5be01d", "name": "1d4a264a9b051ebf9a251fe77c5be01d"}, {"lon": -77.02447916666667, "is_disabled": 0, "lat": 38.935873, "fusion_lat": 0.0, "is_reserved": 0, "rental_uris": {"ios": "https://dc.lft.to/lastmile_qr_scan", "android": "https://dc.lft.to/lastmile_qr_scan"}, "fusion_lon": 0.0, "type": "electric_scooter", "bike_id": "0c95b49a3d63af6ae294869ad0c600e3", "name": "0c95b49a3d63af6ae294869ad0c600e3"}, {"lon": -77.04663633333334, "is_disabled": 0, "lat": 38.90417433333333, "fusion_lat": 0.0, "is_reserved": 0, "rental_uris": {"ios": "https://dc.lft.to/lastmile_qr_scan", "android": "https://dc.lft.to/lastmile_qr_scan"}, "fusion_lon": 0.0, "type": "electric_scooter", "bike_id": "74265ce1dd1a1d73a0be3011e98d7982", "name": "74265ce1dd1a1d73a0be3011e98d7982"}, {"lon": -76.97521066666667, "is_disabled": 0, "lat": 38.898654666666665, "fusion_lat": 0.0, "is_reserved": 0, "rental_uris": {"ios": "https://dc.lft.to/lastmile_qr_scan", "android": "https://dc.lft.to/lastmile_qr_scan"}, "fusion_lon": 0.0, "type": "electric_scooter", "bike_id": "d53c07e1beab3e567a28fc9e712e492a", "name": "d53c07e1beab3e567a28fc9e712e492a"}, {"lon": -77.04360433333333, "is_disabled": 0, "lat": 38.89849183333333, "fusion_lat": 0.0, "is_reserved": 0, "rental_uris": {"ios": "https://dc.lft.to/lastmile_qr_scan", "android": "https://dc.lft.to/lastmile_qr_scan"}, "fusion_lon": 0.0, "type": "electric_scooter", "bike_id": "49c303080e6e7ceca9cb1f1688836f3b", "name": "49c303080e6e7ceca9cb1f1688836f3b"}, {"lon": -76.99584783333333, "is_disabled": 0, "lat": 38.94735333333333, "fusion_lat": 0.0, "is_reserved": 0, "rental_uris": {"ios": "https://dc.lft.to/lastmile_qr_scan", "android": "https://dc.lft.to/lastmile_qr_scan"}, "fusion_lon": 0.0, "type": "electric_bike", "bike_id": "05afdb7321fb180901d210aa36934e96", "name": "05afdb7321fb180901d210aa36934e96"}, {"lon": -77.02408983333333, "is_disabled": 0, "lat": 38.91418083333333, "fusion_lat": 0.0, "is_reserved": 0, "rental_uris": {"ios": "https://dc.lft.to/lastmile_qr_scan", "android": "https://dc.lft.to/lastmile_qr_scan"}, "fusion_lon": 0.0, "type": "electric_scooter", "bike_id": "c2a169d14042b7515dd97996208ad47e", "name": "c2a169d14042b7515dd97996208ad47e"}, {"lon": -76.985538, "is_disabled": 0, "lat": 38.91033516666667, "fusion_lat": 0.0, "is_reserved": 0, "rental_uris": {"ios": "https://dc.lft.to/lastmile_qr_scan", "android": "https://dc.lft.to/lastmile_qr_scan"}, "fusion_lon": 0.0, "type": "electric_scooter", "bike_id": "682dfb0b5eeba6708bea810ff8e61907", "name": "682dfb0b5eeba6708bea810ff8e61907"}, {"lon": -77.05395766666666, "is_disabled": 0, "lat": 38.80453, "fusion_lat": 0.0, "is_reserved": 0, "rental_uris": {"ios": "https://dc.lft.to/lastmile_qr_scan", "android": "https://dc.lft.to/lastmile_qr_scan"}, "fusion_lon": 0.0, "type": "electric_bike", "bike_id": "a79d28a1f0498b188091aaac7ed049b8", "name": "a79d28a1f0498b188091aaac7ed049b8"}, {"lon": -77.04756533333334, "is_disabled": 0, "lat": 38.900847666666664, "fusion_lat": 0.0, "is_reserved": 0, "rental_uris": {"ios": "https://dc.lft.to/lastmile_qr_scan", "android": "https://dc.lft.to/lastmile_qr_scan"}, "fusion_lon": 0.0, "type": "electric_scooter", "bike_id": "806ffb793d40288dc27c8d1f69d77d14", "name": "806ffb793d40288dc27c8d1f69d77d14"}, {"lon": -77.029342, "is_disabled": 0, "lat": 38.89996266666667, "fusion_lat": 0.0, "is_reserved": 0, "rental_uris": {"ios": "https://dc.lft.to/lastmile_qr_scan", "android": "https://dc.lft.to/lastmile_qr_scan"}, "fusion_lon": 0.0, "type": "electric_scooter", "bike_id": "42268443a95be401a102e0e6c8d46d80", "name": "42268443a95be401a102e0e6c8d46d80"}, {"lon": -77.0262775, "is_disabled": 0, "lat": 38.896272, "fusion_lat": 0.0, "is_reserved": 0, "rental_uris": {"ios": "https://dc.lft.to/lastmile_qr_scan", "android": "https://dc.lft.to/lastmile_qr_scan"}, "fusion_lon": 0.0, "type": "electric_scooter", "bike_id": "78097286b41f9eb64903f08070a16164", "name": "78097286b41f9eb64903f08070a16164"}, {"lon": -77.05000616666666, "is_disabled": 0, "lat": 38.90084983333333, "fusion_lat": 0.0, "is_reserved": 0, "rental_uris": {"ios": "https://dc.lft.to/lastmile_qr_scan", "android": "https://dc.lft.to/lastmile_qr_scan"}, "fusion_lon": 0.0, "type": "electric_scooter", "bike_id": "bfdb7713447624167b3e54c3963acec0", "name": "bfdb7713447624167b3e54c3963acec0"}, {"lon": -77.03205216666667, "is_disabled": 0, "lat": 38.9120175, "fusion_lat": 0.0, "is_reserved": 0, "rental_uris": {"ios": "https://dc.lft.to/lastmile_qr_scan", "android": "https://dc.lft.to/lastmile_qr_scan"}, "fusion_lon": 0.0, "type": "electric_scooter", "bike_id": "89c67ee5028a67527e7fc421a5995a09", "name": "89c67ee5028a67527e7fc421a5995a09"}, {"lon": -77.0194825, "is_disabled": 0, "lat": 38.92417916666667, "fusion_lat": 0.0, "is_reserved": 0, "rental_uris": {"ios": "https://dc.lft.to/lastmile_qr_scan", "android": "https://dc.lft.to/lastmile_qr_scan"}, "fusion_lon": 0.0, "type": "electric_scooter", "bike_id": "dafaf62bdc2e80916eb6e1eb2625bebb", "name": "dafaf62bdc2e80916eb6e1eb2625bebb"}, {"lon": -77.04293, "is_disabled": 0, "lat": 38.8310005, "fusion_lat": 0.0, "is_reserved": 0, "rental_uris": {"ios": "https://dc.lft.to/lastmile_qr_scan", "android": "https://dc.lft.to/lastmile_qr_scan"}, "fusion_lon": 0.0, "type": "electric_bike", "bike_id": "02ced9af7700180c646be81f58304f26", "name": "02ced9af7700180c646be81f58304f26"}, {"lon": -77.0574185, "is_disabled": 0, "lat": 38.9339905, "fusion_lat": 0.0, "is_reserved": 0, "rental_uris": {"ios": "https://dc.lft.to/lastmile_qr_scan", "android": "https://dc.lft.to/lastmile_qr_scan"}, "fusion_lon": 0.0, "type": "electric_scooter", "bike_id": "c509c0d87d137055c78d604938f3b545", "name": "c509c0d87d137055c78d604938f3b545"}, {"lon": -77.02196616666667, "is_disabled": 0, "lat": 38.91125, "fusion_lat": 0.0, "is_reserved": 0, "rental_uris": {"ios": "https://dc.lft.to/lastmile_qr_scan", "android": "https://dc.lft.to/lastmile_qr_scan"}, "fusion_lon": 0.0, "type": "electric_scooter", "bike_id": "e7af43fa232660bd5db433fdaf90b5d6", "name": "e7af43fa232660bd5db433fdaf90b5d6"}, {"lon": -77.03622966666667, "is_disabled": 0, "lat": 38.931641166666665, "fusion_lat": 0.0, "is_reserved": 0, "rental_uris": {"ios": "https://dc.lft.to/lastmile_qr_scan", "android": "https://dc.lft.to/lastmile_qr_scan"}, "fusion_lon": 0.0, "type": "electric_scooter", "bike_id": "697e64024e16a67d6039a8e2078e27c3", "name": "697e64024e16a67d6039a8e2078e27c3"}, {"lon": -77.04157883333333, "is_disabled": 0, "lat": 38.91941116666667, "fusion_lat": 0.0, "is_reserved": 0, "rental_uris": {"ios": "https://dc.lft.to/lastmile_qr_scan", "android": "https://dc.lft.to/lastmile_qr_scan"}, "fusion_lon": 0.0, "type": "electric_scooter", "bike_id": "58de0497f2d7c44be396b8a18dac6b21", "name": "58de0497f2d7c44be396b8a18dac6b21"}, {"lon": -77.0299455, "is_disabled": 0, "lat": 38.89754583333333, "fusion_lat": 0.0, "is_reserved": 0, "rental_uris": {"ios": "https://dc.lft.to/lastmile_qr_scan", "android": "https://dc.lft.to/lastmile_qr_scan"}, "fusion_lon": 0.0, "type": "electric_scooter", "bike_id": "e3f55af889800a2b801c1268290c6e76", "name": "e3f55af889800a2b801c1268290c6e76"}, {"lon": -77.01650783333334, "is_disabled": 0, "lat": 38.92896533333333, "fusion_lat": 0.0, "is_reserved": 0, "rental_uris": {"ios": "https://dc.lft.to/lastmile_qr_scan", "android": "https://dc.lft.to/lastmile_qr_scan"}, "fusion_lon": 0.0, "type": "electric_scooter", "bike_id": "0c86c5462283b1012b4a684d7ada4865", "name": "0c86c5462283b1012b4a684d7ada4865"}, {"lon": -76.9482685, "is_disabled": 0, "lat": 38.884119166666665, "fusion_lat": 0.0, "is_reserved": 0, "rental_uris": {"ios": "https://dc.lft.to/lastmile_qr_scan", "android": "https://dc.lft.to/lastmile_qr_scan"}, "fusion_lon": 0.0, "type": "electric_scooter", "bike_id": "2e0d7916c97b19ff962dd8019fae82d3", "name": "2e0d7916c97b19ff962dd8019fae82d3"}, {"lon": -77.02380033333333, "is_disabled": 0, "lat": 38.89196366666667, "fusion_lat": 0.0, "is_reserved": 0, "rental_uris": {"ios": "https://dc.lft.to/lastmile_qr_scan", "android": "https://dc.lft.to/lastmile_qr_scan"}, "fusion_lon": 0.0, "type": "electric_scooter", "bike_id": "066b2656432fea8c65f80b53cb94dfb8", "name": "066b2656432fea8c65f80b53cb94dfb8"}, {"lon": -77.0271985, "is_disabled": 0, "lat": 38.89643016666667, "fusion_lat": 0.0, "is_reserved": 0, "rental_uris": {"ios": "https://dc.lft.to/lastmile_qr_scan", "android": "https://dc.lft.to/lastmile_qr_scan"}, "fusion_lon": 0.0, "type": "electric_scooter", "bike_id": "674cd3b71499f9c839289c7c4db2a876", "name": "674cd3b71499f9c839289c7c4db2a876"}, {"lon": -77.03206233333333, "is_disabled": 0, "lat": 38.91201433333333, "fusion_lat": 0.0, "is_reserved": 0, "rental_uris": {"ios": "https://dc.lft.to/lastmile_qr_scan", "android": "https://dc.lft.to/lastmile_qr_scan"}, "fusion_lon": 0.0, "type": "electric_scooter", "bike_id": "6816d0de58520f60fef2e57b648440f1", "name": "6816d0de58520f60fef2e57b648440f1"}, {"lon": -77.03548, "is_disabled": 0, "lat": 38.90827566666667, "fusion_lat": 0.0, "is_reserved": 0, "rental_uris": {"ios": "https://dc.lft.to/lastmile_qr_scan", "android": "https://dc.lft.to/lastmile_qr_scan"}, "fusion_lon": 0.0, "type": "electric_scooter", "bike_id": "8f1e9cbccb327c921e6f5940c94eb943", "name": "8f1e9cbccb327c921e6f5940c94eb943"}, {"lon": -77.02242316666667, "is_disabled": 0, "lat": 38.89195683333333, "fusion_lat": 0.0, "is_reserved": 0, "rental_uris": {"ios": "https://dc.lft.to/lastmile_qr_scan", "android": "https://dc.lft.to/lastmile_qr_scan"}, "fusion_lon": 0.0, "type": "electric_scooter", "bike_id": "9067a9a7316128db604f5106600bdab0", "name": "9067a9a7316128db604f5106600bdab0"}, {"lon": -76.99401066666667, "is_disabled": 0, "lat": 38.910068833333334, "fusion_lat": 0.0, "is_reserved": 0, "rental_uris": {"ios": "https://dc.lft.to/lastmile_qr_scan", "android": "https://dc.lft.to/lastmile_qr_scan"}, "fusion_lon": 0.0, "type": "electric_scooter", "bike_id": "833ecf858aa749d84dfbc7bcc14d1c6b", "name": "833ecf858aa749d84dfbc7bcc14d1c6b"}, {"lon": -77.04344216666667, "is_disabled": 0, "lat": 38.90612516666667, "fusion_lat": 0.0, "is_reserved": 0, "rental_uris": {"ios": "https://dc.lft.to/lastmile_qr_scan", "android": "https://dc.lft.to/lastmile_qr_scan"}, "fusion_lon": 0.0, "type": "electric_scooter", "bike_id": "09c60b737c5fb6de2721e8d6fc40964b", "name": "09c60b737c5fb6de2721e8d6fc40964b"}, {"lon": -76.981128, "is_disabled": 0, "lat": 38.91470116666667, "fusion_lat": 0.0, "is_reserved": 0, "rental_uris": {"ios": "https://dc.lft.to/lastmile_qr_scan", "android": "https://dc.lft.to/lastmile_qr_scan"}, "fusion_lon": 0.0, "type": "electric_scooter", "bike_id": "b293164d3997e61c03ad14574c218af4", "name": "b293164d3997e61c03ad14574c218af4"}, {"lon": -77.0376425, "is_disabled": 0, "lat": 38.918812333333335, "fusion_lat": 0.0, "is_reserved": 0, "rental_uris": {"ios": "https://dc.lft.to/lastmile_qr_scan", "android": "https://dc.lft.to/lastmile_qr_scan"}, "fusion_lon": 0.0, "type": "electric_scooter", "bike_id": "2bab18706cd833692467112aa431d92a", "name": "2bab18706cd833692467112aa431d92a"}, {"lon": -77.0135075, "is_disabled": 0, "lat": 38.919154666666664, "fusion_lat": 0.0, "is_reserved": 0, "rental_uris": {"ios": "https://dc.lft.to/lastmile_qr_scan", "android": "https://dc.lft.to/lastmile_qr_scan"}, "fusion_lon": 0.0, "type": "electric_scooter", "bike_id": "9262272e5b165493e7ac9aeb0c2f987b", "name": "9262272e5b165493e7ac9aeb0c2f987b"}, {"lon": -77.01331016666667, "is_disabled": 0, "lat": 38.9262355, "fusion_lat": 0.0, "is_reserved": 0, "rental_uris": {"ios": "https://dc.lft.to/lastmile_qr_scan", "android": "https://dc.lft.to/lastmile_qr_scan"}, "fusion_lon": 0.0, "type": "electric_scooter", "bike_id": "b69560d271ceccb82c4d7f85b4be8fc7", "name": "b69560d271ceccb82c4d7f85b4be8fc7"}, {"lon": -77.0261335, "is_disabled": 0, "lat": 38.89635833333333, "fusion_lat": 0.0, "is_reserved": 0, "rental_uris": {"ios": "https://dc.lft.to/lastmile_qr_scan", "android": "https://dc.lft.to/lastmile_qr_scan"}, "fusion_lon": 0.0, "type": "electric_scooter", "bike_id": "d13a7cdbb115eddaaae48f473205b3cf", "name": "d13a7cdbb115eddaaae48f473205b3cf"}, {"lon": -77.04493583333333, "is_disabled": 0, "lat": 38.903802, "fusion_lat": 0.0, "is_reserved": 0, "rental_uris": {"ios": "https://dc.lft.to/lastmile_qr_scan", "android": "https://dc.lft.to/lastmile_qr_scan"}, "fusion_lon": 0.0, "type": "electric_scooter", "bike_id": "758c6498e6c8b3699a08c3469557c9ee", "name": "758c6498e6c8b3699a08c3469557c9ee"},