{"data": {"bikes": [{"lon": -77.0417435, "name": "412d873f818bdb179d24d41a500218b2", "is_disabled": 0, "type": "electric_scooter", "is_reserved": 0, "fusion_lon": 0.0, "lat": 38.899453, "rental_uris": {"ios": "https://dc.lft.to/lastmile_qr_scan", "android": "https://dc.lft.to/lastmile_qr_scan"}, "bike_id": "412d873f818bdb179d24d41a500218b2", "fusion_lat": 0.0}, {"lon": -77.0335795, "name": "9bd2502a517b346b1ae1ed3654a99fb7", "is_disabled": 0, "type": "electric_scooter", "is_reserved": 0, "fusion_lon": 0.0, "lat": 38.92760633333333, "rental_uris": {"ios": "https://dc.lft.to/lastmile_qr_scan", "android": "https://dc.lft.to/lastmile_qr_scan"}, "bike_id": "9bd2502a517b346b1ae1ed3654a99fb7", "fusion_lat": 0.0}, {"lon": -77.0497605, "name": "6bf614d0b0994d26d113a0cf6b01a9b8", "is_disabled": 0, "type": "electric_bike", "is_reserved": 0, "fusion_lon": 0.0, "lat": 38.852986, "rental_uris": {"ios": "https://dc.lft.to/lastmile_qr_scan", "android": "https://dc.lft.to/lastmile_qr_scan"}, "bike_id": "6bf614d0b0994d26d113a0cf6b01a9b8", "fusion_lat": 0.0}, {"lon": -77.06781916666667, "name": "0787f997c1e6901dcbd12c62e6eef3a2", "is_disabled": 0, "type": "electric_scooter", "is_reserved": 0, "fusion_lon": 0.0, "lat": 38.9521135, "rental_uris": {"ios": "https://dc.lft.to/lastmile_qr_scan", "android": "https://dc.lft.to/lastmile_qr_scan"}, "bike_id": "0787f997c1e6901dcbd12c62e6eef3a2", "fusion_lat": 0.0}, {"lon": -77.02660083333333, "name": "ac1995b320f718012f617d2e47447993", "is_disabled": 0, "type": "electric_scooter", "is_reserved": 0, "fusion_lon": 0.0, "lat": 38.92385566666667, "rental_uris": {"ios": "https://dc.lft.to/lastmile_qr_scan", "android": "https://dc.lft.to/lastmile_qr_scan"}, "bike_id": "ac1995b320f718012f617d2e47447993", "fusion_lat": 0.0}, {"lon": -76.99305066666666, "name": "2a9f0c863d1370b5743257d399638aef", "is_disabled": 0, "type": "electric_scooter", "is_reserved": 0, "fusion_lon": 0.0, "lat": 38.937705666666666, "rental_uris": {"ios": "https://dc.lft.to/lastmile_qr_scan", "android": "https://dc.lft.to/lastmile_qr_scan"}, "bike_id": "2a9f0c863d1370b5743257d399638aef", "fusion_lat": 0.0}, {"lon": -77.00677616666667, "name": "503a85a5b8abd796aa3a5826cd262157", "is_disabled": 0, "type": "electric_bike", "is_reserved": 0, "fusion_lon": 0.0, "lat": 38.945133166666665, "rental_uris": {"ios": "https://dc.lft.to/lastmile_qr_scan", "android": "https://dc.lft.to/lastmile_qr_scan"}, "bike_id": "503a85a5b8abd796aa3a5826cd262157", "fusion_lat": 0.0}, {"lon": -77.07903066666667, "name": "b111b928a1dd38afddb1385051b650aa", "is_disabled": 0, "type": "electric_bike", "is_reserved": 0, "fusion_lon": 0.0, "lat": 38.83934133333333, "rental_uris": {"ios": "https://dc.lft.to/lastmile_qr_scan", "android": "https://dc.lft.to/lastmile_qr_scan"}, "bike_id": "b111b928a1dd38afddb1385051b650aa", "fusion_lat": 0.0}, {"lon": -76.99786066666667, "name": "27137410a7e5da286b67261127d943e2", "is_disabled": 0, "type": "electric_scooter", "is_reserved": 0, "fusion_lon": 0.0, "lat": 38.932195166666666, "rental_uris": {"ios": "https://dc.lft.to/lastmile_qr_scan", "android": "https://dc.lft.to/lastmile_qr_scan"}, "bike_id": "27137410a7e5da286b67261127d943e2", "fusion_lat": 0.0}, {"lon": -77.043413, "name": "f43b91da56450014891ffc2686ac76f9", "is_disabled": 0, "type": "electric_scooter", "is_reserved": 0, "fusion_lon": 0.0, "lat": 38.89699516666667, "rental_uris": {"ios": "https://dc.lft.to/lastmile_qr_scan", "android": "https://dc.lft.to/lastmile_qr_scan"}, "bike_id": "f43b91da56450014891ffc2686ac76f9", "fusion_lat": 0.0}, {"lon": -76.9847645, "name": "2e6a93ddba54d12a302a20070a7d8c51", "is_disabled": 0, "type": "electric_bike", "is_reserved": 0, "fusion_lon": 0.0, "lat": 38.912705333333335, "rental_uris": {"ios": "https://dc.lft.to/lastmile_qr_scan", "android": "https://dc.lft.to/lastmile_qr_scan"}, "bike_id": "2e6a93ddba54d12a302a20070a7d8c51", "fusion_lat": 0.0}, {"lon": -76.9338835, "name": "9c70e80c918c959335855237e67e941d", "is_disabled": 0, "type": "electric_scooter", "is_reserved": 0, "fusion_lon": 0.0, "lat": 38.8991135, "rental_uris": {"ios": "https://dc.lft.to/lastmile_qr_scan", "android": "https://dc.lft.to/lastmile_qr_scan"}, "bike_id": "9c70e80c918c959335855237e67e941d", "fusion_lat": 0.0}, {"lon": -77.04237133333334, "name": "248de959ca0ea67b13deadb641f72307", "is_disabled": 0, "type": "electric_scooter", "is_reserved": 0, "fusion_lon": 0.0, "lat": 38.9216105, "rental_uris": {"ios": "https://dc.lft.to/lastmile_qr_scan", "android": "https://dc.lft.to/lastmile_qr_scan"}, "bike_id": "248de959ca0ea67b13deadb641f72307", "fusion_lat": 0.0}, {"lon": -77.03207966666666, "name": "35a2178666ecdf487a18e6f20945b1e8", "is_disabled": 0, "type": "electric_scooter", "is_reserved": 0, "fusion_lon": 0.0, "lat": 38.91548783333333, "rental_uris": {"ios": "https://dc.lft.to/lastmile_qr_scan", "android": "https://dc.lft.to/lastmile_qr_scan"}, "bike_id": "35a2178666ecdf487a18e6f20945b1e8", "fusion_lat": 0.0}, {"lon": -77.0217165, "name": "434a8c12c3aa0ff035248ed8d4e18ff7", "is_disabled": 0, "type": "electric_scooter", "is_reserved": 0, "fusion_lon": 0.0, "lat": 38.914088, "rental_uris": {"ios": "https://dc.lft.to/lastmile_qr_scan", "android": "https://dc.lft.to/lastmile_qr_scan"}, "bike_id": "434a8c12c3aa0ff035248ed8d4e18ff7", "fusion_lat": 0.0}, {"lon": -77.00225733333333, "name": "1e60e8caa47fe6f8fdec1bc62f6202dc", "is_disabled": 0, "type": "electric_scooter", "is_reserved": 0, "fusion_lon": 0.0, "lat": 38.90730466666667, "rental_uris": {"ios": "https://dc.lft.to/lastmile_qr_scan", "android": "https://dc.lft.to/lastmile_qr_scan"}, "bike_id": "1e60e8caa47fe6f8fdec1bc62f6202dc", "fusion_lat": 0.0}, {"lon": -77.02372716666666, "name": "7253978ac3d126b1a6e14662e70ed6f1", "is_disabled": 0, "type": "electric_scooter", "is_reserved": 0, "fusion_lon": 0.0, "lat": 38.91784616666666, "rental_uris": {"ios": "https://dc.lft.to/lastmile_qr_scan", "android": "https://dc.lft.to/lastmile_qr_scan"}, "bike_id": "7253978ac3d126b1a6e14662e70ed6f1", "fusion_lat": 0.0}, {"lon": -77.02536383333333, "name": "2bac170f9e3a4b8a425aeb04ab2a9dc0", "is_disabled": 0, "type": "electric_scooter", "is_reserved": 0, "fusion_lon": 0.0, "lat": 38.920912333333334, "rental_uris": {"ios": "https://dc.lft.to/lastmile_qr_scan", "android": "https://dc.lft.to/lastmile_qr_scan"}, "bike_id": "2bac170f9e3a4b8a425aeb04ab2a9dc0", "fusion_lat": 0.0}, {"lon": -77.00294016666666, "name": "78524734d3e4b6cc19ef88d9d72c956c", "is_disabled": 0, "type": "electric_scooter", "is_reserved": 0, "fusion_lon": 0.0, "lat": 38.89193866666667, "rental_uris": {"ios": "https://dc.lft.to/lastmile_qr_scan", "android": "https://dc.lft.to/lastmile_qr_scan"}, "bike_id": "78524734d3e4b6cc19ef88d9d72c956c", "fusion_lat": 0.0}, {"lon": -77.0545765, "name": "e8c66b2c12553a830f57f1214a45ad04", "is_disabled": 0, "type": "electric_scooter", "is_reserved": 0, "fusion_lon": 0.0, "lat": 38.92900866666667, "rental_uris": {"ios": "https://dc.lft.to/lastmile_qr_scan", "android": "https://dc.lft.to/lastmile_qr_scan"}, "bike_id": "e8c66b2c12553a830f57f1214a45ad04", "fusion_lat": 0.0}, {"lon": -77.02806, "name": "c65f1aa01845815ca22cdceebc3b86eb", "is_disabled": 0, "type": "electric_scooter", "is_reserved": 0, "fusion_lon": 0.0, "lat": 38.903591666666664, "rental_uris": {"ios": "https://dc.lft.to/lastmile_qr_scan", "android": "https://dc.lft.to/lastmile_qr_scan"}, "bike_id": "c65f1aa01845815ca22cdceebc3b86eb", "fusion_lat": 0.0}, {"lon": -77.02681616666666, "name": "e6acabca1e7d4d28517a0a249254d4f6", "is_disabled": 0, "type": "electric_scooter", "is_reserved": 0, "fusion_lon": 0.0, "lat": 38.89735966666667, "rental_uris": {"ios": "https://dc.lft.to/lastmile_qr_scan", "android": "https://dc.lft.to/lastmile_qr_scan"}, "bike_id": "e6acabca1e7d4d28517a0a249254d4f6", "fusion_lat": 0.0}, {"lon": -77.0220725, "name": "ad7f89c0c3593ebe540cd6c978fb84ab", "is_disabled": 0, "type": "electric_scooter", "is_reserved": 0, "fusion_lon": 0.0, "lat": 38.920667333333334, "rental_uris": {"ios": "https://dc.lft.to/lastmile_qr_scan", "android": "https://dc.lft.to/lastmile_qr_scan"}, "bike_id": "ad7f89c0c3593ebe540cd6c978fb84ab", "fusion_lat": 0.0}, {"lon": -77.0249805, "name": "339c012de84229ddc9a32d1f041625c2", "is_disabled": 0, "type": "electric_scooter", "is_reserved": 0, "fusion_lon": 0.0, "lat": 38.937610166666666, "rental_uris": {"ios": "https://dc.lft.to/lastmile_qr_scan", "android": "https://dc.lft.to/lastmile_qr_scan"}, "bike_id": "339c012de84229ddc9a32d1f041625c2", "fusion_lat": 0.0}, {"lon": -77.023726, "name": "b0192e18679bd9a8311a8bccf0eb7cea", "is_disabled": 0, "type": "electric_scooter", "is_reserved": 0, "fusion_lon": 0.0, "lat": 38.91782333333333, "rental_uris": {"ios": "https://dc.lft.to/lastmile_qr_scan", "android": "https://dc.lft.to/lastmile_qr_scan"}, "bike_id": "b0192e18679bd9a8311a8bccf0eb7cea", "fusion_lat": 0.0}, {"lon": -77.03255216666666, "name": "d0bb6c19a7242ac0d4f28f63931b870d", "is_disabled": 0, "type": "electric_scooter", "is_reserved": 0, "fusion_lon": 0.0, "lat": 38.90272016666667, "rental_uris": {"ios": "https://dc.lft.to/lastmile_qr_scan", "android": "https://dc.lft.to/lastmile_qr_scan"}, "bike_id": "d0bb6c19a7242ac0d4f28f63931b870d", "fusion_lat": 0.0}, {"lon": -77.01810183333333, "name": "e83bb637302b43c4375453c5346c2011", "is_disabled": 0, "type": "electric_scooter", "is_reserved": 0, "fusion_lon": 0.0, "lat": 38.92143983333333, "rental_uris": {"ios": "https://dc.lft.to/lastmile_qr_scan", "android": "https://dc.lft.to/lastmile_qr_scan"}, "bike_id": "e83bb637302b43c4375453c5346c2011", "fusion_lat": 0.0}, {"lon": -77.06352033333333, "name": "83487c8cfecd4808925e949994edab0e", "is_disabled": 0, "type": "electric_scooter", "is_reserved": 0, "fusion_lon": 0.0, "lat": 38.906877333333334, "rental_uris": {"ios": "https://dc.lft.to/lastmile_qr_scan", "android": "https://dc.lft.to/lastmile_qr_scan"}, "bike_id": "83487c8cfecd4808925e949994edab0e", "fusion_lat": 0.0}, {"lon": -77.02195583333334, "name": "320dad1db8bcb48b198bc12130db1c35", "is_disabled": 0, "type": "electric_scooter", "is_reserved": 0, "fusion_lon": 0.0, "lat": 38.87790366666667, "rental_uris": {"ios": "https://dc.lft.to/lastmile_qr_scan", "android": "https://dc.lft.to/lastmile_qr_scan"}, "bike_id": "320dad1db8bcb48b198bc12130db1c35", "fusion_lat": 0.0}, {"lon": -77.05202983333334, "name": "ae0c9258576fda81ba84acca7d501eb8", "is_disabled": 0, "type": "electric_scooter", "is_reserved": 0, "fusion_lon": 0.0, "lat": 38.92442533333333, "rental_uris": {"ios": "https://dc.lft.to/lastmile_qr_scan", "android": "https://dc.lft.to/lastmile_qr_scan"}, "bike_id": "ae0c9258576fda81ba84acca7d501eb8", "fusion_lat": 0.0}, {"lon": -77.02624666666667, "name": "dd546293a2bdb17cfaf9a96f1b28575e", "is_disabled": 0, "type": "electric_scooter", "is_reserved": 0, "fusion_lon": 0.0, "lat": 38.92031433333333, "rental_uris": {"ios": "https://dc.lft.to/lastmile_qr_scan", "android": "https://dc.lft.to/lastmile_qr_scan"}, "bike_id": "dd546293a2bdb17cfaf9a96f1b28575e", "fusion_lat": 0.0}, {"lon": -77.05499783333333, "name": "7ce4d0f0ee690a506a46fa14f113876b", "is_disabled": 0, "type": "electric_scooter", "is_reserved": 0, "fusion_lon": 0.0, "lat": 38.89758716666667, "rental_uris": {"ios": "https://dc.lft.to/lastmile_qr_scan", "android": "https://dc.lft.to/lastmile_qr_scan"}, "bike_id": "7ce4d0f0ee690a506a46fa14f113876b", "fusion_lat": 0.0}, {"lon": -77.015788, "name": "0e713515c8fb4e618bf4e88c41c709a2", "is_disabled": 0, "type": "electric_scooter", "is_reserved": 0, "fusion_lon": 0.0, "lat": 38.9003165, "rental_uris": {"ios": "https://dc.lft.to/lastmile_qr_scan", "android": "https://dc.lft.to/lastmile_qr_scan"}, "bike_id": "0e713515c8fb4e618bf4e88c41c709a2", "fusion_lat": 0.0}, {"lon": -76.973317, "name": "cd02017336a8017439bdde444ea3bb35", "is_disabled": 0, "type": "electric_scooter", "is_reserved": 0, "fusion_lon": 0.0, "lat": 38.90411316666667, "rental_uris": {"ios": "https://dc.lft.to/lastmile_qr_scan", "android": "https://dc.lft.to/lastmile_qr_scan"}, "bike_id": "cd02017336a8017439bdde444ea3bb35", "fusion_lat": 0.0}, {"lon": -77.0191425, "name": "bedb3955e73c395dded8a3416f64118b", "is_disabled": 0, "type": "electric_scooter", "is_reserved": 0, "fusion_lon": 0.0, "lat": 38.92346716666667, "rental_uris": {"ios": "https://dc.lft.to/lastmile_qr_scan", "android": "https://dc.lft.to/lastmile_qr_scan"}, "bike_id": "bedb3955e73c395dded8a3416f64118b", "fusion_lat": 0.0}, {"lon": -77.0329075, "name": "7c65523b9b17771b147c733a35272252", "is_disabled": 0, "type": "electric_scooter", "is_reserved": 0, "fusion_lon": 0.0, "lat": 38.928736, "rental_uris": {"ios": "https://dc.lft.to/lastmile_qr_scan", "android": "https://dc.lft.to/lastmile_qr_scan"}, "bike_id": "7c65523b9b17771b147c733a35272252", "fusion_lat": 0.0}, {"lon": -77.02516983333334, "name": "8c8f7e1d3a50d4aaac975577b2467597", "is_disabled": 0, "type": "electric_scooter", "is_reserved": 0, "fusion_lon": 0.0, "lat": 38.920952666666665, "rental_uris": {"ios": "https://dc.lft.to/lastmile_qr_scan", "android": "https://dc.lft.to/lastmile_qr_scan"}, "bike_id": "8c8f7e1d3a50d4aaac975577b2467597", "fusion_lat": 0.0}, {"lon": -77.07467866666667, "name": "d5b098b13297fbb4e150cb89347c388d", "is_disabled": 0, "type": "electric_scooter", "is_reserved": 0, "fusion_lon": 0.0, "lat": 38.92250716666667, "rental_uris": {"ios": "https://dc.lft.to/lastmile_qr_scan", "android": "https://dc.lft.to/lastmile_qr_scan"}, "bike_id": "d5b098b13297fbb4e150cb89347c388d", "fusion_lat": 0.0}, {"lon": -77.0407825, "name": "64487c45590a6c2f2bdd1c5522c79c7c", "is_disabled": 0, "type": "electric_scooter", "is_reserved": 0, "fusion_lon": 0.0, "lat": 38.928844833333336, "rental_uris": {"ios": "https://dc.lft.to/lastmile_qr_scan", "android": "https://dc.lft.to/lastmile_qr_scan"}, "bike_id": "64487c45590a6c2f2bdd1c5522c79c7c", "fusion_lat": 0.0}, {"lon": -77.04596983333333, "name": "337757ba104ff4ee53cae8b098ce8a89", "is_disabled": 0, "type": "electric_scooter", "is_reserved": 0, "fusion_lon": 0.0, "lat": 38.896149, "rental_uris": {"ios": "https://dc.lft.to/lastmile_qr_scan", "android": "https://dc.lft.to/lastmile_qr_scan"}, "bike_id": "337757ba104ff4ee53cae8b098ce8a89", "fusion_lat": 0.0}, {"lon": -77.03454216666667, "name": "2626039f0aa1438ac8b3b2837d17879b", "is_disabled": 0, "type": "electric_scooter", "is_reserved": 0, "fusion_lon": 0.0, "lat": 38.9308785, "rental_uris": {"ios": "https://dc.lft.to/lastmile_qr_scan", "android": "https://dc.lft.to/lastmile_qr_scan"}, "bike_id": "2626039f0aa1438ac8b3b2837d17879b", "fusion_lat": 0.0}, {"lon": -77.02710233333333, "name": "c029edaf5023e0fdb72c768da4987c8f", "is_disabled": 0, "type": "electric_scooter", "is_reserved": 0, "fusion_lon": 0.0, "lat": 38.916903, "rental_uris": {"ios": "https://dc.lft.to/lastmile_qr_scan", "android": "https://dc.lft.to/lastmile_qr_scan"}, "bike_id": "c029edaf5023e0fdb72c768da4987c8f", "fusion_lat": 0.0}, {"lon": -77.01924, "name": "adb7045610da287544e532f36a820798", "is_disabled": 0, "type": "electric_scooter", "is_reserved": 0, "fusion_lon": 0.0, "lat": 38.93271433333334, "rental_uris": {"ios": "https://dc.lft.to/lastmile_qr_scan", "android": "https://dc.lft.to/lastmile_qr_scan"}, "bike_id": "adb7045610da287544e532f36a820798", "fusion_lat": 0.0}, {"lon": -76.98083266666667, "name": "de1761ae29fd58dc0cd11d24a67eeac5", "is_disabled": 0, "type": "electric_scooter", "is_reserved": 0, "fusion_lon": 0.0, "lat": 38.89439016666667, "rental_uris": {"ios": "https://dc.lft.to/lastmile_qr_scan", "android": "https://dc.lft.to/lastmile_qr_scan"}, "bike_id": "de1761ae29fd58dc0cd11d24a67eeac5", "fusion_lat": 0.0}, {"lon": -77.02170283333334, "name": "0e1d70f43c32478b46de9fd4deaf0394", "is_disabled": 0, "type": "electric_scooter", "is_reserved": 0, "fusion_lon": 0.0, "lat": 38.9260975, "rental_uris": {"ios": "https://dc.lft.to/lastmile_qr_scan", "android": "https://dc.lft.to/lastmile_qr_scan"}, "bike_id": "0e1d70f43c32478b46de9fd4deaf0394", "fusion_lat": 0.0}, {"lon": -77.03630233333334, "name": "3df7140c3636dc0eb615240777dd49b6", "is_disabled": 0, "type": "electric_scooter", "is_reserved": 0, "fusion_lon": 0.0, "lat": 38.9461205, "rental_uris": {"ios": "https://dc.lft.to/lastmile_qr_scan", "android": "https://dc.lft.to/lastmile_qr_scan"}, "bike_id": "3df7140c3636dc0eb615240777dd49b6", "fusion_lat": 0.0}, {"lon": -77.02371133333334, "name": "64c616a4f18c2b68ff2a839a145bf614", "is_disabled": 0, "type": "electric_scooter", "is_reserved": 0, "fusion_lon": 0.0, "lat": 38.917856, "rental_uris": {"ios": "https://dc.lft.to/lastmile_qr_scan", "android": "https://dc.lft.to/lastmile_qr_scan"}, "bike_id": "64c616a4f18c2b68ff2a839a145bf614", "fusion_lat": 0.0}, {"lon": -77.0421715, "name": "bbfb80ec9cfc063cc6f4a5ed4d2a81db", "is_disabled": 0, "type": "electric_scooter", "is_reserved": 0, "fusion_lon": 0.0, "lat": 38.9214875, "rental_uris": {"ios": "https://dc.lft.to/lastmile_qr_scan", "android": "https://dc.lft.to/lastmile_qr_scan"}, "bike_id": "bbfb80ec9cfc063cc6f4a5ed4d2a81db", "fusion_lat": 0.0}, {"lon": -77.019523, "name": "375a6edc388b9356723aa34d71fb5ae2", "is_disabled": 0, "type": "electric_scooter", "is_reserved": 0, "fusion_lon": 0.0, "lat": 38.92319916666667, "rental_uris": {"ios": "https://dc.lft.to/lastmile_qr_scan", "android": "https://dc.lft.to/lastmile_qr_scan"}, "bike_id": "375a6edc388b9356723aa34d71fb5ae2", "fusion_lat": 0.0}, {"lon": -77.00415683333334, "name": "c204e850b2fb0a4905bbbc93e0f74e89", "is_disabled": 0, "type": "electric_scooter", "is_reserved": 0, "fusion_lon": 0.0, "lat": 38.877021666666664, "rental_uris": {"ios": "https://dc.lft.to/lastmile_qr_scan", "android": "https://dc.lft.to/lastmile_qr_scan"}, "bike_id": "c204e850b2fb0a4905bbbc93e0f74e89", "fusion_lat": 0.0}, {"lon": -77.01069083333333, "name": "264bea693128876a8353059f5fcc88a8", "is_disabled": 0, "type": "electric_scooter", "is_reserved": 0, "fusion_lon": 0.0, "lat": 38.914181, "rental_uris": {"ios": "https://dc.lft.to/lastmile_qr_scan", "android": "https://dc.lft.to/lastmile_qr_scan"}, "bike_id": "264bea693128876a8353059f5fcc88a8", "fusion_lat": 0.0}, {"lon": -77.02022133333334, "name": "e44072ce8c21fe1a81e10f08ed5f8af6", "is_disabled": 0, "type": "electric_scooter", "is_reserved": 0, "fusion_lon": 0.0, "lat": 38.924387333333335, "rental_uris": {"ios": "https://dc.lft.to/lastmile_qr_scan", "android": "https://dc.lft.to/lastmile_qr_scan"}, "bike_id": "e44072ce8c21fe1a81e10f08ed5f8af6", "fusion_lat": 0.0}, {"lon": -77.01679916666667, "name": "923ec8f82417b7105ba4e010ec95fde9", "is_disabled": 0, "type": "electric_scooter", "is_reserved": 0, "fusion_lon": 0.0, "lat": 38.920434, "rental_uris": {"ios": "https://dc.lft.to/lastmile_qr_scan", "android": "https://dc.lft.to/lastmile_qr_scan"}, "bike_id": "923ec8f82417b7105ba4e010ec95fde9", "fusion_lat": 0.0}, {"lon": -77.04565116666667, "name": "b8b2efb58aee77b269c303101c472a1f", "is_disabled": 0, "type": "electric_scooter", "is_reserved": 0, "fusion_lon": 0.0, "lat": 38.9136155, "rental_uris": {"ios": "https://dc.lft.to/lastmile_qr_scan", "android": "https://dc.lft.to/lastmile_qr_scan"}, "bike_id": "b8b2efb58aee77b269c303101c472a1f", "fusion_lat": 0.0}, {"lon": -77.0105595, "name": "ab2abbf88aa26872f8fd0c191c8b0a42", "is_disabled": 0, "type": "electric_bike", "is_reserved": 0, "fusion_lon": 0.0, "lat": 38.966333666666664, "rental_uris": {"ios": "https://dc.lft.to/lastmile_qr_scan", "android": "https://dc.lft.to/lastmile_qr_scan"}, "bike_id": "ab2abbf88aa26872f8fd0c191c8b0a42", "fusion_lat": 0.0}, {"lon": -77.02528133333334, "name": "965f2637d8b262696c0d8eca40b86f00", "is_disabled": 0, "type": "electric_scooter", "is_reserved": 0, "fusion_lon": 0.0, "lat": 38.91815866666666, "rental_uris": {"ios": "https://dc.lft.to/lastmile_qr_scan", "android": "https://dc.lft.to/lastmile_qr_scan"}, "bike_id": "965f2637d8b262696c0d8eca40b86f00", "fusion_lat": 0.0}, {"lon": -76.925872, "name": "bf5bc39a7f72f9cb01e76d935932e071", "is_disabled": 0, "type": "electric_scooter", "is_reserved": 0, "fusion_lon": 0.0, "lat": 38.897277, "rental_uris": {"ios": "https://dc.lft.to/lastmile_qr_scan", "android": "https://dc.lft.to/lastmile_qr_scan"}, "bike_id": "bf5bc39a7f72f9cb01e76d935932e071", "fusion_lat": 0.0}, {"lon": -77.09077433333333, "name": "c460f391eeca75c5d03913324586f798", "is_disabled": 0, "type": "electric_bike", "is_reserved": 0, "fusion_lon": 0.0, "lat": 38.84190183333333, "rental_uris": {"ios": "https://dc.lft.to/lastmile_qr_scan", "android": "https://dc.lft.to/lastmile_qr_scan"}, "bike_id": "c460f391eeca75c5d03913324586f798", "fusion_lat": 0.0}, {"lon": -77.042281, "name": "06d7f594161341f33002550838c5de39", "is_disabled": 0, "type": "electric_scooter", "is_reserved": 0, "fusion_lon": 0.0, "lat": 38.921588, "rental_uris": {"ios": "https://dc.lft.to/lastmile_qr_scan", "android": "https://dc.lft.to/lastmile_qr_scan"}, "bike_id": "06d7f594161341f33002550838c5de39", "fusion_lat": 0.0}, {"lon": -76.97352816666667, "name": "65da00afa18b59165e1b044952eb050c", "is_disabled": 0, "type": "electric_bike", "is_reserved": 0, "fusion_lon": 0.0, "lat": 38.865579833333335, "rental_uris": {"ios": "https://dc.lft.to/lastmile_qr_scan", "android": "https://dc.lft.to/lastmile_qr_scan"}, "bike_id": "65da00afa18b59165e1b044952eb050c", "fusion_lat": 0.0}, {"lon": -77.069449, "name": "ca92dce4ddeb5fe556a2aca7fae830bf", "is_disabled": 0, "type": "electric_bike", "is_reserved": 0, "fusion_lon": 0.0, "lat": 38.84764966666667, "rental_uris": {"ios": "https://dc.lft.to/lastmile_qr_scan", "android": "https://dc.lft.to/lastmile_qr_scan"}, "bike_id": "ca92dce4ddeb5fe556a2aca7fae830bf", "fusion_lat": 0.0}, {"lon": -76.98790516666666, "name": "00c157b5c718733a370e2008550e63dd", "is_disabled": 0, "type": "electric_scooter", "is_reserved": 0, "fusion_lon": 0.0, "lat": 38.878440499999996, "rental_uris": {"ios": "https://dc.lft.to/lastmile_qr_scan", "android": "https://dc.lft.to/lastmile_qr_scan"}, "bike_id": "00c157b5c718733a370e2008550e63dd", "fusion_lat": 0.0}, {"lon": -77.04506133333334, "name": "983c8378d0e646c8254ccf5aa2d17e09", "is_disabled": 0, "type": "electric_scooter", "is_reserved": 0, "fusion_lon": 0.0, "lat": 38.91113683333333, "rental_uris": {"ios": "https://dc.lft.to/lastmile_qr_scan", "android": "https://dc.lft.to/lastmile_qr_scan"}, "bike_id": "983c8378d0e646c8254ccf5aa2d17e09", "fusion_lat": 0.0}, {"lon": -77.005811, "name": "9285c09a51badd553a48dceebe76e535", "is_disabled": 0, "type": "electric_scooter", "is_reserved": 0, "fusion_lon": 0.0, "lat": 38.87550133333333, "rental_uris": {"ios": "https://dc.lft.to/lastmile_qr_scan", "android": "https://dc.lft.to/lastmile_qr_scan"}, "bike_id": "9285c09a51badd553a48dceebe76e535", "fusion_lat": 0.0}, {"lon": -77.0200995, "name": "7e616ee2e535554b9b3ccdc25fd33a99", "is_disabled": 0, "type": "electric_scooter", "is_reserved": 0, "fusion_lon": 0.0, "lat": 38.924162833333334, "rental_uris": {"ios": "https://dc.lft.to/lastmile_qr_scan", "android": "https://dc.lft.to/lastmile_qr_scan"}, "bike_id": "7e616ee2e535554b9b3ccdc25fd33a99", "fusion_lat": 0.0}, {"lon": -77.0415355, "name": "0fd1c545541d06f14cfafad23f277de3", "is_disabled": 0, "type": "electric_scooter", "is_reserved": 0, "fusion_lon": 0.0, "lat": 38.905258333333336, "rental_uris": {"ios": "https://dc.lft.to/lastmile_qr_scan", "android": "https://dc.lft.to/lastmile_qr_scan"}, "bike_id": "0fd1c545541d06f14cfafad23f277de3", "fusion_lat": 0.0}, {"lon": -77.00794916666666, "name": "7098f22e15fd623db653b314c0760cd7", "is_disabled": 0, "type": "electric_scooter", "is_reserved": 0, "fusion_lon": 0.0, "lat": 38.926686833333335, "rental_uris": {"ios": "https://dc.lft.to/lastmile_qr_scan", "android": "https://dc.lft.to/lastmile_qr_scan"}, "bike_id": "7098f22e15fd623db653b314c0760cd7", "fusion_lat": 0.0}, {"lon": -77.04365916666667, "name": "fcf3eca07e2cc680216569c7cb601e91", "is_disabled": 0, "type": "electric_scooter", "is_reserved": 0, "fusion_lon": 0.0, "lat": 38.922444666666664, "rental_uris": {"ios": "https://dc.lft.to/lastmile_qr_scan", "android": "https://dc.lft.to/lastmile_qr_scan"}, "bike_id": "fcf3eca07e2cc680216569c7cb601e91", "fusion_lat": 0.0}, {"lon": -77.0317425, "name": "43293dd134a8e84068ec78888805b7da", "is_disabled": 0, "type": "electric_scooter", "is_reserved": 0, "fusion_lon": 0.0, "lat": 38.892266, "rental_uris": {"ios": "https://dc.lft.to/lastmile_qr_scan", "android": "https://dc.lft.to/lastmile_qr_scan"}, "bike_id": "43293dd134a8e84068ec78888805b7da", "fusion_lat": 0.0}, {"lon": -77.0195175, "name": "2e8f06f4dec1876197e313ff2b19bc67", "is_disabled": 0, "type": "electric_scooter", "is_reserved": 0, "fusion_lon": 0.0, "lat": 38.9226905, "rental_uris": {"ios": "https://dc.lft.to/lastmile_qr_scan", "android": "https://dc.lft.to/lastmile_qr_scan"}, "bike_id": "2e8f06f4dec1876197e313ff2b19bc67", "fusion_lat": 0.0}, {"lon": -76.95770583333334, "name": "47c3256443e5777df847071e72bd5f6b", "is_disabled": 0, "type": "electric_scooter", "is_reserved": 0, "fusion_lon": 0.0, "lat": 38.8835795, "rental_uris": {"ios": "https://dc.lft.to/lastmile_qr_scan", "android": "https://dc.lft.to/lastmile_qr_scan"}, "bike_id": "47c3256443e5777df847071e72bd5f6b", "fusion_lat": 0.0}, {"lon": -77.00217766666667, "name": "07e885c7a90b6eb52c273508812e609b", "is_disabled": 0, "type": "electric_scooter", "is_reserved": 0, "fusion_lon": 0.0, "lat": 38.9574105, "rental_uris": {"ios": "https://dc.lft.to/lastmile_qr_scan", "android": "https://dc.lft.to/lastmile_qr_scan"}, "bike_id": "07e885c7a90b6eb52c273508812e609b", "fusion_lat": 0.0}, {"lon": -77.027961, "name": "ca055425eb280ae3e676f89b4a43fd6e", "is_disabled": 0, "type": "electric_scooter", "is_reserved": 0, "fusion_lon": 0.0, "lat": 38.941798666666664, "rental_uris": {"ios": "https://dc.lft.to/lastmile_qr_scan", "android": "https://dc.lft.to/lastmile_qr_scan"}, "bike_id": "ca055425eb280ae3e676f89b4a43fd6e", "fusion_lat": 0.0}, {"lon": -77.0430385, "name": "cb83fc99a5d03562b13c28b071b5343e", "is_disabled": 0, "type": "electric_scooter", "is_reserved": 0, "fusion_lon": 0.0, "lat": 38.90012466666667, "rental_uris": {"ios": "https://dc.lft.to/lastmile_qr_scan", "android": "https://dc.lft.to/lastmile_qr_scan"}, "bike_id": "cb83fc99a5d03562b13c28b071b5343e", "fusion_lat": 0.0}, {"lon": -77.0383165, "name": "0e4a7d834e20aa2a9720f7b70bfc7669", "is_disabled": 0, "type": "electric_scooter", "is_reserved": 0, "fusion_lon": 0.0, "lat": 38.90393983333333, "rental_uris": {"ios": "https://dc.lft.to/lastmile_qr_scan", "android": "https://dc.lft.to/lastmile_qr_scan"}, "bike_id": "0e4a7d834e20aa2a9720f7b70bfc7669", "fusion_lat": 0.0}, {"lon": -76.99507333333334, "name": "8f3be536c9f1f641918419131d97bbc8", "is_disabled": 0, "type": "electric_scooter", "is_reserved": 0, "fusion_lon": 0.0, "lat": 38.8907805, "rental_uris": {"ios": "https://dc.lft.to/lastmile_qr_scan", "android": "https://dc.lft.to/lastmile_qr_scan"}, "bike_id": "8f3be536c9f1f641918419131d97bbc8", "fusion_lat": 0.0}, {"lon": -77.01502166666667, "name": "1f5f4ef9cb5ea1912ba2650ca1fe3d0c", "is_disabled": 0, "type": "electric_scooter", "is_reserved": 0, "fusion_lon": 0.0, "lat": 38.896763666666665, "rental_uris": {"ios": "https://dc.lft.to/lastmile_qr_scan", "android": "https://dc.lft.to/lastmile_qr_scan"}, "bike_id": "1f5f4ef9cb5ea1912ba2650ca1fe3d0c", "fusion_lat": 0.0}, {"lon": -77.0294035, "name": "fb4ed0345f0bd23dcf9d965e79a95c4a", "is_disabled": 0, "type": "electric_scooter", "is_reserved": 0, "fusion_lon": 0.0, "lat": 38.89580983333333, "rental_uris": {"ios": "https://dc.lft.to/lastmile_qr_scan", "android": "https://dc.lft.to/lastmile_qr_scan"}, "bike_id": "fb4ed0345f0bd23dcf9d965e79a95c4a", "fusion_lat": 0.0}, {"lon": -77.043973, "name": "29ae83581953972bc9ac9ff372b44044", "is_disabled": 0, "type": "electric_scooter", "is_reserved": 0, "fusion_lon": 0.0, "lat": 38.9112175, "rental_uris": {"ios": "https://dc.lft.to/lastmile_qr_scan", "android": "https://dc.lft.to/lastmile_qr_scan"}, "bike_id": "29ae83581953972bc9ac9ff372b44044", "fusion_lat": 0.0}, {"lon": -76.97678766666667, "name": "f988fdda47379b0aa1eab8049328a949", "is_disabled": 0, "type": "electric_scooter", "is_reserved": 0, "fusion_lon": 0.0, "lat": 38.8920205, "rental_uris": {"ios": "https://dc.lft.to/lastmile_qr_scan", "android": "https://dc.lft.to/lastmile_qr_scan"}, "bike_id": "f988fdda47379b0aa1eab8049328a949", "fusion_lat": 0.0}, {"lon": -77.01915866666667, "name": "b1c16e02c76b6b80d2bb69823c791ef1", "is_disabled": 0, "type": "electric_scooter", "is_reserved": 0, "fusion_lon": 0.0, "lat": 38.897315, "rental_uris": {"ios": "https://dc.lft.to/lastmile_qr_scan", "android": "https://dc.lft.to/lastmile_qr_scan"}, "bike_id": "b1c16e02c76b6b80d2bb69823c791ef1", "fusion_lat": 0.0}, {"lon": -77.032087, "name": "7a018aeef27ee690f993b9ecff53d290", "is_disabled": 0, "type": "electric_scooter", "is_reserved": 0, "fusion_lon": 0.0, "lat": 38.92246633333333, "rental_uris": {"ios": "https://dc.lft.to/lastmile_qr_scan", "android": "https://dc.lft.to/lastmile_qr_scan"}, "bike_id": "7a018aeef27ee690f993b9ecff53d290", "fusion_lat": 0.0}, {"lon": -77.03255183333333, "name": "0dd1513e990f32a88b4eafd8087731ef", "is_disabled": 0, "type": "electric_scooter", "is_reserved": 0, "fusion_lon": 0.0, "lat": 38.939727500000004, "rental_uris": {"ios": "https://dc.lft.to/lastmile_qr_scan", "android": "https://dc.lft.to/lastmile_qr_scan"}, "bike_id": "0dd1513e990f32a88b4eafd8087731ef", "fusion_lat": 0.0}, {"lon": -76.99656433333334, "name": "975d3c8e019080c8e9b278de23e97c3b", "is_disabled": 0, "type": "electric_bike", "is_reserved": 0, "fusion_lon": 0.0, "lat": 38.967758333333336, "rental_uris": {"ios": "https://dc.lft.to/lastmile_qr_scan", "android": "https://dc.lft.to/lastmile_qr_scan"}, "bike_id": "975d3c8e019080c8e9b278de23e97c3b", "fusion_lat": 0.0}, {"lon": -77.02211666666666, "name": "df64f9eedc55eae635667f9e8fa556b7", "is_disabled": 0, "type": "electric_scooter", "is_reserved": 0, "fusion_lon": 0.0, "lat": 38.89990016666667, "rental_uris": {"ios": "https://dc.lft.to/lastmile_qr_scan", "android": "https://dc.lft.to/lastmile_qr_scan"}, "bike_id": "df64f9eedc55eae635667f9e8fa556b7", "fusion_lat": 0.0}, {"lon": -77.00416183333333, "name": "dbdc4861633f34149b42a2d459f50d78", "is_disabled": 0, "type": "electric_bike", "is_reserved": 0, "fusion_lon": 0.0, "lat": 38.985348, "rental_uris": {"ios": "https://dc.lft.to/lastmile_qr_scan", "android": "https://dc.lft.to/lastmile_qr_scan"}, "bike_id": "dbdc4861633f34149b42a2d459f50d78", "fusion_lat": 0.0}, {"lon": -77.04897416666667, "name": "a3d0cb9620b7044ed741c9eda977bd45", "is_disabled": 0, "type": "electric_scooter", "is_reserved": 0, "fusion_lon": 0.0, "lat": 38.916044, "rental_uris": {"ios": "https://dc.lft.to/lastmile_qr_scan", "android": "https://dc.lft.to/lastmile_qr_scan"}, "bike_id": "a3d0cb9620b7044ed741c9eda977bd45", "fusion_lat": 0.0}, {"lon": -77.04190066666666, "name": "c94d3b07d4698a52b90d64efba5b25fc", "is_disabled": 0, "type": "electric_scooter", "is_reserved": 0, "fusion_lon": 0.0, "lat": 38.920609166666665, "rental_uris": {"ios": "https://dc.lft.to/lastmile_qr_scan", "android": "https://dc.lft.to/lastmile_qr_scan"}, "bike_id": "c94d3b07d4698a52b90d64efba5b25fc", "fusion_lat": 0.0}, {"lon": -77.0416255, "name": "4308d81e08079eccd64906e9cadc67af", "is_disabled": 0, "type": "electric_scooter", "is_reserved": 0, "fusion_lon": 0.0, "lat": 38.916532, "rental_uris": {"ios": "https://dc.lft.to/lastmile_qr_scan", "android": "https://dc.lft.to/lastmile_qr_scan"}, "bike_id": "4308d81e08079eccd64906e9cadc67af", "fusion_lat": 0.0}, {"lon": -77.03484583333334, "name": "96c9a84067e691d5a98df25a6866af74", "is_disabled": 0, "type": "electric_scooter", "is_reserved": 0, "fusion_lon": 0.0, "lat": 38.92351166666667, "rental_uris": {"ios": "https://dc.lft.to/lastmile_qr_scan", "android": "https://dc.lft.to/lastmile_qr_scan"}, "bike_id": "96c9a84067e691d5a98df25a6866af74", "fusion_lat": 0.0}, {"lon": -77.024553, "name": "554209c95cb5e7fe3b24126f67e1930e", "is_disabled": 0, "type": "electric_scooter", "is_reserved": 0, "fusion_lon": 0.0, "lat": 38.92049316666667, "rental_uris": {"ios": "https://dc.lft.to/lastmile_qr_scan", "android": "https://dc.lft.to/lastmile_qr_scan"}, "bike_id": "554209c95cb5e7fe3b24126f67e1930e", "fusion_lat": 0.0}, {"lon": -77.04876433333334, "name": "11c74425aefb651bb0090131ef7ea92a", "is_disabled": 0, "type": "electric_scooter", "is_reserved": 0, "fusion_lon": 0.0, "lat": 38.896542333333336, "rental_uris": {"ios": "https://dc.lft.to/lastmile_qr_scan", "android": "https://dc.lft.to/lastmile_qr_scan"}, "bike_id": "11c74425aefb651bb0090131ef7ea92a", "fusion_lat": 0.0}, {"lon": -77.0435875, "name": "07d721ffe3dc9127a5afd55666119286", "is_disabled": 0, "type": "electric_scooter", "is_reserved": 0, "fusion_lon": 0.0, "lat": 38.905375166666666, "rental_uris": {"ios": "https://dc.lft.to/lastmile_qr_scan", "android": "https://dc.lft.to/lastmile_qr_scan"}, "bike_id": "07d721ffe3dc9127a5afd55666119286", "fusion_lat": 0.0}, {"lon": -77.018006, "name": "a4d0ede21bc76054d06d9a321187209f", "is_disabled": 0, "type": "electric_scooter", "is_reserved": 0, "fusion_lon": 0.0, "lat": 38.919506166666665, "rental_uris": {"ios": "https://dc.lft.to/lastmile_qr_scan", "android": "https://dc.lft.to/lastmile_qr_scan"}, "bike_id": "a4d0ede21bc76054d06d9a321187209f", "fusion_lat": 0.0}, {"lon": -76.93209716666667, "name": "eb6f14f5245347ec6446cfd0115bda54", "is_disabled": 0, "type": "electric_scooter", "is_reserved": 0, "fusion_lon": 0.0, "lat": 38.8966865, "rental_uris": {"ios": "https://dc.lft.to/lastmile_qr_scan", "android": "https://dc.lft.to/lastmile_qr_scan"}, "bike_id": "eb6f14f5245347ec6446cfd0115bda54", "fusion_lat": 0.0}, {"lon": -77.03445566666667, "name": "d9ea56c427b7b114d67af4283efbfcbe", "is_disabled": 0, "type": "electric_scooter", "is_reserved": 0, "fusion_lon": 0.0, "lat": 38.92881533333333, "rental_uris": {"ios": "https://dc.lft.to/lastmile_qr_scan", "android": "https://dc.lft.to/lastmile_qr_scan"}, "bike_id": "d9ea56c427b7b114d67af4283efbfcbe", "fusion_lat": 0.0}, {"lon": -76.984117, "name": "0109fe639cbe62d008de11e032f21776", "is_disabled": 0, "type": "electric_scooter", "is_reserved": 0, "fusion_lon": 0.0, "lat": 38.91386633333333, "rental_uris": {"ios": "https://dc.lft.to/lastmile_qr_scan", "android": "https://dc.lft.to/lastmile_qr_scan"}, "bike_id": "0109fe639cbe62d008de11e032f21776", "fusion_lat": 0.0}, {"lon": -77.02510166666667, "name": "86cca6124e62b88660ba3eb825f2a623", "is_disabled": 0, "type": "electric_scooter", "is_reserved": 0, "fusion_lon": 0.0, "lat": 38.920645666666665, "rental_uris": {"ios": "https://dc.lft.to/lastmile_qr_scan", "android": "https://dc.lft.to/lastmile_qr_scan"}, "bike_id": "86cca6124e62b88660ba3eb825f2a623", "fusion_lat": 0.0}, {"lon": -76.98620166666667, "name": "997449bc3d0411c31d99c98c98cf5e32", "is_disabled": 0, "type": "electric_scooter", "is_reserved": 0, "fusion_lon": 0.0, "lat": 38.88279283333333, "rental_uris": {"ios": "https://dc.lft.to/lastmile_qr_scan", "android": "https://dc.lft.to/lastmile_qr_scan"}, "bike_id": "997449bc3d0411c31d99c98c98cf5e32", "fusion_lat": 0.0}, {"lon": -77.04473183333333, "name": "296bcb40c1d27895766efb3e7a6d20f9", "is_disabled": 0, "type": "electric_scooter", "is_reserved": 0, "fusion_lon": 0.0, "lat": 38.91535316666667, "rental_uris": {"ios": "https://dc.lft.to/lastmile_qr_scan", "android": "https://dc.lft.to/lastmile_qr_scan"}, "bike_id": "296bcb40c1d27895766efb3e7a6d20f9", "fusion_lat": 0.0}, {"lon": -77.071821, "name": "25ffc7e5f9060197bd02ab79041517f2", "is_disabled": 0, "type": "electric_scooter", "is_reserved": 0, "fusion_lon": 0.0, "lat": 38.906786333333336, "rental_uris": {"ios": "https://dc.lft.to/lastmile_qr_scan", "android": "https://dc.lft.to/lastmile_qr_scan"}, "bike_id": "25ffc7e5f9060197bd02ab79041517f2", "fusion_lat": 0.0}, {"lon": -77.03262166666667, "name": "e1f03ddb01a012c85dc6d48aa8a05c54", "is_disabled": 0, "type": "electric_scooter", "is_reserved": 0, "fusion_lon": 0.0, "lat": 38.90426316666667, "rental_uris": {"ios": "https://dc.lft.to/lastmile_qr_scan", "android": "https://dc.lft.to/lastmile_qr_scan"}, "bike_id": "e1f03ddb01a012c85dc6d48aa8a05c54", "fusion_lat": 0.0}, {"lon": -77.0218385, "name": "c65e9203353178ae122dee85accfed8c", "is_disabled": 0, "type": "electric_scooter", "is_reserved": 0, "fusion_lon": 0.0, "lat": 38.900012, "rental_uris": {"ios": "https://dc.lft.to/lastmile_qr_scan", "android": "https://dc.lft.to/lastmile_qr_scan"}, "bike_id": "c65e9203353178ae122dee85accfed8c", "fusion_lat": 0.0}, {"lon": -77.03184866666666, "name": "9e11a18bb91071707d9d5e9bfce1c5aa", "is_disabled": 0, "type": "electric_scooter", "is_reserved": 0, "fusion_lon": 0.0, "lat": 38.91800883333333, "rental_uris": {"ios": "https://dc.lft.to/lastmile_qr_scan", "android": "https://dc.lft.to/lastmile_qr_scan"}, "bike_id": "9e11a18bb91071707d9d5e9bfce1c5aa", "fusion_lat": 0.0}, {"lon": -77.04958683333334, "name": "56fe8a988aad922112e7e3c9b30802c2", "is_disabled": 0, "type": "electric_scooter", "is_reserved": 0, "fusion_lon": 0.0, "lat": 38.90538433333333, "rental_uris": {"ios": "https://dc.lft.to/lastmile_qr_scan", "android": "https://dc.lft.to/lastmile_qr_scan"}, "bike_id": "56fe8a988aad922112e7e3c9b30802c2", "fusion_lat": 0.0}, {"lon": -76.92931716666666, "name": "3ceecc9cb694ccc1514e449f095be117", "is_disabled": 0, "type": "electric_scooter", "is_reserved": 0, "fusion_lon": 0.0, "lat": 38.90101266666667, "rental_uris": {"ios": "https://dc.lft.to/lastmile_qr_scan", "android": "https://dc.lft.to/lastmile_qr_scan"}, "bike_id": "3ceecc9cb694ccc1514e449f095be117", "fusion_lat": 0.0}, {"lon": -77.02979083333334, "name": "55426c99a74abd07d9adc332865fbacb", "is_disabled": 0, "type": "electric_scooter", "is_reserved": 0, "fusion_lon": 0.0, "lat": 38.918899, "rental_uris": {"ios": "https://dc.lft.to/lastmile_qr_scan", "android": "https://dc.lft.to/lastmile_qr_scan"}, "bike_id": "55426c99a74abd07d9adc332865fbacb", "fusion_lat": 0.0}, {"lon": -77.00319183333333, "name": "1aae14a4f078e92b6d8655b9ef707d34", "is_disabled": 0, "type": "electric_scooter", "is_reserved": 0, "fusion_lon": 0.0, "lat": 38.8861855, "rental_uris": {"ios": "https://dc.lft.to/lastmile_qr_scan", "android": "https://dc.lft.to/lastmile_qr_scan"}, "bike_id": "1aae14a4f078e92b6d8655b9ef707d34", "fusion_lat": 0.0}, {"lon": -77.04487466666667, "name": "58ee1ba1b26a9c28b3f11d74b9a3583a", "is_disabled": 0, "type": "electric_scooter", "is_reserved": 0, "fusion_lon": 0.0, "lat": 38.8975045, "rental_uris": {"ios": "https://dc.lft.to/lastmile_qr_scan", "android": "https://dc.lft.to/lastmile_qr_scan"}, "bike_id": "58ee1ba1b26a9c28b3f11d74b9a3583a", "fusion_lat": 0.0}, {"lon": -77.0447335, "name": "89e952ecf58dc6d5a378ea53d5190bff", "is_disabled": 0, "type": "electric_scooter", "is_reserved": 0, "fusion_lon": 0.0, "lat": 38.89944116666667, "rental_uris": {"ios": "https://dc.lft.to/lastmile_qr_scan", "android": "https://dc.lft.to/lastmile_qr_scan"}, "bike_id": "89e952ecf58dc6d5a378ea53d5190bff", "fusion_lat": 0.0}, {"lon": -77.00330683333334, "name": "171f7adb7eb4ee2755d6973621856619", "is_disabled": 0, "type": "electric_scooter", "is_reserved": 0, "fusion_lon": 0.0, "lat": 38.893613, "rental_uris": {"ios": "https://dc.lft.to/lastmile_qr_scan", "android": "https://dc.lft.to/lastmile_qr_scan"}, "bike_id": "171f7adb7eb4ee2755d6973621856619", "fusion_lat": 0.0}, {"lon": -77.01795683333333, "name": "1dbde4d5c90db1a4e043e8fd6ef0d875", "is_disabled": 0, "type": "electric_scooter", "is_reserved": 0, "fusion_lon": 0.0, "lat": 38.9195135, "rental_uris": {"ios": "https://dc.lft.to/lastmile_qr_scan", "android": "https://dc.lft.to/lastmile_qr_scan"}, "bike_id": "1dbde4d5c90db1a4e043e8fd6ef0d875", "fusion_lat": 0.0}, {"lon": -77.04350633333334, "name": "23eba054fdc5d9447df391232b206278", "is_disabled": 0, "type": "electric_scooter", "is_reserved": 0, "fusion_lon": 0.0, "lat": 38.913539, "rental_uris": {"ios": "https://dc.lft.to/lastmile_qr_scan", "android": "https://dc.lft.to/lastmile_qr_scan"}, "bike_id": "23eba054fdc5d9447df391232b206278", "fusion_lat": 0.0}, {"lon": -76.987254, "name": "f6256e5b15d6797fa9ed04bd79944cc5", "is_disabled": 0, "type": "electric_bike", "is_reserved": 0, "fusion_lon": 0.0, "lat": 38.86332566666667, "rental_uris": {"ios": "https://dc.lft.to/lastmile_qr_scan", "android": "https://dc.lft.to/lastmile_qr_scan"}, "bike_id": "f6256e5b15d6797fa9ed04bd79944cc5", "fusion_lat": 0.0}, {"lon": -77.0185905, "name": "cb16b97b94c6d76f00b85f9a174c5a79", "is_disabled": 0, "type": "electric_scooter", "is_reserved": 0, "fusion_lon": 0.0, "lat": 38.948924833333336, "rental_uris": {"ios": "https://dc.lft.to/lastmile_qr_scan", "android": "https://dc.lft.to/lastmile_qr_scan"}, "bike_id": "cb16b97b94c6d76f00b85f9a174c5a79", "fusion_lat": 0.0}, {"lon": -76.99387316666666, "name": "5c4e8736ab1b19e72ca124862e58a0b7", "is_disabled": 0, "type": "electric_scooter", "is_reserved": 0, "fusion_lon": 0.0, "lat": 38.89347033333333, "rental_uris": {"ios": "https://dc.lft.to/lastmile_qr_scan", "android": "https://dc.lft.to/lastmile_qr_scan"}, "bike_id": "5c4e8736ab1b19e72ca124862e58a0b7", "fusion_lat": 0.0}, {"lon": -77.03191683333333, "name": "a2064ba7d73931977cacdfecef6594a6", "is_disabled": 0, "type": "electric_scooter", "is_reserved": 0, "fusion_lon": 0.0, "lat": 38.916465, "rental_uris": {"ios": "https://dc.lft.to/lastmile_qr_scan", "android": "https://dc.lft.to/lastmile_qr_scan"}, "bike_id": "a2064ba7d73931977cacdfecef6594a6", "fusion_lat": 0.0}, {"lon": -76.97563083333333, "name": "2f572a2f902cf56140305e25987a002d", "is_disabled": 0, "type": "electric_bike", "is_reserved": 0, "fusion_lon": 0.0, "lat": 38.872698166666666, "rental_uris": {"ios": "https://dc.lft.to/lastmile_qr_scan", "android": "https://dc.lft.to/lastmile_qr_scan"}, "bike_id": "2f572a2f902cf56140305e25987a002d", "fusion_lat": 0.0}, {"lon": -76.99102333333333, "name": "a8e4fb86d799f698eca57e1d4ea7bf7f", "is_disabled": 0, "type": "electric_bike", "is_reserved": 0, "fusion_lon": 0.0, "lat": 38.804854, "rental_uris": {"ios": "https://dc.lft.to/lastmile_qr_scan", "android": "https://dc.lft.to/lastmile_qr_scan"}, "bike_id": "a8e4fb86d799f698eca57e1d4ea7bf7f", "fusion_lat": 0.0}, {"lon": -77.01265833333333, "name": "69e55557a8cda00f5678bd59734e87ea", "is_disabled": 0, "type": "electric_scooter", "is_reserved": 0, "fusion_lon": 0.0, "lat": 38.86471083333333, "rental_uris": {"ios": "https://dc.lft.to/lastmile_qr_scan", "android": "https://dc.lft.to/lastmile_qr_scan"}, "bike_id": "69e55557a8cda00f5678bd59734e87ea", "fusion_lat": 0.0}, {"lon": -77.00355333333333, "name": "4f56cf48b107367a59ce84d3627a0c0a", "is_disabled": 0, "type": "electric_scooter", "is_reserved": 0, "fusion_lon": 0.0, "lat": 38.91765733333333, "rental_uris": {"ios": "https://dc.lft.to/lastmile_qr_scan", "android": "https://dc.lft.to/lastmile_qr_scan"}, "bike_id": "4f56cf48b107367a59ce84d3627a0c0a", "fusion_lat": 0.0}, {"lon": -76.9848795, "name": "513872d45740604b45a769aa80163cf2", "is_disabled": 0, "type": "electric_scooter", "is_reserved": 0, "fusion_lon": 0.0, "lat": 38.90367766666667, "rental_uris": {"ios": "https://dc.lft.to/lastmile_qr_scan", "android": "https://dc.lft.to/lastmile_qr_scan"}, "bike_id": "513872d45740604b45a769aa80163cf2", "fusion_lat": 0.0}, {"lon": -77.0032435, "name": "4a4b34b7c2cb435b6f5bcf9342fbdeaa", "is_disabled": 0, "type": "electric_scooter", "is_reserved": 0, "fusion_lon": 0.0, "lat": 38.8612585, "rental_uris": {"ios": "https://dc.lft.to/lastmile_qr_scan", "android": "https://dc.lft.to/lastmile_qr_scan"}, "bike_id": "4a4b34b7c2cb435b6f5bcf9342fbdeaa", "fusion_lat": 0.0}, {"lon": -77.10330033333334, "name": "cbe5a4a7783611e6f387622642b8affb", "is_disabled": 0, "type": "electric_bike", "is_reserved": 0, "fusion_lon": 0.0, "lat": 38.8368925, "rental_uris": {"ios": "https://dc.lft.to/lastmile_qr_scan", "android": "https://dc.lft.to/lastmile_qr_scan"}, "bike_id": "cbe5a4a7783611e6f387622642b8affb", "fusion_lat": 0.0}, {"lon": -77.03203183333333, "name": "e0941e8fe5c2a6cc9a186bc0031de822", "is_disabled": 0, "type": "electric_scooter", "is_reserved": 0, "fusion_lon": 0.0, "lat": 38.916316, "rental_uris": {"ios": "https://dc.lft.to/lastmile_qr_scan", "android": "https://dc.lft.to/lastmile_qr_scan"}, "bike_id": "e0941e8fe5c2a6cc9a186bc0031de822", "fusion_lat": 0.0}, {"lon": -77.00339833333334, "name": "50cbe549434eb443af8dbe766928fecd", "is_disabled": 0, "type": "electric_scooter", "is_reserved": 0, "fusion_lon": 0.0, "lat": 38.891889666666664, "rental_uris": {"ios": "https://dc.lft.to/lastmile_qr_scan", "android": "https://dc.lft.to/lastmile_qr_scan"}, "bike_id": "50cbe549434eb443af8dbe766928fecd", "fusion_lat": 0.0}, {"lon": -77.03868016666667, "name": "2c3cb242bee85460e902fa0c4993f2d5", "is_disabled": 0, "type": "electric_scooter", "is_reserved": 0, "fusion_lon": 0.0, "lat": 38.903777833333336, "rental_uris": {"ios": "https://dc.lft.to/lastmile_qr_scan", "android": "https://dc.lft.to/lastmile_qr_scan"}, "bike_id": "2c3cb242bee85460e902fa0c4993f2d5", "fusion_lat": 0.0}, {"lon": -77.04494283333334, "name": "a3a0236606462571ac54d6cecfa84d5f", "is_disabled": 0, "type": "electric_scooter", "is_reserved": 0, "fusion_lon": 0.0, "lat": 38.897547833333334, "rental_uris": {"ios": "https://dc.lft.to/lastmile_qr_scan", "android": "https://dc.lft.to/lastmile_qr_scan"}, "bike_id": "a3a0236606462571ac54d6cecfa84d5f", "fusion_lat": 0.0}, {"lon": -77.047698, "name": "f1ec6724bac5c70616289abfba872571", "is_disabled": 0, "type": "electric_scooter", "is_reserved": 0, "fusion_lon": 0.0, "lat": 38.9176035, "rental_uris": {"ios": "https://dc.lft.to/lastmile_qr_scan", "android": "https://dc.lft.to/lastmile_qr_scan"}, "bike_id": "f1ec6724bac5c70616289abfba872571", "fusion_lat": 0.0}, {"lon": -77.0257915, "name": "f2a9c8290a5f1b367789e1be2aff04c3", "is_disabled": 0, "type": "electric_scooter", "is_reserved": 0, "fusion_lon": 0.0, "lat": 38.925092166666666, "rental_uris": {"ios": "https://dc.lft.to/lastmile_qr_scan", "android": "https://dc.lft.to/lastmile_qr_scan"}, "bike_id": "f2a9c8290a5f1b367789e1be2aff04c3", "fusion_lat": 0.0}, {"lon": -76.98546716666667, "name": "91bd0f3eb3e9d1143b32ee7cbc8ece5b", "is_disabled": 0, "type": "electric_scooter", "is_reserved": 0, "fusion_lon": 0.0, "lat": 38.88608166666667, "rental_uris": {"ios": "https://dc.lft.to/lastmile_qr_scan", "android": "https://dc.lft.to/lastmile_qr_scan"}, "bike_id": "91bd0f3eb3e9d1143b32ee7cbc8ece5b", "fusion_lat": 0.0}, {"lon": -77.00067016666667, "name": "c870c89b4c6013d2d5876aa8d62fdd99", "is_disabled": 0, "type": "electric_scooter", "is_reserved": 0, "fusion_lon": 0.0, "lat": 38.87664616666667, "rental_uris": {"ios": "https://dc.lft.to/lastmile_qr_scan", "android": "https://dc.lft.to/lastmile_qr_scan"}, "bike_id": "c870c89b4c6013d2d5876aa8d62fdd99", "fusion_lat": 0.0}, {"lon": -77.02709983333334, "name": "0da123fac4f3126762654e9117ff872e", "is_disabled": 0, "type": "electric_scooter", "is_reserved": 0, "fusion_lon": 0.0, "lat": 38.89722616666667, "rental_uris": {"ios": "https://dc.lft.to/lastmile_qr_scan", "android": "https://dc.lft.to/lastmile_qr_scan"}, "bike_id": "0da123fac4f3126762654e9117ff872e", "fusion_lat": 0.0}, {"lon": -77.02217516666667, "name": "621f9300861ca5dc33fae082ade74e7f", "is_disabled": 0, "type": "electric_scooter", "is_reserved": 0, "fusion_lon": 0.0, "lat": 38.924741166666664, "rental_uris": {"ios": "https://dc.lft.to/lastmile_qr_scan", "android": "https://dc.lft.to/lastmile_qr_scan"}, "bike_id": "621f9300861ca5dc33fae082ade74e7f", "fusion_lat": 0.0}, {"lon": -77.01706866666666, "name": "c238d548c0d60f0335ae1af3e6265543", "is_disabled": 0, "type": "electric_scooter", "is_reserved": 0, "fusion_lon": 0.0, "lat": 38.8875705, "rental_uris": {"ios": "https://dc.lft.to/lastmile_qr_scan", "android": "https://dc.lft.to/lastmile_qr_scan"}, "bike_id": "c238d548c0d60f0335ae1af3e6265543", "fusion_lat": 0.0}, {"lon": -77.07241866666666, "name": "3ef2f7995eba43f9185b8fb37d114b5d", "is_disabled": 0, "type": "electric_scooter", "is_reserved": 0, "fusion_lon": 0.0, "lat": 38.92161, "rental_uris": {"ios": "https://dc.lft.to/lastmile_qr_scan", "android": "https://dc.lft.to/lastmile_qr_scan"}, "bike_id": "3ef2f7995eba43f9185b8fb37d114b5d", "fusion_lat": 0.0}, {"lon": -77.02593216666666, "name": "19e27bda1faf04f3e308d8d02a520dd9", "is_disabled": 0, "type": "electric_scooter", "is_reserved": 0, "fusion_lon": 0.0, "lat": 38.920955, "rental_uris": {"ios": "https://dc.lft.to/lastmile_qr_scan", "android": "https://dc.lft.to/lastmile_qr_scan"}, "bike_id": "19e27bda1faf04f3e308d8d02a520dd9", "fusion_lat": 0.0}, {"lon": -77.01773466666667, "name": "919ba4c084296d3d27ceab6fd6de51d8", "is_disabled": 0, "type": "electric_scooter", "is_reserved": 0, "fusion_lon": 0.0, "lat": 38.8932125, "rental_uris": {"ios": "https://dc.lft.to/lastmile_qr_scan", "android": "https://dc.lft.to/lastmile_qr_scan"}, "bike_id": "919ba4c084296d3d27ceab6fd6de51d8", "fusion_lat": 0.0}, {"lon": -76.99863983333333, "name": "6b38b8997d0036744788c65bfc81360e", "is_disabled": 0, "type": "electric_scooter", "is_reserved": 0, "fusion_lon": 0.0, "lat": 38.90261566666667, "rental_uris": {"ios": "https://dc.lft.to/lastmile_qr_scan", "android": "https://dc.lft.to/lastmile_qr_scan"}, "bike_id": "6b38b8997d0036744788c65bfc81360e", "fusion_lat": 0.0}, {"lon": -77.0039505, "name": "2314d9b421be66a61504c4c36c09b4e1", "is_disabled": 0, "type": "electric_scooter", "is_reserved": 0, "fusion_lon": 0.0, "lat": 38.907701, "rental_uris": {"ios": "https://dc.lft.to/lastmile_qr_scan", "android": "https://dc.lft.to/lastmile_qr_scan"}, "bike_id": "2314d9b421be66a61504c4c36c09b4e1", "fusion_lat": 0.0}, {"lon": -77.020773, "name": "147f890919738612c74ba1d8a961498a", "is_disabled": 0, "type": "electric_scooter", "is_reserved": 0, "fusion_lon": 0.0, "lat": 38.952591, "rental_uris": {"ios": "https://dc.lft.to/lastmile_qr_scan", "android": "https://dc.lft.to/lastmile_qr_scan"}, "bike_id": "147f890919738612c74ba1d8a961498a", "fusion_lat": 0.0}, {"lon": -77.04173216666666, "name": "7abc520902eaa9c750ca56c63c20221b", "is_disabled": 0, "type": "electric_scooter", "is_reserved": 0, "fusion_lon": 0.0, "lat": 38.917062666666666, "rental_uris": {"ios": "https://dc.lft.to/lastmile_qr_scan", "android": "https://dc.lft.to/lastmile_qr_scan"}, "bike_id": "7abc520902eaa9c750ca56c63c20221b", "fusion_lat": 0.0}, {"lon": -77.04868466666667, "name": "191f5175aea6d8e4da761848af59f636", "is_disabled": 0, "type": "electric_scooter", "is_reserved": 0, "fusion_lon": 0.0, "lat": 38.90110683333333, "rental_uris": {"ios": "https://dc.lft.to/lastmile_qr_scan", "android": "https://dc.lft.to/lastmile_qr_scan"}, "bike_id": "191f5175aea6d8e4da761848af59f636", "fusion_lat": 0.0}, {"lon": -77.005135, "name": "215fce566c5b72392bfdce0f4df51faa", "is_disabled": 0, "type": "electric_bike", "is_reserved": 0, "fusion_lon": 0.0, "lat": 38.90962783333333, "rental_uris": {"ios": "https://dc.lft.to/lastmile_qr_scan", "android": "https://dc.lft.to/lastmile_qr_scan"}, "bike_id": "215fce566c5b72392bfdce0f4df51faa", "fusion_lat": 0.0}, {"lon": -77.00330283333334, "name": "783389d9b81dda41728543f9f45f8414", "is_disabled": 0, "type": "electric_scooter", "is_reserved": 0, "fusion_lon": 0.0, "lat": 38.8936175, "rental_uris": {"ios": "https://dc.lft.to/lastmile_qr_scan", "android": "https://dc.lft.to/lastmile_qr_scan"}, "bike_id": "783389d9b81dda41728543f9f45f8414", "fusion_lat": 0.0}, {"lon": -77.03188083333333, "name": "70b7994356393193ec19c83a9977c410", "is_disabled": 0, "type": "electric_scooter", "is_reserved": 0, "fusion_lon": 0.0, "lat": 38.9162055, "rental_uris": {"ios": "https://dc.lft.to/lastmile_qr_scan", "android": "https://dc.lft.to/lastmile_qr_scan"}, "bike_id": "70b7994356393193ec19c83a9977c410", "fusion_lat": 0.0}, {"lon": -77.02579233333333, "name": "be42beb9c46f47707a1e7cf71bec4cad", "is_disabled": 0, "type": "electric_scooter", "is_reserved": 0, "fusion_lon": 0.0, "lat": 38.90960466666667, "rental_uris": {"ios": "https://dc.lft.to/lastmile_qr_scan", "android": "https://dc.lft.to/lastmile_qr_scan"}, "bike_id": "be42beb9c46f47707a1e7cf71bec4cad", "fusion_lat": 0.0}, {"lon": -77.03659116666667, "name": "cdfce867100b590dc49392ef44815f9b", "is_disabled": 0, "type": "electric_scooter", "is_reserved": 0, "fusion_lon": 0.0, "lat": 38.93184566666667, "rental_uris": {"ios": "https://dc.lft.to/lastmile_qr_scan", "android": "https://dc.lft.to/lastmile_qr_scan"}, "bike_id": "cdfce867100b590dc49392ef44815f9b", "fusion_lat": 0.0}, {"lon": -77.02120983333333, "name": "d7931160f128a908a107ad8783f2f99f", "is_disabled": 0, "type": "electric_scooter", "is_reserved": 0, "fusion_lon": 0.0, "lat": 38.91754533333334, "rental_uris": {"ios": "https://dc.lft.to/lastmile_qr_scan", "android": "https://dc.lft.to/lastmile_qr_scan"}, "bike_id": "d7931160f128a908a107ad8783f2f99f", "fusion_lat": 0.0}, {"lon": -77.064639, "name": "1095fa7ace58a1ed41169239cb66d97d", "is_disabled": 0, "type": "electric_scooter", "is_reserved": 0, "fusion_lon": 0.0, "lat": 38.91045283333333, "rental_uris": {"ios": "https://dc.lft.to/lastmile_qr_scan", "android": "https://dc.lft.to/lastmile_qr_scan"}, "bike_id": "1095fa7ace58a1ed41169239cb66d97d", "fusion_lat": 0.0}, {"lon": -77.01681483333333, "name": "73277ec958c099f0eba2b38aa27d0e45", "is_disabled": 0, "type": "electric_scooter", "is_reserved": 0, "fusion_lon": 0.0, "lat": 38.92043833333334, "rental_uris": {"ios": "https://dc.lft.to/lastmile_qr_scan", "android": "https://dc.lft.to/lastmile_qr_scan"}, "bike_id": "73277ec958c099f0eba2b38aa27d0e45", "fusion_lat": 0.0}, {"lon": -77.02169666666667, "name": "c13a694f432cdb53d3631641fef73563", "is_disabled": 0, "type": "electric_scooter", "is_reserved": 0, "fusion_lon": 0.0, "lat": 38.89971216666667, "rental_uris": {"ios": "https://dc.lft.to/lastmile_qr_scan", "android": "https://dc.lft.to/lastmile_qr_scan"}, "bike_id": "c13a694f432cdb53d3631641fef73563", "fusion_lat": 0.0}, {"lon": -76.9770715, "name": "bf99477974a03f4dc4e684853ca4ab43", "is_disabled": 0, "type": "electric_scooter", "is_reserved": 0, "fusion_lon": 0.0, "lat": 38.8862065, "rental_uris": {"ios": "https://dc.lft.to/lastmile_qr_scan", "android": "https://dc.lft.to/lastmile_qr_scan"}, "bike_id": "bf99477974a03f4dc4e684853ca4ab43", "fusion_lat": 0.0}, {"lon": -77.023048, "name": "35d6cb40c1f2675198f3a164c116d0ea", "is_disabled": 0, "type": "electric_bike", "is_reserved": 0, "fusion_lon": 0.0, "lat": 38.966767833333336, "rental_uris": {"ios": "https://dc.lft.to/lastmile_qr_scan", "android": "https://dc.lft.to/lastmile_qr_scan"}, "bike_id": "35d6cb40c1f2675198f3a164c116d0ea", "fusion_lat": 0.0}, {"lon": -76.97207583333334, "name": "77ea356bc997dd77cd55042070e72fa2", "is_disabled": 0, "type": "electric_scooter", "is_reserved": 0, "fusion_lon": 0.0, "lat": 38.92555616666667, "rental_uris": {"ios": "https://dc.lft.to/lastmile_qr_scan", "android": "https://dc.lft.to/lastmile_qr_scan"}, "bike_id": "77ea356bc997dd77cd55042070e72fa2", "fusion_lat": 0.0}, {"lon": -77.04079833333333, "name": "1741fdcae119c59e3ea3ad80e7fa348b", "is_disabled": 0, "type": "electric_bike", "is_reserved": 0, "fusion_lon": 0.0, "lat": 38.8307135, "rental_uris": {"ios": "https://dc.lft.to/lastmile_qr_scan", "android": "https://dc.lft.to/lastmile_qr_scan"}, "bike_id": "1741fdcae119c59e3ea3ad80e7fa348b", "fusion_lat": 0.0}, {"lon": -77.04139233333333, "name": "0894ac8a444d1ef30f2b8bfdd0e1bc49", "is_disabled": 0, "type": "electric_scooter", "is_reserved": 0, "fusion_lon": 0.0, "lat": 38.93472583333333, "rental_uris": {"ios": "https://dc.lft.to/lastmile_qr_scan", "android": "https://dc.lft.to/lastmile_qr_scan"}, "bike_id": "0894ac8a444d1ef30f2b8bfdd0e1bc49", "fusion_lat": 0.0}, {"lon": -77.0167835, "name": "0fbffb13580c7cea9299e9e579688f4a", "is_disabled": 0, "type": "electric_scooter", "is_reserved": 0, "fusion_lon": 0.0, "lat": 38.92048066666667, "rental_uris": {"ios": "https://dc.lft.to/lastmile_qr_scan", "android": "https://dc.lft.to/lastmile_qr_scan"}, "bike_id": "0fbffb13580c7cea9299e9e579688f4a", "fusion_lat": 0.0}, {"lon": -77.02392583333334, "name": "1f6b819ceac11007290b4a5d9a933121", "is_disabled": 0, "type": "electric_scooter", "is_reserved": 0, "fusion_lon": 0.0, "lat": 38.89423566666667, "rental_uris": {"ios": "https://dc.lft.to/lastmile_qr_scan", "android": "https://dc.lft.to/lastmile_qr_scan"}, "bike_id": "1f6b819ceac11007290b4a5d9a933121", "fusion_lat": 0.0}, {"lon": -76.985477, "name": "988872e0b4b3b97814909c3b7efe2475", "is_disabled": 0, "type": "electric_scooter", "is_reserved": 0, "fusion_lon": 0.0, "lat": 38.88609233333333, "rental_uris": {"ios": "https://dc.lft.to/lastmile_qr_scan", "android": "https://dc.lft.to/lastmile_qr_scan"}, "bike_id": "988872e0b4b3b97814909c3b7efe2475", "fusion_lat": 0.0}, {"lon": -77.039393, "name": "95797701c9ff6c453be5ab5fc424e6c2", "is_disabled": 0, "type": "electric_scooter", "is_reserved": 0, "fusion_lon": 0.0, "lat": 38.92500533333333, "rental_uris": {"ios": "https://dc.lft.to/lastmile_qr_scan", "android": "https://dc.lft.to/lastmile_qr_scan"}, "bike_id": "95797701c9ff6c453be5ab5fc424e6c2", "fusion_lat": 0.0}, {"lon": -77.046714, "name": "5d0a75dfccfe6b3c0c3a8e684e27a295", "is_disabled": 0, "type": "electric_scooter", "is_reserved": 0, "fusion_lon": 0.0, "lat": 38.89562316666667, "rental_uris": {"ios": "https://dc.lft.to/lastmile_qr_scan", "android": "https://dc.lft.to/lastmile_qr_scan"}, "bike_id": "5d0a75dfccfe6b3c0c3a8e684e27a295", "fusion_lat": 0.0}, {"lon": -77.02134283333334, "name": "3fbedb6d45aa61c576a6c9c11fb57a68", "is_disabled": 0, "type": "electric_scooter", "is_reserved": 0, "fusion_lon": 0.0, "lat": 38.92413483333333, "rental_uris": {"ios": "https://dc.lft.to/lastmile_qr_scan", "android": "https://dc.lft.to/lastmile_qr_scan"}, "bike_id": "3fbedb6d45aa61c576a6c9c11fb57a68", "fusion_lat": 0.0}, {"lon": -77.06433166666666, "name": "d6443dd772f426099b7b685a8208afc0", "is_disabled": 0, "type": "electric_scooter", "is_reserved": 0, "fusion_lon": 0.0, "lat": 38.905242666666666, "rental_uris": {"ios": "https://dc.lft.to/lastmile_qr_scan", "android": "https://dc.lft.to/lastmile_qr_scan"}, "bike_id": "d6443dd772f426099b7b685a8208afc0", "fusion_lat": 0.0}, {"lon": -77.03218066666666, "name": "16d2f6a85d63a4ff2e73e7a75e147096", "is_disabled": 0, "type": "electric_scooter", "is_reserved": 0, "fusion_lon": 0.0, "lat": 38.89368183333333, "rental_uris": {"ios": "https://dc.lft.to/lastmile_qr_scan", "android": "https://dc.lft.to/lastmile_qr_scan"}, "bike_id": "16d2f6a85d63a4ff2e73e7a75e147096", "fusion_lat": 0.0}, {"lon": -77.02798966666667, "name": "93be5d300f0ce43f270bb5a8275bb034", "is_disabled": 0, "type": "electric_scooter", "is_reserved": 0, "fusion_lon": 0.0, "lat": 38.8936095, "rental_uris": {"ios": "https://dc.lft.to/lastmile_qr_scan", "android": "https://dc.lft.to/lastmile_qr_scan"}, "bike_id": "93be5d300f0ce43f270bb5a8275bb034", "fusion_lat": 0.0}, {"lon": -77.02077783333333, "name": "e64bcd12957e113dba45acd2992b8df0", "is_disabled": 0, "type": "electric_scooter", "is_reserved": 0, "fusion_lon": 0.0, "lat": 38.922914666666664, "rental_uris": {"ios": "https://dc.lft.to/lastmile_qr_scan", "android": "https://dc.lft.to/lastmile_qr_scan"}, "bike_id": "e64bcd12957e113dba45acd2992b8df0", "fusion_lat": 0.0}, {"lon": -77.023667, "name": "81fba4ed40bd5c3ca453ff356270a4c9", "is_disabled": 0, "type": "electric_scooter", "is_reserved": 0, "fusion_lon": 0.0, "lat": 38.901917833333336, "rental_uris": {"ios": "https://dc.lft.to/lastmile_qr_scan", "android": "https://dc.lft.to/lastmile_qr_scan"}, "bike_id": "81fba4ed40bd5c3ca453ff356270a4c9", "fusion_lat": 0.0}, {"lon": -77.060844, "name": "9f103477408e40a4a496759747179258", "is_disabled": 0, "type": "electric_scooter", "is_reserved": 0, "fusion_lon": 0.0, "lat": 38.9119315, "rental_uris": {"ios": "https://dc.lft.to/lastmile_qr_scan", "android": "https://dc.lft.to/lastmile_qr_scan"}, "bike_id": "9f103477408e40a4a496759747179258", "fusion_lat": 0.0}, {"lon": -77.01882966666666, "name": "5a6a528162ef966911e36b8f391eead3", "is_disabled": 0, "type": "electric_scooter", "is_reserved": 0, "fusion_lon": 0.0, "lat": 38.90911, "rental_uris": {"ios": "https://dc.lft.to/lastmile_qr_scan", "android": "https://dc.lft.to/lastmile_qr_scan"}, "bike_id": "5a6a528162ef966911e36b8f391eead3", "fusion_lat": 0.0}, {"lon": -76.99784983333333, "name": "09f4374019573fa54210a65455862c50", "is_disabled": 0, "type": "electric_scooter", "is_reserved": 0, "fusion_lon": 0.0, "lat": 38.9228755, "rental_uris": {"ios": "https://dc.lft.to/lastmile_qr_scan", "android": "https://dc.lft.to/lastmile_qr_scan"}, "bike_id": "09f4374019573fa54210a65455862c50", "fusion_lat": 0.0}, {"lon": -77.021781, "name": "efbeb3253aac131ccbc3c3f11e0c0111", "is_disabled": 0, "type": "electric_scooter", "is_reserved": 0, "fusion_lon": 0.0, "lat": 38.90188116666667, "rental_uris": {"ios": "https://dc.lft.to/lastmile_qr_scan", "android": "https://dc.lft.to/lastmile_qr_scan"}, "bike_id": "efbeb3253aac131ccbc3c3f11e0c0111", "fusion_lat": 0.0}, {"lon": -77.02237266666667, "name": "d759471d3de60d2baacab4ac9c00c204", "is_disabled": 0, "type": "electric_scooter", "is_reserved": 0, "fusion_lon": 0.0, "lat": 38.901616, "rental_uris": {"ios": "https://dc.lft.to/lastmile_qr_scan", "android": "https://dc.lft.to/lastmile_qr_scan"}, "bike_id": "d759471d3de60d2baacab4ac9c00c204", "fusion_lat": 0.0}, {"lon": -76.90751083333333, "name": "4bab604267c64ea23931a8d5d3748b63", "is_disabled": 0, "type": "electric_bike", "is_reserved": 0, "fusion_lon": 0.0, "lat": 38.89622516666667, "rental_uris": {"ios": "https://dc.lft.to/lastmile_qr_scan", "android": "https://dc.lft.to/lastmile_qr_scan"}, "bike_id": "4bab604267c64ea23931a8d5d3748b63", "fusion_lat": 0.0}, {"lon": -76.92441233333334, "name": "4926c1b1090e32bf176d2662cc5b9bdd", "is_disabled": 0, "type": "electric_scooter", "is_reserved": 0, "fusion_lon": 0.0, "lat": 38.88514266666667, "rental_uris": {"ios": "https://dc.lft.to/lastmile_qr_scan", "android": "https://dc.lft.to/lastmile_qr_scan"}, "bike_id": "4926c1b1090e32bf176d2662cc5b9bdd", "fusion_lat": 0.0}, {"lon": -77.01909116666667, "name": "6d746901e6307b05b02d5c422a5df503", "is_disabled": 0, "type": "electric_scooter", "is_reserved": 0, "fusion_lon": 0.0, "lat": 38.9234645, "rental_uris": {"ios": "https://dc.lft.to/lastmile_qr_scan", "android": "https://dc.lft.to/lastmile_qr_scan"}, "bike_id": "6d746901e6307b05b02d5c422a5df503", "fusion_lat": 0.0}, {"lon": -76.988345, "name": "4e4fd30c27274dcd0507da87ffd9ac98", "is_disabled": 0, "type": "electric_scooter", "is_reserved": 0, "fusion_lon": 0.0, "lat": 38.90036033333333, "rental_uris": {"ios": "https://dc.lft.to/lastmile_qr_scan", "android": "https://dc.lft.to/lastmile_qr_scan"}, "bike_id": "4e4fd30c27274dcd0507da87ffd9ac98", "fusion_lat": 0.0}, {"lon": -77.041059, "name": "1934a85d755f49e1c5d063617ad7e46c", "is_disabled": 0, "type": "electric_scooter", "is_reserved": 0, "fusion_lon": 0.0, "lat": 38.892251333333334, "rental_uris": {"ios": "https://dc.lft.to/lastmile_qr_scan", "android": "https://dc.lft.to/lastmile_qr_scan"}, "bike_id": "1934a85d755f49e1c5d063617ad7e46c", "fusion_lat": 0.0}, {"lon": -76.97589733333334, "name": "edbc9b62b04ee756c9494feb8d723453", "is_disabled": 0, "type": "electric_scooter", "is_reserved": 0, "fusion_lon": 0.0, "lat": 38.903333333333336, "rental_uris": {"ios": "https://dc.lft.to/lastmile_qr_scan", "android": "https://dc.lft.to/lastmile_qr_scan"}, "bike_id": "edbc9b62b04ee756c9494feb8d723453", "fusion_lat": 0.0}, {"lon": -76.97221266666666, "name": "8d818fc5c31c4750e91d8b6c242fcc46", "is_disabled": 0, "type": "electric_bike", "is_reserved": 0, "fusion_lon": 0.0, "lat": 38.90034266666667, "rental_uris": {"ios": "https://dc.lft.to/lastmile_qr_scan", "android": "https://dc.lft.to/lastmile_qr_scan"}, "bike_id": "8d818fc5c31c4750e91d8b6c242fcc46", "fusion_lat": 0.0}, {"lon": -77.0224215, "name": "0d815377ddf1732549e57f162d61f5d5", "is_disabled": 0, "type": "electric_scooter", "is_reserved": 0, "fusion_lon": 0.0, "lat": 38.9243175, "rental_uris": {"ios": "https://dc.lft.to/lastmile_qr_scan", "android": "https://dc.lft.to/lastmile_qr_scan"}, "bike_id": "0d815377ddf1732549e57f162d61f5d5", "fusion_lat": 0.0}, {"lon": -77.0279565, "name": "3def85760d8cd1f79c7eea88ff435164", "is_disabled": 0, "type": "electric_scooter", "is_reserved": 0, "fusion_lon": 0.0, "lat": 38.930777166666665, "rental_uris": {"ios": "https://dc.lft.to/lastmile_qr_scan", "android": "https://dc.lft.to/lastmile_qr_scan"}, "bike_id": "3def85760d8cd1f79c7eea88ff435164", "fusion_lat": 0.0}, {"lon": -76.99119133333333, "name": "f80d0402d79f052454c186e1f159f864", "is_disabled": 0, "type": "electric_scooter", "is_reserved": 0, "fusion_lon": 0.0, "lat": 38.90029333333333, "rental_uris": {"ios": "https://dc.lft.to/lastmile_qr_scan", "android": "https://dc.lft.to/lastmile_qr_scan"}, "bike_id": "f80d0402d79f052454c186e1f159f864", "fusion_lat": 0.0}, {"lon": -77.02796, "name": "86c49b41e0911c94cdd3ff2aaa6cde44", "is_disabled": 0, "type": "electric_scooter", "is_reserved": 0, "fusion_lon": 0.0, "lat": 38.930846, "rental_uris": {"ios": "https://dc.lft.to/lastmile_qr_scan", "android": "https://dc.lft.to/lastmile_qr_scan"}, "bike_id": "86c49b41e0911c94cdd3ff2aaa6cde44", "fusion_lat": 0.0}, {"lon": -77.04732733333333, "name": "340f3a8827c1f1d4fcd86a452371ca84", "is_disabled": 0, "type": "electric_scooter", "is_reserved": 0, "fusion_lon": 0.0, "lat": 38.913439, "rental_uris": {"ios": "https://dc.lft.to/lastmile_qr_scan", "android": "https://dc.lft.to/lastmile_qr_scan"}, "bike_id": "340f3a8827c1f1d4fcd86a452371ca84", "fusion_lat": 0.0}, {"lon": -77.00377166666667, "name": "e400b39c3acde08adb4da8f2b1bf2f90", "is_disabled": 0, "type": "electric_bike", "is_reserved": 0, "fusion_lon": 0.0, "lat": 38.8361065, "rental_uris": {"ios": "https://dc.lft.to/lastmile_qr_scan", "android": "https://dc.lft.to/lastmile_qr_scan"}, "bike_id": "e400b39c3acde08adb4da8f2b1bf2f90", "fusion_lat": 0.0}, {"lon": -77.03283233333333, "name": "f3a9b6cf2882a32365951dd5db70af23", "is_disabled": 0, "type": "electric_scooter", "is_reserved": 0, "fusion_lon": 0.0, "lat": 38.9205875, "rental_uris": {"ios": "https://dc.lft.to/lastmile_qr_scan", "android": "https://dc.lft.to/lastmile_qr_scan"}, "bike_id": "f3a9b6cf2882a32365951dd5db70af23", "fusion_lat": 0.0}, {"lon": -77.02742466666666, "name": "20bfe3d65ac0c62a0a9b26a437224fee", "is_disabled": 0, "type": "electric_scooter", "is_reserved": 0, "fusion_lon": 0.0, "lat": 38.96648016666666, "rental_uris": {"ios": "https://dc.lft.to/lastmile_qr_scan", "android": "https://dc.lft.to/lastmile_qr_scan"}, "bike_id": "20bfe3d65ac0c62a0a9b26a437224fee", "fusion_lat": 0.0}, {"lon": -77.01374583333333, "name": "0eae1d831661fd78e96185f5c325d611", "is_disabled": 0, "type": "electric_scooter", "is_reserved": 0, "fusion_lon": 0.0, "lat": 38.9104765, "rental_uris": {"ios": "https://dc.lft.to/lastmile_qr_scan", "android": "https://dc.lft.to/lastmile_qr_scan"}, "bike_id": "0eae1d831661fd78e96185f5c325d611", "fusion_lat": 0.0}, {"lon": -77.03272716666666, "name": "9f98224b0677cab4b2de51d25b866011", "is_disabled": 0, "type": "electric_scooter", "is_reserved": 0, "fusion_lon": 0.0, "lat": 38.92757916666667, "rental_uris": {"ios": "https://dc.lft.to/lastmile_qr_scan", "android": "https://dc.lft.to/lastmile_qr_scan"}, "bike_id": "9f98224b0677cab4b2de51d25b866011", "fusion_lat": 0.0}, {"lon": -76.99003483333334, "name": "be64538a486af445731d75aba1f9e3c3", "is_disabled": 0, "type": "electric_scooter", "is_reserved": 0, "fusion_lon": 0.0, "lat": 38.903957, "rental_uris": {"ios": "https://dc.lft.to/lastmile_qr_scan", "android": "https://dc.lft.to/lastmile_qr_scan"}, "bike_id": "be64538a486af445731d75aba1f9e3c3", "fusion_lat": 0.0}, {"lon": -77.04571583333333, "name": "b35baab07f09145bfe3f48d5fe740e1a", "is_disabled": 0, "type": "electric_scooter", "is_reserved": 0, "fusion_lon": 0.0, "lat": 38.900024, "rental_uris": {"ios": "https://dc.lft.to/lastmile_qr_scan", "android": "https://dc.lft.to/lastmile_qr_scan"}, "bike_id": "b35baab07f09145bfe3f48d5fe740e1a", "fusion_lat": 0.0}, {"lon": -76.990191, "name": "20958da9eff824cae019470a9c3843c6", "is_disabled": 0, "type": "electric_scooter", "is_reserved": 0, "fusion_lon": 0.0, "lat": 38.865149333333335, "rental_uris": {"ios": "https://dc.lft.to/lastmile_qr_scan", "android": "https://dc.lft.to/lastmile_qr_scan"}, "bike_id": "20958da9eff824cae019470a9c3843c6", "fusion_lat": 0.0}, {"lon": -77.04718333333334, "name": "9771823077f0fb19a529e95b1b1fc885", "is_disabled": 0, "type": "electric_scooter", "is_reserved": 0, "fusion_lon": 0.0, "lat": 38.8997875, "rental_uris": {"ios": "https://dc.lft.to/lastmile_qr_scan", "android": "https://dc.lft.to/lastmile_qr_scan"}, "bike_id": "9771823077f0fb19a529e95b1b1fc885", "fusion_lat": 0.0}, {"lon": -77.03282633333333, "name": "674952aff8c4c9d4bc4236445d47f224", "is_disabled": 0, "type": "electric_scooter", "is_reserved": 0, "fusion_lon": 0.0, "lat": 38.93207266666667, "rental_uris": {"ios": "https://dc.lft.to/lastmile_qr_scan", "android": "https://dc.lft.to/lastmile_qr_scan"}, "bike_id": "674952aff8c4c9d4bc4236445d47f224", "fusion_lat": 0.0}, {"lon": -77.05345983333333, "name": "089c3b8addaebc8c67abfb2af3aef9e5", "is_disabled": 0, "type": "electric_scooter", "is_reserved": 0, "fusion_lon": 0.0, "lat": 38.90426166666666, "rental_uris": {"ios": "https://dc.lft.to/lastmile_qr_scan", "android": "https://dc.lft.to/lastmile_qr_scan"}, "bike_id": "089c3b8addaebc8c67abfb2af3aef9e5", "fusion_lat": 0.0}, {"lon": -77.02615933333334, "name": "174255adad59a1bee2fb73731da98b6e", "is_disabled": 0, "type": "electric_bike", "is_reserved": 0, "fusion_lon": 0.0, "lat": 38.969326, "rental_uris": {"ios": "https://dc.lft.to/lastmile_qr_scan", "android": "https://dc.lft.to/lastmile_qr_scan"}, "bike_id": "174255adad59a1bee2fb73731da98b6e", "fusion_lat": 0.0}, {"lon": -77.03191016666666, "name": "4dd9dfef569a5d34b197c5d22b63b1bb", "is_disabled": 0, "type": "electric_scooter", "is_reserved": 0, "fusion_lon": 0.0, "lat": 38.916381666666666, "rental_uris": {"ios": "https://dc.lft.to/lastmile_qr_scan", "android": "https://dc.lft.to/lastmile_qr_scan"}, "bike_id": "4dd9dfef569a5d34b197c5d22b63b1bb", "fusion_lat": 0.0}, {"lon": -77.06223083333333, "name": "7cbb5d9f478f7a7bdfaabb763605b982", "is_disabled": 0, "type": "electric_scooter", "is_reserved": 0, "fusion_lon": 0.0, "lat": 38.91318116666667, "rental_uris": {"ios": "https://dc.lft.to/lastmile_qr_scan", "android": "https://dc.lft.to/lastmile_qr_scan"}, "bike_id": "7cbb5d9f478f7a7bdfaabb763605b982", "fusion_lat": 0.0}, {"lon": -77.03196716666666, "name": "c8a633e9b60d147f2cb9e18841b17591", "is_disabled": 0, "type": "electric_scooter", "is_reserved": 0, "fusion_lon": 0.0, "lat": 38.9229585, "rental_uris": {"ios": "https://dc.lft.to/lastmile_qr_scan", "android": "https://dc.lft.to/lastmile_qr_scan"}, "bike_id": "c8a633e9b60d147f2cb9e18841b17591", "fusion_lat": 0.0}, {"lon": -77.034677, "name": "d5eb6234da0b4b58a922e8580ac7d1f4", "is_disabled": 0, "type": "electric_scooter", "is_reserved": 0, "fusion_lon": 0.0, "lat": 38.92157516666666, "rental_uris": {"ios": "https://dc.lft.to/lastmile_qr_scan", "android": "https://dc.lft.to/lastmile_qr_scan"}, "bike_id": "d5eb6234da0b4b58a922e8580ac7d1f4", "fusion_lat": 0.0}, {"lon": -77.003354, "name": "4e153601c7e976742dba4c2c06d02bc2", "is_disabled": 0, "type": "electric_scooter", "is_reserved": 0, "fusion_lon": 0.0, "lat": 38.89215566666667, "rental_uris": {"ios": "https://dc.lft.to/lastmile_qr_scan", "android": "https://dc.lft.to/lastmile_qr_scan"}, "bike_id": "4e153601c7e976742dba4c2c06d02bc2", "fusion_lat": 0.0}, {"lon": -77.02838616666666, "name": "18452ba0f82c9f829966b540edd32c59", "is_disabled": 0, "type": "electric_bike", "is_reserved": 0, "fusion_lon": 0.0, "lat": 38.92643566666667, "rental_uris": {"ios": "https://dc.lft.to/lastmile_qr_scan", "android": "https://dc.lft.to/lastmile_qr_scan"}, "bike_id": "18452ba0f82c9f829966b540edd32c59", "fusion_lat": 0.0}, {"lon": -77.02343566666667, "name": "3352629e698b344da572120dc779b7fc", "is_disabled": 0, "type": "electric_scooter", "is_reserved": 0, "fusion_lon": 0.0, "lat": 38.94307366666666, "rental_uris": {"ios": "https://dc.lft.to/lastmile_qr_scan", "android": "https://dc.lft.to/lastmile_qr_scan"}, "bike_id": "3352629e698b344da572120dc779b7fc", "fusion_lat": 0.0}, {"lon": -77.0880015, "name": "e1c1983f724b926e36aaa43d1224465d", "is_disabled": 0, "type": "electric_scooter", "is_reserved": 0, "fusion_lon": 0.0, "lat": 38.93540216666667, "rental_uris": {"ios": "https://dc.lft.to/lastmile_qr_scan", "android": "https://dc.lft.to/lastmile_qr_scan"}, "bike_id": "e1c1983f724b926e36aaa43d1224465d", "fusion_lat": 0.0}, {"lon": -77.0308845, "name": "9ca47161fa5ea962e76e0647e4b42532", "is_disabled": 0, "type": "electric_scooter", "is_reserved": 0, "fusion_lon": 0.0, "lat": 38.935454666666665, "rental_uris": {"ios": "https://dc.lft.to/lastmile_qr_scan", "android": "https://dc.lft.to/lastmile_qr_scan"}, "bike_id": "9ca47161fa5ea962e76e0647e4b42532", "fusion_lat": 0.0}, {"lon": -77.0195255, "name": "c3ea1414011b8b9dc4d49882e8894193", "is_disabled": 0, "type": "electric_scooter", "is_reserved": 0, "fusion_lon": 0.0, "lat": 38.923679, "rental_uris": {"ios": "https://dc.lft.to/lastmile_qr_scan", "android": "https://dc.lft.to/lastmile_qr_scan"}, "bike_id": "c3ea1414011b8b9dc4d49882e8894193", "fusion_lat": 0.0}, {"lon": -77.0598975, "name": "eeec81d7c9d155f1925e286c7906f34f", "is_disabled": 0, "type": "electric_scooter", "is_reserved": 0, "fusion_lon": 0.0, "lat": 38.927225666666665, "rental_uris": {"ios": "https://dc.lft.to/lastmile_qr_scan", "android": "https://dc.lft.to/lastmile_qr_scan"}, "bike_id": "eeec81d7c9d155f1925e286c7906f34f", "fusion_lat": 0.0}, {"lon": -77.03392733333334, "name": "eda5e8355b002adb8da379775f23caec", "is_disabled": 0, "type": "electric_scooter", "is_reserved": 0, "fusion_lon": 0.0, "lat": 38.90639916666667, "rental_uris": {"ios": "https://dc.lft.to/lastmile_qr_scan", "android": "https://dc.lft.to/lastmile_qr_scan"}, "bike_id": "eda5e8355b002adb8da379775f23caec", "fusion_lat": 0.0}, {"lon": -77.07491066666667, "name": "d739dff4c35b15ce08aae8e2ee048b78", "is_disabled": 0, "type": "electric_scooter", "is_reserved": 0, "fusion_lon": 0.0, "lat": 38.911972, "rental_uris": {"ios": "https://dc.lft.to/lastmile_qr_scan", "android": "https://dc.lft.to/lastmile_qr_scan"}, "bike_id": "d739dff4c35b15ce08aae8e2ee048b78", "fusion_lat": 0.0}, {"lon": -77.01944033333334, "name": "4c4f1bfc1ce3f08e1c78e13af950ff96", "is_disabled": 0, "type": "electric_scooter", "is_reserved": 0, "fusion_lon": 0.0, "lat": 38.956460666666665, "rental_uris": {"ios": "https://dc.lft.to/lastmile_qr_scan", "android": "https://dc.lft.to/lastmile_qr_scan"}, "bike_id": "4c4f1bfc1ce3f08e1c78e13af950ff96", "fusion_lat": 0.0}, {"lon": -77.0344265, "name": "7e45413971c4c4502d0584b1e8224593", "is_disabled": 0, "type": "electric_scooter", "is_reserved": 0, "fusion_lon": 0.0, "lat": 38.900856833333336, "rental_uris": {"ios": "https://dc.lft.to/lastmile_qr_scan", "android": "https://dc.lft.to/lastmile_qr_scan"}, "bike_id": "7e45413971c4c4502d0584b1e8224593", "fusion_lat": 0.0}, {"lon": -77.0169855, "name": "39f55f0cac48472755d062eb78f1dfbc", "is_disabled": 0, "type": "electric_scooter", "is_reserved": 0, "fusion_lon": 0.0, "lat": 38.90764466666667, "rental_uris": {"ios": "https://dc.lft.to/lastmile_qr_scan", "android": "https://dc.lft.to/lastmile_qr_scan"}, "bike_id": "39f55f0cac48472755d062eb78f1dfbc", "fusion_lat": 0.0}, {"lon": -77.00330433333333, "name": "2ae254facaa3cc4d5ce639dd61f8eb47", "is_disabled": 0, "type": "electric_scooter", "is_reserved": 0, "fusion_lon": 0.0, "lat": 38.893628666666665, "rental_uris": {"ios": "https://dc.lft.to/lastmile_qr_scan", "android": "https://dc.lft.to/lastmile_qr_scan"}, "bike_id": "2ae254facaa3cc4d5ce639dd61f8eb47", "fusion_lat": 0.0}, {"lon": -77.02920066666667, "name": "c78420bee223ab6e746f76a7534f674b", "is_disabled": 0, "type": "electric_scooter", "is_reserved": 0, "fusion_lon": 0.0, "lat": 38.899881, "rental_uris": {"ios": "https://dc.lft.to/lastmile_qr_scan", "android": "https://dc.lft.to/lastmile_qr_scan"}, "bike_id": "c78420bee223ab6e746f76a7534f674b", "fusion_lat": 0.0}, {"lon": -77.148707, "name": "7793a81193c111f45b26ad0d436663af", "is_disabled": 0, "type": "electric_bike", "is_reserved": 0, "fusion_lon": 0.0, "lat": 38.877433333333336, "rental_uris": {"ios": "https://dc.lft.to/lastmile_qr_scan", "android": "https://dc.lft.to/lastmile_qr_scan"}, "bike_id": "7793a81193c111f45b26ad0d436663af", "fusion_lat": 0.0}, {"lon": -77.03590716666666, "name": "605628472287cb209b8512dca6ac6d55", "is_disabled": 0, "type": "electric_scooter", "is_reserved": 0, "fusion_lon": 0.0, "lat": 38.90559616666667, "rental_uris": {"ios": "https://dc.lft.to/lastmile_qr_scan", "android": "https://dc.lft.to/lastmile_qr_scan"}, "bike_id": "605628472287cb209b8512dca6ac6d55", "fusion_lat": 0.0}, {"lon": -77.02406233333333, "name": "578dfbcf34203d772733b5ae78cc5cc6", "is_disabled": 0, "type": "electric_scooter", "is_reserved": 0, "fusion_lon": 0.0, "lat": 38.941938666666665, "rental_uris": {"ios": "https://dc.lft.to/lastmile_qr_scan", "android": "https://dc.lft.to/lastmile_qr_scan"}, "bike_id": "578dfbcf34203d772733b5ae78cc5cc6", "fusion_lat": 0.0}, {"lon": -76.94885416666666, "name": "f79f83afde1c319c014bfc8bce414128", "is_disabled": 0, "type": "electric_scooter", "is_reserved": 0, "fusion_lon": 0.0, "lat": 38.895127, "rental_uris": {"ios": "https://dc.lft.to/lastmile_qr_scan", "android": "https://dc.lft.to/lastmile_qr_scan"}, "bike_id": "f79f83afde1c319c014bfc8bce414128", "fusion_lat": 0.0}, {"lon": -77.02988333333333, "name": "2b875386997854de9b328308de7d13df", "is_disabled": 0, "type": "electric_scooter", "is_reserved": 0, "fusion_lon": 0.0, "lat": 38.9225295, "rental_uris": {"ios": "https://dc.lft.to/lastmile_qr_scan", "android": "https://dc.lft.to/lastmile_qr_scan"}, "bike_id": "2b875386997854de9b328308de7d13df", "fusion_lat": 0.0}, {"lon": -77.00916266666667, "name": "490579761a7cdd8f03a8b5ded4df15c3", "is_disabled": 0, "type": "electric_scooter", "is_reserved": 0, "fusion_lon": 0.0, "lat": 38.895607166666665, "rental_uris": {"ios": "https://dc.lft.to/lastmile_qr_scan", "android": "https://dc.lft.to/lastmile_qr_scan"}, "bike_id": "490579761a7cdd8f03a8b5ded4df15c3", "fusion_lat": 0.0}, {"lon": -77.0251335, "name": "3bdd1f328d5f1ec9a2f8a52ca00dc4ce", "is_disabled": 0, "type": "electric_scooter", "is_reserved": 0, "fusion_lon": 0.0, "lat": 38.919361333333335, "rental_uris": {"ios": "https://dc.lft.to/lastmile_qr_scan", "android": "https://dc.lft.to/lastmile_qr_scan"}, "bike_id": "3bdd1f328d5f1ec9a2f8a52ca00dc4ce", "fusion_lat": 0.0}, {"lon": -77.03945716666666, "name": "5dd0bc723adb6e1b7becabcfb00f9330", "is_disabled": 0, "type": "electric_scooter", "is_reserved": 0, "fusion_lon": 0.0, "lat": 38.90840516666667, "rental_uris": {"ios": "https://dc.lft.to/lastmile_qr_scan", "android": "https://dc.lft.to/lastmile_qr_scan"}, "bike_id": "5dd0bc723adb6e1b7becabcfb00f9330", "fusion_lat": 0.0}, {"lon": -77.02723233333333, "name": "93be561db3865173c0d1f1f3cfa0deec", "is_disabled": 0, "type": "electric_bike", "is_reserved": 0, "fusion_lon": 0.0, "lat": 38.97159416666667, "rental_uris": {"ios": "https://dc.lft.to/lastmile_qr_scan", "android": "https://dc.lft.to/lastmile_qr_scan"}, "bike_id": "93be561db3865173c0d1f1f3cfa0deec", "fusion_lat": 0.0}, {"lon": -76.92585316666667, "name": "b7db6f4b55d03df7fab2a9ea8d75ac6a", "is_disabled": 0, "type": "electric_scooter", "is_reserved": 0, "fusion_lon": 0.0, "lat": 38.8973065, "rental_uris": {"ios": "https://dc.lft.to/lastmile_qr_scan", "android": "https://dc.lft.to/lastmile_qr_scan"}, "bike_id": "b7db6f4b55d03df7fab2a9ea8d75ac6a", "fusion_lat": 0.0}, {"lon": -77.026816, "name": "b4ff523a72874e9a352682c3bb223a4b", "is_disabled": 0, "type": "electric_scooter", "is_reserved": 0, "fusion_lon": 0.0, "lat": 38.897757, "rental_uris": {"ios": "https://dc.lft.to/lastmile_qr_scan", "android": "https://dc.lft.to/lastmile_qr_scan"}, "bike_id": "b4ff523a72874e9a352682c3bb223a4b", "fusion_lat": 0.0}, {"lon": -77.0481445, "name": "e51f7e98edef827edd6df2f98d6c6adf", "is_disabled": 0, "type": "electric_scooter", "is_reserved": 0, "fusion_lon": 0.0, "lat": 38.89844866666667, "rental_uris": {"ios": "https://dc.lft.to/lastmile_qr_scan", "android": "https://dc.lft.to/lastmile_qr_scan"}, "bike_id": "e51f7e98edef827edd6df2f98d6c6adf", "fusion_lat": 0.0}, {"lon": -76.93744483333333, "name": "378df6cdf1c6db7aa7a0a3c25d3f28ad", "is_disabled": 0, "type": "electric_scooter", "is_reserved": 0, "fusion_lon": 0.0, "lat": 38.890178166666665, "rental_uris": {"ios": "https://dc.lft.to/lastmile_qr_scan", "android": "https://dc.lft.to/lastmile_qr_scan"}, "bike_id": "378df6cdf1c6db7aa7a0a3c25d3f28ad", "fusion_lat": 0.0}, {"lon": -77.032172, "name": "e9e633e89f4dae5afe0909e68422a504", "is_disabled": 0, "type": "electric_scooter", "is_reserved": 0, "fusion_lon": 0.0, "lat": 38.917404166666664, "rental_uris": {"ios": "https://dc.lft.to/lastmile_qr_scan", "android": "https://dc.lft.to/lastmile_qr_scan"}, "bike_id": "e9e633e89f4dae5afe0909e68422a504", "fusion_lat": 0.0}, {"lon": -77.04803266666667, "name": "04c65cc1299c6068fb4f0b41183b21b8", "is_disabled": 0, "type": "electric_scooter", "is_reserved": 0, "fusion_lon": 0.0, "lat": 38.89837833333333, "rental_uris": {"ios": "https://dc.lft.to/lastmile_qr_scan", "android": "https://dc.lft.to/lastmile_qr_scan"}, "bike_id": "04c65cc1299c6068fb4f0b41183b21b8", "fusion_lat": 0.0}, {"lon": -77.01109766666667, "name": "46cd7ee0707a49bd147887f7fabed531", "is_disabled": 0, "type": "electric_scooter", "is_reserved": 0, "fusion_lon": 0.0, "lat": 38.90355366666667, "rental_uris": {"ios": "https://dc.lft.to/lastmile_qr_scan", "android": "https://dc.lft.to/lastmile_qr_scan"}, "bike_id": "46cd7ee0707a49bd147887f7fabed531", "fusion_lat": 0.0}, {"lon": -76.995243, "name": "8917a501dcaf5c995bcc434ac6840afa", "is_disabled": 0, "type": "electric_scooter", "is_reserved": 0, "fusion_lon": 0.0, "lat": 38.902669333333336, "rental_uris": {"ios": "https://dc.lft.to/lastmile_qr_scan", "android": "https://dc.lft.to/lastmile_qr_scan"}, "bike_id": "8917a501dcaf5c995bcc434ac6840afa", "fusion_lat": 0.0}, {"lon": -77.0449015, "name": "6a342b446a85fb66c69bda7dfdcb08d9", "is_disabled": 0, "type": "electric_scooter", "is_reserved": 0, "fusion_lon": 0.0, "lat": 38.89960266666667, "rental_uris": {"ios": "https://dc.lft.to/lastmile_qr_scan", "android": "https://dc.lft.to/lastmile_qr_scan"}, "bike_id": "6a342b446a85fb66c69bda7dfdcb08d9", "fusion_lat": 0.0}, {"lon": -77.0296095, "name": "12db7a7cd8841c84666820743aeafd30", "is_disabled": 0, "type": "electric_scooter", "is_reserved": 0, "fusion_lon": 0.0, "lat": 38.89939016666667, "rental_uris": {"ios": "https://dc.lft.to/lastmile_qr_scan", "android": "https://dc.lft.to/lastmile_qr_scan"}, "bike_id": "12db7a7cd8841c84666820743aeafd30", "fusion_lat": 0.0}, {"lon": -77.032203, "name": "c5afaaf44fff38aee4d81b689f949102", "is_disabled": 0, "type": "electric_scooter", "is_reserved": 0, "fusion_lon": 0.0, "lat": 38.915670166666665, "rental_uris": {"ios": "https://dc.lft.to/lastmile_qr_scan", "android": "https://dc.lft.to/lastmile_qr_scan"}, "bike_id": "c5afaaf44fff38aee4d81b689f949102", "fusion_lat": 0.0}, {"lon": -77.01518616666667, "name": "07415a08a750879a484d9dc9fa4dfc25", "is_disabled": 0, "type": "electric_scooter", "is_reserved": 0, "fusion_lon": 0.0, "lat": 38.913228, "rental_uris": {"ios": "https://dc.lft.to/lastmile_qr_scan", "android": "https://dc.lft.to/lastmile_qr_scan"}, "bike_id": "07415a08a750879a484d9dc9fa4dfc25", "fusion_lat": 0.0}, {"lon": -76.9732915, "name": "e4590555972e8dd4768d317298ca2746", "is_disabled": 0, "type": "electric_scooter", "is_reserved": 0, "fusion_lon": 0.0, "lat": 38.904141, "rental_uris": {"ios": "https://dc.lft.to/lastmile_qr_scan", "android": "https://dc.lft.to/lastmile_qr_scan"}, "bike_id": "e4590555972e8dd4768d317298ca2746", "fusion_lat": 0.0}, {"lon": -77.099431, "name": "17661f6afec562a517431f6a9e25f2d5", "is_disabled": 0, "type": "electric_scooter", "is_reserved": 0, "fusion_lon": 0.0, "lat": 38.92190033333333, "rental_uris": {"ios": "https://dc.lft.to/lastmile_qr_scan", "android": "https://dc.lft.to/lastmile_qr_scan"}, "bike_id": "17661f6afec562a517431f6a9e25f2d5", "fusion_lat": 0.0}, {"lon": -77.024187, "name": "de9f8ef5266e9a2e4c45c0e6b298fd1c", "is_disabled": 0, "type": "electric_scooter", "is_reserved": 0, "fusion_lon": 0.0, "lat": 38.89633666666667, "rental_uris": {"ios": "https://dc.lft.to/lastmile_qr_scan", "android": "https://dc.lft.to/lastmile_qr_scan"}, "bike_id": "de9f8ef5266e9a2e4c45c0e6b298fd1c", "fusion_lat": 0.0}, {"lon": -77.00503716666667, "name": "16469daec39b4fcdf99ee53fedf5ffa1", "is_disabled": 0, "type": "electric_scooter", "is_reserved": 0, "fusion_lon": 0.0, "lat": 38.8753835, "rental_uris": {"ios": "https://dc.lft.to/lastmile_qr_scan", "android": "https://dc.lft.to/lastmile_qr_scan"}, "bike_id": "16469daec39b4fcdf99ee53fedf5ffa1", "fusion_lat": 0.0}, {"lon": -77.000673, "name": "f9f16e73763f95b38fd24b4c2c3508cf", "is_disabled": 0, "type": "electric_scooter", "is_reserved": 0, "fusion_lon": 0.0, "lat": 38.876668333333335, "rental_uris": {"ios": "https://dc.lft.to/lastmile_qr_scan", "android": "https://dc.lft.to/lastmile_qr_scan"}, "bike_id": "f9f16e73763f95b38fd24b4c2c3508cf", "fusion_lat": 0.0}, {"lon": -77.02849366666666, "name": "4f158d797ad8bd349106b6fc1e4d1e5e", "is_disabled": 0, "type": "electric_scooter", "is_reserved": 0, "fusion_lon": 0.0, "lat": 38.92254833333333, "rental_uris": {"ios": "https://dc.lft.to/lastmile_qr_scan", "android": "https://dc.lft.to/lastmile_qr_scan"}, "bike_id": "4f158d797ad8bd349106b6fc1e4d1e5e", "fusion_lat": 0.0}, {"lon": -77.03943, "name": "f4290efa94ae9d55993f93ee26de6175", "is_disabled": 0, "type": "electric_scooter", "is_reserved": 0, "fusion_lon": 0.0, "lat": 38.924773, "rental_uris": {"ios": "https://dc.lft.to/lastmile_qr_scan", "android": "https://dc.lft.to/lastmile_qr_scan"}, "bike_id": "f4290efa94ae9d55993f93ee26de6175", "fusion_lat": 0.0}, {"lon": -77.00365883333333, "name": "e4b61ee5632cd2f9a4bc640973b81b6b", "is_disabled": 0, "type": "electric_scooter", "is_reserved": 0, "fusion_lon": 0.0, "lat": 38.897346166666665, "rental_uris": {"ios": "https://dc.lft.to/lastmile_qr_scan", "android": "https://dc.lft.to/lastmile_qr_scan"}, "bike_id": "e4b61ee5632cd2f9a4bc640973b81b6b", "fusion_lat": 0.0}, {"lon": -76.99556833333334, "name": "c7fe163a6f58ad66c3d30648a5792f5d", "is_disabled": 0, "type": "electric_scooter", "is_reserved": 0, "fusion_lon": 0.0, "lat": 38.9002305, "rental_uris": {"ios": "https://dc.lft.to/lastmile_qr_scan", "android": "https://dc.lft.to/lastmile_qr_scan"}, "bike_id": "c7fe163a6f58ad66c3d30648a5792f5d", "fusion_lat": 0.0}, {"lon": -77.01556683333334, "name": "fda3034fb1c5ae961921a90739593663", "is_disabled": 0, "type": "electric_scooter", "is_reserved": 0, "fusion_lon": 0.0, "lat": 38.89369833333333, "rental_uris": {"ios": "https://dc.lft.to/lastmile_qr_scan", "android": "https://dc.lft.to/lastmile_qr_scan"}, "bike_id": "fda3034fb1c5ae961921a90739593663", "fusion_lat": 0.0}, {"lon": -76.99391, "name": "f1898200970bce3a932c83a1239cca25", "is_disabled": 0, "type": "electric_scooter", "is_reserved": 0, "fusion_lon": 0.0, "lat": 38.91004816666667, "rental_uris": {"ios": "https://dc.lft.to/lastmile_qr_scan", "android": "https://dc.lft.to/lastmile_qr_scan"}, "bike_id": "f1898200970bce3a932c83a1239cca25", "fusion_lat": 0.0}, {"lon": -77.02129133333334, "name": "21c06af03862f6dcfce49023f7adb2f3", "is_disabled": 0, "type": "electric_scooter", "is_reserved": 0, "fusion_lon": 0.0, "lat": 38.924101, "rental_uris": {"ios": "https://dc.lft.to/lastmile_qr_scan", "android": "https://dc.lft.to/lastmile_qr_scan"}, "bike_id": "21c06af03862f6dcfce49023f7adb2f3", "fusion_lat": 0.0}, {"lon": -76.981158, "name": "21ec6ccfa64cbd595286a1fe4c591137", "is_disabled": 0, "type": "electric_scooter", "is_reserved": 0, "fusion_lon": 0.0, "lat": 38.91475833333333, "rental_uris": {"ios": "https://dc.lft.to/lastmile_qr_scan", "android": "https://dc.lft.to/lastmile_qr_scan"}, "bike_id": "21ec6ccfa64cbd595286a1fe4c591137", "fusion_lat": 0.0}, {"lon": -77.03958483333334, "name": "43768c1ca8a62b87a57ca3b5a24269bf", "is_disabled": 0, "type": "electric_scooter", "is_reserved": 0, "fusion_lon": 0.0, "lat": 38.893734333333335, "rental_uris": {"ios": "https://dc.lft.to/lastmile_qr_scan", "android": "https://dc.lft.to/lastmile_qr_scan"}, "bike_id": "43768c1ca8a62b87a57ca3b5a24269bf", "fusion_lat": 0.0}, {"lon": -76.98827083333333, "name": "05951a1fd0a10fcb3d14f71e8cd91e7f", "is_disabled": 0, "type": "electric_scooter", "is_reserved": 0, "fusion_lon": 0.0, "lat": 38.89099616666667, "rental_uris": {"ios": "https://dc.lft.to/lastmile_qr_scan", "android": "https://dc.lft.to/lastmile_qr_scan"}, "bike_id": "05951a1fd0a10fcb3d14f71e8cd91e7f", "fusion_lat": 0.0}, {"lon": -76.98563566666667, "name": "2ad5b1d013666eb55ffc8b39584e5f6c", "is_disabled": 0, "type": "electric_scooter", "is_reserved": 0, "fusion_lon": 0.0, "lat": 38.89959966666667, "rental_uris": {"ios": "https://dc.lft.to/lastmile_qr_scan", "android": "https://dc.lft.to/lastmile_qr_scan"}, "bike_id": "2ad5b1d013666eb55ffc8b39584e5f6c", "fusion_lat": 0.0}, {"lon": -77.04344066666667, "name": "22d0197de41fcccdd86d1de50490cc7e", "is_disabled": 0, "type": "electric_scooter", "is_reserved": 0, "fusion_lon": 0.0, "lat": 38.8984835, "rental_uris": {"ios": "https://dc.lft.to/lastmile_qr_scan", "android": "https://dc.lft.to/lastmile_qr_scan"}, "bike_id": "22d0197de41fcccdd86d1de50490cc7e", "fusion_lat": 0.0}, {"lon": -77.139375, "name": "71579d8124b46bbbeafd0e99f007957f", "is_disabled": 0, "type": "electric_bike", "is_reserved": 0, "fusion_lon": 0.0, "lat": 38.84680216666667, "rental_uris": {"ios": "https://dc.lft.to/lastmile_qr_scan", "android": "https://dc.lft.to/lastmile_qr_scan"}, "bike_id": "71579d8124b46bbbeafd0e99f007957f", "fusion_lat": 0.0}, {"lon": -77.05095266666666, "name": "bed8da93b890b7ba1fb9e5766c903f63", "is_disabled": 0, "type": "electric_bike", "is_reserved": 0, "fusion_lon": 0.0, "lat": 38.8133515, "rental_uris": {"ios": "https://dc.lft.to/lastmile_qr_scan", "android": "https://dc.lft.to/lastmile_qr_scan"}, "bike_id": "bed8da93b890b7ba1fb9e5766c903f63", "fusion_lat": 0.0}, {"lon": -77.02311166666667, "name": "1ae023d729271451976b91a6389ec201", "is_disabled": 0, "type": "electric_scooter", "is_reserved": 0, "fusion_lon": 0.0, "lat": 38.917896, "rental_uris": {"ios": "https://dc.lft.to/lastmile_qr_scan", "android": "https://dc.lft.to/lastmile_qr_scan"}, "bike_id": "1ae023d729271451976b91a6389ec201", "fusion_lat": 0.0}, {"lon": -77.04127183333334, "name": "756733855603cbe94a4a223eda6a24a1", "is_disabled": 0, "type": "electric_scooter", "is_reserved": 0, "fusion_lon": 0.0, "lat": 38.918933333333335, "rental_uris": {"ios": "https://dc.lft.to/lastmile_qr_scan", "android": "https://dc.lft.to/lastmile_qr_scan"}, "bike_id": "756733855603cbe94a4a223eda6a24a1", "fusion_lat": 0.0}, {"lon": -77.02945433333333, "name": "2d0d9a1c592660a967b47592b9207c5f", "is_disabled": 0, "type": "electric_scooter", "is_reserved": 0, "fusion_lon": 0.0, "lat": 38.9050435, "rental_uris": {"ios": "https://dc.lft.to/lastmile_qr_scan", "android": "https://dc.lft.to/lastmile_qr_scan"}, "bike_id": "2d0d9a1c592660a967b47592b9207c5f", "fusion_lat": 0.0}, {"lon": -77.0319765, "name": "d2da8e146f2ba8cbafedcfe7a53cdd42", "is_disabled": 0, "type": "electric_scooter", "is_reserved": 0, "fusion_lon": 0.0, "lat": 38.903769, "rental_uris": {"ios": "https://dc.lft.to/lastmile_qr_scan", "android": "https://dc.lft.to/lastmile_qr_scan"}, "bike_id": "d2da8e146f2ba8cbafedcfe7a53cdd42", "fusion_lat": 0.0}, {"lon": -77.02809733333333, "name": "2870aa5d7ff1c9baa828f6c633e62866", "is_disabled": 0, "type": "electric_scooter", "is_reserved": 0, "fusion_lon": 0.0, "lat": 38.902579333333335, "rental_uris": {"ios": "https://dc.lft.to/lastmile_qr_scan", "android": "https://dc.lft.to/lastmile_qr_scan"}, "bike_id": "2870aa5d7ff1c9baa828f6c633e62866", "fusion_lat": 0.0}, {"lon": -77.01612433333334, "name": "b8b62d7275990a0f247608a4ac493b57", "is_disabled": 0, "type": "electric_scooter", "is_reserved": 0, "fusion_lon": 0.0, "lat": 38.91072466666667, "rental_uris": {"ios": "https://dc.lft.to/lastmile_qr_scan", "android": "https://dc.lft.to/lastmile_qr_scan"}, "bike_id": "b8b62d7275990a0f247608a4ac493b57", "fusion_lat": 0.0}, {"lon": -77.02161333333333, "name": "11df78cbf0d15e3ce85d325c96f641ca", "is_disabled": 0, "type": "electric_scooter", "is_reserved": 0, "fusion_lon": 0.0, "lat": 38.926145, "rental_uris": {"ios": "https://dc.lft.to/lastmile_qr_scan", "android": "https://dc.lft.to/lastmile_qr_scan"}, "bike_id": "11df78cbf0d15e3ce85d325c96f641ca", "fusion_lat": 0.0}, {"lon": -77.084876, "name": "bf87808246ddf522fe76e2c0eb3eb597", "is_disabled": 0, "type": "electric_scooter", "is_reserved": 0, "fusion_lon": 0.0, "lat": 38.95898183333333, "rental_uris": {"ios": "https://dc.lft.to/lastmile_qr_scan", "android": "https://dc.lft.to/lastmile_qr_scan"}, "bike_id": "bf87808246ddf522fe76e2c0eb3eb597", "fusion_lat": 0.0}, {"lon": -76.9415445, "name": "e55ee5b8d3296bab35079c33861afc39", "is_disabled": 0, "type": "electric_bike", "is_reserved": 0, "fusion_lon": 0.0, "lat": 38.8655525, "rental_uris": {"ios": "https://dc.lft.to/lastmile_qr_scan", "android": "https://dc.lft.to/lastmile_qr_scan"}, "bike_id": "e55ee5b8d3296bab35079c33861afc39", "fusion_lat": 0.0}, {"lon": -77.02051416666667, "name": "ba5cfc76b22253f1807ee6675fe8a8f5", "is_disabled": 0, "type": "electric_scooter", "is_reserved": 0, "fusion_lon": 0.0, "lat": 38.92179083333333, "rental_uris": {"ios": "https://dc.lft.to/lastmile_qr_scan", "android": "https://dc.lft.to/lastmile_qr_scan"}, "bike_id": "ba5cfc76b22253f1807ee6675fe8a8f5", "fusion_lat": 0.0}, {"lon": -77.0222365, "name": "3c452725772067a9641453d377b96def", "is_disabled": 0, "type": "electric_scooter", "is_reserved": 0, "fusion_lon": 0.0, "lat": 38.924812, "rental_uris": {"ios": "https://dc.lft.to/lastmile_qr_scan", "android": "https://dc.lft.to/lastmile_qr_scan"}, "bike_id": "3c452725772067a9641453d377b96def", "fusion_lat": 0.0}, {"lon": -77.0326235, "name": "ad791e4dff65f022c138380709617b40", "is_disabled": 0, "type": "electric_scooter", "is_reserved": 0, "fusion_lon": 0.0, "lat": 38.930632833333334, "rental_uris": {"ios": "https://dc.lft.to/lastmile_qr_scan", "android": "https://dc.lft.to/lastmile_qr_scan"}, "bike_id": "ad791e4dff65f022c138380709617b40", "fusion_lat": 0.0}, {"lon": -77.0420625, "name": "a1e8fdb9f33d3db412b4495c64a77c46", "is_disabled": 0, "type": "electric_scooter", "is_reserved": 0, "fusion_lon": 0.0, "lat": 38.90911966666667, "rental_uris": {"ios": "https://dc.lft.to/lastmile_qr_scan", "android": "https://dc.lft.to/lastmile_qr_scan"}, "bike_id": "a1e8fdb9f33d3db412b4495c64a77c46", "fusion_lat": 0.0}, {"lon": -77.06277433333334, "name": "4ef1d77a99314da9d3a098d17a71786d", "is_disabled": 0, "type": "electric_bike", "is_reserved": 0, "fusion_lon": 0.0, "lat": 38.9058525, "rental_uris": {"ios": "https://dc.lft.to/lastmile_qr_scan", "android": "https://dc.lft.to/lastmile_qr_scan"}, "bike_id": "4ef1d77a99314da9d3a098d17a71786d", "fusion_lat": 0.0}, {"lon": -77.046158, "name": "bb1e1c758acc931897f4c6ce552101bd", "is_disabled": 0, "type": "electric_scooter", "is_reserved": 0, "fusion_lon": 0.0, "lat": 38.923352666666666, "rental_uris": {"ios": "https://dc.lft.to/lastmile_qr_scan", "android": "https://dc.lft.to/lastmile_qr_scan"}, "bike_id": "bb1e1c758acc931897f4c6ce552101bd", "fusion_lat": 0.0}, {"lon": -77.03202033333334, "name": "115885b559c22c49585fde9f21b43d09", "is_disabled": 0, "type": "electric_scooter", "is_reserved": 0, "fusion_lon": 0.0, "lat": 38.9106145, "rental_uris": {"ios": "https://dc.lft.to/lastmile_qr_scan", "android": "https://dc.lft.to/lastmile_qr_scan"}, "bike_id": "115885b559c22c49585fde9f21b43d09", "fusion_lat": 0.0}, {"lon": -77.0181295, "name": "6262cdbb5d97491078f575b623cf2d85", "is_disabled": 0, "type": "electric_scooter", "is_reserved": 0, "fusion_lon": 0.0, "lat": 38.9295065, "rental_uris": {"ios": "https://dc.lft.to/lastmile_qr_scan", "android": "https://dc.lft.to/lastmile_qr_scan"}, "bike_id": "6262cdbb5d97491078f575b623cf2d85", "fusion_lat": 0.0}, {"lon": -77.04382083333333, "name": "772f285fc1dc4b1dc5ff433446a17406", "is_disabled": 0, "type": "electric_scooter", "is_reserved": 0, "fusion_lon": 0.0, "lat": 38.9236205, "rental_uris": {"ios": "https://dc.lft.to/lastmile_qr_scan", "android": "https://dc.lft.to/lastmile_qr_scan"}, "bike_id": "772f285fc1dc4b1dc5ff433446a17406", "fusion_lat": 0.0}, {"lon": -77.05084383333333, "name": "c72c8927513b205f4a3e5d78238dd3a1", "is_disabled": 0, "type": "electric_bike", "is_reserved": 0, "fusion_lon": 0.0, "lat": 38.81339066666666, "rental_uris": {"ios": "https://dc.lft.to/lastmile_qr_scan", "android": "https://dc.lft.to/lastmile_qr_scan"}, "bike_id": "c72c8927513b205f4a3e5d78238dd3a1", "fusion_lat": 0.0}, {"lon": -77.04517866666667, "name": "acb9e625eb4fa590828bfc1959b1abac", "is_disabled": 0, "type": "electric_scooter", "is_reserved": 0, "fusion_lon": 0.0, "lat": 38.91970516666667, "rental_uris": {"ios": "https://dc.lft.to/lastmile_qr_scan", "android": "https://dc.lft.to/lastmile_qr_scan"}, "bike_id": "acb9e625eb4fa590828bfc1959b1abac", "fusion_lat": 0.0}, {"lon": -77.0371295, "name": "bf3a1892c083d2bb4fa5e463a2ecf230", "is_disabled": 0, "type": "electric_scooter", "is_reserved": 0, "fusion_lon": 0.0, "lat": 38.90040533333333, "rental_uris": {"ios": "https://dc.lft.to/lastmile_qr_scan", "android": "https://dc.lft.to/lastmile_qr_scan"}, "bike_id": "bf3a1892c083d2bb4fa5e463a2ecf230", "fusion_lat": 0.0}, {"lon": -77.011461, "name": "88c08357eddaff128e077b965b6fbced", "is_disabled": 0, "type": "electric_scooter", "is_reserved": 0, "fusion_lon": 0.0, "lat": 38.929606166666666, "rental_uris": {"ios": "https://dc.lft.to/lastmile_qr_scan", "android": "https://dc.lft.to/lastmile_qr_scan"}, "bike_id": "88c08357eddaff128e077b965b6fbced", "fusion_lat": 0.0}, {"lon": -77.02759283333333, "name": "94a4d13a3e43ccce527bbe19835811d2", "is_disabled": 0, "type": "electric_scooter", "is_reserved": 0, "fusion_lon": 0.0, "lat": 38.92773916666667, "rental_uris": {"ios": "https://dc.lft.to/lastmile_qr_scan", "android": "https://dc.lft.to/lastmile_qr_scan"}, "bike_id": "94a4d13a3e43ccce527bbe19835811d2", "fusion_lat": 0.0}, {"lon": -77.01676866666666, "name": "3fadd1e747539167667c51efee9b3180", "is_disabled": 0, "type": "electric_scooter", "is_reserved": 0, "fusion_lon": 0.0, "lat": 38.920464833333334, "rental_uris": {"ios": "https://dc.lft.to/lastmile_qr_scan", "android": "https://dc.lft.to/lastmile_qr_scan"}, "bike_id": "3fadd1e747539167667c51efee9b3180", "fusion_lat": 0.0}, {"lon": -77.04364216666667, "name": "17d7bdbb3ae4a3afee9cb6b1ac1f6f99", "is_disabled": 0, "type": "electric_scooter", "is_reserved": 0, "fusion_lon": 0.0, "lat": 38.906027, "rental_uris": {"ios": "https://dc.lft.to/lastmile_qr_scan", "android": "https://dc.lft.to/lastmile_qr_scan"}, "bike_id": "17d7bdbb3ae4a3afee9cb6b1ac1f6f99", "fusion_lat": 0.0}, {"lon": -77.03169083333333, "name": "a9c4368879d6effe8418ba4f928d440f", "is_disabled": 0, "type": "electric_scooter", "is_reserved": 0, "fusion_lon": 0.0, "lat": 38.892394833333334, "rental_uris": {"ios": "https://dc.lft.to/lastmile_qr_scan", "android": "https://dc.lft.to/lastmile_qr_scan"}, "bike_id": "a9c4368879d6effe8418ba4f928d440f", "fusion_lat": 0.0}, {"lon": -77.02952833333333, "name": "77810a62cf8008de67f3333f5a84152f", "is_disabled": 0, "type": "electric_scooter", "is_reserved": 0, "fusion_lon": 0.0, "lat": 38.91687316666667, "rental_uris": {"ios": "https://dc.lft.to/lastmile_qr_scan", "android": "https://dc.lft.to/lastmile_qr_scan"}, "bike_id": "77810a62cf8008de67f3333f5a84152f", "fusion_lat": 0.0},