{"data": {"bikes": [{"rental_uris": {"ios": "https://dc.lft.to/lastmile_qr_scan", "android": "https://dc.lft.to/lastmile_qr_scan"}, "type": "electric_scooter", "name": "8e7629d16a672dbb96ec4e887122343b", "is_reserved": 0, "lon": -77.0240755, "is_disabled": 0, "fusion_lat": 0.0, "lat": 38.89907816666667, "bike_id": "8e7629d16a672dbb96ec4e887122343b", "fusion_lon": 0.0}, {"rental_uris": {"ios": "https://dc.lft.to/lastmile_qr_scan", "android": "https://dc.lft.to/lastmile_qr_scan"}, "type": "electric_scooter", "name": "ea0615d89230eac29ea25114ce93b133", "is_reserved": 0, "lon": -77.04160716666667, "is_disabled": 0, "fusion_lat": 0.0, "lat": 38.916448, "bike_id": "ea0615d89230eac29ea25114ce93b133", "fusion_lon": 0.0}, {"rental_uris": {"ios": "https://dc.lft.to/lastmile_qr_scan", "android": "https://dc.lft.to/lastmile_qr_scan"}, "type": "electric_scooter", "name": "d0b1b88ca377a5f233c31849b978ee0e", "is_reserved": 0, "lon": -77.00658316666667, "is_disabled": 0, "fusion_lat": 0.0, "lat": 38.8768675, "bike_id": "d0b1b88ca377a5f233c31849b978ee0e", "fusion_lon": 0.0}, {"rental_uris": {"ios": "https://dc.lft.to/lastmile_qr_scan", "android": "https://dc.lft.to/lastmile_qr_scan"}, "type": "electric_scooter", "name": "8542119a92c191ce611e420b4a48bf0d", "is_reserved": 0, "lon": -77.02777916666666, "is_disabled": 0, "fusion_lat": 0.0, "lat": 38.8922335, "bike_id": "8542119a92c191ce611e420b4a48bf0d", "fusion_lon": 0.0}, {"rental_uris": {"ios": "https://dc.lft.to/lastmile_qr_scan", "android": "https://dc.lft.to/lastmile_qr_scan"}, "type": "electric_scooter", "name": "330a93bf59d159407316ce15a64b7932", "is_reserved": 0, "lon": -77.023227, "is_disabled": 0, "fusion_lat": 0.0, "lat": 38.930569166666665, "bike_id": "330a93bf59d159407316ce15a64b7932", "fusion_lon": 0.0}, {"rental_uris": {"ios": "https://dc.lft.to/lastmile_qr_scan", "android": "https://dc.lft.to/lastmile_qr_scan"}, "type": "electric_scooter", "name": "7e9bbd527ef25b0f86bc3e2ecd8b79f5", "is_reserved": 0, "lon": -77.04643416666667, "is_disabled": 0, "fusion_lat": 0.0, "lat": 38.92227366666667, "bike_id": "7e9bbd527ef25b0f86bc3e2ecd8b79f5", "fusion_lon": 0.0}, {"rental_uris": {"ios": "https://dc.lft.to/lastmile_qr_scan", "android": "https://dc.lft.to/lastmile_qr_scan"}, "type": "electric_scooter", "name": "7381ceee108137372067451213f64eae", "is_reserved": 0, "lon": -77.027513, "is_disabled": 0, "fusion_lat": 0.0, "lat": 38.9023585, "bike_id": "7381ceee108137372067451213f64eae", "fusion_lon": 0.0}, {"rental_uris": {"ios": "https://dc.lft.to/lastmile_qr_scan", "android": "https://dc.lft.to/lastmile_qr_scan"}, "type": "electric_scooter", "name": "097f246ad44fbd740a44b3f59cceeb4b", "is_reserved": 0, "lon": -77.022879, "is_disabled": 0, "fusion_lat": 0.0, "lat": 38.878649333333335, "bike_id": "097f246ad44fbd740a44b3f59cceeb4b", "fusion_lon": 0.0}, {"rental_uris": {"ios": "https://dc.lft.to/lastmile_qr_scan", "android": "https://dc.lft.to/lastmile_qr_scan"}, "type": "electric_scooter", "name": "78c40b03ca5cb05c9de59a75899a9577", "is_reserved": 0, "lon": -77.03351416666666, "is_disabled": 0, "fusion_lat": 0.0, "lat": 38.922377, "bike_id": "78c40b03ca5cb05c9de59a75899a9577", "fusion_lon": 0.0}, {"rental_uris": {"ios": "https://dc.lft.to/lastmile_qr_scan", "android": "https://dc.lft.to/lastmile_qr_scan"}, "type": "electric_scooter", "name": "636bc9582ec1d8671ec03d2c69805d77", "is_reserved": 0, "lon": -77.03834933333333, "is_disabled": 0, "fusion_lat": 0.0, "lat": 38.91189416666667, "bike_id": "636bc9582ec1d8671ec03d2c69805d77", "fusion_lon": 0.0}, {"rental_uris": {"ios": "https://dc.lft.to/lastmile_qr_scan", "android": "https://dc.lft.to/lastmile_qr_scan"}, "type": "electric_bike", "name": "956375d273d6721da0557c06c3d523c2", "is_reserved": 0, "lon": -76.9876445, "is_disabled": 0, "fusion_lat": 0.0, "lat": 38.85763166666667, "bike_id": "956375d273d6721da0557c06c3d523c2", "fusion_lon": 0.0}, {"rental_uris": {"ios": "https://dc.lft.to/lastmile_qr_scan", "android": "https://dc.lft.to/lastmile_qr_scan"}, "type": "electric_scooter", "name": "faa6d5a04161e501b0361d096021cef3", "is_reserved": 0, "lon": -76.98831616666666, "is_disabled": 0, "fusion_lat": 0.0, "lat": 38.89494283333333, "bike_id": "faa6d5a04161e501b0361d096021cef3", "fusion_lon": 0.0}, {"rental_uris": {"ios": "https://dc.lft.to/lastmile_qr_scan", "android": "https://dc.lft.to/lastmile_qr_scan"}, "type": "electric_scooter", "name": "31da0b234d85a506cce27622b1cf8c8a", "is_reserved": 0, "lon": -77.03698783333333, "is_disabled": 0, "fusion_lat": 0.0, "lat": 38.9264185, "bike_id": "31da0b234d85a506cce27622b1cf8c8a", "fusion_lon": 0.0}, {"rental_uris": {"ios": "https://dc.lft.to/lastmile_qr_scan", "android": "https://dc.lft.to/lastmile_qr_scan"}, "type": "electric_scooter", "name": "d5a3790150be334429edc58686970be4", "is_reserved": 0, "lon": -77.04335766666667, "is_disabled": 0, "fusion_lat": 0.0, "lat": 38.90727016666666, "bike_id": "d5a3790150be334429edc58686970be4", "fusion_lon": 0.0}, {"rental_uris": {"ios": "https://dc.lft.to/lastmile_qr_scan", "android": "https://dc.lft.to/lastmile_qr_scan"}, "type": "electric_scooter", "name": "5476932bc494ed131fbf854438ae582f", "is_reserved": 0, "lon": -77.01972716666667, "is_disabled": 0, "fusion_lat": 0.0, "lat": 38.91900183333333, "bike_id": "5476932bc494ed131fbf854438ae582f", "fusion_lon": 0.0}, {"rental_uris": {"ios": "https://dc.lft.to/lastmile_qr_scan", "android": "https://dc.lft.to/lastmile_qr_scan"}, "type": "electric_scooter", "name": "53db4fae1e514069a146a1062f1ff1cf", "is_reserved": 0, "lon": -76.9976075, "is_disabled": 0, "fusion_lat": 0.0, "lat": 38.9217085, "bike_id": "53db4fae1e514069a146a1062f1ff1cf", "fusion_lon": 0.0}, {"rental_uris": {"ios": "https://dc.lft.to/lastmile_qr_scan", "android": "https://dc.lft.to/lastmile_qr_scan"}, "type": "electric_scooter", "name": "d1e952ec71391cb9d7bee541890f36c1", "is_reserved": 0, "lon": -77.031479, "is_disabled": 0, "fusion_lat": 0.0, "lat": 38.91415166666667, "bike_id": "d1e952ec71391cb9d7bee541890f36c1", "fusion_lon": 0.0}, {"rental_uris": {"ios": "https://dc.lft.to/lastmile_qr_scan", "android": "https://dc.lft.to/lastmile_qr_scan"}, "type": "electric_scooter", "name": "96cd0a42fb97578c0414e404ca374861", "is_reserved": 0, "lon": -77.04361066666667, "is_disabled": 0, "fusion_lat": 0.0, "lat": 38.9055875, "bike_id": "96cd0a42fb97578c0414e404ca374861", "fusion_lon": 0.0}, {"rental_uris": {"ios": "https://dc.lft.to/lastmile_qr_scan", "android": "https://dc.lft.to/lastmile_qr_scan"}, "type": "electric_scooter", "name": "65fc728ba7aafb52031a38737c0f5a39", "is_reserved": 0, "lon": -77.0383075, "is_disabled": 0, "fusion_lat": 0.0, "lat": 38.91123233333333, "bike_id": "65fc728ba7aafb52031a38737c0f5a39", "fusion_lon": 0.0}, {"rental_uris": {"ios": "https://dc.lft.to/lastmile_qr_scan", "android": "https://dc.lft.to/lastmile_qr_scan"}, "type": "electric_scooter", "name": "37aa3f777e59318f91f113e74db87458", "is_reserved": 0, "lon": -77.00554983333333, "is_disabled": 0, "fusion_lat": 0.0, "lat": 38.900406833333335, "bike_id": "37aa3f777e59318f91f113e74db87458", "fusion_lon": 0.0}, {"rental_uris": {"ios": "https://dc.lft.to/lastmile_qr_scan", "android": "https://dc.lft.to/lastmile_qr_scan"}, "type": "electric_scooter", "name": "a30589834e0e93e8de8728cfa0876611", "is_reserved": 0, "lon": -76.9837775, "is_disabled": 0, "fusion_lat": 0.0, "lat": 38.86127283333333, "bike_id": "a30589834e0e93e8de8728cfa0876611", "fusion_lon": 0.0}, {"rental_uris": {"ios": "https://dc.lft.to/lastmile_qr_scan", "android": "https://dc.lft.to/lastmile_qr_scan"}, "type": "electric_scooter", "name": "06ae497c7fdea78baa1e9bb39f05bbb1", "is_reserved": 0, "lon": -77.06283166666667, "is_disabled": 0, "fusion_lat": 0.0, "lat": 38.91243866666667, "bike_id": "06ae497c7fdea78baa1e9bb39f05bbb1", "fusion_lon": 0.0}, {"rental_uris": {"ios": "https://dc.lft.to/lastmile_qr_scan", "android": "https://dc.lft.to/lastmile_qr_scan"}, "type": "electric_scooter", "name": "91d72061ca051fbfd3a19cadca2d9f0b", "is_reserved": 0, "lon": -77.02302616666667, "is_disabled": 0, "fusion_lat": 0.0, "lat": 38.92723266666667, "bike_id": "91d72061ca051fbfd3a19cadca2d9f0b", "fusion_lon": 0.0}, {"rental_uris": {"ios": "https://dc.lft.to/lastmile_qr_scan", "android": "https://dc.lft.to/lastmile_qr_scan"}, "type": "electric_scooter", "name": "4c3ac7ac2ff6e3c9dd5fa471d9efd567", "is_reserved": 0, "lon": -77.02269166666666, "is_disabled": 0, "fusion_lat": 0.0, "lat": 38.92474416666667, "bike_id": "4c3ac7ac2ff6e3c9dd5fa471d9efd567", "fusion_lon": 0.0}, {"rental_uris": {"ios": "https://dc.lft.to/lastmile_qr_scan", "android": "https://dc.lft.to/lastmile_qr_scan"}, "type": "electric_scooter", "name": "2fcc53c290861e0b645e9ad89a78f4b6", "is_reserved": 0, "lon": -77.01583833333333, "is_disabled": 0, "fusion_lat": 0.0, "lat": 38.87652083333333, "bike_id": "2fcc53c290861e0b645e9ad89a78f4b6", "fusion_lon": 0.0}, {"rental_uris": {"ios": "https://dc.lft.to/lastmile_qr_scan", "android": "https://dc.lft.to/lastmile_qr_scan"}, "type": "electric_scooter", "name": "95812011a3fc4cb395ed69868e02f2c4", "is_reserved": 0, "lon": -77.00295516666667, "is_disabled": 0, "fusion_lat": 0.0, "lat": 38.9078885, "bike_id": "95812011a3fc4cb395ed69868e02f2c4", "fusion_lon": 0.0}, {"rental_uris": {"ios": "https://dc.lft.to/lastmile_qr_scan", "android": "https://dc.lft.to/lastmile_qr_scan"}, "type": "electric_scooter", "name": "4a26969865276d2f8ae7d5386ba89e1a", "is_reserved": 0, "lon": -77.07249233333333, "is_disabled": 0, "fusion_lat": 0.0, "lat": 38.9078315, "bike_id": "4a26969865276d2f8ae7d5386ba89e1a", "fusion_lon": 0.0}, {"rental_uris": {"ios": "https://dc.lft.to/lastmile_qr_scan", "android": "https://dc.lft.to/lastmile_qr_scan"}, "type": "electric_scooter", "name": "285ff3715660f29059cbe21320ea6431", "is_reserved": 0, "lon": -76.98086083333334, "is_disabled": 0, "fusion_lat": 0.0, "lat": 38.88959883333333, "bike_id": "285ff3715660f29059cbe21320ea6431", "fusion_lon": 0.0}, {"rental_uris": {"ios": "https://dc.lft.to/lastmile_qr_scan", "android": "https://dc.lft.to/lastmile_qr_scan"}, "type": "electric_scooter", "name": "e62f3a25dd67fffc874851be8daaf2a5", "is_reserved": 0, "lon": -77.048913, "is_disabled": 0, "fusion_lat": 0.0, "lat": 38.90073916666667, "bike_id": "e62f3a25dd67fffc874851be8daaf2a5", "fusion_lon": 0.0}, {"rental_uris": {"ios": "https://dc.lft.to/lastmile_qr_scan", "android": "https://dc.lft.to/lastmile_qr_scan"}, "type": "electric_scooter", "name": "93579b1874256f25b666cf11fd0f9214", "is_reserved": 0, "lon": -77.041161, "is_disabled": 0, "fusion_lat": 0.0, "lat": 38.90240166666667, "bike_id": "93579b1874256f25b666cf11fd0f9214", "fusion_lon": 0.0}, {"rental_uris": {"ios": "https://dc.lft.to/lastmile_qr_scan", "android": "https://dc.lft.to/lastmile_qr_scan"}, "type": "electric_scooter", "name": "9c7b6b04d57be1ea4588859a9afd2289", "is_reserved": 0, "lon": -77.0251675, "is_disabled": 0, "fusion_lat": 0.0, "lat": 38.9140635, "bike_id": "9c7b6b04d57be1ea4588859a9afd2289", "fusion_lon": 0.0}, {"rental_uris": {"ios": "https://dc.lft.to/lastmile_qr_scan", "android": "https://dc.lft.to/lastmile_qr_scan"}, "type": "electric_scooter", "name": "7ce916596e7ff66eab514c2d36e7cb11", "is_reserved": 0, "lon": -77.0401945, "is_disabled": 0, "fusion_lat": 0.0, "lat": 38.899960666666665, "bike_id": "7ce916596e7ff66eab514c2d36e7cb11", "fusion_lon": 0.0}, {"rental_uris": {"ios": "https://dc.lft.to/lastmile_qr_scan", "android": "https://dc.lft.to/lastmile_qr_scan"}, "type": "electric_scooter", "name": "b3767aeb12fcf253d08d93fd8f3efdc3", "is_reserved": 0, "lon": -77.02034616666667, "is_disabled": 0, "fusion_lat": 0.0, "lat": 38.92413466666667, "bike_id": "b3767aeb12fcf253d08d93fd8f3efdc3", "fusion_lon": 0.0}, {"rental_uris": {"ios": "https://dc.lft.to/lastmile_qr_scan", "android": "https://dc.lft.to/lastmile_qr_scan"}, "type": "electric_scooter", "name": "7a518200e683f9152b12d6db0e2d1bc3", "is_reserved": 0, "lon": -77.0020245, "is_disabled": 0, "fusion_lat": 0.0, "lat": 38.90240266666667, "bike_id": "7a518200e683f9152b12d6db0e2d1bc3", "fusion_lon": 0.0}, {"rental_uris": {"ios": "https://dc.lft.to/lastmile_qr_scan", "android": "https://dc.lft.to/lastmile_qr_scan"}, "type": "electric_scooter", "name": "e9543a151b32544b97cd6de650618711", "is_reserved": 0, "lon": -77.0429235, "is_disabled": 0, "fusion_lat": 0.0, "lat": 38.922972666666666, "bike_id": "e9543a151b32544b97cd6de650618711", "fusion_lon": 0.0}, {"rental_uris": {"ios": "https://dc.lft.to/lastmile_qr_scan", "android": "https://dc.lft.to/lastmile_qr_scan"}, "type": "electric_scooter", "name": "c64a023d7be19b0673176581067351f6", "is_reserved": 0, "lon": -77.031783, "is_disabled": 0, "fusion_lat": 0.0, "lat": 38.9149675, "bike_id": "c64a023d7be19b0673176581067351f6", "fusion_lon": 0.0}, {"rental_uris": {"ios": "https://dc.lft.to/lastmile_qr_scan", "android": "https://dc.lft.to/lastmile_qr_scan"}, "type": "electric_scooter", "name": "126e375192b3866982e4169632d9a270", "is_reserved": 0, "lon": -77.0417505, "is_disabled": 0, "fusion_lat": 0.0, "lat": 38.91570683333333, "bike_id": "126e375192b3866982e4169632d9a270", "fusion_lon": 0.0}, {"rental_uris": {"ios": "https://dc.lft.to/lastmile_qr_scan", "android": "https://dc.lft.to/lastmile_qr_scan"}, "type": "electric_scooter", "name": "723b037dc2b81de32bc0903b7bde1f11", "is_reserved": 0, "lon": -77.0298005, "is_disabled": 0, "fusion_lat": 0.0, "lat": 38.92447416666667, "bike_id": "723b037dc2b81de32bc0903b7bde1f11", "fusion_lon": 0.0}, {"rental_uris": {"ios": "https://dc.lft.to/lastmile_qr_scan", "android": "https://dc.lft.to/lastmile_qr_scan"}, "type": "electric_scooter", "name": "b6684b24c44d462553ca334eccea694f", "is_reserved": 0, "lon": -76.99434633333334, "is_disabled": 0, "fusion_lat": 0.0, "lat": 38.94178183333333, "bike_id": "b6684b24c44d462553ca334eccea694f", "fusion_lon": 0.0}, {"rental_uris": {"ios": "https://dc.lft.to/lastmile_qr_scan", "android": "https://dc.lft.to/lastmile_qr_scan"}, "type": "electric_scooter", "name": "d8dd6785bc2997677ca0bdda2f2e01fe", "is_reserved": 0, "lon": -77.03966816666667, "is_disabled": 0, "fusion_lat": 0.0, "lat": 38.90268233333333, "bike_id": "d8dd6785bc2997677ca0bdda2f2e01fe", "fusion_lon": 0.0}, {"rental_uris": {"ios": "https://dc.lft.to/lastmile_qr_scan", "android": "https://dc.lft.to/lastmile_qr_scan"}, "type": "electric_scooter", "name": "7ea4665811dfe11de36f704cf3308603", "is_reserved": 0, "lon": -77.02309433333333, "is_disabled": 0, "fusion_lat": 0.0, "lat": 38.894925666666666, "bike_id": "7ea4665811dfe11de36f704cf3308603", "fusion_lon": 0.0}, {"rental_uris": {"ios": "https://dc.lft.to/lastmile_qr_scan", "android": "https://dc.lft.to/lastmile_qr_scan"}, "type": "electric_scooter", "name": "a0d904bf5876f01d7bc8641ef5133209", "is_reserved": 0, "lon": -77.0319915, "is_disabled": 0, "fusion_lat": 0.0, "lat": 38.90362066666667, "bike_id": "a0d904bf5876f01d7bc8641ef5133209", "fusion_lon": 0.0}, {"rental_uris": {"ios": "https://dc.lft.to/lastmile_qr_scan", "android": "https://dc.lft.to/lastmile_qr_scan"}, "type": "electric_scooter", "name": "ecfebe3e68be93001265bf20e1ca9e11", "is_reserved": 0, "lon": -77.04095583333333, "is_disabled": 0, "fusion_lat": 0.0, "lat": 38.91844583333334, "bike_id": "ecfebe3e68be93001265bf20e1ca9e11", "fusion_lon": 0.0}, {"rental_uris": {"ios": "https://dc.lft.to/lastmile_qr_scan", "android": "https://dc.lft.to/lastmile_qr_scan"}, "type": "electric_scooter", "name": "971af124028bf1d02b9e01cbf03d6d25", "is_reserved": 0, "lon": -77.02033166666666, "is_disabled": 0, "fusion_lat": 0.0, "lat": 38.91553566666666, "bike_id": "971af124028bf1d02b9e01cbf03d6d25", "fusion_lon": 0.0}, {"rental_uris": {"ios": "https://dc.lft.to/lastmile_qr_scan", "android": "https://dc.lft.to/lastmile_qr_scan"}, "type": "electric_scooter", "name": "33d81cf220f8bdd14fd41d78af4659d0", "is_reserved": 0, "lon": -77.04429216666666, "is_disabled": 0, "fusion_lat": 0.0, "lat": 38.9260315, "bike_id": "33d81cf220f8bdd14fd41d78af4659d0", "fusion_lon": 0.0}, {"rental_uris": {"ios": "https://dc.lft.to/lastmile_qr_scan", "android": "https://dc.lft.to/lastmile_qr_scan"}, "type": "electric_scooter", "name": "180ca3431447155bfdb70946f23c52ed", "is_reserved": 0, "lon": -77.01851266666667, "is_disabled": 0, "fusion_lat": 0.0, "lat": 38.9542835, "bike_id": "180ca3431447155bfdb70946f23c52ed", "fusion_lon": 0.0}, {"rental_uris": {"ios": "https://dc.lft.to/lastmile_qr_scan", "android": "https://dc.lft.to/lastmile_qr_scan"}, "type": "electric_scooter", "name": "a9519e0fadaa3c35c58c1f9de8b949c7", "is_reserved": 0, "lon": -77.06898616666666, "is_disabled": 0, "fusion_lat": 0.0, "lat": 38.917458, "bike_id": "a9519e0fadaa3c35c58c1f9de8b949c7", "fusion_lon": 0.0}, {"rental_uris": {"ios": "https://dc.lft.to/lastmile_qr_scan", "android": "https://dc.lft.to/lastmile_qr_scan"}, "type": "electric_scooter", "name": "f7b732b49e1065282815f8ddf6da7fea", "is_reserved": 0, "lon": -77.016848, "is_disabled": 0, "fusion_lat": 0.0, "lat": 38.88124216666667, "bike_id": "f7b732b49e1065282815f8ddf6da7fea", "fusion_lon": 0.0}, {"rental_uris": {"ios": "https://dc.lft.to/lastmile_qr_scan", "android": "https://dc.lft.to/lastmile_qr_scan"}, "type": "electric_scooter", "name": "35113a40039d091948f6ef711501d3c3", "is_reserved": 0, "lon": -77.042092, "is_disabled": 0, "fusion_lat": 0.0, "lat": 38.9240255, "bike_id": "35113a40039d091948f6ef711501d3c3", "fusion_lon": 0.0}, {"rental_uris": {"ios": "https://dc.lft.to/lastmile_qr_scan", "android": "https://dc.lft.to/lastmile_qr_scan"}, "type": "electric_scooter", "name": "e4f19e705d02d226b353a8dd31d03a76", "is_reserved": 0, "lon": -77.0391385, "is_disabled": 0, "fusion_lat": 0.0, "lat": 38.908113, "bike_id": "e4f19e705d02d226b353a8dd31d03a76", "fusion_lon": 0.0}, {"rental_uris": {"ios": "https://dc.lft.to/lastmile_qr_scan", "android": "https://dc.lft.to/lastmile_qr_scan"}, "type": "electric_scooter", "name": "01f79c213cf5587203cb897dc924332a", "is_reserved": 0, "lon": -77.05325116666667, "is_disabled": 0, "fusion_lat": 0.0, "lat": 38.907276833333334, "bike_id": "01f79c213cf5587203cb897dc924332a", "fusion_lon": 0.0}, {"rental_uris": {"ios": "https://dc.lft.to/lastmile_qr_scan", "android": "https://dc.lft.to/lastmile_qr_scan"}, "type": "electric_scooter", "name": "7de9a481637b7e4b627375f0c2917c40", "is_reserved": 0, "lon": -77.03275166666667, "is_disabled": 0, "fusion_lat": 0.0, "lat": 38.9366605, "bike_id": "7de9a481637b7e4b627375f0c2917c40", "fusion_lon": 0.0}, {"rental_uris": {"ios": "https://dc.lft.to/lastmile_qr_scan", "android": "https://dc.lft.to/lastmile_qr_scan"}, "type": "electric_scooter", "name": "4d7a01b07df715ba091b6e04f247404a", "is_reserved": 0, "lon": -77.03216416666666, "is_disabled": 0, "fusion_lat": 0.0, "lat": 38.92067816666667, "bike_id": "4d7a01b07df715ba091b6e04f247404a", "fusion_lon": 0.0}, {"rental_uris": {"ios": "https://dc.lft.to/lastmile_qr_scan", "android": "https://dc.lft.to/lastmile_qr_scan"}, "type": "electric_scooter", "name": "33bfa95715f4ea5f6b66b8d5f259dd00", "is_reserved": 0, "lon": -77.0210485, "is_disabled": 0, "fusion_lat": 0.0, "lat": 38.921786166666664, "bike_id": "33bfa95715f4ea5f6b66b8d5f259dd00", "fusion_lon": 0.0}, {"rental_uris": {"ios": "https://dc.lft.to/lastmile_qr_scan", "android": "https://dc.lft.to/lastmile_qr_scan"}, "type": "electric_scooter", "name": "00e786745d04594351db7add4da2cf42", "is_reserved": 0, "lon": -77.04498316666667, "is_disabled": 0, "fusion_lat": 0.0, "lat": 38.91582566666666, "bike_id": "00e786745d04594351db7add4da2cf42", "fusion_lon": 0.0}, {"rental_uris": {"ios": "https://dc.lft.to/lastmile_qr_scan", "android": "https://dc.lft.to/lastmile_qr_scan"}, "type": "electric_bike", "name": "97345d007fdc3d9e11734ede06360197", "is_reserved": 0, "lon": -77.01201616666667, "is_disabled": 0, "fusion_lat": 0.0, "lat": 38.9638195, "bike_id": "97345d007fdc3d9e11734ede06360197", "fusion_lon": 0.0}, {"rental_uris": {"ios": "https://dc.lft.to/lastmile_qr_scan", "android": "https://dc.lft.to/lastmile_qr_scan"}, "type": "electric_scooter", "name": "3574464ded96bd1654598cfb48d68b82", "is_reserved": 0, "lon": -77.021562, "is_disabled": 0, "fusion_lat": 0.0, "lat": 38.91449566666667, "bike_id": "3574464ded96bd1654598cfb48d68b82", "fusion_lon": 0.0}, {"rental_uris": {"ios": "https://dc.lft.to/lastmile_qr_scan", "android": "https://dc.lft.to/lastmile_qr_scan"}, "type": "electric_scooter", "name": "3caede9e95bd4bb09b6d83dbefe0d1c6", "is_reserved": 0, "lon": -77.034211, "is_disabled": 0, "fusion_lat": 0.0, "lat": 38.90963216666667, "bike_id": "3caede9e95bd4bb09b6d83dbefe0d1c6", "fusion_lon": 0.0}, {"rental_uris": {"ios": "https://dc.lft.to/lastmile_qr_scan", "android": "https://dc.lft.to/lastmile_qr_scan"}, "type": "electric_scooter", "name": "97622c5ae42b889d88e3d99da29d824b", "is_reserved": 0, "lon": -77.04331866666666, "is_disabled": 0, "fusion_lat": 0.0, "lat": 38.907166833333335, "bike_id": "97622c5ae42b889d88e3d99da29d824b", "fusion_lon": 0.0}, {"rental_uris": {"ios": "https://dc.lft.to/lastmile_qr_scan", "android": "https://dc.lft.to/lastmile_qr_scan"}, "type": "electric_scooter", "name": "4cd445bf4cfbfa0fca8b6a4284528b16", "is_reserved": 0, "lon": -77.02340283333334, "is_disabled": 0, "fusion_lat": 0.0, "lat": 38.927083333333336, "bike_id": "4cd445bf4cfbfa0fca8b6a4284528b16", "fusion_lon": 0.0}, {"rental_uris": {"ios": "https://dc.lft.to/lastmile_qr_scan", "android": "https://dc.lft.to/lastmile_qr_scan"}, "type": "electric_scooter", "name": "7cbe355778a9238394b7b826b2d4c2ee", "is_reserved": 0, "lon": -76.99587566666666, "is_disabled": 0, "fusion_lat": 0.0, "lat": 38.909407333333334, "bike_id": "7cbe355778a9238394b7b826b2d4c2ee", "fusion_lon": 0.0}, {"rental_uris": {"ios": "https://dc.lft.to/lastmile_qr_scan", "android": "https://dc.lft.to/lastmile_qr_scan"}, "type": "electric_scooter", "name": "84132055ca0c0b2f6494e2415107441c", "is_reserved": 0, "lon": -77.04204416666667, "is_disabled": 0, "fusion_lat": 0.0, "lat": 38.921065, "bike_id": "84132055ca0c0b2f6494e2415107441c", "fusion_lon": 0.0}, {"rental_uris": {"ios": "https://dc.lft.to/lastmile_qr_scan", "android": "https://dc.lft.to/lastmile_qr_scan"}, "type": "electric_scooter", "name": "a713ffa78d894387936b99b14aaebfdc", "is_reserved": 0, "lon": -77.01074683333333, "is_disabled": 0, "fusion_lat": 0.0, "lat": 38.911958166666665, "bike_id": "a713ffa78d894387936b99b14aaebfdc", "fusion_lon": 0.0}, {"rental_uris": {"ios": "https://dc.lft.to/lastmile_qr_scan", "android": "https://dc.lft.to/lastmile_qr_scan"}, "type": "electric_scooter", "name": "e2df38169676ee0b45f3516db91fad62", "is_reserved": 0, "lon": -77.02432483333334, "is_disabled": 0, "fusion_lat": 0.0, "lat": 38.941999333333335, "bike_id": "e2df38169676ee0b45f3516db91fad62", "fusion_lon": 0.0}, {"rental_uris": {"ios": "https://dc.lft.to/lastmile_qr_scan", "android": "https://dc.lft.to/lastmile_qr_scan"}, "type": "electric_scooter", "name": "d9fc59ad35ade81ee88e83e892603a35", "is_reserved": 0, "lon": -77.00427483333333, "is_disabled": 0, "fusion_lat": 0.0, "lat": 38.8765535, "bike_id": "d9fc59ad35ade81ee88e83e892603a35", "fusion_lon": 0.0}, {"rental_uris": {"ios": "https://dc.lft.to/lastmile_qr_scan", "android": "https://dc.lft.to/lastmile_qr_scan"}, "type": "electric_scooter", "name": "5de3da8b5132f4051ee20b497ca67389", "is_reserved": 0, "lon": -77.00856783333333, "is_disabled": 0, "fusion_lat": 0.0, "lat": 38.923967, "bike_id": "5de3da8b5132f4051ee20b497ca67389", "fusion_lon": 0.0}, {"rental_uris": {"ios": "https://dc.lft.to/lastmile_qr_scan", "android": "https://dc.lft.to/lastmile_qr_scan"}, "type": "electric_scooter", "name": "a7731022609ab4a41c8f073cbb0e93d4", "is_reserved": 0, "lon": -77.02295383333333, "is_disabled": 0, "fusion_lat": 0.0, "lat": 38.907589, "bike_id": "a7731022609ab4a41c8f073cbb0e93d4", "fusion_lon": 0.0}, {"rental_uris": {"ios": "https://dc.lft.to/lastmile_qr_scan", "android": "https://dc.lft.to/lastmile_qr_scan"}, "type": "electric_scooter", "name": "5f1879351e3903fb3a016e4440fa9ca8", "is_reserved": 0, "lon": -77.04652883333333, "is_disabled": 0, "fusion_lat": 0.0, "lat": 38.89622633333333, "bike_id": "5f1879351e3903fb3a016e4440fa9ca8", "fusion_lon": 0.0}, {"rental_uris": {"ios": "https://dc.lft.to/lastmile_qr_scan", "android": "https://dc.lft.to/lastmile_qr_scan"}, "type": "electric_scooter", "name": "0d1b7e1cae46bb30d8104f128d11c55f", "is_reserved": 0, "lon": -77.02419466666667, "is_disabled": 0, "fusion_lat": 0.0, "lat": 38.918487166666665, "bike_id": "0d1b7e1cae46bb30d8104f128d11c55f", "fusion_lon": 0.0}, {"rental_uris": {"ios": "https://dc.lft.to/lastmile_qr_scan", "android": "https://dc.lft.to/lastmile_qr_scan"}, "type": "electric_scooter", "name": "f7d402c1f0aa1e31808cc81fb4313e42", "is_reserved": 0, "lon": -77.019852, "is_disabled": 0, "fusion_lat": 0.0, "lat": 38.91050033333333, "bike_id": "f7d402c1f0aa1e31808cc81fb4313e42", "fusion_lon": 0.0}, {"rental_uris": {"ios": "https://dc.lft.to/lastmile_qr_scan", "android": "https://dc.lft.to/lastmile_qr_scan"}, "type": "electric_scooter", "name": "666a534a720f65bf3b856f7d38419781", "is_reserved": 0, "lon": -77.0435025, "is_disabled": 0, "fusion_lat": 0.0, "lat": 38.92171283333333, "bike_id": "666a534a720f65bf3b856f7d38419781", "fusion_lon": 0.0}, {"rental_uris": {"ios": "https://dc.lft.to/lastmile_qr_scan", "android": "https://dc.lft.to/lastmile_qr_scan"}, "type": "electric_scooter", "name": "fab8bd66fd1ecbc8579436a87c4e1316", "is_reserved": 0, "lon": -77.04053183333333, "is_disabled": 0, "fusion_lat": 0.0, "lat": 38.90130633333333, "bike_id": "fab8bd66fd1ecbc8579436a87c4e1316", "fusion_lon": 0.0}, {"rental_uris": {"ios": "https://dc.lft.to/lastmile_qr_scan", "android": "https://dc.lft.to/lastmile_qr_scan"}, "type": "electric_scooter", "name": "83af4ae77c8ed2cb98e509d3cac62ac2", "is_reserved": 0, "lon": -76.97328316666666, "is_disabled": 0, "fusion_lat": 0.0, "lat": 38.90412, "bike_id": "83af4ae77c8ed2cb98e509d3cac62ac2", "fusion_lon": 0.0}, {"rental_uris": {"ios": "https://dc.lft.to/lastmile_qr_scan", "android": "https://dc.lft.to/lastmile_qr_scan"}, "type": "electric_scooter", "name": "5d12a78bf216b7637755b0d686664839", "is_reserved": 0, "lon": -77.0272075, "is_disabled": 0, "fusion_lat": 0.0, "lat": 38.90553716666667, "bike_id": "5d12a78bf216b7637755b0d686664839", "fusion_lon": 0.0}, {"rental_uris": {"ios": "https://dc.lft.to/lastmile_qr_scan", "android": "https://dc.lft.to/lastmile_qr_scan"}, "type": "electric_scooter", "name": "78fd31e148f54d573b0591f39927a8d3", "is_reserved": 0, "lon": -77.0343025, "is_disabled": 0, "fusion_lat": 0.0, "lat": 38.90791883333333, "bike_id": "78fd31e148f54d573b0591f39927a8d3", "fusion_lon": 0.0}, {"rental_uris": {"ios": "https://dc.lft.to/lastmile_qr_scan", "android": "https://dc.lft.to/lastmile_qr_scan"}, "type": "electric_scooter", "name": "6b8fc6367a644c1a890b0a53c9272c33", "is_reserved": 0, "lon": -77.005858, "is_disabled": 0, "fusion_lat": 0.0, "lat": 38.885206333333336, "bike_id": "6b8fc6367a644c1a890b0a53c9272c33", "fusion_lon": 0.0}, {"rental_uris": {"ios": "https://dc.lft.to/lastmile_qr_scan", "android": "https://dc.lft.to/lastmile_qr_scan"}, "type": "electric_scooter", "name": "4b1113a05f883c863a5b366bb45ee816", "is_reserved": 0, "lon": -77.00916633333334, "is_disabled": 0, "fusion_lat": 0.0, "lat": 38.9183495, "bike_id": "4b1113a05f883c863a5b366bb45ee816", "fusion_lon": 0.0}, {"rental_uris": {"ios": "https://dc.lft.to/lastmile_qr_scan", "android": "https://dc.lft.to/lastmile_qr_scan"}, "type": "electric_bike", "name": "34e53ee2ea2d811f29ec45f539b59bef", "is_reserved": 0, "lon": -77.035241, "is_disabled": 0, "fusion_lat": 0.0, "lat": 38.933663333333335, "bike_id": "34e53ee2ea2d811f29ec45f539b59bef", "fusion_lon": 0.0}, {"rental_uris": {"ios": "https://dc.lft.to/lastmile_qr_scan", "android": "https://dc.lft.to/lastmile_qr_scan"}, "type": "electric_bike", "name": "36d2db44795660b202d47a1d7020232c", "is_reserved": 0, "lon": -76.959763, "is_disabled": 0, "fusion_lat": 0.0, "lat": 38.92562983333333, "bike_id": "36d2db44795660b202d47a1d7020232c", "fusion_lon": 0.0}, {"rental_uris": {"ios": "https://dc.lft.to/lastmile_qr_scan", "android": "https://dc.lft.to/lastmile_qr_scan"}, "type": "electric_scooter", "name": "eb2d6fb5f309f5ad56198f05b0422611", "is_reserved": 0, "lon": -77.02946833333333, "is_disabled": 0, "fusion_lat": 0.0, "lat": 38.8839325, "bike_id": "eb2d6fb5f309f5ad56198f05b0422611", "fusion_lon": 0.0}, {"rental_uris": {"ios": "https://dc.lft.to/lastmile_qr_scan", "android": "https://dc.lft.to/lastmile_qr_scan"}, "type": "electric_bike", "name": "513007d9ed79a7a74b9b4dce2d7ffb43", "is_reserved": 0, "lon": -77.02393783333333, "is_disabled": 0, "fusion_lat": 0.0, "lat": 38.881933833333335, "bike_id": "513007d9ed79a7a74b9b4dce2d7ffb43", "fusion_lon": 0.0}, {"rental_uris": {"ios": "https://dc.lft.to/lastmile_qr_scan", "android": "https://dc.lft.to/lastmile_qr_scan"}, "type": "electric_scooter", "name": "d54eeefeb3c21202ad25fbff248977cf", "is_reserved": 0, "lon": -77.01100566666666, "is_disabled": 0, "fusion_lat": 0.0, "lat": 38.885396666666665, "bike_id": "d54eeefeb3c21202ad25fbff248977cf", "fusion_lon": 0.0}, {"rental_uris": {"ios": "https://dc.lft.to/lastmile_qr_scan", "android": "https://dc.lft.to/lastmile_qr_scan"}, "type": "electric_scooter", "name": "849b80bca95ce41ace96102a8001ef1a", "is_reserved": 0, "lon": -77.02180083333333, "is_disabled": 0, "fusion_lat": 0.0, "lat": 38.91198816666667, "bike_id": "849b80bca95ce41ace96102a8001ef1a", "fusion_lon": 0.0}, {"rental_uris": {"ios": "https://dc.lft.to/lastmile_qr_scan", "android": "https://dc.lft.to/lastmile_qr_scan"}, "type": "electric_scooter", "name": "3b56c5c60e916d5956987bc385e7aee9", "is_reserved": 0, "lon": -77.04707133333334, "is_disabled": 0, "fusion_lat": 0.0, "lat": 38.922245333333336, "bike_id": "3b56c5c60e916d5956987bc385e7aee9", "fusion_lon": 0.0}, {"rental_uris": {"ios": "https://dc.lft.to/lastmile_qr_scan", "android": "https://dc.lft.to/lastmile_qr_scan"}, "type": "electric_scooter", "name": "ea614afd1d14d14d40488a64a5b1c205", "is_reserved": 0, "lon": -77.027105, "is_disabled": 0, "fusion_lat": 0.0, "lat": 38.8813375, "bike_id": "ea614afd1d14d14d40488a64a5b1c205", "fusion_lon": 0.0}, {"rental_uris": {"ios": "https://dc.lft.to/lastmile_qr_scan", "android": "https://dc.lft.to/lastmile_qr_scan"}, "type": "electric_scooter", "name": "90cba8f1db83669959a4364361a3dc5a", "is_reserved": 0, "lon": -77.02598433333333, "is_disabled": 0, "fusion_lat": 0.0, "lat": 38.916908166666666, "bike_id": "90cba8f1db83669959a4364361a3dc5a", "fusion_lon": 0.0}, {"rental_uris": {"ios": "https://dc.lft.to/lastmile_qr_scan", "android": "https://dc.lft.to/lastmile_qr_scan"}, "type": "electric_scooter", "name": "4e4640525855f0b5d668da0f11c08f59", "is_reserved": 0, "lon": -77.02664766666666, "is_disabled": 0, "fusion_lat": 0.0, "lat": 38.89984883333333, "bike_id": "4e4640525855f0b5d668da0f11c08f59", "fusion_lon": 0.0}, {"rental_uris": {"ios": "https://dc.lft.to/lastmile_qr_scan", "android": "https://dc.lft.to/lastmile_qr_scan"}, "type": "electric_scooter", "name": "ed16e911e23e6b3c3a550e86dd9ccb80", "is_reserved": 0, "lon": -77.03403766666666, "is_disabled": 0, "fusion_lat": 0.0, "lat": 38.92266816666667, "bike_id": "ed16e911e23e6b3c3a550e86dd9ccb80", "fusion_lon": 0.0}, {"rental_uris": {"ios": "https://dc.lft.to/lastmile_qr_scan", "android": "https://dc.lft.to/lastmile_qr_scan"}, "type": "electric_scooter", "name": "db7b16f609f63ada7b5d736ac6a4c180", "is_reserved": 0, "lon": -77.03470783333333, "is_disabled": 0, "fusion_lat": 0.0, "lat": 38.904712, "bike_id": "db7b16f609f63ada7b5d736ac6a4c180", "fusion_lon": 0.0}, {"rental_uris": {"ios": "https://dc.lft.to/lastmile_qr_scan", "android": "https://dc.lft.to/lastmile_qr_scan"}, "type": "electric_scooter", "name": "a5b5d40e893b22c987e3b1d3f298c369", "is_reserved": 0, "lon": -76.98377016666667, "is_disabled": 0, "fusion_lat": 0.0, "lat": 38.86687283333333, "bike_id": "a5b5d40e893b22c987e3b1d3f298c369", "fusion_lon": 0.0}, {"rental_uris": {"ios": "https://dc.lft.to/lastmile_qr_scan", "android": "https://dc.lft.to/lastmile_qr_scan"}, "type": "electric_scooter", "name": "14a8ea9d9fd61a392032215a6841268a", "is_reserved": 0, "lon": -77.01455516666667, "is_disabled": 0, "fusion_lat": 0.0, "lat": 38.91769716666667, "bike_id": "14a8ea9d9fd61a392032215a6841268a", "fusion_lon": 0.0}, {"rental_uris": {"ios": "https://dc.lft.to/lastmile_qr_scan", "android": "https://dc.lft.to/lastmile_qr_scan"}, "type": "electric_scooter", "name": "7b54f47ffb732031039b8c95caff8bcf", "is_reserved": 0, "lon": -77.02404916666667, "is_disabled": 0, "fusion_lat": 0.0, "lat": 38.90041866666667, "bike_id": "7b54f47ffb732031039b8c95caff8bcf", "fusion_lon": 0.0}, {"rental_uris": {"ios": "https://dc.lft.to/lastmile_qr_scan", "android": "https://dc.lft.to/lastmile_qr_scan"}, "type": "electric_scooter", "name": "b8b29a3d8eb7956571f1d35ae3628a04", "is_reserved": 0, "lon": -77.0093455, "is_disabled": 0, "fusion_lat": 0.0, "lat": 38.8767205, "bike_id": "b8b29a3d8eb7956571f1d35ae3628a04", "fusion_lon": 0.0}, {"rental_uris": {"ios": "https://dc.lft.to/lastmile_qr_scan", "android": "https://dc.lft.to/lastmile_qr_scan"}, "type": "electric_scooter", "name": "0461f7456c550547a9ba84d75c80d400", "is_reserved": 0, "lon": -77.03469916666667, "is_disabled": 0, "fusion_lat": 0.0, "lat": 38.93022233333333, "bike_id": "0461f7456c550547a9ba84d75c80d400", "fusion_lon": 0.0}, {"rental_uris": {"ios": "https://dc.lft.to/lastmile_qr_scan", "android": "https://dc.lft.to/lastmile_qr_scan"}, "type": "electric_scooter", "name": "87bbcaf3b9af7e98fa54a90095502e8a", "is_reserved": 0, "lon": -76.9971145, "is_disabled": 0, "fusion_lat": 0.0, "lat": 38.90976833333333, "bike_id": "87bbcaf3b9af7e98fa54a90095502e8a", "fusion_lon": 0.0}, {"rental_uris": {"ios": "https://dc.lft.to/lastmile_qr_scan", "android": "https://dc.lft.to/lastmile_qr_scan"}, "type": "electric_scooter", "name": "a3afba6fbb4e5580c378652951eaacd9", "is_reserved": 0, "lon": -77.02951083333333, "is_disabled": 0, "fusion_lat": 0.0, "lat": 38.917995833333336, "bike_id": "a3afba6fbb4e5580c378652951eaacd9", "fusion_lon": 0.0}, {"rental_uris": {"ios": "https://dc.lft.to/lastmile_qr_scan", "android": "https://dc.lft.to/lastmile_qr_scan"}, "type": "electric_scooter", "name": "021747e873fdae59cbeb27a4720ecf8a", "is_reserved": 0, "lon": -77.02727866666666, "is_disabled": 0, "fusion_lat": 0.0, "lat": 38.904708166666666, "bike_id": "021747e873fdae59cbeb27a4720ecf8a", "fusion_lon": 0.0}, {"rental_uris": {"ios": "https://dc.lft.to/lastmile_qr_scan", "android": "https://dc.lft.to/lastmile_qr_scan"}, "type": "electric_bike", "name": "5c5f53b634d912f4ed812b6f1b750151", "is_reserved": 0, "lon": -76.9834685, "is_disabled": 0, "fusion_lat": 0.0, "lat": 38.862588, "bike_id": "5c5f53b634d912f4ed812b6f1b750151", "fusion_lon": 0.0}, {"rental_uris": {"ios": "https://dc.lft.to/lastmile_qr_scan", "android": "https://dc.lft.to/lastmile_qr_scan"}, "type": "electric_scooter", "name": "cb5f98a8734932ae2aa7f229c353b9d4", "is_reserved": 0, "lon": -77.02341633333333, "is_disabled": 0, "fusion_lat": 0.0, "lat": 38.91766583333333, "bike_id": "cb5f98a8734932ae2aa7f229c353b9d4", "fusion_lon": 0.0}, {"rental_uris": {"ios": "https://dc.lft.to/lastmile_qr_scan", "android": "https://dc.lft.to/lastmile_qr_scan"}, "type": "electric_scooter", "name": "880197c14262764e457e9f9d8c42367c", "is_reserved": 0, "lon": -77.04736683333333, "is_disabled": 0, "fusion_lat": 0.0, "lat": 38.912559333333334, "bike_id": "880197c14262764e457e9f9d8c42367c", "fusion_lon": 0.0}, {"rental_uris": {"ios": "https://dc.lft.to/lastmile_qr_scan", "android": "https://dc.lft.to/lastmile_qr_scan"}, "type": "electric_bike", "name": "efcedb3f37b152406ac434c99273b773", "is_reserved": 0, "lon": -76.99590966666666, "is_disabled": 0, "fusion_lat": 0.0, "lat": 38.86236, "bike_id": "efcedb3f37b152406ac434c99273b773", "fusion_lon": 0.0}, {"rental_uris": {"ios": "https://dc.lft.to/lastmile_qr_scan", "android": "https://dc.lft.to/lastmile_qr_scan"}, "type": "electric_scooter", "name": "131a25e131fba28e9b1d555328eb0345", "is_reserved": 0, "lon": -77.020553, "is_disabled": 0, "fusion_lat": 0.0, "lat": 38.922483, "bike_id": "131a25e131fba28e9b1d555328eb0345", "fusion_lon": 0.0}, {"rental_uris": {"ios": "https://dc.lft.to/lastmile_qr_scan", "android": "https://dc.lft.to/lastmile_qr_scan"}, "type": "electric_scooter", "name": "a9dd5294d589631f04ec7a75c1b8a40a", "is_reserved": 0, "lon": -76.9941365, "is_disabled": 0, "fusion_lat": 0.0, "lat": 38.87787633333333, "bike_id": "a9dd5294d589631f04ec7a75c1b8a40a", "fusion_lon": 0.0}, {"rental_uris": {"ios": "https://dc.lft.to/lastmile_qr_scan", "android": "https://dc.lft.to/lastmile_qr_scan"}, "type": "electric_scooter", "name": "e685b1ee76e0d058b8360e511721afcb", "is_reserved": 0, "lon": -76.9979695, "is_disabled": 0, "fusion_lat": 0.0, "lat": 38.885598333333334, "bike_id": "e685b1ee76e0d058b8360e511721afcb", "fusion_lon": 0.0}, {"rental_uris": {"ios": "https://dc.lft.to/lastmile_qr_scan", "android": "https://dc.lft.to/lastmile_qr_scan"}, "type": "electric_scooter", "name": "61da70eba0766d289d08471717c916e2", "is_reserved": 0, "lon": -77.02306066666667, "is_disabled": 0, "fusion_lat": 0.0, "lat": 38.92999183333333, "bike_id": "61da70eba0766d289d08471717c916e2", "fusion_lon": 0.0}, {"rental_uris": {"ios": "https://dc.lft.to/lastmile_qr_scan", "android": "https://dc.lft.to/lastmile_qr_scan"}, "type": "electric_scooter", "name": "18fe2b7a81ec9b196d0cae53c3ed1971", "is_reserved": 0, "lon": -76.95202416666666, "is_disabled": 0, "fusion_lat": 0.0, "lat": 38.905116166666666, "bike_id": "18fe2b7a81ec9b196d0cae53c3ed1971", "fusion_lon": 0.0}, {"rental_uris": {"ios": "https://dc.lft.to/lastmile_qr_scan", "android": "https://dc.lft.to/lastmile_qr_scan"}, "type": "electric_scooter", "name": "fb4da841669f784c44df499f86c5063d", "is_reserved": 0, "lon": -77.03864766666666, "is_disabled": 0, "fusion_lat": 0.0, "lat": 38.90805066666667, "bike_id": "fb4da841669f784c44df499f86c5063d", "fusion_lon": 0.0}, {"rental_uris": {"ios": "https://dc.lft.to/lastmile_qr_scan", "android": "https://dc.lft.to/lastmile_qr_scan"}, "type": "electric_scooter", "name": "3fc36470cd9b96f3dda704e6c91a1f23", "is_reserved": 0, "lon": -77.03770966666667, "is_disabled": 0, "fusion_lat": 0.0, "lat": 38.92563833333333, "bike_id": "3fc36470cd9b96f3dda704e6c91a1f23", "fusion_lon": 0.0}, {"rental_uris": {"ios": "https://dc.lft.to/lastmile_qr_scan", "android": "https://dc.lft.to/lastmile_qr_scan"}, "type": "electric_scooter", "name": "5c1f7fa5fefaf0150838c0bbfe917c88", "is_reserved": 0, "lon": -76.99927083333333, "is_disabled": 0, "fusion_lat": 0.0, "lat": 38.957576833333334, "bike_id": "5c1f7fa5fefaf0150838c0bbfe917c88", "fusion_lon": 0.0}, {"rental_uris": {"ios": "https://dc.lft.to/lastmile_qr_scan", "android": "https://dc.lft.to/lastmile_qr_scan"}, "type": "electric_scooter", "name": "cbc207c42c71b642d714d4306191133c", "is_reserved": 0, "lon": -77.032712, "is_disabled": 0, "fusion_lat": 0.0, "lat": 38.90429783333333, "bike_id": "cbc207c42c71b642d714d4306191133c", "fusion_lon": 0.0}, {"rental_uris": {"ios": "https://dc.lft.to/lastmile_qr_scan", "android": "https://dc.lft.to/lastmile_qr_scan"}, "type": "electric_scooter", "name": "0a461c4c132d2282767816ac7ca417eb", "is_reserved": 0, "lon": -77.05239316666666, "is_disabled": 0, "fusion_lat": 0.0, "lat": 38.8999885, "bike_id": "0a461c4c132d2282767816ac7ca417eb", "fusion_lon": 0.0}, {"rental_uris": {"ios": "https://dc.lft.to/lastmile_qr_scan", "android": "https://dc.lft.to/lastmile_qr_scan"}, "type": "electric_scooter", "name": "afb6a09f3642f9eecdddde5221a47290", "is_reserved": 0, "lon": -77.0176625, "is_disabled": 0, "fusion_lat": 0.0, "lat": 38.920392, "bike_id": "afb6a09f3642f9eecdddde5221a47290", "fusion_lon": 0.0}, {"rental_uris": {"ios": "https://dc.lft.to/lastmile_qr_scan", "android": "https://dc.lft.to/lastmile_qr_scan"}, "type": "electric_scooter", "name": "ec9b3038d0a82ce36b694beedc314829", "is_reserved": 0, "lon": -77.042581, "is_disabled": 0, "fusion_lat": 0.0, "lat": 38.90425033333333, "bike_id": "ec9b3038d0a82ce36b694beedc314829", "fusion_lon": 0.0}, {"rental_uris": {"ios": "https://dc.lft.to/lastmile_qr_scan", "android": "https://dc.lft.to/lastmile_qr_scan"}, "type": "electric_scooter", "name": "57f101db6a85018f4336b0175d129e7b", "is_reserved": 0, "lon": -77.0077665, "is_disabled": 0, "fusion_lat": 0.0, "lat": 38.897373, "bike_id": "57f101db6a85018f4336b0175d129e7b", "fusion_lon": 0.0}, {"rental_uris": {"ios": "https://dc.lft.to/lastmile_qr_scan", "android": "https://dc.lft.to/lastmile_qr_scan"}, "type": "electric_bike", "name": "026ee46be3d417137c3501b88c4f5738", "is_reserved": 0, "lon": -76.93749383333333, "is_disabled": 0, "fusion_lat": 0.0, "lat": 38.871467333333335, "bike_id": "026ee46be3d417137c3501b88c4f5738", "fusion_lon": 0.0}, {"rental_uris": {"ios": "https://dc.lft.to/lastmile_qr_scan", "android": "https://dc.lft.to/lastmile_qr_scan"}, "type": "electric_scooter", "name": "a6e00ae96d378c019d11c7ab5f34949d", "is_reserved": 0, "lon": -77.01980283333333, "is_disabled": 0, "fusion_lat": 0.0, "lat": 38.952139333333335, "bike_id": "a6e00ae96d378c019d11c7ab5f34949d", "fusion_lon": 0.0}, {"rental_uris": {"ios": "https://dc.lft.to/lastmile_qr_scan", "android": "https://dc.lft.to/lastmile_qr_scan"}, "type": "electric_scooter", "name": "3e74a9677e02d83a40b177669d152065", "is_reserved": 0, "lon": -76.99333816666666, "is_disabled": 0, "fusion_lat": 0.0, "lat": 38.915841666666665, "bike_id": "3e74a9677e02d83a40b177669d152065", "fusion_lon": 0.0}, {"rental_uris": {"ios": "https://dc.lft.to/lastmile_qr_scan", "android": "https://dc.lft.to/lastmile_qr_scan"}, "type": "electric_scooter", "name": "0bbee839fb6115e52345a1ac3a6468d2", "is_reserved": 0, "lon": -77.0235035, "is_disabled": 0, "fusion_lat": 0.0, "lat": 38.930459666666664, "bike_id": "0bbee839fb6115e52345a1ac3a6468d2", "fusion_lon": 0.0}, {"rental_uris": {"ios": "https://dc.lft.to/lastmile_qr_scan", "android": "https://dc.lft.to/lastmile_qr_scan"}, "type": "electric_scooter", "name": "f405d42a6104670792a051f6d5db4815", "is_reserved": 0, "lon": -77.04674316666667, "is_disabled": 0, "fusion_lat": 0.0, "lat": 38.8923645, "bike_id": "f405d42a6104670792a051f6d5db4815", "fusion_lon": 0.0}, {"rental_uris": {"ios": "https://dc.lft.to/lastmile_qr_scan", "android": "https://dc.lft.to/lastmile_qr_scan"}, "type": "electric_scooter", "name": "24ec6f3d0ad7b908046c702f3fcd2584", "is_reserved": 0, "lon": -77.06548666666667, "is_disabled": 0, "fusion_lat": 0.0, "lat": 38.90518316666667, "bike_id": "24ec6f3d0ad7b908046c702f3fcd2584", "fusion_lon": 0.0}, {"rental_uris": {"ios": "https://dc.lft.to/lastmile_qr_scan", "android": "https://dc.lft.to/lastmile_qr_scan"}, "type": "electric_scooter", "name": "343939a19df9dd6241c54e6143f31768", "is_reserved": 0, "lon": -77.05020433333334, "is_disabled": 0, "fusion_lat": 0.0, "lat": 38.910537, "bike_id": "343939a19df9dd6241c54e6143f31768", "fusion_lon": 0.0}, {"rental_uris": {"ios": "https://dc.lft.to/lastmile_qr_scan", "android": "https://dc.lft.to/lastmile_qr_scan"}, "type": "electric_scooter", "name": "6de43e940a7ae08922345d5b53adaff7", "is_reserved": 0, "lon": -77.02214683333334, "is_disabled": 0, "fusion_lat": 0.0, "lat": 38.8789665, "bike_id": "6de43e940a7ae08922345d5b53adaff7", "fusion_lon": 0.0}, {"rental_uris": {"ios": "https://dc.lft.to/lastmile_qr_scan", "android": "https://dc.lft.to/lastmile_qr_scan"}, "type": "electric_scooter", "name": "00f9e5af6d53d6097c8f55dbde34bbb6", "is_reserved": 0, "lon": -77.02363333333334, "is_disabled": 0, "fusion_lat": 0.0, "lat": 38.931522666666666, "bike_id": "00f9e5af6d53d6097c8f55dbde34bbb6", "fusion_lon": 0.0}, {"rental_uris": {"ios": "https://dc.lft.to/lastmile_qr_scan", "android": "https://dc.lft.to/lastmile_qr_scan"}, "type": "electric_scooter", "name": "fe76996aa65109924505a4817d4940be", "is_reserved": 0, "lon": -77.031979, "is_disabled": 0, "fusion_lat": 0.0, "lat": 38.912168, "bike_id": "fe76996aa65109924505a4817d4940be", "fusion_lon": 0.0}, {"rental_uris": {"ios": "https://dc.lft.to/lastmile_qr_scan", "android": "https://dc.lft.to/lastmile_qr_scan"}, "type": "electric_scooter", "name": "4c27fb4b24bef3a4ee29a34c58ce6caf", "is_reserved": 0, "lon": -77.01904583333334, "is_disabled": 0, "fusion_lat": 0.0, "lat": 38.92333133333333, "bike_id": "4c27fb4b24bef3a4ee29a34c58ce6caf", "fusion_lon": 0.0}, {"rental_uris": {"ios": "https://dc.lft.to/lastmile_qr_scan", "android": "https://dc.lft.to/lastmile_qr_scan"}, "type": "electric_scooter", "name": "c117f46b3ff48a88895277eea950f4d7", "is_reserved": 0, "lon": -76.995043, "is_disabled": 0, "fusion_lat": 0.0, "lat": 38.9046715, "bike_id": "c117f46b3ff48a88895277eea950f4d7", "fusion_lon": 0.0}, {"rental_uris": {"ios": "https://dc.lft.to/lastmile_qr_scan", "android": "https://dc.lft.to/lastmile_qr_scan"}, "type": "electric_scooter", "name": "ea7e7fb098371f2a57bde17f90f70273", "is_reserved": 0, "lon": -77.07934733333333, "is_disabled": 0, "fusion_lat": 0.0, "lat": 38.919205833333336, "bike_id": "ea7e7fb098371f2a57bde17f90f70273", "fusion_lon": 0.0}, {"rental_uris": {"ios": "https://dc.lft.to/lastmile_qr_scan", "android": "https://dc.lft.to/lastmile_qr_scan"}, "type": "electric_scooter", "name": "869d5444cb35bfc33b05d16ddfd72799", "is_reserved": 0, "lon": -77.02058016666666, "is_disabled": 0, "fusion_lat": 0.0, "lat": 38.875720666666666, "bike_id": "869d5444cb35bfc33b05d16ddfd72799", "fusion_lon": 0.0}, {"rental_uris": {"ios": "https://dc.lft.to/lastmile_qr_scan", "android": "https://dc.lft.to/lastmile_qr_scan"}, "type": "electric_scooter", "name": "75e041563b9d675ef8d71dc9e0ac3646", "is_reserved": 0, "lon": -77.03493933333333, "is_disabled": 0, "fusion_lat": 0.0, "lat": 38.916930666666666, "bike_id": "75e041563b9d675ef8d71dc9e0ac3646", "fusion_lon": 0.0}, {"rental_uris": {"ios": "https://dc.lft.to/lastmile_qr_scan", "android": "https://dc.lft.to/lastmile_qr_scan"}, "type": "electric_scooter", "name": "14c5dc9ce6a56717fe5a0ca844ba038e", "is_reserved": 0, "lon": -77.02323166666666, "is_disabled": 0, "fusion_lat": 0.0, "lat": 38.92301166666667, "bike_id": "14c5dc9ce6a56717fe5a0ca844ba038e", "fusion_lon": 0.0}, {"rental_uris": {"ios": "https://dc.lft.to/lastmile_qr_scan", "android": "https://dc.lft.to/lastmile_qr_scan"}, "type": "electric_scooter", "name": "2291405ea906264c8cd8a6c1539be1a4", "is_reserved": 0, "lon": -77.0459015, "is_disabled": 0, "fusion_lat": 0.0, "lat": 38.914218, "bike_id": "2291405ea906264c8cd8a6c1539be1a4", "fusion_lon": 0.0}, {"rental_uris": {"ios": "https://dc.lft.to/lastmile_qr_scan", "android": "https://dc.lft.to/lastmile_qr_scan"}, "type": "electric_scooter", "name": "d0d068584c920d418d7bb01eede4cd78", "is_reserved": 0, "lon": -76.99102783333333, "is_disabled": 0, "fusion_lat": 0.0, "lat": 38.857294333333336, "bike_id": "d0d068584c920d418d7bb01eede4cd78", "fusion_lon": 0.0}, {"rental_uris": {"ios": "https://dc.lft.to/lastmile_qr_scan", "android": "https://dc.lft.to/lastmile_qr_scan"}, "type": "electric_scooter", "name": "14982532c12cd8c271d4dd5dbccc0d62", "is_reserved": 0, "lon": -77.03965533333333, "is_disabled": 0, "fusion_lat": 0.0, "lat": 38.924568, "bike_id": "14982532c12cd8c271d4dd5dbccc0d62", "fusion_lon": 0.0}, {"rental_uris": {"ios": "https://dc.lft.to/lastmile_qr_scan", "android": "https://dc.lft.to/lastmile_qr_scan"}, "type": "electric_scooter", "name": "047a45a5491aa37936699b16ba08413c", "is_reserved": 0, "lon": -77.02004166666667, "is_disabled": 0, "fusion_lat": 0.0, "lat": 38.92249266666666, "bike_id": "047a45a5491aa37936699b16ba08413c", "fusion_lon": 0.0}, {"rental_uris": {"ios": "https://dc.lft.to/lastmile_qr_scan", "android": "https://dc.lft.to/lastmile_qr_scan"}, "type": "electric_scooter", "name": "9c43de7c37d11fcca8804385fd42a09a", "is_reserved": 0, "lon": -77.02919416666667, "is_disabled": 0, "fusion_lat": 0.0, "lat": 38.933366666666664, "bike_id": "9c43de7c37d11fcca8804385fd42a09a", "fusion_lon": 0.0}, {"rental_uris": {"ios": "https://dc.lft.to/lastmile_qr_scan", "android": "https://dc.lft.to/lastmile_qr_scan"}, "type": "electric_scooter", "name": "20ddefa4f8b30bb091a913730411b2e2", "is_reserved": 0, "lon": -77.0470895, "is_disabled": 0, "fusion_lat": 0.0, "lat": 38.9132005, "bike_id": "20ddefa4f8b30bb091a913730411b2e2", "fusion_lon": 0.0}, {"rental_uris": {"ios": "https://dc.lft.to/lastmile_qr_scan", "android": "https://dc.lft.to/lastmile_qr_scan"}, "type": "electric_scooter", "name": "43e4f8a37b144ef6495a18bcfd668bbe", "is_reserved": 0, "lon": -77.03170283333333, "is_disabled": 0, "fusion_lat": 0.0, "lat": 38.914177333333335, "bike_id": "43e4f8a37b144ef6495a18bcfd668bbe", "fusion_lon": 0.0}, {"rental_uris": {"ios": "https://dc.lft.to/lastmile_qr_scan", "android": "https://dc.lft.to/lastmile_qr_scan"}, "type": "electric_scooter", "name": "702ad0173e8b181100172077ef28131c", "is_reserved": 0, "lon": -77.0422285, "is_disabled": 0, "fusion_lat": 0.0, "lat": 38.91189083333333, "bike_id": "702ad0173e8b181100172077ef28131c", "fusion_lon": 0.0}, {"rental_uris": {"ios": "https://dc.lft.to/lastmile_qr_scan", "android": "https://dc.lft.to/lastmile_qr_scan"}, "type": "electric_scooter", "name": "b6c18ceb428b1385e256609746cac7f7", "is_reserved": 0, "lon": -77.007208, "is_disabled": 0, "fusion_lat": 0.0, "lat": 38.91109433333333, "bike_id": "b6c18ceb428b1385e256609746cac7f7", "fusion_lon": 0.0}, {"rental_uris": {"ios": "https://dc.lft.to/lastmile_qr_scan", "android": "https://dc.lft.to/lastmile_qr_scan"}, "type": "electric_scooter", "name": "ad47fb7913cb454cd8a10c5043788f7a", "is_reserved": 0, "lon": -77.02709516666667, "is_disabled": 0, "fusion_lat": 0.0, "lat": 38.91816683333333, "bike_id": "ad47fb7913cb454cd8a10c5043788f7a", "fusion_lon": 0.0}, {"rental_uris": {"ios": "https://dc.lft.to/lastmile_qr_scan", "android": "https://dc.lft.to/lastmile_qr_scan"}, "type": "electric_bike", "name": "12ca0496af55864950e60244f39ec9cc", "is_reserved": 0, "lon": -76.9776945, "is_disabled": 0, "fusion_lat": 0.0, "lat": 38.85721783333334, "bike_id": "12ca0496af55864950e60244f39ec9cc", "fusion_lon": 0.0}, {"rental_uris": {"ios": "https://dc.lft.to/lastmile_qr_scan", "android": "https://dc.lft.to/lastmile_qr_scan"}, "type": "electric_scooter", "name": "8c9504dd84d5ddc409211c046003491d", "is_reserved": 0, "lon": -77.026892, "is_disabled": 0, "fusion_lat": 0.0, "lat": 38.897156, "bike_id": "8c9504dd84d5ddc409211c046003491d", "fusion_lon": 0.0}, {"rental_uris": {"ios": "https://dc.lft.to/lastmile_qr_scan", "android": "https://dc.lft.to/lastmile_qr_scan"}, "type": "electric_scooter", "name": "43e509a2763b8dc525b5a76ca6335b93", "is_reserved": 0, "lon": -77.03928483333334, "is_disabled": 0, "fusion_lat": 0.0, "lat": 38.918176333333335, "bike_id": "43e509a2763b8dc525b5a76ca6335b93", "fusion_lon": 0.0}, {"rental_uris": {"ios": "https://dc.lft.to/lastmile_qr_scan", "android": "https://dc.lft.to/lastmile_qr_scan"}, "type": "electric_scooter", "name": "5097d6b286bb58f2cae2a57a996555f9", "is_reserved": 0, "lon": -77.03262033333333, "is_disabled": 0, "fusion_lat": 0.0, "lat": 38.92927983333333, "bike_id": "5097d6b286bb58f2cae2a57a996555f9", "fusion_lon": 0.0}, {"rental_uris": {"ios": "https://dc.lft.to/lastmile_qr_scan", "android": "https://dc.lft.to/lastmile_qr_scan"}, "type": "electric_scooter", "name": "c9933a178530d0e5d36139a7d3d14bc6", "is_reserved": 0, "lon": -77.01369666666666, "is_disabled": 0, "fusion_lat": 0.0, "lat": 38.886781, "bike_id": "c9933a178530d0e5d36139a7d3d14bc6", "fusion_lon": 0.0}, {"rental_uris": {"ios": "https://dc.lft.to/lastmile_qr_scan", "android": "https://dc.lft.to/lastmile_qr_scan"}, "type": "electric_scooter", "name": "e0b05fa1d4876f7886f1585ed0c983db", "is_reserved": 0, "lon": -77.02245016666667, "is_disabled": 0, "fusion_lat": 0.0, "lat": 38.922893333333334, "bike_id": "e0b05fa1d4876f7886f1585ed0c983db", "fusion_lon": 0.0}, {"rental_uris": {"ios": "https://dc.lft.to/lastmile_qr_scan", "android": "https://dc.lft.to/lastmile_qr_scan"}, "type": "electric_bike", "name": "32cbca16e2e517ef93cf8f3df66a0e81", "is_reserved": 0, "lon": -76.91717583333333, "is_disabled": 0, "fusion_lat": 0.0, "lat": 38.88026466666667, "bike_id": "32cbca16e2e517ef93cf8f3df66a0e81", "fusion_lon": 0.0}, {"rental_uris": {"ios": "https://dc.lft.to/lastmile_qr_scan", "android": "https://dc.lft.to/lastmile_qr_scan"}, "type": "electric_scooter", "name": "dc24c821e8d10a02e0bd691f0a0467d6", "is_reserved": 0, "lon": -77.038643, "is_disabled": 0, "fusion_lat": 0.0, "lat": 38.9110845, "bike_id": "dc24c821e8d10a02e0bd691f0a0467d6", "fusion_lon": 0.0}, {"rental_uris": {"ios": "https://dc.lft.to/lastmile_qr_scan", "android": "https://dc.lft.to/lastmile_qr_scan"}, "type": "electric_scooter", "name": "63dfb81cc934c8caeb0bc1c411e0f1d0", "is_reserved": 0, "lon": -77.0633945, "is_disabled": 0, "fusion_lat": 0.0, "lat": 38.90514533333333, "bike_id": "63dfb81cc934c8caeb0bc1c411e0f1d0", "fusion_lon": 0.0}, {"rental_uris": {"ios": "https://dc.lft.to/lastmile_qr_scan", "android": "https://dc.lft.to/lastmile_qr_scan"}, "type": "electric_scooter", "name": "a6f3c6e2ad123e1e091fb52644d2b383", "is_reserved": 0, "lon": -77.03185216666667, "is_disabled": 0, "fusion_lat": 0.0, "lat": 38.9088345, "bike_id": "a6f3c6e2ad123e1e091fb52644d2b383", "fusion_lon": 0.0}, {"rental_uris": {"ios": "https://dc.lft.to/lastmile_qr_scan", "android": "https://dc.lft.to/lastmile_qr_scan"}, "type": "electric_scooter", "name": "c9fd926a561f58b0efc03f59a90a06e6", "is_reserved": 0, "lon": -77.0243045, "is_disabled": 0, "fusion_lat": 0.0, "lat": 38.924019, "bike_id": "c9fd926a561f58b0efc03f59a90a06e6", "fusion_lon": 0.0}, {"rental_uris": {"ios": "https://dc.lft.to/lastmile_qr_scan", "android": "https://dc.lft.to/lastmile_qr_scan"}, "type": "electric_scooter", "name": "6de30084a5c0ebcf89d5fc44a7c5f31b", "is_reserved": 0, "lon": -77.01749633333333, "is_disabled": 0, "fusion_lat": 0.0, "lat": 38.900414166666664, "bike_id": "6de30084a5c0ebcf89d5fc44a7c5f31b", "fusion_lon": 0.0}, {"rental_uris": {"ios": "https://dc.lft.to/lastmile_qr_scan", "android": "https://dc.lft.to/lastmile_qr_scan"}, "type": "electric_scooter", "name": "244680009746fef0fc3933af0179db71", "is_reserved": 0, "lon": -77.0247455, "is_disabled": 0, "fusion_lat": 0.0, "lat": 38.900986, "bike_id": "244680009746fef0fc3933af0179db71", "fusion_lon": 0.0}, {"rental_uris": {"ios": "https://dc.lft.to/lastmile_qr_scan", "android": "https://dc.lft.to/lastmile_qr_scan"}, "type": "electric_scooter", "name": "27185b0f2da9e8c0b37416deb59e947f", "is_reserved": 0, "lon": -76.99346833333334, "is_disabled": 0, "fusion_lat": 0.0, "lat": 38.8769175, "bike_id": "27185b0f2da9e8c0b37416deb59e947f", "fusion_lon": 0.0}, {"rental_uris": {"ios": "https://dc.lft.to/lastmile_qr_scan", "android": "https://dc.lft.to/lastmile_qr_scan"}, "type": "electric_bike", "name": "95c25410b368e59e960cc3eac2c39d28", "is_reserved": 0, "lon": -77.11356233333333, "is_disabled": 0, "fusion_lat": 0.0, "lat": 38.8419415, "bike_id": "95c25410b368e59e960cc3eac2c39d28", "fusion_lon": 0.0}, {"rental_uris": {"ios": "https://dc.lft.to/lastmile_qr_scan", "android": "https://dc.lft.to/lastmile_qr_scan"}, "type": "electric_scooter", "name": "9286816d06c86fe02ff553cd75a33494", "is_reserved": 0, "lon": -77.022053, "is_disabled": 0, "fusion_lat": 0.0, "lat": 38.8945985, "bike_id": "9286816d06c86fe02ff553cd75a33494", "fusion_lon": 0.0}, {"rental_uris": {"ios": "https://dc.lft.to/lastmile_qr_scan", "android": "https://dc.lft.to/lastmile_qr_scan"}, "type": "electric_scooter", "name": "524de6263bf53616daf6f0eb661e8541", "is_reserved": 0, "lon": -77.04147516666667, "is_disabled": 0, "fusion_lat": 0.0, "lat": 38.9170765, "bike_id": "524de6263bf53616daf6f0eb661e8541", "fusion_lon": 0.0}, {"rental_uris": {"ios": "https://dc.lft.to/lastmile_qr_scan", "android": "https://dc.lft.to/lastmile_qr_scan"}, "type": "electric_scooter", "name": "db1a52e309d784cdb124c3d202d8fbb3", "is_reserved": 0, "lon": -77.0195265, "is_disabled": 0, "fusion_lat": 0.0, "lat": 38.9231925, "bike_id": "db1a52e309d784cdb124c3d202d8fbb3", "fusion_lon": 0.0}, {"rental_uris": {"ios": "https://dc.lft.to/lastmile_qr_scan", "android": "https://dc.lft.to/lastmile_qr_scan"}, "type": "electric_scooter", "name": "4a44bd5fdb8561ee1785837ebfbee824", "is_reserved": 0, "lon": -77.041324, "is_disabled": 0, "fusion_lat": 0.0, "lat": 38.93272116666667, "bike_id": "4a44bd5fdb8561ee1785837ebfbee824", "fusion_lon": 0.0}, {"rental_uris": {"ios": "https://dc.lft.to/lastmile_qr_scan", "android": "https://dc.lft.to/lastmile_qr_scan"}, "type": "electric_scooter", "name": "f7947ebfe8bd0cfcfe7f060d77f90c70", "is_reserved": 0, "lon": -77.0295195, "is_disabled": 0, "fusion_lat": 0.0, "lat": 38.91798083333333, "bike_id": "f7947ebfe8bd0cfcfe7f060d77f90c70", "fusion_lon": 0.0}, {"rental_uris": {"ios": "https://dc.lft.to/lastmile_qr_scan", "android": "https://dc.lft.to/lastmile_qr_scan"}, "type": "electric_scooter", "name": "fafb54eacd87aa1204f10590b41d5aec", "is_reserved": 0, "lon": -76.98544416666667, "is_disabled": 0, "fusion_lat": 0.0, "lat": 38.88000783333333, "bike_id": "fafb54eacd87aa1204f10590b41d5aec", "fusion_lon": 0.0}, {"rental_uris": {"ios": "https://dc.lft.to/lastmile_qr_scan", "android": "https://dc.lft.to/lastmile_qr_scan"}, "type": "electric_scooter", "name": "f9961e272f68090888fb75ad191dfa70", "is_reserved": 0, "lon": -76.98105933333333, "is_disabled": 0, "fusion_lat": 0.0, "lat": 38.902444333333335, "bike_id": "f9961e272f68090888fb75ad191dfa70", "fusion_lon": 0.0}, {"rental_uris": {"ios": "https://dc.lft.to/lastmile_qr_scan", "android": "https://dc.lft.to/lastmile_qr_scan"}, "type": "electric_scooter", "name": "c56715f3f0077d62986dd04a7fa82591", "is_reserved": 0, "lon": -77.01690233333333, "is_disabled": 0, "fusion_lat": 0.0, "lat": 38.9159005, "bike_id": "c56715f3f0077d62986dd04a7fa82591", "fusion_lon": 0.0}, {"rental_uris": {"ios": "https://dc.lft.to/lastmile_qr_scan", "android": "https://dc.lft.to/lastmile_qr_scan"}, "type": "electric_scooter", "name": "34916b955511e9a214c2388044eb2f3a", "is_reserved": 0, "lon": -77.04344216666667, "is_disabled": 0, "fusion_lat": 0.0, "lat": 38.90613783333333, "bike_id": "34916b955511e9a214c2388044eb2f3a", "fusion_lon": 0.0}, {"rental_uris": {"ios": "https://dc.lft.to/lastmile_qr_scan", "android": "https://dc.lft.to/lastmile_qr_scan"}, "type": "electric_scooter", "name": "e762ecc1f9dbb1cc95b7d220b9e6e7a0", "is_reserved": 0, "lon": -76.9698485, "is_disabled": 0, "fusion_lat": 0.0, "lat": 38.85268166666667, "bike_id": "e762ecc1f9dbb1cc95b7d220b9e6e7a0", "fusion_lon": 0.0}, {"rental_uris": {"ios": "https://dc.lft.to/lastmile_qr_scan", "android": "https://dc.lft.to/lastmile_qr_scan"}, "type": "electric_scooter", "name": "0b5a49f3fc32e0559412a3da8a685866", "is_reserved": 0, "lon": -77.0320515, "is_disabled": 0, "fusion_lat": 0.0, "lat": 38.90937866666667, "bike_id": "0b5a49f3fc32e0559412a3da8a685866", "fusion_lon": 0.0}, {"rental_uris": {"ios": "https://dc.lft.to/lastmile_qr_scan", "android": "https://dc.lft.to/lastmile_qr_scan"}, "type": "electric_scooter", "name": "7fc1e91daf85081bb014545272b29168", "is_reserved": 0, "lon": -77.0319485, "is_disabled": 0, "fusion_lat": 0.0, "lat": 38.916327833333334, "bike_id": "7fc1e91daf85081bb014545272b29168", "fusion_lon": 0.0}, {"rental_uris": {"ios": "https://dc.lft.to/lastmile_qr_scan", "android": "https://dc.lft.to/lastmile_qr_scan"}, "type": "electric_scooter", "name": "d7dbe1176f8925a7beb0ff51b85dcecb", "is_reserved": 0, "lon": -77.01759716666666, "is_disabled": 0, "fusion_lat": 0.0, "lat": 38.876678, "bike_id": "d7dbe1176f8925a7beb0ff51b85dcecb", "fusion_lon": 0.0}, {"rental_uris": {"ios": "https://dc.lft.to/lastmile_qr_scan", "android": "https://dc.lft.to/lastmile_qr_scan"}, "type": "electric_bike", "name": "0a05e9c143885417d3d2ddaf9c778d1f", "is_reserved": 0, "lon": -77.050379, "is_disabled": 0, "fusion_lat": 0.0, "lat": 39.038973166666665, "bike_id": "0a05e9c143885417d3d2ddaf9c778d1f", "fusion_lon": 0.0}, {"rental_uris": {"ios": "https://dc.lft.to/lastmile_qr_scan", "android": "https://dc.lft.to/lastmile_qr_scan"}, "type": "electric_scooter", "name": "1c470d60e2c4d1e198cbb5123aaa7f7b", "is_reserved": 0, "lon": -77.04162616666666, "is_disabled": 0, "fusion_lat": 0.0, "lat": 38.919542166666666, "bike_id": "1c470d60e2c4d1e198cbb5123aaa7f7b", "fusion_lon": 0.0}, {"rental_uris": {"ios": "https://dc.lft.to/lastmile_qr_scan", "android": "https://dc.lft.to/lastmile_qr_scan"}, "type": "electric_scooter", "name": "11ed187bd4241860902cb0741aa92e51", "is_reserved": 0, "lon": -77.0584345, "is_disabled": 0, "fusion_lat": 0.0, "lat": 38.930663, "bike_id": "11ed187bd4241860902cb0741aa92e51", "fusion_lon": 0.0}, {"rental_uris": {"ios": "https://dc.lft.to/lastmile_qr_scan", "android": "https://dc.lft.to/lastmile_qr_scan"}, "type": "electric_scooter", "name": "e3d26c38ea241d75b8e759edab80fdb6", "is_reserved": 0, "lon": -77.03815183333333, "is_disabled": 0, "fusion_lat": 0.0, "lat": 38.901261833333336, "bike_id": "e3d26c38ea241d75b8e759edab80fdb6", "fusion_lon": 0.0}, {"rental_uris": {"ios": "https://dc.lft.to/lastmile_qr_scan", "android": "https://dc.lft.to/lastmile_qr_scan"}, "type": "electric_scooter", "name": "f711c13aae7191bed32faaa812d52306", "is_reserved": 0, "lon": -77.04222, "is_disabled": 0, "fusion_lat": 0.0, "lat": 38.90362783333333, "bike_id": "f711c13aae7191bed32faaa812d52306", "fusion_lon": 0.0}, {"rental_uris": {"ios": "https://dc.lft.to/lastmile_qr_scan", "android": "https://dc.lft.to/lastmile_qr_scan"}, "type": "electric_scooter", "name": "10a4bc435a81951ffdeb947e55cb4e55", "is_reserved": 0, "lon": -77.00605266666666, "is_disabled": 0, "fusion_lat": 0.0, "lat": 38.911185833333334, "bike_id": "10a4bc435a81951ffdeb947e55cb4e55", "fusion_lon": 0.0}, {"rental_uris": {"ios": "https://dc.lft.to/lastmile_qr_scan", "android": "https://dc.lft.to/lastmile_qr_scan"}, "type": "electric_scooter", "name": "be85a3bd6d201f2fa5dc08bcfb23b5a1", "is_reserved": 0, "lon": -77.02395533333333, "is_disabled": 0, "fusion_lat": 0.0, "lat": 38.916001333333334, "bike_id": "be85a3bd6d201f2fa5dc08bcfb23b5a1", "fusion_lon": 0.0}, {"rental_uris": {"ios": "https://dc.lft.to/lastmile_qr_scan", "android": "https://dc.lft.to/lastmile_qr_scan"}, "type": "electric_scooter", "name": "e7f8b3334073682af44d998e833cfca9", "is_reserved": 0, "lon": -77.04356183333333, "is_disabled": 0, "fusion_lat": 0.0, "lat": 38.897399166666666, "bike_id": "e7f8b3334073682af44d998e833cfca9", "fusion_lon": 0.0}, {"rental_uris": {"ios": "https://dc.lft.to/lastmile_qr_scan", "android": "https://dc.lft.to/lastmile_qr_scan"}, "type": "electric_scooter", "name": "d3964b84d58554ec54d24c0ce5708473", "is_reserved": 0, "lon": -77.0247465, "is_disabled": 0, "fusion_lat": 0.0, "lat": 38.91816566666667, "bike_id": "d3964b84d58554ec54d24c0ce5708473", "fusion_lon": 0.0}, {"rental_uris": {"ios": "https://dc.lft.to/lastmile_qr_scan", "android": "https://dc.lft.to/lastmile_qr_scan"}, "type": "electric_scooter", "name": "6285db74eac124de6f3b353561c71e5c", "is_reserved": 0, "lon": -77.0543955, "is_disabled": 0, "fusion_lat": 0.0, "lat": 38.896059, "bike_id": "6285db74eac124de6f3b353561c71e5c", "fusion_lon": 0.0}, {"rental_uris": {"ios": "https://dc.lft.to/lastmile_qr_scan", "android": "https://dc.lft.to/lastmile_qr_scan"}, "type": "electric_scooter", "name": "d37122dbb40828a1112b803ed5f33ea3", "is_reserved": 0, "lon": -77.0195, "is_disabled": 0, "fusion_lat": 0.0, "lat": 38.923298, "bike_id": "d37122dbb40828a1112b803ed5f33ea3", "fusion_lon": 0.0}, {"rental_uris": {"ios": "https://dc.lft.to/lastmile_qr_scan", "android": "https://dc.lft.to/lastmile_qr_scan"}, "type": "electric_scooter", "name": "f811ec62a0f29885a09962f7c5222405", "is_reserved": 0, "lon": -77.03850783333333, "is_disabled": 0, "fusion_lat": 0.0, "lat": 38.9127985, "bike_id": "f811ec62a0f29885a09962f7c5222405", "fusion_lon": 0.0}, {"rental_uris": {"ios": "https://dc.lft.to/lastmile_qr_scan", "android": "https://dc.lft.to/lastmile_qr_scan"}, "type": "electric_bike", "name": "ffd8f1f1deb158a61e0a048aebcf1f88", "is_reserved": 0, "lon": -77.16234133333333, "is_disabled": 0, "fusion_lat": 0.0, "lat": 38.886671166666666, "bike_id": "ffd8f1f1deb158a61e0a048aebcf1f88", "fusion_lon": 0.0}, {"rental_uris": {"ios": "https://dc.lft.to/lastmile_qr_scan", "android": "https://dc.lft.to/lastmile_qr_scan"}, "type": "electric_scooter", "name": "2d036ae9b8d259424122971d00bbc2c7", "is_reserved": 0, "lon": -77.06774366666667, "is_disabled": 0, "fusion_lat": 0.0, "lat": 38.904615, "bike_id": "2d036ae9b8d259424122971d00bbc2c7", "fusion_lon": 0.0}, {"rental_uris": {"ios": "https://dc.lft.to/lastmile_qr_scan", "android": "https://dc.lft.to/lastmile_qr_scan"}, "type": "electric_bike", "name": "a1382769c92f97a22b1bc2dd668253f3", "is_reserved": 0, "lon": -76.97323316666666, "is_disabled": 0, "fusion_lat": 0.0, "lat": 38.86517283333333, "bike_id": "a1382769c92f97a22b1bc2dd668253f3", "fusion_lon": 0.0}, {"rental_uris": {"ios": "https://dc.lft.to/lastmile_qr_scan", "android": "https://dc.lft.to/lastmile_qr_scan"}, "type": "electric_scooter", "name": "1a58332e708d57ecfdeb11aa317ac3b3", "is_reserved": 0, "lon": -77.02449316666667, "is_disabled": 0, "fusion_lat": 0.0, "lat": 38.920391, "bike_id": "1a58332e708d57ecfdeb11aa317ac3b3", "fusion_lon": 0.0}, {"rental_uris": {"ios": "https://dc.lft.to/lastmile_qr_scan", "android": "https://dc.lft.to/lastmile_qr_scan"}, "type": "electric_scooter", "name": "98c236aaa96dd43adf76560cd027e931", "is_reserved": 0, "lon": -77.00923033333333, "is_disabled": 0, "fusion_lat": 0.0, "lat": 38.9076365, "bike_id": "98c236aaa96dd43adf76560cd027e931", "fusion_lon": 0.0}, {"rental_uris": {"ios": "https://dc.lft.to/lastmile_qr_scan", "android": "https://dc.lft.to/lastmile_qr_scan"}, "type": "electric_scooter", "name": "03595026ded59ec8e66c70cf1196718f", "is_reserved": 0, "lon": -77.0417675, "is_disabled": 0, "fusion_lat": 0.0, "lat": 38.917247833333334, "bike_id": "03595026ded59ec8e66c70cf1196718f", "fusion_lon": 0.0}, {"rental_uris": {"ios": "https://dc.lft.to/lastmile_qr_scan", "android": "https://dc.lft.to/lastmile_qr_scan"}, "type": "electric_scooter", "name": "587197aeaf438f6274f583f3feca508c", "is_reserved": 0, "lon": -77.00219633333333, "is_disabled": 0, "fusion_lat": 0.0, "lat": 38.894502, "bike_id": "587197aeaf438f6274f583f3feca508c", "fusion_lon": 0.0}, {"rental_uris": {"ios": "https://dc.lft.to/lastmile_qr_scan", "android": "https://dc.lft.to/lastmile_qr_scan"}, "type": "electric_scooter", "name": "ddc640e6ddcbccb06b91f8b36d070698", "is_reserved": 0, "lon": -77.0035955, "is_disabled": 0, "fusion_lat": 0.0, "lat": 38.89896733333333, "bike_id": "ddc640e6ddcbccb06b91f8b36d070698", "fusion_lon": 0.0}, {"rental_uris": {"ios": "https://dc.lft.to/lastmile_qr_scan", "android": "https://dc.lft.to/lastmile_qr_scan"}, "type": "electric_scooter", "name": "082c3b985256ad7902d217c58e7de20f", "is_reserved": 0, "lon": -77.02813616666667, "is_disabled": 0, "fusion_lat": 0.0, "lat": 38.8851695, "bike_id": "082c3b985256ad7902d217c58e7de20f", "fusion_lon": 0.0}, {"rental_uris": {"ios": "https://dc.lft.to/lastmile_qr_scan", "android": "https://dc.lft.to/lastmile_qr_scan"}, "type": "electric_scooter", "name": "6f55a3e15c0509342c9baef9171f9a09", "is_reserved": 0, "lon": -76.9974175, "is_disabled": 0, "fusion_lat": 0.0, "lat": 38.9207375, "bike_id": "6f55a3e15c0509342c9baef9171f9a09", "fusion_lon": 0.0}, {"rental_uris": {"ios": "https://dc.lft.to/lastmile_qr_scan", "android": "https://dc.lft.to/lastmile_qr_scan"}, "type": "electric_scooter", "name": "58681571900701668643cf2412c0e445", "is_reserved": 0, "lon": -77.03257883333333, "is_disabled": 0, "fusion_lat": 0.0, "lat": 38.9310725, "bike_id": "58681571900701668643cf2412c0e445", "fusion_lon": 0.0}, {"rental_uris": {"ios": "https://dc.lft.to/lastmile_qr_scan", "android": "https://dc.lft.to/lastmile_qr_scan"}, "type": "electric_scooter", "name": "8647d974f69ba17db723fc11b1cb14e2", "is_reserved": 0, "lon": -77.03378016666667, "is_disabled": 0, "fusion_lat": 0.0, "lat": 38.90979683333333, "bike_id": "8647d974f69ba17db723fc11b1cb14e2", "fusion_lon": 0.0}, {"rental_uris": {"ios": "https://dc.lft.to/lastmile_qr_scan", "android": "https://dc.lft.to/lastmile_qr_scan"}, "type": "electric_scooter", "name": "6cb382b13e258a9f3dfc28f70443362c", "is_reserved": 0, "lon": -77.05473066666667, "is_disabled": 0, "fusion_lat": 0.0, "lat": 38.8973, "bike_id": "6cb382b13e258a9f3dfc28f70443362c", "fusion_lon": 0.0}, {"rental_uris": {"ios": "https://dc.lft.to/lastmile_qr_scan", "android": "https://dc.lft.to/lastmile_qr_scan"}, "type": "electric_scooter", "name": "5e118b234d9f037820ad1b68f8a5c24c", "is_reserved": 0, "lon": -77.00947516666666, "is_disabled": 0, "fusion_lat": 0.0, "lat": 38.89500816666666, "bike_id": "5e118b234d9f037820ad1b68f8a5c24c", "fusion_lon": 0.0}, {"rental_uris": {"ios": "https://dc.lft.to/lastmile_qr_scan", "android": "https://dc.lft.to/lastmile_qr_scan"}, "type": "electric_scooter", "name": "c07953a8e0f9aa0346ca39ace7574d59", "is_reserved": 0, "lon": -77.02685116666666, "is_disabled": 0, "fusion_lat": 0.0, "lat": 38.905825, "bike_id": "c07953a8e0f9aa0346ca39ace7574d59", "fusion_lon": 0.0}, {"rental_uris": {"ios": "https://dc.lft.to/lastmile_qr_scan", "android": "https://dc.lft.to/lastmile_qr_scan"}, "type": "electric_scooter", "name": "88bd6a7a71b05784a7747bfdaa60c98b", "is_reserved": 0, "lon": -77.06146416666667, "is_disabled": 0, "fusion_lat": 0.0, "lat": 38.91296283333333, "bike_id": "88bd6a7a71b05784a7747bfdaa60c98b", "fusion_lon": 0.0}, {"rental_uris": {"ios": "https://dc.lft.to/lastmile_qr_scan", "android": "https://dc.lft.to/lastmile_qr_scan"}, "type": "electric_scooter", "name": "349e41a2ed9b3dd4ee333c4ee8fe629f", "is_reserved": 0, "lon": -77.025375, "is_disabled": 0, "fusion_lat": 0.0, "lat": 38.90087783333333, "bike_id": "349e41a2ed9b3dd4ee333c4ee8fe629f", "fusion_lon": 0.0}, {"rental_uris": {"ios": "https://dc.lft.to/lastmile_qr_scan", "android": "https://dc.lft.to/lastmile_qr_scan"}, "type": "electric_scooter", "name": "afb4eb13e15b2c1c3e90de7b009b7ba3", "is_reserved": 0, "lon": -77.02093866666667, "is_disabled": 0, "fusion_lat": 0.0, "lat": 38.9215495, "bike_id": "afb4eb13e15b2c1c3e90de7b009b7ba3", "fusion_lon": 0.0}, {"rental_uris": {"ios": "https://dc.lft.to/lastmile_qr_scan", "android": "https://dc.lft.to/lastmile_qr_scan"}, "type": "electric_bike", "name": "7bd67b6896da4bb507a2097c5165237e", "is_reserved": 0, "lon": -77.03896533333334, "is_disabled": 0, "fusion_lat": 0.0, "lat": 38.923306, "bike_id": "7bd67b6896da4bb507a2097c5165237e", "fusion_lon": 0.0}, {"rental_uris": {"ios": "https://dc.lft.to/lastmile_qr_scan", "android": "https://dc.lft.to/lastmile_qr_scan"}, "type": "electric_scooter", "name": "9b2dd853631c4543c3a69abff0e3db03", "is_reserved": 0, "lon": -76.98727483333333, "is_disabled": 0, "fusion_lat": 0.0, "lat": 38.911979, "bike_id": "9b2dd853631c4543c3a69abff0e3db03", "fusion_lon": 0.0}, {"rental_uris": {"ios": "https://dc.lft.to/lastmile_qr_scan", "android": "https://dc.lft.to/lastmile_qr_scan"}, "type": "electric_scooter", "name": "fbbc95dd5050c9dbaa7341ba30e5c93b", "is_reserved": 0, "lon": -77.02945466666667, "is_disabled": 0, "fusion_lat": 0.0, "lat": 38.91665833333333, "bike_id": "fbbc95dd5050c9dbaa7341ba30e5c93b", "fusion_lon": 0.0}, {"rental_uris": {"ios": "https://dc.lft.to/lastmile_qr_scan", "android": "https://dc.lft.to/lastmile_qr_scan"}, "type": "electric_bike", "name": "526fa19bfeb19da0d86fe76e0c628b4c", "is_reserved": 0, "lon": -76.98459733333334, "is_disabled": 0, "fusion_lat": 0.0, "lat": 38.879152166666664, "bike_id": "526fa19bfeb19da0d86fe76e0c628b4c", "fusion_lon": 0.0}, {"rental_uris": {"ios": "https://dc.lft.to/lastmile_qr_scan", "android": "https://dc.lft.to/lastmile_qr_scan"}, "type": "electric_scooter", "name": "db7878eef1a4b282cf8cc2e95f7a8222", "is_reserved": 0, "lon": -76.9898715, "is_disabled": 0, "fusion_lat": 0.0, "lat": 38.86502566666667, "bike_id": "db7878eef1a4b282cf8cc2e95f7a8222", "fusion_lon": 0.0}, {"rental_uris": {"ios": "https://dc.lft.to/lastmile_qr_scan", "android": "https://dc.lft.to/lastmile_qr_scan"}, "type": "electric_scooter", "name": "fde25caa92377d9dfcb6c86fc4675c09", "is_reserved": 0, "lon": -77.01220333333333, "is_disabled": 0, "fusion_lat": 0.0, "lat": 38.920329, "bike_id": "fde25caa92377d9dfcb6c86fc4675c09", "fusion_lon": 0.0}, {"rental_uris": {"ios": "https://dc.lft.to/lastmile_qr_scan", "android": "https://dc.lft.to/lastmile_qr_scan"}, "type": "electric_scooter", "name": "38faf51b0c5baa3a2584a1d0afe32f31", "is_reserved": 0, "lon": -76.98503483333333, "is_disabled": 0, "fusion_lat": 0.0, "lat": 38.880887333333334, "bike_id": "38faf51b0c5baa3a2584a1d0afe32f31", "fusion_lon": 0.0}, {"rental_uris": {"ios": "https://dc.lft.to/lastmile_qr_scan", "android": "https://dc.lft.to/lastmile_qr_scan"}, "type": "electric_scooter", "name": "0fe3e6ec890c6b07f501a6aaa4aaf63f", "is_reserved": 0, "lon": -77.035627, "is_disabled": 0, "fusion_lat": 0.0, "lat": 38.924254833333336, "bike_id": "0fe3e6ec890c6b07f501a6aaa4aaf63f", "fusion_lon": 0.0}, {"rental_uris": {"ios": "https://dc.lft.to/lastmile_qr_scan", "android": "https://dc.lft.to/lastmile_qr_scan"}, "type": "electric_scooter", "name": "ac3adabba9dcf811bdd6fb8cf7a60329", "is_reserved": 0, "lon": -77.04687333333334, "is_disabled": 0, "fusion_lat": 0.0, "lat": 38.8922325, "bike_id": "ac3adabba9dcf811bdd6fb8cf7a60329", "fusion_lon": 0.0}, {"rental_uris": {"ios": "https://dc.lft.to/lastmile_qr_scan", "android": "https://dc.lft.to/lastmile_qr_scan"}, "type": "electric_scooter", "name": "1a32536df7fbd4bcbf38aca7a0f39f55", "is_reserved": 0, "lon": -77.00521416666666, "is_disabled": 0, "fusion_lat": 0.0, "lat": 38.879414, "bike_id": "1a32536df7fbd4bcbf38aca7a0f39f55", "fusion_lon": 0.0}, {"rental_uris": {"ios": "https://dc.lft.to/lastmile_qr_scan", "android": "https://dc.lft.to/lastmile_qr_scan"}, "type": "electric_scooter", "name": "d5aabd2f521607e92d33a32343cbc784", "is_reserved": 0, "lon": -77.05803616666667, "is_disabled": 0, "fusion_lat": 0.0, "lat": 38.905019333333335, "bike_id": "d5aabd2f521607e92d33a32343cbc784", "fusion_lon": 0.0}, {"rental_uris": {"ios": "https://dc.lft.to/lastmile_qr_scan", "android": "https://dc.lft.to/lastmile_qr_scan"}, "type": "electric_scooter", "name": "3066660b3a0d512f9411285615369f5f", "is_reserved": 0, "lon": -77.04570033333333, "is_disabled": 0, "fusion_lat": 0.0, "lat": 38.905521666666665, "bike_id": "3066660b3a0d512f9411285615369f5f", "fusion_lon": 0.0}, {"rental_uris": {"ios": "https://dc.lft.to/lastmile_qr_scan", "android": "https://dc.lft.to/lastmile_qr_scan"}, "type": "electric_scooter", "name": "2c86fee75b113384d4839dcb0899b3ed", "is_reserved": 0, "lon": -77.05008933333333, "is_disabled": 0, "fusion_lat": 0.0, "lat": 38.90093266666667, "bike_id": "2c86fee75b113384d4839dcb0899b3ed", "fusion_lon": 0.0}, {"rental_uris": {"ios": "https://dc.lft.to/lastmile_qr_scan", "android": "https://dc.lft.to/lastmile_qr_scan"}, "type": "electric_scooter", "name": "5e571c16e9df9d3c89febfde73c9b2fd", "is_reserved": 0, "lon": -77.04758316666667, "is_disabled": 0, "fusion_lat": 0.0, "lat": 38.89222616666667, "bike_id": "5e571c16e9df9d3c89febfde73c9b2fd", "fusion_lon": 0.0}, {"rental_uris": {"ios": "https://dc.lft.to/lastmile_qr_scan", "android": "https://dc.lft.to/lastmile_qr_scan"}, "type": "electric_scooter", "name": "1b572a818da2060b3795d4e9a543e5ed", "is_reserved": 0, "lon": -77.0314765, "is_disabled": 0, "fusion_lat": 0.0, "lat": 38.887379, "bike_id": "1b572a818da2060b3795d4e9a543e5ed", "fusion_lon": 0.0}, {"rental_uris": {"ios": "https://dc.lft.to/lastmile_qr_scan", "android": "https://dc.lft.to/lastmile_qr_scan"}, "type": "electric_scooter", "name": "b57df47b1e405e06c7d3d36998b897d7", "is_reserved": 0, "lon": -77.03180116666667, "is_disabled": 0, "fusion_lat": 0.0, "lat": 38.914245, "bike_id": "b57df47b1e405e06c7d3d36998b897d7", "fusion_lon": 0.0}, {"rental_uris": {"ios": "https://dc.lft.to/lastmile_qr_scan", "android": "https://dc.lft.to/lastmile_qr_scan"}, "type": "electric_scooter", "name": "976d259ae0f1173c887b6d5122fbf855", "is_reserved": 0, "lon": -77.04106283333333, "is_disabled": 0, "fusion_lat": 0.0, "lat": 38.917847333333334, "bike_id": "976d259ae0f1173c887b6d5122fbf855", "fusion_lon": 0.0}, {"rental_uris": {"ios": "https://dc.lft.to/lastmile_qr_scan", "android": "https://dc.lft.to/lastmile_qr_scan"}, "type": "electric_scooter", "name": "d02c3f59c4e1b2c220d468d26e526904", "is_reserved": 0, "lon": -77.02221666666667, "is_disabled": 0, "fusion_lat": 0.0, "lat": 38.8984045, "bike_id": "d02c3f59c4e1b2c220d468d26e526904", "fusion_lon": 0.0}, {"rental_uris": {"ios": "https://dc.lft.to/lastmile_qr_scan", "android": "https://dc.lft.to/lastmile_qr_scan"}, "type": "electric_scooter", "name": "21c19000a097c9d65c39d6773c5af535", "is_reserved": 0, "lon": -77.01780833333333, "is_disabled": 0, "fusion_lat": 0.0, "lat": 38.87471333333333, "bike_id": "21c19000a097c9d65c39d6773c5af535", "fusion_lon": 0.0}, {"rental_uris": {"ios": "https://dc.lft.to/lastmile_qr_scan", "android": "https://dc.lft.to/lastmile_qr_scan"}, "type": "electric_scooter", "name": "2bbeabcf9f46a17bed0a8eb6b6b3f6e2", "is_reserved": 0, "lon": -77.01958783333333, "is_disabled": 0, "fusion_lat": 0.0, "lat": 38.92327483333333, "bike_id": "2bbeabcf9f46a17bed0a8eb6b6b3f6e2", "fusion_lon": 0.0}, {"rental_uris": {"ios": "https://dc.lft.to/lastmile_qr_scan", "android": "https://dc.lft.to/lastmile_qr_scan"}, "type": "electric_scooter", "name": "da0f5d65e74f7c74daf8189f5c984e16", "is_reserved": 0, "lon": -77.034285, "is_disabled": 0, "fusion_lat": 0.0, "lat": 38.9079, "bike_id": "da0f5d65e74f7c74daf8189f5c984e16", "fusion_lon": 0.0}, {"rental_uris": {"ios": "https://dc.lft.to/lastmile_qr_scan", "android": "https://dc.lft.to/lastmile_qr_scan"}, "type": "electric_scooter", "name": "7115e0c1f25560bd35e469e676386ccb", "is_reserved": 0, "lon": -77.007605, "is_disabled": 0, "fusion_lat": 0.0, "lat": 38.898522, "bike_id": "7115e0c1f25560bd35e469e676386ccb", "fusion_lon": 0.0}, {"rental_uris": {"ios": "https://dc.lft.to/lastmile_qr_scan", "android": "https://dc.lft.to/lastmile_qr_scan"}, "type": "electric_scooter", "name": "ec2e60fbcee8bbf6878e366c76cbef8a", "is_reserved": 0, "lon": -77.03355083333334, "is_disabled": 0, "fusion_lat": 0.0, "lat": 38.9275065, "bike_id": "ec2e60fbcee8bbf6878e366c76cbef8a", "fusion_lon": 0.0}, {"rental_uris": {"ios": "https://dc.lft.to/lastmile_qr_scan", "android": "https://dc.lft.to/lastmile_qr_scan"}, "type": "electric_scooter", "name": "0672d0016862d6fa467416f226892d76", "is_reserved": 0, "lon": -77.042017, "is_disabled": 0, "fusion_lat": 0.0, "lat": 38.89265833333333, "bike_id": "0672d0016862d6fa467416f226892d76", "fusion_lon": 0.0}, {"rental_uris": {"ios": "https://dc.lft.to/lastmile_qr_scan", "android": "https://dc.lft.to/lastmile_qr_scan"}, "type": "electric_scooter", "name": "f99db2770e20f01ffdf76381b4e0f96d", "is_reserved": 0, "lon": -77.04501366666666, "is_disabled": 0, "fusion_lat": 0.0, "lat": 38.91413983333333, "bike_id": "f99db2770e20f01ffdf76381b4e0f96d", "fusion_lon": 0.0}, {"rental_uris": {"ios": "https://dc.lft.to/lastmile_qr_scan", "android": "https://dc.lft.to/lastmile_qr_scan"}, "type": "electric_scooter", "name": "b29a766be594e1ced6546ab2121e5fb1", "is_reserved": 0, "lon": -76.98515366666666, "is_disabled": 0, "fusion_lat": 0.0, "lat": 38.880844333333336, "bike_id": "b29a766be594e1ced6546ab2121e5fb1", "fusion_lon": 0.0}, {"rental_uris": {"ios": "https://dc.lft.to/lastmile_qr_scan", "android": "https://dc.lft.to/lastmile_qr_scan"}, "type": "electric_scooter", "name": "a1852f64e4030c3191f2b1933828c341", "is_reserved": 0, "lon": -77.048649, "is_disabled": 0, "fusion_lat": 0.0, "lat": 38.89223033333333, "bike_id": "a1852f64e4030c3191f2b1933828c341", "fusion_lon": 0.0}, {"rental_uris": {"ios": "https://dc.lft.to/lastmile_qr_scan", "android": "https://dc.lft.to/lastmile_qr_scan"}, "type": "electric_scooter", "name": "ae6eb74980c7ca2316d97d187e74446d", "is_reserved": 0, "lon": -77.0228775, "is_disabled": 0, "fusion_lat": 0.0, "lat": 38.9095575, "bike_id": "ae6eb74980c7ca2316d97d187e74446d", "fusion_lon": 0.0}, {"rental_uris": {"ios": "https://dc.lft.to/lastmile_qr_scan", "android": "https://dc.lft.to/lastmile_qr_scan"}, "type": "electric_scooter", "name": "eba5a8dd93f2ee13fb961a57e05a2e01", "is_reserved": 0, "lon": -77.020979, "is_disabled": 0, "fusion_lat": 0.0, "lat": 38.922417, "bike_id": "eba5a8dd93f2ee13fb961a57e05a2e01", "fusion_lon": 0.0}, {"rental_uris": {"ios": "https://dc.lft.to/lastmile_qr_scan", "android": "https://dc.lft.to/lastmile_qr_scan"}, "type": "electric_scooter", "name": "d83460f67ee2ba854f9bf7e921f58a2b", "is_reserved": 0, "lon": -77.02481566666667, "is_disabled": 0, "fusion_lat": 0.0, "lat": 38.89705933333333, "bike_id": "d83460f67ee2ba854f9bf7e921f58a2b", "fusion_lon": 0.0}, {"rental_uris": {"ios": "https://dc.lft.to/lastmile_qr_scan", "android": "https://dc.lft.to/lastmile_qr_scan"}, "type": "electric_scooter", "name": "96eee12ad64d49d233c2d02da46eb269", "is_reserved": 0, "lon": -77.02138833333333, "is_disabled": 0, "fusion_lat": 0.0, "lat": 38.92003483333333, "bike_id": "96eee12ad64d49d233c2d02da46eb269", "fusion_lon": 0.0}, {"rental_uris": {"ios": "https://dc.lft.to/lastmile_qr_scan", "android": "https://dc.lft.to/lastmile_qr_scan"}, "type": "electric_scooter", "name": "d4cefb498ae0fd53bc972e469a621b8b", "is_reserved": 0, "lon": -77.04601183333334, "is_disabled": 0, "fusion_lat": 0.0, "lat": 38.909665333333336, "bike_id": "d4cefb498ae0fd53bc972e469a621b8b", "fusion_lon": 0.0}, {"rental_uris": {"ios": "https://dc.lft.to/lastmile_qr_scan", "android": "https://dc.lft.to/lastmile_qr_scan"}, "type": "electric_scooter", "name": "9cf5197f75e48d95deb51a5852fb2901", "is_reserved": 0, "lon": -77.048796, "is_disabled": 0, "fusion_lat": 0.0, "lat": 38.9102255, "bike_id": "9cf5197f75e48d95deb51a5852fb2901", "fusion_lon": 0.0}, {"rental_uris": {"ios": "https://dc.lft.to/lastmile_qr_scan", "android": "https://dc.lft.to/lastmile_qr_scan"}, "type": "electric_scooter", "name": "369cd49c39cfcf5e1c557cce9809ac95", "is_reserved": 0, "lon": -77.067761, "is_disabled": 0, "fusion_lat": 0.0, "lat": 38.9088005, "bike_id": "369cd49c39cfcf5e1c557cce9809ac95", "fusion_lon": 0.0}, {"rental_uris": {"ios": "https://dc.lft.to/lastmile_qr_scan", "android": "https://dc.lft.to/lastmile_qr_scan"}, "type": "electric_scooter", "name": "2e4f47278676a5e6648c27f461b2bc87", "is_reserved": 0, "lon": -77.03865733333333, "is_disabled": 0, "fusion_lat": 0.0, "lat": 38.91108833333333, "bike_id": "2e4f47278676a5e6648c27f461b2bc87", "fusion_lon": 0.0}, {"rental_uris": {"ios": "https://dc.lft.to/lastmile_qr_scan", "android": "https://dc.lft.to/lastmile_qr_scan"}, "type": "electric_scooter", "name": "c21f48f3bdb7fe983bf3a644c9c6ac0d", "is_reserved": 0, "lon": -77.02591933333333, "is_disabled": 0, "fusion_lat": 0.0, "lat": 38.91943716666667, "bike_id": "c21f48f3bdb7fe983bf3a644c9c6ac0d", "fusion_lon": 0.0}, {"rental_uris": {"ios": "https://dc.lft.to/lastmile_qr_scan", "android": "https://dc.lft.to/lastmile_qr_scan"}, "type": "electric_scooter", "name": "822b57a82c561e0bd5e60f8a286c21fc", "is_reserved": 0, "lon": -77.029085, "is_disabled": 0, "fusion_lat": 0.0, "lat": 38.93164633333333, "bike_id": "822b57a82c561e0bd5e60f8a286c21fc", "fusion_lon": 0.0}, {"rental_uris": {"ios": "https://dc.lft.to/lastmile_qr_scan", "android": "https://dc.lft.to/lastmile_qr_scan"}, "type": "electric_scooter", "name": "a2e235f2f64a44b171dcf2ffbb4dbe64", "is_reserved": 0, "lon": -77.04028883333334, "is_disabled": 0, "fusion_lat": 0.0, "lat": 38.904869166666664, "bike_id": "a2e235f2f64a44b171dcf2ffbb4dbe64", "fusion_lon": 0.0}, {"rental_uris": {"ios": "https://dc.lft.to/lastmile_qr_scan", "android": "https://dc.lft.to/lastmile_qr_scan"}, "type": "electric_scooter", "name": "a6b64177ff98483febfe6a458d0889fc", "is_reserved": 0, "lon": -77.04380266666666, "is_disabled": 0, "fusion_lat": 0.0, "lat": 38.91691266666667, "bike_id": "a6b64177ff98483febfe6a458d0889fc", "fusion_lon": 0.0}, {"rental_uris": {"ios": "https://dc.lft.to/lastmile_qr_scan", "android": "https://dc.lft.to/lastmile_qr_scan"}, "type": "electric_scooter", "name": "8dcca660777b6406ff4def9d1110807a", "is_reserved": 0, "lon": -77.04546566666667, "is_disabled": 0, "fusion_lat": 0.0, "lat": 38.90969033333333, "bike_id": "8dcca660777b6406ff4def9d1110807a", "fusion_lon": 0.0}, {"rental_uris": {"ios": "https://dc.lft.to/lastmile_qr_scan", "android": "https://dc.lft.to/lastmile_qr_scan"}, "type": "electric_scooter", "name": "d7af1b5101491babca2938c02e90935e", "is_reserved": 0, "lon": -77.0363735, "is_disabled": 0, "fusion_lat": 0.0, "lat": 38.901224, "bike_id": "d7af1b5101491babca2938c02e90935e", "fusion_lon": 0.0}, {"rental_uris": {"ios": "https://dc.lft.to/lastmile_qr_scan", "android": "https://dc.lft.to/lastmile_qr_scan"}, "type": "electric_scooter", "name": "b881e70ec15441146de44f12055fea56", "is_reserved": 0, "lon": -77.04562, "is_disabled": 0, "fusion_lat": 0.0, "lat": 38.91458633333333, "bike_id": "b881e70ec15441146de44f12055fea56", "fusion_lon": 0.0}, {"rental_uris": {"ios": "https://dc.lft.to/lastmile_qr_scan", "android": "https://dc.lft.to/lastmile_qr_scan"}, "type": "electric_scooter", "name": "f12262bfc0094e756a1fba7d98f5ab00", "is_reserved": 0, "lon": -77.03187133333333, "is_disabled": 0, "fusion_lat": 0.0, "lat": 38.91350416666667, "bike_id": "f12262bfc0094e756a1fba7d98f5ab00", "fusion_lon": 0.0}, {"rental_uris": {"ios": "https://dc.lft.to/lastmile_qr_scan", "android": "https://dc.lft.to/lastmile_qr_scan"}, "type": "electric_bike", "name": "34a53dd19719b83f2965958309027875", "is_reserved": 0, "lon": -76.99797283333334, "is_disabled": 0, "fusion_lat": 0.0, "lat": 38.90866, "bike_id": "34a53dd19719b83f2965958309027875", "fusion_lon": 0.0}, {"rental_uris": {"ios": "https://dc.lft.to/lastmile_qr_scan", "android": "https://dc.lft.to/lastmile_qr_scan"}, "type": "electric_scooter", "name": "29b9a126f62ca1d7f64ad88ce9c43e67", "is_reserved": 0, "lon": -76.94716816666667, "is_disabled": 0, "fusion_lat": 0.0, "lat": 38.890828, "bike_id": "29b9a126f62ca1d7f64ad88ce9c43e67", "fusion_lon": 0.0}, {"rental_uris": {"ios": "https://dc.lft.to/lastmile_qr_scan", "android": "https://dc.lft.to/lastmile_qr_scan"}, "type": "electric_bike", "name": "5550ec1c71dbd464ad430bf0ec1cafff", "is_reserved": 0, "lon": -76.95741666666666, "is_disabled": 0, "fusion_lat": 0.0, "lat": 38.88853816666666, "bike_id": "5550ec1c71dbd464ad430bf0ec1cafff", "fusion_lon": 0.0}, {"rental_uris": {"ios": "https://dc.lft.to/lastmile_qr_scan", "android": "https://dc.lft.to/lastmile_qr_scan"}, "type": "electric_scooter", "name": "442fa76e6bf8b219446e723742b73add", "is_reserved": 0, "lon": -77.03372433333334, "is_disabled": 0, "fusion_lat": 0.0, "lat": 38.901143166666664, "bike_id": "442fa76e6bf8b219446e723742b73add", "fusion_lon": 0.0}, {"rental_uris": {"ios": "https://dc.lft.to/lastmile_qr_scan", "android": "https://dc.lft.to/lastmile_qr_scan"}, "type": "electric_scooter", "name": "7e690ba61ac0cd305efb2b194fab5bc4", "is_reserved": 0, "lon": -77.00202466666667, "is_disabled": 0, "fusion_lat": 0.0, "lat": 38.9004205, "bike_id": "7e690ba61ac0cd305efb2b194fab5bc4", "fusion_lon": 0.0}, {"rental_uris": {"ios": "https://dc.lft.to/lastmile_qr_scan", "android": "https://dc.lft.to/lastmile_qr_scan"}, "type": "electric_scooter", "name": "54e87cecfa8ed88b968f9471d1766b8d", "is_reserved": 0, "lon": -76.93385366666666, "is_disabled": 0, "fusion_lat": 0.0, "lat": 38.8991085, "bike_id": "54e87cecfa8ed88b968f9471d1766b8d", "fusion_lon": 0.0}, {"rental_uris": {"ios": "https://dc.lft.to/lastmile_qr_scan", "android": "https://dc.lft.to/lastmile_qr_scan"}, "type": "electric_scooter", "name": "78371e24873c301a9b98c98542db45b2", "is_reserved": 0, "lon": -77.01844433333333, "is_disabled": 0, "fusion_lat": 0.0, "lat": 38.9543175, "bike_id": "78371e24873c301a9b98c98542db45b2", "fusion_lon": 0.0}, {"rental_uris": {"ios": "https://dc.lft.to/lastmile_qr_scan", "android": "https://dc.lft.to/lastmile_qr_scan"}, "type": "electric_scooter", "name": "884306dc93448843d5960e05fbf86ff4", "is_reserved": 0, "lon": -77.01652033333333, "is_disabled": 0, "fusion_lat": 0.0, "lat": 38.87719116666667, "bike_id": "884306dc93448843d5960e05fbf86ff4", "fusion_lon": 0.0}, {"rental_uris": {"ios": "https://dc.lft.to/lastmile_qr_scan", "android": "https://dc.lft.to/lastmile_qr_scan"}, "type": "electric_scooter", "name": "2e96000716577c2bed8e8052742d7a20", "is_reserved": 0, "lon": -77.0423295, "is_disabled": 0, "fusion_lat": 0.0, "lat": 38.90560766666667, "bike_id": "2e96000716577c2bed8e8052742d7a20", "fusion_lon": 0.0}, {"rental_uris": {"ios": "https://dc.lft.to/lastmile_qr_scan", "android": "https://dc.lft.to/lastmile_qr_scan"}, "type": "electric_bike", "name": "3db7c21b2ff90bf2d0ac8b14701b53ab", "is_reserved": 0, "lon": -77.05692633333334, "is_disabled": 0, "fusion_lat": 0.0, "lat": 38.905590833333335, "bike_id": "3db7c21b2ff90bf2d0ac8b14701b53ab", "fusion_lon": 0.0}, {"rental_uris": {"ios": "https://dc.lft.to/lastmile_qr_scan", "android": "https://dc.lft.to/lastmile_qr_scan"}, "type": "electric_scooter", "name": "1bfe12982a3a40c459527abc00235c53", "is_reserved": 0, "lon": -76.98065433333333, "is_disabled": 0, "fusion_lat": 0.0, "lat": 38.91517483333333, "bike_id": "1bfe12982a3a40c459527abc00235c53", "fusion_lon": 0.0}, {"rental_uris": {"ios": "https://dc.lft.to/lastmile_qr_scan", "android": "https://dc.lft.to/lastmile_qr_scan"}, "type": "electric_scooter", "name": "81cc815bae4d2391ddad4991cb80d681", "is_reserved": 0, "lon": -77.01859633333333, "is_disabled": 0, "fusion_lat": 0.0, "lat": 38.89469183333333, "bike_id": "81cc815bae4d2391ddad4991cb80d681", "fusion_lon": 0.0}, {"rental_uris": {"ios": "https://dc.lft.to/lastmile_qr_scan", "android": "https://dc.lft.to/lastmile_qr_scan"}, "type": "electric_scooter", "name": "0447c0d57c11ecb2e1b680fee2613d06", "is_reserved": 0, "lon": -77.00198666666667, "is_disabled": 0, "fusion_lat": 0.0, "lat": 38.892899, "bike_id": "0447c0d57c11ecb2e1b680fee2613d06", "fusion_lon": 0.0}, {"rental_uris": {"ios": "https://dc.lft.to/lastmile_qr_scan", "android": "https://dc.lft.to/lastmile_qr_scan"}, "type": "electric_bike", "name": "94841365bd823bdfd566056d5283167b", "is_reserved": 0, "lon": -77.0076045, "is_disabled": 0, "fusion_lat": 0.0, "lat": 38.9978335, "bike_id": "94841365bd823bdfd566056d5283167b", "fusion_lon": 0.0}, {"rental_uris": {"ios": "https://dc.lft.to/lastmile_qr_scan", "android": "https://dc.lft.to/lastmile_qr_scan"}, "type": "electric_scooter", "name": "416ec834883b595b5090fab2d59902d8", "is_reserved": 0, "lon": -76.99841833333333, "is_disabled": 0, "fusion_lat": 0.0, "lat": 38.92334666666667, "bike_id": "416ec834883b595b5090fab2d59902d8", "fusion_lon": 0.0}, {"rental_uris": {"ios": "https://dc.lft.to/lastmile_qr_scan", "android": "https://dc.lft.to/lastmile_qr_scan"}, "type": "electric_scooter", "name": "b02e393f94405f4941dc3e28f55705da", "is_reserved": 0, "lon": -77.0219815, "is_disabled": 0, "fusion_lat": 0.0, "lat": 38.911493166666666, "bike_id": "b02e393f94405f4941dc3e28f55705da", "fusion_lon": 0.0}, {"rental_uris": {"ios": "https://dc.lft.to/lastmile_qr_scan", "android": "https://dc.lft.to/lastmile_qr_scan"}, "type": "electric_scooter", "name": "6a0e896aaeb54b52c1583b17e0484f67", "is_reserved": 0, "lon": -77.04129116666667, "is_disabled": 0, "fusion_lat": 0.0, "lat": 38.9346985, "bike_id": "6a0e896aaeb54b52c1583b17e0484f67", "fusion_lon": 0.0}, {"rental_uris": {"ios": "https://dc.lft.to/lastmile_qr_scan", "android": "https://dc.lft.to/lastmile_qr_scan"}, "type": "electric_scooter", "name": "c1f1f749af4461047c5344409430f8e6", "is_reserved": 0, "lon": -77.0246355, "is_disabled": 0, "fusion_lat": 0.0, "lat": 38.92498966666667, "bike_id": "c1f1f749af4461047c5344409430f8e6", "fusion_lon": 0.0}, {"rental_uris": {"ios": "https://dc.lft.to/lastmile_qr_scan", "android": "https://dc.lft.to/lastmile_qr_scan"}, "type": "electric_scooter", "name": "c3dc3c134cda74f3b3ee140ee3d82d52", "is_reserved": 0, "lon": -77.04998383333333, "is_disabled": 0, "fusion_lat": 0.0, "lat": 38.9008885, "bike_id": "c3dc3c134cda74f3b3ee140ee3d82d52", "fusion_lon": 0.0}, {"rental_uris": {"ios": "https://dc.lft.to/lastmile_qr_scan", "android": "https://dc.lft.to/lastmile_qr_scan"}, "type": "electric_scooter", "name": "48b6e926ab0b18f070c67242578b0733", "is_reserved": 0, "lon": -77.03270266666667, "is_disabled": 0, "fusion_lat": 0.0, "lat": 38.927525, "bike_id": "48b6e926ab0b18f070c67242578b0733", "fusion_lon": 0.0}, {"rental_uris": {"ios": "https://dc.lft.to/lastmile_qr_scan", "android": "https://dc.lft.to/lastmile_qr_scan"}, "type": "electric_scooter", "name": "d2abd4468b22032788044e2508cd2046", "is_reserved": 0, "lon": -77.0445735, "is_disabled": 0, "fusion_lat": 0.0, "lat": 38.909495666666665, "bike_id": "d2abd4468b22032788044e2508cd2046", "fusion_lon": 0.0}, {"rental_uris": {"ios": "https://dc.lft.to/lastmile_qr_scan", "android": "https://dc.lft.to/lastmile_qr_scan"}, "type": "electric_scooter", "name": "89c96e594e9469ae32a10ea09c874430", "is_reserved": 0, "lon": -77.03861083333334, "is_disabled": 0, "fusion_lat": 0.0, "lat": 38.932505166666665, "bike_id": "89c96e594e9469ae32a10ea09c874430", "fusion_lon": 0.0}, {"rental_uris": {"ios": "https://dc.lft.to/lastmile_qr_scan", "android": "https://dc.lft.to/lastmile_qr_scan"}, "type": "electric_scooter", "name": "22ae57d2b4e25d12967f7e2db6abfe5c", "is_reserved": 0, "lon": -77.02703516666666, "is_disabled": 0, "fusion_lat": 0.0, "lat": 38.90461033333333, "bike_id": "22ae57d2b4e25d12967f7e2db6abfe5c", "fusion_lon": 0.0}, {"rental_uris": {"ios": "https://dc.lft.to/lastmile_qr_scan", "android": "https://dc.lft.to/lastmile_qr_scan"}, "type": "electric_scooter", "name": "4d3b3b1e3f3d754fd7791a4a8a06ee33", "is_reserved": 0, "lon": -77.03364933333333, "is_disabled": 0, "fusion_lat": 0.0, "lat": 38.89898066666667, "bike_id": "4d3b3b1e3f3d754fd7791a4a8a06ee33", "fusion_lon": 0.0}, {"rental_uris": {"ios": "https://dc.lft.to/lastmile_qr_scan", "android": "https://dc.lft.to/lastmile_qr_scan"}, "type": "electric_scooter", "name": "75da36bb91e9c5bf4f0281b2b4916a27", "is_reserved": 0, "lon": -77.04491433333334, "is_disabled": 0, "fusion_lat": 0.0, "lat": 38.914472833333335, "bike_id": "75da36bb91e9c5bf4f0281b2b4916a27", "fusion_lon": 0.0}, {"rental_uris": {"ios": "https://dc.lft.to/lastmile_qr_scan", "android": "https://dc.lft.to/lastmile_qr_scan"}, "type": "electric_scooter", "name": "c04bb0fa3a716e29402857c808bb1ceb", "is_reserved": 0, "lon": -77.021578, "is_disabled": 0, "fusion_lat": 0.0, "lat": 38.8970165, "bike_id": "c04bb0fa3a716e29402857c808bb1ceb", "fusion_lon": 0.0}, {"rental_uris": {"ios": "https://dc.lft.to/lastmile_qr_scan", "android": "https://dc.lft.to/lastmile_qr_scan"}, "type": "electric_scooter", "name": "7f88c9e2458d9e15a8c242a861f087b8", "is_reserved": 0, "lon": -77.01980583333334, "is_disabled": 0, "fusion_lat": 0.0, "lat": 38.88716316666667, "bike_id": "7f88c9e2458d9e15a8c242a861f087b8", "fusion_lon": 0.0}, {"rental_uris": {"ios": "https://dc.lft.to/lastmile_qr_scan", "android": "https://dc.lft.to/lastmile_qr_scan"}, "type": "electric_scooter", "name": "ebe878cca0358e3933be1eb055ddfeb4", "is_reserved": 0, "lon": -77.03903233333334, "is_disabled": 0, "fusion_lat": 0.0, "lat": 38.91259083333333, "bike_id": "ebe878cca0358e3933be1eb055ddfeb4", "fusion_lon": 0.0}, {"rental_uris": {"ios": "https://dc.lft.to/lastmile_qr_scan", "android": "https://dc.lft.to/lastmile_qr_scan"}, "type": "electric_scooter", "name": "f14fe5f3485c77aa47db5de84240b4c3", "is_reserved": 0, "lon": -77.01884766666667, "is_disabled": 0, "fusion_lat": 0.0, "lat": 38.923230333333336, "bike_id": "f14fe5f3485c77aa47db5de84240b4c3", "fusion_lon": 0.0}, {"rental_uris": {"ios": "https://dc.lft.to/lastmile_qr_scan", "android": "https://dc.lft.to/lastmile_qr_scan"}, "type": "electric_scooter", "name": "81ff900a72480518038300b30b2c282f", "is_reserved": 0, "lon": -77.00410266666667, "is_disabled": 0, "fusion_lat": 0.0, "lat": 38.87449066666667, "bike_id": "81ff900a72480518038300b30b2c282f", "fusion_lon": 0.0}, {"rental_uris": {"ios": "https://dc.lft.to/lastmile_qr_scan", "android": "https://dc.lft.to/lastmile_qr_scan"}, "type": "electric_scooter", "name": "d2237321b9d3d88a412c2cc782b96043", "is_reserved": 0, "lon": -77.00570416666666, "is_disabled": 0, "fusion_lat": 0.0, "lat": 38.87460633333333, "bike_id": "d2237321b9d3d88a412c2cc782b96043", "fusion_lon": 0.0}, {"rental_uris": {"ios": "https://dc.lft.to/lastmile_qr_scan", "android": "https://dc.lft.to/lastmile_qr_scan"}, "type": "electric_scooter", "name": "03f2e2228fe3c1940569ec723764cccc", "is_reserved": 0, "lon": -76.9568585, "is_disabled": 0, "fusion_lat": 0.0, "lat": 38.89197883333333, "bike_id": "03f2e2228fe3c1940569ec723764cccc", "fusion_lon": 0.0}, {"rental_uris": {"ios": "https://dc.lft.to/lastmile_qr_scan", "android": "https://dc.lft.to/lastmile_qr_scan"}, "type": "electric_scooter", "name": "2b70a6bdb395a4e16995e92b0f1ad4ed", "is_reserved": 0, "lon": -77.0060715, "is_disabled": 0, "fusion_lat": 0.0, "lat": 38.875727833333336, "bike_id": "2b70a6bdb395a4e16995e92b0f1ad4ed", "fusion_lon": 0.0}, {"rental_uris": {"ios": "https://dc.lft.to/lastmile_qr_scan", "android": "https://dc.lft.to/lastmile_qr_scan"}, "type": "electric_scooter", "name": "735a0a2ed3de649258f58c2e53530044", "is_reserved": 0, "lon": -77.04350466666666, "is_disabled": 0, "fusion_lat": 0.0, "lat": 38.901196666666664, "bike_id": "735a0a2ed3de649258f58c2e53530044", "fusion_lon": 0.0}, {"rental_uris": {"ios": "https://dc.lft.to/lastmile_qr_scan", "android": "https://dc.lft.to/lastmile_qr_scan"}, "type": "electric_scooter", "name": "9351e43709f1aecf4ec85600d592342c", "is_reserved": 0, "lon": -77.03161066666667, "is_disabled": 0, "fusion_lat": 0.0, "lat": 38.91806716666667, "bike_id": "9351e43709f1aecf4ec85600d592342c", "fusion_lon": 0.0}, {"rental_uris": {"ios": "https://dc.lft.to/lastmile_qr_scan", "android": "https://dc.lft.to/lastmile_qr_scan"}, "type": "electric_scooter", "name": "ab6ef36cd872623977855a76b53d9b07", "is_reserved": 0, "lon": -77.01609516666667, "is_disabled": 0, "fusion_lat": 0.0, "lat": 38.895320166666664, "bike_id": "ab6ef36cd872623977855a76b53d9b07", "fusion_lon": 0.0}, {"rental_uris": {"ios": "https://dc.lft.to/lastmile_qr_scan", "android": "https://dc.lft.to/lastmile_qr_scan"}, "type": "electric_bike", "name": "8fa577843d0ee4da35a01e1ecf86c82f", "is_reserved": 0, "lon": -77.001479, "is_disabled": 0, "fusion_lat": 0.0, "lat": 38.910820666666666, "bike_id": "8fa577843d0ee4da35a01e1ecf86c82f", "fusion_lon": 0.0}, {"rental_uris": {"ios": "https://dc.lft.to/lastmile_qr_scan", "android": "https://dc.lft.to/lastmile_qr_scan"}, "type": "electric_scooter", "name": "7a82dc95661d90de3d42986a1c49b043", "is_reserved": 0, "lon": -77.016156, "is_disabled": 0, "fusion_lat": 0.0, "lat": 38.912723, "bike_id": "7a82dc95661d90de3d42986a1c49b043", "fusion_lon": 0.0}, {"rental_uris": {"ios": "https://dc.lft.to/lastmile_qr_scan", "android": "https://dc.lft.to/lastmile_qr_scan"}, "type": "electric_scooter", "name": "28f147937685d6d0361b2966e7d5f4f4", "is_reserved": 0, "lon": -77.04169916666666, "is_disabled": 0, "fusion_lat": 0.0, "lat": 38.91697833333333, "bike_id": "28f147937685d6d0361b2966e7d5f4f4", "fusion_lon": 0.0}, {"rental_uris": {"ios": "https://dc.lft.to/lastmile_qr_scan", "android": "https://dc.lft.to/lastmile_qr_scan"}, "type": "electric_scooter", "name": "634863740e9241f4f09656ba9f938ed1", "is_reserved": 0, "lon": -77.0135595, "is_disabled": 0, "fusion_lat": 0.0, "lat": 38.9162425, "bike_id": "634863740e9241f4f09656ba9f938ed1", "fusion_lon": 0.0}, {"rental_uris": {"ios": "https://dc.lft.to/lastmile_qr_scan", "android": "https://dc.lft.to/lastmile_qr_scan"}, "type": "electric_scooter", "name": "28eccaeaecdcc7c8ed6304f8d588f5a3", "is_reserved": 0, "lon": -77.040223, "is_disabled": 0, "fusion_lat": 0.0, "lat": 38.924570333333335, "bike_id": "28eccaeaecdcc7c8ed6304f8d588f5a3", "fusion_lon": 0.0}, {"rental_uris": {"ios": "https://dc.lft.to/lastmile_qr_scan", "android": "https://dc.lft.to/lastmile_qr_scan"},