{"data": {"bikes": [{"is_reserved": 0, "type": "electric_scooter", "bike_id": "78d968d884c58e0783bba5b82bdb7fa1", "lat": 38.909438, "lon": -77.032988, "rental_uris": {"android": "https://dc.lft.to/lastmile_qr_scan", "ios": "https://dc.lft.to/lastmile_qr_scan"}, "is_disabled": 0, "fusion_lat": 0.0, "name": "78d968d884c58e0783bba5b82bdb7fa1", "fusion_lon": 0.0}, {"is_reserved": 0, "type": "electric_scooter", "bike_id": "5e6c8d2ad7c54044ffdc43258b49c03a", "lat": 38.92871816666667, "lon": -77.02705916666666, "rental_uris": {"android": "https://dc.lft.to/lastmile_qr_scan", "ios": "https://dc.lft.to/lastmile_qr_scan"}, "is_disabled": 0, "fusion_lat": 0.0, "name": "5e6c8d2ad7c54044ffdc43258b49c03a", "fusion_lon": 0.0}, {"is_reserved": 0, "type": "electric_scooter", "bike_id": "f78448f73fab91f2d63b4a7bcea55a2d", "lat": 38.90588133333333, "lon": -77.04104233333334, "rental_uris": {"android": "https://dc.lft.to/lastmile_qr_scan", "ios": "https://dc.lft.to/lastmile_qr_scan"}, "is_disabled": 0, "fusion_lat": 0.0, "name": "f78448f73fab91f2d63b4a7bcea55a2d", "fusion_lon": 0.0}, {"is_reserved": 0, "type": "electric_scooter", "bike_id": "f6f45401e39179ac04f37b53f15dcd9b", "lat": 38.90598283333333, "lon": -77.04666366666666, "rental_uris": {"android": "https://dc.lft.to/lastmile_qr_scan", "ios": "https://dc.lft.to/lastmile_qr_scan"}, "is_disabled": 0, "fusion_lat": 0.0, "name": "f6f45401e39179ac04f37b53f15dcd9b", "fusion_lon": 0.0}, {"is_reserved": 0, "type": "electric_scooter", "bike_id": "364aefeb2aba2652105fe59c207f16e8", "lat": 38.865775666666664, "lon": -76.99039266666666, "rental_uris": {"android": "https://dc.lft.to/lastmile_qr_scan", "ios": "https://dc.lft.to/lastmile_qr_scan"}, "is_disabled": 0, "fusion_lat": 0.0, "name": "364aefeb2aba2652105fe59c207f16e8", "fusion_lon": 0.0}, {"is_reserved": 0, "type": "electric_scooter", "bike_id": "521813e73259abcd91762213d7a0088f", "lat": 38.916713, "lon": -77.02977066666666, "rental_uris": {"android": "https://dc.lft.to/lastmile_qr_scan", "ios": "https://dc.lft.to/lastmile_qr_scan"}, "is_disabled": 0, "fusion_lat": 0.0, "name": "521813e73259abcd91762213d7a0088f", "fusion_lon": 0.0}, {"is_reserved": 0, "type": "electric_scooter", "bike_id": "3680f74f8871728ab4bfe09f6c1a1329", "lat": 38.91288616666667, "lon": -76.985392, "rental_uris": {"android": "https://dc.lft.to/lastmile_qr_scan", "ios": "https://dc.lft.to/lastmile_qr_scan"}, "is_disabled": 0, "fusion_lat": 0.0, "name": "3680f74f8871728ab4bfe09f6c1a1329", "fusion_lon": 0.0}, {"is_reserved": 0, "type": "electric_scooter", "bike_id": "7bbbbc03df54ef33afce3d14c6c4935e", "lat": 38.917911, "lon": -77.02479516666666, "rental_uris": {"android": "https://dc.lft.to/lastmile_qr_scan", "ios": "https://dc.lft.to/lastmile_qr_scan"}, "is_disabled": 0, "fusion_lat": 0.0, "name": "7bbbbc03df54ef33afce3d14c6c4935e", "fusion_lon": 0.0}, {"is_reserved": 0, "type": "electric_scooter", "bike_id": "67c82e6588063bb136fe310b17a39cb0", "lat": 38.894862, "lon": -77.0269435, "rental_uris": {"android": "https://dc.lft.to/lastmile_qr_scan", "ios": "https://dc.lft.to/lastmile_qr_scan"}, "is_disabled": 0, "fusion_lat": 0.0, "name": "67c82e6588063bb136fe310b17a39cb0", "fusion_lon": 0.0}, {"is_reserved": 0, "type": "electric_scooter", "bike_id": "cf60607c67fcd01b3d042643a9df898a", "lat": 38.93048, "lon": -77.03617583333333, "rental_uris": {"android": "https://dc.lft.to/lastmile_qr_scan", "ios": "https://dc.lft.to/lastmile_qr_scan"}, "is_disabled": 0, "fusion_lat": 0.0, "name": "cf60607c67fcd01b3d042643a9df898a", "fusion_lon": 0.0}, {"is_reserved": 0, "type": "electric_scooter", "bike_id": "88cb57f72087c9eec9c75d27e6cf0a17", "lat": 38.944381166666666, "lon": -76.97960766666667, "rental_uris": {"android": "https://dc.lft.to/lastmile_qr_scan", "ios": "https://dc.lft.to/lastmile_qr_scan"}, "is_disabled": 0, "fusion_lat": 0.0, "name": "88cb57f72087c9eec9c75d27e6cf0a17", "fusion_lon": 0.0}, {"is_reserved": 0, "type": "electric_scooter", "bike_id": "ee8482fa63e44d3b514282535dc172ab", "lat": 38.93995666666667, "lon": -77.01956166666666, "rental_uris": {"android": "https://dc.lft.to/lastmile_qr_scan", "ios": "https://dc.lft.to/lastmile_qr_scan"}, "is_disabled": 0, "fusion_lat": 0.0, "name": "ee8482fa63e44d3b514282535dc172ab", "fusion_lon": 0.0}, {"is_reserved": 0, "type": "electric_scooter", "bike_id": "f33b6ab7fd986fe7eb04cfb97f3cc09b", "lat": 38.92619633333333, "lon": -77.04326116666667, "rental_uris": {"android": "https://dc.lft.to/lastmile_qr_scan", "ios": "https://dc.lft.to/lastmile_qr_scan"}, "is_disabled": 0, "fusion_lat": 0.0, "name": "f33b6ab7fd986fe7eb04cfb97f3cc09b", "fusion_lon": 0.0}, {"is_reserved": 0, "type": "electric_scooter", "bike_id": "5ec23d73dabbe49f57a53fd0de4b3985", "lat": 38.919327833333334, "lon": -77.0416585, "rental_uris": {"android": "https://dc.lft.to/lastmile_qr_scan", "ios": "https://dc.lft.to/lastmile_qr_scan"}, "is_disabled": 0, "fusion_lat": 0.0, "name": "5ec23d73dabbe49f57a53fd0de4b3985", "fusion_lon": 0.0}, {"is_reserved": 0, "type": "electric_scooter", "bike_id": "fbd176d88dba39c268bdcc5dd9459c29", "lat": 38.91981366666667, "lon": -77.04179516666666, "rental_uris": {"android": "https://dc.lft.to/lastmile_qr_scan", "ios": "https://dc.lft.to/lastmile_qr_scan"}, "is_disabled": 0, "fusion_lat": 0.0, "name": "fbd176d88dba39c268bdcc5dd9459c29", "fusion_lon": 0.0}, {"is_reserved": 0, "type": "electric_scooter", "bike_id": "1e9161ed9794ea9efa0dd6fdb170cc68", "lat": 38.895278, "lon": -77.0446855, "rental_uris": {"android": "https://dc.lft.to/lastmile_qr_scan", "ios": "https://dc.lft.to/lastmile_qr_scan"}, "is_disabled": 0, "fusion_lat": 0.0, "name": "1e9161ed9794ea9efa0dd6fdb170cc68", "fusion_lon": 0.0}, {"is_reserved": 0, "type": "electric_scooter", "bike_id": "cdc2f1ce8bcd2d9a9e5c6c483561e010", "lat": 38.914769, "lon": -77.032331, "rental_uris": {"android": "https://dc.lft.to/lastmile_qr_scan", "ios": "https://dc.lft.to/lastmile_qr_scan"}, "is_disabled": 0, "fusion_lat": 0.0, "name": "cdc2f1ce8bcd2d9a9e5c6c483561e010", "fusion_lon": 0.0}, {"is_reserved": 0, "type": "electric_scooter", "bike_id": "602eb9609cbccab8c9c4f4b64b58237d", "lat": 38.95740816666667, "lon": -77.030211, "rental_uris": {"android": "https://dc.lft.to/lastmile_qr_scan", "ios": "https://dc.lft.to/lastmile_qr_scan"}, "is_disabled": 0, "fusion_lat": 0.0, "name": "602eb9609cbccab8c9c4f4b64b58237d", "fusion_lon": 0.0}, {"is_reserved": 0, "type": "electric_scooter", "bike_id": "cdc090310673708249130411c0f27928", "lat": 38.932138, "lon": -77.0267395, "rental_uris": {"android": "https://dc.lft.to/lastmile_qr_scan", "ios": "https://dc.lft.to/lastmile_qr_scan"}, "is_disabled": 0, "fusion_lat": 0.0, "name": "cdc090310673708249130411c0f27928", "fusion_lon": 0.0}, {"is_reserved": 0, "type": "electric_bike", "bike_id": "aa3135f6a4db919b019bc0b313a82dbb", "lat": 39.084925, "lon": -76.95059066666667, "rental_uris": {"android": "https://dc.lft.to/lastmile_qr_scan", "ios": "https://dc.lft.to/lastmile_qr_scan"}, "is_disabled": 0, "fusion_lat": 0.0, "name": "aa3135f6a4db919b019bc0b313a82dbb", "fusion_lon": 0.0}, {"is_reserved": 0, "type": "electric_scooter", "bike_id": "cf635bd051734af11c40f0dfd2c557e9", "lat": 38.90201066666667, "lon": -77.021734, "rental_uris": {"android": "https://dc.lft.to/lastmile_qr_scan", "ios": "https://dc.lft.to/lastmile_qr_scan"}, "is_disabled": 0, "fusion_lat": 0.0, "name": "cf635bd051734af11c40f0dfd2c557e9", "fusion_lon": 0.0}, {"is_reserved": 0, "type": "electric_scooter", "bike_id": "f2a1a0d32d0804db79727510c50fe561", "lat": 38.928672666666664, "lon": -77.03252033333334, "rental_uris": {"android": "https://dc.lft.to/lastmile_qr_scan", "ios": "https://dc.lft.to/lastmile_qr_scan"}, "is_disabled": 0, "fusion_lat": 0.0, "name": "f2a1a0d32d0804db79727510c50fe561", "fusion_lon": 0.0}, {"is_reserved": 0, "type": "electric_scooter", "bike_id": "a2d446989cf77453502a32b9f9c948b5", "lat": 38.91708066666666, "lon": -77.03227966666667, "rental_uris": {"android": "https://dc.lft.to/lastmile_qr_scan", "ios": "https://dc.lft.to/lastmile_qr_scan"}, "is_disabled": 0, "fusion_lat": 0.0, "name": "a2d446989cf77453502a32b9f9c948b5", "fusion_lon": 0.0}, {"is_reserved": 0, "type": "electric_scooter", "bike_id": "c050a6f14ec93f94d0b5ecffa30d0b2f", "lat": 38.92332316666667, "lon": -77.00889416666666, "rental_uris": {"android": "https://dc.lft.to/lastmile_qr_scan", "ios": "https://dc.lft.to/lastmile_qr_scan"}, "is_disabled": 0, "fusion_lat": 0.0, "name": "c050a6f14ec93f94d0b5ecffa30d0b2f", "fusion_lon": 0.0}, {"is_reserved": 0, "type": "electric_scooter", "bike_id": "2aec58c7e2b984cdaf82b180b02b3dc4", "lat": 38.91846533333333, "lon": -77.04112966666666, "rental_uris": {"android": "https://dc.lft.to/lastmile_qr_scan", "ios": "https://dc.lft.to/lastmile_qr_scan"}, "is_disabled": 0, "fusion_lat": 0.0, "name": "2aec58c7e2b984cdaf82b180b02b3dc4", "fusion_lon": 0.0}, {"is_reserved": 0, "type": "electric_bike", "bike_id": "b16986df41c6a290c183877c81376444", "lat": 38.893897333333335, "lon": -76.8683995, "rental_uris": {"android": "https://dc.lft.to/lastmile_qr_scan", "ios": "https://dc.lft.to/lastmile_qr_scan"}, "is_disabled": 0, "fusion_lat": 0.0, "name": "b16986df41c6a290c183877c81376444", "fusion_lon": 0.0}, {"is_reserved": 0, "type": "electric_scooter", "bike_id": "f07e12dd8d9b970c468a133559caeb7c", "lat": 38.89999666666667, "lon": -77.027194, "rental_uris": {"android": "https://dc.lft.to/lastmile_qr_scan", "ios": "https://dc.lft.to/lastmile_qr_scan"}, "is_disabled": 0, "fusion_lat": 0.0, "name": "f07e12dd8d9b970c468a133559caeb7c", "fusion_lon": 0.0}, {"is_reserved": 0, "type": "electric_scooter", "bike_id": "463c7e8f6f4aca61891862a82ca5f423", "lat": 38.92417783333333, "lon": -77.020124, "rental_uris": {"android": "https://dc.lft.to/lastmile_qr_scan", "ios": "https://dc.lft.to/lastmile_qr_scan"}, "is_disabled": 0, "fusion_lat": 0.0, "name": "463c7e8f6f4aca61891862a82ca5f423", "fusion_lon": 0.0}, {"is_reserved": 0, "type": "electric_scooter", "bike_id": "21e1c8fdbf439f6324343478f13cc698", "lat": 38.89191916666667, "lon": -77.02175966666667, "rental_uris": {"android": "https://dc.lft.to/lastmile_qr_scan", "ios": "https://dc.lft.to/lastmile_qr_scan"}, "is_disabled": 0, "fusion_lat": 0.0, "name": "21e1c8fdbf439f6324343478f13cc698", "fusion_lon": 0.0}, {"is_reserved": 0, "type": "electric_scooter", "bike_id": "c22035607ce276d62a56dce2cfe4867e", "lat": 38.9054455, "lon": -77.04156383333333, "rental_uris": {"android": "https://dc.lft.to/lastmile_qr_scan", "ios": "https://dc.lft.to/lastmile_qr_scan"}, "is_disabled": 0, "fusion_lat": 0.0, "name": "c22035607ce276d62a56dce2cfe4867e", "fusion_lon": 0.0}, {"is_reserved": 0, "type": "electric_scooter", "bike_id": "fb78695a617b0a0adab3cac2a4b8b91e", "lat": 38.91719666666667, "lon": -77.03835633333334, "rental_uris": {"android": "https://dc.lft.to/lastmile_qr_scan", "ios": "https://dc.lft.to/lastmile_qr_scan"}, "is_disabled": 0, "fusion_lat": 0.0, "name": "fb78695a617b0a0adab3cac2a4b8b91e", "fusion_lon": 0.0}, {"is_reserved": 0, "type": "electric_bike", "bike_id": "ab4df9f71f26407ab84e64a8722d917a", "lat": 39.00004583333333, "lon": -76.91800666666667, "rental_uris": {"android": "https://dc.lft.to/lastmile_qr_scan", "ios": "https://dc.lft.to/lastmile_qr_scan"}, "is_disabled": 0, "fusion_lat": 0.0, "name": "ab4df9f71f26407ab84e64a8722d917a", "fusion_lon": 0.0}, {"is_reserved": 0, "type": "electric_bike", "bike_id": "611ed161ff93e91451687a2b7ce32eee", "lat": 39.01089316666667, "lon": -77.049523, "rental_uris": {"android": "https://dc.lft.to/lastmile_qr_scan", "ios": "https://dc.lft.to/lastmile_qr_scan"}, "is_disabled": 0, "fusion_lat": 0.0, "name": "611ed161ff93e91451687a2b7ce32eee", "fusion_lon": 0.0}, {"is_reserved": 0, "type": "electric_scooter", "bike_id": "a614e4d7fc3270a541a60403ce801f40", "lat": 38.919860666666665, "lon": -76.973033, "rental_uris": {"android": "https://dc.lft.to/lastmile_qr_scan", "ios": "https://dc.lft.to/lastmile_qr_scan"}, "is_disabled": 0, "fusion_lat": 0.0, "name": "a614e4d7fc3270a541a60403ce801f40", "fusion_lon": 0.0}, {"is_reserved": 0, "type": "electric_scooter", "bike_id": "e427c8cb7a027ce2d16601eb3b03ebd7", "lat": 38.917603, "lon": -77.00357366666667, "rental_uris": {"android": "https://dc.lft.to/lastmile_qr_scan", "ios": "https://dc.lft.to/lastmile_qr_scan"}, "is_disabled": 0, "fusion_lat": 0.0, "name": "e427c8cb7a027ce2d16601eb3b03ebd7", "fusion_lon": 0.0}, {"is_reserved": 0, "type": "electric_bike", "bike_id": "4cb4b8d6c26e7de0c1bceea5ec7aa5a4", "lat": 38.86331333333333, "lon": -76.98727466666666, "rental_uris": {"android": "https://dc.lft.to/lastmile_qr_scan", "ios": "https://dc.lft.to/lastmile_qr_scan"}, "is_disabled": 0, "fusion_lat": 0.0, "name": "4cb4b8d6c26e7de0c1bceea5ec7aa5a4", "fusion_lon": 0.0}, {"is_reserved": 0, "type": "electric_scooter", "bike_id": "e9ee6a65bdebb67a8300783a9be2c0bc", "lat": 38.91682616666667, "lon": -77.022911, "rental_uris": {"android": "https://dc.lft.to/lastmile_qr_scan", "ios": "https://dc.lft.to/lastmile_qr_scan"}, "is_disabled": 0, "fusion_lat": 0.0, "name": "e9ee6a65bdebb67a8300783a9be2c0bc", "fusion_lon": 0.0}, {"is_reserved": 0, "type": "electric_scooter", "bike_id": "e04114d1c139c3aa1ca6ae304dbfa39f", "lat": 38.91786033333333, "lon": -77.04105016666666, "rental_uris": {"android": "https://dc.lft.to/lastmile_qr_scan", "ios": "https://dc.lft.to/lastmile_qr_scan"}, "is_disabled": 0, "fusion_lat": 0.0, "name": "e04114d1c139c3aa1ca6ae304dbfa39f", "fusion_lon": 0.0}, {"is_reserved": 0, "type": "electric_scooter", "bike_id": "d5d3eb77c0ffce89eb50a11e34757274", "lat": 38.900094, "lon": -76.9890495, "rental_uris": {"android": "https://dc.lft.to/lastmile_qr_scan", "ios": "https://dc.lft.to/lastmile_qr_scan"}, "is_disabled": 0, "fusion_lat": 0.0, "name": "d5d3eb77c0ffce89eb50a11e34757274", "fusion_lon": 0.0}, {"is_reserved": 0, "type": "electric_scooter", "bike_id": "35f505c1f4334106e93394d662bbebfe", "lat": 38.925642833333335, "lon": -76.97006, "rental_uris": {"android": "https://dc.lft.to/lastmile_qr_scan", "ios": "https://dc.lft.to/lastmile_qr_scan"}, "is_disabled": 0, "fusion_lat": 0.0, "name": "35f505c1f4334106e93394d662bbebfe", "fusion_lon": 0.0}, {"is_reserved": 0, "type": "electric_scooter", "bike_id": "c3246ffebb981f345f98c3f286d9c039", "lat": 38.929699, "lon": -77.02340716666667, "rental_uris": {"android": "https://dc.lft.to/lastmile_qr_scan", "ios": "https://dc.lft.to/lastmile_qr_scan"}, "is_disabled": 0, "fusion_lat": 0.0, "name": "c3246ffebb981f345f98c3f286d9c039", "fusion_lon": 0.0}, {"is_reserved": 0, "type": "electric_scooter", "bike_id": "bef150ef4b612ead8fde20d87992330b", "lat": 38.908671, "lon": -77.0218575, "rental_uris": {"android": "https://dc.lft.to/lastmile_qr_scan", "ios": "https://dc.lft.to/lastmile_qr_scan"}, "is_disabled": 0, "fusion_lat": 0.0, "name": "bef150ef4b612ead8fde20d87992330b", "fusion_lon": 0.0}, {"is_reserved": 0, "type": "electric_scooter", "bike_id": "b970d27abb7c8ac71e1aa6d6edb75d28", "lat": 38.924954, "lon": -77.0523575, "rental_uris": {"android": "https://dc.lft.to/lastmile_qr_scan", "ios": "https://dc.lft.to/lastmile_qr_scan"}, "is_disabled": 0, "fusion_lat": 0.0, "name": "b970d27abb7c8ac71e1aa6d6edb75d28", "fusion_lon": 0.0}, {"is_reserved": 0, "type": "electric_scooter", "bike_id": "90baef845179651383ae461d9c084b89", "lat": 38.921671, "lon": -77.03215866666666, "rental_uris": {"android": "https://dc.lft.to/lastmile_qr_scan", "ios": "https://dc.lft.to/lastmile_qr_scan"}, "is_disabled": 0, "fusion_lat": 0.0, "name": "90baef845179651383ae461d9c084b89", "fusion_lon": 0.0}, {"is_reserved": 0, "type": "electric_scooter", "bike_id": "0ff275be3f92d96624d6dff357b2fd4b", "lat": 38.947314, "lon": -77.02459616666667, "rental_uris": {"android": "https://dc.lft.to/lastmile_qr_scan", "ios": "https://dc.lft.to/lastmile_qr_scan"}, "is_disabled": 0, "fusion_lat": 0.0, "name": "0ff275be3f92d96624d6dff357b2fd4b", "fusion_lon": 0.0}, {"is_reserved": 0, "type": "electric_scooter", "bike_id": "a1e77781e4190677128f8ce78ce738cc", "lat": 38.920913666666664, "lon": -77.02513066666667, "rental_uris": {"android": "https://dc.lft.to/lastmile_qr_scan", "ios": "https://dc.lft.to/lastmile_qr_scan"}, "is_disabled": 0, "fusion_lat": 0.0, "name": "a1e77781e4190677128f8ce78ce738cc", "fusion_lon": 0.0}, {"is_reserved": 0, "type": "electric_scooter", "bike_id": "2253d52993c0f6c77c92c7733d737cff", "lat": 38.919336, "lon": -77.03148333333333, "rental_uris": {"android": "https://dc.lft.to/lastmile_qr_scan", "ios": "https://dc.lft.to/lastmile_qr_scan"}, "is_disabled": 0, "fusion_lat": 0.0, "name": "2253d52993c0f6c77c92c7733d737cff", "fusion_lon": 0.0}, {"is_reserved": 0, "type": "electric_scooter", "bike_id": "2e33ace234cf649f9c717c0603259e0f", "lat": 38.902811166666666, "lon": -77.022702, "rental_uris": {"android": "https://dc.lft.to/lastmile_qr_scan", "ios": "https://dc.lft.to/lastmile_qr_scan"}, "is_disabled": 0, "fusion_lat": 0.0, "name": "2e33ace234cf649f9c717c0603259e0f", "fusion_lon": 0.0}, {"is_reserved": 0, "type": "electric_scooter", "bike_id": "525cd6955e2613f3f13537b14ce5a904", "lat": 38.90683766666667, "lon": -77.06260916666666, "rental_uris": {"android": "https://dc.lft.to/lastmile_qr_scan", "ios": "https://dc.lft.to/lastmile_qr_scan"}, "is_disabled": 0, "fusion_lat": 0.0, "name": "525cd6955e2613f3f13537b14ce5a904", "fusion_lon": 0.0}, {"is_reserved": 0, "type": "electric_scooter", "bike_id": "ef643c2e439dc4be3f40d808150991aa", "lat": 38.92442883333333, "lon": -77.03397366666667, "rental_uris": {"android": "https://dc.lft.to/lastmile_qr_scan", "ios": "https://dc.lft.to/lastmile_qr_scan"}, "is_disabled": 0, "fusion_lat": 0.0, "name": "ef643c2e439dc4be3f40d808150991aa", "fusion_lon": 0.0}, {"is_reserved": 0, "type": "electric_bike", "bike_id": "2cb2dd6f571437f1cda0261c9540d6a0", "lat": 39.0381605, "lon": -77.04224333333333, "rental_uris": {"android": "https://dc.lft.to/lastmile_qr_scan", "ios": "https://dc.lft.to/lastmile_qr_scan"}, "is_disabled": 0, "fusion_lat": 0.0, "name": "2cb2dd6f571437f1cda0261c9540d6a0", "fusion_lon": 0.0}, {"is_reserved": 0, "type": "electric_scooter", "bike_id": "cb03fd7b5687730fa4667297d386014a", "lat": 38.90541016666667, "lon": -77.06269383333333, "rental_uris": {"android": "https://dc.lft.to/lastmile_qr_scan", "ios": "https://dc.lft.to/lastmile_qr_scan"}, "is_disabled": 0, "fusion_lat": 0.0, "name": "cb03fd7b5687730fa4667297d386014a", "fusion_lon": 0.0}, {"is_reserved": 0, "type": "electric_scooter", "bike_id": "b11261fde0c43c7ba90f4830036a1ad2", "lat": 38.8981335, "lon": -77.03346633333334, "rental_uris": {"android": "https://dc.lft.to/lastmile_qr_scan", "ios": "https://dc.lft.to/lastmile_qr_scan"}, "is_disabled": 0, "fusion_lat": 0.0, "name": "b11261fde0c43c7ba90f4830036a1ad2", "fusion_lon": 0.0}, {"is_reserved": 0, "type": "electric_scooter", "bike_id": "3a87831038d8da6be887e7f218586aa7", "lat": 38.91804, "lon": -77.03444333333333, "rental_uris": {"android": "https://dc.lft.to/lastmile_qr_scan", "ios": "https://dc.lft.to/lastmile_qr_scan"}, "is_disabled": 0, "fusion_lat": 0.0, "name": "3a87831038d8da6be887e7f218586aa7", "fusion_lon": 0.0}, {"is_reserved": 0, "type": "electric_scooter", "bike_id": "b15cfe03e2b976b0ece5376c1501adcd", "lat": 38.88493533333333, "lon": -77.00712066666667, "rental_uris": {"android": "https://dc.lft.to/lastmile_qr_scan", "ios": "https://dc.lft.to/lastmile_qr_scan"}, "is_disabled": 0, "fusion_lat": 0.0, "name": "b15cfe03e2b976b0ece5376c1501adcd", "fusion_lon": 0.0}, {"is_reserved": 0, "type": "electric_scooter", "bike_id": "3e101a3590170521e24ba368195ed556", "lat": 38.88368466666667, "lon": -76.99501016666666, "rental_uris": {"android": "https://dc.lft.to/lastmile_qr_scan", "ios": "https://dc.lft.to/lastmile_qr_scan"}, "is_disabled": 0, "fusion_lat": 0.0, "name": "3e101a3590170521e24ba368195ed556", "fusion_lon": 0.0}, {"is_reserved": 0, "type": "electric_scooter", "bike_id": "f6020677e926b070b08d0bfb0ea78f49", "lat": 38.89222566666667, "lon": -77.02808433333334, "rental_uris": {"android": "https://dc.lft.to/lastmile_qr_scan", "ios": "https://dc.lft.to/lastmile_qr_scan"}, "is_disabled": 0, "fusion_lat": 0.0, "name": "f6020677e926b070b08d0bfb0ea78f49", "fusion_lon": 0.0}, {"is_reserved": 0, "type": "electric_scooter", "bike_id": "237ba8946383c3e687ebfeab2db2fbe9", "lat": 38.909549, "lon": -76.98537333333333, "rental_uris": {"android": "https://dc.lft.to/lastmile_qr_scan", "ios": "https://dc.lft.to/lastmile_qr_scan"}, "is_disabled": 0, "fusion_lat": 0.0, "name": "237ba8946383c3e687ebfeab2db2fbe9", "fusion_lon": 0.0}, {"is_reserved": 0, "type": "electric_scooter", "bike_id": "1adcbb5e783ee6a98b5c74f153938a89", "lat": 38.91353433333333, "lon": -77.0318255, "rental_uris": {"android": "https://dc.lft.to/lastmile_qr_scan", "ios": "https://dc.lft.to/lastmile_qr_scan"}, "is_disabled": 0, "fusion_lat": 0.0, "name": "1adcbb5e783ee6a98b5c74f153938a89", "fusion_lon": 0.0}, {"is_reserved": 0, "type": "electric_scooter", "bike_id": "52dd70adf3a81f4e66601dbec59ef0d4", "lat": 38.924502833333335, "lon": -77.03947983333333, "rental_uris": {"android": "https://dc.lft.to/lastmile_qr_scan", "ios": "https://dc.lft.to/lastmile_qr_scan"}, "is_disabled": 0, "fusion_lat": 0.0, "name": "52dd70adf3a81f4e66601dbec59ef0d4", "fusion_lon": 0.0}, {"is_reserved": 0, "type": "electric_scooter", "bike_id": "1d35b613c6fa90baf7dc09f5a117124c", "lat": 38.887360666666666, "lon": -77.022076, "rental_uris": {"android": "https://dc.lft.to/lastmile_qr_scan", "ios": "https://dc.lft.to/lastmile_qr_scan"}, "is_disabled": 0, "fusion_lat": 0.0, "name": "1d35b613c6fa90baf7dc09f5a117124c", "fusion_lon": 0.0}, {"is_reserved": 0, "type": "electric_scooter", "bike_id": "b317710dbe163ccb452d117aaed5ffd1", "lat": 38.91934416666667, "lon": -77.04162133333334, "rental_uris": {"android": "https://dc.lft.to/lastmile_qr_scan", "ios": "https://dc.lft.to/lastmile_qr_scan"}, "is_disabled": 0, "fusion_lat": 0.0, "name": "b317710dbe163ccb452d117aaed5ffd1", "fusion_lon": 0.0}, {"is_reserved": 0, "type": "electric_scooter", "bike_id": "6ee35d98facf7c27712903b08543e8e7", "lat": 38.911832, "lon": -77.0449515, "rental_uris": {"android": "https://dc.lft.to/lastmile_qr_scan", "ios": "https://dc.lft.to/lastmile_qr_scan"}, "is_disabled": 0, "fusion_lat": 0.0, "name": "6ee35d98facf7c27712903b08543e8e7", "fusion_lon": 0.0}, {"is_reserved": 0, "type": "electric_scooter", "bike_id": "1f6692fc62b609513f653dfbb1700c46", "lat": 38.91814866666667, "lon": -77.04000216666667, "rental_uris": {"android": "https://dc.lft.to/lastmile_qr_scan", "ios": "https://dc.lft.to/lastmile_qr_scan"}, "is_disabled": 0, "fusion_lat": 0.0, "name": "1f6692fc62b609513f653dfbb1700c46", "fusion_lon": 0.0}, {"is_reserved": 0, "type": "electric_scooter", "bike_id": "f21bb3d46cb9c727670f7cc4b40bdc28", "lat": 38.9307695, "lon": -77.037413, "rental_uris": {"android": "https://dc.lft.to/lastmile_qr_scan", "ios": "https://dc.lft.to/lastmile_qr_scan"}, "is_disabled": 0, "fusion_lat": 0.0, "name": "f21bb3d46cb9c727670f7cc4b40bdc28", "fusion_lon": 0.0}, {"is_reserved": 0, "type": "electric_scooter", "bike_id": "dbd2ec7d868997a8046a3cb9e3290f24", "lat": 38.900295166666666, "lon": -76.98872766666666, "rental_uris": {"android": "https://dc.lft.to/lastmile_qr_scan", "ios": "https://dc.lft.to/lastmile_qr_scan"}, "is_disabled": 0, "fusion_lat": 0.0, "name": "dbd2ec7d868997a8046a3cb9e3290f24", "fusion_lon": 0.0}, {"is_reserved": 0, "type": "electric_scooter", "bike_id": "906c776341e6349cf317ef352a94ec78", "lat": 38.899893166666665, "lon": -77.02709266666666, "rental_uris": {"android": "https://dc.lft.to/lastmile_qr_scan", "ios": "https://dc.lft.to/lastmile_qr_scan"}, "is_disabled": 0, "fusion_lat": 0.0, "name": "906c776341e6349cf317ef352a94ec78", "fusion_lon": 0.0}, {"is_reserved": 0, "type": "electric_scooter", "bike_id": "ea476a1240ed14345b826579056002b8", "lat": 38.88783083333333, "lon": -76.97709833333333, "rental_uris": {"android": "https://dc.lft.to/lastmile_qr_scan", "ios": "https://dc.lft.to/lastmile_qr_scan"}, "is_disabled": 0, "fusion_lat": 0.0, "name": "ea476a1240ed14345b826579056002b8", "fusion_lon": 0.0}, {"is_reserved": 0, "type": "electric_scooter", "bike_id": "2cad5fe3792302afff42efce61f01d94", "lat": 38.92859516666667, "lon": -77.03735266666666, "rental_uris": {"android": "https://dc.lft.to/lastmile_qr_scan", "ios": "https://dc.lft.to/lastmile_qr_scan"}, "is_disabled": 0, "fusion_lat": 0.0, "name": "2cad5fe3792302afff42efce61f01d94", "fusion_lon": 0.0}, {"is_reserved": 0, "type": "electric_scooter", "bike_id": "0741d3f5603ee55c9d37423a1cffe928", "lat": 38.87295366666667, "lon": -77.0155835, "rental_uris": {"android": "https://dc.lft.to/lastmile_qr_scan", "ios": "https://dc.lft.to/lastmile_qr_scan"}, "is_disabled": 0, "fusion_lat": 0.0, "name": "0741d3f5603ee55c9d37423a1cffe928", "fusion_lon": 0.0}, {"is_reserved": 0, "type": "electric_scooter", "bike_id": "ac41b053ec295c308ce830f01fbfea55", "lat": 38.9001895, "lon": -77.01218416666667, "rental_uris": {"android": "https://dc.lft.to/lastmile_qr_scan", "ios": "https://dc.lft.to/lastmile_qr_scan"}, "is_disabled": 0, "fusion_lat": 0.0, "name": "ac41b053ec295c308ce830f01fbfea55", "fusion_lon": 0.0}, {"is_reserved": 0, "type": "electric_bike", "bike_id": "65bbe6fc60c0554a74cdd3d144f7f25e", "lat": 38.8893315, "lon": -76.91324966666667, "rental_uris": {"android": "https://dc.lft.to/lastmile_qr_scan", "ios": "https://dc.lft.to/lastmile_qr_scan"}, "is_disabled": 0, "fusion_lat": 0.0, "name": "65bbe6fc60c0554a74cdd3d144f7f25e", "fusion_lon": 0.0}, {"is_reserved": 0, "type": "electric_scooter", "bike_id": "0dd6a29e36b21cb9f0c3df2410506875", "lat": 38.89750183333334, "lon": -77.03170016666667, "rental_uris": {"android": "https://dc.lft.to/lastmile_qr_scan", "ios": "https://dc.lft.to/lastmile_qr_scan"}, "is_disabled": 0, "fusion_lat": 0.0, "name": "0dd6a29e36b21cb9f0c3df2410506875", "fusion_lon": 0.0}, {"is_reserved": 0, "type": "electric_scooter", "bike_id": "5133e5dd7d06590bf4b590a40656e7d0", "lat": 38.92484866666667, "lon": -77.022704, "rental_uris": {"android": "https://dc.lft.to/lastmile_qr_scan", "ios": "https://dc.lft.to/lastmile_qr_scan"}, "is_disabled": 0, "fusion_lat": 0.0, "name": "5133e5dd7d06590bf4b590a40656e7d0", "fusion_lon": 0.0}, {"is_reserved": 0, "type": "electric_scooter", "bike_id": "1788c509e2888f16a2e6b96822a00173", "lat": 38.897045, "lon": -77.02270266666666, "rental_uris": {"android": "https://dc.lft.to/lastmile_qr_scan", "ios": "https://dc.lft.to/lastmile_qr_scan"}, "is_disabled": 0, "fusion_lat": 0.0, "name": "1788c509e2888f16a2e6b96822a00173", "fusion_lon": 0.0}, {"is_reserved": 0, "type": "electric_scooter", "bike_id": "5eedf38c94aff96f202082028f0f3340", "lat": 38.9264265, "lon": -77.03686516666667, "rental_uris": {"android": "https://dc.lft.to/lastmile_qr_scan", "ios": "https://dc.lft.to/lastmile_qr_scan"}, "is_disabled": 0, "fusion_lat": 0.0, "name": "5eedf38c94aff96f202082028f0f3340", "fusion_lon": 0.0}, {"is_reserved": 0, "type": "electric_scooter", "bike_id": "ea17e1d2aba158650127cd9aff48084a", "lat": 38.915213333333334, "lon": -77.01988033333333, "rental_uris": {"android": "https://dc.lft.to/lastmile_qr_scan", "ios": "https://dc.lft.to/lastmile_qr_scan"}, "is_disabled": 0, "fusion_lat": 0.0, "name": "ea17e1d2aba158650127cd9aff48084a", "fusion_lon": 0.0}, {"is_reserved": 0, "type": "electric_scooter", "bike_id": "03d6298fce63a17dd7848db77fc51ad9", "lat": 38.8971735, "lon": -77.02066516666666, "rental_uris": {"android": "https://dc.lft.to/lastmile_qr_scan", "ios": "https://dc.lft.to/lastmile_qr_scan"}, "is_disabled": 0, "fusion_lat": 0.0, "name": "03d6298fce63a17dd7848db77fc51ad9", "fusion_lon": 0.0}, {"is_reserved": 0, "type": "electric_scooter", "bike_id": "50ea7af700bd1086cc8834c76e3a9ae4", "lat": 38.864809666666666, "lon": -76.97740633333333, "rental_uris": {"android": "https://dc.lft.to/lastmile_qr_scan", "ios": "https://dc.lft.to/lastmile_qr_scan"}, "is_disabled": 0, "fusion_lat": 0.0, "name": "50ea7af700bd1086cc8834c76e3a9ae4", "fusion_lon": 0.0}, {"is_reserved": 0, "type": "electric_scooter", "bike_id": "f891c83b03ce24491e25ae90765bdb92", "lat": 38.905701, "lon": -77.0295315, "rental_uris": {"android": "https://dc.lft.to/lastmile_qr_scan", "ios": "https://dc.lft.to/lastmile_qr_scan"}, "is_disabled": 0, "fusion_lat": 0.0, "name": "f891c83b03ce24491e25ae90765bdb92", "fusion_lon": 0.0}, {"is_reserved": 0, "type": "electric_scooter", "bike_id": "bead3096564fa93ddc3f8e48aad6e241", "lat": 38.93698416666667, "lon": -77.05596433333334, "rental_uris": {"android": "https://dc.lft.to/lastmile_qr_scan", "ios": "https://dc.lft.to/lastmile_qr_scan"}, "is_disabled": 0, "fusion_lat": 0.0, "name": "bead3096564fa93ddc3f8e48aad6e241", "fusion_lon": 0.0}, {"is_reserved": 0, "type": "electric_scooter", "bike_id": "163f9a6abf8ee221e524f4cfba710fd8", "lat": 38.9054025, "lon": -77.0591495, "rental_uris": {"android": "https://dc.lft.to/lastmile_qr_scan", "ios": "https://dc.lft.to/lastmile_qr_scan"}, "is_disabled": 0, "fusion_lat": 0.0, "name": "163f9a6abf8ee221e524f4cfba710fd8", "fusion_lon": 0.0}, {"is_reserved": 0, "type": "electric_scooter", "bike_id": "4a6b2f7e09cafaa722a66b05169e4b81", "lat": 38.92999433333333, "lon": -77.05539166666667, "rental_uris": {"android": "https://dc.lft.to/lastmile_qr_scan", "ios": "https://dc.lft.to/lastmile_qr_scan"}, "is_disabled": 0, "fusion_lat": 0.0, "name": "4a6b2f7e09cafaa722a66b05169e4b81", "fusion_lon": 0.0}, {"is_reserved": 0, "type": "electric_scooter", "bike_id": "efae8859922ac532b0f89c8cb9290645", "lat": 38.895137166666665, "lon": -76.9921695, "rental_uris": {"android": "https://dc.lft.to/lastmile_qr_scan", "ios": "https://dc.lft.to/lastmile_qr_scan"}, "is_disabled": 0, "fusion_lat": 0.0, "name": "efae8859922ac532b0f89c8cb9290645", "fusion_lon": 0.0}, {"is_reserved": 0, "type": "electric_scooter", "bike_id": "124c6378a556ed7d6f1f89acc95b662f", "lat": 38.887443166666664, "lon": -76.98358783333333, "rental_uris": {"android": "https://dc.lft.to/lastmile_qr_scan", "ios": "https://dc.lft.to/lastmile_qr_scan"}, "is_disabled": 0, "fusion_lat": 0.0, "name": "124c6378a556ed7d6f1f89acc95b662f", "fusion_lon": 0.0}, {"is_reserved": 0, "type": "electric_scooter", "bike_id": "edf43337e3080f78d93897858bbdd3a9", "lat": 38.89238566666667, "lon": -77.05034333333333, "rental_uris": {"android": "https://dc.lft.to/lastmile_qr_scan", "ios": "https://dc.lft.to/lastmile_qr_scan"}, "is_disabled": 0, "fusion_lat": 0.0, "name": "edf43337e3080f78d93897858bbdd3a9", "fusion_lon": 0.0}, {"is_reserved": 0, "type": "electric_scooter", "bike_id": "bcdcdc709be9256acc15a745b938ea68", "lat": 38.8986495, "lon": -77.0214825, "rental_uris": {"android": "https://dc.lft.to/lastmile_qr_scan", "ios": "https://dc.lft.to/lastmile_qr_scan"}, "is_disabled": 0, "fusion_lat": 0.0, "name": "bcdcdc709be9256acc15a745b938ea68", "fusion_lon": 0.0}, {"is_reserved": 0, "type": "electric_scooter", "bike_id": "b1b50ee292352cc07b21e683c17ae83b", "lat": 38.9171155, "lon": -77.032345, "rental_uris": {"android": "https://dc.lft.to/lastmile_qr_scan", "ios": "https://dc.lft.to/lastmile_qr_scan"}, "is_disabled": 0, "fusion_lat": 0.0, "name": "b1b50ee292352cc07b21e683c17ae83b", "fusion_lon": 0.0}, {"is_reserved": 0, "type": "electric_scooter", "bike_id": "c505e48dc700f688f2b53f3b1d72a0f4", "lat": 38.922647833333336, "lon": -77.03665216666667, "rental_uris": {"android": "https://dc.lft.to/lastmile_qr_scan", "ios": "https://dc.lft.to/lastmile_qr_scan"}, "is_disabled": 0, "fusion_lat": 0.0, "name": "c505e48dc700f688f2b53f3b1d72a0f4", "fusion_lon": 0.0}, {"is_reserved": 0, "type": "electric_scooter", "bike_id": "29e03ce1e37b152a96783653735395fa", "lat": 38.89228383333333, "lon": -77.01765933333333, "rental_uris": {"android": "https://dc.lft.to/lastmile_qr_scan", "ios": "https://dc.lft.to/lastmile_qr_scan"}, "is_disabled": 0, "fusion_lat": 0.0, "name": "29e03ce1e37b152a96783653735395fa", "fusion_lon": 0.0}, {"is_reserved": 0, "type": "electric_scooter", "bike_id": "539b34f12e397e12c5e78c4a012434cc", "lat": 38.906197666666664, "lon": -76.9933465, "rental_uris": {"android": "https://dc.lft.to/lastmile_qr_scan", "ios": "https://dc.lft.to/lastmile_qr_scan"}, "is_disabled": 0, "fusion_lat": 0.0, "name": "539b34f12e397e12c5e78c4a012434cc", "fusion_lon": 0.0}, {"is_reserved": 0, "type": "electric_bike", "bike_id": "09d840de39c21640bbc2e7c59a341003", "lat": 38.85603733333333, "lon": -76.97452083333333, "rental_uris": {"android": "https://dc.lft.to/lastmile_qr_scan", "ios": "https://dc.lft.to/lastmile_qr_scan"}, "is_disabled": 0, "fusion_lat": 0.0, "name": "09d840de39c21640bbc2e7c59a341003", "fusion_lon": 0.0}, {"is_reserved": 0, "type": "electric_scooter", "bike_id": "39cf61b4d6b50a4c81a638a267389617", "lat": 38.92355083333333, "lon": -77.04309083333334, "rental_uris": {"android": "https://dc.lft.to/lastmile_qr_scan", "ios": "https://dc.lft.to/lastmile_qr_scan"}, "is_disabled": 0, "fusion_lat": 0.0, "name": "39cf61b4d6b50a4c81a638a267389617", "fusion_lon": 0.0}, {"is_reserved": 0, "type": "electric_bike", "bike_id": "a16ddb35dbf14dcb18dfe2fd8fdd4a67", "lat": 38.85794116666667, "lon": -76.98740466666666, "rental_uris": {"android": "https://dc.lft.to/lastmile_qr_scan", "ios": "https://dc.lft.to/lastmile_qr_scan"}, "is_disabled": 0, "fusion_lat": 0.0, "name": "a16ddb35dbf14dcb18dfe2fd8fdd4a67", "fusion_lon": 0.0}, {"is_reserved": 0, "type": "electric_scooter", "bike_id": "d0ff7c3636fa8efe09d94981cfbd1616", "lat": 38.91085666666667, "lon": -77.02177333333333, "rental_uris": {"android": "https://dc.lft.to/lastmile_qr_scan", "ios": "https://dc.lft.to/lastmile_qr_scan"}, "is_disabled": 0, "fusion_lat": 0.0, "name": "d0ff7c3636fa8efe09d94981cfbd1616", "fusion_lon": 0.0}, {"is_reserved": 0, "type": "electric_scooter", "bike_id": "aa842786e3407f04fa84c79dc9fff919", "lat": 38.91905883333333, "lon": -77.03121066666667, "rental_uris": {"android": "https://dc.lft.to/lastmile_qr_scan", "ios": "https://dc.lft.to/lastmile_qr_scan"}, "is_disabled": 0, "fusion_lat": 0.0, "name": "aa842786e3407f04fa84c79dc9fff919", "fusion_lon": 0.0}, {"is_reserved": 0, "type": "electric_scooter", "bike_id": "c98b107fdb303dd7a1620ff8f94f15ce", "lat": 38.91416016666667, "lon": -77.03137083333333, "rental_uris": {"android": "https://dc.lft.to/lastmile_qr_scan", "ios": "https://dc.lft.to/lastmile_qr_scan"}, "is_disabled": 0, "fusion_lat": 0.0, "name": "c98b107fdb303dd7a1620ff8f94f15ce", "fusion_lon": 0.0}, {"is_reserved": 0, "type": "electric_scooter", "bike_id": "e757f6de1fc401f332a788f9a2bd08fc", "lat": 38.92135916666667, "lon": -77.0470945, "rental_uris": {"android": "https://dc.lft.to/lastmile_qr_scan", "ios": "https://dc.lft.to/lastmile_qr_scan"}, "is_disabled": 0, "fusion_lat": 0.0, "name": "e757f6de1fc401f332a788f9a2bd08fc", "fusion_lon": 0.0}, {"is_reserved": 0, "type": "electric_scooter", "bike_id": "12979f98f6a6cbaf3e467d5b45ce0527", "lat": 38.88498233333333, "lon": -77.0172715, "rental_uris": {"android": "https://dc.lft.to/lastmile_qr_scan", "ios": "https://dc.lft.to/lastmile_qr_scan"}, "is_disabled": 0, "fusion_lat": 0.0, "name": "12979f98f6a6cbaf3e467d5b45ce0527", "fusion_lon": 0.0}, {"is_reserved": 0, "type": "electric_bike", "bike_id": "f58687bcceda97d257d0e49ff9cfedc6", "lat": 38.806708666666665, "lon": -77.087533, "rental_uris": {"android": "https://dc.lft.to/lastmile_qr_scan", "ios": "https://dc.lft.to/lastmile_qr_scan"}, "is_disabled": 0, "fusion_lat": 0.0, "name": "f58687bcceda97d257d0e49ff9cfedc6", "fusion_lon": 0.0}, {"is_reserved": 0, "type": "electric_scooter", "bike_id": "3276bd72453c5f7f569317a6eb9a5ad5", "lat": 38.907201666666666, "lon": -77.025019, "rental_uris": {"android": "https://dc.lft.to/lastmile_qr_scan", "ios": "https://dc.lft.to/lastmile_qr_scan"}, "is_disabled": 0, "fusion_lat": 0.0, "name": "3276bd72453c5f7f569317a6eb9a5ad5", "fusion_lon": 0.0}, {"is_reserved": 0, "type": "electric_scooter", "bike_id": "d161201800dad1bdc7ab42d438f9593b", "lat": 38.91962866666667, "lon": -77.01440116666667, "rental_uris": {"android": "https://dc.lft.to/lastmile_qr_scan", "ios": "https://dc.lft.to/lastmile_qr_scan"}, "is_disabled": 0, "fusion_lat": 0.0, "name": "d161201800dad1bdc7ab42d438f9593b", "fusion_lon": 0.0}, {"is_reserved": 0, "type": "electric_scooter", "bike_id": "bb3cc4ed8b0521926810df051f644297", "lat": 38.90496816666667, "lon": -76.988597, "rental_uris": {"android": "https://dc.lft.to/lastmile_qr_scan", "ios": "https://dc.lft.to/lastmile_qr_scan"}, "is_disabled": 0, "fusion_lat": 0.0, "name": "bb3cc4ed8b0521926810df051f644297", "fusion_lon": 0.0}, {"is_reserved": 0, "type": "electric_bike", "bike_id": "eb6016bc7ce3a4281e490c80696bb2b3", "lat": 38.9431725, "lon": -76.99019716666666, "rental_uris": {"android": "https://dc.lft.to/lastmile_qr_scan", "ios": "https://dc.lft.to/lastmile_qr_scan"}, "is_disabled": 0, "fusion_lat": 0.0, "name": "eb6016bc7ce3a4281e490c80696bb2b3", "fusion_lon": 0.0}, {"is_reserved": 0, "type": "electric_bike", "bike_id": "c50bf1e552400fae7c5a3948f5476c35", "lat": 38.872091, "lon": -77.1174005, "rental_uris": {"android": "https://dc.lft.to/lastmile_qr_scan", "ios": "https://dc.lft.to/lastmile_qr_scan"}, "is_disabled": 0, "fusion_lat": 0.0, "name": "c50bf1e552400fae7c5a3948f5476c35", "fusion_lon": 0.0}, {"is_reserved": 0, "type": "electric_scooter", "bike_id": "db0c1835575c9453391471362687bf8c", "lat": 38.90462183333333, "lon": -77.025845, "rental_uris": {"android": "https://dc.lft.to/lastmile_qr_scan", "ios": "https://dc.lft.to/lastmile_qr_scan"}, "is_disabled": 0, "fusion_lat": 0.0, "name": "db0c1835575c9453391471362687bf8c", "fusion_lon": 0.0}, {"is_reserved": 0, "type": "electric_scooter", "bike_id": "d17146826f3dda370d8af556f022923d", "lat": 38.955167833333334, "lon": -77.02400883333334, "rental_uris": {"android": "https://dc.lft.to/lastmile_qr_scan", "ios": "https://dc.lft.to/lastmile_qr_scan"}, "is_disabled": 0, "fusion_lat": 0.0, "name": "d17146826f3dda370d8af556f022923d", "fusion_lon": 0.0}, {"is_reserved": 0, "type": "electric_scooter", "bike_id": "a381d9b8bae5c33e0e04875a5be37e79", "lat": 38.90580833333333, "lon": -77.03644383333334, "rental_uris": {"android": "https://dc.lft.to/lastmile_qr_scan", "ios": "https://dc.lft.to/lastmile_qr_scan"}, "is_disabled": 0, "fusion_lat": 0.0, "name": "a381d9b8bae5c33e0e04875a5be37e79", "fusion_lon": 0.0}, {"is_reserved": 0, "type": "electric_scooter", "bike_id": "cf7661c56276727936b30add02d835e8", "lat": 38.8985935, "lon": -76.97759633333334, "rental_uris": {"android": "https://dc.lft.to/lastmile_qr_scan", "ios": "https://dc.lft.to/lastmile_qr_scan"}, "is_disabled": 0, "fusion_lat": 0.0, "name": "cf7661c56276727936b30add02d835e8", "fusion_lon": 0.0}, {"is_reserved": 0, "type": "electric_scooter", "bike_id": "dde94c45e01d90d59cfe5479e3ea973b", "lat": 38.944521333333334, "lon": -77.02802283333334, "rental_uris": {"android": "https://dc.lft.to/lastmile_qr_scan", "ios": "https://dc.lft.to/lastmile_qr_scan"}, "is_disabled": 0, "fusion_lat": 0.0, "name": "dde94c45e01d90d59cfe5479e3ea973b", "fusion_lon": 0.0}, {"is_reserved": 0, "type": "electric_scooter", "bike_id": "e5297648dbcaa702903fe9b7d0332b9e", "lat": 38.907301833333335, "lon": -77.00700383333333, "rental_uris": {"android": "https://dc.lft.to/lastmile_qr_scan", "ios": "https://dc.lft.to/lastmile_qr_scan"}, "is_disabled": 0, "fusion_lat": 0.0, "name": "e5297648dbcaa702903fe9b7d0332b9e", "fusion_lon": 0.0}, {"is_reserved": 0, "type": "electric_scooter", "bike_id": "9fcc61f7c4b4dec21f934a1a88da170a", "lat": 38.916422833333336, "lon": -77.0320975, "rental_uris": {"android": "https://dc.lft.to/lastmile_qr_scan", "ios": "https://dc.lft.to/lastmile_qr_scan"}, "is_disabled": 0, "fusion_lat": 0.0, "name": "9fcc61f7c4b4dec21f934a1a88da170a", "fusion_lon": 0.0}, {"is_reserved": 0, "type": "electric_scooter", "bike_id": "49f8b3e5f498dd7e67eabb6a01fa08c4", "lat": 38.91689933333333, "lon": -77.02294433333333, "rental_uris": {"android": "https://dc.lft.to/lastmile_qr_scan", "ios": "https://dc.lft.to/lastmile_qr_scan"}, "is_disabled": 0, "fusion_lat": 0.0, "name": "49f8b3e5f498dd7e67eabb6a01fa08c4", "fusion_lon": 0.0}, {"is_reserved": 0, "type": "electric_scooter", "bike_id": "c958f126fec8c781e8834b4e255f7402", "lat": 38.9289905, "lon": -77.024975, "rental_uris": {"android": "https://dc.lft.to/lastmile_qr_scan", "ios": "https://dc.lft.to/lastmile_qr_scan"}, "is_disabled": 0, "fusion_lat": 0.0, "name": "c958f126fec8c781e8834b4e255f7402", "fusion_lon": 0.0}, {"is_reserved": 0, "type": "electric_bike", "bike_id": "b9a7244153d90fc506f519632d569438", "lat": 38.8302775, "lon": -77.08376116666666, "rental_uris": {"android": "https://dc.lft.to/lastmile_qr_scan", "ios": "https://dc.lft.to/lastmile_qr_scan"}, "is_disabled": 0, "fusion_lat": 0.0, "name": "b9a7244153d90fc506f519632d569438", "fusion_lon": 0.0}, {"is_reserved": 0, "type": "electric_bike", "bike_id": "898633c2416f8ab9239cdc58110ea406", "lat": 38.857787333333334, "lon": -76.98747283333333, "rental_uris": {"android": "https://dc.lft.to/lastmile_qr_scan", "ios": "https://dc.lft.to/lastmile_qr_scan"}, "is_disabled": 0, "fusion_lat": 0.0, "name": "898633c2416f8ab9239cdc58110ea406", "fusion_lon": 0.0}, {"is_reserved": 0, "type": "electric_scooter", "bike_id": "b42f9c4ddba9875db577422b73cd4650", "lat": 38.90504266666667, "lon": -77.02958083333333, "rental_uris": {"android": "https://dc.lft.to/lastmile_qr_scan", "ios": "https://dc.lft.to/lastmile_qr_scan"}, "is_disabled": 0, "fusion_lat": 0.0, "name": "b42f9c4ddba9875db577422b73cd4650", "fusion_lon": 0.0}, {"is_reserved": 0, "type": "electric_scooter", "bike_id": "5e1564b4a5adfab718b4b2e581dca3aa", "lat": 38.88468316666667, "lon": -77.02349183333334, "rental_uris": {"android": "https://dc.lft.to/lastmile_qr_scan", "ios": "https://dc.lft.to/lastmile_qr_scan"}, "is_disabled": 0, "fusion_lat": 0.0, "name": "5e1564b4a5adfab718b4b2e581dca3aa", "fusion_lon": 0.0}, {"is_reserved": 0, "type": "electric_scooter", "bike_id": "07567ff1f2a7a18d460e9b78613f6c8a", "lat": 38.89728316666667, "lon": -76.99510766666667, "rental_uris": {"android": "https://dc.lft.to/lastmile_qr_scan", "ios": "https://dc.lft.to/lastmile_qr_scan"}, "is_disabled": 0, "fusion_lat": 0.0, "name": "07567ff1f2a7a18d460e9b78613f6c8a", "fusion_lon": 0.0}, {"is_reserved": 0, "type": "electric_bike", "bike_id": "802a6fc1360d33425a521067898081df", "lat": 38.989156333333334, "lon": -77.0253635, "rental_uris": {"android": "https://dc.lft.to/lastmile_qr_scan", "ios": "https://dc.lft.to/lastmile_qr_scan"}, "is_disabled": 0, "fusion_lat": 0.0, "name": "802a6fc1360d33425a521067898081df", "fusion_lon": 0.0}, {"is_reserved": 0, "type": "electric_scooter", "bike_id": "9ea02cc92ab743bf621e7f73242da197", "lat": 38.90961683333333, "lon": -77.02133083333334, "rental_uris": {"android": "https://dc.lft.to/lastmile_qr_scan", "ios": "https://dc.lft.to/lastmile_qr_scan"}, "is_disabled": 0, "fusion_lat": 0.0, "name": "9ea02cc92ab743bf621e7f73242da197", "fusion_lon": 0.0}, {"is_reserved": 0, "type": "electric_scooter", "bike_id": "8014e23d7ae7b5eb804ee710f117b030", "lat": 38.92749883333333, "lon": -77.02107066666666, "rental_uris": {"android": "https://dc.lft.to/lastmile_qr_scan", "ios": "https://dc.lft.to/lastmile_qr_scan"}, "is_disabled": 0, "fusion_lat": 0.0, "name": "8014e23d7ae7b5eb804ee710f117b030", "fusion_lon": 0.0}, {"is_reserved": 0, "type": "electric_bike", "bike_id": "68641289e24beff6fcbe2f642487a33f", "lat": 38.898490833333334, "lon": -77.11857133333334, "rental_uris": {"android": "https://dc.lft.to/lastmile_qr_scan", "ios": "https://dc.lft.to/lastmile_qr_scan"}, "is_disabled": 0, "fusion_lat": 0.0, "name": "68641289e24beff6fcbe2f642487a33f", "fusion_lon": 0.0}, {"is_reserved": 0, "type": "electric_scooter", "bike_id": "bf21b591c17b91c6457d0009265900ca", "lat": 38.901103, "lon": -77.03343983333333, "rental_uris": {"android": "https://dc.lft.to/lastmile_qr_scan", "ios": "https://dc.lft.to/lastmile_qr_scan"}, "is_disabled": 0, "fusion_lat": 0.0, "name": "bf21b591c17b91c6457d0009265900ca", "fusion_lon": 0.0}, {"is_reserved": 0, "type": "electric_scooter", "bike_id": "6b83602a48250e24dd27b5a6df5f99de", "lat": 38.897224666666666, "lon": -77.02776183333333, "rental_uris": {"android": "https://dc.lft.to/lastmile_qr_scan", "ios": "https://dc.lft.to/lastmile_qr_scan"}, "is_disabled": 0, "fusion_lat": 0.0, "name": "6b83602a48250e24dd27b5a6df5f99de", "fusion_lon": 0.0}, {"is_reserved": 0, "type": "electric_scooter", "bike_id": "9ab9fe388723bbdc4b09aabb60a25831", "lat": 38.934694666666665, "lon": -77.0415545, "rental_uris": {"android": "https://dc.lft.to/lastmile_qr_scan", "ios": "https://dc.lft.to/lastmile_qr_scan"}, "is_disabled": 0, "fusion_lat": 0.0, "name": "9ab9fe388723bbdc4b09aabb60a25831", "fusion_lon": 0.0}, {"is_reserved": 0, "type": "electric_scooter", "bike_id": "84e4d9428ef034fd76a105eca8965e5c", "lat": 38.958243, "lon": -77.0764565, "rental_uris": {"android": "https://dc.lft.to/lastmile_qr_scan", "ios": "https://dc.lft.to/lastmile_qr_scan"}, "is_disabled": 0, "fusion_lat": 0.0, "name": "84e4d9428ef034fd76a105eca8965e5c", "fusion_lon": 0.0}, {"is_reserved": 0, "type": "electric_scooter", "bike_id": "13aee7a04bb93975cc1cd09f99cca7ca", "lat": 38.92167033333333, "lon": -77.03211583333334, "rental_uris": {"android": "https://dc.lft.to/lastmile_qr_scan", "ios": "https://dc.lft.to/lastmile_qr_scan"}, "is_disabled": 0, "fusion_lat": 0.0, "name": "13aee7a04bb93975cc1cd09f99cca7ca", "fusion_lon": 0.0}, {"is_reserved": 0, "type": "electric_scooter", "bike_id": "b87c1b54bc52e2b3d5a90d7ad1affaf7", "lat": 38.89333033333333, "lon": -77.03954033333333, "rental_uris": {"android": "https://dc.lft.to/lastmile_qr_scan", "ios": "https://dc.lft.to/lastmile_qr_scan"}, "is_disabled": 0, "fusion_lat": 0.0, "name": "b87c1b54bc52e2b3d5a90d7ad1affaf7", "fusion_lon": 0.0}, {"is_reserved": 0, "type": "electric_scooter", "bike_id": "7a8eb07b86f9c91eff639d60220d03cf", "lat": 38.914064, "lon": -77.04678383333334, "rental_uris": {"android": "https://dc.lft.to/lastmile_qr_scan", "ios": "https://dc.lft.to/lastmile_qr_scan"}, "is_disabled": 0, "fusion_lat": 0.0, "name": "7a8eb07b86f9c91eff639d60220d03cf", "fusion_lon": 0.0}, {"is_reserved": 0, "type": "electric_scooter", "bike_id": "2abbe10bbe96eaadb4f2f06c0e7b3e14", "lat": 38.8837055, "lon": -76.99515383333333, "rental_uris": {"android": "https://dc.lft.to/lastmile_qr_scan", "ios": "https://dc.lft.to/lastmile_qr_scan"}, "is_disabled": 0, "fusion_lat": 0.0, "name": "2abbe10bbe96eaadb4f2f06c0e7b3e14", "fusion_lon": 0.0}, {"is_reserved": 0, "type": "electric_scooter", "bike_id": "2f4c6453b59ba3c37c939e54c02072cc", "lat": 38.92894866666666, "lon": -77.037439, "rental_uris": {"android": "https://dc.lft.to/lastmile_qr_scan", "ios": "https://dc.lft.to/lastmile_qr_scan"}, "is_disabled": 0, "fusion_lat": 0.0, "name": "2f4c6453b59ba3c37c939e54c02072cc", "fusion_lon": 0.0}, {"is_reserved": 0, "type": "electric_scooter", "bike_id": "fb48e80597feb72d38676821a0a38154", "lat": 38.91801783333333, "lon": -77.03435583333334, "rental_uris": {"android": "https://dc.lft.to/lastmile_qr_scan", "ios": "https://dc.lft.to/lastmile_qr_scan"}, "is_disabled": 0, "fusion_lat": 0.0, "name": "fb48e80597feb72d38676821a0a38154", "fusion_lon": 0.0}, {"is_reserved": 0, "type": "electric_scooter", "bike_id": "00dc4fa4ace981eb78f2ca41f2dfb68e", "lat": 38.91529033333333, "lon": -77.01996533333333, "rental_uris": {"android": "https://dc.lft.to/lastmile_qr_scan", "ios": "https://dc.lft.to/lastmile_qr_scan"}, "is_disabled": 0, "fusion_lat": 0.0, "name": "00dc4fa4ace981eb78f2ca41f2dfb68e", "fusion_lon": 0.0}, {"is_reserved": 0, "type": "electric_scooter", "bike_id": "91bdbc04fe38981340cba51c07ed29c3", "lat": 38.8921465, "lon": -77.02616716666667, "rental_uris": {"android": "https://dc.lft.to/lastmile_qr_scan", "ios": "https://dc.lft.to/lastmile_qr_scan"}, "is_disabled": 0, "fusion_lat": 0.0, "name": "91bdbc04fe38981340cba51c07ed29c3", "fusion_lon": 0.0}, {"is_reserved": 0, "type": "electric_bike", "bike_id": "8e4508e9e621dfc1bee450e4f8bb90ef", "lat": 38.840376, "lon": -76.9762355, "rental_uris": {"android": "https://dc.lft.to/lastmile_qr_scan", "ios": "https://dc.lft.to/lastmile_qr_scan"}, "is_disabled": 0, "fusion_lat": 0.0, "name": "8e4508e9e621dfc1bee450e4f8bb90ef", "fusion_lon": 0.0}, {"is_reserved": 0, "type": "electric_bike", "bike_id": "076d7c38ffed35504a6b2c2349b22fec", "lat": 38.838122, "lon": -77.09525416666666, "rental_uris": {"android": "https://dc.lft.to/lastmile_qr_scan", "ios": "https://dc.lft.to/lastmile_qr_scan"}, "is_disabled": 0, "fusion_lat": 0.0, "name": "076d7c38ffed35504a6b2c2349b22fec", "fusion_lon": 0.0}, {"is_reserved": 0, "type": "electric_scooter", "bike_id": "2c1545eb43482a8d488fe299e9d4b7f7", "lat": 38.919385166666665, "lon": -77.04162316666667, "rental_uris": {"android": "https://dc.lft.to/lastmile_qr_scan", "ios": "https://dc.lft.to/lastmile_qr_scan"}, "is_disabled": 0, "fusion_lat": 0.0, "name": "2c1545eb43482a8d488fe299e9d4b7f7", "fusion_lon": 0.0}, {"is_reserved": 0, "type": "electric_scooter", "bike_id": "5859b929a1d8dd57f82bc200805253e4", "lat": 38.93191983333333, "lon": -76.996239, "rental_uris": {"android": "https://dc.lft.to/lastmile_qr_scan", "ios": "https://dc.lft.to/lastmile_qr_scan"}, "is_disabled": 0, "fusion_lat": 0.0, "name": "5859b929a1d8dd57f82bc200805253e4", "fusion_lon": 0.0}, {"is_reserved": 0, "type": "electric_scooter", "bike_id": "75f90053471a630a29000d0f80d852de", "lat": 38.893002833333334, "lon": -77.0295785, "rental_uris": {"android": "https://dc.lft.to/lastmile_qr_scan", "ios": "https://dc.lft.to/lastmile_qr_scan"}, "is_disabled": 0, "fusion_lat": 0.0, "name": "75f90053471a630a29000d0f80d852de", "fusion_lon": 0.0}, {"is_reserved": 0, "type": "electric_scooter", "bike_id": "3a9a3e04f9cbf08156c3b54ea1325008", "lat": 38.93803666666667, "lon": -77.02419183333333, "rental_uris": {"android": "https://dc.lft.to/lastmile_qr_scan", "ios": "https://dc.lft.to/lastmile_qr_scan"}, "is_disabled": 0, "fusion_lat": 0.0, "name": "3a9a3e04f9cbf08156c3b54ea1325008", "fusion_lon": 0.0}, {"is_reserved": 0, "type": "electric_scooter", "bike_id": "c9997222f696f85bf367ef3b7ef6e245", "lat": 38.89566033333333, "lon": -77.030116, "rental_uris": {"android": "https://dc.lft.to/lastmile_qr_scan", "ios": "https://dc.lft.to/lastmile_qr_scan"}, "is_disabled": 0, "fusion_lat": 0.0, "name": "c9997222f696f85bf367ef3b7ef6e245", "fusion_lon": 0.0}, {"is_reserved": 0, "type": "electric_scooter", "bike_id": "58cfb6c54ab90a2e18edcdfdf24bb3bd", "lat": 38.901756166666665, "lon": -77.00130066666667, "rental_uris": {"android": "https://dc.lft.to/lastmile_qr_scan", "ios": "https://dc.lft.to/lastmile_qr_scan"}, "is_disabled": 0, "fusion_lat": 0.0, "name": "58cfb6c54ab90a2e18edcdfdf24bb3bd", "fusion_lon": 0.0}, {"is_reserved": 0, "type": "electric_scooter", "bike_id": "a7bee2c9d429703d72c82ef75edd61f7", "lat": 38.93503116666667, "lon": -77.02004283333333, "rental_uris": {"android": "https://dc.lft.to/lastmile_qr_scan", "ios": "https://dc.lft.to/lastmile_qr_scan"}, "is_disabled": 0, "fusion_lat": 0.0, "name": "a7bee2c9d429703d72c82ef75edd61f7", "fusion_lon": 0.0}, {"is_reserved": 0, "type": "electric_scooter", "bike_id": "1501f9f4b7b068de40e80e3e8fc786d1", "lat": 38.936560666666665, "lon": -77.05496166666667, "rental_uris": {"android": "https://dc.lft.to/lastmile_qr_scan", "ios": "https://dc.lft.to/lastmile_qr_scan"}, "is_disabled": 0, "fusion_lat": 0.0, "name": "1501f9f4b7b068de40e80e3e8fc786d1", "fusion_lon": 0.0}, {"is_reserved": 0, "type": "electric_scooter", "bike_id": "41503b394e8edd301193271fdd01eb4c", "lat": 38.918254, "lon": -77.04011516666667, "rental_uris": {"android": "https://dc.lft.to/lastmile_qr_scan", "ios": "https://dc.lft.to/lastmile_qr_scan"}, "is_disabled": 0, "fusion_lat": 0.0, "name": "41503b394e8edd301193271fdd01eb4c", "fusion_lon": 0.0}, {"is_reserved": 0, "type": "electric_scooter", "bike_id": "8396a13197d0248ddd5c51d749173b27", "lat": 38.917102, "lon": -77.03900033333333, "rental_uris": {"android": "https://dc.lft.to/lastmile_qr_scan", "ios": "https://dc.lft.to/lastmile_qr_scan"}, "is_disabled": 0, "fusion_lat": 0.0, "name": "8396a13197d0248ddd5c51d749173b27", "fusion_lon": 0.0}, {"is_reserved": 0, "type": "electric_scooter", "bike_id": "616097e36248999dc7131592b104731f", "lat": 38.901325666666665, "lon": -77.03200233333334, "rental_uris": {"android": "https://dc.lft.to/lastmile_qr_scan", "ios": "https://dc.lft.to/lastmile_qr_scan"}, "is_disabled": 0, "fusion_lat": 0.0, "name": "616097e36248999dc7131592b104731f", "fusion_lon": 0.0}, {"is_reserved": 0, "type": "electric_scooter", "bike_id": "af6bd6a5506efd143bcf11d646213ab7", "lat": 38.914825666666665, "lon": -77.00978266666667, "rental_uris": {"android": "https://dc.lft.to/lastmile_qr_scan", "ios": "https://dc.lft.to/lastmile_qr_scan"}, "is_disabled": 0, "fusion_lat": 0.0, "name": "af6bd6a5506efd143bcf11d646213ab7", "fusion_lon": 0.0}, {"is_reserved": 0, "type": "electric_scooter", "bike_id": "445c34ad386ff3b50fa6cba08f43ff64", "lat": 38.865222, "lon": -76.9690375, "rental_uris": {"android": "https://dc.lft.to/lastmile_qr_scan", "ios": "https://dc.lft.to/lastmile_qr_scan"}, "is_disabled": 0, "fusion_lat": 0.0, "name": "445c34ad386ff3b50fa6cba08f43ff64", "fusion_lon": 0.0}, {"is_reserved": 0, "type": "electric_bike", "bike_id": "affb774d8dcf7ddacf7ec8f12f9ae4d6", "lat": 38.8025215, "lon": -77.11436583333334, "rental_uris": {"android": "https://dc.lft.to/lastmile_qr_scan", "ios": "https://dc.lft.to/lastmile_qr_scan"}, "is_disabled": 0, "fusion_lat": 0.0, "name": "affb774d8dcf7ddacf7ec8f12f9ae4d6", "fusion_lon": 0.0}, {"is_reserved": 0, "type": "electric_scooter", "bike_id": "48bcea405222217b604994f14cd13b94", "lat": 38.927634833333336, "lon": -77.02771366666667, "rental_uris": {"android": "https://dc.lft.to/lastmile_qr_scan", "ios": "https://dc.lft.to/lastmile_qr_scan"}, "is_disabled": 0, "fusion_lat": 0.0, "name": "48bcea405222217b604994f14cd13b94", "fusion_lon": 0.0}, {"is_reserved": 0, "type": "electric_scooter", "bike_id": "afdb906316a1fd3b566bb73f9f9e35fd", "lat": 38.923733666666664, "lon": -77.01918, "rental_uris": {"android": "https://dc.lft.to/lastmile_qr_scan", "ios": "https://dc.lft.to/lastmile_qr_scan"}, "is_disabled": 0, "fusion_lat": 0.0, "name": "afdb906316a1fd3b566bb73f9f9e35fd", "fusion_lon": 0.0}, {"is_reserved": 0, "type": "electric_scooter", "bike_id": "755710556bf5b575117f99516476a1ad", "lat": 38.917681, "lon": -77.04057433333334, "rental_uris": {"android": "https://dc.lft.to/lastmile_qr_scan", "ios": "https://dc.lft.to/lastmile_qr_scan"}, "is_disabled": 0, "fusion_lat": 0.0, "name": "755710556bf5b575117f99516476a1ad", "fusion_lon": 0.0}, {"is_reserved": 0, "type": "electric_scooter", "bike_id": "bc66d2284dcc62ea03fa731d7473ef2d", "lat": 38.90490233333333, "lon": -77.04847616666666, "rental_uris": {"android": "https://dc.lft.to/lastmile_qr_scan", "ios": "https://dc.lft.to/lastmile_qr_scan"}, "is_disabled": 0, "fusion_lat": 0.0, "name": "bc66d2284dcc62ea03fa731d7473ef2d", "fusion_lon": 0.0}, {"is_reserved": 0, "type": "electric_scooter", "bike_id": "3c806af87ce1c2e9d5d31bdceb318d8f", "lat": 38.9076485, "lon": -77.03186066666666, "rental_uris": {"android": "https://dc.lft.to/lastmile_qr_scan", "ios": "https://dc.lft.to/lastmile_qr_scan"}, "is_disabled": 0, "fusion_lat": 0.0, "name": "3c806af87ce1c2e9d5d31bdceb318d8f", "fusion_lon": 0.0}, {"is_reserved": 0, "type": "electric_scooter", "bike_id": "324e0461135db3651bf1dd72f6be0364", "lat": 38.924982166666666, "lon": -77.03875116666667, "rental_uris": {"android": "https://dc.lft.to/lastmile_qr_scan", "ios": "https://dc.lft.to/lastmile_qr_scan"}, "is_disabled": 0, "fusion_lat": 0.0, "name": "324e0461135db3651bf1dd72f6be0364", "fusion_lon": 0.0}, {"is_reserved": 0, "type": "electric_scooter", "bike_id": "e87bf37deadc956e6af211f1f8f4d8bc", "lat": 38.91552166666666, "lon": -77.0310995, "rental_uris": {"android": "https://dc.lft.to/lastmile_qr_scan", "ios": "https://dc.lft.to/lastmile_qr_scan"}, "is_disabled": 0, "fusion_lat": 0.0, "name": "e87bf37deadc956e6af211f1f8f4d8bc", "fusion_lon": 0.0}, {"is_reserved": 0, "type": "electric_scooter", "bike_id": "4319e8c61061267664018bed78a86215", "lat": 38.8961475, "lon": -77.0440995, "rental_uris": {"android": "https://dc.lft.to/lastmile_qr_scan", "ios": "https://dc.lft.to/lastmile_qr_scan"}, "is_disabled": 0, "fusion_lat": 0.0, "name": "4319e8c61061267664018bed78a86215", "fusion_lon": 0.0}, {"is_reserved": 0, "type": "electric_scooter", "bike_id": "5a7809507dc4a22d52a15f9509943eee", "lat": 38.89425683333333, "lon": -77.05598283333333, "rental_uris": {"android": "https://dc.lft.to/lastmile_qr_scan", "ios": "https://dc.lft.to/lastmile_qr_scan"}, "is_disabled": 0, "fusion_lat": 0.0, "name": "5a7809507dc4a22d52a15f9509943eee", "fusion_lon": 0.0}, {"is_reserved": 0, "type": "electric_scooter", "bike_id": "6550cfcc6b1e20c5f465b59f12396a87", "lat": 38.972384, "lon": -77.02713166666666, "rental_uris": {"android": "https://dc.lft.to/lastmile_qr_scan", "ios": "https://dc.lft.to/lastmile_qr_scan"}, "is_disabled": 0, "fusion_lat": 0.0, "name": "6550cfcc6b1e20c5f465b59f12396a87", "fusion_lon": 0.0}, {"is_reserved": 0, "type": "electric_scooter", "bike_id": "7ef4dd51ec776f140dc0486170ea1aca", "lat": 38.893929166666666, "lon": -77.02973766666666, "rental_uris": {"android": "https://dc.lft.to/lastmile_qr_scan", "ios": "https://dc.lft.to/lastmile_qr_scan"}, "is_disabled": 0, "fusion_lat": 0.0, "name": "7ef4dd51ec776f140dc0486170ea1aca", "fusion_lon": 0.0}, {"is_reserved": 0, "type": "electric_scooter", "bike_id": "b17b2247c85299822126667c07447e3e", "lat": 38.918765666666665, "lon": -77.0472275, "rental_uris": {"android": "https://dc.lft.to/lastmile_qr_scan", "ios": "https://dc.lft.to/lastmile_qr_scan"}, "is_disabled": 0, "fusion_lat": 0.0, "name": "b17b2247c85299822126667c07447e3e", "fusion_lon": 0.0}, {"is_reserved": 0, "type": "electric_scooter", "bike_id": "d845596658def17603d585ddda16525e", "lat": 38.91679166666667, "lon": -77.02951766666666, "rental_uris": {"android": "https://dc.lft.to/lastmile_qr_scan", "ios": "https://dc.lft.to/lastmile_qr_scan"}, "is_disabled": 0, "fusion_lat": 0.0, "name": "d845596658def17603d585ddda16525e", "fusion_lon": 0.0}, {"is_reserved": 0, "type": "electric_scooter", "bike_id": "86f120737f2c7ab6c54df7ebbddd1858", "lat": 38.907343833333336, "lon": -77.03301383333333, "rental_uris": {"android": "https://dc.lft.to/lastmile_qr_scan", "ios": "https://dc.lft.to/lastmile_qr_scan"}, "is_disabled": 0, "fusion_lat": 0.0, "name": "86f120737f2c7ab6c54df7ebbddd1858", "fusion_lon": 0.0}, {"is_reserved": 0, "type": "electric_bike", "bike_id": "afa2ab373bccc89c5eb5d700b233594b", "lat": 38.927800500000004, "lon": -76.9990635, "rental_uris": {"android": "https://dc.lft.to/lastmile_qr_scan", "ios": "https://dc.lft.to/lastmile_qr_scan"}, "is_disabled": 0, "fusion_lat": 0.0, "name": "afa2ab373bccc89c5eb5d700b233594b", "fusion_lon": 0.0}, {"is_reserved": 0, "type": "electric_scooter", "bike_id": "7d69f8d67830358c9b42f095c31d7e6e", "lat": 38.9443635, "lon": -77.063564, "rental_uris": {"android": "https://dc.lft.to/lastmile_qr_scan", "ios": "https://dc.lft.to/lastmile_qr_scan"}, "is_disabled": 0, "fusion_lat": 0.0, "name": "7d69f8d67830358c9b42f095c31d7e6e", "fusion_lon": 0.0}, {"is_reserved": 0, "type": "electric_scooter", "bike_id": "371895d811651cc2045e7004437c69ba", "lat": 38.924392, "lon": -77.032885, "rental_uris": {"android": "https://dc.lft.to/lastmile_qr_scan", "ios": "https://dc.lft.to/lastmile_qr_scan"}, "is_disabled": 0, "fusion_lat": 0.0, "name": "371895d811651cc2045e7004437c69ba", "fusion_lon": 0.0}, {"is_reserved": 0, "type": "electric_scooter", "bike_id": "b275156bc47e05c633e25c1029d0fb33", "lat": 38.920696666666664, "lon": -77.0236785, "rental_uris": {"android": "https://dc.lft.to/lastmile_qr_scan", "ios": "https://dc.lft.to/lastmile_qr_scan"}, "is_disabled": 0, "fusion_lat": 0.0, "name": "b275156bc47e05c633e25c1029d0fb33", "fusion_lon": 0.0}, {"is_reserved": 0, "type": "electric_scooter", "bike_id": "e02c835f6e57830ee506adaa3eb076e2", "lat": 38.92769783333333, "lon": -77.0280565, "rental_uris": {"android": "https://dc.lft.to/lastmile_qr_scan", "ios": "https://dc.lft.to/lastmile_qr_scan"}, "is_disabled": 0, "fusion_lat": 0.0, "name": "e02c835f6e57830ee506adaa3eb076e2", "fusion_lon": 0.0}, {"is_reserved": 0, "type": "electric_scooter", "bike_id": "b867520828c136e30fc6a6cd107f4d85", "lat": 38.8458385, "lon": -76.98162283333333, "rental_uris": {"android": "https://dc.lft.to/lastmile_qr_scan", "ios": "https://dc.lft.to/lastmile_qr_scan"}, "is_disabled": 0, "fusion_lat": 0.0, "name": "b867520828c136e30fc6a6cd107f4d85", "fusion_lon": 0.0}, {"is_reserved": 0, "type": "electric_scooter", "bike_id": "1df82630c24565361261383b6033c02a", "lat": 38.915984, "lon": -77.021187, "rental_uris": {"android": "https://dc.lft.to/lastmile_qr_scan", "ios": "https://dc.lft.to/lastmile_qr_scan"}, "is_disabled": 0, "fusion_lat": 0.0, "name": "1df82630c24565361261383b6033c02a", "fusion_lon": 0.0}, {"is_reserved": 0, "type": "electric_scooter", "bike_id": "4ceb0192033d3f3eb8c739e0b3c01fc8", "lat": 38.89958466666667, "lon": -77.04699733333334, "rental_uris": {"android": "https://dc.lft.to/lastmile_qr_scan", "ios": "https://dc.lft.to/lastmile_qr_scan"}, "is_disabled": 0, "fusion_lat": 0.0, "name": "4ceb0192033d3f3eb8c739e0b3c01fc8", "fusion_lon": 0.0}, {"is_reserved": 0, "type": "electric_scooter", "bike_id": "e981cf873e08d1eb0a2742d3048a1f1f", "lat": 38.9353885, "lon": -77.03415833333334, "rental_uris": {"android": "https://dc.lft.to/lastmile_qr_scan", "ios": "https://dc.lft.to/lastmile_qr_scan"}, "is_disabled": 0, "fusion_lat": 0.0, "name": "e981cf873e08d1eb0a2742d3048a1f1f", "fusion_lon": 0.0}, {"is_reserved": 0, "type": "electric_scooter", "bike_id": "b3d91fecfb4cb261c224a233028717b7", "lat": 38.906475, "lon": -77.07555133333334, "rental_uris": {"android": "https://dc.lft.to/lastmile_qr_scan", "ios": "https://dc.lft.to/lastmile_qr_scan"}, "is_disabled": 0, "fusion_lat": 0.0, "name": "b3d91fecfb4cb261c224a233028717b7", "fusion_lon": 0.0}, {"is_reserved": 0, "type": "electric_scooter", "bike_id": "c0232bab95c4a9ecb60dacae0405125b", "lat": 38.92929383333333, "lon": -77.03247833333333, "rental_uris": {"android": "https://dc.lft.to/lastmile_qr_scan", "ios": "https://dc.lft.to/lastmile_qr_scan"}, "is_disabled": 0, "fusion_lat": 0.0, "name": "c0232bab95c4a9ecb60dacae0405125b", "fusion_lon": 0.0}, {"is_reserved": 0, "type": "electric_scooter", "bike_id": "1bddf5e164464df92e7c1d62b7f9165f", "lat": 38.901963, "lon": -77.02184166666666, "rental_uris": {"android": "https://dc.lft.to/lastmile_qr_scan", "ios": "https://dc.lft.to/lastmile_qr_scan"}, "is_disabled": 0, "fusion_lat": 0.0, "name": "1bddf5e164464df92e7c1d62b7f9165f", "fusion_lon": 0.0}, {"is_reserved": 0, "type": "electric_scooter", "bike_id": "04d6ca409850966b4d60f502628d7fd4", "lat": 38.907158333333335, "lon": -77.000045, "rental_uris": {"android": "https://dc.lft.to/lastmile_qr_scan", "ios": "https://dc.lft.to/lastmile_qr_scan"}, "is_disabled": 0, "fusion_lat": 0.0, "name": "04d6ca409850966b4d60f502628d7fd4", "fusion_lon": 0.0}, {"is_reserved": 0, "type": "electric_scooter", "bike_id": "b73906c349425e05f37c5d3315db516c", "lat": 38.89214166666667, "lon": -77.01705933333334, "rental_uris": {"android": "https://dc.lft.to/lastmile_qr_scan", "ios": "https://dc.lft.to/lastmile_qr_scan"}, "is_disabled": 0, "fusion_lat": 0.0, "name": "b73906c349425e05f37c5d3315db516c", "fusion_lon": 0.0}, {"is_reserved": 0, "type": "electric_scooter", "bike_id": "c6fbe39e6efb1495aee4fa52492b4bf9", "lat": 38.92554633333334, "lon": -76.98148683333334, "rental_uris": {"android": "https://dc.lft.to/lastmile_qr_scan", "ios": "https://dc.lft.to/lastmile_qr_scan"}, "is_disabled": 0, "fusion_lat": 0.0, "name": "c6fbe39e6efb1495aee4fa52492b4bf9", "fusion_lon": 0.0}, {"is_reserved": 0, "type": "electric_scooter", "bike_id": "5c44a092c7837fe741e6b1b2ec7a3560", "lat": 38.9427555, "lon": -77.07731866666667, "rental_uris": {"android": "https://dc.lft.to/lastmile_qr_scan", "ios": "https://dc.lft.to/lastmile_qr_scan"}, "is_disabled": 0, "fusion_lat": 0.0, "name": "5c44a092c7837fe741e6b1b2ec7a3560", "fusion_lon": 0.0}, {"is_reserved": 0, "type": "electric_scooter", "bike_id": "b00965d2112e376f5cb3b86613cec8a4", "lat": 38.9043805, "lon": -77.06273466666667, "rental_uris": {"android": "https://dc.lft.to/lastmile_qr_scan", "ios": "https://dc.lft.to/lastmile_qr_scan"}, "is_disabled": 0, "fusion_lat": 0.0, "name": "b00965d2112e376f5cb3b86613cec8a4", "fusion_lon": 0.0}, {"is_reserved": 0, "type": "electric_scooter", "bike_id": "f73ffd6d1aeeea000c99cb6828692f9f", "lat": 38.872845166666664, "lon": -77.00985383333334, "rental_uris": {"android": "https://dc.lft.to/lastmile_qr_scan", "ios": "https://dc.lft.to/lastmile_qr_scan"}, "is_disabled": 0, "fusion_lat": 0.0, "name": "f73ffd6d1aeeea000c99cb6828692f9f", "fusion_lon": 0.0}, {"is_reserved": 0, "type": "electric_scooter", "bike_id": "2a36aa89800a3172ca799e3efac7198b", "lat": 38.93374816666667, "lon": -77.02031383333333, "rental_uris": {"android": "https://dc.lft.to/lastmile_qr_scan", "ios": "https://dc.lft.to/lastmile_qr_scan"}, "is_disabled": 0, "fusion_lat": 0.0, "name": "2a36aa89800a3172ca799e3efac7198b", "fusion_lon": 0.0}, {"is_reserved": 0, "type": "electric_scooter", "bike_id": "d6a7b047d7f091a94e4a39626bba8153", "lat": 38.91221866666667, "lon": -77.01123433333333, "rental_uris": {"android": "https://dc.lft.to/lastmile_qr_scan", "ios": "https://dc.lft.to/lastmile_qr_scan"}, "is_disabled": 0, "fusion_lat": 0.0, "name": "d6a7b047d7f091a94e4a39626bba8153", "fusion_lon": 0.0}, {"is_reserved": 0, "type": "electric_scooter", "bike_id": "e5d25384af4a53951571a53d15518512", "lat": 38.908669, "lon": -77.0235625, "rental_uris": {"android": "https://dc.lft.to/lastmile_qr_scan", "ios": "https://dc.lft.to/lastmile_qr_scan"}, "is_disabled": 0, "fusion_lat": 0.0, "name": "e5d25384af4a53951571a53d15518512", "fusion_lon": 0.0}, {"is_reserved": 0, "type": "electric_scooter", "bike_id": "4d8371d1f40c6d54405073e7b56cf3d4", "lat": 38.90580766666667, "lon": -77.00579316666666, "rental_uris": {"android": "https://dc.lft.to/lastmile_qr_scan", "ios": "https://dc.lft.to/lastmile_qr_scan"}, "is_disabled": 0, "fusion_lat": 0.0, "name": "4d8371d1f40c6d54405073e7b56cf3d4", "fusion_lon": 0.0}, {"is_reserved": 0, "type": "electric_scooter", "bike_id": "6e022a6e913d25cc84d53c4d5f061294", "lat": 38.92447133333334, "lon": -77.04397466666667, "rental_uris": {"android": "https://dc.lft.to/lastmile_qr_scan", "ios": "https://dc.lft.to/lastmile_qr_scan"}, "is_disabled": 0, "fusion_lat": 0.0, "name": "6e022a6e913d25cc84d53c4d5f061294", "fusion_lon": 0.0}, {"is_reserved": 0, "type": "electric_scooter", "bike_id": "e2d2b6ee87d09146bcdffbea491f92db", "lat": 38.95630883333333, "lon": -77.02782816666667, "rental_uris": {"android": "https://dc.lft.to/lastmile_qr_scan", "ios": "https://dc.lft.to/lastmile_qr_scan"}, "is_disabled": 0, "fusion_lat": 0.0, "name": "e2d2b6ee87d09146bcdffbea491f92db", "fusion_lon": 0.0}, {"is_reserved": 0, "type": "electric_scooter", "bike_id": "c4ec3fc3500650ea9bc96c746c903561", "lat": 38.93553933333333, "lon": -77.02217116666667, "rental_uris": {"android": "https://dc.lft.to/lastmile_qr_scan", "ios": "https://dc.lft.to/lastmile_qr_scan"}, "is_disabled": 0, "fusion_lat": 0.0, "name": "c4ec3fc3500650ea9bc96c746c903561", "fusion_lon": 0.0}, {"is_reserved": 0, "type": "electric_scooter", "bike_id": "d2b25ef2ffa52bd93c5761e5665c8287", "lat": 38.9168545, "lon": -77.029459, "rental_uris": {"android": "https://dc.lft.to/lastmile_qr_scan", "ios": "https://dc.lft.to/lastmile_qr_scan"}, "is_disabled": 0, "fusion_lat": 0.0, "name": "d2b25ef2ffa52bd93c5761e5665c8287", "fusion_lon": 0.0}, {"is_reserved": 0, "type": "electric_scooter", "bike_id": "64160b38874d3794f644b8eabb9adb4b", "lat": 38.9180905, "lon": -77.03304916666667, "rental_uris": {"android": "https://dc.lft.to/lastmile_qr_scan", "ios": "https://dc.lft.to/lastmile_qr_scan"}, "is_disabled": 0, "fusion_lat": 0.0, "name": "64160b38874d3794f644b8eabb9adb4b", "fusion_lon": 0.0}, {"is_reserved": 0, "type": "electric_scooter", "bike_id": "816338b7ad9efed5eda5399a13eba6c0", "lat": 38.89496033333333, "lon": -77.00206416666667, "rental_uris": {"android": "https://dc.lft.to/lastmile_qr_scan", "ios": "https://dc.lft.to/lastmile_qr_scan"}, "is_disabled": 0, "fusion_lat": 0.0, "name": "816338b7ad9efed5eda5399a13eba6c0", "fusion_lon": 0.0}, {"is_reserved": 0, "type": "electric_scooter", "bike_id": "6a5aa5a6321017f8fdb5fb65dc281d19", "lat": 38.9170095, "lon": -77.0289365, "rental_uris": {"android": "https://dc.lft.to/lastmile_qr_scan", "ios": "https://dc.lft.to/lastmile_qr_scan"}, "is_disabled": 0, "fusion_lat": 0.0, "name": "6a5aa5a6321017f8fdb5fb65dc281d19", "fusion_lon": 0.0}, {"is_reserved": 0, "type": "electric_scooter", "bike_id": "04acc451d44f8b99a1bc3dcfe10c6dfd", "lat": 38.88725266666667, "lon": -77.028349, "rental_uris": {"android": "https://dc.lft.to/lastmile_qr_scan", "ios": "https://dc.lft.to/lastmile_qr_scan"}, "is_disabled": 0, "fusion_lat": 0.0, "name": "04acc451d44f8b99a1bc3dcfe10c6dfd", "fusion_lon": 0.0}, {"is_reserved": 0, "type": "electric_scooter", "bike_id": "548421ee78a42416efefdfcdb8efafbe", "lat": 38.927746666666664, "lon": -77.02781816666666, "rental_uris": {"android": "https://dc.lft.to/lastmile_qr_scan", "ios": "https://dc.lft.to/lastmile_qr_scan"}, "is_disabled": 0, "fusion_lat": 0.0, "name": "548421ee78a42416efefdfcdb8efafbe", "fusion_lon": 0.0}, {"is_reserved": 0, "type": "electric_scooter", "bike_id": "6482105903296a10b5ad151c430f8f8c", "lat": 38.90064433333333, "lon": -77.05294233333333, "rental_uris": {"android": "https://dc.lft.to/lastmile_qr_scan", "ios": "https://dc.lft.to/lastmile_qr_scan"}, "is_disabled": 0, "fusion_lat": 0.0, "name": "6482105903296a10b5ad151c430f8f8c", "fusion_lon": 0.0}, {"is_reserved": 0, "type": "electric_scooter", "bike_id": "d0766fdf4b18d471dbdbc974cac35922", "lat": 38.89351516666667, "lon": -77.01954483333333, "rental_uris": {"android": "https://dc.lft.to/lastmile_qr_scan", "ios": "https://dc.lft.to/lastmile_qr_scan"}, "is_disabled": 0, "fusion_lat": 0.0, "name": "d0766fdf4b18d471dbdbc974cac35922", "fusion_lon": 0.0}, {"is_reserved": 0, "type": "electric_scooter", "bike_id": "fab81646be40c8f4109f81198b580112", "lat": 38.910118833333335, "lon": -76.99366283333333, "rental_uris": {"android": "https://dc.lft.to/lastmile_qr_scan", "ios": "https://dc.lft.to/lastmile_qr_scan"}, "is_disabled": 0, "fusion_lat": 0.0, "name": "fab81646be40c8f4109f81198b580112", "fusion_lon": 0.0}, {"is_reserved": 0, "type": "electric_scooter", "bike_id": "091aa68586f591c2d48fdfb025e9076c", "lat": 38.91817666666667, "lon": -77.03176083333334, "rental_uris": {"android": "https://dc.lft.to/lastmile_qr_scan", "ios": "https://dc.lft.to/lastmile_qr_scan"}, "is_disabled": 0, "fusion_lat": 0.0, "name": "091aa68586f591c2d48fdfb025e9076c", "fusion_lon": 0.0}, {"is_reserved": 0, "type": "electric_scooter", "bike_id": "9de2b8aa508932f171f710d79216dbed", "lat": 38.9220635, "lon": -77.02034616666667, "rental_uris": {"android": "https://dc.lft.to/lastmile_qr_scan", "ios": "https://dc.lft.to/lastmile_qr_scan"}, "is_disabled": 0, "fusion_lat": 0.0, "name": "9de2b8aa508932f171f710d79216dbed", "fusion_lon": 0.0}, {"is_reserved": 0, "type": "electric_scooter", "bike_id": "2cd0b4b5a9959456fe62dce6dcf182b4", "lat": 38.931139, "lon": -77.023171, "rental_uris": {"android": "https://dc.lft.to/lastmile_qr_scan", "ios": "https://dc.lft.to/lastmile_qr_scan"}, "is_disabled": 0, "fusion_lat": 0.0, "name": "2cd0b4b5a9959456fe62dce6dcf182b4", "fusion_lon": 0.0}, {"is_reserved": 0, "type": "electric_scooter", "bike_id": "afed91696075689aefd8636028d01832", "lat": 38.904961, "lon": -77.02956483333334, "rental_uris": {"android": "https://dc.lft.to/lastmile_qr_scan", "ios": "https://dc.lft.to/lastmile_qr_scan"}, "is_disabled": 0, "fusion_lat": 0.0, "name": "afed91696075689aefd8636028d01832", "fusion_lon": 0.0}, {"is_reserved": 0, "type": "electric_scooter", "bike_id": "c9e74bfbf4ac4df88579d6e8c417ff1b", "lat": 38.90620583333333, "lon": -77.00873433333334, "rental_uris": {"android": "https://dc.lft.to/lastmile_qr_scan", "ios": "https://dc.lft.to/lastmile_qr_scan"}, "is_disabled": 0, "fusion_lat": 0.0, "name": "c9e74bfbf4ac4df88579d6e8c417ff1b", "fusion_lon": 0.0}, {"is_reserved": 0, "type": "electric_scooter", "bike_id": "79629dcce82791b0c8e7851828990525", "lat": 38.891382, "lon": -76.9995435, "rental_uris": {"android": "https://dc.lft.to/lastmile_qr_scan", "ios": "https://dc.lft.to/lastmile_qr_scan"}, "is_disabled": 0, "fusion_lat": 0.0, "name": "79629dcce82791b0c8e7851828990525", "fusion_lon": 0.0}, {"is_reserved": 0, "type": "electric_scooter", "bike_id": "78559c9e268ba562c312ef1c154357e4", "lat": 38.919837666666666, "lon": -77.041419, "rental_uris": {"android": "https://dc.lft.to/lastmile_qr_scan", "ios": "https://dc.lft.to/lastmile_qr_scan"}, "is_disabled": 0, "fusion_lat": 0.0, "name": "78559c9e268ba562c312ef1c154357e4", "fusion_lon": 0.0}, {"is_reserved": 0, "type": "electric_scooter", "bike_id": "5b1d57663d759b4eaa13b07fca56a922", "lat": 38.9279475, "lon": -77.0253785, "rental_uris": {"android": "https://dc.lft.to/lastmile_qr_scan", "ios": "https://dc.lft.to/lastmile_qr_scan"}, "is_disabled": 0, "fusion_lat": 0.0, "name": "5b1d57663d759b4eaa13b07fca56a922", "fusion_lon": 0.0}, {"is_reserved": 0, "type": "electric_scooter", "bike_id": "56e0e1c3c62bad9ea3c8c1cffa6fdf6c", "lat": 38.87292333333333, "lon": -77.00230883333333, "rental_uris": {"android": "https://dc.lft.to/lastmile_qr_scan", "ios": "https://dc.lft.to/lastmile_qr_scan"}, "is_disabled": 0, "fusion_lat": 0.0, "name": "56e0e1c3c62bad9ea3c8c1cffa6fdf6c", "fusion_lon": 0.0}, {"is_reserved": 0, "type": "electric_scooter", "bike_id": "1084440fcfcb7625718765791e243631", "lat": 38.92040266666667, "lon": -77.04198433333333, "rental_uris": {"android": "https://dc.lft.to/lastmile_qr_scan", "ios": "https://dc.lft.to/lastmile_qr_scan"}, "is_disabled": 0, "fusion_lat": 0.0, "name": "1084440fcfcb7625718765791e243631", "fusion_lon": 0.0}, {"is_reserved": 0, "type": "electric_scooter", "bike_id": "3b1901c6f2a76609f81fd1aef1e6e66e", "lat": 38.905425666666666, "lon": -77.06277833333333, "rental_uris": {"android": "https://dc.lft.to/lastmile_qr_scan", "ios": "https://dc.lft.to/lastmile_qr_scan"}, "is_disabled": 0, "fusion_lat": 0.0, "name": "3b1901c6f2a76609f81fd1aef1e6e66e", "fusion_lon": 0.0}, {"is_reserved": 0, "type": "electric_scooter", "bike_id": "610bbf97af72fc5b7a700c10b1a78231", "lat": 38.9017745, "lon": -76.92890133333333, "rental_uris": {"android": "https://dc.lft.to/lastmile_qr_scan", "ios": "https://dc.lft.to/lastmile_qr_scan"}, "is_disabled": 0, "fusion_lat": 0.0, "name": "610bbf97af72fc5b7a700c10b1a78231", "fusion_lon": 0.0}, {"is_reserved": 0, "type": "electric_bike", "bike_id": "69e0f83f93ac6da2df55e4e19a5ded7a", "lat": 38.88837133333333, "lon": -76.95751466666667, "rental_uris": {"android": "https://dc.lft.to/lastmile_qr_scan", "ios": "https://dc.lft.to/lastmile_qr_scan"}, "is_disabled": 0, "fusion_lat": 0.0, "name": "69e0f83f93ac6da2df55e4e19a5ded7a", "fusion_lon": 0.0}, {"is_reserved": 0, "type": "electric_scooter", "bike_id": "72ee0dba03389ac67a1b987b774e26f4", "lat": 38.921036, "lon": -77.01772933333334, "rental_uris": {"android": "https://dc.lft.to/lastmile_qr_scan", "ios": "https://dc.lft.to/lastmile_qr_scan"}, "is_disabled": 0, "fusion_lat": 0.0, "name": "72ee0dba03389ac67a1b987b774e26f4", "fusion_lon": 0.0}, {"is_reserved": 0, "type": "electric_scooter", "bike_id": "66f63e008b2d024557ffae0327216ba5", "lat": 38.8999525, "lon": -77.0272075, "rental_uris": {"android": "https://dc.lft.to/lastmile_qr_scan", "ios": "https://dc.lft.to/lastmile_qr_scan"}, "is_disabled": 0, "fusion_lat": 0.0, "name": "66f63e008b2d024557ffae0327216ba5", "fusion_lon": 0.0}, {"is_reserved": 0, "type": "electric_scooter", "bike_id": "1bb0b195865dd519452edd5f6680d92b", "lat": 38.92892666666667, "lon": -77.02618666666666, "rental_uris": {"android": "https://dc.lft.to/lastmile_qr_scan", "ios": "https://dc.lft.to/lastmile_qr_scan"}, "is_disabled": 0, "fusion_lat": 0.0, "name": "1bb0b195865dd519452edd5f6680d92b", "fusion_lon": 0.0}, {"is_reserved": 0, "type": "electric_scooter", "bike_id": "eb8f869869fcf5895f5f93dddce42200", "lat": 38.897164, "lon": -77.0535035, "rental_uris": {"android": "https://dc.lft.to/lastmile_qr_scan", "ios": "https://dc.lft.to/lastmile_qr_scan"}, "is_disabled": 0, "fusion_lat": 0.0, "name": "eb8f869869fcf5895f5f93dddce42200", "fusion_lon": 0.0}, {"is_reserved": 0, "type": "electric_scooter", "bike_id": "1c21de688bfd44557d06a6d28fb18d87", "lat": 38.946462833333335, "lon": -77.06555033333333, "rental_uris": {"android": "https://dc.lft.to/lastmile_qr_scan", "ios": "https://dc.lft.to/lastmile_qr_scan"}, "is_disabled": 0, "fusion_lat": 0.0, "name": "1c21de688bfd44557d06a6d28fb18d87", "fusion_lon": 0.0}, {"is_reserved": 0, "type": "electric_bike", "bike_id": "ae486941e84655c6cfedacc3fb93acc6", "lat": 38.8073045, "lon": -76.99255766666667, "rental_uris": {"android": "https://dc.lft.to/lastmile_qr_scan", "ios": "https://dc.lft.to/lastmile_qr_scan"}, "is_disabled": 0, "fusion_lat": 0.0, "name": "ae486941e84655c6cfedacc3fb93acc6", "fusion_lon": 0.0}, {"is_reserved": 0, "type": "electric_scooter", "bike_id": "9eb67b941644d8b154a1323c2a0aad3f", "lat": 38.917631166666666, "lon": -77.02712333333334, "rental_uris": {"android": "https://dc.lft.to/lastmile_qr_scan", "ios": "https://dc.lft.to/lastmile_qr_scan"}, "is_disabled": 0, "fusion_lat": 0.0, "name": "9eb67b941644d8b154a1323c2a0aad3f", "fusion_lon": 0.0}, {"is_reserved": 0, "type": "electric_scooter", "bike_id": "638ca6f82c5e131a7202e41ea198860a", "lat": 38.89906216666667, "lon": -76.97994016666667, "rental_uris": {"android": "https://dc.lft.to/lastmile_qr_scan", "ios": "https://dc.lft.to/lastmile_qr_scan"}, "is_disabled": 0, "fusion_lat": 0.0, "name": "638ca6f82c5e131a7202e41ea198860a", "fusion_lon": 0.0}, {"is_reserved": 0, "type": "electric_scooter", "bike_id": "c3ee6ab381aad9a3830e2dbd98b3f6ca", "lat": 38.928222166666664, "lon": -77.06216383333333, "rental_uris": {"android": "https://dc.lft.to/lastmile_qr_scan", "ios": "https://dc.lft.to/lastmile_qr_scan"}, "is_disabled": 0, "fusion_lat": 0.0, "name": "c3ee6ab381aad9a3830e2dbd98b3f6ca", "fusion_lon": 0.0}, {"is_reserved": 0, "type": "electric_scooter", "bike_id": "db0d08ed9cd89ae49db2684dd9de6046", "lat": 38.906762, "lon": -77.03470833333333, "rental_uris": {"android": "https://dc.lft.to/lastmile_qr_scan", "ios": "https://dc.lft.to/lastmile_qr_scan"}, "is_disabled": 0, "fusion_lat": 0.0, "name": "db0d08ed9cd89ae49db2684dd9de6046", "fusion_lon": 0.0}, {"is_reserved": 0, "type": "electric_scooter", "bike_id": "969123edc46fdb5af8cc824bdd906057", "lat": 38.93590483333333, "lon": -77.0337655, "rental_uris": {"android": "https://dc.lft.to/lastmile_qr_scan", "ios": "https://dc.lft.to/lastmile_qr_scan"}, "is_disabled": 0, "fusion_lat": 0.0, "name": "969123edc46fdb5af8cc824bdd906057", "fusion_lon": 0.0}, {"is_reserved": 0, "type": "electric_scooter", "bike_id": "cd1545dca9ee43785a19a628d08b3aef", "lat": 38.89633233333333, "lon": -77.03218083333333, "rental_uris": {"android": "https://dc.lft.to/lastmile_qr_scan", "ios": "https://dc.lft.to/lastmile_qr_scan"}, "is_disabled": 0, "fusion_lat": 0.0, "name": "cd1545dca9ee43785a19a628d08b3aef", "fusion_lon": 0.0}, {"is_reserved": 0, "type": "electric_bike", "bike_id": "99cd6b32dae74e085f4c49a4da9076c4", "lat": 38.97306183333333, "lon": -76.99478216666667, "rental_uris": {"android": "https://dc.lft.to/lastmile_qr_scan", "ios": "https://dc.lft.to/lastmile_qr_scan"}, "is_disabled": 0, "fusion_lat": 0.0, "name": "99cd6b32dae74e085f4c49a4da9076c4", "fusion_lon": 0.0}, {"is_reserved": 0, "type": "electric_scooter", "bike_id": "afb83e060898fe5efaa04387bcb88645", "lat": 38.914776333333336, "lon": -77.03188966666667, "rental_uris": {"android": "https://dc.lft.to/lastmile_qr_scan", "ios": "https://dc.lft.to/lastmile_qr_scan"}, "is_disabled": 0, "fusion_lat": 0.0, "name": "afb83e060898fe5efaa04387bcb88645", "fusion_lon": 0.0}, {"is_reserved": 0, "type": "electric_scooter", "bike_id": "1a78026a51e349802f02ba86fcf82f6a", "lat": 38.90132033333333, "lon": -77.03382333333333, "rental_uris": {"android": "https://dc.lft.to/lastmile_qr_scan", "ios": "https://dc.lft.to/lastmile_qr_scan"}, "is_disabled": 0, "fusion_lat": 0.0, "name": "1a78026a51e349802f02ba86fcf82f6a", "fusion_lon": 0.0}, {"is_reserved": 0, "type": "electric_scooter", "bike_id": "ac8f5012f57016e41661f7548046f1cd", "lat": 38.88739133333333, "lon": -77.03172833333333, "rental_uris": {"android": "https://dc.lft.to/lastmile_qr_scan", "ios": "https://dc.lft.to/lastmile_qr_scan"}, "is_disabled": 0, "fusion_lat": 0.0, "name": "ac8f5012f57016e41661f7548046f1cd", "fusion_lon": 0.0}, {"is_reserved": 0, "type": "electric_scooter", "bike_id": "417ee2fb30cbda65310cd8326fefed24", "lat": 38.900281666666665, "lon": -76.98875383333333, "rental_uris": {"android": "https://dc.lft.to/lastmile_qr_scan", "ios": "https://dc.lft.to/lastmile_qr_scan"}, "is_disabled": 0, "fusion_lat": 0.0, "name": "417ee2fb30cbda65310cd8326fefed24", "fusion_lon": 0.0}, {"is_reserved": 0, "type": "electric_scooter", "bike_id": "229df005dc64a5e0588b833a61ef8626", "lat": 38.91001083333333, "lon": -77.03194183333333, "rental_uris": {"android": "https://dc.lft.to/lastmile_qr_scan", "ios": "https://dc.lft.to/lastmile_qr_scan"}, "is_disabled": 0, "fusion_lat": 0.0, "name": "229df005dc64a5e0588b833a61ef8626", "fusion_lon": 0.0}, {"is_reserved": 0, "type": "electric_bike", "bike_id": "3aa270a4238553b58e03b8f761297c4f", "lat": 38.91805766666667, "lon": -77.009554, "rental_uris": {"android": "https://dc.lft.to/lastmile_qr_scan", "ios": "https://dc.lft.to/lastmile_qr_scan"}, "is_disabled": 0, "fusion_lat": 0.0, "name": "3aa270a4238553b58e03b8f761297c4f", "fusion_lon": 0.0}, {"is_reserved": 0, "type": "electric_scooter", "bike_id": "768a463bbcf96e8f2b704adb50055c51", "lat": 38.898469166666665, "lon": -76.92750616666666, "rental_uris": {"android": "https://dc.lft.to/lastmile_qr_scan", "ios": "https://dc.lft.to/lastmile_qr_scan"}, "is_disabled": 0, "fusion_lat": 0.0, "name": "768a463bbcf96e8f2b704adb50055c51", "fusion_lon": 0.0}, {"is_reserved": 0, "type": "electric_scooter", "bike_id": "cdd97b57cc3e8b20ad5d94aa165cad37", "lat": 38.94434733333333, "lon": -77.0291375, "rental_uris": {"android": "https://dc.lft.to/lastmile_qr_scan", "ios": "https://dc.lft.to/lastmile_qr_scan"}, "is_disabled": 0, "fusion_lat": 0.0, "name": "cdd97b57cc3e8b20ad5d94aa165cad37", "fusion_lon": 0.0}, {"is_reserved": 0, "type": "electric_scooter", "bike_id": "6ad60c3a2d05e87af7d9a137401bf954", "lat": 38.925608, "lon": -76.96998716666667, "rental_uris": {"android": "https://dc.lft.to/lastmile_qr_scan", "ios": "https://dc.lft.to/lastmile_qr_scan"}, "is_disabled": 0, "fusion_lat": 0.0, "name": "6ad60c3a2d05e87af7d9a137401bf954", "fusion_lon": 0.0}, {"is_reserved": 0, "type": "electric_scooter", "bike_id": "68877d38146853b4a80a7cc62b0546aa", "lat": 38.9157095, "lon": -77.02205883333333, "rental_uris": {"android": "https://dc.lft.to/lastmile_qr_scan", "ios": "https://dc.lft.to/lastmile_qr_scan"}, "is_disabled": 0, "fusion_lat": 0.0, "name": "68877d38146853b4a80a7cc62b0546aa", "fusion_lon": 0.0}, {"is_reserved": 0, "type": "electric_scooter", "bike_id": "7080e4a4e15ed049f5d6f51eb6c6cb36", "lat": 38.93689783333333, "lon": -77.027147, "rental_uris": {"android": "https://dc.lft.to/lastmile_qr_scan", "ios": "https://dc.lft.to/lastmile_qr_scan"}, "is_disabled": 0, "fusion_lat": 0.0, "name": "7080e4a4e15ed049f5d6f51eb6c6cb36", "fusion_lon": 0.0}, {"is_reserved": 0, "type": "electric_scooter", "bike_id": "409fbf7d9a4e3a3e9eefa91f6c6246ac", "lat": 38.906677, "lon": -76.980209, "rental_uris": {"android": "https://dc.lft.to/lastmile_qr_scan", "ios": "https://dc.lft.to/lastmile_qr_scan"}, "is_disabled": 0, "fusion_lat": 0.0, "name": "409fbf7d9a4e3a3e9eefa91f6c6246ac", "fusion_lon": 0.0}, {"is_reserved": 0, "type": "electric_scooter", "bike_id": "a7c76ac07094e0cdd9f83ae941ed9b60", "lat": 38.90957083333333, "lon": -77.04397383333334, "rental_uris": {"android": "https://dc.lft.to/lastmile_qr_scan", "ios": "https://dc.lft.to/lastmile_qr_scan"}, "is_disabled": 0, "fusion_lat": 0.0, "name": "a7c76ac07094e0cdd9f83ae941ed9b60", "fusion_lon": 0.0}, {"is_reserved": 0, "type": "electric_scooter", "bike_id": "13fc51f8b18c929ccaab5608a5a74bec", "lat": 38.871598166666665, "lon": -77.01355066666666, "rental_uris": {"android": "https://dc.lft.to/lastmile_qr_scan", "ios": "https://dc.lft.to/lastmile_qr_scan"}, "is_disabled": 0, "fusion_lat": 0.0, "name": "13fc51f8b18c929ccaab5608a5a74bec", "fusion_lon": 0.0}, {"is_reserved": 0, "type": "electric_scooter", "bike_id": "ee0692fee2fd0bd535a00611190605f8", "lat": 38.89631716666667, "lon": -77.00206083333333, "rental_uris": {"android": "https://dc.lft.to/lastmile_qr_scan", "ios": "https://dc.lft.to/lastmile_qr_scan"}, "is_disabled": 0, "fusion_lat": 0.0, "name": "ee0692fee2fd0bd535a00611190605f8", "fusion_lon": 0.0}, {"is_reserved": 0, "type": "electric_scooter", "bike_id": "dd8a160dd6dcefb8e3bfc05f228ce800", "lat": 38.8987935, "lon": -77.04870683333333, "rental_uris": {"android": "https://dc.lft.to/lastmile_qr_scan", "ios": "https://dc.lft.to/lastmile_qr_scan"}, "is_disabled": 0, "fusion_lat": 0.0, "name": "dd8a160dd6dcefb8e3bfc05f228ce800", "fusion_lon": 0.0}, {"is_reserved": 0, "type": "electric_scooter", "bike_id": "c6e1f4f417ac8c46a2875a94bb1b41e8", "lat": 38.887119, "lon": -77.01773866666667, "rental_uris": {"android": "https://dc.lft.to/lastmile_qr_scan", "ios": "https://dc.lft.to/lastmile_qr_scan"}, "is_disabled": 0, "fusion_lat": 0.0, "name": "c6e1f4f417ac8c46a2875a94bb1b41e8", "fusion_lon": 0.0}, {"is_reserved": 0, "type": "electric_scooter", "bike_id": "13140adef118649c51b03a9dfc42b66b", "lat": 38.9055215, "lon": -77.061191, "rental_uris": {"android": "https://dc.lft.to/lastmile_qr_scan", "ios": "https://dc.lft.to/lastmile_qr_scan"}, "is_disabled": 0, "fusion_lat": 0.0, "name": "13140adef118649c51b03a9dfc42b66b", "fusion_lon": 0.0}, {"is_reserved": 0, "type": "electric_scooter", "bike_id": "35c6db7420d787b24fe43be441fc8b93", "lat": 38.90731566666667, "lon": -77.0008985, "rental_uris": {"android": "https://dc.lft.to/lastmile_qr_scan", "ios": "https://dc.lft.to/lastmile_qr_scan"}, "is_disabled": 0, "fusion_lat": 0.0, "name": "35c6db7420d787b24fe43be441fc8b93", "fusion_lon": 0.0}, {"is_reserved": 0, "type": "electric_scooter", "bike_id": "26eb578ae6c7ac015720482e9a671bd2", "lat": 38.931770666666665, "lon": -77.03856683333333, "rental_uris": {"android": "https://dc.lft.to/lastmile_qr_scan", "ios": "https://dc.lft.to/lastmile_qr_scan"}, "is_disabled": 0, "fusion_lat": 0.0, "name": "26eb578ae6c7ac015720482e9a671bd2", "fusion_lon": 0.0}, {"is_reserved": 0, "type": "electric_bike", "bike_id": "aa4a756db27c94f3e2ea8806630738ec", "lat": 38.91411166666666, "lon": -77.0048495, "rental_uris": {"android": "https://dc.lft.to/lastmile_qr_scan", "ios": "https://dc.lft.to/lastmile_qr_scan"}, "is_disabled": 0, "fusion_lat": 0.0, "name": "aa4a756db27c94f3e2ea8806630738ec", "fusion_lon": 0.0}, {"is_reserved": 0, "type": "electric_scooter", "bike_id": "e3e4468beca677f1e520dd5a9e74805e", "lat": 38.92403916666667, "lon": -76.95145616666667, "rental_uris": {"android": "https://dc.lft.to/lastmile_qr_scan", "ios": "https://dc.lft.to/lastmile_qr_scan"}, "is_disabled": 0, "fusion_lat": 0.0, "name": "e3e4468beca677f1e520dd5a9e74805e", "fusion_lon": 0.0}, {"is_reserved": 0, "type": "electric_scooter", "bike_id": "018889745456205994e9820fc69eb8b2", "lat": 38.90956966666667, "lon": -77.01447966666667, "rental_uris": {"android": "https://dc.lft.to/lastmile_qr_scan", "ios": "https://dc.lft.to/lastmile_qr_scan"}, "is_disabled": 0, "fusion_lat": 0.0, "name": "018889745456205994e9820fc69eb8b2", "fusion_lon": 0.0}, {"is_reserved": 0, "type": "electric_scooter", "bike_id": "255bbb928e9a89c94ed72bffc886c3ab", "lat": 38.899923666666666, "lon": -77.02904083333334, "rental_uris": {"android": "https://dc.lft.to/lastmile_qr_scan", "ios": "https://dc.lft.to/lastmile_qr_scan"}, "is_disabled": 0, "fusion_lat": 0.0, "name": "255bbb928e9a89c94ed72bffc886c3ab", "fusion_lon": 0.0}, {"is_reserved": 0, "type": "electric_scooter", "bike_id": "43d76c9977e0478de048eda179c8a631", "lat": 38.887546, "lon": -76.99612016666667, "rental_uris": {"android": "https://dc.lft.to/lastmile_qr_scan", "ios": "https://dc.lft.to/lastmile_qr_scan"}, "is_disabled": 0, "fusion_lat": 0.0, "name": "43d76c9977e0478de048eda179c8a631", "fusion_lon": 0.0}, {"is_reserved": 0, "type": "electric_scooter", "bike_id": "b18fe0f4363369628286d5474a394040", "lat": 38.927997, "lon": -77.0364045, "rental_uris": {"android": "https://dc.lft.to/lastmile_qr_scan", "ios": "https://dc.lft.to/lastmile_qr_scan"}, "is_disabled": 0, "fusion_lat": 0.0, "name": "b18fe0f4363369628286d5474a394040", "fusion_lon": 0.0}, {"is_reserved": 0, "type": "electric_scooter", "bike_id": "cecdb28a2fcfbd287d8ed4b6e5508c60", "lat": 38.90371533333333, "lon": -77.0342245, "rental_uris": {"android": "https://dc.lft.to/lastmile_qr_scan", "ios": "https://dc.lft.to/lastmile_qr_scan"}, "is_disabled": 0, "fusion_lat": 0.0, "name": "cecdb28a2fcfbd287d8ed4b6e5508c60", "fusion_lon": 0.0}, {"is_reserved": 0, "type": "electric_scooter", "bike_id": "30e640839844954dbaafe70793cda81b", "lat": 38.90296, "lon": -76.93415533333334, "rental_uris": {"android": "https://dc.lft.to/lastmile_qr_scan", "ios": "https://dc.lft.to/lastmile_qr_scan"}, "is_disabled": 0, "fusion_lat": 0.0, "name": "30e640839844954dbaafe70793cda81b", "fusion_lon": 0.0}, {"is_reserved": 0, "type": "electric_scooter", "bike_id": "b6714bfe84892f8e439e49b0b9beb784", "lat": 38.9022455, "lon": -77.03184983333334, "rental_uris": {"android": "https://dc.lft.to/lastmile_qr_scan", "ios": "https://dc.lft.to/lastmile_qr_scan"}, "is_disabled": 0, "fusion_lat": 0.0, "name": "b6714bfe84892f8e439e49b0b9beb784", "fusion_lon": 0.0}, {"is_reserved": 0, "type": "electric_scooter", "bike_id": "8a849311a0ed9219cc261562fbbecac0", "lat": 38.92387166666666, "lon": -77.02535483333334, "rental_uris": {"android": "https://dc.lft.to/lastmile_qr_scan", "ios": "https://dc.lft.to/lastmile_qr_scan"}, "is_disabled": 0, "fusion_lat": 0.0, "name": "8a849311a0ed9219cc261562fbbecac0", "fusion_lon": 0.0}, {"is_reserved": 0, "type": "electric_scooter", "bike_id": "117b0b0011349d45e4a1f918f0f07df1", "lat": 38.90975366666667, "lon": -77.03200066666666, "rental_uris": {"android": "https://dc.lft.to/lastmile_qr_scan", "ios": "https://dc.lft.to/lastmile_qr_scan"}, "is_disabled": 0, "fusion_lat": 0.0, "name": "117b0b0011349d45e4a1f918f0f07df1", "fusion_lon": 0.0}, {"is_reserved": 0, "type": "electric_scooter", "bike_id": "8d820ab289ed80aa2e8d4b14ee149ba5", "lat": 38.943102, "lon": -77.06171083333334, "rental_uris": {"android": "https://dc.lft.to/lastmile_qr_scan", "ios": "https://dc.lft.to/lastmile_qr_scan"}, "is_disabled": 0, "fusion_lat": 0.0, "name": "8d820ab289ed80aa2e8d4b14ee149ba5", "fusion_lon": 0.0}, {"is_reserved": 0, "type": "electric_scooter", "bike_id": "c25866e8ed7f6ba94df0b442feae5e5f", "lat": 38.91614783333333, "lon": -77.03178833333334, "rental_uris": {"android": "https://dc.lft.to/lastmile_qr_scan", "ios": "https://dc.lft.to/lastmile_qr_scan"}, "is_disabled": 0, "fusion_lat": 0.0, "name": "c25866e8ed7f6ba94df0b442feae5e5f", "fusion_lon": 0.0}, {"is_reserved": 0, "type": "electric_scooter", "bike_id": "494aca29f6ae0d97e3c8ecea65272d60", "lat": 38.931206333333336, "lon": -77.02317233333333, "rental_uris": {"android": "https://dc.lft.to/lastmile_qr_scan", "ios": "https://dc.lft.to/lastmile_qr_scan"}, "is_disabled": 0, "fusion_lat": 0.0, "name": "494aca29f6ae0d97e3c8ecea65272d60", "fusion_lon": 0.0}, {"is_reserved": 0, "type": "electric_scooter", "bike_id": "3866e832e0f0b701e2c31c614233a740", "lat": 38.938763, "lon": -77.03281366666667, "rental_uris": {"android": "https://dc.lft.to/lastmile_qr_scan", "ios": "https://dc.lft.to/lastmile_qr_scan"}, "is_disabled": 0, "fusion_lat": 0.0, "name": "3866e832e0f0b701e2c31c614233a740", "fusion_lon": 0.0}, {"is_reserved": 0, "type": "electric_scooter", "bike_id": "127e3b5812f840ca794ad8efdff0281d", "lat": 38.88725983333333, "lon": -77.0280695, "rental_uris": {"android": "https://dc.lft.to/lastmile_qr_scan", "ios": "https://dc.lft.to/lastmile_qr_scan"}, "is_disabled": 0, "fusion_lat": 0.0, "name": "127e3b5812f840ca794ad8efdff0281d", "fusion_lon": 0.0}, {"is_reserved": 0, "type": "electric_scooter", "bike_id": "4afe2681088504c4d1f8f7d3f2672f2d", "lat": 38.918439, "lon": -77.03896016666667, "rental_uris": {"android": "https://dc.lft.to/lastmile_qr_scan", "ios": "https://dc.lft.to/lastmile_qr_scan"}, "is_disabled": 0, "fusion_lat": 0.0, "name": "4afe2681088504c4d1f8f7d3f2672f2d", "fusion_lon": 0.0}, {"is_reserved": 0, "type": "electric_scooter", "bike_id": "3c5dc1b06df43543e1062586e29fe827", "lat": 38.91603116666667, "lon": -77.02189966666667, "rental_uris": {"android": "https://dc.lft.to/lastmile_qr_scan", "ios": "https://dc.lft.to/lastmile_qr_scan"}, "is_disabled": 0, "fusion_lat": 0.0, "name": "3c5dc1b06df43543e1062586e29fe827", "fusion_lon": 0.0}, {"is_reserved": 0, "type": "electric_scooter", "bike_id": "166baa6621d8ca792787ec7e35f088dc", "lat": 38.900150333333336, "lon": -76.991689, "rental_uris": {"android": "https://dc.lft.to/lastmile_qr_scan", "ios": "https://dc.lft.to/lastmile_qr_scan"}, "is_disabled": 0, "fusion_lat": 0.0, "name": "166baa6621d8ca792787ec7e35f088dc", "fusion_lon": 0.0}, {"is_reserved": 0, "type": "electric_bike", "bike_id": "6e8303925e6b5ed0542d2ba42a035e6e", "lat": 38.973263333333335, "lon": -77.01802066666667, "rental_uris": {"android": "https://dc.lft.to/lastmile_qr_scan", "ios": "https://dc.lft.to/lastmile_qr_scan"}, "is_disabled": 0, "fusion_lat": 0.0, "name": "6e8303925e6b5ed0542d2ba42a035e6e", "fusion_lon": 0.0}, {"is_reserved": 0, "type": "electric_scooter", "bike_id": "fd223e5c9e55cccfa96f11a4be892a4b", "lat": 38.932772166666666, "lon": -77.03941966666666, "rental_uris": {"android": "https://dc.lft.to/lastmile_qr_scan", "ios": "https://dc.lft.to/lastmile_qr_scan"}, "is_disabled": 0, "fusion_lat": 0.0, "name": "fd223e5c9e55cccfa96f11a4be892a4b", "fusion_lon": 0.0}, {"is_reserved": 0, "type": "electric_scooter", "bike_id": "8f518dbeaef7b4170ea8159145eee08f", "lat": 38.874962, "lon": -77.00228866666667, "rental_uris": {"android": "https://dc.lft.to/lastmile_qr_scan", "ios": "https://dc.lft.to/lastmile_qr_scan"}, "is_disabled": 0, "fusion_lat": 0.0, "name": "8f518dbeaef7b4170ea8159145eee08f", "fusion_lon": 0.0}, {"is_reserved": 0, "type": "electric_scooter", "bike_id": "991e828fc6eb423bfc4d31d36818cf6a", "lat": 38.9450935, "lon": -77.03357916666667, "rental_uris": {"android": "https://dc.lft.to/lastmile_qr_scan", "ios": "https://dc.lft.to/lastmile_qr_scan"}, "is_disabled": 0, "fusion_lat": 0.0, "name": "991e828fc6eb423bfc4d31d36818cf6a", "fusion_lon": 0.0}, {"is_reserved": 0, "type": "electric_scooter", "bike_id": "a4f609bfa9876599877fdc189a5cdc8f", "lat": 38.93409233333333, "lon": -77.04543333333334, "rental_uris": {"android": "https://dc.lft.to/lastmile_qr_scan", "ios": "https://dc.lft.to/lastmile_qr_scan"}, "is_disabled": 0, "fusion_lat": 0.0, "name": "a4f609bfa9876599877fdc189a5cdc8f", "fusion_lon": 0.0}, {"is_reserved": 0, "type": "electric_scooter", "bike_id": "2471ff4b3b344f9b520576940c130bdf", "lat": 38.90351166666667, "lon": -77.035424, "rental_uris": {"android": "https://dc.lft.to/lastmile_qr_scan", "ios": "https://dc.lft.to/lastmile_qr_scan"}, "is_disabled": 0, "fusion_lat": 0.0, "name": "2471ff4b3b344f9b520576940c130bdf", "fusion_lon": 0.0}, {"is_reserved": 0, "type": "electric_scooter", "bike_id": "bca3bc88409366146a298c6e56323568", "lat": 38.926063666666664, "lon": -77.02166466666667, "rental_uris": {"android": "https://dc.lft.to/lastmile_qr_scan", "ios": "https://dc.lft.to/lastmile_qr_scan"}, "is_disabled": 0, "fusion_lat": 0.0, "name": "bca3bc88409366146a298c6e56323568", "fusion_lon": 0.0}, {"is_reserved": 0, "type": "electric_scooter", "bike_id": "19ed69d4bffe9f57132d0f3639392e72", "lat": 38.9039675, "lon": -77.024731, "rental_uris": {"android": "https://dc.lft.to/lastmile_qr_scan", "ios": "https://dc.lft.to/lastmile_qr_scan"}, "is_disabled": 0, "fusion_lat": 0.0, "name": "19ed69d4bffe9f57132d0f3639392e72", "fusion_lon": 0.0}, {"is_reserved": 0, "type": "electric_scooter", "bike_id": "ca9e822ab7d2526d5a55d7099e740507", "lat": 38.91783816666667, "lon": -77.0409965, "rental_uris": {"android": "https://dc.lft.to/lastmile_qr_scan", "ios": "https://dc.lft.to/lastmile_qr_scan"}, "is_disabled": 0, "fusion_lat": 0.0, "name": "ca9e822ab7d2526d5a55d7099e740507", "fusion_lon": 0.0}, {"is_reserved": 0, "type": "electric_scooter", "bike_id": "10444aabbae2421caf8be77943dc3957", "lat": 38.903828833333336, "lon": -77.041988, "rental_uris": {"android": "https://dc.lft.to/lastmile_qr_scan", "ios": "https://dc.lft.to/lastmile_qr_scan"}, "is_disabled": 0, "fusion_lat": 0.0, "name": "10444aabbae2421caf8be77943dc3957", "fusion_lon": 0.0}, {"is_reserved": 0, "type": "electric_scooter", "bike_id": "3ff46540f23f578fad2abf4d21d9702f", "lat": 38.899030333333336, "lon": -77.003752, "rental_uris": {"android": "https://dc.lft.to/lastmile_qr_scan", "ios": "https://dc.lft.to/lastmile_qr_scan"}, "is_disabled": 0, "fusion_lat": 0.0, "name": "3ff46540f23f578fad2abf4d21d9702f", "fusion_lon": 0.0}, {"is_reserved": 0, "type": "electric_scooter", "bike_id": "3f60307dd11966a5999e29cdb82fb42e", "lat": 38.93631633333333, "lon": -77.03652416666667, "rental_uris": {"android": "https://dc.lft.to/lastmile_qr_scan", "ios": "https://dc.lft.to/lastmile_qr_scan"}, "is_disabled": 0, "fusion_lat": 0.0, "name": "3f60307dd11966a5999e29cdb82fb42e", "fusion_lon": 0.0}, {"is_reserved": 0, "type": "electric_scooter", "bike_id": "17ba44446ffe9a7b8e368a5793e6cbf3", "lat": 38.90410633333333, "lon": -76.97329366666666, "rental_uris": {"android": "https://dc.lft.to/lastmile_qr_scan", "ios": "https://dc.lft.to/lastmile_qr_scan"}, "is_disabled": 0, "fusion_lat": 0.0, "name": "17ba44446ffe9a7b8e368a5793e6cbf3", "fusion_lon": 0.0}, {"is_reserved": 0, "type": "electric_scooter", "bike_id": "bf38b284440507436b66b7fee598f550", "lat": 38.910581, "lon": -77.04088833333333, "rental_uris": {"android": "https://dc.lft.to/lastmile_qr_scan", "ios": "https://dc.lft.to/lastmile_qr_scan"}, "is_disabled": 0, "fusion_lat": 0.0, "name": "bf38b284440507436b66b7fee598f550", "fusion_lon": 0.0}, {"is_reserved": 0, "type": "electric_scooter", "bike_id": "7f6ef67a5b906bc0c9a33b478b60f589", "lat": 38.9347805, "lon": -77.05649016666666, "rental_uris": {"android": "https://dc.lft.to/lastmile_qr_scan", "ios": "https://dc.lft.to/lastmile_qr_scan"}, "is_disabled": 0, "fusion_lat": 0.0, "name": "7f6ef67a5b906bc0c9a33b478b60f589", "fusion_lon": 0.0}, {"is_reserved": 0, "type": "electric_scooter", "bike_id": "297c89986d23d38b0b6780da09c5174d", "lat": 38.920706833333334, "lon": -77.023164, "rental_uris": {"android": "https://dc.lft.to/lastmile_qr_scan", "ios": "https://dc.lft.to/lastmile_qr_scan"}, "is_disabled": 0, "fusion_lat": 0.0, "name": "297c89986d23d38b0b6780da09c5174d", "fusion_lon": 0.0}, {"is_reserved": 0, "type": "electric_scooter", "bike_id": "f125a6a0d4f71f524c355553eb87185b", "lat": 38.9337675, "lon": -77.03466533333334, "rental_uris": {"android": "https://dc.lft.to/lastmile_qr_scan", "ios": "https://dc.lft.to/lastmile_qr_scan"}, "is_disabled": 0, "fusion_lat": 0.0, "name": "f125a6a0d4f71f524c355553eb87185b", "fusion_lon": 0.0}, {"is_reserved": 0, "type": "electric_scooter", "bike_id": "5e3fc6b641e7645dfb81e0c48cda93cf", "lat": 38.896088666666664, "lon": -77.00525066666667, "rental_uris": {"android": "https://dc.lft.to/lastmile_qr_scan", "ios": "https://dc.lft.to/lastmile_qr_scan"}, "is_disabled": 0, "fusion_lat": 0.0, "name": "5e3fc6b641e7645dfb81e0c48cda93cf", "fusion_lon": 0.0},