{"data": {"bikes": [{"rental_uris": {"ios": "https://dc.lft.to/lastmile_qr_scan", "android": "https://dc.lft.to/lastmile_qr_scan"}, "lon": -77.03349166666666, "type": "electric_scooter", "fusion_lat": 0.0, "lat": 38.934195333333335, "name": "f16ddba23559625b92d9b0c63742d20e", "fusion_lon": 0.0, "bike_id": "f16ddba23559625b92d9b0c63742d20e", "is_disabled": 0, "is_reserved": 0}, {"rental_uris": {"ios": "https://dc.lft.to/lastmile_qr_scan", "android": "https://dc.lft.to/lastmile_qr_scan"}, "lon": -77.02262966666666, "type": "electric_scooter", "fusion_lat": 0.0, "lat": 38.9245915, "name": "2d20c79b256c338bfc4a3433a0ee98c9", "fusion_lon": 0.0, "bike_id": "2d20c79b256c338bfc4a3433a0ee98c9", "is_disabled": 0, "is_reserved": 0}, {"rental_uris": {"ios": "https://dc.lft.to/lastmile_qr_scan", "android": "https://dc.lft.to/lastmile_qr_scan"}, "lon": -77.03540983333333, "type": "electric_scooter", "fusion_lat": 0.0, "lat": 38.93285566666667, "name": "0355b815213ba29181289e64344a391d", "fusion_lon": 0.0, "bike_id": "0355b815213ba29181289e64344a391d", "is_disabled": 0, "is_reserved": 0}, {"rental_uris": {"ios": "https://dc.lft.to/lastmile_qr_scan", "android": "https://dc.lft.to/lastmile_qr_scan"}, "lon": -77.04809333333333, "type": "electric_scooter", "fusion_lat": 0.0, "lat": 38.920375166666666, "name": "d55e81ab0a542e048e5b835fbd105946", "fusion_lon": 0.0, "bike_id": "d55e81ab0a542e048e5b835fbd105946", "is_disabled": 0, "is_reserved": 0}, {"rental_uris": {"ios": "https://dc.lft.to/lastmile_qr_scan", "android": "https://dc.lft.to/lastmile_qr_scan"}, "lon": -77.04143516666667, "type": "electric_bike", "fusion_lat": 0.0, "lat": 38.916826, "name": "678ab0fc2d2e8d5032447a12da8b5e68", "fusion_lon": 0.0, "bike_id": "678ab0fc2d2e8d5032447a12da8b5e68", "is_disabled": 0, "is_reserved": 0}, {"rental_uris": {"ios": "https://dc.lft.to/lastmile_qr_scan", "android": "https://dc.lft.to/lastmile_qr_scan"}, "lon": -77.013265, "type": "electric_scooter", "fusion_lat": 0.0, "lat": 38.900204333333335, "name": "23ea69715bb35d91b11597b7cc898e66", "fusion_lon": 0.0, "bike_id": "23ea69715bb35d91b11597b7cc898e66", "is_disabled": 0, "is_reserved": 0}, {"rental_uris": {"ios": "https://dc.lft.to/lastmile_qr_scan", "android": "https://dc.lft.to/lastmile_qr_scan"}, "lon": -77.03416083333333, "type": "electric_scooter", "fusion_lat": 0.0, "lat": 38.93544966666666, "name": "7ed3ae8713682e9f68c88447f51835a6", "fusion_lon": 0.0, "bike_id": "7ed3ae8713682e9f68c88447f51835a6", "is_disabled": 0, "is_reserved": 0}, {"rental_uris": {"ios": "https://dc.lft.to/lastmile_qr_scan", "android": "https://dc.lft.to/lastmile_qr_scan"}, "lon": -77.03832616666666, "type": "electric_bike", "fusion_lat": 0.0, "lat": 38.91556766666667, "name": "9524d3c7a817eabccec0066b6e53e9e0", "fusion_lon": 0.0, "bike_id": "9524d3c7a817eabccec0066b6e53e9e0", "is_disabled": 0, "is_reserved": 0}, {"rental_uris": {"ios": "https://dc.lft.to/lastmile_qr_scan", "android": "https://dc.lft.to/lastmile_qr_scan"}, "lon": -77.02862, "type": "electric_scooter", "fusion_lat": 0.0, "lat": 38.9281465, "name": "6c34ce7b133641282be74075daf0b025", "fusion_lon": 0.0, "bike_id": "6c34ce7b133641282be74075daf0b025", "is_disabled": 0, "is_reserved": 0}, {"rental_uris": {"ios": "https://dc.lft.to/lastmile_qr_scan", "android": "https://dc.lft.to/lastmile_qr_scan"}, "lon": -77.0235725, "type": "electric_scooter", "fusion_lat": 0.0, "lat": 38.925080333333334, "name": "b62640d4243a9bcd7ab63e0453a6f76d", "fusion_lon": 0.0, "bike_id": "b62640d4243a9bcd7ab63e0453a6f76d", "is_disabled": 0, "is_reserved": 0}, {"rental_uris": {"ios": "https://dc.lft.to/lastmile_qr_scan", "android": "https://dc.lft.to/lastmile_qr_scan"}, "lon": -77.04009116666667, "type": "electric_scooter", "fusion_lat": 0.0, "lat": 38.9216625, "name": "6938e8f6729662ea2f10712c115878ad", "fusion_lon": 0.0, "bike_id": "6938e8f6729662ea2f10712c115878ad", "is_disabled": 0, "is_reserved": 0}, {"rental_uris": {"ios": "https://dc.lft.to/lastmile_qr_scan", "android": "https://dc.lft.to/lastmile_qr_scan"}, "lon": -77.01705466666667, "type": "electric_scooter", "fusion_lat": 0.0, "lat": 38.920256333333334, "name": "23af81ca58e5e735167cfdb636d301fa", "fusion_lon": 0.0, "bike_id": "23af81ca58e5e735167cfdb636d301fa", "is_disabled": 0, "is_reserved": 0}, {"rental_uris": {"ios": "https://dc.lft.to/lastmile_qr_scan", "android": "https://dc.lft.to/lastmile_qr_scan"}, "lon": -77.03277833333334, "type": "electric_scooter", "fusion_lat": 0.0, "lat": 38.909858, "name": "21e069c7da895d3f45a34ce706debe63", "fusion_lon": 0.0, "bike_id": "21e069c7da895d3f45a34ce706debe63", "is_disabled": 0, "is_reserved": 0}, {"rental_uris": {"ios": "https://dc.lft.to/lastmile_qr_scan", "android": "https://dc.lft.to/lastmile_qr_scan"}, "lon": -77.02609083333333, "type": "electric_scooter", "fusion_lat": 0.0, "lat": 38.90559533333333, "name": "661cb90ae13bddaadb2978a05976587d", "fusion_lon": 0.0, "bike_id": "661cb90ae13bddaadb2978a05976587d", "is_disabled": 0, "is_reserved": 0}, {"rental_uris": {"ios": "https://dc.lft.to/lastmile_qr_scan", "android": "https://dc.lft.to/lastmile_qr_scan"}, "lon": -77.03511866666666, "type": "electric_bike", "fusion_lat": 0.0, "lat": 38.96512083333333, "name": "c74ad4e8c620d65f1e96ecd6dbbdebb6", "fusion_lon": 0.0, "bike_id": "c74ad4e8c620d65f1e96ecd6dbbdebb6", "is_disabled": 0, "is_reserved": 0}, {"rental_uris": {"ios": "https://dc.lft.to/lastmile_qr_scan", "android": "https://dc.lft.to/lastmile_qr_scan"}, "lon": -77.0109755, "type": "electric_scooter", "fusion_lat": 0.0, "lat": 38.89438066666666, "name": "3e65573531bf7a48e78bdd6f3e264fa3", "fusion_lon": 0.0, "bike_id": "3e65573531bf7a48e78bdd6f3e264fa3", "is_disabled": 0, "is_reserved": 0}, {"rental_uris": {"ios": "https://dc.lft.to/lastmile_qr_scan", "android": "https://dc.lft.to/lastmile_qr_scan"}, "lon": -77.03511666666667, "type": "electric_scooter", "fusion_lat": 0.0, "lat": 38.92151333333333, "name": "79d20a06e65a270b7f2bc76343de52a3", "fusion_lon": 0.0, "bike_id": "79d20a06e65a270b7f2bc76343de52a3", "is_disabled": 0, "is_reserved": 0}, {"rental_uris": {"ios": "https://dc.lft.to/lastmile_qr_scan", "android": "https://dc.lft.to/lastmile_qr_scan"}, "lon": -77.04059483333333, "type": "electric_scooter", "fusion_lat": 0.0, "lat": 38.902789, "name": "4b0f0810086ed5bde7df600ec81e2e27", "fusion_lon": 0.0, "bike_id": "4b0f0810086ed5bde7df600ec81e2e27", "is_disabled": 0, "is_reserved": 0}, {"rental_uris": {"ios": "https://dc.lft.to/lastmile_qr_scan", "android": "https://dc.lft.to/lastmile_qr_scan"}, "lon": -77.03867966666667, "type": "electric_scooter", "fusion_lat": 0.0, "lat": 38.9201635, "name": "50ef698e8b6ce112e1cc43d469e86592", "fusion_lon": 0.0, "bike_id": "50ef698e8b6ce112e1cc43d469e86592", "is_disabled": 0, "is_reserved": 0}, {"rental_uris": {"ios": "https://dc.lft.to/lastmile_qr_scan", "android": "https://dc.lft.to/lastmile_qr_scan"}, "lon": -76.97882433333334, "type": "electric_scooter", "fusion_lat": 0.0, "lat": 38.88507233333333, "name": "75f605bee7af4c7037290917a7c05c5e", "fusion_lon": 0.0, "bike_id": "75f605bee7af4c7037290917a7c05c5e", "is_disabled": 0, "is_reserved": 0}, {"rental_uris": {"ios": "https://dc.lft.to/lastmile_qr_scan", "android": "https://dc.lft.to/lastmile_qr_scan"}, "lon": -77.011864, "type": "electric_scooter", "fusion_lat": 0.0, "lat": 38.900226, "name": "b9e554884c51c8f23a18bbd431a8c80a", "fusion_lon": 0.0, "bike_id": "b9e554884c51c8f23a18bbd431a8c80a", "is_disabled": 0, "is_reserved": 0}, {"rental_uris": {"ios": "https://dc.lft.to/lastmile_qr_scan", "android": "https://dc.lft.to/lastmile_qr_scan"}, "lon": -77.01485016666666, "type": "electric_scooter", "fusion_lat": 0.0, "lat": 38.88127033333333, "name": "25ef74f0580166ea84af9db45494f03f", "fusion_lon": 0.0, "bike_id": "25ef74f0580166ea84af9db45494f03f", "is_disabled": 0, "is_reserved": 0}, {"rental_uris": {"ios": "https://dc.lft.to/lastmile_qr_scan", "android": "https://dc.lft.to/lastmile_qr_scan"}, "lon": -77.03611783333334, "type": "electric_scooter", "fusion_lat": 0.0, "lat": 38.9233255, "name": "bde723b33a94b48eeac5c0583b0fe83e", "fusion_lon": 0.0, "bike_id": "bde723b33a94b48eeac5c0583b0fe83e", "is_disabled": 0, "is_reserved": 0}, {"rental_uris": {"ios": "https://dc.lft.to/lastmile_qr_scan", "android": "https://dc.lft.to/lastmile_qr_scan"}, "lon": -76.98701416666667, "type": "electric_scooter", "fusion_lat": 0.0, "lat": 38.907044666666664, "name": "8d4e80e214e21a9a8ae725fa6ab93eac", "fusion_lon": 0.0, "bike_id": "8d4e80e214e21a9a8ae725fa6ab93eac", "is_disabled": 0, "is_reserved": 0}, {"rental_uris": {"ios": "https://dc.lft.to/lastmile_qr_scan", "android": "https://dc.lft.to/lastmile_qr_scan"}, "lon": -77.03300816666666, "type": "electric_scooter", "fusion_lat": 0.0, "lat": 38.917943333333334, "name": "086791b5528d19bf86a27e613c83fc27", "fusion_lon": 0.0, "bike_id": "086791b5528d19bf86a27e613c83fc27", "is_disabled": 0, "is_reserved": 0}, {"rental_uris": {"ios": "https://dc.lft.to/lastmile_qr_scan", "android": "https://dc.lft.to/lastmile_qr_scan"}, "lon": -77.0235795, "type": "electric_scooter", "fusion_lat": 0.0, "lat": 38.92496533333333, "name": "4046b77b6af12d0074d149a5a5acd396", "fusion_lon": 0.0, "bike_id": "4046b77b6af12d0074d149a5a5acd396", "is_disabled": 0, "is_reserved": 0}, {"rental_uris": {"ios": "https://dc.lft.to/lastmile_qr_scan", "android": "https://dc.lft.to/lastmile_qr_scan"}, "lon": -77.03680516666667, "type": "electric_scooter", "fusion_lat": 0.0, "lat": 38.939272, "name": "6913a40399bf88ee8cd687ce912f6bd5", "fusion_lon": 0.0, "bike_id": "6913a40399bf88ee8cd687ce912f6bd5", "is_disabled": 0, "is_reserved": 0}, {"rental_uris": {"ios": "https://dc.lft.to/lastmile_qr_scan", "android": "https://dc.lft.to/lastmile_qr_scan"}, "lon": -77.027315, "type": "electric_scooter", "fusion_lat": 0.0, "lat": 38.9169475, "name": "1ff5f08cfecaa4cc04af75e8981415c9", "fusion_lon": 0.0, "bike_id": "1ff5f08cfecaa4cc04af75e8981415c9", "is_disabled": 0, "is_reserved": 0}, {"rental_uris": {"ios": "https://dc.lft.to/lastmile_qr_scan", "android": "https://dc.lft.to/lastmile_qr_scan"}, "lon": -77.02395633333333, "type": "electric_scooter", "fusion_lat": 0.0, "lat": 38.934899333333334, "name": "8d3f9bd49e71bf2fc84695f102502864", "fusion_lon": 0.0, "bike_id": "8d3f9bd49e71bf2fc84695f102502864", "is_disabled": 0, "is_reserved": 0}, {"rental_uris": {"ios": "https://dc.lft.to/lastmile_qr_scan", "android": "https://dc.lft.to/lastmile_qr_scan"}, "lon": -76.94890266666667, "type": "electric_scooter", "fusion_lat": 0.0, "lat": 38.895294166666666, "name": "0b2a560f9d0bcce64bf534af429118f8", "fusion_lon": 0.0, "bike_id": "0b2a560f9d0bcce64bf534af429118f8", "is_disabled": 0, "is_reserved": 0}, {"rental_uris": {"ios": "https://dc.lft.to/lastmile_qr_scan", "android": "https://dc.lft.to/lastmile_qr_scan"}, "lon": -77.035055, "type": "electric_scooter", "fusion_lat": 0.0, "lat": 38.9187505, "name": "bbb73b0e70855b81d410a31ef6edd10a", "fusion_lon": 0.0, "bike_id": "bbb73b0e70855b81d410a31ef6edd10a", "is_disabled": 0, "is_reserved": 0}, {"rental_uris": {"ios": "https://dc.lft.to/lastmile_qr_scan", "android": "https://dc.lft.to/lastmile_qr_scan"}, "lon": -76.9097215, "type": "electric_bike", "fusion_lat": 0.0, "lat": 38.85431616666666, "name": "a927f96869ee539a36095f0fb60c4f12", "fusion_lon": 0.0, "bike_id": "a927f96869ee539a36095f0fb60c4f12", "is_disabled": 0, "is_reserved": 0}, {"rental_uris": {"ios": "https://dc.lft.to/lastmile_qr_scan", "android": "https://dc.lft.to/lastmile_qr_scan"}, "lon": -77.00564466666667, "type": "electric_scooter", "fusion_lat": 0.0, "lat": 38.9056385, "name": "fbdaba83b447ccdc0e8fe6401d873b27", "fusion_lon": 0.0, "bike_id": "fbdaba83b447ccdc0e8fe6401d873b27", "is_disabled": 0, "is_reserved": 0}, {"rental_uris": {"ios": "https://dc.lft.to/lastmile_qr_scan", "android": "https://dc.lft.to/lastmile_qr_scan"}, "lon": -76.98184733333333, "type": "electric_scooter", "fusion_lat": 0.0, "lat": 38.895822333333335, "name": "ced765e0fb6d6d548b822053c7a6db86", "fusion_lon": 0.0, "bike_id": "ced765e0fb6d6d548b822053c7a6db86", "is_disabled": 0, "is_reserved": 0}, {"rental_uris": {"ios": "https://dc.lft.to/lastmile_qr_scan", "android": "https://dc.lft.to/lastmile_qr_scan"}, "lon": -77.044013, "type": "electric_scooter", "fusion_lat": 0.0, "lat": 38.92018983333333, "name": "f2fce39b018ad08dbed30eaedec9add2", "fusion_lon": 0.0, "bike_id": "f2fce39b018ad08dbed30eaedec9add2", "is_disabled": 0, "is_reserved": 0}, {"rental_uris": {"ios": "https://dc.lft.to/lastmile_qr_scan", "android": "https://dc.lft.to/lastmile_qr_scan"}, "lon": -77.03498416666666, "type": "electric_scooter", "fusion_lat": 0.0, "lat": 38.916934499999996, "name": "a29d79447ed788cbb851b1c78c832ba0", "fusion_lon": 0.0, "bike_id": "a29d79447ed788cbb851b1c78c832ba0", "is_disabled": 0, "is_reserved": 0}, {"rental_uris": {"ios": "https://dc.lft.to/lastmile_qr_scan", "android": "https://dc.lft.to/lastmile_qr_scan"}, "lon": -77.01306633333333, "type": "electric_scooter", "fusion_lat": 0.0, "lat": 38.92118, "name": "0e46e332d53935b0db8e9d4bb201e1c6", "fusion_lon": 0.0, "bike_id": "0e46e332d53935b0db8e9d4bb201e1c6", "is_disabled": 0, "is_reserved": 0}, {"rental_uris": {"ios": "https://dc.lft.to/lastmile_qr_scan", "android": "https://dc.lft.to/lastmile_qr_scan"}, "lon": -77.04808, "type": "electric_scooter", "fusion_lat": 0.0, "lat": 38.897352833333336, "name": "bf13c917d79bb739b824e2caf097951a", "fusion_lon": 0.0, "bike_id": "bf13c917d79bb739b824e2caf097951a", "is_disabled": 0, "is_reserved": 0}, {"rental_uris": {"ios": "https://dc.lft.to/lastmile_qr_scan", "android": "https://dc.lft.to/lastmile_qr_scan"}, "lon": -77.04545483333334, "type": "electric_scooter", "fusion_lat": 0.0, "lat": 38.9037375, "name": "fd133513b5bd313b27b64eeb3b72b719", "fusion_lon": 0.0, "bike_id": "fd133513b5bd313b27b64eeb3b72b719", "is_disabled": 0, "is_reserved": 0}, {"rental_uris": {"ios": "https://dc.lft.to/lastmile_qr_scan", "android": "https://dc.lft.to/lastmile_qr_scan"}, "lon": -77.01219566666667, "type": "electric_scooter", "fusion_lat": 0.0, "lat": 38.92034016666667, "name": "d1e6bacd8c1fe95dcb0e3ce101475746", "fusion_lon": 0.0, "bike_id": "d1e6bacd8c1fe95dcb0e3ce101475746", "is_disabled": 0, "is_reserved": 0}, {"rental_uris": {"ios": "https://dc.lft.to/lastmile_qr_scan", "android": "https://dc.lft.to/lastmile_qr_scan"}, "lon": -77.02000133333334, "type": "electric_scooter", "fusion_lat": 0.0, "lat": 38.90553883333333, "name": "d9bdf614ed2e1e58aef27b5c9b7eccd7", "fusion_lon": 0.0, "bike_id": "d9bdf614ed2e1e58aef27b5c9b7eccd7", "is_disabled": 0, "is_reserved": 0}, {"rental_uris": {"ios": "https://dc.lft.to/lastmile_qr_scan", "android": "https://dc.lft.to/lastmile_qr_scan"}, "lon": -77.02329933333333, "type": "electric_scooter", "fusion_lat": 0.0, "lat": 38.919912833333335, "name": "a6ab8b55626bd1696f21f1f917df9012", "fusion_lon": 0.0, "bike_id": "a6ab8b55626bd1696f21f1f917df9012", "is_disabled": 0, "is_reserved": 0}, {"rental_uris": {"ios": "https://dc.lft.to/lastmile_qr_scan", "android": "https://dc.lft.to/lastmile_qr_scan"}, "lon": -76.8954075, "type": "electric_bike", "fusion_lat": 0.0, "lat": 38.94550666666667, "name": "7bbf87fe7f47e151d92f68e5c9ca3641", "fusion_lon": 0.0, "bike_id": "7bbf87fe7f47e151d92f68e5c9ca3641", "is_disabled": 0, "is_reserved": 0}, {"rental_uris": {"ios": "https://dc.lft.to/lastmile_qr_scan", "android": "https://dc.lft.to/lastmile_qr_scan"}, "lon": -77.04445433333333, "type": "electric_scooter", "fusion_lat": 0.0, "lat": 38.9057265, "name": "23f19ab2be97282e79051fb24d239d91", "fusion_lon": 0.0, "bike_id": "23f19ab2be97282e79051fb24d239d91", "is_disabled": 0, "is_reserved": 0}, {"rental_uris": {"ios": "https://dc.lft.to/lastmile_qr_scan", "android": "https://dc.lft.to/lastmile_qr_scan"}, "lon": -77.02980233333334, "type": "electric_scooter", "fusion_lat": 0.0, "lat": 38.91632883333333, "name": "b65c7bfcacd319b0af8b4089172aed13", "fusion_lon": 0.0, "bike_id": "b65c7bfcacd319b0af8b4089172aed13", "is_disabled": 0, "is_reserved": 0}, {"rental_uris": {"ios": "https://dc.lft.to/lastmile_qr_scan", "android": "https://dc.lft.to/lastmile_qr_scan"}, "lon": -77.03897566666667, "type": "electric_scooter", "fusion_lat": 0.0, "lat": 38.91834583333333, "name": "2d883cab33c9c42382333b971650ffba", "fusion_lon": 0.0, "bike_id": "2d883cab33c9c42382333b971650ffba", "is_disabled": 0, "is_reserved": 0}, {"rental_uris": {"ios": "https://dc.lft.to/lastmile_qr_scan", "android": "https://dc.lft.to/lastmile_qr_scan"}, "lon": -76.98451633333333, "type": "electric_scooter", "fusion_lat": 0.0, "lat": 38.91462583333333, "name": "8b0469d945f349cb270c5f34681a92c9", "fusion_lon": 0.0, "bike_id": "8b0469d945f349cb270c5f34681a92c9", "is_disabled": 0, "is_reserved": 0}, {"rental_uris": {"ios": "https://dc.lft.to/lastmile_qr_scan", "android": "https://dc.lft.to/lastmile_qr_scan"}, "lon": -77.00238383333334, "type": "electric_scooter", "fusion_lat": 0.0, "lat": 38.90036933333333, "name": "3263400c6547d4593552546e0aa66dd9", "fusion_lon": 0.0, "bike_id": "3263400c6547d4593552546e0aa66dd9", "is_disabled": 0, "is_reserved": 0}, {"rental_uris": {"ios": "https://dc.lft.to/lastmile_qr_scan", "android": "https://dc.lft.to/lastmile_qr_scan"}, "lon": -77.03447016666667, "type": "electric_scooter", "fusion_lat": 0.0, "lat": 38.9073385, "name": "799bd14f155f1bf69e755c7125292d40", "fusion_lon": 0.0, "bike_id": "799bd14f155f1bf69e755c7125292d40", "is_disabled": 0, "is_reserved": 0}, {"rental_uris": {"ios": "https://dc.lft.to/lastmile_qr_scan", "android": "https://dc.lft.to/lastmile_qr_scan"}, "lon": -77.02464683333334, "type": "electric_scooter", "fusion_lat": 0.0, "lat": 38.90245266666667, "name": "8f00316a5e92a9a1fda0bb0574a25527", "fusion_lon": 0.0, "bike_id": "8f00316a5e92a9a1fda0bb0574a25527", "is_disabled": 0, "is_reserved": 0}, {"rental_uris": {"ios": "https://dc.lft.to/lastmile_qr_scan", "android": "https://dc.lft.to/lastmile_qr_scan"}, "lon": -77.0271245, "type": "electric_scooter", "fusion_lat": 0.0, "lat": 38.9181645, "name": "4aab3e8f090b1883e02abf164d34e342", "fusion_lon": 0.0, "bike_id": "4aab3e8f090b1883e02abf164d34e342", "is_disabled": 0, "is_reserved": 0}, {"rental_uris": {"ios": "https://dc.lft.to/lastmile_qr_scan", "android": "https://dc.lft.to/lastmile_qr_scan"}, "lon": -77.04874366666667, "type": "electric_scooter", "fusion_lat": 0.0, "lat": 38.909484666666664, "name": "70b9ca77ed372c042a4b08446c78c01d", "fusion_lon": 0.0, "bike_id": "70b9ca77ed372c042a4b08446c78c01d", "is_disabled": 0, "is_reserved": 0}, {"rental_uris": {"ios": "https://dc.lft.to/lastmile_qr_scan", "android": "https://dc.lft.to/lastmile_qr_scan"}, "lon": -77.01124116666666, "type": "electric_scooter", "fusion_lat": 0.0, "lat": 38.911824833333334, "name": "56723636bfb0172eb7b266e8fff8d4a6", "fusion_lon": 0.0, "bike_id": "56723636bfb0172eb7b266e8fff8d4a6", "is_disabled": 0, "is_reserved": 0}, {"rental_uris": {"ios": "https://dc.lft.to/lastmile_qr_scan", "android": "https://dc.lft.to/lastmile_qr_scan"}, "lon": -77.04218066666667, "type": "electric_scooter", "fusion_lat": 0.0, "lat": 38.914052833333336, "name": "969d45fbe384682e6eb2185b4ad7e9da", "fusion_lon": 0.0, "bike_id": "969d45fbe384682e6eb2185b4ad7e9da", "is_disabled": 0, "is_reserved": 0}, {"rental_uris": {"ios": "https://dc.lft.to/lastmile_qr_scan", "android": "https://dc.lft.to/lastmile_qr_scan"}, "lon": -76.99370216666667, "type": "electric_scooter", "fusion_lat": 0.0, "lat": 38.900343166666666, "name": "94f78e624e7a6dcc3e58508a67a0c3b6", "fusion_lon": 0.0, "bike_id": "94f78e624e7a6dcc3e58508a67a0c3b6", "is_disabled": 0, "is_reserved": 0}, {"rental_uris": {"ios": "https://dc.lft.to/lastmile_qr_scan", "android": "https://dc.lft.to/lastmile_qr_scan"}, "lon": -77.02971533333333, "type": "electric_scooter", "fusion_lat": 0.0, "lat": 38.925223833333334, "name": "6030674488ad8ae3db034d5108c2841c", "fusion_lon": 0.0, "bike_id": "6030674488ad8ae3db034d5108c2841c", "is_disabled": 0, "is_reserved": 0}, {"rental_uris": {"ios": "https://dc.lft.to/lastmile_qr_scan", "android": "https://dc.lft.to/lastmile_qr_scan"}, "lon": -76.9916115, "type": "electric_scooter", "fusion_lat": 0.0, "lat": 38.89343516666667, "name": "4f993e96f3f9d3bd9633def517cf4275", "fusion_lon": 0.0, "bike_id": "4f993e96f3f9d3bd9633def517cf4275", "is_disabled": 0, "is_reserved": 0}, {"rental_uris": {"ios": "https://dc.lft.to/lastmile_qr_scan", "android": "https://dc.lft.to/lastmile_qr_scan"}, "lon": -77.0366695, "type": "electric_scooter", "fusion_lat": 0.0, "lat": 38.929370666666664, "name": "364e76a6238cb20ad1fedabaa23b27a8", "fusion_lon": 0.0, "bike_id": "364e76a6238cb20ad1fedabaa23b27a8", "is_disabled": 0, "is_reserved": 0}, {"rental_uris": {"ios": "https://dc.lft.to/lastmile_qr_scan", "android": "https://dc.lft.to/lastmile_qr_scan"}, "lon": -77.023362, "type": "electric_scooter", "fusion_lat": 0.0, "lat": 38.92229066666667, "name": "48640b8e1cd46d58122937c6101c2094", "fusion_lon": 0.0, "bike_id": "48640b8e1cd46d58122937c6101c2094", "is_disabled": 0, "is_reserved": 0}, {"rental_uris": {"ios": "https://dc.lft.to/lastmile_qr_scan", "android": "https://dc.lft.to/lastmile_qr_scan"}, "lon": -77.01628233333334, "type": "electric_scooter", "fusion_lat": 0.0, "lat": 38.9024665, "name": "e6e1fad79b877ebc00773588570deaca", "fusion_lon": 0.0, "bike_id": "e6e1fad79b877ebc00773588570deaca", "is_disabled": 0, "is_reserved": 0}, {"rental_uris": {"ios": "https://dc.lft.to/lastmile_qr_scan", "android": "https://dc.lft.to/lastmile_qr_scan"}, "lon": -77.01747433333334, "type": "electric_scooter", "fusion_lat": 0.0, "lat": 38.883221666666664, "name": "b2f7fc28d3391fa9a1d608c6babb9968", "fusion_lon": 0.0, "bike_id": "b2f7fc28d3391fa9a1d608c6babb9968", "is_disabled": 0, "is_reserved": 0}, {"rental_uris": {"ios": "https://dc.lft.to/lastmile_qr_scan", "android": "https://dc.lft.to/lastmile_qr_scan"}, "lon": -77.07324666666666, "type": "electric_scooter", "fusion_lat": 0.0, "lat": 38.9249565, "name": "4ec9d2c1a046b8fe45696c325d579cfd", "fusion_lon": 0.0, "bike_id": "4ec9d2c1a046b8fe45696c325d579cfd", "is_disabled": 0, "is_reserved": 0}, {"rental_uris": {"ios": "https://dc.lft.to/lastmile_qr_scan", "android": "https://dc.lft.to/lastmile_qr_scan"}, "lon": -77.0280775, "type": "electric_scooter", "fusion_lat": 0.0, "lat": 38.89639533333333, "name": "5e9a8334fd194861489d85ad07b17c82", "fusion_lon": 0.0, "bike_id": "5e9a8334fd194861489d85ad07b17c82", "is_disabled": 0, "is_reserved": 0}, {"rental_uris": {"ios": "https://dc.lft.to/lastmile_qr_scan", "android": "https://dc.lft.to/lastmile_qr_scan"}, "lon": -77.075651, "type": "electric_scooter", "fusion_lat": 0.0, "lat": 38.91426216666667, "name": "3708050858bf1a79110182bb20914b10", "fusion_lon": 0.0, "bike_id": "3708050858bf1a79110182bb20914b10", "is_disabled": 0, "is_reserved": 0}, {"rental_uris": {"ios": "https://dc.lft.to/lastmile_qr_scan", "android": "https://dc.lft.to/lastmile_qr_scan"}, "lon": -77.0450125, "type": "electric_scooter", "fusion_lat": 0.0, "lat": 38.91116183333333, "name": "2e39dbdbf95e733979985941389923cf", "fusion_lon": 0.0, "bike_id": "2e39dbdbf95e733979985941389923cf", "is_disabled": 0, "is_reserved": 0}, {"rental_uris": {"ios": "https://dc.lft.to/lastmile_qr_scan", "android": "https://dc.lft.to/lastmile_qr_scan"}, "lon": -77.03213633333333, "type": "electric_scooter", "fusion_lat": 0.0, "lat": 38.911110666666666, "name": "3b3e171dd7ac5d84e739205078770b0f", "fusion_lon": 0.0, "bike_id": "3b3e171dd7ac5d84e739205078770b0f", "is_disabled": 0, "is_reserved": 0}, {"rental_uris": {"ios": "https://dc.lft.to/lastmile_qr_scan", "android": "https://dc.lft.to/lastmile_qr_scan"}, "lon": -77.02231166666667, "type": "electric_scooter", "fusion_lat": 0.0, "lat": 38.891976, "name": "ef325b397a950b33ece18a72257ba0ea", "fusion_lon": 0.0, "bike_id": "ef325b397a950b33ece18a72257ba0ea", "is_disabled": 0, "is_reserved": 0}, {"rental_uris": {"ios": "https://dc.lft.to/lastmile_qr_scan", "android": "https://dc.lft.to/lastmile_qr_scan"}, "lon": -77.02700033333333, "type": "electric_scooter", "fusion_lat": 0.0, "lat": 38.94978483333333, "name": "bd8930042f8215d8551b3475c13c41ca", "fusion_lon": 0.0, "bike_id": "bd8930042f8215d8551b3475c13c41ca", "is_disabled": 0, "is_reserved": 0}, {"rental_uris": {"ios": "https://dc.lft.to/lastmile_qr_scan", "android": "https://dc.lft.to/lastmile_qr_scan"}, "lon": -77.0466715, "type": "electric_scooter", "fusion_lat": 0.0, "lat": 38.905491833333336, "name": "d20ae713c5c3a68d844a7acb505abf1a", "fusion_lon": 0.0, "bike_id": "d20ae713c5c3a68d844a7acb505abf1a", "is_disabled": 0, "is_reserved": 0}, {"rental_uris": {"ios": "https://dc.lft.to/lastmile_qr_scan", "android": "https://dc.lft.to/lastmile_qr_scan"}, "lon": -77.02112216666667, "type": "electric_scooter", "fusion_lat": 0.0, "lat": 38.913045, "name": "c5630004ef3d2febba2711f00fea8e7a", "fusion_lon": 0.0, "bike_id": "c5630004ef3d2febba2711f00fea8e7a", "is_disabled": 0, "is_reserved": 0}, {"rental_uris": {"ios": "https://dc.lft.to/lastmile_qr_scan", "android": "https://dc.lft.to/lastmile_qr_scan"}, "lon": -77.022212, "type": "electric_scooter", "fusion_lat": 0.0, "lat": 38.8921805, "name": "0e6f41eef5de6cad1d899b2fdce89053", "fusion_lon": 0.0, "bike_id": "0e6f41eef5de6cad1d899b2fdce89053", "is_disabled": 0, "is_reserved": 0}, {"rental_uris": {"ios": "https://dc.lft.to/lastmile_qr_scan", "android": "https://dc.lft.to/lastmile_qr_scan"}, "lon": -77.01053766666666, "type": "electric_scooter", "fusion_lat": 0.0, "lat": 38.879358, "name": "91964400fd4a4141f6ac93f9c9ef93eb", "fusion_lon": 0.0, "bike_id": "91964400fd4a4141f6ac93f9c9ef93eb", "is_disabled": 0, "is_reserved": 0}, {"rental_uris": {"ios": "https://dc.lft.to/lastmile_qr_scan", "android": "https://dc.lft.to/lastmile_qr_scan"}, "lon": -76.9662915, "type": "electric_bike", "fusion_lat": 0.0, "lat": 38.94202216666667, "name": "dee350c069eaa1ecafd3f534711a596d", "fusion_lon": 0.0, "bike_id": "dee350c069eaa1ecafd3f534711a596d", "is_disabled": 0, "is_reserved": 0}, {"rental_uris": {"ios": "https://dc.lft.to/lastmile_qr_scan", "android": "https://dc.lft.to/lastmile_qr_scan"}, "lon": -77.0460845, "type": "electric_scooter", "fusion_lat": 0.0, "lat": 38.9039655, "name": "cbb66a8d7b4e5d7505ae5f540b52d7c3", "fusion_lon": 0.0, "bike_id": "cbb66a8d7b4e5d7505ae5f540b52d7c3", "is_disabled": 0, "is_reserved": 0}, {"rental_uris": {"ios": "https://dc.lft.to/lastmile_qr_scan", "android": "https://dc.lft.to/lastmile_qr_scan"}, "lon": -77.00187783333334, "type": "electric_scooter", "fusion_lat": 0.0, "lat": 38.873869, "name": "659e9815af72192a715d9092976aacba", "fusion_lon": 0.0, "bike_id": "659e9815af72192a715d9092976aacba", "is_disabled": 0, "is_reserved": 0}, {"rental_uris": {"ios": "https://dc.lft.to/lastmile_qr_scan", "android": "https://dc.lft.to/lastmile_qr_scan"}, "lon": -77.0396285, "type": "electric_scooter", "fusion_lat": 0.0, "lat": 38.91977883333333, "name": "06c107b544606666b06f58932ed1b597", "fusion_lon": 0.0, "bike_id": "06c107b544606666b06f58932ed1b597", "is_disabled": 0, "is_reserved": 0}, {"rental_uris": {"ios": "https://dc.lft.to/lastmile_qr_scan", "android": "https://dc.lft.to/lastmile_qr_scan"}, "lon": -77.0319005, "type": "electric_scooter", "fusion_lat": 0.0, "lat": 38.912629, "name": "3b009c5d3e4cda14d3b1751af94da38a", "fusion_lon": 0.0, "bike_id": "3b009c5d3e4cda14d3b1751af94da38a", "is_disabled": 0, "is_reserved": 0}, {"rental_uris": {"ios": "https://dc.lft.to/lastmile_qr_scan", "android": "https://dc.lft.to/lastmile_qr_scan"}, "lon": -77.00981833333333, "type": "electric_scooter", "fusion_lat": 0.0, "lat": 38.914836666666666, "name": "8c4a081b766b1acb3535254791a719b5", "fusion_lon": 0.0, "bike_id": "8c4a081b766b1acb3535254791a719b5", "is_disabled": 0, "is_reserved": 0}, {"rental_uris": {"ios": "https://dc.lft.to/lastmile_qr_scan", "android": "https://dc.lft.to/lastmile_qr_scan"}, "lon": -77.01222216666666, "type": "electric_bike", "fusion_lat": 0.0, "lat": 38.87091816666667, "name": "5a59931a37c2d269e3474ec359eb7ddc", "fusion_lon": 0.0, "bike_id": "5a59931a37c2d269e3474ec359eb7ddc", "is_disabled": 0, "is_reserved": 0}, {"rental_uris": {"ios": "https://dc.lft.to/lastmile_qr_scan", "android": "https://dc.lft.to/lastmile_qr_scan"}, "lon": -76.92893416666666, "type": "electric_scooter", "fusion_lat": 0.0, "lat": 38.89331833333333, "name": "2ae0e8732e21ed46884a792fd2afa979", "fusion_lon": 0.0, "bike_id": "2ae0e8732e21ed46884a792fd2afa979", "is_disabled": 0, "is_reserved": 0}, {"rental_uris": {"ios": "https://dc.lft.to/lastmile_qr_scan", "android": "https://dc.lft.to/lastmile_qr_scan"}, "lon": -77.03222166666667, "type": "electric_scooter", "fusion_lat": 0.0, "lat": 38.90854566666667, "name": "f4ee772ab21456803ba3e4a729cf6267", "fusion_lon": 0.0, "bike_id": "f4ee772ab21456803ba3e4a729cf6267", "is_disabled": 0, "is_reserved": 0}, {"rental_uris": {"ios": "https://dc.lft.to/lastmile_qr_scan", "android": "https://dc.lft.to/lastmile_qr_scan"}, "lon": -77.03184566666667, "type": "electric_scooter", "fusion_lat": 0.0, "lat": 38.899459, "name": "6e6c08633df21370c580c9234350492b", "fusion_lon": 0.0, "bike_id": "6e6c08633df21370c580c9234350492b", "is_disabled": 0, "is_reserved": 0}, {"rental_uris": {"ios": "https://dc.lft.to/lastmile_qr_scan", "android": "https://dc.lft.to/lastmile_qr_scan"}, "lon": -77.0140285, "type": "electric_scooter", "fusion_lat": 0.0, "lat": 38.92851266666667, "name": "0be475205a3b0078c4bae488ce6c1899", "fusion_lon": 0.0, "bike_id": "0be475205a3b0078c4bae488ce6c1899", "is_disabled": 0, "is_reserved": 0}, {"rental_uris": {"ios": "https://dc.lft.to/lastmile_qr_scan", "android": "https://dc.lft.to/lastmile_qr_scan"}, "lon": -77.0392415, "type": "electric_scooter", "fusion_lat": 0.0, "lat": 38.92103933333333, "name": "347591258ff7a932bf261ba25c70fb67", "fusion_lon": 0.0, "bike_id": "347591258ff7a932bf261ba25c70fb67", "is_disabled": 0, "is_reserved": 0}, {"rental_uris": {"ios": "https://dc.lft.to/lastmile_qr_scan", "android": "https://dc.lft.to/lastmile_qr_scan"}, "lon": -77.04708416666666, "type": "electric_scooter", "fusion_lat": 0.0, "lat": 38.905316666666664, "name": "05a938efa822c6a82a13e3dac68a0151", "fusion_lon": 0.0, "bike_id": "05a938efa822c6a82a13e3dac68a0151", "is_disabled": 0, "is_reserved": 0}, {"rental_uris": {"ios": "https://dc.lft.to/lastmile_qr_scan", "android": "https://dc.lft.to/lastmile_qr_scan"}, "lon": -77.03216183333333, "type": "electric_scooter", "fusion_lat": 0.0, "lat": 38.907541, "name": "0c3a9d7c386edcb802a2e62ac1bd7637", "fusion_lon": 0.0, "bike_id": "0c3a9d7c386edcb802a2e62ac1bd7637", "is_disabled": 0, "is_reserved": 0}, {"rental_uris": {"ios": "https://dc.lft.to/lastmile_qr_scan", "android": "https://dc.lft.to/lastmile_qr_scan"}, "lon": -77.12626883333333, "type": "electric_bike", "fusion_lat": 0.0, "lat": 39.058113166666665, "name": "d634620729e07641539988e98cbe7ef0", "fusion_lon": 0.0, "bike_id": "d634620729e07641539988e98cbe7ef0", "is_disabled": 0, "is_reserved": 0}, {"rental_uris": {"ios": "https://dc.lft.to/lastmile_qr_scan", "android": "https://dc.lft.to/lastmile_qr_scan"}, "lon": -77.03871666666667, "type": "electric_scooter", "fusion_lat": 0.0, "lat": 38.90968183333333, "name": "401678e5a0989c83fcec24da1b9c2f69", "fusion_lon": 0.0, "bike_id": "401678e5a0989c83fcec24da1b9c2f69", "is_disabled": 0, "is_reserved": 0}, {"rental_uris": {"ios": "https://dc.lft.to/lastmile_qr_scan", "android": "https://dc.lft.to/lastmile_qr_scan"}, "lon": -76.97833366666667, "type": "electric_bike", "fusion_lat": 0.0, "lat": 38.84610216666667, "name": "8a87749e24c95f30d690641e711638ce", "fusion_lon": 0.0, "bike_id": "8a87749e24c95f30d690641e711638ce", "is_disabled": 0, "is_reserved": 0}, {"rental_uris": {"ios": "https://dc.lft.to/lastmile_qr_scan", "android": "https://dc.lft.to/lastmile_qr_scan"}, "lon": -77.17850216666666, "type": "electric_bike", "fusion_lat": 0.0, "lat": 39.089025666666664, "name": "198bc49457282ecb2d4a0e3be18def57", "fusion_lon": 0.0, "bike_id": "198bc49457282ecb2d4a0e3be18def57", "is_disabled": 0, "is_reserved": 0}, {"rental_uris": {"ios": "https://dc.lft.to/lastmile_qr_scan", "android": "https://dc.lft.to/lastmile_qr_scan"}, "lon": -77.00251816666666, "type": "electric_bike", "fusion_lat": 0.0, "lat": 38.9521465, "name": "62217aa4a782ebef628e4138265863cc", "fusion_lon": 0.0, "bike_id": "62217aa4a782ebef628e4138265863cc", "is_disabled": 0, "is_reserved": 0}, {"rental_uris": {"ios": "https://dc.lft.to/lastmile_qr_scan", "android": "https://dc.lft.to/lastmile_qr_scan"}, "lon": -76.97930416666667, "type": "electric_scooter", "fusion_lat": 0.0, "lat": 38.905045666666666, "name": "bd6cbc748a6cd473648a8ecfab0cc01c", "fusion_lon": 0.0, "bike_id": "bd6cbc748a6cd473648a8ecfab0cc01c", "is_disabled": 0, "is_reserved": 0}, {"rental_uris": {"ios": "https://dc.lft.to/lastmile_qr_scan", "android": "https://dc.lft.to/lastmile_qr_scan"}, "lon": -77.04902833333334, "type": "electric_bike", "fusion_lat": 0.0, "lat": 38.87495533333333, "name": "67c0034f84ac4035f3309bc3254d3840", "fusion_lon": 0.0, "bike_id": "67c0034f84ac4035f3309bc3254d3840", "is_disabled": 0, "is_reserved": 0}, {"rental_uris": {"ios": "https://dc.lft.to/lastmile_qr_scan", "android": "https://dc.lft.to/lastmile_qr_scan"}, "lon": -76.98659083333334, "type": "electric_scooter", "fusion_lat": 0.0, "lat": 38.858070833333336, "name": "f94305031946976776914531d15671e1", "fusion_lon": 0.0, "bike_id": "f94305031946976776914531d15671e1", "is_disabled": 0, "is_reserved": 0}, {"rental_uris": {"ios": "https://dc.lft.to/lastmile_qr_scan", "android": "https://dc.lft.to/lastmile_qr_scan"}, "lon": -76.98548783333334, "type": "electric_scooter", "fusion_lat": 0.0, "lat": 38.85599883333333, "name": "a0bbd8fda171c9fd9f1dc271c4b0ee72", "fusion_lon": 0.0, "bike_id": "a0bbd8fda171c9fd9f1dc271c4b0ee72", "is_disabled": 0, "is_reserved": 0}, {"rental_uris": {"ios": "https://dc.lft.to/lastmile_qr_scan", "android": "https://dc.lft.to/lastmile_qr_scan"}, "lon": -77.0418815, "type": "electric_scooter", "fusion_lat": 0.0, "lat": 38.92053933333333, "name": "68bf92a625c2036404baefe13244be0f", "fusion_lon": 0.0, "bike_id": "68bf92a625c2036404baefe13244be0f", "is_disabled": 0, "is_reserved": 0}, {"rental_uris": {"ios": "https://dc.lft.to/lastmile_qr_scan", "android": "https://dc.lft.to/lastmile_qr_scan"}, "lon": -77.1003205, "type": "electric_bike", "fusion_lat": 0.0, "lat": 38.99061316666667, "name": "92d1f5585ab93362d0418310b94309f9", "fusion_lon": 0.0, "bike_id": "92d1f5585ab93362d0418310b94309f9", "is_disabled": 0, "is_reserved": 0}, {"rental_uris": {"ios": "https://dc.lft.to/lastmile_qr_scan", "android": "https://dc.lft.to/lastmile_qr_scan"}, "lon": -77.03491583333333, "type": "electric_scooter", "fusion_lat": 0.0, "lat": 38.932613833333335, "name": "980032ea47226a8e9b0b09988cf95859", "fusion_lon": 0.0, "bike_id": "980032ea47226a8e9b0b09988cf95859", "is_disabled": 0, "is_reserved": 0}, {"rental_uris": {"ios": "https://dc.lft.to/lastmile_qr_scan", "android": "https://dc.lft.to/lastmile_qr_scan"}, "lon": -77.02224233333334, "type": "electric_scooter", "fusion_lat": 0.0, "lat": 38.89353, "name": "68653de762bc0aa23860a8673d278663", "fusion_lon": 0.0, "bike_id": "68653de762bc0aa23860a8673d278663", "is_disabled": 0, "is_reserved": 0}, {"rental_uris": {"ios": "https://dc.lft.to/lastmile_qr_scan", "android": "https://dc.lft.to/lastmile_qr_scan"}, "lon": -77.0037035, "type": "electric_scooter", "fusion_lat": 0.0, "lat": 38.8976505, "name": "b826f0bf5be62604b16cbdb9b769dd63", "fusion_lon": 0.0, "bike_id": "b826f0bf5be62604b16cbdb9b769dd63", "is_disabled": 0, "is_reserved": 0}, {"rental_uris": {"ios": "https://dc.lft.to/lastmile_qr_scan", "android": "https://dc.lft.to/lastmile_qr_scan"}, "lon": -76.98573016666667, "type": "electric_scooter", "fusion_lat": 0.0, "lat": 38.898888, "name": "e092fddc8002e202320f6f64c53b5452", "fusion_lon": 0.0, "bike_id": "e092fddc8002e202320f6f64c53b5452", "is_disabled": 0, "is_reserved": 0}, {"rental_uris": {"ios": "https://dc.lft.to/lastmile_qr_scan", "android": "https://dc.lft.to/lastmile_qr_scan"}, "lon": -76.946537, "type": "electric_scooter", "fusion_lat": 0.0, "lat": 38.898266, "name": "a3f2cd64ca5e4d8d2dfb79378dc6243f", "fusion_lon": 0.0, "bike_id": "a3f2cd64ca5e4d8d2dfb79378dc6243f", "is_disabled": 0, "is_reserved": 0}, {"rental_uris": {"ios": "https://dc.lft.to/lastmile_qr_scan", "android": "https://dc.lft.to/lastmile_qr_scan"}, "lon": -77.02776833333333, "type": "electric_scooter", "fusion_lat": 0.0, "lat": 38.9645985, "name": "e7c7d6822be99dd0b3b5acb74cdd8b8c", "fusion_lon": 0.0, "bike_id": "e7c7d6822be99dd0b3b5acb74cdd8b8c", "is_disabled": 0, "is_reserved": 0}, {"rental_uris": {"ios": "https://dc.lft.to/lastmile_qr_scan", "android": "https://dc.lft.to/lastmile_qr_scan"}, "lon": -77.0022725, "type": "electric_scooter", "fusion_lat": 0.0, "lat": 38.90035233333333, "name": "52d7beae41796702828842dec604b249", "fusion_lon": 0.0, "bike_id": "52d7beae41796702828842dec604b249", "is_disabled": 0, "is_reserved": 0}, {"rental_uris": {"ios": "https://dc.lft.to/lastmile_qr_scan", "android": "https://dc.lft.to/lastmile_qr_scan"}, "lon": -76.9865725, "type": "electric_scooter", "fusion_lat": 0.0, "lat": 38.858040833333334, "name": "f4da08c560d572f2f4b79dd721ab7297", "fusion_lon": 0.0, "bike_id": "f4da08c560d572f2f4b79dd721ab7297", "is_disabled": 0, "is_reserved": 0}, {"rental_uris": {"ios": "https://dc.lft.to/lastmile_qr_scan", "android": "https://dc.lft.to/lastmile_qr_scan"}, "lon": -77.0416885, "type": "electric_scooter", "fusion_lat": 0.0, "lat": 38.91947116666667, "name": "3a8b6e79c5be75bb4266303e8d57e10d", "fusion_lon": 0.0, "bike_id": "3a8b6e79c5be75bb4266303e8d57e10d", "is_disabled": 0, "is_reserved": 0}, {"rental_uris": {"ios": "https://dc.lft.to/lastmile_qr_scan", "android": "https://dc.lft.to/lastmile_qr_scan"}, "lon": -77.02334316666666, "type": "electric_scooter", "fusion_lat": 0.0, "lat": 38.930496, "name": "1f10947298fef0a0d875d0150376e8ef", "fusion_lon": 0.0, "bike_id": "1f10947298fef0a0d875d0150376e8ef", "is_disabled": 0, "is_reserved": 0}, {"rental_uris": {"ios": "https://dc.lft.to/lastmile_qr_scan", "android": "https://dc.lft.to/lastmile_qr_scan"}, "lon": -77.0480495, "type": "electric_scooter", "fusion_lat": 0.0, "lat": 38.911090333333334, "name": "d5c8ce7dcba7dde9a1fc165178718ccf", "fusion_lon": 0.0, "bike_id": "d5c8ce7dcba7dde9a1fc165178718ccf", "is_disabled": 0, "is_reserved": 0}, {"rental_uris": {"ios": "https://dc.lft.to/lastmile_qr_scan", "android": "https://dc.lft.to/lastmile_qr_scan"}, "lon": -76.98761916666666, "type": "electric_scooter", "fusion_lat": 0.0, "lat": 38.844988, "name": "ff72b84492c5bb616075bbc3d7e16917", "fusion_lon": 0.0, "bike_id": "ff72b84492c5bb616075bbc3d7e16917", "is_disabled": 0, "is_reserved": 0}, {"rental_uris": {"ios": "https://dc.lft.to/lastmile_qr_scan", "android": "https://dc.lft.to/lastmile_qr_scan"}, "lon": -77.03744966666666, "type": "electric_scooter", "fusion_lat": 0.0, "lat": 38.929050833333335, "name": "f53d3f5cf57acf4909835aa26c31a521", "fusion_lon": 0.0, "bike_id": "f53d3f5cf57acf4909835aa26c31a521", "is_disabled": 0, "is_reserved": 0}, {"rental_uris": {"ios": "https://dc.lft.to/lastmile_qr_scan", "android": "https://dc.lft.to/lastmile_qr_scan"}, "lon": -76.98712, "type": "electric_scooter", "fusion_lat": 0.0, "lat": 38.865376499999996, "name": "344a921c6fe6e08b180afba3f4a9ecb0", "fusion_lon": 0.0, "bike_id": "344a921c6fe6e08b180afba3f4a9ecb0", "is_disabled": 0, "is_reserved": 0}, {"rental_uris": {"ios": "https://dc.lft.to/lastmile_qr_scan", "android": "https://dc.lft.to/lastmile_qr_scan"}, "lon": -77.0506695, "type": "electric_scooter", "fusion_lat": 0.0, "lat": 38.90068766666667, "name": "68a478c287b6e201cf5a383bebc7d7f3", "fusion_lon": 0.0, "bike_id": "68a478c287b6e201cf5a383bebc7d7f3", "is_disabled": 0, "is_reserved": 0}, {"rental_uris": {"ios": "https://dc.lft.to/lastmile_qr_scan", "android": "https://dc.lft.to/lastmile_qr_scan"}, "lon": -77.03188183333333, "type": "electric_scooter", "fusion_lat": 0.0, "lat": 38.89951883333333, "name": "7f88a5ef65209d4563423465c28eb0dd", "fusion_lon": 0.0, "bike_id": "7f88a5ef65209d4563423465c28eb0dd", "is_disabled": 0, "is_reserved": 0}, {"rental_uris": {"ios": "https://dc.lft.to/lastmile_qr_scan", "android": "https://dc.lft.to/lastmile_qr_scan"}, "lon": -77.00522066666667, "type": "electric_scooter", "fusion_lat": 0.0, "lat": 38.929064833333335, "name": "ec0f848b977c3263c86c936efd0deaf9", "fusion_lon": 0.0, "bike_id": "ec0f848b977c3263c86c936efd0deaf9", "is_disabled": 0, "is_reserved": 0}, {"rental_uris": {"ios": "https://dc.lft.to/lastmile_qr_scan", "android": "https://dc.lft.to/lastmile_qr_scan"}, "lon": -77.01187083333333, "type": "electric_scooter", "fusion_lat": 0.0, "lat": 38.90031616666667, "name": "876e89930c449f779522cef74c2a5095", "fusion_lon": 0.0, "bike_id": "876e89930c449f779522cef74c2a5095", "is_disabled": 0, "is_reserved": 0}, {"rental_uris": {"ios": "https://dc.lft.to/lastmile_qr_scan", "android": "https://dc.lft.to/lastmile_qr_scan"}, "lon": -77.07711566666667, "type": "electric_scooter", "fusion_lat": 0.0, "lat": 38.9561435, "name": "6f0e4fd85be7a2d3b17bd5f5e6aa49d4", "fusion_lon": 0.0, "bike_id": "6f0e4fd85be7a2d3b17bd5f5e6aa49d4", "is_disabled": 0, "is_reserved": 0}, {"rental_uris": {"ios": "https://dc.lft.to/lastmile_qr_scan", "android": "https://dc.lft.to/lastmile_qr_scan"}, "lon": -77.03635533333333, "type": "electric_scooter", "fusion_lat": 0.0, "lat": 38.9290855, "name": "5649c2fe94e016dd8148bebbc3a4e449", "fusion_lon": 0.0, "bike_id": "5649c2fe94e016dd8148bebbc3a4e449", "is_disabled": 0, "is_reserved": 0}, {"rental_uris": {"ios": "https://dc.lft.to/lastmile_qr_scan", "android": "https://dc.lft.to/lastmile_qr_scan"}, "lon": -77.03915083333334, "type": "electric_scooter", "fusion_lat": 0.0, "lat": 38.899187833333336, "name": "136627d91de133c9c69d8da839411eb2", "fusion_lon": 0.0, "bike_id": "136627d91de133c9c69d8da839411eb2", "is_disabled": 0, "is_reserved": 0}, {"rental_uris": {"ios": "https://dc.lft.to/lastmile_qr_scan", "android": "https://dc.lft.to/lastmile_qr_scan"}, "lon": -77.02707866666667, "type": "electric_scooter", "fusion_lat": 0.0, "lat": 38.91753633333333, "name": "aeda531c1bbd7c2513e4dd0d18ba3fbc", "fusion_lon": 0.0, "bike_id": "aeda531c1bbd7c2513e4dd0d18ba3fbc", "is_disabled": 0, "is_reserved": 0}, {"rental_uris": {"ios": "https://dc.lft.to/lastmile_qr_scan", "android": "https://dc.lft.to/lastmile_qr_scan"}, "lon": -77.13101733333333, "type": "electric_bike", "fusion_lat": 0.0, "lat": 38.8763295, "name": "f562c8c17b8b3af5676d8f720bbb75e8", "fusion_lon": 0.0, "bike_id": "f562c8c17b8b3af5676d8f720bbb75e8", "is_disabled": 0, "is_reserved": 0}, {"rental_uris": {"ios": "https://dc.lft.to/lastmile_qr_scan", "android": "https://dc.lft.to/lastmile_qr_scan"}, "lon": -77.05858416666666, "type": "electric_scooter", "fusion_lat": 0.0, "lat": 38.934254333333335, "name": "b793512636de9e43be5dea84fb8d6358", "fusion_lon": 0.0, "bike_id": "b793512636de9e43be5dea84fb8d6358", "is_disabled": 0, "is_reserved": 0}, {"rental_uris": {"ios": "https://dc.lft.to/lastmile_qr_scan", "android": "https://dc.lft.to/lastmile_qr_scan"}, "lon": -77.120383, "type": "electric_bike", "fusion_lat": 0.0, "lat": 38.855032, "name": "e53c8c34ae6fa175df9dbc9ce85dc61a", "fusion_lon": 0.0, "bike_id": "e53c8c34ae6fa175df9dbc9ce85dc61a", "is_disabled": 0, "is_reserved": 0}, {"rental_uris": {"ios": "https://dc.lft.to/lastmile_qr_scan", "android": "https://dc.lft.to/lastmile_qr_scan"}, "lon": -77.04442016666667, "type": "electric_scooter", "fusion_lat": 0.0, "lat": 38.91011666666667, "name": "4677ea5ce604c8bcb53dbd4231a3e692", "fusion_lon": 0.0, "bike_id": "4677ea5ce604c8bcb53dbd4231a3e692", "is_disabled": 0, "is_reserved": 0}, {"rental_uris": {"ios": "https://dc.lft.to/lastmile_qr_scan", "android": "https://dc.lft.to/lastmile_qr_scan"}, "lon": -77.01350233333334, "type": "electric_scooter", "fusion_lat": 0.0, "lat": 38.91938616666667, "name": "51e3c9d9419ad4d937bca867d36da800", "fusion_lon": 0.0, "bike_id": "51e3c9d9419ad4d937bca867d36da800", "is_disabled": 0, "is_reserved": 0}, {"rental_uris": {"ios": "https://dc.lft.to/lastmile_qr_scan", "android": "https://dc.lft.to/lastmile_qr_scan"}, "lon": -77.0344515, "type": "electric_scooter", "fusion_lat": 0.0, "lat": 38.918115666666665, "name": "68de6e2b2a76997055806bba5b0532e3", "fusion_lon": 0.0, "bike_id": "68de6e2b2a76997055806bba5b0532e3", "is_disabled": 0, "is_reserved": 0}, {"rental_uris": {"ios": "https://dc.lft.to/lastmile_qr_scan", "android": "https://dc.lft.to/lastmile_qr_scan"}, "lon": -76.9949815, "type": "electric_scooter", "fusion_lat": 0.0, "lat": 38.8624185, "name": "c293dbcb7c7bb06446391716ce637195", "fusion_lon": 0.0, "bike_id": "c293dbcb7c7bb06446391716ce637195", "is_disabled": 0, "is_reserved": 0}, {"rental_uris": {"ios": "https://dc.lft.to/lastmile_qr_scan", "android": "https://dc.lft.to/lastmile_qr_scan"}, "lon": -76.93180416666667, "type": "electric_scooter", "fusion_lat": 0.0, "lat": 38.898855, "name": "0554f3733b97dd1b4402930c3afa46b5", "fusion_lon": 0.0, "bike_id": "0554f3733b97dd1b4402930c3afa46b5", "is_disabled": 0, "is_reserved": 0}, {"rental_uris": {"ios": "https://dc.lft.to/lastmile_qr_scan", "android": "https://dc.lft.to/lastmile_qr_scan"}, "lon": -77.03667066666667, "type": "electric_scooter", "fusion_lat": 0.0, "lat": 38.918104166666666, "name": "ca2a09ad7dc05252dde31d984125dd37", "fusion_lon": 0.0, "bike_id": "ca2a09ad7dc05252dde31d984125dd37", "is_disabled": 0, "is_reserved": 0}, {"rental_uris": {"ios": "https://dc.lft.to/lastmile_qr_scan", "android": "https://dc.lft.to/lastmile_qr_scan"}, "lon": -77.02979566666667, "type": "electric_scooter", "fusion_lat": 0.0, "lat": 38.946043, "name": "b9699c9b958d92bf1da259fb48da17e8", "fusion_lon": 0.0, "bike_id": "b9699c9b958d92bf1da259fb48da17e8", "is_disabled": 0, "is_reserved": 0}, {"rental_uris": {"ios": "https://dc.lft.to/lastmile_qr_scan", "android": "https://dc.lft.to/lastmile_qr_scan"}, "lon": -77.00060683333334, "type": "electric_scooter", "fusion_lat": 0.0, "lat": 38.90575333333334, "name": "3fab2bb61e79029fd0bba2680ffc0d2f", "fusion_lon": 0.0, "bike_id": "3fab2bb61e79029fd0bba2680ffc0d2f", "is_disabled": 0, "is_reserved": 0}, {"rental_uris": {"ios": "https://dc.lft.to/lastmile_qr_scan", "android": "https://dc.lft.to/lastmile_qr_scan"}, "lon": -76.97884816666667, "type": "electric_scooter", "fusion_lat": 0.0, "lat": 38.88762933333334, "name": "d176bef98526ee2ab4d617f755878947", "fusion_lon": 0.0, "bike_id": "d176bef98526ee2ab4d617f755878947", "is_disabled": 0, "is_reserved": 0}, {"rental_uris": {"ios": "https://dc.lft.to/lastmile_qr_scan", "android": "https://dc.lft.to/lastmile_qr_scan"}, "lon": -77.03842483333334, "type": "electric_scooter", "fusion_lat": 0.0, "lat": 38.89865183333333, "name": "b6f6f8c98023d2464a6b0ab03731db65", "fusion_lon": 0.0, "bike_id": "b6f6f8c98023d2464a6b0ab03731db65", "is_disabled": 0, "is_reserved": 0}, {"rental_uris": {"ios": "https://dc.lft.to/lastmile_qr_scan", "android": "https://dc.lft.to/lastmile_qr_scan"}, "lon": -77.0381145, "type": "electric_scooter", "fusion_lat": 0.0, "lat": 38.9339735, "name": "3011bdc664ca62f414ce3f4bec075317", "fusion_lon": 0.0, "bike_id": "3011bdc664ca62f414ce3f4bec075317", "is_disabled": 0, "is_reserved": 0}, {"rental_uris": {"ios": "https://dc.lft.to/lastmile_qr_scan", "android": "https://dc.lft.to/lastmile_qr_scan"}, "lon": -76.9509805, "type": "electric_scooter", "fusion_lat": 0.0, "lat": 38.884500333333335, "name": "cd4a88fb723106827d5631f85e14757b", "fusion_lon": 0.0, "bike_id": "cd4a88fb723106827d5631f85e14757b", "is_disabled": 0, "is_reserved": 0}, {"rental_uris": {"ios": "https://dc.lft.to/lastmile_qr_scan", "android": "https://dc.lft.to/lastmile_qr_scan"}, "lon": -77.0048145, "type": "electric_scooter", "fusion_lat": 0.0, "lat": 38.944021, "name": "c8992f8be6f1e5eeb9487b75cee2c040", "fusion_lon": 0.0, "bike_id": "c8992f8be6f1e5eeb9487b75cee2c040", "is_disabled": 0, "is_reserved": 0}, {"rental_uris": {"ios": "https://dc.lft.to/lastmile_qr_scan", "android": "https://dc.lft.to/lastmile_qr_scan"}, "lon": -77.03911083333334, "type": "electric_scooter", "fusion_lat": 0.0, "lat": 38.914188833333334, "name": "cf8200c30e892c992edcf9518c0d36c9", "fusion_lon": 0.0, "bike_id": "cf8200c30e892c992edcf9518c0d36c9", "is_disabled": 0, "is_reserved": 0}, {"rental_uris": {"ios": "https://dc.lft.to/lastmile_qr_scan", "android": "https://dc.lft.to/lastmile_qr_scan"}, "lon": -77.02178566666667, "type": "electric_scooter", "fusion_lat": 0.0, "lat": 38.942928333333334, "name": "54141adedde9d01d719fec82b8f4dcdc", "fusion_lon": 0.0, "bike_id": "54141adedde9d01d719fec82b8f4dcdc", "is_disabled": 0, "is_reserved": 0}, {"rental_uris": {"ios": "https://dc.lft.to/lastmile_qr_scan", "android": "https://dc.lft.to/lastmile_qr_scan"}, "lon": -76.98974633333333, "type": "electric_scooter", "fusion_lat": 0.0, "lat": 38.859238, "name": "9ffc7a89f3b2e1d8f0a315a0b026acb8", "fusion_lon": 0.0, "bike_id": "9ffc7a89f3b2e1d8f0a315a0b026acb8", "is_disabled": 0, "is_reserved": 0}, {"rental_uris": {"ios": "https://dc.lft.to/lastmile_qr_scan", "android": "https://dc.lft.to/lastmile_qr_scan"}, "lon": -76.949993, "type": "electric_scooter", "fusion_lat": 0.0, "lat": 38.89375416666667, "name": "aa804b789c090a7ed41b01719433ef6e", "fusion_lon": 0.0, "bike_id": "aa804b789c090a7ed41b01719433ef6e", "is_disabled": 0, "is_reserved": 0}, {"rental_uris": {"ios": "https://dc.lft.to/lastmile_qr_scan", "android": "https://dc.lft.to/lastmile_qr_scan"}, "lon": -77.0367095, "type": "electric_scooter", "fusion_lat": 0.0, "lat": 38.90276133333333, "name": "b9d788568f1472b97a1a13b7a992888e", "fusion_lon": 0.0, "bike_id": "b9d788568f1472b97a1a13b7a992888e", "is_disabled": 0, "is_reserved": 0}, {"rental_uris": {"ios": "https://dc.lft.to/lastmile_qr_scan", "android": "https://dc.lft.to/lastmile_qr_scan"}, "lon": -77.02530516666667, "type": "electric_scooter", "fusion_lat": 0.0, "lat": 38.94298716666667, "name": "7ad9a21fa4e15f5f128b30295177278b", "fusion_lon": 0.0, "bike_id": "7ad9a21fa4e15f5f128b30295177278b", "is_disabled": 0, "is_reserved": 0}, {"rental_uris": {"ios": "https://dc.lft.to/lastmile_qr_scan", "android": "https://dc.lft.to/lastmile_qr_scan"}, "lon": -77.03470933333334, "type": "electric_scooter", "fusion_lat": 0.0, "lat": 38.92157733333333, "name": "b11430df5819f09a8e314d17530a41e9", "fusion_lon": 0.0, "bike_id": "b11430df5819f09a8e314d17530a41e9", "is_disabled": 0, "is_reserved": 0}, {"rental_uris": {"ios": "https://dc.lft.to/lastmile_qr_scan", "android": "https://dc.lft.to/lastmile_qr_scan"}, "lon": -77.02878033333333, "type": "electric_scooter", "fusion_lat": 0.0, "lat": 38.9043265, "name": "4af35977d7fae9fd7c9bd2611f915d73", "fusion_lon": 0.0, "bike_id": "4af35977d7fae9fd7c9bd2611f915d73", "is_disabled": 0, "is_reserved": 0}, {"rental_uris": {"ios": "https://dc.lft.to/lastmile_qr_scan", "android": "https://dc.lft.to/lastmile_qr_scan"}, "lon": -77.01345983333333, "type": "electric_bike", "fusion_lat": 0.0, "lat": 38.99997916666667, "name": "a62011152eba898d5c35aa9b7b4ad783", "fusion_lon": 0.0, "bike_id": "a62011152eba898d5c35aa9b7b4ad783", "is_disabled": 0, "is_reserved": 0}, {"rental_uris": {"ios": "https://dc.lft.to/lastmile_qr_scan", "android": "https://dc.lft.to/lastmile_qr_scan"}, "lon": -77.00654733333333, "type": "electric_scooter", "fusion_lat": 0.0, "lat": 38.871734833333335, "name": "698adbee84fb319a7f7f7b07a22bd637", "fusion_lon": 0.0, "bike_id": "698adbee84fb319a7f7f7b07a22bd637", "is_disabled": 0, "is_reserved": 0}, {"rental_uris": {"ios": "https://dc.lft.to/lastmile_qr_scan", "android": "https://dc.lft.to/lastmile_qr_scan"}, "lon": -77.01897883333334, "type": "electric_scooter", "fusion_lat": 0.0, "lat": 38.8765935, "name": "86d546acf09a7f4adde05fd58acafe58", "fusion_lon": 0.0, "bike_id": "86d546acf09a7f4adde05fd58acafe58", "is_disabled": 0, "is_reserved": 0}, {"rental_uris": {"ios": "https://dc.lft.to/lastmile_qr_scan", "android": "https://dc.lft.to/lastmile_qr_scan"}, "lon": -77.027312, "type": "electric_scooter", "fusion_lat": 0.0, "lat": 38.91380783333334, "name": "ab3f8511ed7f0754392a4e9fa9d2a595", "fusion_lon": 0.0, "bike_id": "ab3f8511ed7f0754392a4e9fa9d2a595", "is_disabled": 0, "is_reserved": 0}, {"rental_uris": {"ios": "https://dc.lft.to/lastmile_qr_scan", "android": "https://dc.lft.to/lastmile_qr_scan"}, "lon": -77.01111033333333, "type": "electric_scooter", "fusion_lat": 0.0, "lat": 38.90359566666667, "name": "485feed514609d51c04066c5f7cd35cf", "fusion_lon": 0.0, "bike_id": "485feed514609d51c04066c5f7cd35cf", "is_disabled": 0, "is_reserved": 0}, {"rental_uris": {"ios": "https://dc.lft.to/lastmile_qr_scan", "android": "https://dc.lft.to/lastmile_qr_scan"}, "lon": -77.055395, "type": "electric_scooter", "fusion_lat": 0.0, "lat": 38.9278565, "name": "e99c0e431f05542ec4cc5acd27e95501", "fusion_lon": 0.0, "bike_id": "e99c0e431f05542ec4cc5acd27e95501", "is_disabled": 0, "is_reserved": 0}, {"rental_uris": {"ios": "https://dc.lft.to/lastmile_qr_scan", "android": "https://dc.lft.to/lastmile_qr_scan"}, "lon": -77.029034, "type": "electric_scooter", "fusion_lat": 0.0, "lat": 38.88594166666667, "name": "a9d6b591cb3486e23b2b0007aaf488e2", "fusion_lon": 0.0, "bike_id": "a9d6b591cb3486e23b2b0007aaf488e2", "is_disabled": 0, "is_reserved": 0}, {"rental_uris": {"ios": "https://dc.lft.to/lastmile_qr_scan", "android": "https://dc.lft.to/lastmile_qr_scan"}, "lon": -77.03899966666667, "type": "electric_scooter", "fusion_lat": 0.0, "lat": 38.91839933333333, "name": "1eb52ca69a762c75af6d757a7cfd059f", "fusion_lon": 0.0, "bike_id": "1eb52ca69a762c75af6d757a7cfd059f", "is_disabled": 0, "is_reserved": 0}, {"rental_uris": {"ios": "https://dc.lft.to/lastmile_qr_scan", "android": "https://dc.lft.to/lastmile_qr_scan"}, "lon": -77.007765, "type": "electric_scooter", "fusion_lat": 0.0, "lat": 38.906642, "name": "644383e2d10e3feb8e141235cef8d6a9", "fusion_lon": 0.0, "bike_id": "644383e2d10e3feb8e141235cef8d6a9", "is_disabled": 0, "is_reserved": 0}, {"rental_uris": {"ios": "https://dc.lft.to/lastmile_qr_scan", "android": "https://dc.lft.to/lastmile_qr_scan"}, "lon": -77.01366083333333, "type": "electric_scooter", "fusion_lat": 0.0, "lat": 38.863689, "name": "8f35c5849009f9ab200a92ee25274b7e", "fusion_lon": 0.0, "bike_id": "8f35c5849009f9ab200a92ee25274b7e", "is_disabled": 0, "is_reserved": 0}, {"rental_uris": {"ios": "https://dc.lft.to/lastmile_qr_scan", "android": "https://dc.lft.to/lastmile_qr_scan"}, "lon": -77.02953, "type": "electric_scooter", "fusion_lat": 0.0, "lat": 38.90412883333333, "name": "0a0da52e0539f7940d3568da78d8a2ba", "fusion_lon": 0.0, "bike_id": "0a0da52e0539f7940d3568da78d8a2ba", "is_disabled": 0, "is_reserved": 0}, {"rental_uris": {"ios": "https://dc.lft.to/lastmile_qr_scan", "android": "https://dc.lft.to/lastmile_qr_scan"}, "lon": -77.03558583333333, "type": "electric_scooter", "fusion_lat": 0.0, "lat": 38.91786533333333, "name": "9244ac027d180401e66df92de20d7dcf", "fusion_lon": 0.0, "bike_id": "9244ac027d180401e66df92de20d7dcf", "is_disabled": 0, "is_reserved": 0}, {"rental_uris": {"ios": "https://dc.lft.to/lastmile_qr_scan", "android": "https://dc.lft.to/lastmile_qr_scan"}, "lon": -77.04337833333334, "type": "electric_scooter", "fusion_lat": 0.0, "lat": 38.89639666666667, "name": "2cb26a4593e790c4d130177ee38a38dc", "fusion_lon": 0.0, "bike_id": "2cb26a4593e790c4d130177ee38a38dc", "is_disabled": 0, "is_reserved": 0}, {"rental_uris": {"ios": "https://dc.lft.to/lastmile_qr_scan", "android": "https://dc.lft.to/lastmile_qr_scan"}, "lon": -77.03258616666666, "type": "electric_scooter", "fusion_lat": 0.0, "lat": 38.9276135, "name": "283d364335c83e12139856050ab43e0d", "fusion_lon": 0.0, "bike_id": "283d364335c83e12139856050ab43e0d", "is_disabled": 0, "is_reserved": 0}, {"rental_uris": {"ios": "https://dc.lft.to/lastmile_qr_scan", "android": "https://dc.lft.to/lastmile_qr_scan"}, "lon": -77.06946133333334, "type": "electric_scooter", "fusion_lat": 0.0, "lat": 38.905154833333334, "name": "d4920ffa12a0bb6aa340ba0bc1712e52", "fusion_lon": 0.0, "bike_id": "d4920ffa12a0bb6aa340ba0bc1712e52", "is_disabled": 0, "is_reserved": 0}, {"rental_uris": {"ios": "https://dc.lft.to/lastmile_qr_scan", "android": "https://dc.lft.to/lastmile_qr_scan"}, "lon": -77.03658433333334, "type": "electric_scooter", "fusion_lat": 0.0, "lat": 38.9025655, "name": "eaddfe0c692a3968b3a0f03ca6e44c5a", "fusion_lon": 0.0, "bike_id": "eaddfe0c692a3968b3a0f03ca6e44c5a", "is_disabled": 0, "is_reserved": 0}, {"rental_uris": {"ios": "https://dc.lft.to/lastmile_qr_scan", "android": "https://dc.lft.to/lastmile_qr_scan"}, "lon": -77.0233605, "type": "electric_scooter", "fusion_lat": 0.0, "lat": 38.93785616666667, "name": "ae24a6d925f135cc4420df6d81e460e7", "fusion_lon": 0.0, "bike_id": "ae24a6d925f135cc4420df6d81e460e7", "is_disabled": 0, "is_reserved": 0}, {"rental_uris": {"ios": "https://dc.lft.to/lastmile_qr_scan", "android": "https://dc.lft.to/lastmile_qr_scan"}, "lon": -77.0420515, "type": "electric_scooter", "fusion_lat": 0.0, "lat": 38.91103733333333, "name": "1ed57a163ebee5bebee290e95c67392a", "fusion_lon": 0.0, "bike_id": "1ed57a163ebee5bebee290e95c67392a", "is_disabled": 0, "is_reserved": 0}, {"rental_uris": {"ios": "https://dc.lft.to/lastmile_qr_scan", "android": "https://dc.lft.to/lastmile_qr_scan"}, "lon": -77.02849516666667, "type": "electric_scooter", "fusion_lat": 0.0, "lat": 38.934716, "name": "89b07f71b5ea4a4dcf3873f32255affb", "fusion_lon": 0.0, "bike_id": "89b07f71b5ea4a4dcf3873f32255affb", "is_disabled": 0, "is_reserved": 0}, {"rental_uris": {"ios": "https://dc.lft.to/lastmile_qr_scan", "android": "https://dc.lft.to/lastmile_qr_scan"}, "lon": -77.0297905, "type": "electric_scooter", "fusion_lat": 0.0, "lat": 38.96226383333333, "name": "2ad59e6a88c620d5c75d54467f32b648", "fusion_lon": 0.0, "bike_id": "2ad59e6a88c620d5c75d54467f32b648", "is_disabled": 0, "is_reserved": 0}, {"rental_uris": {"ios": "https://dc.lft.to/lastmile_qr_scan", "android": "https://dc.lft.to/lastmile_qr_scan"}, "lon": -77.0040635, "type": "electric_scooter", "fusion_lat": 0.0, "lat": 38.87934216666667, "name": "900cda727bfcb070e0c8389b7925814e", "fusion_lon": 0.0, "bike_id": "900cda727bfcb070e0c8389b7925814e", "is_disabled": 0, "is_reserved": 0}, {"rental_uris": {"ios": "https://dc.lft.to/lastmile_qr_scan", "android": "https://dc.lft.to/lastmile_qr_scan"}, "lon": -77.0325515, "type": "electric_scooter", "fusion_lat": 0.0, "lat": 38.93811983333333, "name": "ef73f8d53f1dfbf266f48a0e93cbb501", "fusion_lon": 0.0, "bike_id": "ef73f8d53f1dfbf266f48a0e93cbb501", "is_disabled": 0, "is_reserved": 0}, {"rental_uris": {"ios": "https://dc.lft.to/lastmile_qr_scan", "android": "https://dc.lft.to/lastmile_qr_scan"}, "lon": -77.01359333333333, "type": "electric_scooter", "fusion_lat": 0.0, "lat": 38.871197333333335, "name": "557bf1471fd18764c53971af53be823b", "fusion_lon": 0.0, "bike_id": "557bf1471fd18764c53971af53be823b", "is_disabled": 0, "is_reserved": 0}, {"rental_uris": {"ios": "https://dc.lft.to/lastmile_qr_scan", "android": "https://dc.lft.to/lastmile_qr_scan"}, "lon": -77.0435035, "type": "electric_scooter", "fusion_lat": 0.0, "lat": 38.91115416666667, "name": "78f37f7e43a6c123e21105a963f1786b", "fusion_lon": 0.0, "bike_id": "78f37f7e43a6c123e21105a963f1786b", "is_disabled": 0, "is_reserved": 0}, {"rental_uris": {"ios": "https://dc.lft.to/lastmile_qr_scan", "android": "https://dc.lft.to/lastmile_qr_scan"}, "lon": -77.02321216666667, "type": "electric_scooter", "fusion_lat": 0.0, "lat": 38.92765033333333, "name": "feceadf4f41aee3d90549d04c25a5cf4", "fusion_lon": 0.0, "bike_id": "feceadf4f41aee3d90549d04c25a5cf4", "is_disabled": 0, "is_reserved": 0}, {"rental_uris": {"ios": "https://dc.lft.to/lastmile_qr_scan", "android": "https://dc.lft.to/lastmile_qr_scan"}, "lon": -77.0314965, "type": "electric_scooter", "fusion_lat": 0.0, "lat": 38.88302383333333, "name": "d16df5f6fefc757579013c0064670c23", "fusion_lon": 0.0, "bike_id": "d16df5f6fefc757579013c0064670c23", "is_disabled": 0, "is_reserved": 0}, {"rental_uris": {"ios": "https://dc.lft.to/lastmile_qr_scan", "android": "https://dc.lft.to/lastmile_qr_scan"}, "lon": -77.02146033333334, "type": "electric_scooter", "fusion_lat": 0.0, "lat": 38.915488833333335, "name": "c3046684d287b09d26452f13aba3b220", "fusion_lon": 0.0, "bike_id": "c3046684d287b09d26452f13aba3b220", "is_disabled": 0, "is_reserved": 0}, {"rental_uris": {"ios": "https://dc.lft.to/lastmile_qr_scan", "android": "https://dc.lft.to/lastmile_qr_scan"}, "lon": -77.01777133333333, "type": "electric_bike", "fusion_lat": 0.0, "lat": 38.91479116666667, "name": "1723ded35522e51b9302a03be4395bd2", "fusion_lon": 0.0, "bike_id": "1723ded35522e51b9302a03be4395bd2", "is_disabled": 0, "is_reserved": 0}, {"rental_uris": {"ios": "https://dc.lft.to/lastmile_qr_scan", "android": "https://dc.lft.to/lastmile_qr_scan"}, "lon": -77.1412205, "type": "electric_bike", "fusion_lat": 0.0, "lat": 38.816022333333336, "name": "06afbfa5034e4ec23ba35c5017c2f306", "fusion_lon": 0.0, "bike_id": "06afbfa5034e4ec23ba35c5017c2f306", "is_disabled": 0, "is_reserved": 0}, {"rental_uris": {"ios": "https://dc.lft.to/lastmile_qr_scan", "android": "https://dc.lft.to/lastmile_qr_scan"}, "lon": -76.99522566666667, "type": "electric_scooter", "fusion_lat": 0.0, "lat": 38.86258083333333, "name": "ca3daaef573e7af1dc8eecb01c0986ad", "fusion_lon": 0.0, "bike_id": "ca3daaef573e7af1dc8eecb01c0986ad", "is_disabled": 0, "is_reserved": 0}, {"rental_uris": {"ios": "https://dc.lft.to/lastmile_qr_scan", "android": "https://dc.lft.to/lastmile_qr_scan"}, "lon": -77.04175866666667, "type": "electric_scooter", "fusion_lat": 0.0, "lat": 38.91703, "name": "5fb33ef613d7aab86e8ac71439336123", "fusion_lon": 0.0, "bike_id": "5fb33ef613d7aab86e8ac71439336123", "is_disabled": 0, "is_reserved": 0}, {"rental_uris": {"ios": "https://dc.lft.to/lastmile_qr_scan", "android": "https://dc.lft.to/lastmile_qr_scan"}, "lon": -77.03644, "type": "electric_scooter", "fusion_lat": 0.0, "lat": 38.91732916666667, "name": "55415ffc6934e03ff6f00e3955ad50ac", "fusion_lon": 0.0, "bike_id": "55415ffc6934e03ff6f00e3955ad50ac", "is_disabled": 0, "is_reserved": 0}, {"rental_uris": {"ios": "https://dc.lft.to/lastmile_qr_scan", "android": "https://dc.lft.to/lastmile_qr_scan"}, "lon": -77.00846983333334, "type": "electric_bike", "fusion_lat": 0.0, "lat": 38.949195833333334, "name": "a493d2844dc3dafda818b5fa879488c1", "fusion_lon": 0.0, "bike_id": "a493d2844dc3dafda818b5fa879488c1", "is_disabled": 0, "is_reserved": 0}, {"rental_uris": {"ios": "https://dc.lft.to/lastmile_qr_scan", "android": "https://dc.lft.to/lastmile_qr_scan"}, "lon": -77.01089883333333, "type": "electric_scooter", "fusion_lat": 0.0, "lat": 38.91629416666667, "name": "e65916f37fb1cda7c1077d9860a3bf19", "fusion_lon": 0.0, "bike_id": "e65916f37fb1cda7c1077d9860a3bf19", "is_disabled": 0, "is_reserved": 0}, {"rental_uris": {"ios": "https://dc.lft.to/lastmile_qr_scan", "android": "https://dc.lft.to/lastmile_qr_scan"}, "lon": -77.0180915, "type": "electric_scooter", "fusion_lat": 0.0, "lat": 38.94203183333333, "name": "f5437382ec17299edfcc7afd399145be", "fusion_lon": 0.0, "bike_id": "f5437382ec17299edfcc7afd399145be", "is_disabled": 0, "is_reserved": 0}, {"rental_uris": {"ios": "https://dc.lft.to/lastmile_qr_scan", "android": "https://dc.lft.to/lastmile_qr_scan"}, "lon": -77.00127416666666, "type": "electric_scooter", "fusion_lat": 0.0, "lat": 38.87792966666667, "name": "fe4434ee0cbaf25e6df62907dc8ee24d", "fusion_lon": 0.0, "bike_id": "fe4434ee0cbaf25e6df62907dc8ee24d", "is_disabled": 0, "is_reserved": 0}, {"rental_uris": {"ios": "https://dc.lft.to/lastmile_qr_scan", "android": "https://dc.lft.to/lastmile_qr_scan"}, "lon": -76.99507516666667, "type": "electric_scooter", "fusion_lat": 0.0, "lat": 38.8624735, "name": "639f993dd324ceecbe9392c054c3f698", "fusion_lon": 0.0, "bike_id": "639f993dd324ceecbe9392c054c3f698", "is_disabled": 0, "is_reserved": 0}, {"rental_uris": {"ios": "https://dc.lft.to/lastmile_qr_scan", "android": "https://dc.lft.to/lastmile_qr_scan"}, "lon": -76.95359066666667, "type": "electric_bike", "fusion_lat": 0.0, "lat": 38.939504666666664, "name": "58ec779cb4b809a38cd4e640c06825d0", "fusion_lon": 0.0, "bike_id": "58ec779cb4b809a38cd4e640c06825d0", "is_disabled": 0, "is_reserved": 0}, {"rental_uris": {"ios": "https://dc.lft.to/lastmile_qr_scan", "android": "https://dc.lft.to/lastmile_qr_scan"}, "lon": -77.03289816666667, "type": "electric_scooter", "fusion_lat": 0.0, "lat": 38.92883883333333, "name": "9ca6a0c70c3ce80814350ed17eab7135", "fusion_lon": 0.0, "bike_id": "9ca6a0c70c3ce80814350ed17eab7135", "is_disabled": 0, "is_reserved": 0}, {"rental_uris": {"ios": "https://dc.lft.to/lastmile_qr_scan", "android": "https://dc.lft.to/lastmile_qr_scan"}, "lon": -77.05698083333333, "type": "electric_scooter", "fusion_lat": 0.0, "lat": 38.905418166666664, "name": "8a65de309316ef4b86c510ddae676324", "fusion_lon": 0.0, "bike_id": "8a65de309316ef4b86c510ddae676324", "is_disabled": 0, "is_reserved": 0}, {"rental_uris": {"ios": "https://dc.lft.to/lastmile_qr_scan", "android": "https://dc.lft.to/lastmile_qr_scan"}, "lon": -77.17844683333334, "type": "electric_bike", "fusion_lat": 0.0, "lat": 39.08857316666667, "name": "d349e4139249ce6f0ef56927335d5be0", "fusion_lon": 0.0, "bike_id": "d349e4139249ce6f0ef56927335d5be0", "is_disabled": 0, "is_reserved": 0}, {"rental_uris": {"ios": "https://dc.lft.to/lastmile_qr_scan", "android": "https://dc.lft.to/lastmile_qr_scan"}, "lon": -76.9890285, "type": "electric_scooter", "fusion_lat": 0.0, "lat": 38.86691316666667, "name": "9f5f654b177676a77725fe0905c3bd4a", "fusion_lon": 0.0, "bike_id": "9f5f654b177676a77725fe0905c3bd4a", "is_disabled": 0, "is_reserved": 0}, {"rental_uris": {"ios": "https://dc.lft.to/lastmile_qr_scan", "android": "https://dc.lft.to/lastmile_qr_scan"}, "lon": -77.04866616666666, "type": "electric_scooter", "fusion_lat": 0.0, "lat": 38.90849866666667, "name": "331162902b2d015e4a8363e22d10e9bd", "fusion_lon": 0.0, "bike_id": "331162902b2d015e4a8363e22d10e9bd", "is_disabled": 0, "is_reserved": 0}, {"rental_uris": {"ios": "https://dc.lft.to/lastmile_qr_scan", "android": "https://dc.lft.to/lastmile_qr_scan"}, "lon": -77.0477465, "type": "electric_bike", "fusion_lat": 0.0, "lat": 39.0532085, "name": "45487bc71832116c70443393317c1dfa", "fusion_lon": 0.0, "bike_id": "45487bc71832116c70443393317c1dfa", "is_disabled": 0, "is_reserved": 0}, {"rental_uris": {"ios": "https://dc.lft.to/lastmile_qr_scan", "android": "https://dc.lft.to/lastmile_qr_scan"}, "lon": -77.04824316666667, "type": "electric_scooter", "fusion_lat": 0.0, "lat": 38.907888, "name": "4e54800074288697adb9e304649350eb", "fusion_lon": 0.0, "bike_id": "4e54800074288697adb9e304649350eb", "is_disabled": 0, "is_reserved": 0}, {"rental_uris": {"ios": "https://dc.lft.to/lastmile_qr_scan", "android": "https://dc.lft.to/lastmile_qr_scan"}, "lon": -77.06330583333333, "type": "electric_bike", "fusion_lat": 0.0, "lat": 38.92111766666667, "name": "721347d0a3126cece5bf0e29f4228e31", "fusion_lon": 0.0, "bike_id": "721347d0a3126cece5bf0e29f4228e31", "is_disabled": 0, "is_reserved": 0}, {"rental_uris": {"ios": "https://dc.lft.to/lastmile_qr_scan", "android": "https://dc.lft.to/lastmile_qr_scan"}, "lon": -77.02172533333334, "type": "electric_scooter", "fusion_lat": 0.0, "lat": 38.942927, "name": "d8a1008a03d3951b14be37b653bc9945", "fusion_lon": 0.0, "bike_id": "d8a1008a03d3951b14be37b653bc9945", "is_disabled": 0, "is_reserved": 0}, {"rental_uris": {"ios": "https://dc.lft.to/lastmile_qr_scan", "android": "https://dc.lft.to/lastmile_qr_scan"}, "lon": -77.01369666666666, "type": "electric_scooter", "fusion_lat": 0.0, "lat": 38.86369583333333, "name": "4a6156825f2c12332b46361b9398f570", "fusion_lon": 0.0, "bike_id": "4a6156825f2c12332b46361b9398f570", "is_disabled": 0, "is_reserved": 0}, {"rental_uris": {"ios": "https://dc.lft.to/lastmile_qr_scan", "android": "https://dc.lft.to/lastmile_qr_scan"}, "lon": -77.05863566666666, "type": "electric_scooter", "fusion_lat": 0.0, "lat": 38.93604916666666, "name": "8e9516c74301c2a69b7850a96c141678", "fusion_lon": 0.0, "bike_id": "8e9516c74301c2a69b7850a96c141678", "is_disabled": 0, "is_reserved": 0}, {"rental_uris": {"ios": "https://dc.lft.to/lastmile_qr_scan", "android": "https://dc.lft.to/lastmile_qr_scan"}, "lon": -77.0157675, "type": "electric_scooter", "fusion_lat": 0.0, "lat": 38.8997315, "name": "a905998836928ad15f80289f12151a16", "fusion_lon": 0.0, "bike_id": "a905998836928ad15f80289f12151a16", "is_disabled": 0, "is_reserved": 0}, {"rental_uris": {"ios": "https://dc.lft.to/lastmile_qr_scan", "android": "https://dc.lft.to/lastmile_qr_scan"}, "lon": -77.03580333333333, "type": "electric_scooter", "fusion_lat": 0.0, "lat": 38.932473333333334, "name": "5b1a5d1e1c8b54225fce8cc19c5b855b", "fusion_lon": 0.0, "bike_id": "5b1a5d1e1c8b54225fce8cc19c5b855b", "is_disabled": 0, "is_reserved": 0}, {"rental_uris": {"ios": "https://dc.lft.to/lastmile_qr_scan", "android": "https://dc.lft.to/lastmile_qr_scan"}, "lon": -77.032203, "type": "electric_scooter", "fusion_lat": 0.0, "lat": 38.9169095, "name": "a4ebc1f655865988c88dbb0039382ffa", "fusion_lon": 0.0, "bike_id": "a4ebc1f655865988c88dbb0039382ffa", "is_disabled": 0, "is_reserved": 0}, {"rental_uris": {"ios": "https://dc.lft.to/lastmile_qr_scan", "android": "https://dc.lft.to/lastmile_qr_scan"}, "lon": -77.012155, "type": "electric_scooter", "fusion_lat": 0.0, "lat": 38.91422816666667, "name": "34dcfa0ae1673df60da87ba41d162c01", "fusion_lon": 0.0, "bike_id": "34dcfa0ae1673df60da87ba41d162c01", "is_disabled": 0, "is_reserved": 0}, {"rental_uris": {"ios": "https://dc.lft.to/lastmile_qr_scan", "android": "https://dc.lft.to/lastmile_qr_scan"}, "lon": -76.94998316666667, "type": "electric_scooter", "fusion_lat": 0.0, "lat": 38.893719833333336, "name": "b5c9286d6dfae68712a2899fa0c38b45", "fusion_lon": 0.0, "bike_id": "b5c9286d6dfae68712a2899fa0c38b45", "is_disabled": 0, "is_reserved": 0}, {"rental_uris": {"ios": "https://dc.lft.to/lastmile_qr_scan", "android": "https://dc.lft.to/lastmile_qr_scan"}, "lon": -77.182914, "type": "electric_bike", "fusion_lat": 0.0, "lat": 38.883376, "name": "2cfba96bc20178f40a27b0d276fcb084", "fusion_lon": 0.0, "bike_id": "2cfba96bc20178f40a27b0d276fcb084", "is_disabled": 0, "is_reserved": 0}, {"rental_uris": {"ios": "https://dc.lft.to/lastmile_qr_scan", "android": "https://dc.lft.to/lastmile_qr_scan"}, "lon": -77.03812333333333, "type": "electric_bike", "fusion_lat": 0.0, "lat": 38.91806866666667, "name": "78cbb7324a10685278171525d5f3783b", "fusion_lon": 0.0, "bike_id": "78cbb7324a10685278171525d5f3783b", "is_disabled": 0, "is_reserved": 0}, {"rental_uris": {"ios": "https://dc.lft.to/lastmile_qr_scan", "android": "https://dc.lft.to/lastmile_qr_scan"}, "lon": -77.050741, "type": "electric_scooter", "fusion_lat": 0.0, "lat": 38.90071366666667, "name": "06e67d9e80253a3d9277698007c01716", "fusion_lon": 0.0, "bike_id": "06e67d9e80253a3d9277698007c01716", "is_disabled": 0, "is_reserved": 0}, {"rental_uris": {"ios": "https://dc.lft.to/lastmile_qr_scan", "android": "https://dc.lft.to/lastmile_qr_scan"}, "lon": -77.02479266666667, "type": "electric_scooter", "fusion_lat": 0.0, "lat": 38.93103966666666, "name": "c1c511d4d27d432158fd8c3f32c5fbdb", "fusion_lon": 0.0, "bike_id": "c1c511d4d27d432158fd8c3f32c5fbdb", "is_disabled": 0, "is_reserved": 0}, {"rental_uris": {"ios": "https://dc.lft.to/lastmile_qr_scan", "android": "https://dc.lft.to/lastmile_qr_scan"}, "lon": -77.0332285, "type": "electric_scooter", "fusion_lat": 0.0, "lat": 38.9012655, "name": "20c0d2a329bfd02a4147554b924ad7e8", "fusion_lon": 0.0, "bike_id": "20c0d2a329bfd02a4147554b924ad7e8", "is_disabled": 0, "is_reserved": 0}, {"rental_uris": {"ios": "https://dc.lft.to/lastmile_qr_scan", "android": "https://dc.lft.to/lastmile_qr_scan"}, "lon": -76.97825866666666, "type": "electric_scooter", "fusion_lat": 0.0, "lat": 38.89515016666667, "name": "9aae81c3d6fca18853f6554065474966", "fusion_lon": 0.0, "bike_id": "9aae81c3d6fca18853f6554065474966", "is_disabled": 0, "is_reserved": 0}, {"rental_uris": {"ios": "https://dc.lft.to/lastmile_qr_scan", "android": "https://dc.lft.to/lastmile_qr_scan"}, "lon": -77.01786766666666, "type": "electric_scooter", "fusion_lat": 0.0, "lat": 38.90041133333333, "name": "506737a1bc62192cd0a15ee01bd84517", "fusion_lon": 0.0, "bike_id": "506737a1bc62192cd0a15ee01bd84517", "is_disabled": 0, "is_reserved": 0}, {"rental_uris": {"ios": "https://dc.lft.to/lastmile_qr_scan", "android": "https://dc.lft.to/lastmile_qr_scan"}, "lon": -77.07144016666666, "type": "electric_scooter", "fusion_lat": 0.0, "lat": 38.9272595, "name": "66a813d5d09bfa53c079c730852e617d", "fusion_lon": 0.0, "bike_id": "66a813d5d09bfa53c079c730852e617d", "is_disabled": 0, "is_reserved": 0}, {"rental_uris": {"ios": "https://dc.lft.to/lastmile_qr_scan", "android": "https://dc.lft.to/lastmile_qr_scan"}, "lon": -77.07029066666666, "type": "electric_scooter", "fusion_lat": 0.0, "lat": 38.90730283333333, "name": "f74a953324ed7588c03783757172b83f", "fusion_lon": 0.0, "bike_id": "f74a953324ed7588c03783757172b83f", "is_disabled": 0, "is_reserved": 0}, {"rental_uris": {"ios": "https://dc.lft.to/lastmile_qr_scan", "android": "https://dc.lft.to/lastmile_qr_scan"}, "lon": -77.02508216666666, "type": "electric_scooter", "fusion_lat": 0.0, "lat": 38.907125, "name": "d349517d9008268425cc5acbe080ea34", "fusion_lon": 0.0, "bike_id": "d349517d9008268425cc5acbe080ea34", "is_disabled": 0, "is_reserved": 0}, {"rental_uris": {"ios": "https://dc.lft.to/lastmile_qr_scan", "android": "https://dc.lft.to/lastmile_qr_scan"}, "lon": -76.995013, "type": "electric_bike", "fusion_lat": 0.0, "lat": 39.000023166666665, "name": "2981a304cf4061c8cd00e0348decf427", "fusion_lon": 0.0, "bike_id": "2981a304cf4061c8cd00e0348decf427", "is_disabled": 0, "is_reserved": 0}, {"rental_uris": {"ios": "https://dc.lft.to/lastmile_qr_scan", "android": "https://dc.lft.to/lastmile_qr_scan"}, "lon": -77.00511983333334, "type": "electric_scooter", "fusion_lat": 0.0, "lat": 38.91705183333333, "name": "9a40558ebc6f1aa41a1786b01fb8f68c", "fusion_lon": 0.0, "bike_id": "9a40558ebc6f1aa41a1786b01fb8f68c", "is_disabled": 0, "is_reserved": 0}, {"rental_uris": {"ios": "https://dc.lft.to/lastmile_qr_scan", "android": "https://dc.lft.to/lastmile_qr_scan"}, "lon": -77.04375283333333, "type": "electric_scooter", "fusion_lat": 0.0, "lat": 38.900794, "name": "bc6655048decaf9281c9346f2d02fada", "fusion_lon": 0.0, "bike_id": "bc6655048decaf9281c9346f2d02fada", "is_disabled": 0, "is_reserved": 0}, {"rental_uris": {"ios": "https://dc.lft.to/lastmile_qr_scan", "android": "https://dc.lft.to/lastmile_qr_scan"}, "lon": -77.05149066666667, "type": "electric_scooter", "fusion_lat": 0.0, "lat": 38.901263666666665, "name": "4bae0701163a6db889a5cb0de10f97bc", "fusion_lon": 0.0, "bike_id": "4bae0701163a6db889a5cb0de10f97bc", "is_disabled": 0, "is_reserved": 0}, {"rental_uris": {"ios": "https://dc.lft.to/lastmile_qr_scan", "android": "https://dc.lft.to/lastmile_qr_scan"}, "lon": -76.99978833333333, "type": "electric_scooter", "fusion_lat": 0.0, "lat": 38.83836083333333, "name": "43bbcb4da25ec5713a57aa0d621fe238", "fusion_lon": 0.0, "bike_id": "43bbcb4da25ec5713a57aa0d621fe238", "is_disabled": 0, "is_reserved": 0}, {"rental_uris": {"ios": "https://dc.lft.to/lastmile_qr_scan", "android": "https://dc.lft.to/lastmile_qr_scan"}, "lon": -77.06986866666666, "type": "electric_scooter", "fusion_lat": 0.0, "lat": 38.954876666666664, "name": "dbf1040438eb5bba0f711134a064e411", "fusion_lon": 0.0, "bike_id": "dbf1040438eb5bba0f711134a064e411", "is_disabled": 0, "is_reserved": 0}, {"rental_uris": {"ios": "https://dc.lft.to/lastmile_qr_scan", "android": "https://dc.lft.to/lastmile_qr_scan"}, "lon": -77.06329283333334, "type": "electric_scooter", "fusion_lat": 0.0, "lat": 38.90767016666667, "name": "a026f1f92cab6f85655373bda7b86d62", "fusion_lon": 0.0, "bike_id": "a026f1f92cab6f85655373bda7b86d62", "is_disabled": 0, "is_reserved": 0}, {"rental_uris": {"ios": "https://dc.lft.to/lastmile_qr_scan", "android": "https://dc.lft.to/lastmile_qr_scan"}, "lon": -76.99792266666667, "type": "electric_scooter", "fusion_lat": 0.0, "lat": 38.921802, "name": "c3bbf733a1f0b0acb26d9ad99229823a", "fusion_lon": 0.0, "bike_id": "c3bbf733a1f0b0acb26d9ad99229823a", "is_disabled": 0, "is_reserved": 0}, {"rental_uris": {"ios": "https://dc.lft.to/lastmile_qr_scan", "android": "https://dc.lft.to/lastmile_qr_scan"}, "lon": -77.02147516666666, "type": "electric_scooter", "fusion_lat": 0.0, "lat": 38.933031666666665, "name": "b74b7f352bb314b00a39e649016aba49", "fusion_lon": 0.0, "bike_id": "b74b7f352bb314b00a39e649016aba49", "is_disabled": 0, "is_reserved": 0}, {"rental_uris": {"ios": "https://dc.lft.to/lastmile_qr_scan", "android": "https://dc.lft.to/lastmile_qr_scan"}, "lon": -77.0468155, "type": "electric_scooter", "fusion_lat": 0.0, "lat": 38.905504666666666, "name": "8a9143c5c499ac75bd9ef3a656cb2096", "fusion_lon": 0.0, "bike_id": "8a9143c5c499ac75bd9ef3a656cb2096", "is_disabled": 0, "is_reserved": 0}, {"rental_uris": {"ios": "https://dc.lft.to/lastmile_qr_scan", "android": "https://dc.lft.to/lastmile_qr_scan"}, "lon": -77.02473766666667, "type": "electric_scooter", "fusion_lat": 0.0, "lat": 38.930982, "name": "264078e4c08f753f1f53b2fd739fbe6b", "fusion_lon": 0.0, "bike_id": "264078e4c08f753f1f53b2fd739fbe6b", "is_disabled": 0, "is_reserved": 0}, {"rental_uris": {"ios": "https://dc.lft.to/lastmile_qr_scan", "android": "https://dc.lft.to/lastmile_qr_scan"}, "lon": -77.1250375, "type": "electric_bike", "fusion_lat": 0.0, "lat": 39.0241585, "name": "be5850ca715b2828e9c029864efc6d57", "fusion_lon": 0.0, "bike_id": "be5850ca715b2828e9c029864efc6d57", "is_disabled": 0, "is_reserved": 0}, {"rental_uris": {"ios": "https://dc.lft.to/lastmile_qr_scan", "android": "https://dc.lft.to/lastmile_qr_scan"}, "lon": -77.04512516666666, "type": "electric_scooter", "fusion_lat": 0.0, "lat": 38.91290716666666, "name": "309cca8178ae8533460c51a0e2811fe8", "fusion_lon": 0.0, "bike_id": "309cca8178ae8533460c51a0e2811fe8", "is_disabled": 0, "is_reserved": 0}, {"rental_uris": {"ios": "https://dc.lft.to/lastmile_qr_scan", "android": "https://dc.lft.to/lastmile_qr_scan"}, "lon": -77.0319105, "type": "electric_scooter", "fusion_lat": 0.0, "lat": 38.92288716666667, "name": "031d798d8b37a6cf5148f1a0ce82e4f8", "fusion_lon": 0.0, "bike_id": "031d798d8b37a6cf5148f1a0ce82e4f8", "is_disabled": 0, "is_reserved": 0}, {"rental_uris": {"ios": "https://dc.lft.to/lastmile_qr_scan", "android": "https://dc.lft.to/lastmile_qr_scan"}, "lon": -77.00594916666667, "type": "electric_scooter", "fusion_lat": 0.0, "lat": 38.9156275, "name": "054ada01ac8796cbf472de49bc090a0d", "fusion_lon": 0.0, "bike_id": "054ada01ac8796cbf472de49bc090a0d", "is_disabled": 0, "is_reserved": 0}, {"rental_uris": {"ios": "https://dc.lft.to/lastmile_qr_scan", "android": "https://dc.lft.to/lastmile_qr_scan"}, "lon": -77.01543966666667, "type": "electric_scooter", "fusion_lat": 0.0, "lat": 38.89200983333333, "name": "b7a538881776c72e8a2e424d620430fa", "fusion_lon": 0.0, "bike_id": "b7a538881776c72e8a2e424d620430fa", "is_disabled": 0, "is_reserved": 0}, {"rental_uris": {"ios": "https://dc.lft.to/lastmile_qr_scan", "android": "https://dc.lft.to/lastmile_qr_scan"}, "lon": -77.032725, "type": "electric_scooter", "fusion_lat": 0.0, "lat": 38.93240466666666, "name": "a8e68f26c6f64108d511a47c97ee4746", "fusion_lon": 0.0, "bike_id": "a8e68f26c6f64108d511a47c97ee4746", "is_disabled": 0, "is_reserved": 0}, {"rental_uris": {"ios": "https://dc.lft.to/lastmile_qr_scan", "android": "https://dc.lft.to/lastmile_qr_scan"}, "lon": -77.0240625, "type": "electric_scooter", "fusion_lat": 0.0, "lat": 38.93101333333333, "name": "da37df12d6cb354fa0f05a111ab8900d", "fusion_lon": 0.0, "bike_id": "da37df12d6cb354fa0f05a111ab8900d", "is_disabled": 0, "is_reserved": 0}, {"rental_uris": {"ios": "https://dc.lft.to/lastmile_qr_scan", "android": "https://dc.lft.to/lastmile_qr_scan"}, "lon": -77.01436916666667, "type": "electric_scooter", "fusion_lat": 0.0, "lat": 38.92987516666667, "name": "0830e679125ef860b7f20768d62dd2c1", "fusion_lon": 0.0, "bike_id": "0830e679125ef860b7f20768d62dd2c1", "is_disabled": 0, "is_reserved": 0}, {"rental_uris": {"ios": "https://dc.lft.to/lastmile_qr_scan", "android": "https://dc.lft.to/lastmile_qr_scan"}, "lon": -77.00205216666667, "type": "electric_scooter", "fusion_lat": 0.0, "lat": 38.8997935, "name": "d0c1833cbe6b4612cca56a06ba7f5402", "fusion_lon": 0.0, "bike_id": "d0c1833cbe6b4612cca56a06ba7f5402", "is_disabled": 0, "is_reserved": 0}, {"rental_uris": {"ios": "https://dc.lft.to/lastmile_qr_scan", "android": "https://dc.lft.to/lastmile_qr_scan"}, "lon": -77.031958, "type": "electric_scooter", "fusion_lat": 0.0, "lat": 38.907135833333335, "name": "a76e951ea0d8df5e61cae049e0c6fe7a", "fusion_lon": 0.0, "bike_id": "a76e951ea0d8df5e61cae049e0c6fe7a", "is_disabled": 0, "is_reserved": 0}, {"rental_uris": {"ios": "https://dc.lft.to/lastmile_qr_scan", "android": "https://dc.lft.to/lastmile_qr_scan"}, "lon": -77.04261483333333, "type": "electric_scooter", "fusion_lat": 0.0, "lat": 38.90548533333333, "name": "c167ac8d13a4dc18b5aed78cd8f66b2d", "fusion_lon": 0.0, "bike_id": "c167ac8d13a4dc18b5aed78cd8f66b2d", "is_disabled": 0, "is_reserved": 0}, {"rental_uris": {"ios": "https://dc.lft.to/lastmile_qr_scan", "android": "https://dc.lft.to/lastmile_qr_scan"}, "lon": -77.0278755, "type": "electric_scooter", "fusion_lat": 0.0, "lat": 38.89615283333333, "name": "eb34bd225c4c2ebc9346e5474eb438df", "fusion_lon": 0.0, "bike_id": "eb34bd225c4c2ebc9346e5474eb438df", "is_disabled": 0, "is_reserved": 0}, {"rental_uris": {"ios": "https://dc.lft.to/lastmile_qr_scan", "android": "https://dc.lft.to/lastmile_qr_scan"}, "lon": -76.94421366666667, "type": "electric_scooter", "fusion_lat": 0.0, "lat": 38.89788933333333, "name": "22ed5d89c9c2f72905f94c4f6e9586bc", "fusion_lon": 0.0, "bike_id": "22ed5d89c9c2f72905f94c4f6e9586bc", "is_disabled": 0, "is_reserved": 0}, {"rental_uris": {"ios": "https://dc.lft.to/lastmile_qr_scan", "android": "https://dc.lft.to/lastmile_qr_scan"}, "lon": -77.04230283333334, "type": "electric_scooter", "fusion_lat": 0.0, "lat": 38.92108983333333, "name": "b91a11a03620848e8ccf5c7f00af4095", "fusion_lon": 0.0, "bike_id": "b91a11a03620848e8ccf5c7f00af4095", "is_disabled": 0, "is_reserved": 0}, {"rental_uris": {"ios": "https://dc.lft.to/lastmile_qr_scan", "android": "https://dc.lft.to/lastmile_qr_scan"}, "lon": -77.06493166666667, "type": "electric_bike", "fusion_lat": 0.0, "lat": 38.964939333333334, "name": "9cc19a9265de5d021d3a65757dc6856c", "fusion_lon": 0.0, "bike_id": "9cc19a9265de5d021d3a65757dc6856c", "is_disabled": 0, "is_reserved": 0}, {"rental_uris": {"ios": "https://dc.lft.to/lastmile_qr_scan", "android": "https://dc.lft.to/lastmile_qr_scan"}, "lon": -76.98372016666667, "type": "electric_scooter", "fusion_lat": 0.0, "lat": 38.91523933333333, "name": "a530b36f20723bf53bc09a2675588359", "fusion_lon": 0.0, "bike_id": "a530b36f20723bf53bc09a2675588359", "is_disabled": 0, "is_reserved": 0}, {"rental_uris": {"ios": "https://dc.lft.to/lastmile_qr_scan", "android": "https://dc.lft.to/lastmile_qr_scan"}, "lon": -77.03447233333333, "type": "electric_scooter", "fusion_lat": 0.0, "lat": 38.91874416666667, "name": "b02624bb97e9387b1718fdd7e9c98437", "fusion_lon": 0.0, "bike_id": "b02624bb97e9387b1718fdd7e9c98437", "is_disabled": 0, "is_reserved": 0}, {"rental_uris": {"ios": "https://dc.lft.to/lastmile_qr_scan", "android": "https://dc.lft.to/lastmile_qr_scan"}, "lon": -77.02204733333333, "type": "electric_scooter", "fusion_lat": 0.0, "lat": 38.905332666666666, "name": "b02d09d501abd70840ee38f36efefbf7", "fusion_lon": 0.0, "bike_id": "b02d09d501abd70840ee38f36efefbf7", "is_disabled": 0, "is_reserved": 0}, {"rental_uris": {"ios": "https://dc.lft.to/lastmile_qr_scan", "android": "https://dc.lft.to/lastmile_qr_scan"}, "lon": -77.03133333333334, "type": "electric_scooter", "fusion_lat": 0.0, "lat": 38.92371333333333, "name": "263025172b9439738b5fffe19d9408de", "fusion_lon": 0.0, "bike_id": "263025172b9439738b5fffe19d9408de", "is_disabled": 0, "is_reserved": 0}, {"rental_uris": {"ios": "https://dc.lft.to/lastmile_qr_scan", "android": "https://dc.lft.to/lastmile_qr_scan"}, "lon": -77.048653, "type": "electric_scooter", "fusion_lat": 0.0, "lat": 38.9084925, "name": "126a9cdf9111e4feba4800dea40b41d1", "fusion_lon": 0.0, "bike_id": "126a9cdf9111e4feba4800dea40b41d1", "is_disabled": 0, "is_reserved": 0}, {"rental_uris": {"ios": "https://dc.lft.to/lastmile_qr_scan", "android": "https://dc.lft.to/lastmile_qr_scan"}, "lon": -76.99382733333333, "type": "electric_scooter", "fusion_lat": 0.0, "lat": 38.887454, "name": "46a2a78a8fe25ce8aad8140f09d218c5", "fusion_lon": 0.0, "bike_id": "46a2a78a8fe25ce8aad8140f09d218c5", "is_disabled": 0, "is_reserved": 0}, {"rental_uris": {"ios": "https://dc.lft.to/lastmile_qr_scan", "android": "https://dc.lft.to/lastmile_qr_scan"}, "lon": -77.03231416666667, "type": "electric_scooter", "fusion_lat": 0.0, "lat": 38.926673666666666, "name": "0382eb1bf23f9cd3c28af132aff85f37", "fusion_lon": 0.0, "bike_id": "0382eb1bf23f9cd3c28af132aff85f37", "is_disabled": 0, "is_reserved": 0}, {"rental_uris": {"ios": "https://dc.lft.to/lastmile_qr_scan", "android": "https://dc.lft.to/lastmile_qr_scan"}, "lon": -77.04145183333333, "type": "electric_scooter", "fusion_lat": 0.0, "lat": 38.92301833333333, "name": "aca0e1df9ffb1f9d0a90229d19f4e820", "fusion_lon": 0.0, "bike_id": "aca0e1df9ffb1f9d0a90229d19f4e820", "is_disabled": 0, "is_reserved": 0}, {"rental_uris": {"ios": "https://dc.lft.to/lastmile_qr_scan", "android": "https://dc.lft.to/lastmile_qr_scan"}, "lon": -77.0284195, "type": "electric_scooter", "fusion_lat": 0.0, "lat": 38.928581333333334, "name": "2c00dfd86ed4c83f8fd78a50bfc47490", "fusion_lon": 0.0, "bike_id": "2c00dfd86ed4c83f8fd78a50bfc47490", "is_disabled": 0, "is_reserved": 0}, {"rental_uris": {"ios": "https://dc.lft.to/lastmile_qr_scan", "android": "https://dc.lft.to/lastmile_qr_scan"}, "lon": -77.0506905, "type": "electric_bike", "fusion_lat": 0.0, "lat": 39.061311333333336, "name": "f04d07d65622064ca515f40aa21b2ed8", "fusion_lon": 0.0, "bike_id": "f04d07d65622064ca515f40aa21b2ed8", "is_disabled": 0, "is_reserved": 0}, {"rental_uris": {"ios": "https://dc.lft.to/lastmile_qr_scan", "android": "https://dc.lft.to/lastmile_qr_scan"}, "lon": -77.05932866666667, "type": "electric_scooter", "fusion_lat": 0.0, "lat": 38.90950316666667, "name": "62805f9a96efe607e59975eb4aca8ca1", "fusion_lon": 0.0, "bike_id": "62805f9a96efe607e59975eb4aca8ca1", "is_disabled": 0, "is_reserved": 0}, {"rental_uris": {"ios": "https://dc.lft.to/lastmile_qr_scan", "android": "https://dc.lft.to/lastmile_qr_scan"}, "lon": -77.02448283333334, "type": "electric_scooter", "fusion_lat": 0.0, "lat": 38.937370666666666, "name": "a6f994fb07030d15af529131e40f0a02", "fusion_lon": 0.0, "bike_id": "a6f994fb07030d15af529131e40f0a02", "is_disabled": 0, "is_reserved": 0}, {"rental_uris": {"ios": "https://dc.lft.to/lastmile_qr_scan", "android": "https://dc.lft.to/lastmile_qr_scan"}, "lon": -76.99002883333333, "type": "electric_scooter", "fusion_lat": 0.0, "lat": 38.903845833333335, "name": "2e68f76ba6b040ef8a21cde0c0960490", "fusion_lon": 0.0, "bike_id": "2e68f76ba6b040ef8a21cde0c0960490", "is_disabled": 0, "is_reserved": 0}, {"rental_uris": {"ios": "https://dc.lft.to/lastmile_qr_scan", "android": "https://dc.lft.to/lastmile_qr_scan"}, "lon": -77.035606, "type": "electric_scooter", "fusion_lat": 0.0, "lat": 38.9275, "name": "c2f455e1cfdcd38a398852cd587d2cbd", "fusion_lon": 0.0, "bike_id": "c2f455e1cfdcd38a398852cd587d2cbd", "is_disabled": 0, "is_reserved": 0}, {"rental_uris": {"ios": "https://dc.lft.to/lastmile_qr_scan", "android": "https://dc.lft.to/lastmile_qr_scan"}, "lon": -77.03802266666666, "type": "electric_scooter", "fusion_lat": 0.0, "lat": 38.9300825, "name": "824c909f3bdbea615381333e4b34c244", "fusion_lon": 0.0, "bike_id": "824c909f3bdbea615381333e4b34c244", "is_disabled": 0, "is_reserved": 0}, {"rental_uris": {"ios": "https://dc.lft.to/lastmile_qr_scan", "android": "https://dc.lft.to/lastmile_qr_scan"}, "lon": -77.01016366666667, "type": "electric_scooter", "fusion_lat": 0.0, "lat": 38.918076166666665, "name": "8eb029300c4ef0a8d1c904f6b9d00e3a", "fusion_lon": 0.0, "bike_id": "8eb029300c4ef0a8d1c904f6b9d00e3a", "is_disabled": 0, "is_reserved": 0}, {"rental_uris": {"ios": "https://dc.lft.to/lastmile_qr_scan", "android": "https://dc.lft.to/lastmile_qr_scan"}, "lon": -77.127403, "type": "electric_bike", "fusion_lat": 0.0, "lat": 38.888208666666664, "name": "e2fe5e96c37a9bdbf05323d43f664bdb", "fusion_lon": 0.0, "bike_id": "e2fe5e96c37a9bdbf05323d43f664bdb", "is_disabled": 0, "is_reserved": 0}, {"rental_uris": {"ios": "https://dc.lft.to/lastmile_qr_scan", "android": "https://dc.lft.to/lastmile_qr_scan"}, "lon": -77.08368116666666, "type": "electric_scooter", "fusion_lat": 0.0, "lat": 38.930325333333336, "name": "2f49dc8fe27380ef3896af441c6f7469", "fusion_lon": 0.0, "bike_id": "2f49dc8fe27380ef3896af441c6f7469", "is_disabled": 0, "is_reserved": 0}, {"rental_uris": {"ios": "https://dc.lft.to/lastmile_qr_scan", "android": "https://dc.lft.to/lastmile_qr_scan"}, "lon": -77.04232816666666, "type": "electric_scooter", "fusion_lat": 0.0, "lat": 38.90818083333333, "name": "94d8796fb199079cedd01c63075c9f8d", "fusion_lon": 0.0, "bike_id": "94d8796fb199079cedd01c63075c9f8d", "is_disabled": 0, "is_reserved": 0}, {"rental_uris": {"ios": "https://dc.lft.to/lastmile_qr_scan", "android": "https://dc.lft.to/lastmile_qr_scan"}, "lon": -76.995444, "type": "electric_scooter", "fusion_lat": 0.0, "lat": 38.92661366666667, "name": "83ca48dad020662827fd86cca1ba931d", "fusion_lon": 0.0, "bike_id": "83ca48dad020662827fd86cca1ba931d", "is_disabled": 0, "is_reserved": 0}, {"rental_uris": {"ios": "https://dc.lft.to/lastmile_qr_scan", "android": "https://dc.lft.to/lastmile_qr_scan"}, "lon": -77.049496, "type": "electric_scooter", "fusion_lat": 0.0, "lat": 38.89651466666667, "name": "c2b5954eff4f3afe946bf99128481eda", "fusion_lon": 0.0, "bike_id": "c2b5954eff4f3afe946bf99128481eda", "is_disabled": 0, "is_reserved": 0}, {"rental_uris": {"ios": "https://dc.lft.to/lastmile_qr_scan", "android": "https://dc.lft.to/lastmile_qr_scan"}, "lon": -76.98773383333334, "type": "electric_scooter", "fusion_lat": 0.0, "lat": 38.911717833333334, "name": "63d8664c1d0a629f000fb47e583c0464", "fusion_lon": 0.0, "bike_id": "63d8664c1d0a629f000fb47e583c0464", "is_disabled": 0, "is_reserved": 0}, {"rental_uris": {"ios": "https://dc.lft.to/lastmile_qr_scan", "android": "https://dc.lft.to/lastmile_qr_scan"}, "lon": -77.02614183333333, "type": "electric_scooter", "fusion_lat": 0.0, "lat": 38.9169245, "name": "1188473fe5a4dbb5c32e75c591b9f7d4", "fusion_lon": 0.0, "bike_id": "1188473fe5a4dbb5c32e75c591b9f7d4", "is_disabled": 0, "is_reserved": 0}, {"rental_uris": {"ios": "https://dc.lft.to/lastmile_qr_scan", "android": "https://dc.lft.to/lastmile_qr_scan"}, "lon": -77.0482385, "type": "electric_scooter", "fusion_lat": 0.0, "lat": 38.89622966666667, "name": "6066e369781562630b844ec8bce45d1b", "fusion_lon": 0.0, "bike_id": "6066e369781562630b844ec8bce45d1b", "is_disabled": 0, "is_reserved": 0}, {"rental_uris": {"ios": "https://dc.lft.to/lastmile_qr_scan", "android": "https://dc.lft.to/lastmile_qr_scan"}, "lon": -77.03082116666667, "type": "electric_scooter", "fusion_lat": 0.0, "lat": 38.9347045, "name": "8711ce91b0076726332e0cd9cd89bc55", "fusion_lon": 0.0, "bike_id": "8711ce91b0076726332e0cd9cd89bc55", "is_disabled": 0, "is_reserved": 0}, {"rental_uris": {"ios": "https://dc.lft.to/lastmile_qr_scan", "android": "https://dc.lft.to/lastmile_qr_scan"}, "lon": -77.017693, "type": "electric_scooter", "fusion_lat": 0.0, "lat": 38.903737, "name": "0a7cb562b23c96fc9954e4c92457ef14", "fusion_lon": 0.0, "bike_id": "0a7cb562b23c96fc9954e4c92457ef14", "is_disabled": 0, "is_reserved": 0}, {"rental_uris": {"ios": "https://dc.lft.to/lastmile_qr_scan", "android": "https://dc.lft.to/lastmile_qr_scan"}, "lon": -77.00855466666667, "type": "electric_scooter", "fusion_lat": 0.0, "lat": 38.9259215, "name": "a896d9af8dd3b83f1f65d52032ea9ad3", "fusion_lon": 0.0, "bike_id": "a896d9af8dd3b83f1f65d52032ea9ad3", "is_disabled": 0, "is_reserved": 0}, {"rental_uris": {"ios": "https://dc.lft.to/lastmile_qr_scan", "android": "https://dc.lft.to/lastmile_qr_scan"}, "lon": -77.05110466666666, "type": "electric_scooter", "fusion_lat": 0.0, "lat": 38.9052865, "name": "5ccadcbd6f17612d48c6cd57c9f0cb6a", "fusion_lon": 0.0, "bike_id": "5ccadcbd6f17612d48c6cd57c9f0cb6a", "is_disabled": 0, "is_reserved": 0}, {"rental_uris": {"ios": "https://dc.lft.to/lastmile_qr_scan", "android": "https://dc.lft.to/lastmile_qr_scan"}, "lon": -76.97890516666666, "type": "electric_scooter", "fusion_lat": 0.0, "lat": 38.91671683333333, "name": "b196cb2521a27b42379cc1671c8f97b4", "fusion_lon": 0.0, "bike_id": "b196cb2521a27b42379cc1671c8f97b4", "is_disabled": 0, "is_reserved": 0}, {"rental_uris": {"ios": "https://dc.lft.to/lastmile_qr_scan", "android": "https://dc.lft.to/lastmile_qr_scan"}, "lon": -76.9379905, "type": "electric_scooter", "fusion_lat": 0.0, "lat": 38.912834333333336, "name": "4ad666bff1f0302342859b30ad6549a8", "fusion_lon": 0.0, "bike_id": "4ad666bff1f0302342859b30ad6549a8", "is_disabled": 0, "is_reserved": 0}, {"rental_uris": {"ios": "https://dc.lft.to/lastmile_qr_scan", "android": "https://dc.lft.to/lastmile_qr_scan"}, "lon": -77.01760166666666, "type": "electric_scooter", "fusion_lat": 0.0, "lat": 38.9389425, "name": "6268bf13343a7718e9533994f497f04f", "fusion_lon": 0.0, "bike_id": "6268bf13343a7718e9533994f497f04f", "is_disabled": 0, "is_reserved": 0}, {"rental_uris": {"ios": "https://dc.lft.to/lastmile_qr_scan", "android": "https://dc.lft.to/lastmile_qr_scan"}, "lon": -77.00190183333333, "type": "electric_scooter", "fusion_lat": 0.0, "lat": 38.900421333333334, "name": "9bd4db506193a317ca7d2fbf083e47fb", "fusion_lon": 0.0, "bike_id": "9bd4db506193a317ca7d2fbf083e47fb", "is_disabled": 0, "is_reserved": 0}, {"rental_uris": {"ios": "https://dc.lft.to/lastmile_qr_scan", "android": "https://dc.lft.to/lastmile_qr_scan"}, "lon": -76.93235416666667, "type": "electric_bike", "fusion_lat": 0.0, "lat": 38.865938666666665, "name": "090a7621833fb3d2a8f4502c7c27cbc3", "fusion_lon": 0.0, "bike_id": "090a7621833fb3d2a8f4502c7c27cbc3", "is_disabled": 0, "is_reserved": 0}, {"rental_uris": {"ios": "https://dc.lft.to/lastmile_qr_scan", "android": "https://dc.lft.to/lastmile_qr_scan"}, "lon": -77.054765, "type": "electric_scooter", "fusion_lat": 0.0, "lat": 38.8939035, "name": "4df6b9d1933d3150567f3e3405219913", "fusion_lon": 0.0, "bike_id": "4df6b9d1933d3150567f3e3405219913", "is_disabled": 0, "is_reserved": 0}, {"rental_uris": {"ios": "https://dc.lft.to/lastmile_qr_scan", "android": "https://dc.lft.to/lastmile_qr_scan"}, "lon": -76.98375933333334, "type": "electric_scooter", "fusion_lat": 0.0, "lat": 38.89552066666667, "name": "eac9bdf53a3ef2598e326cc49547f798", "fusion_lon": 0.0, "bike_id": "eac9bdf53a3ef2598e326cc49547f798", "is_disabled": 0, "is_reserved": 0}, {"rental_uris": {"ios": "https://dc.lft.to/lastmile_qr_scan", "android": "https://dc.lft.to/lastmile_qr_scan"}, "lon": -77.0019815, "type": "electric_scooter", "fusion_lat": 0.0, "lat": 38.899752666666664, "name": "2dccf913334ef31257e27473f22be972", "fusion_lon": 0.0, "bike_id": "2dccf913334ef31257e27473f22be972", "is_disabled": 0, "is_reserved": 0}, {"rental_uris": {"ios": "https://dc.lft.to/lastmile_qr_scan", "android": "https://dc.lft.to/lastmile_qr_scan"}, "lon": -77.02605116666666, "type": "electric_bike", "fusion_lat": 0.0, "lat": 38.962661833333335, "name": "96d04ae3c59009210a31573baf384ed1", "fusion_lon": 0.0, "bike_id": "96d04ae3c59009210a31573baf384ed1", "is_disabled": 0, "is_reserved": 0}, {"rental_uris": {"ios": "https://dc.lft.to/lastmile_qr_scan", "android": "https://dc.lft.to/lastmile_qr_scan"}, "lon": -76.9599185, "type": "electric_scooter", "fusion_lat": 0.0, "lat": 38.880437, "name": "8f23fc54ac830455c65d28669925685c", "fusion_lon": 0.0, "bike_id": "8f23fc54ac830455c65d28669925685c", "is_disabled": 0, "is_reserved": 0}, {"rental_uris": {"ios": "https://dc.lft.to/lastmile_qr_scan", "android": "https://dc.lft.to/lastmile_qr_scan"}, "lon": -76.99705333333333, "type": "electric_scooter", "fusion_lat": 0.0, "lat": 38.901037333333335, "name": "e2191385060ef661c258fdff83ae32ff", "fusion_lon": 0.0, "bike_id": "e2191385060ef661c258fdff83ae32ff", "is_disabled": 0, "is_reserved": 0}, {"rental_uris": {"ios": "https://dc.lft.to/lastmile_qr_scan", "android": "https://dc.lft.to/lastmile_qr_scan"}, "lon": -77.06606816666667, "type": "electric_scooter", "fusion_lat": 0.0, "lat": 38.90577183333333, "name": "6adaa7a052e2a3f5326f5b67e56597c0", "fusion_lon": 0.0, "bike_id": "6adaa7a052e2a3f5326f5b67e56597c0", "is_disabled": 0, "is_reserved": 0}, {"rental_uris": {"ios": "https://dc.lft.to/lastmile_qr_scan", "android": "https://dc.lft.to/lastmile_qr_scan"}, "lon": -77.03055516666667, "type": "electric_scooter", "fusion_lat": 0.0, "lat": 38.91719166666667, "name": "533d406de4959e77296750d54b51834d", "fusion_lon": 0.0, "bike_id": "533d406de4959e77296750d54b51834d", "is_disabled": 0, "is_reserved": 0}, {"rental_uris": {"ios": "https://dc.lft.to/lastmile_qr_scan", "android": "https://dc.lft.to/lastmile_qr_scan"}, "lon": -76.94762566666667, "type": "electric_scooter", "fusion_lat": 0.0, "lat": 38.900584, "name": "3315beb1f79b89eea9682415b8b2e5ff", "fusion_lon": 0.0, "bike_id": "3315beb1f79b89eea9682415b8b2e5ff", "is_disabled": 0, "is_reserved": 0}, {"rental_uris": {"ios": "https://dc.lft.to/lastmile_qr_scan", "android": "https://dc.lft.to/lastmile_qr_scan"}, "lon": -76.95901666666667, "type": "electric_bike", "fusion_lat": 0.0, "lat": 38.985059666666665, "name": "3b4a2745e932c1aafeee961a4c406136", "fusion_lon": 0.0, "bike_id": "3b4a2745e932c1aafeee961a4c406136", "is_disabled": 0, "is_reserved": 0}, {"rental_uris": {"ios": "https://dc.lft.to/lastmile_qr_scan", "android": "https://dc.lft.to/lastmile_qr_scan"}, "lon": -76.97293416666666, "type": "electric_scooter", "fusion_lat": 0.0, "lat": 38.90336766666667, "name": "fc824f07bb3873811dfa92f3b65c94f0", "fusion_lon": 0.0, "bike_id": "fc824f07bb3873811dfa92f3b65c94f0", "is_disabled": 0, "is_reserved": 0}, {"rental_uris": {"ios": "https://dc.lft.to/lastmile_qr_scan", "android": "https://dc.lft.to/lastmile_qr_scan"}, "lon": -77.12962766666666, "type": "electric_bike", "fusion_lat": 0.0, "lat": 38.852149, "name": "32306adc8bcff8bce7a5b03458306666", "fusion_lon": 0.0, "bike_id": "32306adc8bcff8bce7a5b03458306666", "is_disabled": 0, "is_reserved": 0}, {"rental_uris": {"ios": "https://dc.lft.to/lastmile_qr_scan", "android": "https://dc.lft.to/lastmile_qr_scan"}, "lon": -77.00285483333333, "type": "electric_bike", "fusion_lat": 0.0, "lat": 38.916123, "name": "affd63e13db08ea71ca63683220add4c", "fusion_lon": 0.0, "bike_id": "affd63e13db08ea71ca63683220add4c", "is_disabled": 0, "is_reserved": 0}, {"rental_uris": {"ios": "https://dc.lft.to/lastmile_qr_scan", "android": "https://dc.lft.to/lastmile_qr_scan"}, "lon": -77.02740516666667, "type": "electric_scooter", "fusion_lat": 0.0, "lat": 38.900036166666666, "name": "81caacf17383b3b72ac12839bc59ed3b", "fusion_lon": 0.0, "bike_id": "81caacf17383b3b72ac12839bc59ed3b", "is_disabled": 0, "is_reserved": 0}, {"rental_uris": {"ios": "https://dc.lft.to/lastmile_qr_scan", "android": "https://dc.lft.to/lastmile_qr_scan"}, "lon": -76.8781865, "type": "electric_bike", "fusion_lat": 0.0, "lat": 38.99234833333333, "name": "927b80df3b58501cddaa310547e58b28", "fusion_lon": 0.0, "bike_id": "927b80df3b58501cddaa310547e58b28", "is_disabled": 0, "is_reserved": 0}, {"rental_uris": {"ios": "https://dc.lft.to/lastmile_qr_scan", "android": "https://dc.lft.to/lastmile_qr_scan"}, "lon": -76.99520416666667, "type": "electric_scooter", "fusion_lat": 0.0, "lat": 38.89480116666667, "name": "dc9da7d1a9fbec38881a4c1d9859b834", "fusion_lon": 0.0, "bike_id": "dc9da7d1a9fbec38881a4c1d9859b834", "is_disabled": 0, "is_reserved": 0},