{"data": {"bikes": [{"is_disabled": 0, "type": "electric_scooter", "fusion_lon": 0.0, "is_reserved": 0, "fusion_lat": 0.0, "lon": -77.0221915, "rental_uris": {"ios": "https://dc.lft.to/lastmile_qr_scan", "android": "https://dc.lft.to/lastmile_qr_scan"}, "bike_id": "8b6b695812f3f992617a4d79c0c16f19", "lat": 38.92225766666667, "name": "8b6b695812f3f992617a4d79c0c16f19"}, {"is_disabled": 0, "type": "electric_bike", "fusion_lon": 0.0, "is_reserved": 0, "fusion_lat": 0.0, "lon": -77.0802165, "rental_uris": {"ios": "https://dc.lft.to/lastmile_qr_scan", "android": "https://dc.lft.to/lastmile_qr_scan"}, "bike_id": "e8c0716763a5b7631083a734693c95e0", "lat": 38.957750833333336, "name": "e8c0716763a5b7631083a734693c95e0"}, {"is_disabled": 0, "type": "electric_scooter", "fusion_lon": 0.0, "is_reserved": 0, "fusion_lat": 0.0, "lon": -77.02256216666666, "rental_uris": {"ios": "https://dc.lft.to/lastmile_qr_scan", "android": "https://dc.lft.to/lastmile_qr_scan"}, "bike_id": "cb0a365932230b002fbf9abd9e72fa10", "lat": 38.896329, "name": "cb0a365932230b002fbf9abd9e72fa10"}, {"is_disabled": 0, "type": "electric_scooter", "fusion_lon": 0.0, "is_reserved": 0, "fusion_lat": 0.0, "lon": -77.033378, "rental_uris": {"ios": "https://dc.lft.to/lastmile_qr_scan", "android": "https://dc.lft.to/lastmile_qr_scan"}, "bike_id": "bc6684cacb35fa721eca3e268d255f36", "lat": 38.90575066666667, "name": "bc6684cacb35fa721eca3e268d255f36"}, {"is_disabled": 0, "type": "electric_scooter", "fusion_lon": 0.0, "is_reserved": 0, "fusion_lat": 0.0, "lon": -76.94697083333334, "rental_uris": {"ios": "https://dc.lft.to/lastmile_qr_scan", "android": "https://dc.lft.to/lastmile_qr_scan"}, "bike_id": "31a6df6184ac1b020768d23349cf2c83", "lat": 38.89359016666667, "name": "31a6df6184ac1b020768d23349cf2c83"}, {"is_disabled": 0, "type": "electric_scooter", "fusion_lon": 0.0, "is_reserved": 0, "fusion_lat": 0.0, "lon": -77.018546, "rental_uris": {"ios": "https://dc.lft.to/lastmile_qr_scan", "android": "https://dc.lft.to/lastmile_qr_scan"}, "bike_id": "004ed08c24bf98fa75147ea560db861d", "lat": 38.948887, "name": "004ed08c24bf98fa75147ea560db861d"}, {"is_disabled": 0, "type": "electric_bike", "fusion_lon": 0.0, "is_reserved": 0, "fusion_lat": 0.0, "lon": -76.975576, "rental_uris": {"ios": "https://dc.lft.to/lastmile_qr_scan", "android": "https://dc.lft.to/lastmile_qr_scan"}, "bike_id": "bac690b70f9689e2566fa119c02e6984", "lat": 38.8726555, "name": "bac690b70f9689e2566fa119c02e6984"}, {"is_disabled": 0, "type": "electric_scooter", "fusion_lon": 0.0, "is_reserved": 0, "fusion_lat": 0.0, "lon": -77.0513115, "rental_uris": {"ios": "https://dc.lft.to/lastmile_qr_scan", "android": "https://dc.lft.to/lastmile_qr_scan"}, "bike_id": "c59357fb6c21259babcab27cfcca5179", "lat": 38.92362966666666, "name": "c59357fb6c21259babcab27cfcca5179"}, {"is_disabled": 0, "type": "electric_scooter", "fusion_lon": 0.0, "is_reserved": 0, "fusion_lat": 0.0, "lon": -77.016948, "rental_uris": {"ios": "https://dc.lft.to/lastmile_qr_scan", "android": "https://dc.lft.to/lastmile_qr_scan"}, "bike_id": "2460849d6db0315cdfd878a503dc395e", "lat": 38.902598, "name": "2460849d6db0315cdfd878a503dc395e"}, {"is_disabled": 0, "type": "electric_scooter", "fusion_lon": 0.0, "is_reserved": 0, "fusion_lat": 0.0, "lon": -77.02894066666667, "rental_uris": {"ios": "https://dc.lft.to/lastmile_qr_scan", "android": "https://dc.lft.to/lastmile_qr_scan"}, "bike_id": "86aa28e8934259cf4b56bae2eb2fd405", "lat": 38.925693, "name": "86aa28e8934259cf4b56bae2eb2fd405"}, {"is_disabled": 0, "type": "electric_bike", "fusion_lon": 0.0, "is_reserved": 0, "fusion_lat": 0.0, "lon": -76.99094433333333, "rental_uris": {"ios": "https://dc.lft.to/lastmile_qr_scan", "android": "https://dc.lft.to/lastmile_qr_scan"}, "bike_id": "ac0df415e56733755798da76d3bb927b", "lat": 38.804808, "name": "ac0df415e56733755798da76d3bb927b"}, {"is_disabled": 0, "type": "electric_scooter", "fusion_lon": 0.0, "is_reserved": 0, "fusion_lat": 0.0, "lon": -77.04513233333333, "rental_uris": {"ios": "https://dc.lft.to/lastmile_qr_scan", "android": "https://dc.lft.to/lastmile_qr_scan"}, "bike_id": "5db0532f90dd43f18177b0354a3db437", "lat": 38.899783166666666, "name": "5db0532f90dd43f18177b0354a3db437"}, {"is_disabled": 0, "type": "electric_scooter", "fusion_lon": 0.0, "is_reserved": 0, "fusion_lat": 0.0, "lon": -77.03706383333333, "rental_uris": {"ios": "https://dc.lft.to/lastmile_qr_scan", "android": "https://dc.lft.to/lastmile_qr_scan"}, "bike_id": "e65791db0cae5ef3cc4fa3519eccef86", "lat": 38.93062466666667, "name": "e65791db0cae5ef3cc4fa3519eccef86"}, {"is_disabled": 0, "type": "electric_scooter", "fusion_lon": 0.0, "is_reserved": 0, "fusion_lat": 0.0, "lon": -77.038653, "rental_uris": {"ios": "https://dc.lft.to/lastmile_qr_scan", "android": "https://dc.lft.to/lastmile_qr_scan"}, "bike_id": "66c286637aae8eac63b72f95635278d6", "lat": 38.91710483333333, "name": "66c286637aae8eac63b72f95635278d6"}, {"is_disabled": 0, "type": "electric_bike", "fusion_lon": 0.0, "is_reserved": 0, "fusion_lat": 0.0, "lon": -77.12739466666666, "rental_uris": {"ios": "https://dc.lft.to/lastmile_qr_scan", "android": "https://dc.lft.to/lastmile_qr_scan"}, "bike_id": "09947c400c29085419ca7722ed46bbb6", "lat": 38.895651, "name": "09947c400c29085419ca7722ed46bbb6"}, {"is_disabled": 0, "type": "electric_scooter", "fusion_lon": 0.0, "is_reserved": 0, "fusion_lat": 0.0, "lon": -76.94581516666666, "rental_uris": {"ios": "https://dc.lft.to/lastmile_qr_scan", "android": "https://dc.lft.to/lastmile_qr_scan"}, "bike_id": "3c8d06dc4be5034e1650d348b17f7760", "lat": 38.89929266666667, "name": "3c8d06dc4be5034e1650d348b17f7760"}, {"is_disabled": 0, "type": "electric_scooter", "fusion_lon": 0.0, "is_reserved": 0, "fusion_lat": 0.0, "lon": -77.04464916666667, "rental_uris": {"ios": "https://dc.lft.to/lastmile_qr_scan", "android": "https://dc.lft.to/lastmile_qr_scan"}, "bike_id": "729affa3074d45a3e1d0d899d81caaa8", "lat": 38.9153335, "name": "729affa3074d45a3e1d0d899d81caaa8"}, {"is_disabled": 0, "type": "electric_scooter", "fusion_lon": 0.0, "is_reserved": 0, "fusion_lat": 0.0, "lon": -77.0336805, "rental_uris": {"ios": "https://dc.lft.to/lastmile_qr_scan", "android": "https://dc.lft.to/lastmile_qr_scan"}, "bike_id": "6ddaba3c02df729da3bc729bf3771ef1", "lat": 38.901140833333336, "name": "6ddaba3c02df729da3bc729bf3771ef1"}, {"is_disabled": 0, "type": "electric_bike", "fusion_lon": 0.0, "is_reserved": 0, "fusion_lat": 0.0, "lon": -76.970715, "rental_uris": {"ios": "https://dc.lft.to/lastmile_qr_scan", "android": "https://dc.lft.to/lastmile_qr_scan"}, "bike_id": "6cc7bc899fc717e912240f2e4860e881", "lat": 38.920593, "name": "6cc7bc899fc717e912240f2e4860e881"}, {"is_disabled": 0, "type": "electric_bike", "fusion_lon": 0.0, "is_reserved": 0, "fusion_lat": 0.0, "lon": -77.03879016666667, "rental_uris": {"ios": "https://dc.lft.to/lastmile_qr_scan", "android": "https://dc.lft.to/lastmile_qr_scan"}, "bike_id": "7609372ac8cfe39688fcfe1f67f240cc", "lat": 39.026233, "name": "7609372ac8cfe39688fcfe1f67f240cc"}, {"is_disabled": 0, "type": "electric_scooter", "fusion_lon": 0.0, "is_reserved": 0, "fusion_lat": 0.0, "lon": -77.0414315, "rental_uris": {"ios": "https://dc.lft.to/lastmile_qr_scan", "android": "https://dc.lft.to/lastmile_qr_scan"}, "bike_id": "0e050e0f5d8fadd1b2a066090485b609", "lat": 38.9235275, "name": "0e050e0f5d8fadd1b2a066090485b609"}, {"is_disabled": 0, "type": "electric_bike", "fusion_lon": 0.0, "is_reserved": 0, "fusion_lat": 0.0, "lon": -76.99892733333333, "rental_uris": {"ios": "https://dc.lft.to/lastmile_qr_scan", "android": "https://dc.lft.to/lastmile_qr_scan"}, "bike_id": "8b18d3522589e5900928fdc53e9c5d43", "lat": 38.94302616666667, "name": "8b18d3522589e5900928fdc53e9c5d43"}, {"is_disabled": 0, "type": "electric_scooter", "fusion_lon": 0.0, "is_reserved": 0, "fusion_lat": 0.0, "lon": -77.02412483333333, "rental_uris": {"ios": "https://dc.lft.to/lastmile_qr_scan", "android": "https://dc.lft.to/lastmile_qr_scan"}, "bike_id": "45157f970109bac40e5c3172ef51200a", "lat": 38.8922805, "name": "45157f970109bac40e5c3172ef51200a"}, {"is_disabled": 0, "type": "electric_bike", "fusion_lon": 0.0, "is_reserved": 0, "fusion_lat": 0.0, "lon": -76.95675583333333, "rental_uris": {"ios": "https://dc.lft.to/lastmile_qr_scan", "android": "https://dc.lft.to/lastmile_qr_scan"}, "bike_id": "1cd456d1f0861c222440f36db13f620b", "lat": 38.95535783333333, "name": "1cd456d1f0861c222440f36db13f620b"}, {"is_disabled": 0, "type": "electric_scooter", "fusion_lon": 0.0, "is_reserved": 0, "fusion_lat": 0.0, "lon": -77.02372216666667, "rental_uris": {"ios": "https://dc.lft.to/lastmile_qr_scan", "android": "https://dc.lft.to/lastmile_qr_scan"}, "bike_id": "bf2a2864136f0e4d054be879d1fa7e53", "lat": 38.8919735, "name": "bf2a2864136f0e4d054be879d1fa7e53"}, {"is_disabled": 0, "type": "electric_scooter", "fusion_lon": 0.0, "is_reserved": 0, "fusion_lat": 0.0, "lon": -77.049995, "rental_uris": {"ios": "https://dc.lft.to/lastmile_qr_scan", "android": "https://dc.lft.to/lastmile_qr_scan"}, "bike_id": "cd60eadfff3b670304da58a22f3004bd", "lat": 38.901430166666664, "name": "cd60eadfff3b670304da58a22f3004bd"}, {"is_disabled": 0, "type": "electric_scooter", "fusion_lon": 0.0, "is_reserved": 0, "fusion_lat": 0.0, "lon": -77.001982, "rental_uris": {"ios": "https://dc.lft.to/lastmile_qr_scan", "android": "https://dc.lft.to/lastmile_qr_scan"}, "bike_id": "a9de266faed0872f2d09464134322594", "lat": 38.93083416666666, "name": "a9de266faed0872f2d09464134322594"}, {"is_disabled": 0, "type": "electric_scooter", "fusion_lon": 0.0, "is_reserved": 0, "fusion_lat": 0.0, "lon": -77.03342216666667, "rental_uris": {"ios": "https://dc.lft.to/lastmile_qr_scan", "android": "https://dc.lft.to/lastmile_qr_scan"}, "bike_id": "2dbb11564cf9046b9df9bfb4de6b8bbd", "lat": 38.9287205, "name": "2dbb11564cf9046b9df9bfb4de6b8bbd"}, {"is_disabled": 0, "type": "electric_scooter", "fusion_lon": 0.0, "is_reserved": 0, "fusion_lat": 0.0, "lon": -77.02832183333334, "rental_uris": {"ios": "https://dc.lft.to/lastmile_qr_scan", "android": "https://dc.lft.to/lastmile_qr_scan"}, "bike_id": "488ae24c659b22f6e43a286be82fe3de", "lat": 38.93886116666667, "name": "488ae24c659b22f6e43a286be82fe3de"}, {"is_disabled": 0, "type": "electric_scooter", "fusion_lon": 0.0, "is_reserved": 0, "fusion_lat": 0.0, "lon": -77.0544325, "rental_uris": {"ios": "https://dc.lft.to/lastmile_qr_scan", "android": "https://dc.lft.to/lastmile_qr_scan"}, "bike_id": "0b3178954001ff0ca9b82689cb35b290", "lat": 38.9147435, "name": "0b3178954001ff0ca9b82689cb35b290"}, {"is_disabled": 0, "type": "electric_scooter", "fusion_lon": 0.0, "is_reserved": 0, "fusion_lat": 0.0, "lon": -77.02197816666667, "rental_uris": {"ios": "https://dc.lft.to/lastmile_qr_scan", "android": "https://dc.lft.to/lastmile_qr_scan"}, "bike_id": "41a4a90434a41c3c4bb87e7000083a27", "lat": 38.899895666666666, "name": "41a4a90434a41c3c4bb87e7000083a27"}, {"is_disabled": 0, "type": "electric_bike", "fusion_lon": 0.0, "is_reserved": 0, "fusion_lat": 0.0, "lon": -76.94538483333334, "rental_uris": {"ios": "https://dc.lft.to/lastmile_qr_scan", "android": "https://dc.lft.to/lastmile_qr_scan"}, "bike_id": "78958cf6208a1d8b1cac7fa00d53612f", "lat": 38.8675705, "name": "78958cf6208a1d8b1cac7fa00d53612f"}, {"is_disabled": 0, "type": "electric_scooter", "fusion_lon": 0.0, "is_reserved": 0, "fusion_lat": 0.0, "lon": -77.00288266666666, "rental_uris": {"ios": "https://dc.lft.to/lastmile_qr_scan", "android": "https://dc.lft.to/lastmile_qr_scan"}, "bike_id": "184d03fa5739d33ef78e870cb1fbbb6f", "lat": 38.8935735, "name": "184d03fa5739d33ef78e870cb1fbbb6f"}, {"is_disabled": 0, "type": "electric_scooter", "fusion_lon": 0.0, "is_reserved": 0, "fusion_lat": 0.0, "lon": -77.02216916666667, "rental_uris": {"ios": "https://dc.lft.to/lastmile_qr_scan", "android": "https://dc.lft.to/lastmile_qr_scan"}, "bike_id": "2eb6cf83bf490c2fbd5346a4da066f5f", "lat": 38.90539666666667, "name": "2eb6cf83bf490c2fbd5346a4da066f5f"}, {"is_disabled": 0, "type": "electric_scooter", "fusion_lon": 0.0, "is_reserved": 0, "fusion_lat": 0.0, "lon": -77.063389, "rental_uris": {"ios": "https://dc.lft.to/lastmile_qr_scan", "android": "https://dc.lft.to/lastmile_qr_scan"}, "bike_id": "04a535429170461096a61f9972e9414c", "lat": 38.944136666666665, "name": "04a535429170461096a61f9972e9414c"}, {"is_disabled": 0, "type": "electric_scooter", "fusion_lon": 0.0, "is_reserved": 0, "fusion_lat": 0.0, "lon": -77.01292116666667, "rental_uris": {"ios": "https://dc.lft.to/lastmile_qr_scan", "android": "https://dc.lft.to/lastmile_qr_scan"}, "bike_id": "955ef008972179596c138f356a435eb9", "lat": 38.90089283333333, "name": "955ef008972179596c138f356a435eb9"}, {"is_disabled": 0, "type": "electric_scooter", "fusion_lon": 0.0, "is_reserved": 0, "fusion_lat": 0.0, "lon": -77.025806, "rental_uris": {"ios": "https://dc.lft.to/lastmile_qr_scan", "android": "https://dc.lft.to/lastmile_qr_scan"}, "bike_id": "bc06aaa121eb84ad344db8672df5435d", "lat": 38.904245, "name": "bc06aaa121eb84ad344db8672df5435d"}, {"is_disabled": 0, "type": "electric_scooter", "fusion_lon": 0.0, "is_reserved": 0, "fusion_lat": 0.0, "lon": -77.03828816666666, "rental_uris": {"ios": "https://dc.lft.to/lastmile_qr_scan", "android": "https://dc.lft.to/lastmile_qr_scan"}, "bike_id": "3c996ae90f2040293a69f4e6f286d8a0", "lat": 38.902689, "name": "3c996ae90f2040293a69f4e6f286d8a0"}, {"is_disabled": 0, "type": "electric_scooter", "fusion_lon": 0.0, "is_reserved": 0, "fusion_lat": 0.0, "lon": -77.00292233333333, "rental_uris": {"ios": "https://dc.lft.to/lastmile_qr_scan", "android": "https://dc.lft.to/lastmile_qr_scan"}, "bike_id": "3627b382aa53f4d7c92177ab7e4a6ac6", "lat": 38.891988, "name": "3627b382aa53f4d7c92177ab7e4a6ac6"}, {"is_disabled": 0, "type": "electric_scooter", "fusion_lon": 0.0, "is_reserved": 0, "fusion_lat": 0.0, "lon": -77.02206833333334, "rental_uris": {"ios": "https://dc.lft.to/lastmile_qr_scan", "android": "https://dc.lft.to/lastmile_qr_scan"}, "bike_id": "209b4a9ebb20fc123910f8811163f782", "lat": 38.894091833333334, "name": "209b4a9ebb20fc123910f8811163f782"}, {"is_disabled": 0, "type": "electric_scooter", "fusion_lon": 0.0, "is_reserved": 0, "fusion_lat": 0.0, "lon": -77.03192933333334, "rental_uris": {"ios": "https://dc.lft.to/lastmile_qr_scan", "android": "https://dc.lft.to/lastmile_qr_scan"}, "bike_id": "87051a1f780bfc09cc04d232ee0f4d70", "lat": 38.90125916666667, "name": "87051a1f780bfc09cc04d232ee0f4d70"}, {"is_disabled": 0, "type": "electric_scooter", "fusion_lon": 0.0, "is_reserved": 0, "fusion_lat": 0.0, "lon": -77.0202855, "rental_uris": {"ios": "https://dc.lft.to/lastmile_qr_scan", "android": "https://dc.lft.to/lastmile_qr_scan"}, "bike_id": "38cfc08014ba8ab4b4de14273b6427cf", "lat": 38.92454, "name": "38cfc08014ba8ab4b4de14273b6427cf"}, {"is_disabled": 0, "type": "electric_bike", "fusion_lon": 0.0, "is_reserved": 0, "fusion_lat": 0.0, "lon": -77.11408616666667, "rental_uris": {"ios": "https://dc.lft.to/lastmile_qr_scan", "android": "https://dc.lft.to/lastmile_qr_scan"}, "bike_id": "bfcb145c714decee9513624b01449f95", "lat": 38.873158333333336, "name": "bfcb145c714decee9513624b01449f95"}, {"is_disabled": 0, "type": "electric_scooter", "fusion_lon": 0.0, "is_reserved": 0, "fusion_lat": 0.0, "lon": -77.003338, "rental_uris": {"ios": "https://dc.lft.to/lastmile_qr_scan", "android": "https://dc.lft.to/lastmile_qr_scan"}, "bike_id": "2b73f044636a05a1d5e586147a8b3743", "lat": 38.893547, "name": "2b73f044636a05a1d5e586147a8b3743"}, {"is_disabled": 0, "type": "electric_scooter", "fusion_lon": 0.0, "is_reserved": 0, "fusion_lat": 0.0, "lon": -77.00923516666667, "rental_uris": {"ios": "https://dc.lft.to/lastmile_qr_scan", "android": "https://dc.lft.to/lastmile_qr_scan"}, "bike_id": "8352b593817d988aea96fad33a9d6129", "lat": 38.913477, "name": "8352b593817d988aea96fad33a9d6129"}, {"is_disabled": 0, "type": "electric_scooter", "fusion_lon": 0.0, "is_reserved": 0, "fusion_lat": 0.0, "lon": -77.04880033333333, "rental_uris": {"ios": "https://dc.lft.to/lastmile_qr_scan", "android": "https://dc.lft.to/lastmile_qr_scan"}, "bike_id": "525724df240d4606dcf26851377099c3", "lat": 38.897992, "name": "525724df240d4606dcf26851377099c3"}, {"is_disabled": 0, "type": "electric_scooter", "fusion_lon": 0.0, "is_reserved": 0, "fusion_lat": 0.0, "lon": -77.02212133333333, "rental_uris": {"ios": "https://dc.lft.to/lastmile_qr_scan", "android": "https://dc.lft.to/lastmile_qr_scan"}, "bike_id": "8740e82e9273e7f66dc3f535f64453eb", "lat": 38.91402216666667, "name": "8740e82e9273e7f66dc3f535f64453eb"}, {"is_disabled": 0, "type": "electric_scooter", "fusion_lon": 0.0, "is_reserved": 0, "fusion_lat": 0.0, "lon": -77.04164966666667, "rental_uris": {"ios": "https://dc.lft.to/lastmile_qr_scan", "android": "https://dc.lft.to/lastmile_qr_scan"}, "bike_id": "d56999b892c1e4b18ee5f30decd0441c", "lat": 38.8974395, "name": "d56999b892c1e4b18ee5f30decd0441c"}, {"is_disabled": 0, "type": "electric_scooter", "fusion_lon": 0.0, "is_reserved": 0, "fusion_lat": 0.0, "lon": -77.00016516666666, "rental_uris": {"ios": "https://dc.lft.to/lastmile_qr_scan", "android": "https://dc.lft.to/lastmile_qr_scan"}, "bike_id": "db59003c041f7b17f6e6fa8956b7d4d1", "lat": 38.87393683333333, "name": "db59003c041f7b17f6e6fa8956b7d4d1"}, {"is_disabled": 0, "type": "electric_scooter", "fusion_lon": 0.0, "is_reserved": 0, "fusion_lat": 0.0, "lon": -77.05841016666666, "rental_uris": {"ios": "https://dc.lft.to/lastmile_qr_scan", "android": "https://dc.lft.to/lastmile_qr_scan"}, "bike_id": "55216fe287f34b8df0a426cc7129fb28", "lat": 38.93586833333333, "name": "55216fe287f34b8df0a426cc7129fb28"}, {"is_disabled": 0, "type": "electric_scooter", "fusion_lon": 0.0, "is_reserved": 0, "fusion_lat": 0.0, "lon": -77.00290883333334, "rental_uris": {"ios": "https://dc.lft.to/lastmile_qr_scan", "android": "https://dc.lft.to/lastmile_qr_scan"}, "bike_id": "788cc1e5eb29f7c8e609e37eb3ac6dc4", "lat": 38.9055525, "name": "788cc1e5eb29f7c8e609e37eb3ac6dc4"}, {"is_disabled": 0, "type": "electric_bike", "fusion_lon": 0.0, "is_reserved": 0, "fusion_lat": 0.0, "lon": -76.90182116666666, "rental_uris": {"ios": "https://dc.lft.to/lastmile_qr_scan", "android": "https://dc.lft.to/lastmile_qr_scan"}, "bike_id": "5eacdb9d7a4e5220818b51e270615d6f", "lat": 39.001871, "name": "5eacdb9d7a4e5220818b51e270615d6f"}, {"is_disabled": 0, "type": "electric_scooter", "fusion_lon": 0.0, "is_reserved": 0, "fusion_lat": 0.0, "lon": -77.04159766666666, "rental_uris": {"ios": "https://dc.lft.to/lastmile_qr_scan", "android": "https://dc.lft.to/lastmile_qr_scan"}, "bike_id": "c6517bb9e7b7fb6ad4f7ea4bdd2eb071", "lat": 38.91744716666667, "name": "c6517bb9e7b7fb6ad4f7ea4bdd2eb071"}, {"is_disabled": 0, "type": "electric_scooter", "fusion_lon": 0.0, "is_reserved": 0, "fusion_lat": 0.0, "lon": -76.93387916666667, "rental_uris": {"ios": "https://dc.lft.to/lastmile_qr_scan", "android": "https://dc.lft.to/lastmile_qr_scan"}, "bike_id": "e184038e9489e81c93684325baf9a6b8", "lat": 38.899108166666664, "name": "e184038e9489e81c93684325baf9a6b8"}, {"is_disabled": 0, "type": "electric_scooter", "fusion_lon": 0.0, "is_reserved": 0, "fusion_lat": 0.0, "lon": -77.0277365, "rental_uris": {"ios": "https://dc.lft.to/lastmile_qr_scan", "android": "https://dc.lft.to/lastmile_qr_scan"}, "bike_id": "b81b9b127307fe2ae2743001ad463e86", "lat": 38.89219516666667, "name": "b81b9b127307fe2ae2743001ad463e86"}, {"is_disabled": 0, "type": "electric_scooter", "fusion_lon": 0.0, "is_reserved": 0, "fusion_lat": 0.0, "lon": -76.9773565, "rental_uris": {"ios": "https://dc.lft.to/lastmile_qr_scan", "android": "https://dc.lft.to/lastmile_qr_scan"}, "bike_id": "394796da2c23c5b897491633f09866af", "lat": 38.87138083333333, "name": "394796da2c23c5b897491633f09866af"}, {"is_disabled": 0, "type": "electric_scooter", "fusion_lon": 0.0, "is_reserved": 0, "fusion_lat": 0.0, "lon": -77.041907, "rental_uris": {"ios": "https://dc.lft.to/lastmile_qr_scan", "android": "https://dc.lft.to/lastmile_qr_scan"}, "bike_id": "ad464e701dd20d512fd68cecbf758736", "lat": 38.9233035, "name": "ad464e701dd20d512fd68cecbf758736"}, {"is_disabled": 0, "type": "electric_scooter", "fusion_lon": 0.0, "is_reserved": 0, "fusion_lat": 0.0, "lon": -77.03348583333333, "rental_uris": {"ios": "https://dc.lft.to/lastmile_qr_scan", "android": "https://dc.lft.to/lastmile_qr_scan"}, "bike_id": "5a90bddf7c219f6cbdd348f9e3d3f506", "lat": 38.892424, "name": "5a90bddf7c219f6cbdd348f9e3d3f506"}, {"is_disabled": 0, "type": "electric_scooter", "fusion_lon": 0.0, "is_reserved": 0, "fusion_lat": 0.0, "lon": -76.994491, "rental_uris": {"ios": "https://dc.lft.to/lastmile_qr_scan", "android": "https://dc.lft.to/lastmile_qr_scan"}, "bike_id": "a55fe63ae07d0b6eebb9ae15bc354ec4", "lat": 38.9082695, "name": "a55fe63ae07d0b6eebb9ae15bc354ec4"}, {"is_disabled": 0, "type": "electric_scooter", "fusion_lon": 0.0, "is_reserved": 0, "fusion_lat": 0.0, "lon": -77.04021066666667, "rental_uris": {"ios": "https://dc.lft.to/lastmile_qr_scan", "android": "https://dc.lft.to/lastmile_qr_scan"}, "bike_id": "0cdc12426a1979887d10012c50e73a17", "lat": 38.90218683333333, "name": "0cdc12426a1979887d10012c50e73a17"}, {"is_disabled": 0, "type": "electric_scooter", "fusion_lon": 0.0, "is_reserved": 0, "fusion_lat": 0.0, "lon": -76.98799183333334, "rental_uris": {"ios": "https://dc.lft.to/lastmile_qr_scan", "android": "https://dc.lft.to/lastmile_qr_scan"}, "bike_id": "419cdd3c2c515f7efd4c720eaca63c15", "lat": 38.90594466666667, "name": "419cdd3c2c515f7efd4c720eaca63c15"}, {"is_disabled": 0, "type": "electric_scooter", "fusion_lon": 0.0, "is_reserved": 0, "fusion_lat": 0.0, "lon": -77.02082633333333, "rental_uris": {"ios": "https://dc.lft.to/lastmile_qr_scan", "android": "https://dc.lft.to/lastmile_qr_scan"}, "bike_id": "afe8e329862e4efbe0fe964577414601", "lat": 38.9190705, "name": "afe8e329862e4efbe0fe964577414601"}, {"is_disabled": 0, "type": "electric_scooter", "fusion_lon": 0.0, "is_reserved": 0, "fusion_lat": 0.0, "lon": -77.0060815, "rental_uris": {"ios": "https://dc.lft.to/lastmile_qr_scan", "android": "https://dc.lft.to/lastmile_qr_scan"}, "bike_id": "0094972ba2e95a22d19f506a421e5a38", "lat": 38.906389, "name": "0094972ba2e95a22d19f506a421e5a38"}, {"is_disabled": 0, "type": "electric_scooter", "fusion_lon": 0.0, "is_reserved": 0, "fusion_lat": 0.0, "lon": -77.040042, "rental_uris": {"ios": "https://dc.lft.to/lastmile_qr_scan", "android": "https://dc.lft.to/lastmile_qr_scan"}, "bike_id": "727de5fc1b5d12cbe6dde608f99bfff4", "lat": 38.908402333333335, "name": "727de5fc1b5d12cbe6dde608f99bfff4"}, {"is_disabled": 0, "type": "electric_scooter", "fusion_lon": 0.0, "is_reserved": 0, "fusion_lat": 0.0, "lon": -77.0505045, "rental_uris": {"ios": "https://dc.lft.to/lastmile_qr_scan", "android": "https://dc.lft.to/lastmile_qr_scan"}, "bike_id": "e064e6993edb62b5dbaf352871c8d7c5", "lat": 38.903066, "name": "e064e6993edb62b5dbaf352871c8d7c5"}, {"is_disabled": 0, "type": "electric_scooter", "fusion_lon": 0.0, "is_reserved": 0, "fusion_lat": 0.0, "lon": -77.041717, "rental_uris": {"ios": "https://dc.lft.to/lastmile_qr_scan", "android": "https://dc.lft.to/lastmile_qr_scan"}, "bike_id": "9ec2c13168c64652ad37bd66c74f8de9", "lat": 38.917715333333334, "name": "9ec2c13168c64652ad37bd66c74f8de9"}, {"is_disabled": 0, "type": "electric_scooter", "fusion_lon": 0.0, "is_reserved": 0, "fusion_lat": 0.0, "lon": -77.02087483333334, "rental_uris": {"ios": "https://dc.lft.to/lastmile_qr_scan", "android": "https://dc.lft.to/lastmile_qr_scan"}, "bike_id": "4403ac4f3f7f6c368bfd7801c0f4eda3", "lat": 38.92158466666667, "name": "4403ac4f3f7f6c368bfd7801c0f4eda3"}, {"is_disabled": 0, "type": "electric_scooter", "fusion_lon": 0.0, "is_reserved": 0, "fusion_lat": 0.0, "lon": -77.0285245, "rental_uris": {"ios": "https://dc.lft.to/lastmile_qr_scan", "android": "https://dc.lft.to/lastmile_qr_scan"}, "bike_id": "10f8d681173d7f7d3291497450f40c9e", "lat": 38.8984025, "name": "10f8d681173d7f7d3291497450f40c9e"}, {"is_disabled": 0, "type": "electric_scooter", "fusion_lon": 0.0, "is_reserved": 0, "fusion_lat": 0.0, "lon": -77.02582683333333, "rental_uris": {"ios": "https://dc.lft.to/lastmile_qr_scan", "android": "https://dc.lft.to/lastmile_qr_scan"}, "bike_id": "e9154bd65e9f7e5d30a8e317647c0416", "lat": 38.9203325, "name": "e9154bd65e9f7e5d30a8e317647c0416"}, {"is_disabled": 0, "type": "electric_scooter", "fusion_lon": 0.0, "is_reserved": 0, "fusion_lat": 0.0, "lon": -77.027939, "rental_uris": {"ios": "https://dc.lft.to/lastmile_qr_scan", "android": "https://dc.lft.to/lastmile_qr_scan"}, "bike_id": "64ada9245c2cbc85698f8e57aeb89d32", "lat": 38.898739166666665, "name": "64ada9245c2cbc85698f8e57aeb89d32"}, {"is_disabled": 0, "type": "electric_scooter", "fusion_lon": 0.0, "is_reserved": 0, "fusion_lat": 0.0, "lon": -77.02399716666666, "rental_uris": {"ios": "https://dc.lft.to/lastmile_qr_scan", "android": "https://dc.lft.to/lastmile_qr_scan"}, "bike_id": "ab26bae21f23b1e0feb0774cc3378d9e", "lat": 38.900371166666666, "name": "ab26bae21f23b1e0feb0774cc3378d9e"}, {"is_disabled": 0, "type": "electric_scooter", "fusion_lon": 0.0, "is_reserved": 0, "fusion_lat": 0.0, "lon": -77.0087685, "rental_uris": {"ios": "https://dc.lft.to/lastmile_qr_scan", "android": "https://dc.lft.to/lastmile_qr_scan"}, "bike_id": "8d55cae700e67c1a55b7cdb8d41d9cf2", "lat": 38.909871, "name": "8d55cae700e67c1a55b7cdb8d41d9cf2"}, {"is_disabled": 0, "type": "electric_scooter", "fusion_lon": 0.0, "is_reserved": 0, "fusion_lat": 0.0, "lon": -76.97805616666666, "rental_uris": {"ios": "https://dc.lft.to/lastmile_qr_scan", "android": "https://dc.lft.to/lastmile_qr_scan"}, "bike_id": "bb05821a94ac3e02d2ab3bd532e887d0", "lat": 38.920340833333334, "name": "bb05821a94ac3e02d2ab3bd532e887d0"}, {"is_disabled": 0, "type": "electric_scooter", "fusion_lon": 0.0, "is_reserved": 0, "fusion_lat": 0.0, "lon": -77.03621816666667, "rental_uris": {"ios": "https://dc.lft.to/lastmile_qr_scan", "android": "https://dc.lft.to/lastmile_qr_scan"}, "bike_id": "431da783a75704c6d0beb8f251081ace", "lat": 38.923317833333336, "name": "431da783a75704c6d0beb8f251081ace"}, {"is_disabled": 0, "type": "electric_scooter", "fusion_lon": 0.0, "is_reserved": 0, "fusion_lat": 0.0, "lon": -77.0254475, "rental_uris": {"ios": "https://dc.lft.to/lastmile_qr_scan", "android": "https://dc.lft.to/lastmile_qr_scan"}, "bike_id": "0926155c1d6b0b6e413147e63dadcecd", "lat": 38.9328255, "name": "0926155c1d6b0b6e413147e63dadcecd"}, {"is_disabled": 0, "type": "electric_scooter", "fusion_lon": 0.0, "is_reserved": 0, "fusion_lat": 0.0, "lon": -77.04361083333333, "rental_uris": {"ios": "https://dc.lft.to/lastmile_qr_scan", "android": "https://dc.lft.to/lastmile_qr_scan"}, "bike_id": "3e957741a6563a77376d70e94e99bbea", "lat": 38.91111016666667, "name": "3e957741a6563a77376d70e94e99bbea"}, {"is_disabled": 0, "type": "electric_scooter", "fusion_lon": 0.0, "is_reserved": 0, "fusion_lat": 0.0, "lon": -77.04478133333333, "rental_uris": {"ios": "https://dc.lft.to/lastmile_qr_scan", "android": "https://dc.lft.to/lastmile_qr_scan"}, "bike_id": "c0903fd1d13b254e4f02c9ced4b696fd", "lat": 38.89823833333333, "name": "c0903fd1d13b254e4f02c9ced4b696fd"}, {"is_disabled": 0, "type": "electric_scooter", "fusion_lon": 0.0, "is_reserved": 0, "fusion_lat": 0.0, "lon": -77.04158216666667, "rental_uris": {"ios": "https://dc.lft.to/lastmile_qr_scan", "android": "https://dc.lft.to/lastmile_qr_scan"}, "bike_id": "c26f8dd3da40a20f4d20cc2a08a92213", "lat": 38.90404633333333, "name": "c26f8dd3da40a20f4d20cc2a08a92213"}, {"is_disabled": 0, "type": "electric_scooter", "fusion_lon": 0.0, "is_reserved": 0, "fusion_lat": 0.0, "lon": -77.03184616666667, "rental_uris": {"ios": "https://dc.lft.to/lastmile_qr_scan", "android": "https://dc.lft.to/lastmile_qr_scan"}, "bike_id": "b880c109cf6f889fd0a6eeebb0bfd465", "lat": 38.91201133333333, "name": "b880c109cf6f889fd0a6eeebb0bfd465"}, {"is_disabled": 0, "type": "electric_scooter", "fusion_lon": 0.0, "is_reserved": 0, "fusion_lat": 0.0, "lon": -76.99263733333333, "rental_uris": {"ios": "https://dc.lft.to/lastmile_qr_scan", "android": "https://dc.lft.to/lastmile_qr_scan"}, "bike_id": "aaba14195eb445744cbae89ad21b6705", "lat": 38.93762733333333, "name": "aaba14195eb445744cbae89ad21b6705"}, {"is_disabled": 0, "type": "electric_scooter", "fusion_lon": 0.0, "is_reserved": 0, "fusion_lat": 0.0, "lon": -77.04147916666666, "rental_uris": {"ios": "https://dc.lft.to/lastmile_qr_scan", "android": "https://dc.lft.to/lastmile_qr_scan"}, "bike_id": "d8e8139181278e0f5f6e23bceb9398e2", "lat": 38.906633, "name": "d8e8139181278e0f5f6e23bceb9398e2"}, {"is_disabled": 0, "type": "electric_scooter", "fusion_lon": 0.0, "is_reserved": 0, "fusion_lat": 0.0, "lon": -76.93391583333333, "rental_uris": {"ios": "https://dc.lft.to/lastmile_qr_scan", "android": "https://dc.lft.to/lastmile_qr_scan"}, "bike_id": "a584cec2f4c8260d08610ec8119385b8", "lat": 38.899101333333334, "name": "a584cec2f4c8260d08610ec8119385b8"}, {"is_disabled": 0, "type": "electric_scooter", "fusion_lon": 0.0, "is_reserved": 0, "fusion_lat": 0.0, "lon": -77.05795483333333, "rental_uris": {"ios": "https://dc.lft.to/lastmile_qr_scan", "android": "https://dc.lft.to/lastmile_qr_scan"}, "bike_id": "230b1335372f530ca41e3e1a38256321", "lat": 38.90271333333333, "name": "230b1335372f530ca41e3e1a38256321"}, {"is_disabled": 0, "type": "electric_scooter", "fusion_lon": 0.0, "is_reserved": 0, "fusion_lat": 0.0, "lon": -77.07167466666667, "rental_uris": {"ios": "https://dc.lft.to/lastmile_qr_scan", "android": "https://dc.lft.to/lastmile_qr_scan"}, "bike_id": "aac34263b5e639d5a8d38bb1df4ef99c", "lat": 38.92068616666667, "name": "aac34263b5e639d5a8d38bb1df4ef99c"}, {"is_disabled": 0, "type": "electric_scooter", "fusion_lon": 0.0, "is_reserved": 0, "fusion_lat": 0.0, "lon": -77.03097266666667, "rental_uris": {"ios": "https://dc.lft.to/lastmile_qr_scan", "android": "https://dc.lft.to/lastmile_qr_scan"}, "bike_id": "f3a7bf019bcb618429e44a1ca2000940", "lat": 38.91704416666666, "name": "f3a7bf019bcb618429e44a1ca2000940"}, {"is_disabled": 0, "type": "electric_scooter", "fusion_lon": 0.0, "is_reserved": 0, "fusion_lat": 0.0, "lon": -77.01923683333334, "rental_uris": {"ios": "https://dc.lft.to/lastmile_qr_scan", "android": "https://dc.lft.to/lastmile_qr_scan"}, "bike_id": "e872941688152bc7e1bdac58cb2bab70", "lat": 38.92030283333333, "name": "e872941688152bc7e1bdac58cb2bab70"}, {"is_disabled": 0, "type": "electric_scooter", "fusion_lon": 0.0, "is_reserved": 0, "fusion_lat": 0.0, "lon": -77.03918066666667, "rental_uris": {"ios": "https://dc.lft.to/lastmile_qr_scan", "android": "https://dc.lft.to/lastmile_qr_scan"}, "bike_id": "8fe883daa4bb23afc95f183ffb063fb7", "lat": 38.924752, "name": "8fe883daa4bb23afc95f183ffb063fb7"}, {"is_disabled": 0, "type": "electric_scooter", "fusion_lon": 0.0, "is_reserved": 0, "fusion_lat": 0.0, "lon": -77.04210533333334, "rental_uris": {"ios": "https://dc.lft.to/lastmile_qr_scan", "android": "https://dc.lft.to/lastmile_qr_scan"}, "bike_id": "1b5247182ecc0344d5e34ddc35daab46", "lat": 38.90781166666667, "name": "1b5247182ecc0344d5e34ddc35daab46"}, {"is_disabled": 0, "type": "electric_scooter", "fusion_lon": 0.0, "is_reserved": 0, "fusion_lat": 0.0, "lon": -77.0608205, "rental_uris": {"ios": "https://dc.lft.to/lastmile_qr_scan", "android": "https://dc.lft.to/lastmile_qr_scan"}, "bike_id": "2c1d31e7ae79a3f07536774598715fb4", "lat": 38.911870666666665, "name": "2c1d31e7ae79a3f07536774598715fb4"}, {"is_disabled": 0, "type": "electric_scooter", "fusion_lon": 0.0, "is_reserved": 0, "fusion_lat": 0.0, "lon": -77.03257133333334, "rental_uris": {"ios": "https://dc.lft.to/lastmile_qr_scan", "android": "https://dc.lft.to/lastmile_qr_scan"}, "bike_id": "99f29fb34ae65334a4cdc36aff6d1627", "lat": 38.914086, "name": "99f29fb34ae65334a4cdc36aff6d1627"}, {"is_disabled": 0, "type": "electric_scooter", "fusion_lon": 0.0, "is_reserved": 0, "fusion_lat": 0.0, "lon": -77.04050333333333, "rental_uris": {"ios": "https://dc.lft.to/lastmile_qr_scan", "android": "https://dc.lft.to/lastmile_qr_scan"}, "bike_id": "3d98e7e14a47b3f798756fbb7b56f785", "lat": 38.9061185, "name": "3d98e7e14a47b3f798756fbb7b56f785"}, {"is_disabled": 0, "type": "electric_scooter", "fusion_lon": 0.0, "is_reserved": 0, "fusion_lat": 0.0, "lon": -77.02856933333334, "rental_uris": {"ios": "https://dc.lft.to/lastmile_qr_scan", "android": "https://dc.lft.to/lastmile_qr_scan"}, "bike_id": "81a9c6aa5f310a378bc0404cdb271975", "lat": 38.89845416666667, "name": "81a9c6aa5f310a378bc0404cdb271975"}, {"is_disabled": 0, "type": "electric_scooter", "fusion_lon": 0.0, "is_reserved": 0, "fusion_lat": 0.0, "lon": -77.00220883333333, "rental_uris": {"ios": "https://dc.lft.to/lastmile_qr_scan", "android": "https://dc.lft.to/lastmile_qr_scan"}, "bike_id": "7f6482c42ab57093dbd4d10388349d18", "lat": 38.91333083333333, "name": "7f6482c42ab57093dbd4d10388349d18"}, {"is_disabled": 0, "type": "electric_scooter", "fusion_lon": 0.0, "is_reserved": 0, "fusion_lat": 0.0, "lon": -77.0249725, "rental_uris": {"ios": "https://dc.lft.to/lastmile_qr_scan", "android": "https://dc.lft.to/lastmile_qr_scan"}, "bike_id": "225c6b8e728db961d671d3719f3e4234", "lat": 38.90369966666667, "name": "225c6b8e728db961d671d3719f3e4234"}, {"is_disabled": 0, "type": "electric_scooter", "fusion_lon": 0.0, "is_reserved": 0, "fusion_lat": 0.0, "lon": -77.03695883333333, "rental_uris": {"ios": "https://dc.lft.to/lastmile_qr_scan", "android": "https://dc.lft.to/lastmile_qr_scan"}, "bike_id": "ce14f95cd5ba5a47315bfd4f46210a71", "lat": 38.91246116666667, "name": "ce14f95cd5ba5a47315bfd4f46210a71"}, {"is_disabled": 0, "type": "electric_scooter", "fusion_lon": 0.0, "is_reserved": 0, "fusion_lat": 0.0, "lon": -77.027243, "rental_uris": {"ios": "https://dc.lft.to/lastmile_qr_scan", "android": "https://dc.lft.to/lastmile_qr_scan"}, "bike_id": "2d8f25f71b1c2e265d1c16bed866d1da", "lat": 38.8957135, "name": "2d8f25f71b1c2e265d1c16bed866d1da"}, {"is_disabled": 0, "type": "electric_scooter", "fusion_lon": 0.0, "is_reserved": 0, "fusion_lat": 0.0, "lon": -77.03151766666667, "rental_uris": {"ios": "https://dc.lft.to/lastmile_qr_scan", "android": "https://dc.lft.to/lastmile_qr_scan"}, "bike_id": "f8508e0743ec9f758fe9a32049611224", "lat": 38.89355716666667, "name": "f8508e0743ec9f758fe9a32049611224"}, {"is_disabled": 0, "type": "electric_scooter", "fusion_lon": 0.0, "is_reserved": 0, "fusion_lat": 0.0, "lon": -77.0398395, "rental_uris": {"ios": "https://dc.lft.to/lastmile_qr_scan", "android": "https://dc.lft.to/lastmile_qr_scan"}, "bike_id": "538ef7879205e5f42145b2177d698f73", "lat": 38.8963635, "name": "538ef7879205e5f42145b2177d698f73"}, {"is_disabled": 0, "type": "electric_scooter", "fusion_lon": 0.0, "is_reserved": 0, "fusion_lat": 0.0, "lon": -77.00066566666666, "rental_uris": {"ios": "https://dc.lft.to/lastmile_qr_scan", "android": "https://dc.lft.to/lastmile_qr_scan"}, "bike_id": "40189ab45db65ae232ca8df1754c0481", "lat": 38.92434216666667, "name": "40189ab45db65ae232ca8df1754c0481"}, {"is_disabled": 0, "type": "electric_scooter", "fusion_lon": 0.0, "is_reserved": 0, "fusion_lat": 0.0, "lon": -77.03345766666666, "rental_uris": {"ios": "https://dc.lft.to/lastmile_qr_scan", "android": "https://dc.lft.to/lastmile_qr_scan"}, "bike_id": "8a992e08f4d386d4dd99fc5d2bf8707c", "lat": 38.90013783333333, "name": "8a992e08f4d386d4dd99fc5d2bf8707c"}, {"is_disabled": 0, "type": "electric_scooter", "fusion_lon": 0.0, "is_reserved": 0, "fusion_lat": 0.0, "lon": -76.9373525, "rental_uris": {"ios": "https://dc.lft.to/lastmile_qr_scan", "android": "https://dc.lft.to/lastmile_qr_scan"}, "bike_id": "cfd5a73ba41d6c76af30a379c6ea02f5", "lat": 38.890188, "name": "cfd5a73ba41d6c76af30a379c6ea02f5"}, {"is_disabled": 0, "type": "electric_scooter", "fusion_lon": 0.0, "is_reserved": 0, "fusion_lat": 0.0, "lon": -77.04881, "rental_uris": {"ios": "https://dc.lft.to/lastmile_qr_scan", "android": "https://dc.lft.to/lastmile_qr_scan"}, "bike_id": "fcb4eb0b9b007f18434af4d0851d38dc", "lat": 38.898817, "name": "fcb4eb0b9b007f18434af4d0851d38dc"}, {"is_disabled": 0, "type": "electric_scooter", "fusion_lon": 0.0, "is_reserved": 0, "fusion_lat": 0.0, "lon": -77.00327316666667, "rental_uris": {"ios": "https://dc.lft.to/lastmile_qr_scan", "android": "https://dc.lft.to/lastmile_qr_scan"}, "bike_id": "4033c2b93be031fb30bf82bcfdfa9459", "lat": 38.89355033333333, "name": "4033c2b93be031fb30bf82bcfdfa9459"}, {"is_disabled": 0, "type": "electric_bike", "fusion_lon": 0.0, "is_reserved": 0, "fusion_lat": 0.0, "lon": -77.035601, "rental_uris": {"ios": "https://dc.lft.to/lastmile_qr_scan", "android": "https://dc.lft.to/lastmile_qr_scan"}, "bike_id": "c27e452c72091e8a836ee582351c70f4", "lat": 38.964674333333335, "name": "c27e452c72091e8a836ee582351c70f4"}, {"is_disabled": 0, "type": "electric_scooter", "fusion_lon": 0.0, "is_reserved": 0, "fusion_lat": 0.0, "lon": -77.02507866666667, "rental_uris": {"ios": "https://dc.lft.to/lastmile_qr_scan", "android": "https://dc.lft.to/lastmile_qr_scan"}, "bike_id": "05269b2631572a6e66f7dab73473513c", "lat": 38.920857, "name": "05269b2631572a6e66f7dab73473513c"}, {"is_disabled": 0, "type": "electric_bike", "fusion_lon": 0.0, "is_reserved": 0, "fusion_lat": 0.0, "lon": -77.00759866666667, "rental_uris": {"ios": "https://dc.lft.to/lastmile_qr_scan", "android": "https://dc.lft.to/lastmile_qr_scan"}, "bike_id": "162ffdae9959ef680ff81bacb606755a", "lat": 38.99787166666667, "name": "162ffdae9959ef680ff81bacb606755a"}, {"is_disabled": 0, "type": "electric_scooter", "fusion_lon": 0.0, "is_reserved": 0, "fusion_lat": 0.0, "lon": -77.0188235, "rental_uris": {"ios": "https://dc.lft.to/lastmile_qr_scan", "android": "https://dc.lft.to/lastmile_qr_scan"}, "bike_id": "179d36b8f6d7939120b9cf0c656bc397", "lat": 38.90977516666667, "name": "179d36b8f6d7939120b9cf0c656bc397"}, {"is_disabled": 0, "type": "electric_bike", "fusion_lon": 0.0, "is_reserved": 0, "fusion_lat": 0.0, "lon": -77.09623083333334, "rental_uris": {"ios": "https://dc.lft.to/lastmile_qr_scan", "android": "https://dc.lft.to/lastmile_qr_scan"}, "bike_id": "a2066e3d056ecf89ac0f9d974ff28c73", "lat": 38.952485, "name": "a2066e3d056ecf89ac0f9d974ff28c73"}, {"is_disabled": 0, "type": "electric_bike", "fusion_lon": 0.0, "is_reserved": 0, "fusion_lat": 0.0, "lon": -77.0100945, "rental_uris": {"ios": "https://dc.lft.to/lastmile_qr_scan", "android": "https://dc.lft.to/lastmile_qr_scan"}, "bike_id": "a67de1bb070600b91496211b654b663f", "lat": 38.879637833333334, "name": "a67de1bb070600b91496211b654b663f"}, {"is_disabled": 0, "type": "electric_scooter", "fusion_lon": 0.0, "is_reserved": 0, "fusion_lat": 0.0, "lon": -77.022644, "rental_uris": {"ios": "https://dc.lft.to/lastmile_qr_scan", "android": "https://dc.lft.to/lastmile_qr_scan"}, "bike_id": "bd4735dbd7fda1f9728eafd104eca852", "lat": 38.924675, "name": "bd4735dbd7fda1f9728eafd104eca852"}, {"is_disabled": 0, "type": "electric_bike", "fusion_lon": 0.0, "is_reserved": 0, "fusion_lat": 0.0, "lon": -77.00221116666667, "rental_uris": {"ios": "https://dc.lft.to/lastmile_qr_scan", "android": "https://dc.lft.to/lastmile_qr_scan"}, "bike_id": "f9d0c9c677b7d2aae13bca88791ba9ae", "lat": 38.936044, "name": "f9d0c9c677b7d2aae13bca88791ba9ae"}, {"is_disabled": 0, "type": "electric_scooter", "fusion_lon": 0.0, "is_reserved": 0, "fusion_lat": 0.0, "lon": -77.0295, "rental_uris": {"ios": "https://dc.lft.to/lastmile_qr_scan", "android": "https://dc.lft.to/lastmile_qr_scan"}, "bike_id": "c76cedbae7f0c8bcbd61c0d6085750a4", "lat": 38.943075, "name": "c76cedbae7f0c8bcbd61c0d6085750a4"}, {"is_disabled": 0, "type": "electric_scooter", "fusion_lon": 0.0, "is_reserved": 0, "fusion_lat": 0.0, "lon": -77.01867833333333, "rental_uris": {"ios": "https://dc.lft.to/lastmile_qr_scan", "android": "https://dc.lft.to/lastmile_qr_scan"}, "bike_id": "8471b7e70f269854ce455e69552c6daf", "lat": 38.929098, "name": "8471b7e70f269854ce455e69552c6daf"}, {"is_disabled": 0, "type": "electric_scooter", "fusion_lon": 0.0, "is_reserved": 0, "fusion_lat": 0.0, "lon": -77.04717683333334, "rental_uris": {"ios": "https://dc.lft.to/lastmile_qr_scan", "android": "https://dc.lft.to/lastmile_qr_scan"}, "bike_id": "52c630e1156459b0fa31c9fd1815202d", "lat": 38.92252033333333, "name": "52c630e1156459b0fa31c9fd1815202d"}, {"is_disabled": 0, "type": "electric_scooter", "fusion_lon": 0.0, "is_reserved": 0, "fusion_lat": 0.0, "lon": -77.03057916666667, "rental_uris": {"ios": "https://dc.lft.to/lastmile_qr_scan", "android": "https://dc.lft.to/lastmile_qr_scan"}, "bike_id": "7720105af1c627705c4e73c2eb647912", "lat": 38.923806166666665, "name": "7720105af1c627705c4e73c2eb647912"}, {"is_disabled": 0, "type": "electric_scooter", "fusion_lon": 0.0, "is_reserved": 0, "fusion_lat": 0.0, "lon": -77.03126616666667, "rental_uris": {"ios": "https://dc.lft.to/lastmile_qr_scan", "android": "https://dc.lft.to/lastmile_qr_scan"}, "bike_id": "1a29575e00b3cdf8ad65aaff44e5ff6d", "lat": 38.92017383333334, "name": "1a29575e00b3cdf8ad65aaff44e5ff6d"}, {"is_disabled": 0, "type": "electric_scooter", "fusion_lon": 0.0, "is_reserved": 0, "fusion_lat": 0.0, "lon": -77.06299616666666, "rental_uris": {"ios": "https://dc.lft.to/lastmile_qr_scan", "android": "https://dc.lft.to/lastmile_qr_scan"}, "bike_id": "1e63fd22d0b6d360387ea78208a3623c", "lat": 38.90776116666667, "name": "1e63fd22d0b6d360387ea78208a3623c"}, {"is_disabled": 0, "type": "electric_scooter", "fusion_lon": 0.0, "is_reserved": 0, "fusion_lat": 0.0, "lon": -77.01945066666667, "rental_uris": {"ios": "https://dc.lft.to/lastmile_qr_scan", "android": "https://dc.lft.to/lastmile_qr_scan"}, "bike_id": "42fcd097bce58d8470fb0f4c587f7ffd", "lat": 38.924173, "name": "42fcd097bce58d8470fb0f4c587f7ffd"}, {"is_disabled": 0, "type": "electric_scooter", "fusion_lon": 0.0, "is_reserved": 0, "fusion_lat": 0.0, "lon": -77.04346933333333, "rental_uris": {"ios": "https://dc.lft.to/lastmile_qr_scan", "android": "https://dc.lft.to/lastmile_qr_scan"}, "bike_id": "5e6cfa49f80f5af335dd3ce2c14a624a", "lat": 38.903675666666665, "name": "5e6cfa49f80f5af335dd3ce2c14a624a"}, {"is_disabled": 0, "type": "electric_scooter", "fusion_lon": 0.0, "is_reserved": 0, "fusion_lat": 0.0, "lon": -77.00059333333333, "rental_uris": {"ios": "https://dc.lft.to/lastmile_qr_scan", "android": "https://dc.lft.to/lastmile_qr_scan"}, "bike_id": "c0d26ade1d304ab3a348071e3c81d6e6", "lat": 38.87882116666667, "name": "c0d26ade1d304ab3a348071e3c81d6e6"}, {"is_disabled": 0, "type": "electric_scooter", "fusion_lon": 0.0, "is_reserved": 0, "fusion_lat": 0.0, "lon": -76.98979083333333, "rental_uris": {"ios": "https://dc.lft.to/lastmile_qr_scan", "android": "https://dc.lft.to/lastmile_qr_scan"}, "bike_id": "8ebe88a03833e5c34df1f9a5697cf9eb", "lat": 38.8905025, "name": "8ebe88a03833e5c34df1f9a5697cf9eb"}, {"is_disabled": 0, "type": "electric_scooter", "fusion_lon": 0.0, "is_reserved": 0, "fusion_lat": 0.0, "lon": -77.0088615, "rental_uris": {"ios": "https://dc.lft.to/lastmile_qr_scan", "android": "https://dc.lft.to/lastmile_qr_scan"}, "bike_id": "1bd281fccf0d55f1205ddb9e4da949f2", "lat": 38.90972216666667, "name": "1bd281fccf0d55f1205ddb9e4da949f2"}, {"is_disabled": 0, "type": "electric_scooter", "fusion_lon": 0.0, "is_reserved": 0, "fusion_lat": 0.0, "lon": -77.0267905, "rental_uris": {"ios": "https://dc.lft.to/lastmile_qr_scan", "android": "https://dc.lft.to/lastmile_qr_scan"}, "bike_id": "64c956220c6f5a08e4d8f86c46f921ea", "lat": 38.92774216666667, "name": "64c956220c6f5a08e4d8f86c46f921ea"}, {"is_disabled": 0, "type": "electric_scooter", "fusion_lon": 0.0, "is_reserved": 0, "fusion_lat": 0.0, "lon": -77.07703766666667, "rental_uris": {"ios": "https://dc.lft.to/lastmile_qr_scan", "android": "https://dc.lft.to/lastmile_qr_scan"}, "bike_id": "12ffda47e53431340ac853e6feb058cf", "lat": 38.922452, "name": "12ffda47e53431340ac853e6feb058cf"}, {"is_disabled": 0, "type": "electric_scooter", "fusion_lon": 0.0, "is_reserved": 0, "fusion_lat": 0.0, "lon": -77.00121566666667, "rental_uris": {"ios": "https://dc.lft.to/lastmile_qr_scan", "android": "https://dc.lft.to/lastmile_qr_scan"}, "bike_id": "7686067ffe5b02128166e0842a0e858b", "lat": 38.90559616666667, "name": "7686067ffe5b02128166e0842a0e858b"}, {"is_disabled": 0, "type": "electric_scooter", "fusion_lon": 0.0, "is_reserved": 0, "fusion_lat": 0.0, "lon": -77.04105266666667, "rental_uris": {"ios": "https://dc.lft.to/lastmile_qr_scan", "android": "https://dc.lft.to/lastmile_qr_scan"}, "bike_id": "9ce9692e1cd281ebb9eece3c59ecd7f0", "lat": 38.90119816666667, "name": "9ce9692e1cd281ebb9eece3c59ecd7f0"}, {"is_disabled": 0, "type": "electric_scooter", "fusion_lon": 0.0, "is_reserved": 0, "fusion_lat": 0.0, "lon": -77.00335, "rental_uris": {"ios": "https://dc.lft.to/lastmile_qr_scan", "android": "https://dc.lft.to/lastmile_qr_scan"}, "bike_id": "1358fd0dcd8e562c2cbe1bf29c74fa8d", "lat": 38.893568333333334, "name": "1358fd0dcd8e562c2cbe1bf29c74fa8d"}, {"is_disabled": 0, "type": "electric_bike", "fusion_lon": 0.0, "is_reserved": 0, "fusion_lat": 0.0, "lon": -77.23409066666666, "rental_uris": {"ios": "https://dc.lft.to/lastmile_qr_scan", "android": "https://dc.lft.to/lastmile_qr_scan"}, "bike_id": "edf884f338a0bdac3f626657a98ae718", "lat": 38.87575183333333, "name": "edf884f338a0bdac3f626657a98ae718"}, {"is_disabled": 0, "type": "electric_scooter", "fusion_lon": 0.0, "is_reserved": 0, "fusion_lat": 0.0, "lon": -76.9790905, "rental_uris": {"ios": "https://dc.lft.to/lastmile_qr_scan", "android": "https://dc.lft.to/lastmile_qr_scan"}, "bike_id": "06710025dd22b189c943e94b827de468", "lat": 38.88859933333333, "name": "06710025dd22b189c943e94b827de468"}, {"is_disabled": 0, "type": "electric_scooter", "fusion_lon": 0.0, "is_reserved": 0, "fusion_lat": 0.0, "lon": -76.94892083333333, "rental_uris": {"ios": "https://dc.lft.to/lastmile_qr_scan", "android": "https://dc.lft.to/lastmile_qr_scan"}, "bike_id": "0ab8f4788314f89296148a1559c4d0dd", "lat": 38.895348166666665, "name": "0ab8f4788314f89296148a1559c4d0dd"}, {"is_disabled": 0, "type": "electric_scooter", "fusion_lon": 0.0, "is_reserved": 0, "fusion_lat": 0.0, "lon": -77.04083633333333, "rental_uris": {"ios": "https://dc.lft.to/lastmile_qr_scan", "android": "https://dc.lft.to/lastmile_qr_scan"}, "bike_id": "f203dda6535d382792144ddaced488db", "lat": 38.903887, "name": "f203dda6535d382792144ddaced488db"}, {"is_disabled": 0, "type": "electric_scooter", "fusion_lon": 0.0, "is_reserved": 0, "fusion_lat": 0.0, "lon": -77.0071135, "rental_uris": {"ios": "https://dc.lft.to/lastmile_qr_scan", "android": "https://dc.lft.to/lastmile_qr_scan"}, "bike_id": "56dff40f18e17a994480428302f9ae40", "lat": 38.88489933333334, "name": "56dff40f18e17a994480428302f9ae40"}, {"is_disabled": 0, "type": "electric_scooter", "fusion_lon": 0.0, "is_reserved": 0, "fusion_lat": 0.0, "lon": -77.02175216666667, "rental_uris": {"ios": "https://dc.lft.to/lastmile_qr_scan", "android": "https://dc.lft.to/lastmile_qr_scan"}, "bike_id": "dfdc34ffa1eafd8548fe4b370709e935", "lat": 38.92491116666667, "name": "dfdc34ffa1eafd8548fe4b370709e935"}, {"is_disabled": 0, "type": "electric_scooter", "fusion_lon": 0.0, "is_reserved": 0, "fusion_lat": 0.0, "lon": -77.0422205, "rental_uris": {"ios": "https://dc.lft.to/lastmile_qr_scan", "android": "https://dc.lft.to/lastmile_qr_scan"}, "bike_id": "c2f4743eb0043f4486b61300886c3278", "lat": 38.921615, "name": "c2f4743eb0043f4486b61300886c3278"}, {"is_disabled": 0, "type": "electric_scooter", "fusion_lon": 0.0, "is_reserved": 0, "fusion_lat": 0.0, "lon": -77.039041, "rental_uris": {"ios": "https://dc.lft.to/lastmile_qr_scan", "android": "https://dc.lft.to/lastmile_qr_scan"}, "bike_id": "43b2df7dab397a045260261e065518d0", "lat": 38.922405166666664, "name": "43b2df7dab397a045260261e065518d0"}, {"is_disabled": 0, "type": "electric_scooter", "fusion_lon": 0.0, "is_reserved": 0, "fusion_lat": 0.0, "lon": -77.03457583333334, "rental_uris": {"ios": "https://dc.lft.to/lastmile_qr_scan", "android": "https://dc.lft.to/lastmile_qr_scan"}, "bike_id": "02c288ba0177caa4ea746cb7517e81fe", "lat": 38.9027315, "name": "02c288ba0177caa4ea746cb7517e81fe"}, {"is_disabled": 0, "type": "electric_bike", "fusion_lon": 0.0, "is_reserved": 0, "fusion_lat": 0.0, "lon": -76.96856616666666, "rental_uris": {"ios": "https://dc.lft.to/lastmile_qr_scan", "android": "https://dc.lft.to/lastmile_qr_scan"}, "bike_id": "fd0338e4b867d19fd27299a73bacc493", "lat": 38.9553965, "name": "fd0338e4b867d19fd27299a73bacc493"}, {"is_disabled": 0, "type": "electric_scooter", "fusion_lon": 0.0, "is_reserved": 0, "fusion_lat": 0.0, "lon": -77.05054216666667, "rental_uris": {"ios": "https://dc.lft.to/lastmile_qr_scan", "android": "https://dc.lft.to/lastmile_qr_scan"}, "bike_id": "2c01b49d46f74daec314df69bcb6e443", "lat": 38.9017575, "name": "2c01b49d46f74daec314df69bcb6e443"}, {"is_disabled": 0, "type": "electric_bike", "fusion_lon": 0.0, "is_reserved": 0, "fusion_lat": 0.0, "lon": -76.9970295, "rental_uris": {"ios": "https://dc.lft.to/lastmile_qr_scan", "android": "https://dc.lft.to/lastmile_qr_scan"}, "bike_id": "70f7ca1a5c13028152ba71913019a2ab", "lat": 38.8386795, "name": "70f7ca1a5c13028152ba71913019a2ab"}, {"is_disabled": 0, "type": "electric_scooter", "fusion_lon": 0.0, "is_reserved": 0, "fusion_lat": 0.0, "lon": -77.02238683333333, "rental_uris": {"ios": "https://dc.lft.to/lastmile_qr_scan", "android": "https://dc.lft.to/lastmile_qr_scan"}, "bike_id": "f911a288d002d0199ea2bca7424c9e1b", "lat": 38.924329, "name": "f911a288d002d0199ea2bca7424c9e1b"}, {"is_disabled": 0, "type": "electric_scooter", "fusion_lon": 0.0, "is_reserved": 0, "fusion_lat": 0.0, "lon": -77.01900933333333, "rental_uris": {"ios": "https://dc.lft.to/lastmile_qr_scan", "android": "https://dc.lft.to/lastmile_qr_scan"}, "bike_id": "88a47b9cfe150c922f3ffa9ec5ae4273", "lat": 38.923367999999996, "name": "88a47b9cfe150c922f3ffa9ec5ae4273"}, {"is_disabled": 0, "type": "electric_scooter", "fusion_lon": 0.0, "is_reserved": 0, "fusion_lat": 0.0, "lon": -77.020582, "rental_uris": {"ios": "https://dc.lft.to/lastmile_qr_scan", "android": "https://dc.lft.to/lastmile_qr_scan"}, "bike_id": "81a63ad780e4b6fd98d229e6680ebe95", "lat": 38.923777666666666, "name": "81a63ad780e4b6fd98d229e6680ebe95"}, {"is_disabled": 0, "type": "electric_scooter", "fusion_lon": 0.0, "is_reserved": 0, "fusion_lat": 0.0, "lon": -77.04665216666666, "rental_uris": {"ios": "https://dc.lft.to/lastmile_qr_scan", "android": "https://dc.lft.to/lastmile_qr_scan"}, "bike_id": "f97d005b7c488f02f573f6108afe1bc4", "lat": 38.89638083333333, "name": "f97d005b7c488f02f573f6108afe1bc4"}, {"is_disabled": 0, "type": "electric_scooter", "fusion_lon": 0.0, "is_reserved": 0, "fusion_lat": 0.0, "lon": -77.02444633333333, "rental_uris": {"ios": "https://dc.lft.to/lastmile_qr_scan", "android": "https://dc.lft.to/lastmile_qr_scan"}, "bike_id": "475c500600108184fbc7f762f0098cb6", "lat": 38.933609, "name": "475c500600108184fbc7f762f0098cb6"}, {"is_disabled": 0, "type": "electric_scooter", "fusion_lon": 0.0, "is_reserved": 0, "fusion_lat": 0.0, "lon": -77.06570216666667, "rental_uris": {"ios": "https://dc.lft.to/lastmile_qr_scan", "android": "https://dc.lft.to/lastmile_qr_scan"}, "bike_id": "60d955c27a14e9dd5bdc7f545191801a", "lat": 38.948476666666664, "name": "60d955c27a14e9dd5bdc7f545191801a"}, {"is_disabled": 0, "type": "electric_scooter", "fusion_lon": 0.0, "is_reserved": 0, "fusion_lat": 0.0, "lon": -77.0416695, "rental_uris": {"ios": "https://dc.lft.to/lastmile_qr_scan", "android": "https://dc.lft.to/lastmile_qr_scan"}, "bike_id": "f14227714f19b56cea7a573447425b45", "lat": 38.9072605, "name": "f14227714f19b56cea7a573447425b45"}, {"is_disabled": 0, "type": "electric_scooter", "fusion_lon": 0.0, "is_reserved": 0, "fusion_lat": 0.0, "lon": -77.03950933333333, "rental_uris": {"ios": "https://dc.lft.to/lastmile_qr_scan", "android": "https://dc.lft.to/lastmile_qr_scan"}, "bike_id": "a19a633077f8f30a83ec04060f8623af", "lat": 38.90813133333333, "name": "a19a633077f8f30a83ec04060f8623af"}, {"is_disabled": 0, "type": "electric_scooter", "fusion_lon": 0.0, "is_reserved": 0, "fusion_lat": 0.0, "lon": -77.04859883333333, "rental_uris": {"ios": "https://dc.lft.to/lastmile_qr_scan", "android": "https://dc.lft.to/lastmile_qr_scan"}, "bike_id": "8fd32a69f3cc6ddd75c0c3f4a7cad250", "lat": 38.900209333333336, "name": "8fd32a69f3cc6ddd75c0c3f4a7cad250"}, {"is_disabled": 0, "type": "electric_bike", "fusion_lon": 0.0, "is_reserved": 0, "fusion_lat": 0.0, "lon": -76.988409, "rental_uris": {"ios": "https://dc.lft.to/lastmile_qr_scan", "android": "https://dc.lft.to/lastmile_qr_scan"}, "bike_id": "8d1a7fe4092c5c180e05fb1dda330d50", "lat": 38.84281566666667, "name": "8d1a7fe4092c5c180e05fb1dda330d50"}, {"is_disabled": 0, "type": "electric_scooter", "fusion_lon": 0.0, "is_reserved": 0, "fusion_lat": 0.0, "lon": -77.00917733333333, "rental_uris": {"ios": "https://dc.lft.to/lastmile_qr_scan", "android": "https://dc.lft.to/lastmile_qr_scan"}, "bike_id": "acd8f2c396c93e43aaa2033e1baeb251", "lat": 38.923394333333334, "name": "acd8f2c396c93e43aaa2033e1baeb251"}, {"is_disabled": 0, "type": "electric_scooter", "fusion_lon": 0.0, "is_reserved": 0, "fusion_lat": 0.0, "lon": -77.02768466666667, "rental_uris": {"ios": "https://dc.lft.to/lastmile_qr_scan", "android": "https://dc.lft.to/lastmile_qr_scan"}, "bike_id": "eaf5729e381e9e5c377e82bc7e2d545d", "lat": 38.8922045, "name": "eaf5729e381e9e5c377e82bc7e2d545d"}, {"is_disabled": 0, "type": "electric_scooter", "fusion_lon": 0.0, "is_reserved": 0, "fusion_lat": 0.0, "lon": -77.03160733333333, "rental_uris": {"ios": "https://dc.lft.to/lastmile_qr_scan", "android": "https://dc.lft.to/lastmile_qr_scan"}, "bike_id": "0b30847ba74abf3a7c41d61b08b9d43d", "lat": 38.892194833333335, "name": "0b30847ba74abf3a7c41d61b08b9d43d"}, {"is_disabled": 0, "type": "electric_scooter", "fusion_lon": 0.0, "is_reserved": 0, "fusion_lat": 0.0, "lon": -77.078373, "rental_uris": {"ios": "https://dc.lft.to/lastmile_qr_scan", "android": "https://dc.lft.to/lastmile_qr_scan"}, "bike_id": "3163e458f399a4ec18c52e1fc79586bd", "lat": 38.926783, "name": "3163e458f399a4ec18c52e1fc79586bd"}, {"is_disabled": 0, "type": "electric_bike", "fusion_lon": 0.0, "is_reserved": 0, "fusion_lat": 0.0, "lon": -76.97224683333333, "rental_uris": {"ios": "https://dc.lft.to/lastmile_qr_scan", "android": "https://dc.lft.to/lastmile_qr_scan"}, "bike_id": "6753a542628cad500904f1e3fe7d8ecd", "lat": 38.90031716666667, "name": "6753a542628cad500904f1e3fe7d8ecd"}, {"is_disabled": 0, "type": "electric_bike", "fusion_lon": 0.0, "is_reserved": 0, "fusion_lat": 0.0, "lon": -76.90748833333333, "rental_uris": {"ios": "https://dc.lft.to/lastmile_qr_scan", "android": "https://dc.lft.to/lastmile_qr_scan"}, "bike_id": "ed0289cde3ecac6197c979b30904d846", "lat": 38.89618383333333, "name": "ed0289cde3ecac6197c979b30904d846"}, {"is_disabled": 0, "type": "electric_scooter", "fusion_lon": 0.0, "is_reserved": 0, "fusion_lat": 0.0, "lon": -77.03187483333333, "rental_uris": {"ios": "https://dc.lft.to/lastmile_qr_scan", "android": "https://dc.lft.to/lastmile_qr_scan"}, "bike_id": "47771ef7fefc8c7abffdcd50e0724794", "lat": 38.91572583333333, "name": "47771ef7fefc8c7abffdcd50e0724794"}, {"is_disabled": 0, "type": "electric_scooter", "fusion_lon": 0.0, "is_reserved": 0, "fusion_lat": 0.0, "lon": -77.055994, "rental_uris": {"ios": "https://dc.lft.to/lastmile_qr_scan", "android": "https://dc.lft.to/lastmile_qr_scan"}, "bike_id": "4049b89ba180b80c7d8cacdec9dd1d9b", "lat": 38.931121, "name": "4049b89ba180b80c7d8cacdec9dd1d9b"}, {"is_disabled": 0, "type": "electric_scooter", "fusion_lon": 0.0, "is_reserved": 0, "fusion_lat": 0.0, "lon": -77.01305416666666, "rental_uris": {"ios": "https://dc.lft.to/lastmile_qr_scan", "android": "https://dc.lft.to/lastmile_qr_scan"}, "bike_id": "0429c423084f14ab9cb6fdcbe52bf36b", "lat": 38.897128333333335, "name": "0429c423084f14ab9cb6fdcbe52bf36b"}, {"is_disabled": 0, "type": "electric_scooter", "fusion_lon": 0.0, "is_reserved": 0, "fusion_lat": 0.0, "lon": -77.00892683333333, "rental_uris": {"ios": "https://dc.lft.to/lastmile_qr_scan", "android": "https://dc.lft.to/lastmile_qr_scan"}, "bike_id": "962d90df6e3977cdfea1dcd034d61939", "lat": 38.879148, "name": "962d90df6e3977cdfea1dcd034d61939"}, {"is_disabled": 0, "type": "electric_scooter", "fusion_lon": 0.0, "is_reserved": 0, "fusion_lat": 0.0, "lon": -77.03154733333334, "rental_uris": {"ios": "https://dc.lft.to/lastmile_qr_scan", "android": "https://dc.lft.to/lastmile_qr_scan"}, "bike_id": "29cf657bbb7879b247400c0d74b2dc7d", "lat": 38.898168166666665, "name": "29cf657bbb7879b247400c0d74b2dc7d"}, {"is_disabled": 0, "type": "electric_scooter", "fusion_lon": 0.0, "is_reserved": 0, "fusion_lat": 0.0, "lon": -76.92440416666666, "rental_uris": {"ios": "https://dc.lft.to/lastmile_qr_scan", "android": "https://dc.lft.to/lastmile_qr_scan"}, "bike_id": "4b150cc052032c6d2c90a7973be97026", "lat": 38.885147333333336, "name": "4b150cc052032c6d2c90a7973be97026"}, {"is_disabled": 0, "type": "electric_bike", "fusion_lon": 0.0, "is_reserved": 0, "fusion_lat": 0.0, "lon": -77.07913833333333, "rental_uris": {"ios": "https://dc.lft.to/lastmile_qr_scan", "android": "https://dc.lft.to/lastmile_qr_scan"}, "bike_id": "8312f23192502cd53d22bda1114488b8", "lat": 38.83828883333334, "name": "8312f23192502cd53d22bda1114488b8"}, {"is_disabled": 0, "type": "electric_scooter", "fusion_lon": 0.0, "is_reserved": 0, "fusion_lat": 0.0, "lon": -77.02097016666667, "rental_uris": {"ios": "https://dc.lft.to/lastmile_qr_scan", "android": "https://dc.lft.to/lastmile_qr_scan"}, "bike_id": "769cae934af816a70a3a69218f36369c", "lat": 38.932673333333334, "name": "769cae934af816a70a3a69218f36369c"}, {"is_disabled": 0, "type": "electric_scooter", "fusion_lon": 0.0, "is_reserved": 0, "fusion_lat": 0.0, "lon": -77.043446, "rental_uris": {"ios": "https://dc.lft.to/lastmile_qr_scan", "android": "https://dc.lft.to/lastmile_qr_scan"}, "bike_id": "4647064251483c96f19d5ae4bc7d55bc", "lat": 38.901193666666664, "name": "4647064251483c96f19d5ae4bc7d55bc"}, {"is_disabled": 0, "type": "electric_scooter", "fusion_lon": 0.0, "is_reserved": 0, "fusion_lat": 0.0, "lon": -77.02291416666667, "rental_uris": {"ios": "https://dc.lft.to/lastmile_qr_scan", "android": "https://dc.lft.to/lastmile_qr_scan"}, "bike_id": "719fb2dcd7a8ab8e47ed7452f413d073", "lat": 38.90031716666667, "name": "719fb2dcd7a8ab8e47ed7452f413d073"}, {"is_disabled": 0, "type": "electric_scooter", "fusion_lon": 0.0, "is_reserved": 0, "fusion_lat": 0.0, "lon": -77.03710116666667, "rental_uris": {"ios": "https://dc.lft.to/lastmile_qr_scan", "android": "https://dc.lft.to/lastmile_qr_scan"}, "bike_id": "081cc0e96d3d7382e94f34fdcef7a2de", "lat": 38.92654616666667, "name": "081cc0e96d3d7382e94f34fdcef7a2de"}, {"is_disabled": 0, "type": "electric_bike", "fusion_lon": 0.0, "is_reserved": 0, "fusion_lat": 0.0, "lon": -77.06012666666666, "rental_uris": {"ios": "https://dc.lft.to/lastmile_qr_scan", "android": "https://dc.lft.to/lastmile_qr_scan"}, "bike_id": "13436df7e838e10091f9205b1fb00216", "lat": 38.90290183333333, "name": "13436df7e838e10091f9205b1fb00216"}, {"is_disabled": 0, "type": "electric_scooter", "fusion_lon": 0.0, "is_reserved": 0, "fusion_lat": 0.0, "lon": -77.05893066666667, "rental_uris": {"ios": "https://dc.lft.to/lastmile_qr_scan", "android": "https://dc.lft.to/lastmile_qr_scan"}, "bike_id": "0dcb241cca87fa80be6df4b64a3b9c8d", "lat": 38.9033265, "name": "0dcb241cca87fa80be6df4b64a3b9c8d"}, {"is_disabled": 0, "type": "electric_scooter", "fusion_lon": 0.0, "is_reserved": 0, "fusion_lat": 0.0, "lon": -77.00904033333333, "rental_uris": {"ios": "https://dc.lft.to/lastmile_qr_scan", "android": "https://dc.lft.to/lastmile_qr_scan"}, "bike_id": "613c8a63b7df41def519d20560952edd", "lat": 38.909714, "name": "613c8a63b7df41def519d20560952edd"}, {"is_disabled": 0, "type": "electric_bike", "fusion_lon": 0.0, "is_reserved": 0, "fusion_lat": 0.0, "lon": -77.11309133333333, "rental_uris": {"ios": "https://dc.lft.to/lastmile_qr_scan", "android": "https://dc.lft.to/lastmile_qr_scan"}, "bike_id": "c4343d6917d73c99aa16d4ef9864d288", "lat": 38.831370666666665, "name": "c4343d6917d73c99aa16d4ef9864d288"}, {"is_disabled": 0, "type": "electric_scooter", "fusion_lon": 0.0, "is_reserved": 0, "fusion_lat": 0.0, "lon": -77.033792, "rental_uris": {"ios": "https://dc.lft.to/lastmile_qr_scan", "android": "https://dc.lft.to/lastmile_qr_scan"}, "bike_id": "409921f245b1363238fca01a49b42d90", "lat": 38.9011105, "name": "409921f245b1363238fca01a49b42d90"}, {"is_disabled": 0, "type": "electric_scooter", "fusion_lon": 0.0, "is_reserved": 0, "fusion_lat": 0.0, "lon": -77.01948816666666, "rental_uris": {"ios": "https://dc.lft.to/lastmile_qr_scan", "android": "https://dc.lft.to/lastmile_qr_scan"}, "bike_id": "8eb9c3daa88bf100225f093126c651ec", "lat": 38.924127166666665, "name": "8eb9c3daa88bf100225f093126c651ec"}, {"is_disabled": 0, "type": "electric_scooter", "fusion_lon": 0.0, "is_reserved": 0, "fusion_lat": 0.0, "lon": -77.08054633333333, "rental_uris": {"ios": "https://dc.lft.to/lastmile_qr_scan", "android": "https://dc.lft.to/lastmile_qr_scan"}, "bike_id": "e5b98ff677d61f7cab547739151be66a", "lat": 38.9488855, "name": "e5b98ff677d61f7cab547739151be66a"}, {"is_disabled": 0, "type": "electric_scooter", "fusion_lon": 0.0, "is_reserved": 0, "fusion_lat": 0.0, "lon": -77.0276, "rental_uris": {"ios": "https://dc.lft.to/lastmile_qr_scan", "android": "https://dc.lft.to/lastmile_qr_scan"}, "bike_id": "8a8e94891d9bf2b1c46b683ec99c444c", "lat": 38.9276745, "name": "8a8e94891d9bf2b1c46b683ec99c444c"}, {"is_disabled": 0, "type": "electric_scooter", "fusion_lon": 0.0, "is_reserved": 0, "fusion_lat": 0.0, "lon": -77.0317115, "rental_uris": {"ios": "https://dc.lft.to/lastmile_qr_scan", "android": "https://dc.lft.to/lastmile_qr_scan"}, "bike_id": "23ae01c8646b83d6aee62480230a0dbe", "lat": 38.8922315, "name": "23ae01c8646b83d6aee62480230a0dbe"}, {"is_disabled": 0, "type": "electric_scooter", "fusion_lon": 0.0, "is_reserved": 0, "fusion_lat": 0.0, "lon": -77.00361083333334, "rental_uris": {"ios": "https://dc.lft.to/lastmile_qr_scan", "android": "https://dc.lft.to/lastmile_qr_scan"}, "bike_id": "c645351243379722c7d37b93e147537e", "lat": 38.91102766666667, "name": "c645351243379722c7d37b93e147537e"}, {"is_disabled": 0, "type": "electric_scooter", "fusion_lon": 0.0, "is_reserved": 0, "fusion_lat": 0.0, "lon": -77.0394395, "rental_uris": {"ios": "https://dc.lft.to/lastmile_qr_scan", "android": "https://dc.lft.to/lastmile_qr_scan"}, "bike_id": "010a75c1b033310f65acfc86a8903745", "lat": 38.89891633333333, "name": "010a75c1b033310f65acfc86a8903745"}, {"is_disabled": 0, "type": "electric_scooter", "fusion_lon": 0.0, "is_reserved": 0, "fusion_lat": 0.0, "lon": -77.00098016666666, "rental_uris": {"ios": "https://dc.lft.to/lastmile_qr_scan", "android": "https://dc.lft.to/lastmile_qr_scan"}, "bike_id": "daea088f363c49e1e5dc933ed71137ba", "lat": 38.886446166666666, "name": "daea088f363c49e1e5dc933ed71137ba"}, {"is_disabled": 0, "type": "electric_scooter", "fusion_lon": 0.0, "is_reserved": 0, "fusion_lat": 0.0, "lon": -77.01457133333334, "rental_uris": {"ios": "https://dc.lft.to/lastmile_qr_scan", "android": "https://dc.lft.to/lastmile_qr_scan"}, "bike_id": "8266df22d2fdc701576e2508caf901d9", "lat": 38.95815, "name": "8266df22d2fdc701576e2508caf901d9"}, {"is_disabled": 0, "type": "electric_scooter", "fusion_lon": 0.0, "is_reserved": 0, "fusion_lat": 0.0, "lon": -77.04492983333333, "rental_uris": {"ios": "https://dc.lft.to/lastmile_qr_scan", "android": "https://dc.lft.to/lastmile_qr_scan"}, "bike_id": "05734a2348f59d20a4915d957afebe76", "lat": 38.90779283333333, "name": "05734a2348f59d20a4915d957afebe76"}, {"is_disabled": 0, "type": "electric_scooter", "fusion_lon": 0.0, "is_reserved": 0, "fusion_lat": 0.0, "lon": -77.04500166666666, "rental_uris": {"ios": "https://dc.lft.to/lastmile_qr_scan", "android": "https://dc.lft.to/lastmile_qr_scan"}, "bike_id": "1636fb662301e143ea8b2572f6f28ef5", "lat": 38.91625483333333, "name": "1636fb662301e143ea8b2572f6f28ef5"}, {"is_disabled": 0, "type": "electric_bike", "fusion_lon": 0.0, "is_reserved": 0, "fusion_lat": 0.0, "lon": -77.23177883333334, "rental_uris": {"ios": "https://dc.lft.to/lastmile_qr_scan", "android": "https://dc.lft.to/lastmile_qr_scan"}, "bike_id": "d04036d7a3ed990f035f0f7bd01bfc6f", "lat": 38.92893883333333, "name": "d04036d7a3ed990f035f0f7bd01bfc6f"}, {"is_disabled": 0, "type": "electric_scooter", "fusion_lon": 0.0, "is_reserved": 0, "fusion_lat": 0.0, "lon": -76.99166216666667, "rental_uris": {"ios": "https://dc.lft.to/lastmile_qr_scan", "android": "https://dc.lft.to/lastmile_qr_scan"}, "bike_id": "9c3cd7b2ed8ca2621aec01bf4e8c4b74", "lat": 38.873401666666666, "name": "9c3cd7b2ed8ca2621aec01bf4e8c4b74"}, {"is_disabled": 0, "type": "electric_scooter", "fusion_lon": 0.0, "is_reserved": 0, "fusion_lat": 0.0, "lon": -77.00208983333333, "rental_uris": {"ios": "https://dc.lft.to/lastmile_qr_scan", "android": "https://dc.lft.to/lastmile_qr_scan"}, "bike_id": "5280e4db25b7c64935c4de9b0ddd79f4", "lat": 38.9003475, "name": "5280e4db25b7c64935c4de9b0ddd79f4"}, {"is_disabled": 0, "type": "electric_scooter", "fusion_lon": 0.0, "is_reserved": 0, "fusion_lat": 0.0, "lon": -77.00287216666666, "rental_uris": {"ios": "https://dc.lft.to/lastmile_qr_scan", "android": "https://dc.lft.to/lastmile_qr_scan"}, "bike_id": "3a778f8b70274321def7246396094b95", "lat": 38.87678716666667, "name": "3a778f8b70274321def7246396094b95"}, {"is_disabled": 0, "type": "electric_scooter", "fusion_lon": 0.0, "is_reserved": 0, "fusion_lat": 0.0, "lon": -77.00570316666666, "rental_uris": {"ios": "https://dc.lft.to/lastmile_qr_scan", "android": "https://dc.lft.to/lastmile_qr_scan"}, "bike_id": "8229cfefa5046af761c0bbcd721f0b76", "lat": 38.87518766666667, "name": "8229cfefa5046af761c0bbcd721f0b76"}, {"is_disabled": 0, "type": "electric_scooter", "fusion_lon": 0.0, "is_reserved": 0, "fusion_lat": 0.0, "lon": -77.042336, "rental_uris": {"ios": "https://dc.lft.to/lastmile_qr_scan", "android": "https://dc.lft.to/lastmile_qr_scan"}, "bike_id": "b5b5a0711febb316a63f3967232e4bb3", "lat": 38.921621, "name": "b5b5a0711febb316a63f3967232e4bb3"}, {"is_disabled": 0, "type": "electric_bike", "fusion_lon": 0.0, "is_reserved": 0, "fusion_lat": 0.0, "lon": -77.10337133333333, "rental_uris": {"ios": "https://dc.lft.to/lastmile_qr_scan", "android": "https://dc.lft.to/lastmile_qr_scan"}, "bike_id": "602ead42bb275289fb3619b9864c28c4", "lat": 38.836875, "name": "602ead42bb275289fb3619b9864c28c4"}, {"is_disabled": 0, "type": "electric_scooter", "fusion_lon": 0.0, "is_reserved": 0, "fusion_lat": 0.0, "lon": -77.02220066666666, "rental_uris": {"ios": "https://dc.lft.to/lastmile_qr_scan", "android": "https://dc.lft.to/lastmile_qr_scan"}, "bike_id": "5899dbc6af289bea015d6e1371ff8b2c", "lat": 38.92471066666667, "name": "5899dbc6af289bea015d6e1371ff8b2c"}, {"is_disabled": 0, "type": "electric_scooter", "fusion_lon": 0.0, "is_reserved": 0, "fusion_lat": 0.0, "lon": -77.01970816666666, "rental_uris": {"ios": "https://dc.lft.to/lastmile_qr_scan", "android": "https://dc.lft.to/lastmile_qr_scan"}, "bike_id": "a273b776c487d48c84c225eb441e20a9", "lat": 38.92250966666667, "name": "a273b776c487d48c84c225eb441e20a9"}, {"is_disabled": 0, "type": "electric_scooter", "fusion_lon": 0.0, "is_reserved": 0, "fusion_lat": 0.0, "lon": -77.00928766666667, "rental_uris": {"ios": "https://dc.lft.to/lastmile_qr_scan", "android": "https://dc.lft.to/lastmile_qr_scan"}, "bike_id": "a3be7454017888182929e4bcf83f3ab1", "lat": 38.89620883333333, "name": "a3be7454017888182929e4bcf83f3ab1"}, {"is_disabled": 0, "type": "electric_scooter", "fusion_lon": 0.0, "is_reserved": 0, "fusion_lat": 0.0, "lon": -77.03466433333334, "rental_uris": {"ios": "https://dc.lft.to/lastmile_qr_scan", "android": "https://dc.lft.to/lastmile_qr_scan"}, "bike_id": "00196acedc79a881aa6c50a786885a98", "lat": 38.928827, "name": "00196acedc79a881aa6c50a786885a98"}, {"is_disabled": 0, "type": "electric_scooter", "fusion_lon": 0.0, "is_reserved": 0, "fusion_lat": 0.0, "lon": -77.04187783333333, "rental_uris": {"ios": "https://dc.lft.to/lastmile_qr_scan", "android": "https://dc.lft.to/lastmile_qr_scan"}, "bike_id": "b5ce4c312953e5d7492b2dce8593b9cd", "lat": 38.905592666666664, "name": "b5ce4c312953e5d7492b2dce8593b9cd"}, {"is_disabled": 0, "type": "electric_scooter", "fusion_lon": 0.0, "is_reserved": 0, "fusion_lat": 0.0, "lon": -77.039264, "rental_uris": {"ios": "https://dc.lft.to/lastmile_qr_scan", "android": "https://dc.lft.to/lastmile_qr_scan"}, "bike_id": "46c9fa46290932226a424e69866e51a4", "lat": 38.899118666666666, "name": "46c9fa46290932226a424e69866e51a4"}, {"is_disabled": 0, "type": "electric_scooter", "fusion_lon": 0.0, "is_reserved": 0, "fusion_lat": 0.0, "lon": -77.00133966666667, "rental_uris": {"ios": "https://dc.lft.to/lastmile_qr_scan", "android": "https://dc.lft.to/lastmile_qr_scan"}, "bike_id": "8a05b3f7d0c0103986b26bc3d723b400", "lat": 38.87376233333333, "name": "8a05b3f7d0c0103986b26bc3d723b400"}, {"is_disabled": 0, "type": "electric_scooter", "fusion_lon": 0.0, "is_reserved": 0, "fusion_lat": 0.0, "lon": -77.01363, "rental_uris": {"ios": "https://dc.lft.to/lastmile_qr_scan", "android": "https://dc.lft.to/lastmile_qr_scan"}, "bike_id": "67e74e078a591102ead4959a08ab6299", "lat": 38.913291, "name": "67e74e078a591102ead4959a08ab6299"}, {"is_disabled": 0, "type": "electric_scooter", "fusion_lon": 0.0, "is_reserved": 0, "fusion_lat": 0.0, "lon": -77.02101633333334, "rental_uris": {"ios": "https://dc.lft.to/lastmile_qr_scan", "android": "https://dc.lft.to/lastmile_qr_scan"}, "bike_id": "2a6fde910c687f72b301d97b6cb7a1a6", "lat": 38.92148783333333, "name": "2a6fde910c687f72b301d97b6cb7a1a6"}, {"is_disabled": 0, "type": "electric_scooter", "fusion_lon": 0.0, "is_reserved": 0, "fusion_lat": 0.0, "lon": -76.99623183333334, "rental_uris": {"ios": "https://dc.lft.to/lastmile_qr_scan", "android": "https://dc.lft.to/lastmile_qr_scan"}, "bike_id": "a657aa5e38c2fd603833cd85acf9aad3", "lat": 38.87776216666666, "name": "a657aa5e38c2fd603833cd85acf9aad3"}, {"is_disabled": 0, "type": "electric_scooter", "fusion_lon": 0.0, "is_reserved": 0, "fusion_lat": 0.0, "lon": -77.0188825, "rental_uris": {"ios": "https://dc.lft.to/lastmile_qr_scan", "android": "https://dc.lft.to/lastmile_qr_scan"}, "bike_id": "da8aa296ec115ac7803847774e0edb33", "lat": 38.89749366666667, "name": "da8aa296ec115ac7803847774e0edb33"}, {"is_disabled": 0, "type": "electric_scooter", "fusion_lon": 0.0, "is_reserved": 0, "fusion_lat": 0.0, "lon": -77.01505933333334, "rental_uris": {"ios": "https://dc.lft.to/lastmile_qr_scan", "android": "https://dc.lft.to/lastmile_qr_scan"}, "bike_id": "897beaef36208b4377c1cef2a3c5450f", "lat": 38.887125833333336, "name": "897beaef36208b4377c1cef2a3c5450f"}, {"is_disabled": 0, "type": "electric_scooter", "fusion_lon": 0.0, "is_reserved": 0, "fusion_lat": 0.0, "lon": -77.00888866666666, "rental_uris": {"ios": "https://dc.lft.to/lastmile_qr_scan", "android": "https://dc.lft.to/lastmile_qr_scan"}, "bike_id": "0f1504bae7d9d81be95746301d9f5053", "lat": 38.9006665, "name": "0f1504bae7d9d81be95746301d9f5053"}, {"is_disabled": 0, "type": "electric_scooter", "fusion_lon": 0.0, "is_reserved": 0, "fusion_lat": 0.0, "lon": -77.02979, "rental_uris": {"ios": "https://dc.lft.to/lastmile_qr_scan", "android": "https://dc.lft.to/lastmile_qr_scan"}, "bike_id": "fe65984e36374495b7d558e73a5f309e", "lat": 38.94349666666667, "name": "fe65984e36374495b7d558e73a5f309e"}, {"is_disabled": 0, "type": "electric_scooter", "fusion_lon": 0.0, "is_reserved": 0, "fusion_lat": 0.0, "lon": -77.03186366666667, "rental_uris": {"ios": "https://dc.lft.to/lastmile_qr_scan", "android": "https://dc.lft.to/lastmile_qr_scan"}, "bike_id": "3cc95aa0bdacc2024b855c5ed6150c13", "lat": 38.900074000000004, "name": "3cc95aa0bdacc2024b855c5ed6150c13"}, {"is_disabled": 0, "type": "electric_scooter", "fusion_lon": 0.0, "is_reserved": 0, "fusion_lat": 0.0, "lon": -77.03832416666667, "rental_uris": {"ios": "https://dc.lft.to/lastmile_qr_scan", "android": "https://dc.lft.to/lastmile_qr_scan"}, "bike_id": "52b64e3e8c4eb5d486318b0f1e529ae7", "lat": 38.91889, "name": "52b64e3e8c4eb5d486318b0f1e529ae7"}, {"is_disabled": 0, "type": "electric_scooter", "fusion_lon": 0.0, "is_reserved": 0, "fusion_lat": 0.0, "lon": -77.041549, "rental_uris": {"ios": "https://dc.lft.to/lastmile_qr_scan", "android": "https://dc.lft.to/lastmile_qr_scan"}, "bike_id": "ca91f93047c6c848bf4288da3889e617", "lat": 38.92537183333334, "name": "ca91f93047c6c848bf4288da3889e617"}, {"is_disabled": 0, "type": "electric_scooter", "fusion_lon": 0.0, "is_reserved": 0, "fusion_lat": 0.0, "lon": -77.03186516666666, "rental_uris": {"ios": "https://dc.lft.to/lastmile_qr_scan", "android": "https://dc.lft.to/lastmile_qr_scan"}, "bike_id": "ea593a0a1890cd56e1cd62112513e448", "lat": 38.918416666666666, "name": "ea593a0a1890cd56e1cd62112513e448"}, {"is_disabled": 0, "type": "electric_scooter", "fusion_lon": 0.0, "is_reserved": 0, "fusion_lat": 0.0, "lon": -77.02156866666667, "rental_uris": {"ios": "https://dc.lft.to/lastmile_qr_scan", "android": "https://dc.lft.to/lastmile_qr_scan"}, "bike_id": "dbcb61ca58eee00726166b23eb7fa9d2", "lat": 38.92602883333333, "name": "dbcb61ca58eee00726166b23eb7fa9d2"}, {"is_disabled": 0, "type": "electric_scooter", "fusion_lon": 0.0, "is_reserved": 0, "fusion_lat": 0.0, "lon": -77.04349666666667, "rental_uris": {"ios": "https://dc.lft.to/lastmile_qr_scan", "android": "https://dc.lft.to/lastmile_qr_scan"}, "bike_id": "23bd890fba44738916c629fddb79d9b7", "lat": 38.904201, "name": "23bd890fba44738916c629fddb79d9b7"}, {"is_disabled": 0, "type": "electric_scooter", "fusion_lon": 0.0, "is_reserved": 0, "fusion_lat": 0.0, "lon": -77.06002566666666, "rental_uris": {"ios": "https://dc.lft.to/lastmile_qr_scan", "android": "https://dc.lft.to/lastmile_qr_scan"}, "bike_id": "9df627016d49a2ff7d3af6c3ae86cf67", "lat": 38.92713033333333, "name": "9df627016d49a2ff7d3af6c3ae86cf67"}, {"is_disabled": 0, "type": "electric_scooter", "fusion_lon": 0.0, "is_reserved": 0, "fusion_lat": 0.0, "lon": -77.02415466666666, "rental_uris": {"ios": "https://dc.lft.to/lastmile_qr_scan", "android": "https://dc.lft.to/lastmile_qr_scan"}, "bike_id": "bff5bb861d9e64ceafbf2c793c94830b", "lat": 38.92147283333333, "name": "bff5bb861d9e64ceafbf2c793c94830b"}, {"is_disabled": 0, "type": "electric_scooter", "fusion_lon": 0.0, "is_reserved": 0, "fusion_lat": 0.0, "lon": -77.02323933333334, "rental_uris": {"ios": "https://dc.lft.to/lastmile_qr_scan", "android": "https://dc.lft.to/lastmile_qr_scan"}, "bike_id": "ce819945b51f0e64a715580858ff3298", "lat": 38.920912333333334, "name": "ce819945b51f0e64a715580858ff3298"}, {"is_disabled": 0, "type": "electric_scooter", "fusion_lon": 0.0, "is_reserved": 0, "fusion_lat": 0.0, "lon": -77.03185616666667, "rental_uris": {"ios": "https://dc.lft.to/lastmile_qr_scan", "android": "https://dc.lft.to/lastmile_qr_scan"}, "bike_id": "1e9327ce97c32d06566c758528ad02e6", "lat": 38.89914683333333, "name": "1e9327ce97c32d06566c758528ad02e6"}, {"is_disabled": 0, "type": "electric_scooter", "fusion_lon": 0.0, "is_reserved": 0, "fusion_lat": 0.0, "lon": -77.02659483333333, "rental_uris": {"ios": "https://dc.lft.to/lastmile_qr_scan", "android": "https://dc.lft.to/lastmile_qr_scan"}, "bike_id": "625ded75e3293db93e35392b9135479c", "lat": 38.895921333333334, "name": "625ded75e3293db93e35392b9135479c"}, {"is_disabled": 0, "type": "electric_scooter", "fusion_lon": 0.0, "is_reserved": 0, "fusion_lat": 0.0, "lon": -76.982375, "rental_uris": {"ios": "https://dc.lft.to/lastmile_qr_scan", "android": "https://dc.lft.to/lastmile_qr_scan"}, "bike_id": "d02f79ca60fdd904cd3d60cc7c991812", "lat": 38.908904666666665, "name": "d02f79ca60fdd904cd3d60cc7c991812"}, {"is_disabled": 0, "type": "electric_scooter", "fusion_lon": 0.0, "is_reserved": 0, "fusion_lat": 0.0, "lon": -77.02599266666667, "rental_uris": {"ios": "https://dc.lft.to/lastmile_qr_scan", "android": "https://dc.lft.to/lastmile_qr_scan"}, "bike_id": "bc7e6402033fba9e569de5b815fda94a", "lat": 38.90020466666667, "name": "bc7e6402033fba9e569de5b815fda94a"}, {"is_disabled": 0, "type": "electric_scooter", "fusion_lon": 0.0, "is_reserved": 0, "fusion_lat": 0.0, "lon": -77.02088766666667, "rental_uris": {"ios": "https://dc.lft.to/lastmile_qr_scan", "android": "https://dc.lft.to/lastmile_qr_scan"}, "bike_id": "dba856f4be904e13d4efb210a6f96395", "lat": 38.921184, "name": "dba856f4be904e13d4efb210a6f96395"}, {"is_disabled": 0, "type": "electric_scooter", "fusion_lon": 0.0, "is_reserved": 0, "fusion_lat": 0.0, "lon": -76.9321525, "rental_uris": {"ios": "https://dc.lft.to/lastmile_qr_scan", "android": "https://dc.lft.to/lastmile_qr_scan"}, "bike_id": "69d33cb329cb769782f9a4ea73929ff9", "lat": 38.880519166666666, "name": "69d33cb329cb769782f9a4ea73929ff9"}, {"is_disabled": 0, "type": "electric_scooter", "fusion_lon": 0.0, "is_reserved": 0, "fusion_lat": 0.0, "lon": -77.02071866666667, "rental_uris": {"ios": "https://dc.lft.to/lastmile_qr_scan", "android": "https://dc.lft.to/lastmile_qr_scan"}, "bike_id": "6f1b65e0314a5a674ca0e620334cd5db", "lat": 38.9029575, "name": "6f1b65e0314a5a674ca0e620334cd5db"}, {"is_disabled": 0, "type": "electric_scooter", "fusion_lon": 0.0, "is_reserved": 0, "fusion_lat": 0.0, "lon": -76.93061066666667, "rental_uris": {"ios": "https://dc.lft.to/lastmile_qr_scan", "android": "https://dc.lft.to/lastmile_qr_scan"}, "bike_id": "61b240b2a5d1b298a452d5a77132e797", "lat": 38.89558133333333, "name": "61b240b2a5d1b298a452d5a77132e797"}, {"is_disabled": 0, "type": "electric_scooter", "fusion_lon": 0.0, "is_reserved": 0, "fusion_lat": 0.0, "lon": -77.0121475, "rental_uris": {"ios": "https://dc.lft.to/lastmile_qr_scan", "android": "https://dc.lft.to/lastmile_qr_scan"}, "bike_id": "3330300fe561657f748af7016f17d57e", "lat": 38.89615783333333, "name": "3330300fe561657f748af7016f17d57e"}, {"is_disabled": 0, "type": "electric_scooter", "fusion_lon": 0.0, "is_reserved": 0, "fusion_lat": 0.0, "lon": -77.01113966666666, "rental_uris": {"ios": "https://dc.lft.to/lastmile_qr_scan", "android": "https://dc.lft.to/lastmile_qr_scan"}, "bike_id": "9172018e1d4025e88d75310e3e9da576", "lat": 38.894761333333335, "name": "9172018e1d4025e88d75310e3e9da576"}, {"is_disabled": 0, "type": "electric_scooter", "fusion_lon": 0.0, "is_reserved": 0, "fusion_lat": 0.0, "lon": -77.04132016666667, "rental_uris": {"ios": "https://dc.lft.to/lastmile_qr_scan", "android": "https://dc.lft.to/lastmile_qr_scan"}, "bike_id": "51f039f6b94deba0710d1faf004154e7", "lat": 38.902174, "name": "51f039f6b94deba0710d1faf004154e7"}, {"is_disabled": 0, "type": "electric_scooter", "fusion_lon": 0.0, "is_reserved": 0, "fusion_lat": 0.0, "lon": -77.02193266666667, "rental_uris": {"ios": "https://dc.lft.to/lastmile_qr_scan", "android": "https://dc.lft.to/lastmile_qr_scan"}, "bike_id": "ea6c55a7b124404e044af77461cb5658", "lat": 38.921654833333335, "name": "ea6c55a7b124404e044af77461cb5658"}, {"is_disabled": 0, "type": "electric_scooter", "fusion_lon": 0.0, "is_reserved": 0, "fusion_lat": 0.0, "lon": -77.03959916666666, "rental_uris": {"ios": "https://dc.lft.to/lastmile_qr_scan", "android": "https://dc.lft.to/lastmile_qr_scan"}, "bike_id": "21293f3704de3cf6eba8924c45413a0e", "lat": 38.919661166666664, "name": "21293f3704de3cf6eba8924c45413a0e"}, {"is_disabled": 0, "type": "electric_scooter", "fusion_lon": 0.0, "is_reserved": 0, "fusion_lat": 0.0, "lon": -77.01115716666666, "rental_uris": {"ios": "https://dc.lft.to/lastmile_qr_scan", "android": "https://dc.lft.to/lastmile_qr_scan"}, "bike_id": "ba070b35bd9a30bcf51cd7235e24b0ab", "lat": 38.88509216666667, "name": "ba070b35bd9a30bcf51cd7235e24b0ab"}, {"is_disabled": 0, "type": "electric_scooter", "fusion_lon": 0.0, "is_reserved": 0, "fusion_lat": 0.0, "lon": -77.04677116666667, "rental_uris": {"ios": "https://dc.lft.to/lastmile_qr_scan", "android": "https://dc.lft.to/lastmile_qr_scan"}, "bike_id": "2bd6ce62ffe76799be7ffd63e65ea1c2", "lat": 38.90029033333333, "name": "2bd6ce62ffe76799be7ffd63e65ea1c2"}, {"is_disabled": 0, "type": "electric_scooter", "fusion_lon": 0.0, "is_reserved": 0, "fusion_lat": 0.0, "lon": -77.01575566666666, "rental_uris": {"ios": "https://dc.lft.to/lastmile_qr_scan", "android": "https://dc.lft.to/lastmile_qr_scan"}, "bike_id": "c65c01be7673d96d37044ab866b2eb7e", "lat": 38.926861, "name": "c65c01be7673d96d37044ab866b2eb7e"}, {"is_disabled": 0, "type": "electric_scooter", "fusion_lon": 0.0, "is_reserved": 0, "fusion_lat": 0.0, "lon": -77.04633466666667, "rental_uris": {"ios": "https://dc.lft.to/lastmile_qr_scan", "android": "https://dc.lft.to/lastmile_qr_scan"}, "bike_id": "7814422f7242b270b51d726fec061cac", "lat": 38.909632333333334, "name": "7814422f7242b270b51d726fec061cac"}, {"is_disabled": 0, "type": "electric_scooter", "fusion_lon": 0.0, "is_reserved": 0, "fusion_lat": 0.0, "lon": -77.05235366666666, "rental_uris": {"ios": "https://dc.lft.to/lastmile_qr_scan", "android": "https://dc.lft.to/lastmile_qr_scan"}, "bike_id": "d2ff2a35e707c5bb303b2d9a01775e55", "lat": 38.924708833333334, "name": "d2ff2a35e707c5bb303b2d9a01775e55"}, {"is_disabled": 0, "type": "electric_scooter", "fusion_lon": 0.0, "is_reserved": 0, "fusion_lat": 0.0, "lon": -77.013418, "rental_uris": {"ios": "https://dc.lft.to/lastmile_qr_scan", "android": "https://dc.lft.to/lastmile_qr_scan"}, "bike_id": "51165f660dd2e9496e5aa19549768319", "lat": 38.926441833333335, "name": "51165f660dd2e9496e5aa19549768319"}, {"is_disabled": 0, "type": "electric_bike", "fusion_lon": 0.0, "is_reserved": 0, "fusion_lat": 0.0, "lon": -77.0570595, "rental_uris": {"ios": "https://dc.lft.to/lastmile_qr_scan", "android": "https://dc.lft.to/lastmile_qr_scan"}, "bike_id": "7f0c48fabbe4971f81df615e6e544999", "lat": 38.907770166666666, "name": "7f0c48fabbe4971f81df615e6e544999"}, {"is_disabled": 0, "type": "electric_scooter", "fusion_lon": 0.0, "is_reserved": 0, "fusion_lat": 0.0, "lon": -77.0043895, "rental_uris": {"ios": "https://dc.lft.to/lastmile_qr_scan", "android": "https://dc.lft.to/lastmile_qr_scan"}, "bike_id": "b779381a5d1adf8b5ac080391f242309", "lat": 38.8765745, "name": "b779381a5d1adf8b5ac080391f242309"}, {"is_disabled": 0, "type": "electric_scooter", "fusion_lon": 0.0, "is_reserved": 0, "fusion_lat": 0.0, "lon": -77.00139133333333, "rental_uris": {"ios": "https://dc.lft.to/lastmile_qr_scan", "android": "https://dc.lft.to/lastmile_qr_scan"}, "bike_id": "055ef3850e2422ec41bcf2b1d364018e", "lat": 38.873783833333334, "name": "055ef3850e2422ec41bcf2b1d364018e"}, {"is_disabled": 0, "type": "electric_bike", "fusion_lon": 0.0, "is_reserved": 0, "fusion_lat": 0.0, "lon": -76.94726133333333, "rental_uris": {"ios": "https://dc.lft.to/lastmile_qr_scan", "android": "https://dc.lft.to/lastmile_qr_scan"}, "bike_id": "ffb46bac0a036885a4a3ee912ffbe605", "lat": 38.983809666666666, "name": "ffb46bac0a036885a4a3ee912ffbe605"}, {"is_disabled": 0, "type": "electric_scooter", "fusion_lon": 0.0, "is_reserved": 0, "fusion_lat": 0.0, "lon": -77.00351516666667, "rental_uris": {"ios": "https://dc.lft.to/lastmile_qr_scan", "android": "https://dc.lft.to/lastmile_qr_scan"}, "bike_id": "7f5637b1f855c848a4fb4150e2f99be5", "lat": 38.899056, "name": "7f5637b1f855c848a4fb4150e2f99be5"}, {"is_disabled": 0, "type": "electric_bike", "fusion_lon": 0.0, "is_reserved": 0, "fusion_lat": 0.0, "lon": -77.09542533333334, "rental_uris": {"ios": "https://dc.lft.to/lastmile_qr_scan", "android": "https://dc.lft.to/lastmile_qr_scan"}, "bike_id": "62a18479f8bcabf55d569939a23f6bf8", "lat": 38.98968416666666, "name": "62a18479f8bcabf55d569939a23f6bf8"}, {"is_disabled": 0, "type": "electric_scooter", "fusion_lon": 0.0, "is_reserved": 0, "fusion_lat": 0.0, "lon": -77.015011, "rental_uris": {"ios": "https://dc.lft.to/lastmile_qr_scan", "android": "https://dc.lft.to/lastmile_qr_scan"}, "bike_id": "50dade25dc65ccb7d2dcc27763b2fb5c", "lat": 38.90143033333333, "name": "50dade25dc65ccb7d2dcc27763b2fb5c"}, {"is_disabled": 0, "type": "electric_scooter", "fusion_lon": 0.0, "is_reserved": 0, "fusion_lat": 0.0, "lon": -77.01105533333333, "rental_uris": {"ios": "https://dc.lft.to/lastmile_qr_scan", "android": "https://dc.lft.to/lastmile_qr_scan"}, "bike_id": "5f50bb1d614b3200ae24c2e715995a8d", "lat": 38.894698166666664, "name": "5f50bb1d614b3200ae24c2e715995a8d"}, {"is_disabled": 0, "type": "electric_scooter", "fusion_lon": 0.0, "is_reserved": 0, "fusion_lat": 0.0, "lon": -77.03907083333333, "rental_uris": {"ios": "https://dc.lft.to/lastmile_qr_scan", "android": "https://dc.lft.to/lastmile_qr_scan"}, "bike_id": "e5e96e072daaa0720169664de7783bb9", "lat": 38.908180333333334, "name": "e5e96e072daaa0720169664de7783bb9"}, {"is_disabled": 0, "type": "electric_scooter", "fusion_lon": 0.0, "is_reserved": 0, "fusion_lat": 0.0, "lon": -77.04687383333334, "rental_uris": {"ios": "https://dc.lft.to/lastmile_qr_scan", "android": "https://dc.lft.to/lastmile_qr_scan"}, "bike_id": "f016aba64822d8e1cfc434779c45ac37", "lat": 38.892210666666664, "name": "f016aba64822d8e1cfc434779c45ac37"}, {"is_disabled": 0, "type": "electric_scooter", "fusion_lon": 0.0, "is_reserved": 0, "fusion_lat": 0.0, "lon": -77.05172883333333, "rental_uris": {"ios": "https://dc.lft.to/lastmile_qr_scan", "android": "https://dc.lft.to/lastmile_qr_scan"}, "bike_id": "b09f83b70f0ce4646a61ea764da31f80", "lat": 38.924268833333336, "name": "b09f83b70f0ce4646a61ea764da31f80"}, {"is_disabled": 0, "type": "electric_scooter", "fusion_lon": 0.0, "is_reserved": 0, "fusion_lat": 0.0, "lon": -77.00711283333334, "rental_uris": {"ios": "https://dc.lft.to/lastmile_qr_scan", "android": "https://dc.lft.to/lastmile_qr_scan"}, "bike_id": "76ac7c1d65165c9b36d9e110d53a5b5d", "lat": 38.8849435, "name": "76ac7c1d65165c9b36d9e110d53a5b5d"}, {"is_disabled": 0, "type": "electric_scooter", "fusion_lon": 0.0, "is_reserved": 0, "fusion_lat": 0.0, "lon": -77.06263066666666, "rental_uris": {"ios": "https://dc.lft.to/lastmile_qr_scan", "android": "https://dc.lft.to/lastmile_qr_scan"}, "bike_id": "1da3e136513ac5c73e5303ecd7ff1c66", "lat": 38.90568716666667, "name": "1da3e136513ac5c73e5303ecd7ff1c66"}, {"is_disabled": 0, "type": "electric_scooter", "fusion_lon": 0.0, "is_reserved": 0, "fusion_lat": 0.0, "lon": -77.03634233333334, "rental_uris": {"ios": "https://dc.lft.to/lastmile_qr_scan", "android": "https://dc.lft.to/lastmile_qr_scan"}, "bike_id": "7c8fbbcee1b670c311b4a7d60039eb9b", "lat": 38.91816933333333, "name": "7c8fbbcee1b670c311b4a7d60039eb9b"}, {"is_disabled": 0, "type": "electric_scooter", "fusion_lon": 0.0, "is_reserved": 0, "fusion_lat": 0.0, "lon": -77.04163083333333, "rental_uris": {"ios": "https://dc.lft.to/lastmile_qr_scan", "android": "https://dc.lft.to/lastmile_qr_scan"}, "bike_id": "c362c0a32934ffe94aa98d7fbfaa149f", "lat": 38.93411233333333, "name": "c362c0a32934ffe94aa98d7fbfaa149f"}, {"is_disabled": 0, "type": "electric_scooter", "fusion_lon": 0.0, "is_reserved": 0, "fusion_lat": 0.0, "lon": -77.01506166666667, "rental_uris": {"ios": "https://dc.lft.to/lastmile_qr_scan", "android": "https://dc.lft.to/lastmile_qr_scan"}, "bike_id": "6c597c33748f81dd322f8147df60da4b", "lat": 38.899575666666664, "name": "6c597c33748f81dd322f8147df60da4b"}, {"is_disabled": 0, "type": "electric_bike", "fusion_lon": 0.0, "is_reserved": 0, "fusion_lat": 0.0, "lon": -76.99658033333333, "rental_uris": {"ios": "https://dc.lft.to/lastmile_qr_scan", "android": "https://dc.lft.to/lastmile_qr_scan"}, "bike_id": "33b87736c8042d7228d3956a1e206bbd", "lat": 38.9677485, "name": "33b87736c8042d7228d3956a1e206bbd"}, {"is_disabled": 0, "type": "electric_scooter", "fusion_lon": 0.0, "is_reserved": 0, "fusion_lat": 0.0, "lon": -77.05480933333334, "rental_uris": {"ios": "https://dc.lft.to/lastmile_qr_scan", "android": "https://dc.lft.to/lastmile_qr_scan"}, "bike_id": "1ed79a3c10fcf78f19ae003272178da0", "lat": 38.9234025, "name": "1ed79a3c10fcf78f19ae003272178da0"}, {"is_disabled": 0, "type": "electric_scooter", "fusion_lon": 0.0, "is_reserved": 0, "fusion_lat": 0.0, "lon": -76.93184216666667, "rental_uris": {"ios": "https://dc.lft.to/lastmile_qr_scan", "android": "https://dc.lft.to/lastmile_qr_scan"}, "bike_id": "34865e53022b237347a7450067044777", "lat": 38.8987405, "name": "34865e53022b237347a7450067044777"}, {"is_disabled": 0, "type": "electric_scooter", "fusion_lon": 0.0, "is_reserved": 0, "fusion_lat": 0.0, "lon": -77.02968483333333, "rental_uris": {"ios": "https://dc.lft.to/lastmile_qr_scan", "android": "https://dc.lft.to/lastmile_qr_scan"}, "bike_id": "98a57bb68b4e176f2ec51c7b0d625c8e", "lat": 38.8957195, "name": "98a57bb68b4e176f2ec51c7b0d625c8e"}, {"is_disabled": 0, "type": "electric_scooter", "fusion_lon": 0.0, "is_reserved": 0, "fusion_lat": 0.0, "lon": -76.99574283333334, "rental_uris": {"ios": "https://dc.lft.to/lastmile_qr_scan", "android": "https://dc.lft.to/lastmile_qr_scan"}, "bike_id": "77a730f388b940affbb69b79adbb4bdd", "lat": 38.892149333333336, "name": "77a730f388b940affbb69b79adbb4bdd"}, {"is_disabled": 0, "type": "electric_scooter", "fusion_lon": 0.0, "is_reserved": 0, "fusion_lat": 0.0, "lon": -77.02160983333333, "rental_uris": {"ios": "https://dc.lft.to/lastmile_qr_scan", "android": "https://dc.lft.to/lastmile_qr_scan"}, "bike_id": "c01e878d762b393877b7f7f731c18791", "lat": 38.892210166666665, "name": "c01e878d762b393877b7f7f731c18791"}, {"is_disabled": 0, "type": "electric_scooter", "fusion_lon": 0.0, "is_reserved": 0, "fusion_lat": 0.0, "lon": -77.0395715, "rental_uris": {"ios": "https://dc.lft.to/lastmile_qr_scan", "android": "https://dc.lft.to/lastmile_qr_scan"}, "bike_id": "c5991be1dd37c3f8559a958a363d05a1", "lat": 38.8924275, "name": "c5991be1dd37c3f8559a958a363d05a1"}, {"is_disabled": 0, "type": "electric_bike", "fusion_lon": 0.0, "is_reserved": 0, "fusion_lat": 0.0, "lon": -77.01052083333333, "rental_uris": {"ios": "https://dc.lft.to/lastmile_qr_scan", "android": "https://dc.lft.to/lastmile_qr_scan"}, "bike_id": "915dbdf7e6649a8e856deb3d34f5ed2b", "lat": 38.877639333333335, "name": "915dbdf7e6649a8e856deb3d34f5ed2b"}, {"is_disabled": 0, "type": "electric_scooter", "fusion_lon": 0.0, "is_reserved": 0, "fusion_lat": 0.0, "lon": -77.03461283333333, "rental_uris": {"ios": "https://dc.lft.to/lastmile_qr_scan", "android": "https://dc.lft.to/lastmile_qr_scan"}, "bike_id": "f129f6313066703e28932964d600d292", "lat": 38.905711333333336, "name": "f129f6313066703e28932964d600d292"}, {"is_disabled": 0, "type": "electric_scooter", "fusion_lon": 0.0, "is_reserved": 0, "fusion_lat": 0.0, "lon": -77.01502166666667, "rental_uris": {"ios": "https://dc.lft.to/lastmile_qr_scan", "android": "https://dc.lft.to/lastmile_qr_scan"}, "bike_id": "c06383fb50e94bcbab9091f80abbef31", "lat": 38.89674383333333, "name": "c06383fb50e94bcbab9091f80abbef31"}, {"is_disabled": 0, "type": "electric_scooter", "fusion_lon": 0.0, "is_reserved": 0, "fusion_lat": 0.0, "lon": -77.00138783333334, "rental_uris": {"ios": "https://dc.lft.to/lastmile_qr_scan", "android": "https://dc.lft.to/lastmile_qr_scan"}, "bike_id": "3f8f86cbb80762c7ae2d9550995eb447", "lat": 38.873763833333335, "name": "3f8f86cbb80762c7ae2d9550995eb447"}, {"is_disabled": 0, "type": "electric_scooter", "fusion_lon": 0.0, "is_reserved": 0, "fusion_lat": 0.0, "lon": -77.01972, "rental_uris": {"ios": "https://dc.lft.to/lastmile_qr_scan", "android": "https://dc.lft.to/lastmile_qr_scan"}, "bike_id": "13f6c7b7ae10447a668404bf8f00b57c", "lat": 38.88885583333333, "name": "13f6c7b7ae10447a668404bf8f00b57c"}, {"is_disabled": 0, "type": "electric_scooter", "fusion_lon": 0.0, "is_reserved": 0, "fusion_lat": 0.0, "lon": -77.04439766666667, "rental_uris": {"ios": "https://dc.lft.to/lastmile_qr_scan", "android": "https://dc.lft.to/lastmile_qr_scan"}, "bike_id": "af87a60cd9911ca7d6f3ae20513eb6cb", "lat": 38.90047033333333, "name": "af87a60cd9911ca7d6f3ae20513eb6cb"}, {"is_disabled": 0, "type": "electric_scooter", "fusion_lon": 0.0, "is_reserved": 0, "fusion_lat": 0.0, "lon": -77.02210483333333, "rental_uris": {"ios": "https://dc.lft.to/lastmile_qr_scan", "android": "https://dc.lft.to/lastmile_qr_scan"}, "bike_id": "0ed2a1cd370a6b78f2b6a065a7df9045", "lat": 38.91555966666667, "name": "0ed2a1cd370a6b78f2b6a065a7df9045"}, {"is_disabled": 0, "type": "electric_scooter", "fusion_lon": 0.0, "is_reserved": 0, "fusion_lat": 0.0, "lon": -77.02844666666667, "rental_uris": {"ios": "https://dc.lft.to/lastmile_qr_scan", "android": "https://dc.lft.to/lastmile_qr_scan"}, "bike_id": "7235c4a4763e3541daa29cf6ed5e388b", "lat": 38.90267983333333, "name": "7235c4a4763e3541daa29cf6ed5e388b"}, {"is_disabled": 0, "type": "electric_scooter", "fusion_lon": 0.0, "is_reserved": 0, "fusion_lat": 0.0, "lon": -76.988468, "rental_uris": {"ios": "https://dc.lft.to/lastmile_qr_scan", "android": "https://dc.lft.to/lastmile_qr_scan"}, "bike_id": "6321f7df9c4687d36cab472972131b15", "lat": 38.907568, "name": "6321f7df9c4687d36cab472972131b15"}, {"is_disabled": 0, "type": "electric_scooter", "fusion_lon": 0.0, "is_reserved": 0, "fusion_lat": 0.0, "lon": -77.06133933333334, "rental_uris": {"ios": "https://dc.lft.to/lastmile_qr_scan", "android": "https://dc.lft.to/lastmile_qr_scan"}, "bike_id": "2ce7606f1e1842fd7080f10ad39dc02f", "lat": 38.907619333333336, "name": "2ce7606f1e1842fd7080f10ad39dc02f"}, {"is_disabled": 0, "type": "electric_scooter", "fusion_lon": 0.0, "is_reserved": 0, "fusion_lat": 0.0, "lon": -76.9466365, "rental_uris": {"ios": "https://dc.lft.to/lastmile_qr_scan", "android": "https://dc.lft.to/lastmile_qr_scan"}, "bike_id": "c8889cc61c1e19161e862b5bb6878990", "lat": 38.8986945, "name": "c8889cc61c1e19161e862b5bb6878990"}, {"is_disabled": 0, "type": "electric_scooter", "fusion_lon": 0.0, "is_reserved": 0, "fusion_lat": 0.0, "lon": -77.031603, "rental_uris": {"ios": "https://dc.lft.to/lastmile_qr_scan", "android": "https://dc.lft.to/lastmile_qr_scan"}, "bike_id": "1b6cb3f185cc612cd3c260956e48e5e7", "lat": 38.90360316666667, "name": "1b6cb3f185cc612cd3c260956e48e5e7"}, {"is_disabled": 0, "type": "electric_scooter", "fusion_lon": 0.0, "is_reserved": 0, "fusion_lat": 0.0, "lon": -77.024871, "rental_uris": {"ios": "https://dc.lft.to/lastmile_qr_scan", "android": "https://dc.lft.to/lastmile_qr_scan"}, "bike_id": "2373f316686a213cf2e48b8da2a7b65e", "lat": 38.91949433333333, "name": "2373f316686a213cf2e48b8da2a7b65e"}, {"is_disabled": 0, "type": "electric_bike", "fusion_lon": 0.0, "is_reserved": 0, "fusion_lat": 0.0, "lon": -77.04305483333333, "rental_uris": {"ios": "https://dc.lft.to/lastmile_qr_scan", "android": "https://dc.lft.to/lastmile_qr_scan"}, "bike_id": "2305bc5b6651713a9e9457d08276d277", "lat": 39.03424483333333, "name": "2305bc5b6651713a9e9457d08276d277"}, {"is_disabled": 0, "type": "electric_scooter", "fusion_lon": 0.0, "is_reserved": 0, "fusion_lat": 0.0, "lon": -77.01859983333334, "rental_uris": {"ios": "https://dc.lft.to/lastmile_qr_scan", "android": "https://dc.lft.to/lastmile_qr_scan"}, "bike_id": "ee278e3f39038b4bac9b7d5df19a0356", "lat": 38.929148, "name": "ee278e3f39038b4bac9b7d5df19a0356"}, {"is_disabled": 0, "type": "electric_scooter", "fusion_lon": 0.0, "is_reserved": 0, "fusion_lat": 0.0, "lon": -77.00296783333333, "rental_uris": {"ios": "https://dc.lft.to/lastmile_qr_scan", "android": "https://dc.lft.to/lastmile_qr_scan"}, "bike_id": "25107c3e7bc642ce8510bd440b121dfa", "lat": 38.892014833333334, "name": "25107c3e7bc642ce8510bd440b121dfa"}, {"is_disabled": 0, "type": "electric_scooter", "fusion_lon": 0.0, "is_reserved": 0, "fusion_lat": 0.0, "lon": -77.05024016666667, "rental_uris": {"ios": "https://dc.lft.to/lastmile_qr_scan", "android": "https://dc.lft.to/lastmile_qr_scan"}, "bike_id": "18080d400fd758c19c26af1779305b84", "lat": 38.897232833333334, "name": "18080d400fd758c19c26af1779305b84"}, {"is_disabled": 0, "type": "electric_scooter", "fusion_lon": 0.0, "is_reserved": 0, "fusion_lat": 0.0, "lon": -76.99020766666666, "rental_uris": {"ios": "https://dc.lft.to/lastmile_qr_scan", "android": "https://dc.lft.to/lastmile_qr_scan"}, "bike_id": "0d44eeaf14da93e2b41f3a54ca97a890", "lat": 38.865162166666664, "name": "0d44eeaf14da93e2b41f3a54ca97a890"}, {"is_disabled": 0, "type": "electric_scooter", "fusion_lon": 0.0, "is_reserved": 0, "fusion_lat": 0.0, "lon": -77.0072615, "rental_uris": {"ios": "https://dc.lft.to/lastmile_qr_scan", "android": "https://dc.lft.to/lastmile_qr_scan"}, "bike_id": "6599e758df8d32b587f7857ef6d57963", "lat": 38.91193616666666, "name": "6599e758df8d32b587f7857ef6d57963"}, {"is_disabled": 0, "type": "electric_scooter", "fusion_lon": 0.0, "is_reserved": 0, "fusion_lat": 0.0, "lon": -77.00368683333333, "rental_uris": {"ios": "https://dc.lft.to/lastmile_qr_scan", "android": "https://dc.lft.to/lastmile_qr_scan"}, "bike_id": "b1099c566f33e49e2c3c9a31c770cc49", "lat": 38.892638, "name": "b1099c566f33e49e2c3c9a31c770cc49"}, {"is_disabled": 0, "type": "electric_scooter", "fusion_lon": 0.0, "is_reserved": 0, "fusion_lat": 0.0, "lon": -77.0446215, "rental_uris": {"ios": "https://dc.lft.to/lastmile_qr_scan", "android": "https://dc.lft.to/lastmile_qr_scan"}, "bike_id": "8214affc51dee75b0f198a48c7b3b9b9", "lat": 38.90016133333334, "name": "8214affc51dee75b0f198a48c7b3b9b9"}, {"is_disabled": 0, "type": "electric_scooter", "fusion_lon": 0.0, "is_reserved": 0, "fusion_lat": 0.0, "lon": -77.05914033333333, "rental_uris": {"ios": "https://dc.lft.to/lastmile_qr_scan", "android": "https://dc.lft.to/lastmile_qr_scan"}, "bike_id": "a732b062b540b77a16b56c4f60bb4c10", "lat": 38.9015055, "name": "a732b062b540b77a16b56c4f60bb4c10"}, {"is_disabled": 0, "type": "electric_scooter", "fusion_lon": 0.0, "is_reserved": 0, "fusion_lat": 0.0, "lon": -76.9893265, "rental_uris": {"ios": "https://dc.lft.to/lastmile_qr_scan", "android": "https://dc.lft.to/lastmile_qr_scan"}, "bike_id": "bea594adb1545945dee32e784fd7d61a", "lat": 38.88288983333333, "name": "bea594adb1545945dee32e784fd7d61a"}, {"is_disabled": 0, "type": "electric_scooter", "fusion_lon": 0.0, "is_reserved": 0, "fusion_lat": 0.0, "lon": -77.03781816666667, "rental_uris": {"ios": "https://dc.lft.to/lastmile_qr_scan", "android": "https://dc.lft.to/lastmile_qr_scan"}, "bike_id": "e3d8d4a6c0f7cf9a80d5a965435cf1e9", "lat": 38.925112666666664, "name": "e3d8d4a6c0f7cf9a80d5a965435cf1e9"}, {"is_disabled": 0, "type": "electric_scooter", "fusion_lon": 0.0, "is_reserved": 0, "fusion_lat": 0.0, "lon": -77.03754483333333, "rental_uris": {"ios": "https://dc.lft.to/lastmile_qr_scan", "android": "https://dc.lft.to/lastmile_qr_scan"}, "bike_id": "3f20894c76405541fa8d76246c468af0", "lat": 38.93188033333333, "name": "3f20894c76405541fa8d76246c468af0"}, {"is_disabled": 0, "type": "electric_scooter", "fusion_lon": 0.0, "is_reserved": 0, "fusion_lat": 0.0, "lon": -77.0095815, "rental_uris": {"ios": "https://dc.lft.to/lastmile_qr_scan", "android": "https://dc.lft.to/lastmile_qr_scan"}, "bike_id": "557733d57bee035705fc7dc4a6ffea7d", "lat": 38.876285833333334, "name": "557733d57bee035705fc7dc4a6ffea7d"}, {"is_disabled": 0, "type": "electric_scooter", "fusion_lon": 0.0, "is_reserved": 0, "fusion_lat": 0.0, "lon": -77.0138555, "rental_uris": {"ios": "https://dc.lft.to/lastmile_qr_scan", "android": "https://dc.lft.to/lastmile_qr_scan"}, "bike_id": "dca6d6ae7a6a41bb86f0fb5c94bc1b76", "lat": 38.89848333333333, "name": "dca6d6ae7a6a41bb86f0fb5c94bc1b76"}, {"is_disabled": 0, "type": "electric_scooter", "fusion_lon": 0.0, "is_reserved": 0, "fusion_lat": 0.0, "lon": -77.02722783333333, "rental_uris": {"ios": "https://dc.lft.to/lastmile_qr_scan", "android": "https://dc.lft.to/lastmile_qr_scan"}, "bike_id": "a9fe0b711fd9641e60602f66e2854e62", "lat": 38.940891666666666, "name": "a9fe0b711fd9641e60602f66e2854e62"}, {"is_disabled": 0, "type": "electric_scooter", "fusion_lon": 0.0, "is_reserved": 0, "fusion_lat": 0.0, "lon": -76.9955095, "rental_uris": {"ios": "https://dc.lft.to/lastmile_qr_scan", "android": "https://dc.lft.to/lastmile_qr_scan"}, "bike_id": "d40e5f9e66438591836e3f0f7c387f2b", "lat": 38.9266525, "name": "d40e5f9e66438591836e3f0f7c387f2b"},