{"data": {"bikes": [{"is_disabled": 0, "fusion_lon": 0.0, "fusion_lat": 0.0, "lat": 38.924568, "type": "electric_scooter", "lon": -77.02697966666666, "bike_id": "884ab5ae840f756cf3a40731e983d375", "rental_uris": {"android": "https://dc.lft.to/lastmile_qr_scan", "ios": "https://dc.lft.to/lastmile_qr_scan"}, "name": "884ab5ae840f756cf3a40731e983d375", "is_reserved": 0}, {"is_disabled": 0, "fusion_lon": 0.0, "fusion_lat": 0.0, "lat": 38.89881183333333, "type": "electric_scooter", "lon": -76.9315895, "bike_id": "9f0255966755ec3259a0218cc33f4769", "rental_uris": {"android": "https://dc.lft.to/lastmile_qr_scan", "ios": "https://dc.lft.to/lastmile_qr_scan"}, "name": "9f0255966755ec3259a0218cc33f4769", "is_reserved": 0}, {"is_disabled": 0, "fusion_lon": 0.0, "fusion_lat": 0.0, "lat": 38.952305, "type": "electric_scooter", "lon": -77.02759566666667, "bike_id": "463affd94259bfcae4b59e5b3ec9ccbb", "rental_uris": {"android": "https://dc.lft.to/lastmile_qr_scan", "ios": "https://dc.lft.to/lastmile_qr_scan"}, "name": "463affd94259bfcae4b59e5b3ec9ccbb", "is_reserved": 0}, {"is_disabled": 0, "fusion_lon": 0.0, "fusion_lat": 0.0, "lat": 38.91111, "type": "electric_scooter", "lon": -77.03831866666667, "bike_id": "6d0ff5287cebe3b3dcfd78c3b21d65d1", "rental_uris": {"android": "https://dc.lft.to/lastmile_qr_scan", "ios": "https://dc.lft.to/lastmile_qr_scan"}, "name": "6d0ff5287cebe3b3dcfd78c3b21d65d1", "is_reserved": 0}, {"is_disabled": 0, "fusion_lon": 0.0, "fusion_lat": 0.0, "lat": 38.9053485, "type": "electric_scooter", "lon": -77.0576945, "bike_id": "d4574ee2eaebc7682014b27b0b620214", "rental_uris": {"android": "https://dc.lft.to/lastmile_qr_scan", "ios": "https://dc.lft.to/lastmile_qr_scan"}, "name": "d4574ee2eaebc7682014b27b0b620214", "is_reserved": 0}, {"is_disabled": 0, "fusion_lon": 0.0, "fusion_lat": 0.0, "lat": 38.917963, "type": "electric_scooter", "lon": -77.035639, "bike_id": "de8b976c9bd6fff93830f021248368d6", "rental_uris": {"android": "https://dc.lft.to/lastmile_qr_scan", "ios": "https://dc.lft.to/lastmile_qr_scan"}, "name": "de8b976c9bd6fff93830f021248368d6", "is_reserved": 0}, {"is_disabled": 0, "fusion_lon": 0.0, "fusion_lat": 0.0, "lat": 38.917154833333335, "type": "electric_scooter", "lon": -77.03661933333333, "bike_id": "dd41415f00a8a6fb7e266dbf03e19f8a", "rental_uris": {"android": "https://dc.lft.to/lastmile_qr_scan", "ios": "https://dc.lft.to/lastmile_qr_scan"}, "name": "dd41415f00a8a6fb7e266dbf03e19f8a", "is_reserved": 0}, {"is_disabled": 0, "fusion_lon": 0.0, "fusion_lat": 0.0, "lat": 38.8606, "type": "electric_scooter", "lon": -76.9851515, "bike_id": "67623228e9680cc85ee2d44d3c571501", "rental_uris": {"android": "https://dc.lft.to/lastmile_qr_scan", "ios": "https://dc.lft.to/lastmile_qr_scan"}, "name": "67623228e9680cc85ee2d44d3c571501", "is_reserved": 0}, {"is_disabled": 0, "fusion_lon": 0.0, "fusion_lat": 0.0, "lat": 38.92877566666667, "type": "electric_scooter", "lon": -77.04134233333333, "bike_id": "d3bdb3e2929153532d61945d9f2f2317", "rental_uris": {"android": "https://dc.lft.to/lastmile_qr_scan", "ios": "https://dc.lft.to/lastmile_qr_scan"}, "name": "d3bdb3e2929153532d61945d9f2f2317", "is_reserved": 0}, {"is_disabled": 0, "fusion_lon": 0.0, "fusion_lat": 0.0, "lat": 38.92369083333333, "type": "electric_scooter", "lon": -77.05038433333333, "bike_id": "1e15f56deddcb1baffd6806666636314", "rental_uris": {"android": "https://dc.lft.to/lastmile_qr_scan", "ios": "https://dc.lft.to/lastmile_qr_scan"}, "name": "1e15f56deddcb1baffd6806666636314", "is_reserved": 0}, {"is_disabled": 0, "fusion_lon": 0.0, "fusion_lat": 0.0, "lat": 38.91383733333333, "type": "electric_scooter", "lon": -77.0297015, "bike_id": "9c66390fe98cddc1d61e802c46c2e53d", "rental_uris": {"android": "https://dc.lft.to/lastmile_qr_scan", "ios": "https://dc.lft.to/lastmile_qr_scan"}, "name": "9c66390fe98cddc1d61e802c46c2e53d", "is_reserved": 0}, {"is_disabled": 0, "fusion_lon": 0.0, "fusion_lat": 0.0, "lat": 38.952032833333334, "type": "electric_scooter", "lon": -77.027403, "bike_id": "9309a48fa743f56e3bc91fba13da5c58", "rental_uris": {"android": "https://dc.lft.to/lastmile_qr_scan", "ios": "https://dc.lft.to/lastmile_qr_scan"}, "name": "9309a48fa743f56e3bc91fba13da5c58", "is_reserved": 0}, {"is_disabled": 0, "fusion_lon": 0.0, "fusion_lat": 0.0, "lat": 38.89334816666667, "type": "electric_bike", "lon": -77.12407966666666, "bike_id": "ce7a5c014e32d650a0e6ffdc2ee80518", "rental_uris": {"android": "https://dc.lft.to/lastmile_qr_scan", "ios": "https://dc.lft.to/lastmile_qr_scan"}, "name": "ce7a5c014e32d650a0e6ffdc2ee80518", "is_reserved": 0}, {"is_disabled": 0, "fusion_lon": 0.0, "fusion_lat": 0.0, "lat": 38.88755583333333, "type": "electric_scooter", "lon": -77.00226016666667, "bike_id": "c24f1e199e1428d0a783c90ee8239bda", "rental_uris": {"android": "https://dc.lft.to/lastmile_qr_scan", "ios": "https://dc.lft.to/lastmile_qr_scan"}, "name": "c24f1e199e1428d0a783c90ee8239bda", "is_reserved": 0}, {"is_disabled": 0, "fusion_lon": 0.0, "fusion_lat": 0.0, "lat": 38.9037225, "type": "electric_scooter", "lon": -77.02830733333333, "bike_id": "16d4d67ca508617681f01aa7f23e7542", "rental_uris": {"android": "https://dc.lft.to/lastmile_qr_scan", "ios": "https://dc.lft.to/lastmile_qr_scan"}, "name": "16d4d67ca508617681f01aa7f23e7542", "is_reserved": 0}, {"is_disabled": 0, "fusion_lon": 0.0, "fusion_lat": 0.0, "lat": 38.929923333333335, "type": "electric_scooter", "lon": -77.02403733333334, "bike_id": "54b5110f64dfd95284987c7fbe90e226", "rental_uris": {"android": "https://dc.lft.to/lastmile_qr_scan", "ios": "https://dc.lft.to/lastmile_qr_scan"}, "name": "54b5110f64dfd95284987c7fbe90e226", "is_reserved": 0}, {"is_disabled": 0, "fusion_lon": 0.0, "fusion_lat": 0.0, "lat": 38.91207216666667, "type": "electric_scooter", "lon": -77.03847033333334, "bike_id": "8848006b09b66f17e01ac11a8972e0dd", "rental_uris": {"android": "https://dc.lft.to/lastmile_qr_scan", "ios": "https://dc.lft.to/lastmile_qr_scan"}, "name": "8848006b09b66f17e01ac11a8972e0dd", "is_reserved": 0}, {"is_disabled": 0, "fusion_lon": 0.0, "fusion_lat": 0.0, "lat": 38.930916, "type": "electric_scooter", "lon": -77.02469533333333, "bike_id": "283eba07003bb51ab916ec319fe61e58", "rental_uris": {"android": "https://dc.lft.to/lastmile_qr_scan", "ios": "https://dc.lft.to/lastmile_qr_scan"}, "name": "283eba07003bb51ab916ec319fe61e58", "is_reserved": 0}, {"is_disabled": 0, "fusion_lon": 0.0, "fusion_lat": 0.0, "lat": 38.845997833333335, "type": "electric_bike", "lon": -76.9688745, "bike_id": "ade6b5833cf5a461e31b65852550519f", "rental_uris": {"android": "https://dc.lft.to/lastmile_qr_scan", "ios": "https://dc.lft.to/lastmile_qr_scan"}, "name": "ade6b5833cf5a461e31b65852550519f", "is_reserved": 0}, {"is_disabled": 0, "fusion_lon": 0.0, "fusion_lat": 0.0, "lat": 38.912603, "type": "electric_scooter", "lon": -77.03034083333333, "bike_id": "6aaf0546458a9d6da1d5d2a269a959e3", "rental_uris": {"android": "https://dc.lft.to/lastmile_qr_scan", "ios": "https://dc.lft.to/lastmile_qr_scan"}, "name": "6aaf0546458a9d6da1d5d2a269a959e3", "is_reserved": 0}, {"is_disabled": 0, "fusion_lon": 0.0, "fusion_lat": 0.0, "lat": 38.9255535, "type": "electric_scooter", "lon": -77.03785983333333, "bike_id": "8234716710756b10f011bc3f575161e0", "rental_uris": {"android": "https://dc.lft.to/lastmile_qr_scan", "ios": "https://dc.lft.to/lastmile_qr_scan"}, "name": "8234716710756b10f011bc3f575161e0", "is_reserved": 0}, {"is_disabled": 0, "fusion_lon": 0.0, "fusion_lat": 0.0, "lat": 38.895, "type": "electric_scooter", "lon": -77.0095215, "bike_id": "39117b786f5212938890a8096ec9e3bb", "rental_uris": {"android": "https://dc.lft.to/lastmile_qr_scan", "ios": "https://dc.lft.to/lastmile_qr_scan"}, "name": "39117b786f5212938890a8096ec9e3bb", "is_reserved": 0}, {"is_disabled": 0, "fusion_lon": 0.0, "fusion_lat": 0.0, "lat": 38.91250766666667, "type": "electric_scooter", "lon": -77.00651383333333, "bike_id": "38694d5686dc4a69aa4e9638d4e29273", "rental_uris": {"android": "https://dc.lft.to/lastmile_qr_scan", "ios": "https://dc.lft.to/lastmile_qr_scan"}, "name": "38694d5686dc4a69aa4e9638d4e29273", "is_reserved": 0}, {"is_disabled": 0, "fusion_lon": 0.0, "fusion_lat": 0.0, "lat": 38.90053183333333, "type": "electric_scooter", "lon": -76.98334816666667, "bike_id": "38b793b8736be4f6e24e16240889295c", "rental_uris": {"android": "https://dc.lft.to/lastmile_qr_scan", "ios": "https://dc.lft.to/lastmile_qr_scan"}, "name": "38b793b8736be4f6e24e16240889295c", "is_reserved": 0}, {"is_disabled": 0, "fusion_lon": 0.0, "fusion_lat": 0.0, "lat": 38.92324333333333, "type": "electric_scooter", "lon": -77.04510766666667, "bike_id": "84a00d40177212c64fdc55d929276618", "rental_uris": {"android": "https://dc.lft.to/lastmile_qr_scan", "ios": "https://dc.lft.to/lastmile_qr_scan"}, "name": "84a00d40177212c64fdc55d929276618", "is_reserved": 0}, {"is_disabled": 0, "fusion_lon": 0.0, "fusion_lat": 0.0, "lat": 38.902445666666665, "type": "electric_bike", "lon": -77.048367, "bike_id": "33caadf2fce3d5196ac0dc9af3cbf39d", "rental_uris": {"android": "https://dc.lft.to/lastmile_qr_scan", "ios": "https://dc.lft.to/lastmile_qr_scan"}, "name": "33caadf2fce3d5196ac0dc9af3cbf39d", "is_reserved": 0}, {"is_disabled": 0, "fusion_lon": 0.0, "fusion_lat": 0.0, "lat": 38.89832033333333, "type": "electric_scooter", "lon": -76.9463595, "bike_id": "d47bd2fe081673d6e2716b7c364cd4f4", "rental_uris": {"android": "https://dc.lft.to/lastmile_qr_scan", "ios": "https://dc.lft.to/lastmile_qr_scan"}, "name": "d47bd2fe081673d6e2716b7c364cd4f4", "is_reserved": 0}, {"is_disabled": 0, "fusion_lon": 0.0, "fusion_lat": 0.0, "lat": 38.865305, "type": "electric_bike", "lon": -77.12818483333334, "bike_id": "3e34b284f75c3f57707d2888a1ee044c", "rental_uris": {"android": "https://dc.lft.to/lastmile_qr_scan", "ios": "https://dc.lft.to/lastmile_qr_scan"}, "name": "3e34b284f75c3f57707d2888a1ee044c", "is_reserved": 0}, {"is_disabled": 0, "fusion_lon": 0.0, "fusion_lat": 0.0, "lat": 38.93037666666667, "type": "electric_scooter", "lon": -77.0345085, "bike_id": "2b153854d8a9b8e6d5ccace970d3738b", "rental_uris": {"android": "https://dc.lft.to/lastmile_qr_scan", "ios": "https://dc.lft.to/lastmile_qr_scan"}, "name": "2b153854d8a9b8e6d5ccace970d3738b", "is_reserved": 0}, {"is_disabled": 0, "fusion_lon": 0.0, "fusion_lat": 0.0, "lat": 38.900343, "type": "electric_scooter", "lon": -76.99842383333333, "bike_id": "06429d91a5b5a48e1032073be4f252a1", "rental_uris": {"android": "https://dc.lft.to/lastmile_qr_scan", "ios": "https://dc.lft.to/lastmile_qr_scan"}, "name": "06429d91a5b5a48e1032073be4f252a1", "is_reserved": 0}, {"is_disabled": 0, "fusion_lon": 0.0, "fusion_lat": 0.0, "lat": 38.910435666666665, "type": "electric_scooter", "lon": -77.03373533333334, "bike_id": "29a9a629b33888eca7be726d05ff44d8", "rental_uris": {"android": "https://dc.lft.to/lastmile_qr_scan", "ios": "https://dc.lft.to/lastmile_qr_scan"}, "name": "29a9a629b33888eca7be726d05ff44d8", "is_reserved": 0}, {"is_disabled": 0, "fusion_lon": 0.0, "fusion_lat": 0.0, "lat": 38.93961783333334, "type": "electric_scooter", "lon": -77.032832, "bike_id": "763f885a6b24ec2a987cb11642bc5eec", "rental_uris": {"android": "https://dc.lft.to/lastmile_qr_scan", "ios": "https://dc.lft.to/lastmile_qr_scan"}, "name": "763f885a6b24ec2a987cb11642bc5eec", "is_reserved": 0}, {"is_disabled": 0, "fusion_lon": 0.0, "fusion_lat": 0.0, "lat": 38.8278115, "type": "electric_bike", "lon": -77.11086483333334, "bike_id": "77b99743868a0ef7c13cb1ac96f48519", "rental_uris": {"android": "https://dc.lft.to/lastmile_qr_scan", "ios": "https://dc.lft.to/lastmile_qr_scan"}, "name": "77b99743868a0ef7c13cb1ac96f48519", "is_reserved": 0}, {"is_disabled": 0, "fusion_lon": 0.0, "fusion_lat": 0.0, "lat": 38.961908666666666, "type": "electric_scooter", "lon": -77.02788, "bike_id": "87067da256affd9e3405042f695ca6dd", "rental_uris": {"android": "https://dc.lft.to/lastmile_qr_scan", "ios": "https://dc.lft.to/lastmile_qr_scan"}, "name": "87067da256affd9e3405042f695ca6dd", "is_reserved": 0}, {"is_disabled": 0, "fusion_lon": 0.0, "fusion_lat": 0.0, "lat": 38.8244655, "type": "electric_bike", "lon": -77.07050783333334, "bike_id": "979760294813b21d32659de30fc398d1", "rental_uris": {"android": "https://dc.lft.to/lastmile_qr_scan", "ios": "https://dc.lft.to/lastmile_qr_scan"}, "name": "979760294813b21d32659de30fc398d1", "is_reserved": 0}, {"is_disabled": 0, "fusion_lon": 0.0, "fusion_lat": 0.0, "lat": 38.93470116666667, "type": "electric_scooter", "lon": -77.072717, "bike_id": "6ac9da7bae072e7ea56e1eb57660af4f", "rental_uris": {"android": "https://dc.lft.to/lastmile_qr_scan", "ios": "https://dc.lft.to/lastmile_qr_scan"}, "name": "6ac9da7bae072e7ea56e1eb57660af4f", "is_reserved": 0}, {"is_disabled": 0, "fusion_lon": 0.0, "fusion_lat": 0.0, "lat": 38.925657333333334, "type": "electric_scooter", "lon": -77.02283433333334, "bike_id": "272e1454e4357857c57ec22b25a80178", "rental_uris": {"android": "https://dc.lft.to/lastmile_qr_scan", "ios": "https://dc.lft.to/lastmile_qr_scan"}, "name": "272e1454e4357857c57ec22b25a80178", "is_reserved": 0}, {"is_disabled": 0, "fusion_lon": 0.0, "fusion_lat": 0.0, "lat": 38.85988666666667, "type": "electric_bike", "lon": -76.9705355, "bike_id": "6d0953cd59c7171b18f5ef4d3dfeed4e", "rental_uris": {"android": "https://dc.lft.to/lastmile_qr_scan", "ios": "https://dc.lft.to/lastmile_qr_scan"}, "name": "6d0953cd59c7171b18f5ef4d3dfeed4e", "is_reserved": 0}, {"is_disabled": 0, "fusion_lon": 0.0, "fusion_lat": 0.0, "lat": 38.994543666666665, "type": "electric_bike", "lon": -76.90817466666667, "bike_id": "4d9a63c1a7441a64da9d8e003aab5c20", "rental_uris": {"android": "https://dc.lft.to/lastmile_qr_scan", "ios": "https://dc.lft.to/lastmile_qr_scan"}, "name": "4d9a63c1a7441a64da9d8e003aab5c20", "is_reserved": 0}, {"is_disabled": 0, "fusion_lon": 0.0, "fusion_lat": 0.0, "lat": 38.90323216666667, "type": "electric_scooter", "lon": -77.03635183333333, "bike_id": "8255f6e21dc22c182ecb9308825de4ef", "rental_uris": {"android": "https://dc.lft.to/lastmile_qr_scan", "ios": "https://dc.lft.to/lastmile_qr_scan"}, "name": "8255f6e21dc22c182ecb9308825de4ef", "is_reserved": 0}, {"is_disabled": 0, "fusion_lon": 0.0, "fusion_lat": 0.0, "lat": 38.923508, "type": "electric_scooter", "lon": -76.99858816666666, "bike_id": "a0cbe06448050fd499dbdcaf2746d25a", "rental_uris": {"android": "https://dc.lft.to/lastmile_qr_scan", "ios": "https://dc.lft.to/lastmile_qr_scan"}, "name": "a0cbe06448050fd499dbdcaf2746d25a", "is_reserved": 0}, {"is_disabled": 0, "fusion_lon": 0.0, "fusion_lat": 0.0, "lat": 38.918175833333336, "type": "electric_scooter", "lon": -77.02476066666667, "bike_id": "c6804156a01ff19066498983a606c667", "rental_uris": {"android": "https://dc.lft.to/lastmile_qr_scan", "ios": "https://dc.lft.to/lastmile_qr_scan"}, "name": "c6804156a01ff19066498983a606c667", "is_reserved": 0}, {"is_disabled": 0, "fusion_lon": 0.0, "fusion_lat": 0.0, "lat": 38.866635, "type": "electric_scooter", "lon": -76.98887133333334, "bike_id": "2c4c5136a2bccfdef03aebec7f80e86f", "rental_uris": {"android": "https://dc.lft.to/lastmile_qr_scan", "ios": "https://dc.lft.to/lastmile_qr_scan"}, "name": "2c4c5136a2bccfdef03aebec7f80e86f", "is_reserved": 0}, {"is_disabled": 0, "fusion_lon": 0.0, "fusion_lat": 0.0, "lat": 38.88010833333333, "type": "electric_bike", "lon": -76.915948, "bike_id": "abdd9e33ba9d817171350aeba6fdb93d", "rental_uris": {"android": "https://dc.lft.to/lastmile_qr_scan", "ios": "https://dc.lft.to/lastmile_qr_scan"}, "name": "abdd9e33ba9d817171350aeba6fdb93d", "is_reserved": 0}, {"is_disabled": 0, "fusion_lon": 0.0, "fusion_lat": 0.0, "lat": 38.91546483333333, "type": "electric_scooter", "lon": -77.0385545, "bike_id": "9370793740759189de6603f524ceb17a", "rental_uris": {"android": "https://dc.lft.to/lastmile_qr_scan", "ios": "https://dc.lft.to/lastmile_qr_scan"}, "name": "9370793740759189de6603f524ceb17a", "is_reserved": 0}, {"is_disabled": 0, "fusion_lon": 0.0, "fusion_lat": 0.0, "lat": 38.93248116666667, "type": "electric_scooter", "lon": -77.04014083333334, "bike_id": "49d5aae720d7b26b298f51a1ae064559", "rental_uris": {"android": "https://dc.lft.to/lastmile_qr_scan", "ios": "https://dc.lft.to/lastmile_qr_scan"}, "name": "49d5aae720d7b26b298f51a1ae064559", "is_reserved": 0}, {"is_disabled": 0, "fusion_lon": 0.0, "fusion_lat": 0.0, "lat": 38.91922666666667, "type": "electric_scooter", "lon": -77.00946133333333, "bike_id": "0b924962b21e14649f239bafe3993d72", "rental_uris": {"android": "https://dc.lft.to/lastmile_qr_scan", "ios": "https://dc.lft.to/lastmile_qr_scan"}, "name": "0b924962b21e14649f239bafe3993d72", "is_reserved": 0}, {"is_disabled": 0, "fusion_lon": 0.0, "fusion_lat": 0.0, "lat": 38.928709166666664, "type": "electric_scooter", "lon": -76.99033366666667, "bike_id": "b1e82cb82e04e644a719e9e2eac49bc0", "rental_uris": {"android": "https://dc.lft.to/lastmile_qr_scan", "ios": "https://dc.lft.to/lastmile_qr_scan"}, "name": "b1e82cb82e04e644a719e9e2eac49bc0", "is_reserved": 0}, {"is_disabled": 0, "fusion_lon": 0.0, "fusion_lat": 0.0, "lat": 38.83813766666667, "type": "electric_scooter", "lon": -77.00434916666667, "bike_id": "e2be5672f944a8cd7374eb51f2f296ff", "rental_uris": {"android": "https://dc.lft.to/lastmile_qr_scan", "ios": "https://dc.lft.to/lastmile_qr_scan"}, "name": "e2be5672f944a8cd7374eb51f2f296ff", "is_reserved": 0}, {"is_disabled": 0, "fusion_lon": 0.0, "fusion_lat": 0.0, "lat": 38.918136, "type": "electric_scooter", "lon": -77.036208, "bike_id": "81789c712c19440fa323321dbc696b81", "rental_uris": {"android": "https://dc.lft.to/lastmile_qr_scan", "ios": "https://dc.lft.to/lastmile_qr_scan"}, "name": "81789c712c19440fa323321dbc696b81", "is_reserved": 0}, {"is_disabled": 0, "fusion_lon": 0.0, "fusion_lat": 0.0, "lat": 38.99082883333333, "type": "electric_bike", "lon": -77.00180466666667, "bike_id": "6ba6c5c810abc04ac33f38b3d1602e09", "rental_uris": {"android": "https://dc.lft.to/lastmile_qr_scan", "ios": "https://dc.lft.to/lastmile_qr_scan"}, "name": "6ba6c5c810abc04ac33f38b3d1602e09", "is_reserved": 0}, {"is_disabled": 0, "fusion_lon": 0.0, "fusion_lat": 0.0, "lat": 38.83117433333334, "type": "electric_bike", "lon": -77.04328433333333, "bike_id": "dabd5bff17054486c993953b686ad5d8", "rental_uris": {"android": "https://dc.lft.to/lastmile_qr_scan", "ios": "https://dc.lft.to/lastmile_qr_scan"}, "name": "dabd5bff17054486c993953b686ad5d8", "is_reserved": 0}, {"is_disabled": 0, "fusion_lon": 0.0, "fusion_lat": 0.0, "lat": 39.11507866666667, "type": "electric_bike", "lon": -77.1954915, "bike_id": "ebccea148595b721f0ed8a961d4bc95d", "rental_uris": {"android": "https://dc.lft.to/lastmile_qr_scan", "ios": "https://dc.lft.to/lastmile_qr_scan"}, "name": "ebccea148595b721f0ed8a961d4bc95d", "is_reserved": 0}, {"is_disabled": 0, "fusion_lon": 0.0, "fusion_lat": 0.0, "lat": 38.919172333333336, "type": "electric_scooter", "lon": -77.0322575, "bike_id": "689bd95da7ab144bfe4dbc1b39f8b831", "rental_uris": {"android": "https://dc.lft.to/lastmile_qr_scan", "ios": "https://dc.lft.to/lastmile_qr_scan"}, "name": "689bd95da7ab144bfe4dbc1b39f8b831", "is_reserved": 0}, {"is_disabled": 0, "fusion_lon": 0.0, "fusion_lat": 0.0, "lat": 38.967132, "type": "electric_scooter", "lon": -77.027331, "bike_id": "d9414142239f9980d5fd22257046fc03", "rental_uris": {"android": "https://dc.lft.to/lastmile_qr_scan", "ios": "https://dc.lft.to/lastmile_qr_scan"}, "name": "d9414142239f9980d5fd22257046fc03", "is_reserved": 0}, {"is_disabled": 0, "fusion_lon": 0.0, "fusion_lat": 0.0, "lat": 38.99254083333334, "type": "electric_bike", "lon": -77.04999783333334, "bike_id": "6cb63073c5c87418e92d46ec2e41ab20", "rental_uris": {"android": "https://dc.lft.to/lastmile_qr_scan", "ios": "https://dc.lft.to/lastmile_qr_scan"}, "name": "6cb63073c5c87418e92d46ec2e41ab20", "is_reserved": 0}, {"is_disabled": 0, "fusion_lon": 0.0, "fusion_lat": 0.0, "lat": 38.8547785, "type": "electric_bike", "lon": -76.9710105, "bike_id": "0d72ed6ca4fa4e7ac906ae47931ab675", "rental_uris": {"android": "https://dc.lft.to/lastmile_qr_scan", "ios": "https://dc.lft.to/lastmile_qr_scan"}, "name": "0d72ed6ca4fa4e7ac906ae47931ab675", "is_reserved": 0}, {"is_disabled": 0, "fusion_lon": 0.0, "fusion_lat": 0.0, "lat": 38.930465, "type": "electric_scooter", "lon": -77.00419833333333, "bike_id": "4e17646be7f33e9375a3d7c12dfea4db", "rental_uris": {"android": "https://dc.lft.to/lastmile_qr_scan", "ios": "https://dc.lft.to/lastmile_qr_scan"}, "name": "4e17646be7f33e9375a3d7c12dfea4db", "is_reserved": 0}, {"is_disabled": 0, "fusion_lon": 0.0, "fusion_lat": 0.0, "lat": 38.906686666666666, "type": "electric_scooter", "lon": -77.02712516666666, "bike_id": "bef36a9f86859246be26e2efb1663bd6", "rental_uris": {"android": "https://dc.lft.to/lastmile_qr_scan", "ios": "https://dc.lft.to/lastmile_qr_scan"}, "name": "bef36a9f86859246be26e2efb1663bd6", "is_reserved": 0}, {"is_disabled": 0, "fusion_lon": 0.0, "fusion_lat": 0.0, "lat": 38.911250833333334, "type": "electric_scooter", "lon": -77.04421766666667, "bike_id": "1242a36d767cb66540f21a34e6b485b5", "rental_uris": {"android": "https://dc.lft.to/lastmile_qr_scan", "ios": "https://dc.lft.to/lastmile_qr_scan"}, "name": "1242a36d767cb66540f21a34e6b485b5", "is_reserved": 0}, {"is_disabled": 0, "fusion_lon": 0.0, "fusion_lat": 0.0, "lat": 38.893905833333335, "type": "electric_scooter", "lon": -76.95004666666667, "bike_id": "daf4445bd985708f475303ecca7460dc", "rental_uris": {"android": "https://dc.lft.to/lastmile_qr_scan", "ios": "https://dc.lft.to/lastmile_qr_scan"}, "name": "daf4445bd985708f475303ecca7460dc", "is_reserved": 0}, {"is_disabled": 0, "fusion_lon": 0.0, "fusion_lat": 0.0, "lat": 38.909866666666666, "type": "electric_scooter", "lon": -77.04273066666667, "bike_id": "3749ce1353ddf8280c9278a2d38fafa9", "rental_uris": {"android": "https://dc.lft.to/lastmile_qr_scan", "ios": "https://dc.lft.to/lastmile_qr_scan"}, "name": "3749ce1353ddf8280c9278a2d38fafa9", "is_reserved": 0}, {"is_disabled": 0, "fusion_lon": 0.0, "fusion_lat": 0.0, "lat": 38.9274415, "type": "electric_bike", "lon": -77.09951033333333, "bike_id": "0c7638a5215875c8893a6c88a5ea3acc", "rental_uris": {"android": "https://dc.lft.to/lastmile_qr_scan", "ios": "https://dc.lft.to/lastmile_qr_scan"}, "name": "0c7638a5215875c8893a6c88a5ea3acc", "is_reserved": 0}, {"is_disabled": 0, "fusion_lon": 0.0, "fusion_lat": 0.0, "lat": 38.913641, "type": "electric_scooter", "lon": -77.0259305, "bike_id": "51a1351a3c6b9398e46595d06179b759", "rental_uris": {"android": "https://dc.lft.to/lastmile_qr_scan", "ios": "https://dc.lft.to/lastmile_qr_scan"}, "name": "51a1351a3c6b9398e46595d06179b759", "is_reserved": 0}, {"is_disabled": 0, "fusion_lon": 0.0, "fusion_lat": 0.0, "lat": 38.904008166666664, "type": "electric_scooter", "lon": -76.9752215, "bike_id": "5025ac7e4b00cdf99d6f5d5c0b3b4d79", "rental_uris": {"android": "https://dc.lft.to/lastmile_qr_scan", "ios": "https://dc.lft.to/lastmile_qr_scan"}, "name": "5025ac7e4b00cdf99d6f5d5c0b3b4d79", "is_reserved": 0}, {"is_disabled": 0, "fusion_lon": 0.0, "fusion_lat": 0.0, "lat": 38.91815483333333, "type": "electric_scooter", "lon": -77.033028, "bike_id": "c34badfa265064663c4789895c308a60", "rental_uris": {"android": "https://dc.lft.to/lastmile_qr_scan", "ios": "https://dc.lft.to/lastmile_qr_scan"}, "name": "c34badfa265064663c4789895c308a60", "is_reserved": 0}, {"is_disabled": 0, "fusion_lon": 0.0, "fusion_lat": 0.0, "lat": 38.89383133333333, "type": "electric_scooter", "lon": -77.022594, "bike_id": "7948b81c26371c3769c9d44370e7b81a", "rental_uris": {"android": "https://dc.lft.to/lastmile_qr_scan", "ios": "https://dc.lft.to/lastmile_qr_scan"}, "name": "7948b81c26371c3769c9d44370e7b81a", "is_reserved": 0}, {"is_disabled": 0, "fusion_lon": 0.0, "fusion_lat": 0.0, "lat": 38.89967133333333, "type": "electric_scooter", "lon": -77.05085983333333, "bike_id": "343c1a8e5a0454a46ade438fdc19a274", "rental_uris": {"android": "https://dc.lft.to/lastmile_qr_scan", "ios": "https://dc.lft.to/lastmile_qr_scan"}, "name": "343c1a8e5a0454a46ade438fdc19a274", "is_reserved": 0}, {"is_disabled": 0, "fusion_lon": 0.0, "fusion_lat": 0.0, "lat": 38.9299935, "type": "electric_scooter", "lon": -77.0326375, "bike_id": "5d9ff2792ce96a35dc6a3e8313ea537e", "rental_uris": {"android": "https://dc.lft.to/lastmile_qr_scan", "ios": "https://dc.lft.to/lastmile_qr_scan"}, "name": "5d9ff2792ce96a35dc6a3e8313ea537e", "is_reserved": 0}, {"is_disabled": 0, "fusion_lon": 0.0, "fusion_lat": 0.0, "lat": 38.92309233333334, "type": "electric_scooter", "lon": -77.04739366666666, "bike_id": "64434a5b8697dd60c310dfbbc27d607a", "rental_uris": {"android": "https://dc.lft.to/lastmile_qr_scan", "ios": "https://dc.lft.to/lastmile_qr_scan"}, "name": "64434a5b8697dd60c310dfbbc27d607a", "is_reserved": 0}, {"is_disabled": 0, "fusion_lon": 0.0, "fusion_lat": 0.0, "lat": 38.8443405, "type": "electric_scooter", "lon": -76.99784783333334, "bike_id": "c42131dc8ecab4eea220b23203c5cb41", "rental_uris": {"android": "https://dc.lft.to/lastmile_qr_scan", "ios": "https://dc.lft.to/lastmile_qr_scan"}, "name": "c42131dc8ecab4eea220b23203c5cb41", "is_reserved": 0}, {"is_disabled": 0, "fusion_lon": 0.0, "fusion_lat": 0.0, "lat": 38.91117716666667, "type": "electric_scooter", "lon": -77.044658, "bike_id": "66e1c68598df8924058145461c11b5d4", "rental_uris": {"android": "https://dc.lft.to/lastmile_qr_scan", "ios": "https://dc.lft.to/lastmile_qr_scan"}, "name": "66e1c68598df8924058145461c11b5d4", "is_reserved": 0}, {"is_disabled": 0, "fusion_lon": 0.0, "fusion_lat": 0.0, "lat": 38.928508666666666, "type": "electric_scooter", "lon": -77.01432583333333, "bike_id": "647209897bc28d1351c3f80487a7917f", "rental_uris": {"android": "https://dc.lft.to/lastmile_qr_scan", "ios": "https://dc.lft.to/lastmile_qr_scan"}, "name": "647209897bc28d1351c3f80487a7917f", "is_reserved": 0}, {"is_disabled": 0, "fusion_lon": 0.0, "fusion_lat": 0.0, "lat": 38.918167833333335, "type": "electric_scooter", "lon": -77.02477516666667, "bike_id": "98d1998a26133e363e36433a3f6d5b14", "rental_uris": {"android": "https://dc.lft.to/lastmile_qr_scan", "ios": "https://dc.lft.to/lastmile_qr_scan"}, "name": "98d1998a26133e363e36433a3f6d5b14", "is_reserved": 0}, {"is_disabled": 0, "fusion_lon": 0.0, "fusion_lat": 0.0, "lat": 38.90750833333333, "type": "electric_scooter", "lon": -77.04555716666667, "bike_id": "e23bf8c75b48f075f01d33ce31ebe3b5", "rental_uris": {"android": "https://dc.lft.to/lastmile_qr_scan", "ios": "https://dc.lft.to/lastmile_qr_scan"}, "name": "e23bf8c75b48f075f01d33ce31ebe3b5", "is_reserved": 0}, {"is_disabled": 0, "fusion_lon": 0.0, "fusion_lat": 0.0, "lat": 38.90064816666667, "type": "electric_scooter", "lon": -77.00216, "bike_id": "1ddffcd6cd354a5e04e63f43e40f1774", "rental_uris": {"android": "https://dc.lft.to/lastmile_qr_scan", "ios": "https://dc.lft.to/lastmile_qr_scan"}, "name": "1ddffcd6cd354a5e04e63f43e40f1774", "is_reserved": 0}, {"is_disabled": 0, "fusion_lon": 0.0, "fusion_lat": 0.0, "lat": 38.93508683333334, "type": "electric_scooter", "lon": -77.08221566666667, "bike_id": "b57e2d0c8f64084db19b199db6e99aac", "rental_uris": {"android": "https://dc.lft.to/lastmile_qr_scan", "ios": "https://dc.lft.to/lastmile_qr_scan"}, "name": "b57e2d0c8f64084db19b199db6e99aac", "is_reserved": 0}, {"is_disabled": 0, "fusion_lon": 0.0, "fusion_lat": 0.0, "lat": 38.93536816666666, "type": "electric_scooter", "lon": -77.02359783333333, "bike_id": "63469f24c4971233b1b71dda00e6ea41", "rental_uris": {"android": "https://dc.lft.to/lastmile_qr_scan", "ios": "https://dc.lft.to/lastmile_qr_scan"}, "name": "63469f24c4971233b1b71dda00e6ea41", "is_reserved": 0}, {"is_disabled": 0, "fusion_lon": 0.0, "fusion_lat": 0.0, "lat": 38.905071666666664, "type": "electric_scooter", "lon": -77.05139116666666, "bike_id": "b025f317dd49c8f5f07c284ea0bdc288", "rental_uris": {"android": "https://dc.lft.to/lastmile_qr_scan", "ios": "https://dc.lft.to/lastmile_qr_scan"}, "name": "b025f317dd49c8f5f07c284ea0bdc288", "is_reserved": 0}, {"is_disabled": 0, "fusion_lon": 0.0, "fusion_lat": 0.0, "lat": 38.909677333333335, "type": "electric_scooter", "lon": -77.03941316666666, "bike_id": "ff1407c5d5bac1f9aaae8f7009887113", "rental_uris": {"android": "https://dc.lft.to/lastmile_qr_scan", "ios": "https://dc.lft.to/lastmile_qr_scan"}, "name": "ff1407c5d5bac1f9aaae8f7009887113", "is_reserved": 0}, {"is_disabled": 0, "fusion_lon": 0.0, "fusion_lat": 0.0, "lat": 39.052101666666665, "type": "electric_bike", "lon": -77.04414433333334, "bike_id": "de65e9df293ebb73b5bac2990530f083", "rental_uris": {"android": "https://dc.lft.to/lastmile_qr_scan", "ios": "https://dc.lft.to/lastmile_qr_scan"}, "name": "de65e9df293ebb73b5bac2990530f083", "is_reserved": 0}, {"is_disabled": 0, "fusion_lon": 0.0, "fusion_lat": 0.0, "lat": 38.899687, "type": "electric_scooter", "lon": -77.05151233333333, "bike_id": "c44b771759462af915e88d9ad6b312cd", "rental_uris": {"android": "https://dc.lft.to/lastmile_qr_scan", "ios": "https://dc.lft.to/lastmile_qr_scan"}, "name": "c44b771759462af915e88d9ad6b312cd", "is_reserved": 0}, {"is_disabled": 0, "fusion_lon": 0.0, "fusion_lat": 0.0, "lat": 38.9203275, "type": "electric_scooter", "lon": -77.0258975, "bike_id": "98a7ca2fcf4796f00cea909bc81a14ad", "rental_uris": {"android": "https://dc.lft.to/lastmile_qr_scan", "ios": "https://dc.lft.to/lastmile_qr_scan"}, "name": "98a7ca2fcf4796f00cea909bc81a14ad", "is_reserved": 0}, {"is_disabled": 0, "fusion_lon": 0.0, "fusion_lat": 0.0, "lat": 38.94702216666667, "type": "electric_scooter", "lon": -77.09065533333333, "bike_id": "7b7c659a13c954e4a053019c880b78ef", "rental_uris": {"android": "https://dc.lft.to/lastmile_qr_scan", "ios": "https://dc.lft.to/lastmile_qr_scan"}, "name": "7b7c659a13c954e4a053019c880b78ef", "is_reserved": 0}, {"is_disabled": 0, "fusion_lon": 0.0, "fusion_lat": 0.0, "lat": 38.920329, "type": "electric_scooter", "lon": -77.041848, "bike_id": "57b3a66f1ce60f818c5b4cd332cd7a1f", "rental_uris": {"android": "https://dc.lft.to/lastmile_qr_scan", "ios": "https://dc.lft.to/lastmile_qr_scan"}, "name": "57b3a66f1ce60f818c5b4cd332cd7a1f", "is_reserved": 0}, {"is_disabled": 0, "fusion_lon": 0.0, "fusion_lat": 0.0, "lat": 38.91453383333333, "type": "electric_scooter", "lon": -77.02001333333334, "bike_id": "4377a0a13b48818b5bb5b842dc974c0e", "rental_uris": {"android": "https://dc.lft.to/lastmile_qr_scan", "ios": "https://dc.lft.to/lastmile_qr_scan"}, "name": "4377a0a13b48818b5bb5b842dc974c0e", "is_reserved": 0}, {"is_disabled": 0, "fusion_lon": 0.0, "fusion_lat": 0.0, "lat": 38.9001675, "type": "electric_scooter", "lon": -77.00193916666667, "bike_id": "f9fcf5f63c187eca4e89280846dc73d3", "rental_uris": {"android": "https://dc.lft.to/lastmile_qr_scan", "ios": "https://dc.lft.to/lastmile_qr_scan"}, "name": "f9fcf5f63c187eca4e89280846dc73d3", "is_reserved": 0}, {"is_disabled": 0, "fusion_lon": 0.0, "fusion_lat": 0.0, "lat": 38.90063883333333, "type": "electric_scooter", "lon": -77.05029333333333, "bike_id": "1c50160363f1c9a145a5a01ae291ee69", "rental_uris": {"android": "https://dc.lft.to/lastmile_qr_scan", "ios": "https://dc.lft.to/lastmile_qr_scan"}, "name": "1c50160363f1c9a145a5a01ae291ee69", "is_reserved": 0}, {"is_disabled": 0, "fusion_lon": 0.0, "fusion_lat": 0.0, "lat": 38.91415683333334, "type": "electric_scooter", "lon": -77.045402, "bike_id": "b0d354f3ca5cb3ccd3fe22c9e2d469d0", "rental_uris": {"android": "https://dc.lft.to/lastmile_qr_scan", "ios": "https://dc.lft.to/lastmile_qr_scan"}, "name": "b0d354f3ca5cb3ccd3fe22c9e2d469d0", "is_reserved": 0}, {"is_disabled": 0, "fusion_lon": 0.0, "fusion_lat": 0.0, "lat": 38.89539383333333, "type": "electric_scooter", "lon": -77.029268, "bike_id": "e1c649aa084832b2d57f66a9cc3b3485", "rental_uris": {"android": "https://dc.lft.to/lastmile_qr_scan", "ios": "https://dc.lft.to/lastmile_qr_scan"}, "name": "e1c649aa084832b2d57f66a9cc3b3485", "is_reserved": 0}, {"is_disabled": 0, "fusion_lon": 0.0, "fusion_lat": 0.0, "lat": 38.86248966666667, "type": "electric_scooter", "lon": -76.995041, "bike_id": "6bbf4cfcce53111ffb27e9cca7fada1e", "rental_uris": {"android": "https://dc.lft.to/lastmile_qr_scan", "ios": "https://dc.lft.to/lastmile_qr_scan"}, "name": "6bbf4cfcce53111ffb27e9cca7fada1e", "is_reserved": 0}, {"is_disabled": 0, "fusion_lon": 0.0, "fusion_lat": 0.0, "lat": 38.968156, "type": "electric_scooter", "lon": -77.00891616666667, "bike_id": "d2d5618629ea509d7a8a287d6a07a104", "rental_uris": {"android": "https://dc.lft.to/lastmile_qr_scan", "ios": "https://dc.lft.to/lastmile_qr_scan"}, "name": "d2d5618629ea509d7a8a287d6a07a104", "is_reserved": 0}, {"is_disabled": 0, "fusion_lon": 0.0, "fusion_lat": 0.0, "lat": 38.90781616666666, "type": "electric_scooter", "lon": -77.04499116666666, "bike_id": "eca97c2ff3a703d1e9f21cf883620677", "rental_uris": {"android": "https://dc.lft.to/lastmile_qr_scan", "ios": "https://dc.lft.to/lastmile_qr_scan"}, "name": "eca97c2ff3a703d1e9f21cf883620677", "is_reserved": 0}, {"is_disabled": 0, "fusion_lon": 0.0, "fusion_lat": 0.0, "lat": 38.90388866666667, "type": "electric_scooter", "lon": -77.00476133333333, "bike_id": "d4934ebfbf8273cc74566238e34c2ebb", "rental_uris": {"android": "https://dc.lft.to/lastmile_qr_scan", "ios": "https://dc.lft.to/lastmile_qr_scan"}, "name": "d4934ebfbf8273cc74566238e34c2ebb", "is_reserved": 0}, {"is_disabled": 0, "fusion_lon": 0.0, "fusion_lat": 0.0, "lat": 38.89722883333334, "type": "electric_bike", "lon": -76.90546616666667, "bike_id": "aaaa6091b7c3bf8793fd106c31dd6f29", "rental_uris": {"android": "https://dc.lft.to/lastmile_qr_scan", "ios": "https://dc.lft.to/lastmile_qr_scan"}, "name": "aaaa6091b7c3bf8793fd106c31dd6f29", "is_reserved": 0}, {"is_disabled": 0, "fusion_lon": 0.0, "fusion_lat": 0.0, "lat": 38.886283, "type": "electric_bike", "lon": -77.09241516666667, "bike_id": "ce5ec8d96e8eb6a93e0600d9bd8d51c3", "rental_uris": {"android": "https://dc.lft.to/lastmile_qr_scan", "ios": "https://dc.lft.to/lastmile_qr_scan"}, "name": "ce5ec8d96e8eb6a93e0600d9bd8d51c3", "is_reserved": 0}, {"is_disabled": 0, "fusion_lon": 0.0, "fusion_lat": 0.0, "lat": 38.92702116666667, "type": "electric_scooter", "lon": -77.023075, "bike_id": "2bf4949366994fe4b647bea9647b26ee", "rental_uris": {"android": "https://dc.lft.to/lastmile_qr_scan", "ios": "https://dc.lft.to/lastmile_qr_scan"}, "name": "2bf4949366994fe4b647bea9647b26ee", "is_reserved": 0}, {"is_disabled": 0, "fusion_lon": 0.0, "fusion_lat": 0.0, "lat": 38.89703433333333, "type": "electric_scooter", "lon": -77.02163383333334, "bike_id": "ff250e3bc5116157a45836b8fcc24bf4", "rental_uris": {"android": "https://dc.lft.to/lastmile_qr_scan", "ios": "https://dc.lft.to/lastmile_qr_scan"}, "name": "ff250e3bc5116157a45836b8fcc24bf4", "is_reserved": 0}, {"is_disabled": 0, "fusion_lon": 0.0, "fusion_lat": 0.0, "lat": 38.92750083333333, "type": "electric_scooter", "lon": -77.00598916666667, "bike_id": "a16cff6a2d737c3741dd7d553eacc71d", "rental_uris": {"android": "https://dc.lft.to/lastmile_qr_scan", "ios": "https://dc.lft.to/lastmile_qr_scan"}, "name": "a16cff6a2d737c3741dd7d553eacc71d", "is_reserved": 0}, {"is_disabled": 0, "fusion_lon": 0.0, "fusion_lat": 0.0, "lat": 38.852074333333334, "type": "electric_bike", "lon": -77.10129133333334, "bike_id": "3a8567de178de5b3874f4249bb8f8b09", "rental_uris": {"android": "https://dc.lft.to/lastmile_qr_scan", "ios": "https://dc.lft.to/lastmile_qr_scan"}, "name": "3a8567de178de5b3874f4249bb8f8b09", "is_reserved": 0}, {"is_disabled": 0, "fusion_lon": 0.0, "fusion_lat": 0.0, "lat": 38.946338833333336, "type": "electric_scooter", "lon": -77.01931033333334, "bike_id": "b84375f461ee333c8a13313934368bc9", "rental_uris": {"android": "https://dc.lft.to/lastmile_qr_scan", "ios": "https://dc.lft.to/lastmile_qr_scan"}, "name": "b84375f461ee333c8a13313934368bc9", "is_reserved": 0}, {"is_disabled": 0, "fusion_lon": 0.0, "fusion_lat": 0.0, "lat": 38.87705416666667, "type": "electric_scooter", "lon": -77.00056366666666, "bike_id": "65d03d50faf63de28dec7754eef39205", "rental_uris": {"android": "https://dc.lft.to/lastmile_qr_scan", "ios": "https://dc.lft.to/lastmile_qr_scan"}, "name": "65d03d50faf63de28dec7754eef39205", "is_reserved": 0}, {"is_disabled": 0, "fusion_lon": 0.0, "fusion_lat": 0.0, "lat": 38.91747216666667, "type": "electric_scooter", "lon": -77.04763733333333, "bike_id": "21eb9d51510c330ffbcd4a9792a74809", "rental_uris": {"android": "https://dc.lft.to/lastmile_qr_scan", "ios": "https://dc.lft.to/lastmile_qr_scan"}, "name": "21eb9d51510c330ffbcd4a9792a74809", "is_reserved": 0}, {"is_disabled": 0, "fusion_lon": 0.0, "fusion_lat": 0.0, "lat": 38.919814833333334, "type": "electric_scooter", "lon": -76.97316033333334, "bike_id": "e33079b787578d5b4e71bd16f3270719", "rental_uris": {"android": "https://dc.lft.to/lastmile_qr_scan", "ios": "https://dc.lft.to/lastmile_qr_scan"}, "name": "e33079b787578d5b4e71bd16f3270719", "is_reserved": 0}, {"is_disabled": 0, "fusion_lon": 0.0, "fusion_lat": 0.0, "lat": 38.90293333333334, "type": "electric_scooter", "lon": -77.02413916666667, "bike_id": "edcacfabf0dcc3d3353e0d332096bec5", "rental_uris": {"android": "https://dc.lft.to/lastmile_qr_scan", "ios": "https://dc.lft.to/lastmile_qr_scan"}, "name": "edcacfabf0dcc3d3353e0d332096bec5", "is_reserved": 0}, {"is_disabled": 0, "fusion_lon": 0.0, "fusion_lat": 0.0, "lat": 38.90068433333333, "type": "electric_scooter", "lon": -77.00217566666667, "bike_id": "5f709302271f4ba024ca20cf68dbdc4e", "rental_uris": {"android": "https://dc.lft.to/lastmile_qr_scan", "ios": "https://dc.lft.to/lastmile_qr_scan"}, "name": "5f709302271f4ba024ca20cf68dbdc4e", "is_reserved": 0}, {"is_disabled": 0, "fusion_lon": 0.0, "fusion_lat": 0.0, "lat": 38.912498, "type": "electric_scooter", "lon": -77.04441616666666, "bike_id": "44f8017262a59c8a301a055e6c9971f5", "rental_uris": {"android": "https://dc.lft.to/lastmile_qr_scan", "ios": "https://dc.lft.to/lastmile_qr_scan"}, "name": "44f8017262a59c8a301a055e6c9971f5", "is_reserved": 0}, {"is_disabled": 0, "fusion_lon": 0.0, "fusion_lat": 0.0, "lat": 38.9261325, "type": "electric_scooter", "lon": -77.02163816666666, "bike_id": "6040a1c2d3682c85b340e8759584f8d1", "rental_uris": {"android": "https://dc.lft.to/lastmile_qr_scan", "ios": "https://dc.lft.to/lastmile_qr_scan"}, "name": "6040a1c2d3682c85b340e8759584f8d1", "is_reserved": 0}, {"is_disabled": 0, "fusion_lon": 0.0, "fusion_lat": 0.0, "lat": 38.922274333333334, "type": "electric_scooter", "lon": -77.047048, "bike_id": "2be5f0befe465a124aecb5bac9ff1517", "rental_uris": {"android": "https://dc.lft.to/lastmile_qr_scan", "ios": "https://dc.lft.to/lastmile_qr_scan"}, "name": "2be5f0befe465a124aecb5bac9ff1517", "is_reserved": 0}, {"is_disabled": 0, "fusion_lon": 0.0, "fusion_lat": 0.0, "lat": 38.96022, "type": "electric_bike", "lon": -76.92727033333334, "bike_id": "5eb3fdb9338f44065b6db59dcc9e011a", "rental_uris": {"android": "https://dc.lft.to/lastmile_qr_scan", "ios": "https://dc.lft.to/lastmile_qr_scan"}, "name": "5eb3fdb9338f44065b6db59dcc9e011a", "is_reserved": 0}, {"is_disabled": 0, "fusion_lon": 0.0, "fusion_lat": 0.0, "lat": 38.89372916666667, "type": "electric_scooter", "lon": -76.97822783333334, "bike_id": "a753a9fefd857249517d03ab0c97d3c5", "rental_uris": {"android": "https://dc.lft.to/lastmile_qr_scan", "ios": "https://dc.lft.to/lastmile_qr_scan"}, "name": "a753a9fefd857249517d03ab0c97d3c5", "is_reserved": 0}, {"is_disabled": 0, "fusion_lon": 0.0, "fusion_lat": 0.0, "lat": 38.9187845, "type": "electric_scooter", "lon": -77.0350415, "bike_id": "a73caaa259f1161b299ae8dec84418f5", "rental_uris": {"android": "https://dc.lft.to/lastmile_qr_scan", "ios": "https://dc.lft.to/lastmile_qr_scan"}, "name": "a73caaa259f1161b299ae8dec84418f5", "is_reserved": 0}, {"is_disabled": 0, "fusion_lon": 0.0, "fusion_lat": 0.0, "lat": 38.92178233333333, "type": "electric_scooter", "lon": -77.04230083333333, "bike_id": "37e685c196ce7506acb573fcdeb03071", "rental_uris": {"android": "https://dc.lft.to/lastmile_qr_scan", "ios": "https://dc.lft.to/lastmile_qr_scan"}, "name": "37e685c196ce7506acb573fcdeb03071", "is_reserved": 0}, {"is_disabled": 0, "fusion_lon": 0.0, "fusion_lat": 0.0, "lat": 38.900429, "type": "electric_scooter", "lon": -76.988229, "bike_id": "dbef816030f481051f4a1332727270e8", "rental_uris": {"android": "https://dc.lft.to/lastmile_qr_scan", "ios": "https://dc.lft.to/lastmile_qr_scan"}, "name": "dbef816030f481051f4a1332727270e8", "is_reserved": 0}, {"is_disabled": 0, "fusion_lon": 0.0, "fusion_lat": 0.0, "lat": 38.92371216666667, "type": "electric_scooter", "lon": -77.08064816666666, "bike_id": "0e988d149b515ad9e37bf9d10697b342", "rental_uris": {"android": "https://dc.lft.to/lastmile_qr_scan", "ios": "https://dc.lft.to/lastmile_qr_scan"}, "name": "0e988d149b515ad9e37bf9d10697b342", "is_reserved": 0}, {"is_disabled": 0, "fusion_lon": 0.0, "fusion_lat": 0.0, "lat": 38.89902583333333, "type": "electric_scooter", "lon": -77.03344, "bike_id": "0c3ca9a36f130036ec5b738d8b398194", "rental_uris": {"android": "https://dc.lft.to/lastmile_qr_scan", "ios": "https://dc.lft.to/lastmile_qr_scan"}, "name": "0c3ca9a36f130036ec5b738d8b398194", "is_reserved": 0}, {"is_disabled": 0, "fusion_lon": 0.0, "fusion_lat": 0.0, "lat": 38.9403555, "type": "electric_scooter", "lon": -77.02917583333333, "bike_id": "bca2bb44be688e9a7fd41206286202ca", "rental_uris": {"android": "https://dc.lft.to/lastmile_qr_scan", "ios": "https://dc.lft.to/lastmile_qr_scan"}, "name": "bca2bb44be688e9a7fd41206286202ca", "is_reserved": 0}, {"is_disabled": 0, "fusion_lon": 0.0, "fusion_lat": 0.0, "lat": 38.900227666666666, "type": "electric_scooter", "lon": -76.98855633333334, "bike_id": "2ea45dcac314c0c37d3edd7af2357b9c", "rental_uris": {"android": "https://dc.lft.to/lastmile_qr_scan", "ios": "https://dc.lft.to/lastmile_qr_scan"}, "name": "2ea45dcac314c0c37d3edd7af2357b9c", "is_reserved": 0}, {"is_disabled": 0, "fusion_lon": 0.0, "fusion_lat": 0.0, "lat": 38.85868383333333, "type": "electric_scooter", "lon": -76.990215, "bike_id": "59a6ffe2c4702e2e7c4b02babe23cf82", "rental_uris": {"android": "https://dc.lft.to/lastmile_qr_scan", "ios": "https://dc.lft.to/lastmile_qr_scan"}, "name": "59a6ffe2c4702e2e7c4b02babe23cf82", "is_reserved": 0}, {"is_disabled": 0, "fusion_lon": 0.0, "fusion_lat": 0.0, "lat": 38.93273833333333, "type": "electric_scooter", "lon": -77.03980966666667, "bike_id": "978760666277ebdab96a8af675f00563", "rental_uris": {"android": "https://dc.lft.to/lastmile_qr_scan", "ios": "https://dc.lft.to/lastmile_qr_scan"}, "name": "978760666277ebdab96a8af675f00563", "is_reserved": 0}, {"is_disabled": 0, "fusion_lon": 0.0, "fusion_lat": 0.0, "lat": 38.88120716666667, "type": "electric_bike", "lon": -77.0018745, "bike_id": "8c6ea27ac79d1a4838cb9f956bc8dbdf", "rental_uris": {"android": "https://dc.lft.to/lastmile_qr_scan", "ios": "https://dc.lft.to/lastmile_qr_scan"}, "name": "8c6ea27ac79d1a4838cb9f956bc8dbdf", "is_reserved": 0}, {"is_disabled": 0, "fusion_lon": 0.0, "fusion_lat": 0.0, "lat": 38.91300483333333, "type": "electric_scooter", "lon": -77.032065, "bike_id": "950d24b16a30b5e3dbabb1f28c36537e", "rental_uris": {"android": "https://dc.lft.to/lastmile_qr_scan", "ios": "https://dc.lft.to/lastmile_qr_scan"}, "name": "950d24b16a30b5e3dbabb1f28c36537e", "is_reserved": 0}, {"is_disabled": 0, "fusion_lon": 0.0, "fusion_lat": 0.0, "lat": 38.8907935, "type": "electric_scooter", "lon": -76.93861066666666, "bike_id": "ecc30005688319377d17e7c0d74697e7", "rental_uris": {"android": "https://dc.lft.to/lastmile_qr_scan", "ios": "https://dc.lft.to/lastmile_qr_scan"}, "name": "ecc30005688319377d17e7c0d74697e7", "is_reserved": 0}, {"is_disabled": 0, "fusion_lon": 0.0, "fusion_lat": 0.0, "lat": 38.90932333333333, "type": "electric_scooter", "lon": -77.03525183333333, "bike_id": "c3fe778f9a5e7dfe7e5fbd2e7f04a12e", "rental_uris": {"android": "https://dc.lft.to/lastmile_qr_scan", "ios": "https://dc.lft.to/lastmile_qr_scan"}, "name": "c3fe778f9a5e7dfe7e5fbd2e7f04a12e", "is_reserved": 0}, {"is_disabled": 0, "fusion_lon": 0.0, "fusion_lat": 0.0, "lat": 38.908053833333334, "type": "electric_scooter", "lon": -77.03846683333333, "bike_id": "60dd3c0a14344e8abcb9b627848289c0", "rental_uris": {"android": "https://dc.lft.to/lastmile_qr_scan", "ios": "https://dc.lft.to/lastmile_qr_scan"}, "name": "60dd3c0a14344e8abcb9b627848289c0", "is_reserved": 0}, {"is_disabled": 0, "fusion_lon": 0.0, "fusion_lat": 0.0, "lat": 38.95013816666667, "type": "electric_bike", "lon": -77.0547585, "bike_id": "dc8bf9961b313663506c58d17e2cd73d", "rental_uris": {"android": "https://dc.lft.to/lastmile_qr_scan", "ios": "https://dc.lft.to/lastmile_qr_scan"}, "name": "dc8bf9961b313663506c58d17e2cd73d", "is_reserved": 0}, {"is_disabled": 0, "fusion_lon": 0.0, "fusion_lat": 0.0, "lat": 38.89223716666667, "type": "electric_scooter", "lon": -77.04710566666667, "bike_id": "2f2aa9d01d101f9e302ba0b0ffa6ea3c", "rental_uris": {"android": "https://dc.lft.to/lastmile_qr_scan", "ios": "https://dc.lft.to/lastmile_qr_scan"}, "name": "2f2aa9d01d101f9e302ba0b0ffa6ea3c", "is_reserved": 0}, {"is_disabled": 0, "fusion_lon": 0.0, "fusion_lat": 0.0, "lat": 38.892263, "type": "electric_scooter", "lon": -77.04790233333334, "bike_id": "7d3a80a819322297c4140041d6d62892", "rental_uris": {"android": "https://dc.lft.to/lastmile_qr_scan", "ios": "https://dc.lft.to/lastmile_qr_scan"}, "name": "7d3a80a819322297c4140041d6d62892", "is_reserved": 0}, {"is_disabled": 0, "fusion_lon": 0.0, "fusion_lat": 0.0, "lat": 38.95654366666667, "type": "electric_scooter", "lon": -77.0329385, "bike_id": "dfa95aed78125386bf31851120219f93", "rental_uris": {"android": "https://dc.lft.to/lastmile_qr_scan", "ios": "https://dc.lft.to/lastmile_qr_scan"}, "name": "dfa95aed78125386bf31851120219f93", "is_reserved": 0}, {"is_disabled": 0, "fusion_lon": 0.0, "fusion_lat": 0.0, "lat": 38.89527016666667, "type": "electric_scooter", "lon": -77.02817166666667, "bike_id": "a61afd8687e317c09aeacacb0f5301eb", "rental_uris": {"android": "https://dc.lft.to/lastmile_qr_scan", "ios": "https://dc.lft.to/lastmile_qr_scan"}, "name": "a61afd8687e317c09aeacacb0f5301eb", "is_reserved": 0}, {"is_disabled": 0, "fusion_lon": 0.0, "fusion_lat": 0.0, "lat": 38.89694266666667, "type": "electric_scooter", "lon": -77.051244, "bike_id": "88baa13e95b8b797f4e372d8767abe96", "rental_uris": {"android": "https://dc.lft.to/lastmile_qr_scan", "ios": "https://dc.lft.to/lastmile_qr_scan"}, "name": "88baa13e95b8b797f4e372d8767abe96", "is_reserved": 0}, {"is_disabled": 0, "fusion_lon": 0.0, "fusion_lat": 0.0, "lat": 38.876260333333335, "type": "electric_scooter", "lon": -76.96539533333333, "bike_id": "07cd4ece8695959737403a36e03f6545", "rental_uris": {"android": "https://dc.lft.to/lastmile_qr_scan", "ios": "https://dc.lft.to/lastmile_qr_scan"}, "name": "07cd4ece8695959737403a36e03f6545", "is_reserved": 0}, {"is_disabled": 0, "fusion_lon": 0.0, "fusion_lat": 0.0, "lat": 38.90968066666667, "type": "electric_scooter", "lon": -77.06765483333334, "bike_id": "4fdc778d398d7fc81dba9c8f57852fb7", "rental_uris": {"android": "https://dc.lft.to/lastmile_qr_scan", "ios": "https://dc.lft.to/lastmile_qr_scan"}, "name": "4fdc778d398d7fc81dba9c8f57852fb7", "is_reserved": 0}, {"is_disabled": 0, "fusion_lon": 0.0, "fusion_lat": 0.0, "lat": 38.91719533333333, "type": "electric_scooter", "lon": -77.03669016666667, "bike_id": "8e87e91f29b94b6f568db1b4eeb42c84", "rental_uris": {"android": "https://dc.lft.to/lastmile_qr_scan", "ios": "https://dc.lft.to/lastmile_qr_scan"}, "name": "8e87e91f29b94b6f568db1b4eeb42c84", "is_reserved": 0}, {"is_disabled": 0, "fusion_lon": 0.0, "fusion_lat": 0.0, "lat": 38.962196, "type": "electric_scooter", "lon": -77.0280655, "bike_id": "609427e0cf205650b2e3ba8abdd35472", "rental_uris": {"android": "https://dc.lft.to/lastmile_qr_scan", "ios": "https://dc.lft.to/lastmile_qr_scan"}, "name": "609427e0cf205650b2e3ba8abdd35472", "is_reserved": 0}, {"is_disabled": 0, "fusion_lon": 0.0, "fusion_lat": 0.0, "lat": 38.910268333333335, "type": "electric_scooter", "lon": -77.00758666666667, "bike_id": "2c2cb78a4fcd7ef0891549ef1fc35463", "rental_uris": {"android": "https://dc.lft.to/lastmile_qr_scan", "ios": "https://dc.lft.to/lastmile_qr_scan"}, "name": "2c2cb78a4fcd7ef0891549ef1fc35463", "is_reserved": 0}, {"is_disabled": 0, "fusion_lon": 0.0, "fusion_lat": 0.0, "lat": 38.9908975, "type": "electric_bike", "lon": -76.874971, "bike_id": "3bbf7295960c7ddf50a9105f824e1e33", "rental_uris": {"android": "https://dc.lft.to/lastmile_qr_scan", "ios": "https://dc.lft.to/lastmile_qr_scan"}, "name": "3bbf7295960c7ddf50a9105f824e1e33", "is_reserved": 0}, {"is_disabled": 0, "fusion_lon": 0.0, "fusion_lat": 0.0, "lat": 38.90100833333333, "type": "electric_scooter", "lon": -77.04882583333334, "bike_id": "f61e7c906a4af05b0763a96eb3920ceb", "rental_uris": {"android": "https://dc.lft.to/lastmile_qr_scan", "ios": "https://dc.lft.to/lastmile_qr_scan"}, "name": "f61e7c906a4af05b0763a96eb3920ceb", "is_reserved": 0}, {"is_disabled": 0, "fusion_lon": 0.0, "fusion_lat": 0.0, "lat": 38.892261833333336, "type": "electric_scooter", "lon": -77.02220133333333, "bike_id": "9b2f761c6f69f78d1c6dc65db6b25b83", "rental_uris": {"android": "https://dc.lft.to/lastmile_qr_scan", "ios": "https://dc.lft.to/lastmile_qr_scan"}, "name": "9b2f761c6f69f78d1c6dc65db6b25b83", "is_reserved": 0}, {"is_disabled": 0, "fusion_lon": 0.0, "fusion_lat": 0.0, "lat": 38.92647766666666, "type": "electric_scooter", "lon": -77.03723616666667, "bike_id": "f22d4398cd14ec94e13f755ae2f3e170", "rental_uris": {"android": "https://dc.lft.to/lastmile_qr_scan", "ios": "https://dc.lft.to/lastmile_qr_scan"}, "name": "f22d4398cd14ec94e13f755ae2f3e170", "is_reserved": 0}, {"is_disabled": 0, "fusion_lon": 0.0, "fusion_lat": 0.0, "lat": 38.907875, "type": "electric_scooter", "lon": -77.03674683333334, "bike_id": "8619657358688a7fac30dc8a247f9b35", "rental_uris": {"android": "https://dc.lft.to/lastmile_qr_scan", "ios": "https://dc.lft.to/lastmile_qr_scan"}, "name": "8619657358688a7fac30dc8a247f9b35", "is_reserved": 0}, {"is_disabled": 0, "fusion_lon": 0.0, "fusion_lat": 0.0, "lat": 38.916906, "type": "electric_scooter", "lon": -77.02978533333334, "bike_id": "3da9e5183071d430cffc94c45ec9e97e", "rental_uris": {"android": "https://dc.lft.to/lastmile_qr_scan", "ios": "https://dc.lft.to/lastmile_qr_scan"}, "name": "3da9e5183071d430cffc94c45ec9e97e", "is_reserved": 0}, {"is_disabled": 0, "fusion_lon": 0.0, "fusion_lat": 0.0, "lat": 38.89220566666667, "type": "electric_scooter", "lon": -77.04017083333333, "bike_id": "f6c98968e4269ca45b27b01827c7f53f", "rental_uris": {"android": "https://dc.lft.to/lastmile_qr_scan", "ios": "https://dc.lft.to/lastmile_qr_scan"}, "name": "f6c98968e4269ca45b27b01827c7f53f", "is_reserved": 0}, {"is_disabled": 0, "fusion_lon": 0.0, "fusion_lat": 0.0, "lat": 38.87659566666667, "type": "electric_scooter", "lon": -77.00941783333333, "bike_id": "1e52f7336596cc8770c3ca42078cc55e", "rental_uris": {"android": "https://dc.lft.to/lastmile_qr_scan", "ios": "https://dc.lft.to/lastmile_qr_scan"}, "name": "1e52f7336596cc8770c3ca42078cc55e", "is_reserved": 0}, {"is_disabled": 0, "fusion_lon": 0.0, "fusion_lat": 0.0, "lat": 38.94792833333333, "type": "electric_scooter", "lon": -77.03284, "bike_id": "b817a11f5e08277db9350502a01799d0", "rental_uris": {"android": "https://dc.lft.to/lastmile_qr_scan", "ios": "https://dc.lft.to/lastmile_qr_scan"}, "name": "b817a11f5e08277db9350502a01799d0", "is_reserved": 0}, {"is_disabled": 0, "fusion_lon": 0.0, "fusion_lat": 0.0, "lat": 38.92971716666667, "type": "electric_scooter", "lon": -77.028274, "bike_id": "beb77efd65f6419a63ee824528558587", "rental_uris": {"android": "https://dc.lft.to/lastmile_qr_scan", "ios": "https://dc.lft.to/lastmile_qr_scan"}, "name": "beb77efd65f6419a63ee824528558587", "is_reserved": 0}, {"is_disabled": 0, "fusion_lon": 0.0, "fusion_lat": 0.0, "lat": 38.911101333333335, "type": "electric_scooter", "lon": -77.05043133333334, "bike_id": "8f2a31ab41e6e6b100c25499dc9c2f79", "rental_uris": {"android": "https://dc.lft.to/lastmile_qr_scan", "ios": "https://dc.lft.to/lastmile_qr_scan"}, "name": "8f2a31ab41e6e6b100c25499dc9c2f79", "is_reserved": 0}, {"is_disabled": 0, "fusion_lon": 0.0, "fusion_lat": 0.0, "lat": 38.917118, "type": "electric_scooter", "lon": -77.02790883333333, "bike_id": "cd386768cfdbc39996ddb4a27793e899", "rental_uris": {"android": "https://dc.lft.to/lastmile_qr_scan", "ios": "https://dc.lft.to/lastmile_qr_scan"}, "name": "cd386768cfdbc39996ddb4a27793e899", "is_reserved": 0}, {"is_disabled": 0, "fusion_lon": 0.0, "fusion_lat": 0.0, "lat": 39.0413365, "type": "electric_bike", "lon": -76.989172, "bike_id": "d3e46b09357d6acbc81710a73ccaa966", "rental_uris": {"android": "https://dc.lft.to/lastmile_qr_scan", "ios": "https://dc.lft.to/lastmile_qr_scan"}, "name": "d3e46b09357d6acbc81710a73ccaa966", "is_reserved": 0}, {"is_disabled": 0, "fusion_lon": 0.0, "fusion_lat": 0.0, "lat": 38.877037333333334, "type": "electric_scooter", "lon": -77.01759366666667, "bike_id": "7c936e017bf5731890213408478a93e0", "rental_uris": {"android": "https://dc.lft.to/lastmile_qr_scan", "ios": "https://dc.lft.to/lastmile_qr_scan"}, "name": "7c936e017bf5731890213408478a93e0", "is_reserved": 0}, {"is_disabled": 0, "fusion_lon": 0.0, "fusion_lat": 0.0, "lat": 38.8769215, "type": "electric_scooter", "lon": -77.01766133333334, "bike_id": "67f1da9fe96df993cf6580317320e8c2", "rental_uris": {"android": "https://dc.lft.to/lastmile_qr_scan", "ios": "https://dc.lft.to/lastmile_qr_scan"}, "name": "67f1da9fe96df993cf6580317320e8c2", "is_reserved": 0}, {"is_disabled": 0, "fusion_lon": 0.0, "fusion_lat": 0.0, "lat": 38.9074015, "type": "electric_scooter", "lon": -77.02184716666666, "bike_id": "4e91fb6757f7307fab1b80d25e3a9eea", "rental_uris": {"android": "https://dc.lft.to/lastmile_qr_scan", "ios": "https://dc.lft.to/lastmile_qr_scan"}, "name": "4e91fb6757f7307fab1b80d25e3a9eea", "is_reserved": 0}, {"is_disabled": 0, "fusion_lon": 0.0, "fusion_lat": 0.0, "lat": 38.89530033333333, "type": "electric_scooter", "lon": -77.03350983333333, "bike_id": "a3871dfa3898853fdc7dca51c376cd50", "rental_uris": {"android": "https://dc.lft.to/lastmile_qr_scan", "ios": "https://dc.lft.to/lastmile_qr_scan"}, "name": "a3871dfa3898853fdc7dca51c376cd50", "is_reserved": 0}, {"is_disabled": 0, "fusion_lon": 0.0, "fusion_lat": 0.0, "lat": 38.923715333333334, "type": "electric_scooter", "lon": -77.05031033333333, "bike_id": "2e7bc974929f20f57343c61e881a2a74", "rental_uris": {"android": "https://dc.lft.to/lastmile_qr_scan", "ios": "https://dc.lft.to/lastmile_qr_scan"}, "name": "2e7bc974929f20f57343c61e881a2a74", "is_reserved": 0}, {"is_disabled": 0, "fusion_lon": 0.0, "fusion_lat": 0.0, "lat": 38.911345833333336, "type": "electric_bike", "lon": -76.9881575, "bike_id": "f825cbf4cc0c689a726b735996379ee5", "rental_uris": {"android": "https://dc.lft.to/lastmile_qr_scan", "ios": "https://dc.lft.to/lastmile_qr_scan"}, "name": "f825cbf4cc0c689a726b735996379ee5", "is_reserved": 0}, {"is_disabled": 0, "fusion_lon": 0.0, "fusion_lat": 0.0, "lat": 38.901401666666665, "type": "electric_scooter", "lon": -77.0317705, "bike_id": "5c6340931cdca59d3dfccfd255c15b43", "rental_uris": {"android": "https://dc.lft.to/lastmile_qr_scan", "ios": "https://dc.lft.to/lastmile_qr_scan"}, "name": "5c6340931cdca59d3dfccfd255c15b43", "is_reserved": 0}, {"is_disabled": 0, "fusion_lon": 0.0, "fusion_lat": 0.0, "lat": 38.932629666666664, "type": "electric_bike", "lon": -76.98631466666667, "bike_id": "cb1eb915a27b66ec1e39664af36f374a", "rental_uris": {"android": "https://dc.lft.to/lastmile_qr_scan", "ios": "https://dc.lft.to/lastmile_qr_scan"}, "name": "cb1eb915a27b66ec1e39664af36f374a", "is_reserved": 0}, {"is_disabled": 0, "fusion_lon": 0.0, "fusion_lat": 0.0, "lat": 38.926529, "type": "electric_scooter", "lon": -77.03721466666667, "bike_id": "8370575365f0e23a0eb5bad5757eea20", "rental_uris": {"android": "https://dc.lft.to/lastmile_qr_scan", "ios": "https://dc.lft.to/lastmile_qr_scan"}, "name": "8370575365f0e23a0eb5bad5757eea20", "is_reserved": 0}, {"is_disabled": 0, "fusion_lon": 0.0, "fusion_lat": 0.0, "lat": 38.91826366666667, "type": "electric_scooter", "lon": -77.03459316666667, "bike_id": "2508244b02dd11796c7d2cf941885975", "rental_uris": {"android": "https://dc.lft.to/lastmile_qr_scan", "ios": "https://dc.lft.to/lastmile_qr_scan"}, "name": "2508244b02dd11796c7d2cf941885975", "is_reserved": 0}, {"is_disabled": 0, "fusion_lon": 0.0, "fusion_lat": 0.0, "lat": 38.908446166666664, "type": "electric_scooter", "lon": -77.027046, "bike_id": "eee5c658db5fc8ce8b921279a11b6fc1", "rental_uris": {"android": "https://dc.lft.to/lastmile_qr_scan", "ios": "https://dc.lft.to/lastmile_qr_scan"}, "name": "eee5c658db5fc8ce8b921279a11b6fc1", "is_reserved": 0}, {"is_disabled": 0, "fusion_lon": 0.0, "fusion_lat": 0.0, "lat": 38.90564583333333, "type": "electric_scooter", "lon": -77.00486066666667, "bike_id": "e550b3572bb97769a59683c299a93257", "rental_uris": {"android": "https://dc.lft.to/lastmile_qr_scan", "ios": "https://dc.lft.to/lastmile_qr_scan"}, "name": "e550b3572bb97769a59683c299a93257", "is_reserved": 0}, {"is_disabled": 0, "fusion_lon": 0.0, "fusion_lat": 0.0, "lat": 38.90981716666667, "type": "electric_bike", "lon": -77.0882715, "bike_id": "cb4d506b0e20d24752487f782f169721", "rental_uris": {"android": "https://dc.lft.to/lastmile_qr_scan", "ios": "https://dc.lft.to/lastmile_qr_scan"}, "name": "cb4d506b0e20d24752487f782f169721", "is_reserved": 0}, {"is_disabled": 0, "fusion_lon": 0.0, "fusion_lat": 0.0, "lat": 38.905679666666664, "type": "electric_scooter", "lon": -77.04343466666667, "bike_id": "7e7462788d55aaa381a3bf3fbc4263d8", "rental_uris": {"android": "https://dc.lft.to/lastmile_qr_scan", "ios": "https://dc.lft.to/lastmile_qr_scan"}, "name": "7e7462788d55aaa381a3bf3fbc4263d8", "is_reserved": 0}, {"is_disabled": 0, "fusion_lon": 0.0, "fusion_lat": 0.0, "lat": 38.900938, "type": "electric_scooter", "lon": -77.03177633333334, "bike_id": "f28d48bb2c8f74671df728a1df0d16b3", "rental_uris": {"android": "https://dc.lft.to/lastmile_qr_scan", "ios": "https://dc.lft.to/lastmile_qr_scan"}, "name": "f28d48bb2c8f74671df728a1df0d16b3", "is_reserved": 0}, {"is_disabled": 0, "fusion_lon": 0.0, "fusion_lat": 0.0, "lat": 38.9187665, "type": "electric_scooter", "lon": -77.0425235, "bike_id": "713e3fbc68d4077d567ccfcc5b963760", "rental_uris": {"android": "https://dc.lft.to/lastmile_qr_scan", "ios": "https://dc.lft.to/lastmile_qr_scan"}, "name": "713e3fbc68d4077d567ccfcc5b963760", "is_reserved": 0}, {"is_disabled": 0, "fusion_lon": 0.0, "fusion_lat": 0.0, "lat": 38.9455675, "type": "electric_bike", "lon": -77.05122783333333, "bike_id": "d66418d28e13ead5d16333e7e40def51", "rental_uris": {"android": "https://dc.lft.to/lastmile_qr_scan", "ios": "https://dc.lft.to/lastmile_qr_scan"}, "name": "d66418d28e13ead5d16333e7e40def51", "is_reserved": 0}, {"is_disabled": 0, "fusion_lon": 0.0, "fusion_lat": 0.0, "lat": 38.92062983333334, "type": "electric_scooter", "lon": -77.0433825, "bike_id": "933bfdbbeb9db6d13880792770e173a6", "rental_uris": {"android": "https://dc.lft.to/lastmile_qr_scan", "ios": "https://dc.lft.to/lastmile_qr_scan"}, "name": "933bfdbbeb9db6d13880792770e173a6", "is_reserved": 0}, {"is_disabled": 0, "fusion_lon": 0.0, "fusion_lat": 0.0, "lat": 38.913370666666665, "type": "electric_scooter", "lon": -77.0481085, "bike_id": "3f81b04987a19719fe8f0729afd3e7f5", "rental_uris": {"android": "https://dc.lft.to/lastmile_qr_scan", "ios": "https://dc.lft.to/lastmile_qr_scan"}, "name": "3f81b04987a19719fe8f0729afd3e7f5", "is_reserved": 0}, {"is_disabled": 0, "fusion_lon": 0.0, "fusion_lat": 0.0, "lat": 38.901166833333335, "type": "electric_scooter", "lon": -77.01745383333333, "bike_id": "dda65097b05c3ae557f72a2403477a07", "rental_uris": {"android": "https://dc.lft.to/lastmile_qr_scan", "ios": "https://dc.lft.to/lastmile_qr_scan"}, "name": "dda65097b05c3ae557f72a2403477a07", "is_reserved": 0}, {"is_disabled": 0, "fusion_lon": 0.0, "fusion_lat": 0.0, "lat": 38.88974566666667, "type": "electric_scooter", "lon": -76.9874565, "bike_id": "71151b10bbc4bbbd1282f443e4692bdf", "rental_uris": {"android": "https://dc.lft.to/lastmile_qr_scan", "ios": "https://dc.lft.to/lastmile_qr_scan"}, "name": "71151b10bbc4bbbd1282f443e4692bdf", "is_reserved": 0}, {"is_disabled": 0, "fusion_lon": 0.0, "fusion_lat": 0.0, "lat": 38.896604333333336, "type": "electric_bike", "lon": -77.03212716666667, "bike_id": "2b1339a83cd37943a97d0f90ae256468", "rental_uris": {"android": "https://dc.lft.to/lastmile_qr_scan", "ios": "https://dc.lft.to/lastmile_qr_scan"}, "name": "2b1339a83cd37943a97d0f90ae256468", "is_reserved": 0}, {"is_disabled": 0, "fusion_lon": 0.0, "fusion_lat": 0.0, "lat": 38.8972495, "type": "electric_scooter", "lon": -77.033588, "bike_id": "09ec906459ca0597563bf978484a7eda", "rental_uris": {"android": "https://dc.lft.to/lastmile_qr_scan", "ios": "https://dc.lft.to/lastmile_qr_scan"}, "name": "09ec906459ca0597563bf978484a7eda", "is_reserved": 0}, {"is_disabled": 0, "fusion_lon": 0.0, "fusion_lat": 0.0, "lat": 38.901416166666664, "type": "electric_scooter", "lon": -77.04332016666666, "bike_id": "b6034dc23dfcc77422952d0185d4b29d", "rental_uris": {"android": "https://dc.lft.to/lastmile_qr_scan", "ios": "https://dc.lft.to/lastmile_qr_scan"}, "name": "b6034dc23dfcc77422952d0185d4b29d", "is_reserved": 0}, {"is_disabled": 0, "fusion_lon": 0.0, "fusion_lat": 0.0, "lat": 38.895698333333335, "type": "electric_bike", "lon": -76.97617833333334, "bike_id": "3affa5e4bba9df48edb8b44f936f5951", "rental_uris": {"android": "https://dc.lft.to/lastmile_qr_scan", "ios": "https://dc.lft.to/lastmile_qr_scan"}, "name": "3affa5e4bba9df48edb8b44f936f5951", "is_reserved": 0}, {"is_disabled": 0, "fusion_lon": 0.0, "fusion_lat": 0.0, "lat": 38.89881866666666, "type": "electric_scooter", "lon": -76.93162016666666, "bike_id": "963643a6a1366fa09ba3e680029b4333", "rental_uris": {"android": "https://dc.lft.to/lastmile_qr_scan", "ios": "https://dc.lft.to/lastmile_qr_scan"}, "name": "963643a6a1366fa09ba3e680029b4333", "is_reserved": 0}, {"is_disabled": 0, "fusion_lon": 0.0, "fusion_lat": 0.0, "lat": 38.86584583333333, "type": "electric_scooter", "lon": -76.9904355, "bike_id": "4bd16f244bd75c2ee308cde5e6af4029", "rental_uris": {"android": "https://dc.lft.to/lastmile_qr_scan", "ios": "https://dc.lft.to/lastmile_qr_scan"}, "name": "4bd16f244bd75c2ee308cde5e6af4029", "is_reserved": 0}, {"is_disabled": 0, "fusion_lon": 0.0, "fusion_lat": 0.0, "lat": 38.89234583333333, "type": "electric_scooter", "lon": -77.0220755, "bike_id": "2771801c688de094e683a7cea767fd79", "rental_uris": {"android": "https://dc.lft.to/lastmile_qr_scan", "ios": "https://dc.lft.to/lastmile_qr_scan"}, "name": "2771801c688de094e683a7cea767fd79", "is_reserved": 0}, {"is_disabled": 0, "fusion_lon": 0.0, "fusion_lat": 0.0, "lat": 38.9183335, "type": "electric_scooter", "lon": -77.03936383333334, "bike_id": "b3e46da7ea08fd88100164c4b2bf14de", "rental_uris": {"android": "https://dc.lft.to/lastmile_qr_scan", "ios": "https://dc.lft.to/lastmile_qr_scan"}, "name": "b3e46da7ea08fd88100164c4b2bf14de", "is_reserved": 0}, {"is_disabled": 0, "fusion_lon": 0.0, "fusion_lat": 0.0, "lat": 38.92116583333333, "type": "electric_scooter", "lon": -77.01828866666666, "bike_id": "dee4daeaa40f1029d9b4e4585476f9b6", "rental_uris": {"android": "https://dc.lft.to/lastmile_qr_scan", "ios": "https://dc.lft.to/lastmile_qr_scan"}, "name": "dee4daeaa40f1029d9b4e4585476f9b6", "is_reserved": 0}, {"is_disabled": 0, "fusion_lon": 0.0, "fusion_lat": 0.0, "lat": 38.898981166666665, "type": "electric_scooter", "lon": -77.04995516666666, "bike_id": "0a5e5f2c392bb6340cadd37fe84fb25b", "rental_uris": {"android": "https://dc.lft.to/lastmile_qr_scan", "ios": "https://dc.lft.to/lastmile_qr_scan"}, "name": "0a5e5f2c392bb6340cadd37fe84fb25b", "is_reserved": 0}, {"is_disabled": 0, "fusion_lon": 0.0, "fusion_lat": 0.0, "lat": 38.93334683333333, "type": "electric_scooter", "lon": -77.02928116666666, "bike_id": "f0376ac25e54bf1769ae12e571a22d9c", "rental_uris": {"android": "https://dc.lft.to/lastmile_qr_scan", "ios": "https://dc.lft.to/lastmile_qr_scan"}, "name": "f0376ac25e54bf1769ae12e571a22d9c", "is_reserved": 0}, {"is_disabled": 0, "fusion_lon": 0.0, "fusion_lat": 0.0, "lat": 38.91709816666667, "type": "electric_scooter", "lon": -77.02991716666666, "bike_id": "80a03a9156a0719294271660fcc71e56", "rental_uris": {"android": "https://dc.lft.to/lastmile_qr_scan", "ios": "https://dc.lft.to/lastmile_qr_scan"}, "name": "80a03a9156a0719294271660fcc71e56", "is_reserved": 0}, {"is_disabled": 0, "fusion_lon": 0.0, "fusion_lat": 0.0, "lat": 38.94199366666667, "type": "electric_scooter", "lon": -77.025802, "bike_id": "7d769b43a50daa854819f1ccf0c4daca", "rental_uris": {"android": "https://dc.lft.to/lastmile_qr_scan", "ios": "https://dc.lft.to/lastmile_qr_scan"}, "name": "7d769b43a50daa854819f1ccf0c4daca", "is_reserved": 0}, {"is_disabled": 0, "fusion_lon": 0.0, "fusion_lat": 0.0, "lat": 38.91815533333333, "type": "electric_scooter", "lon": -77.03422016666667, "bike_id": "9f77e2ccb6177aa1da89a7eb68fc394a", "rental_uris": {"android": "https://dc.lft.to/lastmile_qr_scan", "ios": "https://dc.lft.to/lastmile_qr_scan"}, "name": "9f77e2ccb6177aa1da89a7eb68fc394a", "is_reserved": 0}, {"is_disabled": 0, "fusion_lon": 0.0, "fusion_lat": 0.0, "lat": 38.9096255, "type": "electric_scooter", "lon": -77.04454333333334, "bike_id": "70fa3011a78b05fc88c01f8f9b460ad7", "rental_uris": {"android": "https://dc.lft.to/lastmile_qr_scan", "ios": "https://dc.lft.to/lastmile_qr_scan"}, "name": "70fa3011a78b05fc88c01f8f9b460ad7", "is_reserved": 0}, {"is_disabled": 0, "fusion_lon": 0.0, "fusion_lat": 0.0, "lat": 38.952141, "type": "electric_scooter", "lon": -77.00342683333334, "bike_id": "a26c83537afb638414d0a2ba79707388", "rental_uris": {"android": "https://dc.lft.to/lastmile_qr_scan", "ios": "https://dc.lft.to/lastmile_qr_scan"}, "name": "a26c83537afb638414d0a2ba79707388", "is_reserved": 0}, {"is_disabled": 0, "fusion_lon": 0.0, "fusion_lat": 0.0, "lat": 38.968319, "type": "electric_scooter", "lon": -77.01516583333333, "bike_id": "518cf34b372a4ad80c35471c8de81d63", "rental_uris": {"android": "https://dc.lft.to/lastmile_qr_scan", "ios": "https://dc.lft.to/lastmile_qr_scan"}, "name": "518cf34b372a4ad80c35471c8de81d63", "is_reserved": 0}, {"is_disabled": 0, "fusion_lon": 0.0, "fusion_lat": 0.0, "lat": 38.915397166666665, "type": "electric_scooter", "lon": -77.03854316666667, "bike_id": "2a23c1168e56aad3c0a9cd21097c74ce", "rental_uris": {"android": "https://dc.lft.to/lastmile_qr_scan", "ios": "https://dc.lft.to/lastmile_qr_scan"}, "name": "2a23c1168e56aad3c0a9cd21097c74ce", "is_reserved": 0}, {"is_disabled": 0, "fusion_lon": 0.0, "fusion_lat": 0.0, "lat": 38.914608, "type": "electric_scooter", "lon": -76.984476, "bike_id": "e30a7c0894b91a2270305e57091e1c71", "rental_uris": {"android": "https://dc.lft.to/lastmile_qr_scan", "ios": "https://dc.lft.to/lastmile_qr_scan"}, "name": "e30a7c0894b91a2270305e57091e1c71", "is_reserved": 0}, {"is_disabled": 0, "fusion_lon": 0.0, "fusion_lat": 0.0, "lat": 38.91805266666667, "type": "electric_scooter", "lon": -77.03443933333334, "bike_id": "293bde8dcf076dd8dcbeb10e806205be", "rental_uris": {"android": "https://dc.lft.to/lastmile_qr_scan", "ios": "https://dc.lft.to/lastmile_qr_scan"}, "name": "293bde8dcf076dd8dcbeb10e806205be", "is_reserved": 0}, {"is_disabled": 0, "fusion_lon": 0.0, "fusion_lat": 0.0, "lat": 38.935324333333334, "type": "electric_scooter", "lon": -77.02068733333333, "bike_id": "a49c827b02437caef9fe09645d46511e", "rental_uris": {"android": "https://dc.lft.to/lastmile_qr_scan", "ios": "https://dc.lft.to/lastmile_qr_scan"}, "name": "a49c827b02437caef9fe09645d46511e", "is_reserved": 0}, {"is_disabled": 0, "fusion_lon": 0.0, "fusion_lat": 0.0, "lat": 38.971677166666666, "type": "electric_bike", "lon": -76.98024383333333, "bike_id": "9179b61886a4d6ded08eb83225899e4c", "rental_uris": {"android": "https://dc.lft.to/lastmile_qr_scan", "ios": "https://dc.lft.to/lastmile_qr_scan"}, "name": "9179b61886a4d6ded08eb83225899e4c", "is_reserved": 0}, {"is_disabled": 0, "fusion_lon": 0.0, "fusion_lat": 0.0, "lat": 38.8951535, "type": "electric_scooter", "lon": -77.01110566666667, "bike_id": "515f7499a342e6af845ce47d6a8604b5", "rental_uris": {"android": "https://dc.lft.to/lastmile_qr_scan", "ios": "https://dc.lft.to/lastmile_qr_scan"}, "name": "515f7499a342e6af845ce47d6a8604b5", "is_reserved": 0}, {"is_disabled": 0, "fusion_lon": 0.0, "fusion_lat": 0.0, "lat": 38.95418133333333, "type": "electric_scooter", "lon": -77.02173283333333, "bike_id": "2bbd1038f4cdd11a7d721a2ab17356eb", "rental_uris": {"android": "https://dc.lft.to/lastmile_qr_scan", "ios": "https://dc.lft.to/lastmile_qr_scan"}, "name": "2bbd1038f4cdd11a7d721a2ab17356eb", "is_reserved": 0}, {"is_disabled": 0, "fusion_lon": 0.0, "fusion_lat": 0.0, "lat": 38.94087616666667, "type": "electric_scooter", "lon": -77.0381735, "bike_id": "364fd1efaf78da9fd1832d35345daf0e", "rental_uris": {"android": "https://dc.lft.to/lastmile_qr_scan", "ios": "https://dc.lft.to/lastmile_qr_scan"}, "name": "364fd1efaf78da9fd1832d35345daf0e", "is_reserved": 0}, {"is_disabled": 0, "fusion_lon": 0.0, "fusion_lat": 0.0, "lat": 38.87431983333333, "type": "electric_scooter", "lon": -77.0091925, "bike_id": "2adf627f0fd1a092a55be3e6d66116fa", "rental_uris": {"android": "https://dc.lft.to/lastmile_qr_scan", "ios": "https://dc.lft.to/lastmile_qr_scan"}, "name": "2adf627f0fd1a092a55be3e6d66116fa", "is_reserved": 0}, {"is_disabled": 0, "fusion_lon": 0.0, "fusion_lat": 0.0, "lat": 38.880299, "type": "electric_scooter", "lon": -76.99500833333333, "bike_id": "0c9c592b0c707b00895ded734a8d6778", "rental_uris": {"android": "https://dc.lft.to/lastmile_qr_scan", "ios": "https://dc.lft.to/lastmile_qr_scan"}, "name": "0c9c592b0c707b00895ded734a8d6778", "is_reserved": 0}, {"is_disabled": 0, "fusion_lon": 0.0, "fusion_lat": 0.0, "lat": 38.91106683333334, "type": "electric_scooter", "lon": -77.0425745, "bike_id": "7f87fd784f67706ceab4bc0fe839a46e", "rental_uris": {"android": "https://dc.lft.to/lastmile_qr_scan", "ios": "https://dc.lft.to/lastmile_qr_scan"}, "name": "7f87fd784f67706ceab4bc0fe839a46e", "is_reserved": 0}, {"is_disabled": 0, "fusion_lon": 0.0, "fusion_lat": 0.0, "lat": 38.92324133333334, "type": "electric_scooter", "lon": -77.03954483333334, "bike_id": "6f2855e55609e138f7e4e0fa5e06c237", "rental_uris": {"android": "https://dc.lft.to/lastmile_qr_scan", "ios": "https://dc.lft.to/lastmile_qr_scan"}, "name": "6f2855e55609e138f7e4e0fa5e06c237", "is_reserved": 0}, {"is_disabled": 0, "fusion_lon": 0.0, "fusion_lat": 0.0, "lat": 38.916329833333336, "type": "electric_scooter", "lon": -77.02701416666666, "bike_id": "2063ee94e4c6ad03cac1c9fad111ebf5", "rental_uris": {"android": "https://dc.lft.to/lastmile_qr_scan", "ios": "https://dc.lft.to/lastmile_qr_scan"}, "name": "2063ee94e4c6ad03cac1c9fad111ebf5", "is_reserved": 0}, {"is_disabled": 0, "fusion_lon": 0.0, "fusion_lat": 0.0, "lat": 38.892994, "type": "electric_scooter", "lon": -76.98919983333333, "bike_id": "8a5f3edfa936ce4de69ff639203be60f", "rental_uris": {"android": "https://dc.lft.to/lastmile_qr_scan", "ios": "https://dc.lft.to/lastmile_qr_scan"}, "name": "8a5f3edfa936ce4de69ff639203be60f", "is_reserved": 0}, {"is_disabled": 0, "fusion_lon": 0.0, "fusion_lat": 0.0, "lat": 38.9680775, "type": "electric_scooter", "lon": -77.02122066666666, "bike_id": "c78c320745bf7944f6cbb810fe784e25", "rental_uris": {"android": "https://dc.lft.to/lastmile_qr_scan", "ios": "https://dc.lft.to/lastmile_qr_scan"}, "name": "c78c320745bf7944f6cbb810fe784e25", "is_reserved": 0}, {"is_disabled": 0, "fusion_lon": 0.0, "fusion_lat": 0.0, "lat": 38.94225816666667, "type": "electric_scooter", "lon": -77.0249365, "bike_id": "ee9ecbe8f665e648d6ce002d8f26a1ab", "rental_uris": {"android": "https://dc.lft.to/lastmile_qr_scan", "ios": "https://dc.lft.to/lastmile_qr_scan"}, "name": "ee9ecbe8f665e648d6ce002d8f26a1ab", "is_reserved": 0}, {"is_disabled": 0, "fusion_lon": 0.0, "fusion_lat": 0.0, "lat": 38.9058855, "type": "electric_scooter", "lon": -77.04385616666667, "bike_id": "8f92ed57ea3c19ca635ee3bf488a9031", "rental_uris": {"android": "https://dc.lft.to/lastmile_qr_scan", "ios": "https://dc.lft.to/lastmile_qr_scan"}, "name": "8f92ed57ea3c19ca635ee3bf488a9031", "is_reserved": 0}, {"is_disabled": 0, "fusion_lon": 0.0, "fusion_lat": 0.0, "lat": 38.93864883333333, "type": "electric_scooter", "lon": -77.02791116666667, "bike_id": "efc8b6dfa72b4e266ae57e7ab8e2f2f4", "rental_uris": {"android": "https://dc.lft.to/lastmile_qr_scan", "ios": "https://dc.lft.to/lastmile_qr_scan"}, "name": "efc8b6dfa72b4e266ae57e7ab8e2f2f4", "is_reserved": 0}, {"is_disabled": 0, "fusion_lon": 0.0, "fusion_lat": 0.0, "lat": 38.879219166666665, "type": "electric_scooter", "lon": -76.94484216666666, "bike_id": "871c471d8961d6d52946187e15c72ed7", "rental_uris": {"android": "https://dc.lft.to/lastmile_qr_scan", "ios": "https://dc.lft.to/lastmile_qr_scan"}, "name": "871c471d8961d6d52946187e15c72ed7", "is_reserved": 0}, {"is_disabled": 0, "fusion_lon": 0.0, "fusion_lat": 0.0, "lat": 38.87623116666666, "type": "electric_scooter", "lon": -76.9654045, "bike_id": "0181b436fc5f606449c8760be3a7e817", "rental_uris": {"android": "https://dc.lft.to/lastmile_qr_scan", "ios": "https://dc.lft.to/lastmile_qr_scan"}, "name": "0181b436fc5f606449c8760be3a7e817", "is_reserved": 0}, {"is_disabled": 0, "fusion_lon": 0.0, "fusion_lat": 0.0, "lat": 38.9029305, "type": "electric_scooter", "lon": -77.02432966666667, "bike_id": "e58be614ebf572c44495946f00e43f83", "rental_uris": {"android": "https://dc.lft.to/lastmile_qr_scan", "ios": "https://dc.lft.to/lastmile_qr_scan"}, "name": "e58be614ebf572c44495946f00e43f83", "is_reserved": 0}, {"is_disabled": 0, "fusion_lon": 0.0, "fusion_lat": 0.0, "lat": 38.84104933333333, "type": "electric_bike", "lon": -77.08944466666667, "bike_id": "f0d2d91e10179cc8a318d267f3fe5549", "rental_uris": {"android": "https://dc.lft.to/lastmile_qr_scan", "ios": "https://dc.lft.to/lastmile_qr_scan"}, "name": "f0d2d91e10179cc8a318d267f3fe5549", "is_reserved": 0}, {"is_disabled": 0, "fusion_lon": 0.0, "fusion_lat": 0.0, "lat": 38.85206083333333, "type": "electric_bike", "lon": -77.1013595, "bike_id": "bed335330e57ed19ea77e19e1983c25d", "rental_uris": {"android": "https://dc.lft.to/lastmile_qr_scan", "ios": "https://dc.lft.to/lastmile_qr_scan"}, "name": "bed335330e57ed19ea77e19e1983c25d", "is_reserved": 0}, {"is_disabled": 0, "fusion_lon": 0.0, "fusion_lat": 0.0, "lat": 38.914159166666664, "type": "electric_scooter", "lon": -77.04676016666667, "bike_id": "b6fc7b39ce99d8b131ccc643a408781a", "rental_uris": {"android": "https://dc.lft.to/lastmile_qr_scan", "ios": "https://dc.lft.to/lastmile_qr_scan"}, "name": "b6fc7b39ce99d8b131ccc643a408781a", "is_reserved": 0}, {"is_disabled": 0, "fusion_lon": 0.0, "fusion_lat": 0.0, "lat": 38.9072855, "type": "electric_scooter", "lon": -77.0453885, "bike_id": "6353903dc2071d8f871843325fc82473", "rental_uris": {"android": "https://dc.lft.to/lastmile_qr_scan", "ios": "https://dc.lft.to/lastmile_qr_scan"}, "name": "6353903dc2071d8f871843325fc82473", "is_reserved": 0}, {"is_disabled": 0, "fusion_lon": 0.0, "fusion_lat": 0.0, "lat": 38.91933216666666, "type": "electric_scooter", "lon": -77.03158783333333, "bike_id": "005a79f40f351bfb0d07ff1606b90fb8", "rental_uris": {"android": "https://dc.lft.to/lastmile_qr_scan", "ios": "https://dc.lft.to/lastmile_qr_scan"}, "name": "005a79f40f351bfb0d07ff1606b90fb8", "is_reserved": 0}, {"is_disabled": 0, "fusion_lon": 0.0, "fusion_lat": 0.0, "lat": 38.89565433333333, "type": "electric_scooter", "lon": -77.0418835, "bike_id": "b52eecf453ddf8816362f483cdd02dea", "rental_uris": {"android": "https://dc.lft.to/lastmile_qr_scan", "ios": "https://dc.lft.to/lastmile_qr_scan"}, "name": "b52eecf453ddf8816362f483cdd02dea", "is_reserved": 0}, {"is_disabled": 0, "fusion_lon": 0.0, "fusion_lat": 0.0, "lat": 38.9188825, "type": "electric_scooter", "lon": -77.04031833333333, "bike_id": "34e9a14ee86c150b3b47f9f682b8c248", "rental_uris": {"android": "https://dc.lft.to/lastmile_qr_scan", "ios": "https://dc.lft.to/lastmile_qr_scan"}, "name": "34e9a14ee86c150b3b47f9f682b8c248", "is_reserved": 0}, {"is_disabled": 0, "fusion_lon": 0.0, "fusion_lat": 0.0, "lat": 38.8657285, "type": "electric_scooter", "lon": -76.9895125, "bike_id": "3d736b573533ce49f6cb88ff7989d5ed", "rental_uris": {"android": "https://dc.lft.to/lastmile_qr_scan", "ios": "https://dc.lft.to/lastmile_qr_scan"}, "name": "3d736b573533ce49f6cb88ff7989d5ed", "is_reserved": 0}, {"is_disabled": 0, "fusion_lon": 0.0, "fusion_lat": 0.0, "lat": 38.898807833333336, "type": "electric_scooter", "lon": -76.93161183333333, "bike_id": "468143d4d4b5f4acd3054c48fdadee41", "rental_uris": {"android": "https://dc.lft.to/lastmile_qr_scan", "ios": "https://dc.lft.to/lastmile_qr_scan"}, "name": "468143d4d4b5f4acd3054c48fdadee41", "is_reserved": 0}, {"is_disabled": 0, "fusion_lon": 0.0, "fusion_lat": 0.0, "lat": 38.908919166666664, "type": "electric_scooter", "lon": -76.99884616666667, "bike_id": "80056fe2287e9a9245189fc84bfdb539", "rental_uris": {"android": "https://dc.lft.to/lastmile_qr_scan", "ios": "https://dc.lft.to/lastmile_qr_scan"}, "name": "80056fe2287e9a9245189fc84bfdb539", "is_reserved": 0}, {"is_disabled": 0, "fusion_lon": 0.0, "fusion_lat": 0.0, "lat": 38.89886516666667, "type": "electric_scooter", "lon": -76.98685733333333, "bike_id": "0bec0e6f47462a515a2bb81f5cdfcdf4", "rental_uris": {"android": "https://dc.lft.to/lastmile_qr_scan", "ios": "https://dc.lft.to/lastmile_qr_scan"}, "name": "0bec0e6f47462a515a2bb81f5cdfcdf4", "is_reserved": 0}, {"is_disabled": 0, "fusion_lon": 0.0, "fusion_lat": 0.0, "lat": 38.988256166666666, "type": "electric_bike", "lon": -76.987583, "bike_id": "80bafc75bc7b47ef05043114ab6f69fe", "rental_uris": {"android": "https://dc.lft.to/lastmile_qr_scan", "ios": "https://dc.lft.to/lastmile_qr_scan"}, "name": "80bafc75bc7b47ef05043114ab6f69fe", "is_reserved": 0}, {"is_disabled": 0, "fusion_lon": 0.0, "fusion_lat": 0.0, "lat": 38.922526, "type": "electric_scooter", "lon": -77.03526716666667, "bike_id": "666e3eb2ce4c3ad8d929d066fb5b9587", "rental_uris": {"android": "https://dc.lft.to/lastmile_qr_scan", "ios": "https://dc.lft.to/lastmile_qr_scan"}, "name": "666e3eb2ce4c3ad8d929d066fb5b9587", "is_reserved": 0}, {"is_disabled": 0, "fusion_lon": 0.0, "fusion_lat": 0.0, "lat": 38.92751166666667, "type": "electric_scooter", "lon": -77.03354583333333, "bike_id": "f60ea75f1f5dae31875213e98981bd91", "rental_uris": {"android": "https://dc.lft.to/lastmile_qr_scan", "ios": "https://dc.lft.to/lastmile_qr_scan"}, "name": "f60ea75f1f5dae31875213e98981bd91", "is_reserved": 0}, {"is_disabled": 0, "fusion_lon": 0.0, "fusion_lat": 0.0, "lat": 38.901575333333334, "type": "electric_scooter", "lon": -77.05329116666667, "bike_id": "51b3e76839a38786a2d392163062e4d7", "rental_uris": {"android": "https://dc.lft.to/lastmile_qr_scan", "ios": "https://dc.lft.to/lastmile_qr_scan"}, "name": "51b3e76839a38786a2d392163062e4d7", "is_reserved": 0}, {"is_disabled": 0, "fusion_lon": 0.0, "fusion_lat": 0.0, "lat": 38.882750333333334, "type": "electric_scooter", "lon": -76.98783933333333, "bike_id": "6e0111d7917de4dda2497bae103b5584", "rental_uris": {"android": "https://dc.lft.to/lastmile_qr_scan", "ios": "https://dc.lft.to/lastmile_qr_scan"}, "name": "6e0111d7917de4dda2497bae103b5584", "is_reserved": 0}, {"is_disabled": 0, "fusion_lon": 0.0, "fusion_lat": 0.0, "lat": 38.925775, "type": "electric_scooter", "lon": -76.99494583333333, "bike_id": "e20acbe57d94a5a6b11ede6206387000", "rental_uris": {"android": "https://dc.lft.to/lastmile_qr_scan", "ios": "https://dc.lft.to/lastmile_qr_scan"}, "name": "e20acbe57d94a5a6b11ede6206387000", "is_reserved": 0}, {"is_disabled": 0, "fusion_lon": 0.0, "fusion_lat": 0.0, "lat": 38.907371833333336, "type": "electric_scooter", "lon": -77.034452, "bike_id": "19b32361ad6eb1edfa32d482fcdcb673", "rental_uris": {"android": "https://dc.lft.to/lastmile_qr_scan", "ios": "https://dc.lft.to/lastmile_qr_scan"}, "name": "19b32361ad6eb1edfa32d482fcdcb673", "is_reserved": 0}, {"is_disabled": 0, "fusion_lon": 0.0, "fusion_lat": 0.0, "lat": 38.94195233333333, "type": "electric_scooter", "lon": -77.0257935, "bike_id": "6b042eb15c9c24593c516d72280e829c", "rental_uris": {"android": "https://dc.lft.to/lastmile_qr_scan", "ios": "https://dc.lft.to/lastmile_qr_scan"}, "name": "6b042eb15c9c24593c516d72280e829c", "is_reserved": 0}, {"is_disabled": 0, "fusion_lon": 0.0, "fusion_lat": 0.0, "lat": 38.919319, "type": "electric_scooter", "lon": -77.02594566666667, "bike_id": "7887c0b6f6f63b8df43e0d3925937cc8", "rental_uris": {"android": "https://dc.lft.to/lastmile_qr_scan", "ios": "https://dc.lft.to/lastmile_qr_scan"}, "name": "7887c0b6f6f63b8df43e0d3925937cc8", "is_reserved": 0}, {"is_disabled": 0, "fusion_lon": 0.0, "fusion_lat": 0.0, "lat": 38.95836233333333, "type": "electric_scooter", "lon": -77.07160466666667, "bike_id": "7ee3be494341721971f30ba20801ee0b", "rental_uris": {"android": "https://dc.lft.to/lastmile_qr_scan", "ios": "https://dc.lft.to/lastmile_qr_scan"}, "name": "7ee3be494341721971f30ba20801ee0b", "is_reserved": 0}, {"is_disabled": 0, "fusion_lon": 0.0, "fusion_lat": 0.0, "lat": 38.93468716666667, "type": "electric_scooter", "lon": -77.07267866666666, "bike_id": "5a490128753cd898a9ce539d55f58bb3", "rental_uris": {"android": "https://dc.lft.to/lastmile_qr_scan", "ios": "https://dc.lft.to/lastmile_qr_scan"}, "name": "5a490128753cd898a9ce539d55f58bb3", "is_reserved": 0}, {"is_disabled": 0, "fusion_lon": 0.0, "fusion_lat": 0.0, "lat": 38.9178085, "type": "electric_scooter", "lon": -77.043396, "bike_id": "21cbc24782ded67188ee3980e5c463d1", "rental_uris": {"android": "https://dc.lft.to/lastmile_qr_scan", "ios": "https://dc.lft.to/lastmile_qr_scan"}, "name": "21cbc24782ded67188ee3980e5c463d1", "is_reserved": 0}, {"is_disabled": 0, "fusion_lon": 0.0, "fusion_lat": 0.0, "lat": 38.9170375, "type": "electric_scooter", "lon": -77.05128533333334, "bike_id": "a75b8ee914bea5f4a9d2880fe0796ad0", "rental_uris": {"android": "https://dc.lft.to/lastmile_qr_scan", "ios": "https://dc.lft.to/lastmile_qr_scan"}, "name": "a75b8ee914bea5f4a9d2880fe0796ad0", "is_reserved": 0}, {"is_disabled": 0, "fusion_lon": 0.0, "fusion_lat": 0.0, "lat": 38.90654516666667, "type": "electric_scooter", "lon": -77.00590566666666, "bike_id": "f6d9fb5670c98fc5ce5ab1237aa31413", "rental_uris": {"android": "https://dc.lft.to/lastmile_qr_scan", "ios": "https://dc.lft.to/lastmile_qr_scan"}, "name": "f6d9fb5670c98fc5ce5ab1237aa31413", "is_reserved": 0}, {"is_disabled": 0, "fusion_lon": 0.0, "fusion_lat": 0.0, "lat": 39.03886133333334, "type": "electric_bike", "lon": -77.109108, "bike_id": "5354641f5649dbc50a10377a84ad15d3", "rental_uris": {"android": "https://dc.lft.to/lastmile_qr_scan", "ios": "https://dc.lft.to/lastmile_qr_scan"}, "name": "5354641f5649dbc50a10377a84ad15d3", "is_reserved": 0}, {"is_disabled": 0, "fusion_lon": 0.0, "fusion_lat": 0.0, "lat": 38.919827, "type": "electric_scooter", "lon": -77.03279266666667, "bike_id": "b1b08cebfc7f6427e15c81ef6657617b", "rental_uris": {"android": "https://dc.lft.to/lastmile_qr_scan", "ios": "https://dc.lft.to/lastmile_qr_scan"}, "name": "b1b08cebfc7f6427e15c81ef6657617b", "is_reserved": 0}, {"is_disabled": 0, "fusion_lon": 0.0, "fusion_lat": 0.0, "lat": 38.885731666666665, "type": "electric_scooter", "lon": -76.91910883333334, "bike_id": "8edf72c37ac76d67f52357a258bc7575", "rental_uris": {"android": "https://dc.lft.to/lastmile_qr_scan", "ios": "https://dc.lft.to/lastmile_qr_scan"}, "name": "8edf72c37ac76d67f52357a258bc7575", "is_reserved": 0}, {"is_disabled": 0, "fusion_lon": 0.0, "fusion_lat": 0.0, "lat": 38.992629666666666, "type": "electric_scooter", "lon": -77.03609916666667, "bike_id": "c773f3b0b316dd0842f937184300c1bd", "rental_uris": {"android": "https://dc.lft.to/lastmile_qr_scan", "ios": "https://dc.lft.to/lastmile_qr_scan"}, "name": "c773f3b0b316dd0842f937184300c1bd", "is_reserved": 0}, {"is_disabled": 0, "fusion_lon": 0.0, "fusion_lat": 0.0, "lat": 38.936643833333335, "type": "electric_bike", "lon": -76.95206616666667, "bike_id": "4c80b5e0c41f212b9ac5252e50ba59a4", "rental_uris": {"android": "https://dc.lft.to/lastmile_qr_scan", "ios": "https://dc.lft.to/lastmile_qr_scan"}, "name": "4c80b5e0c41f212b9ac5252e50ba59a4", "is_reserved": 0}, {"is_disabled": 0, "fusion_lon": 0.0, "fusion_lat": 0.0, "lat": 38.91648716666667, "type": "electric_scooter", "lon": -77.0416125, "bike_id": "c05ef5041255bae2fce4cc7610add13c", "rental_uris": {"android": "https://dc.lft.to/lastmile_qr_scan", "ios": "https://dc.lft.to/lastmile_qr_scan"}, "name": "c05ef5041255bae2fce4cc7610add13c", "is_reserved": 0}, {"is_disabled": 0, "fusion_lon": 0.0, "fusion_lat": 0.0, "lat": 38.91831583333333, "type": "electric_scooter", "lon": -77.03939033333333, "bike_id": "9f2a00f1345a042a9bfe6fbc6994e502", "rental_uris": {"android": "https://dc.lft.to/lastmile_qr_scan", "ios": "https://dc.lft.to/lastmile_qr_scan"}, "name": "9f2a00f1345a042a9bfe6fbc6994e502", "is_reserved": 0}, {"is_disabled": 0, "fusion_lon": 0.0, "fusion_lat": 0.0, "lat": 38.895292833333336, "type": "electric_scooter", "lon": -77.02817666666667, "bike_id": "ad2dad76bf7c977c344ec54ac945b104", "rental_uris": {"android": "https://dc.lft.to/lastmile_qr_scan", "ios": "https://dc.lft.to/lastmile_qr_scan"}, "name": "ad2dad76bf7c977c344ec54ac945b104", "is_reserved": 0}, {"is_disabled": 0, "fusion_lon": 0.0, "fusion_lat": 0.0, "lat": 38.9097005, "type": "electric_scooter", "lon": -77.03871133333334, "bike_id": "b6ed3c5b565634b8455b07ac9891b301", "rental_uris": {"android": "https://dc.lft.to/lastmile_qr_scan", "ios": "https://dc.lft.to/lastmile_qr_scan"}, "name": "b6ed3c5b565634b8455b07ac9891b301", "is_reserved": 0}, {"is_disabled": 0, "fusion_lon": 0.0, "fusion_lat": 0.0, "lat": 38.869456166666666, "type": "electric_scooter", "lon": -76.9759715, "bike_id": "3b557d0d01f4a6120f9d46e16cad383b", "rental_uris": {"android": "https://dc.lft.to/lastmile_qr_scan", "ios": "https://dc.lft.to/lastmile_qr_scan"}, "name": "3b557d0d01f4a6120f9d46e16cad383b", "is_reserved": 0}, {"is_disabled": 0, "fusion_lon": 0.0, "fusion_lat": 0.0, "lat": 38.921514333333334, "type": "electric_scooter", "lon": -77.0350545, "bike_id": "377b76fb7ee8d86ee21afb3ca7c4520c", "rental_uris": {"android": "https://dc.lft.to/lastmile_qr_scan", "ios": "https://dc.lft.to/lastmile_qr_scan"}, "name": "377b76fb7ee8d86ee21afb3ca7c4520c", "is_reserved": 0}, {"is_disabled": 0, "fusion_lon": 0.0, "fusion_lat": 0.0, "lat": 38.90544, "type": "electric_scooter", "lon": -77.04678233333334, "bike_id": "9626de8cc4d5f8ca0e9033a8a8091263", "rental_uris": {"android": "https://dc.lft.to/lastmile_qr_scan", "ios": "https://dc.lft.to/lastmile_qr_scan"}, "name": "9626de8cc4d5f8ca0e9033a8a8091263", "is_reserved": 0}, {"is_disabled": 0, "fusion_lon": 0.0, "fusion_lat": 0.0, "lat": 38.99667733333333, "type": "electric_bike", "lon": -76.99147066666667, "bike_id": "0446a35a4888a37ee98ae17708c4d0b0", "rental_uris": {"android": "https://dc.lft.to/lastmile_qr_scan", "ios": "https://dc.lft.to/lastmile_qr_scan"}, "name": "0446a35a4888a37ee98ae17708c4d0b0", "is_reserved": 0}, {"is_disabled": 0, "fusion_lon": 0.0, "fusion_lat": 0.0, "lat": 38.87738916666667, "type": "electric_scooter", "lon": -76.99626433333333, "bike_id": "4ce84f03d70997758bd36d0a99c67767", "rental_uris": {"android": "https://dc.lft.to/lastmile_qr_scan", "ios": "https://dc.lft.to/lastmile_qr_scan"}, "name": "4ce84f03d70997758bd36d0a99c67767", "is_reserved": 0}, {"is_disabled": 0, "fusion_lon": 0.0, "fusion_lat": 0.0, "lat": 38.944340333333336, "type": "electric_scooter", "lon": -77.06042966666666, "bike_id": "68bea698987c6bcaeb1b8db3cc07b132", "rental_uris": {"android": "https://dc.lft.to/lastmile_qr_scan", "ios": "https://dc.lft.to/lastmile_qr_scan"}, "name": "68bea698987c6bcaeb1b8db3cc07b132", "is_reserved": 0}, {"is_disabled": 0, "fusion_lon": 0.0, "fusion_lat": 0.0, "lat": 38.8764415, "type": "electric_scooter", "lon": -77.0077385, "bike_id": "2be6d62bdf1c413f27a5eaef27ab1e6a", "rental_uris": {"android": "https://dc.lft.to/lastmile_qr_scan", "ios": "https://dc.lft.to/lastmile_qr_scan"}, "name": "2be6d62bdf1c413f27a5eaef27ab1e6a", "is_reserved": 0}, {"is_disabled": 0, "fusion_lon": 0.0, "fusion_lat": 0.0, "lat": 38.926161666666665, "type": "electric_scooter", "lon": -77.04189733333334, "bike_id": "f0a5d27c9e20edf44345f583b1b6b288", "rental_uris": {"android": "https://dc.lft.to/lastmile_qr_scan", "ios": "https://dc.lft.to/lastmile_qr_scan"}, "name": "f0a5d27c9e20edf44345f583b1b6b288", "is_reserved": 0}, {"is_disabled": 0, "fusion_lon": 0.0, "fusion_lat": 0.0, "lat": 38.917156, "type": "electric_scooter", "lon": -77.09813366666667, "bike_id": "3013b200e4b4545f6271c486c7b4d89d", "rental_uris": {"android": "https://dc.lft.to/lastmile_qr_scan", "ios": "https://dc.lft.to/lastmile_qr_scan"}, "name": "3013b200e4b4545f6271c486c7b4d89d", "is_reserved": 0}, {"is_disabled": 0, "fusion_lon": 0.0, "fusion_lat": 0.0, "lat": 38.92016916666667, "type": "electric_scooter", "lon": -77.03156616666666, "bike_id": "41638d7d2d5a733903a1ec08cc9c955a", "rental_uris": {"android": "https://dc.lft.to/lastmile_qr_scan", "ios": "https://dc.lft.to/lastmile_qr_scan"}, "name": "41638d7d2d5a733903a1ec08cc9c955a", "is_reserved": 0}, {"is_disabled": 0, "fusion_lon": 0.0, "fusion_lat": 0.0, "lat": 38.9235525, "type": "electric_scooter", "lon": -77.05066516666666, "bike_id": "607edd4a0c1b968976680b5bb76a13dc", "rental_uris": {"android": "https://dc.lft.to/lastmile_qr_scan", "ios": "https://dc.lft.to/lastmile_qr_scan"}, "name": "607edd4a0c1b968976680b5bb76a13dc", "is_reserved": 0}, {"is_disabled": 0, "fusion_lon": 0.0, "fusion_lat": 0.0, "lat": 38.90735566666667, "type": "electric_scooter", "lon": -77.03446216666667, "bike_id": "b354a68d05a8f6d3fd06532fcc89110c", "rental_uris": {"android": "https://dc.lft.to/lastmile_qr_scan", "ios": "https://dc.lft.to/lastmile_qr_scan"}, "name": "b354a68d05a8f6d3fd06532fcc89110c", "is_reserved": 0}, {"is_disabled": 0, "fusion_lon": 0.0, "fusion_lat": 0.0, "lat": 38.902638333333336, "type": "electric_scooter", "lon": -77.002008, "bike_id": "9bd1f764efbf61928bbc693c893313d6", "rental_uris": {"android": "https://dc.lft.to/lastmile_qr_scan", "ios": "https://dc.lft.to/lastmile_qr_scan"}, "name": "9bd1f764efbf61928bbc693c893313d6", "is_reserved": 0}, {"is_disabled": 0, "fusion_lon": 0.0, "fusion_lat": 0.0, "lat": 38.94976833333333, "type": "electric_scooter", "lon": -77.0376515, "bike_id": "4a618a58a0df637ff1d91c7adfc0971d", "rental_uris": {"android": "https://dc.lft.to/lastmile_qr_scan", "ios": "https://dc.lft.to/lastmile_qr_scan"}, "name": "4a618a58a0df637ff1d91c7adfc0971d", "is_reserved": 0}, {"is_disabled": 0, "fusion_lon": 0.0, "fusion_lat": 0.0, "lat": 38.90403583333333, "type": "electric_scooter", "lon": -77.0406055, "bike_id": "f017b19a766964864be99036eaf501d8", "rental_uris": {"android": "https://dc.lft.to/lastmile_qr_scan", "ios": "https://dc.lft.to/lastmile_qr_scan"}, "name": "f017b19a766964864be99036eaf501d8", "is_reserved": 0}, {"is_disabled": 0, "fusion_lon": 0.0, "fusion_lat": 0.0, "lat": 39.026883, "type": "electric_bike", "lon": -77.1259765, "bike_id": "8fd782b32cceddeedd2bf30333ce65ef", "rental_uris": {"android": "https://dc.lft.to/lastmile_qr_scan", "ios": "https://dc.lft.to/lastmile_qr_scan"}, "name": "8fd782b32cceddeedd2bf30333ce65ef", "is_reserved": 0}, {"is_disabled": 0, "fusion_lon": 0.0, "fusion_lat": 0.0, "lat": 38.902005833333334, "type": "electric_scooter", "lon": -77.0513595, "bike_id": "ad7e806671605c5caf88dabbf7a655d0", "rental_uris": {"android": "https://dc.lft.to/lastmile_qr_scan", "ios": "https://dc.lft.to/lastmile_qr_scan"}, "name": "ad7e806671605c5caf88dabbf7a655d0", "is_reserved": 0}, {"is_disabled": 0, "fusion_lon": 0.0, "fusion_lat": 0.0, "lat": 38.9325045, "type": "electric_scooter", "lon": -77.03279583333334, "bike_id": "36c58365a8173f235407e59a23a7eb8e", "rental_uris": {"android": "https://dc.lft.to/lastmile_qr_scan", "ios": "https://dc.lft.to/lastmile_qr_scan"}, "name": "36c58365a8173f235407e59a23a7eb8e", "is_reserved": 0}, {"is_disabled": 0, "fusion_lon": 0.0, "fusion_lat": 0.0, "lat": 38.8442845, "type": "electric_scooter", "lon": -76.997814, "bike_id": "29a0251094d25f2e60538fc47e4b45a2", "rental_uris": {"android": "https://dc.lft.to/lastmile_qr_scan", "ios": "https://dc.lft.to/lastmile_qr_scan"}, "name": "29a0251094d25f2e60538fc47e4b45a2", "is_reserved": 0}, {"is_disabled": 0, "fusion_lon": 0.0, "fusion_lat": 0.0, "lat": 38.876605833333336, "type": "electric_scooter", "lon": -77.00363983333334, "bike_id": "64a19b556400ad024a62824e5d5557db", "rental_uris": {"android": "https://dc.lft.to/lastmile_qr_scan", "ios": "https://dc.lft.to/lastmile_qr_scan"}, "name": "64a19b556400ad024a62824e5d5557db", "is_reserved": 0}, {"is_disabled": 0, "fusion_lon": 0.0, "fusion_lat": 0.0, "lat": 38.9153265, "type": "electric_scooter", "lon": -77.038455, "bike_id": "3efea89be53ae6e6ca3281cd1b0cfa68", "rental_uris": {"android": "https://dc.lft.to/lastmile_qr_scan", "ios": "https://dc.lft.to/lastmile_qr_scan"}, "name": "3efea89be53ae6e6ca3281cd1b0cfa68", "is_reserved": 0}, {"is_disabled": 0, "fusion_lon": 0.0, "fusion_lat": 0.0, "lat": 38.90933616666667, "type": "electric_scooter", "lon": -76.99889383333333, "bike_id": "7715fd8542b79710c83a4cf3325237fc", "rental_uris": {"android": "https://dc.lft.to/lastmile_qr_scan", "ios": "https://dc.lft.to/lastmile_qr_scan"}, "name": "7715fd8542b79710c83a4cf3325237fc", "is_reserved": 0}, {"is_disabled": 0, "fusion_lon": 0.0, "fusion_lat": 0.0, "lat": 38.94200083333333, "type": "electric_scooter", "lon": -77.02580733333333, "bike_id": "cf7a51fe17a90d25f6823c6ad976b248", "rental_uris": {"android": "https://dc.lft.to/lastmile_qr_scan", "ios": "https://dc.lft.to/lastmile_qr_scan"}, "name": "cf7a51fe17a90d25f6823c6ad976b248", "is_reserved": 0}, {"is_disabled": 0, "fusion_lon": 0.0, "fusion_lat": 0.0, "lat": 38.903667666666664, "type": "electric_scooter", "lon": -77.03156583333333, "bike_id": "617f923cf7185590d4c2771fe300be31", "rental_uris": {"android": "https://dc.lft.to/lastmile_qr_scan", "ios": "https://dc.lft.to/lastmile_qr_scan"}, "name": "617f923cf7185590d4c2771fe300be31", "is_reserved": 0}, {"is_disabled": 0, "fusion_lon": 0.0, "fusion_lat": 0.0, "lat": 38.9725945, "type": "electric_bike", "lon": -76.99169833333333, "bike_id": "5499995583171cfba66dc13a8245a50a", "rental_uris": {"android": "https://dc.lft.to/lastmile_qr_scan", "ios": "https://dc.lft.to/lastmile_qr_scan"}, "name": "5499995583171cfba66dc13a8245a50a", "is_reserved": 0}, {"is_disabled": 0, "fusion_lon": 0.0, "fusion_lat": 0.0, "lat": 38.8204615, "type": "electric_bike", "lon": -77.05313533333333, "bike_id": "68ad79e1b223070ee1d1413e0681529b", "rental_uris": {"android": "https://dc.lft.to/lastmile_qr_scan", "ios": "https://dc.lft.to/lastmile_qr_scan"}, "name": "68ad79e1b223070ee1d1413e0681529b", "is_reserved": 0}, {"is_disabled": 0, "fusion_lon": 0.0, "fusion_lat": 0.0, "lat": 38.9203105, "type": "electric_scooter", "lon": -77.01286766666666, "bike_id": "9d1f70d1c0e0b13f7dc4f0873fc4046f", "rental_uris": {"android": "https://dc.lft.to/lastmile_qr_scan", "ios": "https://dc.lft.to/lastmile_qr_scan"}, "name": "9d1f70d1c0e0b13f7dc4f0873fc4046f", "is_reserved": 0}, {"is_disabled": 0, "fusion_lon": 0.0, "fusion_lat": 0.0, "lat": 38.844415166666664, "type": "electric_bike", "lon": -77.08585366666667, "bike_id": "ca526facd268b9a23914f44d12d1b527", "rental_uris": {"android": "https://dc.lft.to/lastmile_qr_scan", "ios": "https://dc.lft.to/lastmile_qr_scan"}, "name": "ca526facd268b9a23914f44d12d1b527", "is_reserved": 0}, {"is_disabled": 0, "fusion_lon": 0.0, "fusion_lat": 0.0, "lat": 38.895406, "type": "electric_scooter", "lon": -77.0110715, "bike_id": "8cc66a1b15b1f589dec164ab686f34e8", "rental_uris": {"android": "https://dc.lft.to/lastmile_qr_scan", "ios": "https://dc.lft.to/lastmile_qr_scan"}, "name": "8cc66a1b15b1f589dec164ab686f34e8", "is_reserved": 0}, {"is_disabled": 0, "fusion_lon": 0.0, "fusion_lat": 0.0, "lat": 38.839321166666664, "type": "electric_bike", "lon": -77.07905183333334, "bike_id": "f18a3030dcc0120c74d0a0a20014adb5", "rental_uris": {"android": "https://dc.lft.to/lastmile_qr_scan", "ios": "https://dc.lft.to/lastmile_qr_scan"}, "name": "f18a3030dcc0120c74d0a0a20014adb5", "is_reserved": 0}, {"is_disabled": 0, "fusion_lon": 0.0, "fusion_lat": 0.0, "lat": 38.896261833333334, "type": "electric_scooter", "lon": -77.00911466666666, "bike_id": "22b9ea63eb98a9be4d928bb8ccd3ad52", "rental_uris": {"android": "https://dc.lft.to/lastmile_qr_scan", "ios": "https://dc.lft.to/lastmile_qr_scan"}, "name": "22b9ea63eb98a9be4d928bb8ccd3ad52", "is_reserved": 0}, {"is_disabled": 0, "fusion_lon": 0.0, "fusion_lat": 0.0, "lat": 38.8964575, "type": "electric_scooter", "lon": -77.00935783333334, "bike_id": "8c59385adde49e58ebb058aad9261a1a", "rental_uris": {"android": "https://dc.lft.to/lastmile_qr_scan", "ios": "https://dc.lft.to/lastmile_qr_scan"}, "name": "8c59385adde49e58ebb058aad9261a1a", "is_reserved": 0}, {"is_disabled": 0, "fusion_lon": 0.0, "fusion_lat": 0.0, "lat": 38.892243, "type": "electric_scooter", "lon": -77.0221955, "bike_id": "e4e94e69f5a5f48461a54386d09db010", "rental_uris": {"android": "https://dc.lft.to/lastmile_qr_scan", "ios": "https://dc.lft.to/lastmile_qr_scan"}, "name": "e4e94e69f5a5f48461a54386d09db010", "is_reserved": 0}, {"is_disabled": 0, "fusion_lon": 0.0, "fusion_lat": 0.0, "lat": 38.900188666666665, "type": "electric_scooter", "lon": -77.004751, "bike_id": "cc5d863afce12d267cbe58705a90a2ad", "rental_uris": {"android": "https://dc.lft.to/lastmile_qr_scan", "ios": "https://dc.lft.to/lastmile_qr_scan"}, "name": "cc5d863afce12d267cbe58705a90a2ad", "is_reserved": 0}, {"is_disabled": 0, "fusion_lon": 0.0, "fusion_lat": 0.0, "lat": 39.02999366666667, "type": "electric_bike", "lon": -77.1065475, "bike_id": "70962cba683fa4283dbd96ff7541b1b9", "rental_uris": {"android": "https://dc.lft.to/lastmile_qr_scan", "ios": "https://dc.lft.to/lastmile_qr_scan"}, "name": "70962cba683fa4283dbd96ff7541b1b9", "is_reserved": 0}, {"is_disabled": 0, "fusion_lon": 0.0, "fusion_lat": 0.0, "lat": 38.850904, "type": "electric_bike", "lon": -76.95700016666666, "bike_id": "cfaeb0ab43209b2389c44590cbfefe04", "rental_uris": {"android": "https://dc.lft.to/lastmile_qr_scan", "ios": "https://dc.lft.to/lastmile_qr_scan"}, "name": "cfaeb0ab43209b2389c44590cbfefe04", "is_reserved": 0}, {"is_disabled": 0, "fusion_lon": 0.0, "fusion_lat": 0.0, "lat": 38.90959933333333, "type": "electric_scooter", "lon": -77.02278683333333, "bike_id": "33037f5171fc72784a522460e036a1fe", "rental_uris": {"android": "https://dc.lft.to/lastmile_qr_scan", "ios": "https://dc.lft.to/lastmile_qr_scan"}, "name": "33037f5171fc72784a522460e036a1fe", "is_reserved": 0}, {"is_disabled": 0, "fusion_lon": 0.0, "fusion_lat": 0.0, "lat": 38.964473, "type": "electric_bike", "lon": -76.97722133333333, "bike_id": "8270ab84b1e01bdbb86d0e89ce7f87f7", "rental_uris": {"android": "https://dc.lft.to/lastmile_qr_scan", "ios": "https://dc.lft.to/lastmile_qr_scan"}, "name": "8270ab84b1e01bdbb86d0e89ce7f87f7", "is_reserved": 0}, {"is_disabled": 0, "fusion_lon": 0.0, "fusion_lat": 0.0, "lat": 38.952053, "type": "electric_scooter", "lon": -77.02735133333333, "bike_id": "2510fa4ded007a6682591bef336c10f0", "rental_uris": {"android": "https://dc.lft.to/lastmile_qr_scan", "ios": "https://dc.lft.to/lastmile_qr_scan"}, "name": "2510fa4ded007a6682591bef336c10f0", "is_reserved": 0}, {"is_disabled": 0, "fusion_lon": 0.0, "fusion_lat": 0.0, "lat": 38.92150266666667, "type": "electric_scooter", "lon": -77.02977566666667, "bike_id": "3774b8e2b3b7edf11c1cf1daa0483ac1", "rental_uris": {"android": "https://dc.lft.to/lastmile_qr_scan", "ios": "https://dc.lft.to/lastmile_qr_scan"}, "name": "3774b8e2b3b7edf11c1cf1daa0483ac1", "is_reserved": 0},