{"data": {"bikes": [{"fusion_lon": 0.0, "bike_id": "0f469ba5da2a75352b4915540153a545", "is_disabled": 0, "is_reserved": 0, "lat": 38.916488333333334, "name": "0f469ba5da2a75352b4915540153a545", "rental_uris": {"ios": "https://dc.lft.to/lastmile_qr_scan", "android": "https://dc.lft.to/lastmile_qr_scan"}, "type": "electric_scooter", "fusion_lat": 0.0, "lon": -77.021815}, {"fusion_lon": 0.0, "bike_id": "e296af9f94aeea5cbe06dd061a256f0d", "is_disabled": 0, "is_reserved": 0, "lat": 38.908395, "name": "e296af9f94aeea5cbe06dd061a256f0d", "rental_uris": {"ios": "https://dc.lft.to/lastmile_qr_scan", "android": "https://dc.lft.to/lastmile_qr_scan"}, "type": "electric_scooter", "fusion_lat": 0.0, "lon": -77.00068116666667}, {"fusion_lon": 0.0, "bike_id": "8d91d1f3d0a8ac20cbd2e422a64ab62d", "is_disabled": 0, "is_reserved": 0, "lat": 38.90263366666667, "name": "8d91d1f3d0a8ac20cbd2e422a64ab62d", "rental_uris": {"ios": "https://dc.lft.to/lastmile_qr_scan", "android": "https://dc.lft.to/lastmile_qr_scan"}, "type": "electric_scooter", "fusion_lat": 0.0, "lon": -76.99848616666667}, {"fusion_lon": 0.0, "bike_id": "a3ac4a7e66b138eacfc7b42e06e8b1e0", "is_disabled": 0, "is_reserved": 0, "lat": 38.877311666666664, "name": "a3ac4a7e66b138eacfc7b42e06e8b1e0", "rental_uris": {"ios": "https://dc.lft.to/lastmile_qr_scan", "android": "https://dc.lft.to/lastmile_qr_scan"}, "type": "electric_bike", "fusion_lat": 0.0, "lon": -77.11847066666667}, {"fusion_lon": 0.0, "bike_id": "486af54a44bbbcf20d0ad48b2f53db36", "is_disabled": 0, "is_reserved": 0, "lat": 38.91001883333333, "name": "486af54a44bbbcf20d0ad48b2f53db36", "rental_uris": {"ios": "https://dc.lft.to/lastmile_qr_scan", "android": "https://dc.lft.to/lastmile_qr_scan"}, "type": "electric_bike", "fusion_lat": 0.0, "lon": -76.98424266666666}, {"fusion_lon": 0.0, "bike_id": "21e7b3021421672a1b3ae1b8c2c47592", "is_disabled": 0, "is_reserved": 0, "lat": 38.9171345, "name": "21e7b3021421672a1b3ae1b8c2c47592", "rental_uris": {"ios": "https://dc.lft.to/lastmile_qr_scan", "android": "https://dc.lft.to/lastmile_qr_scan"}, "type": "electric_scooter", "fusion_lat": 0.0, "lon": -77.03868516666667}, {"fusion_lon": 0.0, "bike_id": "5f455e4aea17dc7732db8c9f6ef64fa8", "is_disabled": 0, "is_reserved": 0, "lat": 38.91386583333333, "name": "5f455e4aea17dc7732db8c9f6ef64fa8", "rental_uris": {"ios": "https://dc.lft.to/lastmile_qr_scan", "android": "https://dc.lft.to/lastmile_qr_scan"}, "type": "electric_scooter", "fusion_lat": 0.0, "lon": -77.01703566666667}, {"fusion_lon": 0.0, "bike_id": "4ad0983c72ebe04395760c0d85c72189", "is_disabled": 0, "is_reserved": 0, "lat": 38.920370166666665, "name": "4ad0983c72ebe04395760c0d85c72189", "rental_uris": {"ios": "https://dc.lft.to/lastmile_qr_scan", "android": "https://dc.lft.to/lastmile_qr_scan"}, "type": "electric_scooter", "fusion_lat": 0.0, "lon": -77.02382066666667}, {"fusion_lon": 0.0, "bike_id": "4002dbdff6f291e0ee1c813d5a27e5a3", "is_disabled": 0, "is_reserved": 0, "lat": 38.897606833333334, "name": "4002dbdff6f291e0ee1c813d5a27e5a3", "rental_uris": {"ios": "https://dc.lft.to/lastmile_qr_scan", "android": "https://dc.lft.to/lastmile_qr_scan"}, "type": "electric_scooter", "fusion_lat": 0.0, "lon": -77.0437875}, {"fusion_lon": 0.0, "bike_id": "904f75649b2adb29a8c3da6f327b36c8", "is_disabled": 0, "is_reserved": 0, "lat": 38.985100833333334, "name": "904f75649b2adb29a8c3da6f327b36c8", "rental_uris": {"ios": "https://dc.lft.to/lastmile_qr_scan", "android": "https://dc.lft.to/lastmile_qr_scan"}, "type": "electric_bike", "fusion_lat": 0.0, "lon": -76.98204433333333}, {"fusion_lon": 0.0, "bike_id": "b7f9d5fee67f8b191c786189079a2f0e", "is_disabled": 0, "is_reserved": 0, "lat": 38.911485666666664, "name": "b7f9d5fee67f8b191c786189079a2f0e", "rental_uris": {"ios": "https://dc.lft.to/lastmile_qr_scan", "android": "https://dc.lft.to/lastmile_qr_scan"}, "type": "electric_scooter", "fusion_lat": 0.0, "lon": -77.01071666666667}, {"fusion_lon": 0.0, "bike_id": "758ef78b3bf765cd5650e3f6752ef89f", "is_disabled": 0, "is_reserved": 0, "lat": 38.874535, "name": "758ef78b3bf765cd5650e3f6752ef89f", "rental_uris": {"ios": "https://dc.lft.to/lastmile_qr_scan", "android": "https://dc.lft.to/lastmile_qr_scan"}, "type": "electric_scooter", "fusion_lat": 0.0, "lon": -77.0004765}, {"fusion_lon": 0.0, "bike_id": "f61e16dc29471a5cc51ed7fe20949fb9", "is_disabled": 0, "is_reserved": 0, "lat": 38.899286333333336, "name": "f61e16dc29471a5cc51ed7fe20949fb9", "rental_uris": {"ios": "https://dc.lft.to/lastmile_qr_scan", "android": "https://dc.lft.to/lastmile_qr_scan"}, "type": "electric_bike", "fusion_lat": 0.0, "lon": -77.0015905}, {"fusion_lon": 0.0, "bike_id": "c89796f7c209750c7d5c89113cf6dffc", "is_disabled": 0, "is_reserved": 0, "lat": 38.92254033333333, "name": "c89796f7c209750c7d5c89113cf6dffc", "rental_uris": {"ios": "https://dc.lft.to/lastmile_qr_scan", "android": "https://dc.lft.to/lastmile_qr_scan"}, "type": "electric_scooter", "fusion_lat": 0.0, "lon": -77.01950833333333}, {"fusion_lon": 0.0, "bike_id": "f08e0411867e6394d1104b2e188781fd", "is_disabled": 0, "is_reserved": 0, "lat": 38.90953583333334, "name": "f08e0411867e6394d1104b2e188781fd", "rental_uris": {"ios": "https://dc.lft.to/lastmile_qr_scan", "android": "https://dc.lft.to/lastmile_qr_scan"}, "type": "electric_scooter", "fusion_lat": 0.0, "lon": -76.9853925}, {"fusion_lon": 0.0, "bike_id": "250d7ddc726812d16395dfcb3f757f41", "is_disabled": 0, "is_reserved": 0, "lat": 38.90025033333333, "name": "250d7ddc726812d16395dfcb3f757f41", "rental_uris": {"ios": "https://dc.lft.to/lastmile_qr_scan", "android": "https://dc.lft.to/lastmile_qr_scan"}, "type": "electric_scooter", "fusion_lat": 0.0, "lon": -77.01188666666667}, {"fusion_lon": 0.0, "bike_id": "59e1e1215b90afbb9a06846327a1a32f", "is_disabled": 0, "is_reserved": 0, "lat": 38.92135916666667, "name": "59e1e1215b90afbb9a06846327a1a32f", "rental_uris": {"ios": "https://dc.lft.to/lastmile_qr_scan", "android": "https://dc.lft.to/lastmile_qr_scan"}, "type": "electric_scooter", "fusion_lat": 0.0, "lon": -77.04434766666667}, {"fusion_lon": 0.0, "bike_id": "1bdbdee47f3d53c490f324a8df976ffc", "is_disabled": 0, "is_reserved": 0, "lat": 38.923599333333335, "name": "1bdbdee47f3d53c490f324a8df976ffc", "rental_uris": {"ios": "https://dc.lft.to/lastmile_qr_scan", "android": "https://dc.lft.to/lastmile_qr_scan"}, "type": "electric_scooter", "fusion_lat": 0.0, "lon": -77.0353765}, {"fusion_lon": 0.0, "bike_id": "8cba4cb72f1688381c17944077016eda", "is_disabled": 0, "is_reserved": 0, "lat": 38.957388333333334, "name": "8cba4cb72f1688381c17944077016eda", "rental_uris": {"ios": "https://dc.lft.to/lastmile_qr_scan", "android": "https://dc.lft.to/lastmile_qr_scan"}, "type": "electric_scooter", "fusion_lat": 0.0, "lon": -77.00224183333333}, {"fusion_lon": 0.0, "bike_id": "06327b0c3751b8a03d1b186af59be2fc", "is_disabled": 0, "is_reserved": 0, "lat": 38.8835505, "name": "06327b0c3751b8a03d1b186af59be2fc", "rental_uris": {"ios": "https://dc.lft.to/lastmile_qr_scan", "android": "https://dc.lft.to/lastmile_qr_scan"}, "type": "electric_scooter", "fusion_lat": 0.0, "lon": -76.95766666666667}, {"fusion_lon": 0.0, "bike_id": "aae351eaef18ac87e53c830c4bb52cc3", "is_disabled": 0, "is_reserved": 0, "lat": 38.899892666666666, "name": "aae351eaef18ac87e53c830c4bb52cc3", "rental_uris": {"ios": "https://dc.lft.to/lastmile_qr_scan", "android": "https://dc.lft.to/lastmile_qr_scan"}, "type": "electric_scooter", "fusion_lat": 0.0, "lon": -77.05571416666666}, {"fusion_lon": 0.0, "bike_id": "20ee41746c9ccae40ac6032fe6aa1b1a", "is_disabled": 0, "is_reserved": 0, "lat": 38.90081133333333, "name": "20ee41746c9ccae40ac6032fe6aa1b1a", "rental_uris": {"ios": "https://dc.lft.to/lastmile_qr_scan", "android": "https://dc.lft.to/lastmile_qr_scan"}, "type": "electric_scooter", "fusion_lat": 0.0, "lon": -77.04904916666666}, {"fusion_lon": 0.0, "bike_id": "ec951a80878f77f166494930c9983d51", "is_disabled": 0, "is_reserved": 0, "lat": 38.918073166666666, "name": "ec951a80878f77f166494930c9983d51", "rental_uris": {"ios": "https://dc.lft.to/lastmile_qr_scan", "android": "https://dc.lft.to/lastmile_qr_scan"}, "type": "electric_scooter", "fusion_lat": 0.0, "lon": -77.04638583333333}, {"fusion_lon": 0.0, "bike_id": "0263aa53bf8432b11907e065f64c55b5", "is_disabled": 0, "is_reserved": 0, "lat": 38.924050666666666, "name": "0263aa53bf8432b11907e065f64c55b5", "rental_uris": {"ios": "https://dc.lft.to/lastmile_qr_scan", "android": "https://dc.lft.to/lastmile_qr_scan"}, "type": "electric_bike", "fusion_lat": 0.0, "lon": -77.03524216666666}, {"fusion_lon": 0.0, "bike_id": "280cb1f7540c9f51cc7f55ba4d11c705", "is_disabled": 0, "is_reserved": 0, "lat": 38.807421166666664, "name": "280cb1f7540c9f51cc7f55ba4d11c705", "rental_uris": {"ios": "https://dc.lft.to/lastmile_qr_scan", "android": "https://dc.lft.to/lastmile_qr_scan"}, "type": "electric_bike", "fusion_lat": 0.0, "lon": -77.09686516666666}, {"fusion_lon": 0.0, "bike_id": "18db1dc70098f1ba0fd0ba2e26c415bf", "is_disabled": 0, "is_reserved": 0, "lat": 38.9405775, "name": "18db1dc70098f1ba0fd0ba2e26c415bf", "rental_uris": {"ios": "https://dc.lft.to/lastmile_qr_scan", "android": "https://dc.lft.to/lastmile_qr_scan"}, "type": "electric_bike", "fusion_lat": 0.0, "lon": -77.02894966666666}, {"fusion_lon": 0.0, "bike_id": "961172a5a8c454d34aa7b04764712307", "is_disabled": 0, "is_reserved": 0, "lat": 38.92058333333333, "name": "961172a5a8c454d34aa7b04764712307", "rental_uris": {"ios": "https://dc.lft.to/lastmile_qr_scan", "android": "https://dc.lft.to/lastmile_qr_scan"}, "type": "electric_scooter", "fusion_lat": 0.0, "lon": -77.04253466666667}, {"fusion_lon": 0.0, "bike_id": "bd01839b93e965c90f1400c54cb5a99d", "is_disabled": 0, "is_reserved": 0, "lat": 38.87174983333333, "name": "bd01839b93e965c90f1400c54cb5a99d", "rental_uris": {"ios": "https://dc.lft.to/lastmile_qr_scan", "android": "https://dc.lft.to/lastmile_qr_scan"}, "type": "electric_bike", "fusion_lat": 0.0, "lon": -77.23393466666667}, {"fusion_lon": 0.0, "bike_id": "58526afff05e68f8684ac96603d603cc", "is_disabled": 0, "is_reserved": 0, "lat": 38.9126485, "name": "58526afff05e68f8684ac96603d603cc", "rental_uris": {"ios": "https://dc.lft.to/lastmile_qr_scan", "android": "https://dc.lft.to/lastmile_qr_scan"}, "type": "electric_scooter", "fusion_lat": 0.0, "lon": -77.03871633333333}, {"fusion_lon": 0.0, "bike_id": "d917577bfa7d32f98e2c63cc6c1fe900", "is_disabled": 0, "is_reserved": 0, "lat": 38.872821333333334, "name": "d917577bfa7d32f98e2c63cc6c1fe900", "rental_uris": {"ios": "https://dc.lft.to/lastmile_qr_scan", "android": "https://dc.lft.to/lastmile_qr_scan"}, "type": "electric_scooter", "fusion_lat": 0.0, "lon": -77.01519216666667}, {"fusion_lon": 0.0, "bike_id": "007a535f7bbb029cc16015aec0a9941d", "is_disabled": 0, "is_reserved": 0, "lat": 38.92798466666667, "name": "007a535f7bbb029cc16015aec0a9941d", "rental_uris": {"ios": "https://dc.lft.to/lastmile_qr_scan", "android": "https://dc.lft.to/lastmile_qr_scan"}, "type": "electric_scooter", "fusion_lat": 0.0, "lon": -77.02601716666666}, {"fusion_lon": 0.0, "bike_id": "8c825c3a4b32d392b9834d5c5f873ecf", "is_disabled": 0, "is_reserved": 0, "lat": 38.92146483333333, "name": "8c825c3a4b32d392b9834d5c5f873ecf", "rental_uris": {"ios": "https://dc.lft.to/lastmile_qr_scan", "android": "https://dc.lft.to/lastmile_qr_scan"}, "type": "electric_scooter", "fusion_lat": 0.0, "lon": -77.02082983333334}, {"fusion_lon": 0.0, "bike_id": "8e0d4d6eaf5a1350eed03a6602c17ebe", "is_disabled": 0, "is_reserved": 0, "lat": 38.927923, "name": "8e0d4d6eaf5a1350eed03a6602c17ebe", "rental_uris": {"ios": "https://dc.lft.to/lastmile_qr_scan", "android": "https://dc.lft.to/lastmile_qr_scan"}, "type": "electric_scooter", "fusion_lat": 0.0, "lon": -77.036264}, {"fusion_lon": 0.0, "bike_id": "fd837e63831ba9b0135980f1b3e5bb89", "is_disabled": 0, "is_reserved": 0, "lat": 38.805043833333336, "name": "fd837e63831ba9b0135980f1b3e5bb89", "rental_uris": {"ios": "https://dc.lft.to/lastmile_qr_scan", "android": "https://dc.lft.to/lastmile_qr_scan"}, "type": "electric_bike", "fusion_lat": 0.0, "lon": -77.04812183333334}, {"fusion_lon": 0.0, "bike_id": "c0f7c67b8d6f5d56fe7663c7f41a8a90", "is_disabled": 0, "is_reserved": 0, "lat": 38.929503, "name": "c0f7c67b8d6f5d56fe7663c7f41a8a90", "rental_uris": {"ios": "https://dc.lft.to/lastmile_qr_scan", "android": "https://dc.lft.to/lastmile_qr_scan"}, "type": "electric_scooter", "fusion_lat": 0.0, "lon": -77.05508933333333}, {"fusion_lon": 0.0, "bike_id": "c6dab46a21063e33857ebbbf2d119292", "is_disabled": 0, "is_reserved": 0, "lat": 38.89421633333333, "name": "c6dab46a21063e33857ebbbf2d119292", "rental_uris": {"ios": "https://dc.lft.to/lastmile_qr_scan", "android": "https://dc.lft.to/lastmile_qr_scan"}, "type": "electric_bike", "fusion_lat": 0.0, "lon": -77.09445116666667}, {"fusion_lon": 0.0, "bike_id": "286fddd528bcaeb306d5642c7add432d", "is_disabled": 0, "is_reserved": 0, "lat": 38.893775833333336, "name": "286fddd528bcaeb306d5642c7add432d", "rental_uris": {"ios": "https://dc.lft.to/lastmile_qr_scan", "android": "https://dc.lft.to/lastmile_qr_scan"}, "type": "electric_scooter", "fusion_lat": 0.0, "lon": -77.02453316666667}, {"fusion_lon": 0.0, "bike_id": "a568a5034b6e23e1be04b91114f11cf5", "is_disabled": 0, "is_reserved": 0, "lat": 38.91324633333333, "name": "a568a5034b6e23e1be04b91114f11cf5", "rental_uris": {"ios": "https://dc.lft.to/lastmile_qr_scan", "android": "https://dc.lft.to/lastmile_qr_scan"}, "type": "electric_scooter", "fusion_lat": 0.0, "lon": -77.02175766666667}, {"fusion_lon": 0.0, "bike_id": "382786b02b763c23d8b86ea6187f3660", "is_disabled": 0, "is_reserved": 0, "lat": 38.935460666666664, "name": "382786b02b763c23d8b86ea6187f3660", "rental_uris": {"ios": "https://dc.lft.to/lastmile_qr_scan", "android": "https://dc.lft.to/lastmile_qr_scan"}, "type": "electric_scooter", "fusion_lat": 0.0, "lon": -77.02498366666667}, {"fusion_lon": 0.0, "bike_id": "11bfa11a8923b835a1705002794e5d5f", "is_disabled": 0, "is_reserved": 0, "lat": 38.88966683333334, "name": "11bfa11a8923b835a1705002794e5d5f", "rental_uris": {"ios": "https://dc.lft.to/lastmile_qr_scan", "android": "https://dc.lft.to/lastmile_qr_scan"}, "type": "electric_scooter", "fusion_lat": 0.0, "lon": -76.98035883333333}, {"fusion_lon": 0.0, "bike_id": "b301dd8c528d447a6691834f9e6f2da3", "is_disabled": 0, "is_reserved": 0, "lat": 38.91180133333334, "name": "b301dd8c528d447a6691834f9e6f2da3", "rental_uris": {"ios": "https://dc.lft.to/lastmile_qr_scan", "android": "https://dc.lft.to/lastmile_qr_scan"}, "type": "electric_scooter", "fusion_lat": 0.0, "lon": -77.00495933333333}, {"fusion_lon": 0.0, "bike_id": "f741faaccee04ebbfc7a691b474a0bb4", "is_disabled": 0, "is_reserved": 0, "lat": 38.90275466666667, "name": "f741faaccee04ebbfc7a691b474a0bb4", "rental_uris": {"ios": "https://dc.lft.to/lastmile_qr_scan", "android": "https://dc.lft.to/lastmile_qr_scan"}, "type": "electric_scooter", "fusion_lat": 0.0, "lon": -77.01547533333333}, {"fusion_lon": 0.0, "bike_id": "86b57fd13992c6fa82ded7c9fb359d53", "is_disabled": 0, "is_reserved": 0, "lat": 38.9747525, "name": "86b57fd13992c6fa82ded7c9fb359d53", "rental_uris": {"ios": "https://dc.lft.to/lastmile_qr_scan", "android": "https://dc.lft.to/lastmile_qr_scan"}, "type": "electric_bike", "fusion_lat": 0.0, "lon": -76.98669833333334}, {"fusion_lon": 0.0, "bike_id": "c82b1847c50c951093a982c51a0d4ac9", "is_disabled": 0, "is_reserved": 0, "lat": 39.022956666666666, "name": "c82b1847c50c951093a982c51a0d4ac9", "rental_uris": {"ios": "https://dc.lft.to/lastmile_qr_scan", "android": "https://dc.lft.to/lastmile_qr_scan"}, "type": "electric_bike", "fusion_lat": 0.0, "lon": -77.02104533333333}, {"fusion_lon": 0.0, "bike_id": "912ce4b4046ebc6bb1c785bb9a8a9bf5", "is_disabled": 0, "is_reserved": 0, "lat": 38.943115666666664, "name": "912ce4b4046ebc6bb1c785bb9a8a9bf5", "rental_uris": {"ios": "https://dc.lft.to/lastmile_qr_scan", "android": "https://dc.lft.to/lastmile_qr_scan"}, "type": "electric_scooter", "fusion_lat": 0.0, "lon": -77.025217}, {"fusion_lon": 0.0, "bike_id": "f8658c1e540230f6801527c91f35d4ac", "is_disabled": 0, "is_reserved": 0, "lat": 38.876705666666666, "name": "f8658c1e540230f6801527c91f35d4ac", "rental_uris": {"ios": "https://dc.lft.to/lastmile_qr_scan", "android": "https://dc.lft.to/lastmile_qr_scan"}, "type": "electric_scooter", "fusion_lat": 0.0, "lon": -77.00730866666666}, {"fusion_lon": 0.0, "bike_id": "9bf135086c4977f67b6348b96fe60bd3", "is_disabled": 0, "is_reserved": 0, "lat": 38.90556316666667, "name": "9bf135086c4977f67b6348b96fe60bd3", "rental_uris": {"ios": "https://dc.lft.to/lastmile_qr_scan", "android": "https://dc.lft.to/lastmile_qr_scan"}, "type": "electric_scooter", "fusion_lat": 0.0, "lon": -77.00708466666667}, {"fusion_lon": 0.0, "bike_id": "00b2168a1e7dc3280519302ddf2a83f4", "is_disabled": 0, "is_reserved": 0, "lat": 38.905672, "name": "00b2168a1e7dc3280519302ddf2a83f4", "rental_uris": {"ios": "https://dc.lft.to/lastmile_qr_scan", "android": "https://dc.lft.to/lastmile_qr_scan"}, "type": "electric_scooter", "fusion_lat": 0.0, "lon": -77.041858}, {"fusion_lon": 0.0, "bike_id": "5057f310e11fdf7686f39590bd6a09f7", "is_disabled": 0, "is_reserved": 0, "lat": 38.9265835, "name": "5057f310e11fdf7686f39590bd6a09f7", "rental_uris": {"ios": "https://dc.lft.to/lastmile_qr_scan", "android": "https://dc.lft.to/lastmile_qr_scan"}, "type": "electric_scooter", "fusion_lat": 0.0, "lon": -77.02275}, {"fusion_lon": 0.0, "bike_id": "8889a4acfa5a48490a45757bf8b5bbcd", "is_disabled": 0, "is_reserved": 0, "lat": 38.89076266666667, "name": "8889a4acfa5a48490a45757bf8b5bbcd", "rental_uris": {"ios": "https://dc.lft.to/lastmile_qr_scan", "android": "https://dc.lft.to/lastmile_qr_scan"}, "type": "electric_scooter", "fusion_lat": 0.0, "lon": -76.98822133333333}, {"fusion_lon": 0.0, "bike_id": "e714dc1c4059944a4aae9cf5208b97bc", "is_disabled": 0, "is_reserved": 0, "lat": 38.918790333333334, "name": "e714dc1c4059944a4aae9cf5208b97bc", "rental_uris": {"ios": "https://dc.lft.to/lastmile_qr_scan", "android": "https://dc.lft.to/lastmile_qr_scan"}, "type": "electric_scooter", "fusion_lat": 0.0, "lon": -77.04172566666666}, {"fusion_lon": 0.0, "bike_id": "9ca4c7a3279f6e2a34a55472f2e74170", "is_disabled": 0, "is_reserved": 0, "lat": 38.914879166666665, "name": "9ca4c7a3279f6e2a34a55472f2e74170", "rental_uris": {"ios": "https://dc.lft.to/lastmile_qr_scan", "android": "https://dc.lft.to/lastmile_qr_scan"}, "type": "electric_scooter", "fusion_lat": 0.0, "lon": -77.02294416666666}, {"fusion_lon": 0.0, "bike_id": "7ece5461a91747d79609b5ea54dbfa6c", "is_disabled": 0, "is_reserved": 0, "lat": 38.815414833333335, "name": "7ece5461a91747d79609b5ea54dbfa6c", "rental_uris": {"ios": "https://dc.lft.to/lastmile_qr_scan", "android": "https://dc.lft.to/lastmile_qr_scan"}, "type": "electric_bike", "fusion_lat": 0.0, "lon": -77.04645116666667}, {"fusion_lon": 0.0, "bike_id": "faf29a6a18601f494aa82ca7db22e39b", "is_disabled": 0, "is_reserved": 0, "lat": 38.900723666666664, "name": "faf29a6a18601f494aa82ca7db22e39b", "rental_uris": {"ios": "https://dc.lft.to/lastmile_qr_scan", "android": "https://dc.lft.to/lastmile_qr_scan"}, "type": "electric_scooter", "fusion_lat": 0.0, "lon": -77.04778983333334}, {"fusion_lon": 0.0, "bike_id": "e656c57739af52fef33f87be0312c2e9", "is_disabled": 0, "is_reserved": 0, "lat": 38.931141833333335, "name": "e656c57739af52fef33f87be0312c2e9", "rental_uris": {"ios": "https://dc.lft.to/lastmile_qr_scan", "android": "https://dc.lft.to/lastmile_qr_scan"}, "type": "electric_bike", "fusion_lat": 0.0, "lon": -77.02722766666666}, {"fusion_lon": 0.0, "bike_id": "a5d6891acd2ca775b36df22bd11916a6", "is_disabled": 0, "is_reserved": 0, "lat": 38.9002645, "name": "a5d6891acd2ca775b36df22bd11916a6", "rental_uris": {"ios": "https://dc.lft.to/lastmile_qr_scan", "android": "https://dc.lft.to/lastmile_qr_scan"}, "type": "electric_scooter", "fusion_lat": 0.0, "lon": -76.98596083333334}, {"fusion_lon": 0.0, "bike_id": "50428265dd5d045b7df137cd8326d64c", "is_disabled": 0, "is_reserved": 0, "lat": 38.906515666666664, "name": "50428265dd5d045b7df137cd8326d64c", "rental_uris": {"ios": "https://dc.lft.to/lastmile_qr_scan", "android": "https://dc.lft.to/lastmile_qr_scan"}, "type": "electric_scooter", "fusion_lat": 0.0, "lon": -77.0296155}, {"fusion_lon": 0.0, "bike_id": "0d01b833930efad724cb18efacb8db43", "is_disabled": 0, "is_reserved": 0, "lat": 38.9000825, "name": "0d01b833930efad724cb18efacb8db43", "rental_uris": {"ios": "https://dc.lft.to/lastmile_qr_scan", "android": "https://dc.lft.to/lastmile_qr_scan"}, "type": "electric_scooter", "fusion_lat": 0.0, "lon": -77.04487033333334}, {"fusion_lon": 0.0, "bike_id": "60c97cb01b4a5e4e00e78da36069b1c9", "is_disabled": 0, "is_reserved": 0, "lat": 38.91403866666667, "name": "60c97cb01b4a5e4e00e78da36069b1c9", "rental_uris": {"ios": "https://dc.lft.to/lastmile_qr_scan", "android": "https://dc.lft.to/lastmile_qr_scan"}, "type": "electric_scooter", "fusion_lat": 0.0, "lon": -77.0183975}, {"fusion_lon": 0.0, "bike_id": "1025a75aa8a42975abcad9d1ad174035", "is_disabled": 0, "is_reserved": 0, "lat": 38.8954705, "name": "1025a75aa8a42975abcad9d1ad174035", "rental_uris": {"ios": "https://dc.lft.to/lastmile_qr_scan", "android": "https://dc.lft.to/lastmile_qr_scan"}, "type": "electric_scooter", "fusion_lat": 0.0, "lon": -76.98334333333334}, {"fusion_lon": 0.0, "bike_id": "6eaa7092e457227af6a8874344fdc44c", "is_disabled": 0, "is_reserved": 0, "lat": 38.89369683333334, "name": "6eaa7092e457227af6a8874344fdc44c", "rental_uris": {"ios": "https://dc.lft.to/lastmile_qr_scan", "android": "https://dc.lft.to/lastmile_qr_scan"}, "type": "electric_scooter", "fusion_lat": 0.0, "lon": -77.04675516666667}, {"fusion_lon": 0.0, "bike_id": "e6a25a626e78877ed04978c5cc2f906c", "is_disabled": 0, "is_reserved": 0, "lat": 38.914859, "name": "e6a25a626e78877ed04978c5cc2f906c", "rental_uris": {"ios": "https://dc.lft.to/lastmile_qr_scan", "android": "https://dc.lft.to/lastmile_qr_scan"}, "type": "electric_scooter", "fusion_lat": 0.0, "lon": -77.0217145}, {"fusion_lon": 0.0, "bike_id": "5385fdf74b87ec9414f3928fc7ccd09b", "is_disabled": 0, "is_reserved": 0, "lat": 38.91322383333333, "name": "5385fdf74b87ec9414f3928fc7ccd09b", "rental_uris": {"ios": "https://dc.lft.to/lastmile_qr_scan", "android": "https://dc.lft.to/lastmile_qr_scan"}, "type": "electric_scooter", "fusion_lat": 0.0, "lon": -77.01890933333334}, {"fusion_lon": 0.0, "bike_id": "0f0f14f21fdbe297ecff2db1b764ea16", "is_disabled": 0, "is_reserved": 0, "lat": 38.9367805, "name": "0f0f14f21fdbe297ecff2db1b764ea16", "rental_uris": {"ios": "https://dc.lft.to/lastmile_qr_scan", "android": "https://dc.lft.to/lastmile_qr_scan"}, "type": "electric_scooter", "fusion_lat": 0.0, "lon": -77.03284333333333}, {"fusion_lon": 0.0, "bike_id": "7a9452e00e1e59244276963a2f388970", "is_disabled": 0, "is_reserved": 0, "lat": 38.92240116666667, "name": "7a9452e00e1e59244276963a2f388970", "rental_uris": {"ios": "https://dc.lft.to/lastmile_qr_scan", "android": "https://dc.lft.to/lastmile_qr_scan"}, "type": "electric_scooter", "fusion_lat": 0.0, "lon": -77.03356416666666}, {"fusion_lon": 0.0, "bike_id": "fa185ec74f8344513d36679493840c0d", "is_disabled": 0, "is_reserved": 0, "lat": 38.92549266666666, "name": "fa185ec74f8344513d36679493840c0d", "rental_uris": {"ios": "https://dc.lft.to/lastmile_qr_scan", "android": "https://dc.lft.to/lastmile_qr_scan"}, "type": "electric_scooter", "fusion_lat": 0.0, "lon": -77.04177366666667}, {"fusion_lon": 0.0, "bike_id": "cf2c2f407068cb55f0b36ede52827fa1", "is_disabled": 0, "is_reserved": 0, "lat": 38.89723866666667, "name": "cf2c2f407068cb55f0b36ede52827fa1", "rental_uris": {"ios": "https://dc.lft.to/lastmile_qr_scan", "android": "https://dc.lft.to/lastmile_qr_scan"}, "type": "electric_scooter", "fusion_lat": 0.0, "lon": -76.9785755}, {"fusion_lon": 0.0, "bike_id": "53d125f066727f10003c3d2c2598bec2", "is_disabled": 0, "is_reserved": 0, "lat": 38.91571583333333, "name": "53d125f066727f10003c3d2c2598bec2", "rental_uris": {"ios": "https://dc.lft.to/lastmile_qr_scan", "android": "https://dc.lft.to/lastmile_qr_scan"}, "type": "electric_scooter", "fusion_lat": 0.0, "lon": -77.02181316666666}, {"fusion_lon": 0.0, "bike_id": "2805b1b50bbff2500b28098ebab666ce", "is_disabled": 0, "is_reserved": 0, "lat": 38.924246833333335, "name": "2805b1b50bbff2500b28098ebab666ce", "rental_uris": {"ios": "https://dc.lft.to/lastmile_qr_scan", "android": "https://dc.lft.to/lastmile_qr_scan"}, "type": "electric_scooter", "fusion_lat": 0.0, "lon": -77.0404055}, {"fusion_lon": 0.0, "bike_id": "ee2f4a9946e802fb88e8fe5b10b0b0fb", "is_disabled": 0, "is_reserved": 0, "lat": 38.921204833333334, "name": "ee2f4a9946e802fb88e8fe5b10b0b0fb", "rental_uris": {"ios": "https://dc.lft.to/lastmile_qr_scan", "android": "https://dc.lft.to/lastmile_qr_scan"}, "type": "electric_scooter", "fusion_lat": 0.0, "lon": -77.021338}, {"fusion_lon": 0.0, "bike_id": "f58c3b8fb0ece1be028b91dfce9b1f00", "is_disabled": 0, "is_reserved": 0, "lat": 38.910238666666665, "name": "f58c3b8fb0ece1be028b91dfce9b1f00", "rental_uris": {"ios": "https://dc.lft.to/lastmile_qr_scan", "android": "https://dc.lft.to/lastmile_qr_scan"}, "type": "electric_scooter", "fusion_lat": 0.0, "lon": -77.02940933333333}, {"fusion_lon": 0.0, "bike_id": "ea28f5c569ebf56cb7bc215aafbaa97a", "is_disabled": 0, "is_reserved": 0, "lat": 38.921148, "name": "ea28f5c569ebf56cb7bc215aafbaa97a", "rental_uris": {"ios": "https://dc.lft.to/lastmile_qr_scan", "android": "https://dc.lft.to/lastmile_qr_scan"}, "type": "electric_scooter", "fusion_lat": 0.0, "lon": -77.03653033333333}, {"fusion_lon": 0.0, "bike_id": "d79df3359b78f1db6ad40af9fa6ca0d6", "is_disabled": 0, "is_reserved": 0, "lat": 38.91872016666667, "name": "d79df3359b78f1db6ad40af9fa6ca0d6", "rental_uris": {"ios": "https://dc.lft.to/lastmile_qr_scan", "android": "https://dc.lft.to/lastmile_qr_scan"}, "type": "electric_scooter", "fusion_lat": 0.0, "lon": -77.03501166666666}, {"fusion_lon": 0.0, "bike_id": "a5a52a2e434a62eddd40264ebd215575", "is_disabled": 0, "is_reserved": 0, "lat": 38.92736083333333, "name": "a5a52a2e434a62eddd40264ebd215575", "rental_uris": {"ios": "https://dc.lft.to/lastmile_qr_scan", "android": "https://dc.lft.to/lastmile_qr_scan"}, "type": "electric_scooter", "fusion_lat": 0.0, "lon": -77.02214466666666}, {"fusion_lon": 0.0, "bike_id": "9e6de01b310bdfe7dd36140d44462988", "is_disabled": 0, "is_reserved": 0, "lat": 38.900136833333335, "name": "9e6de01b310bdfe7dd36140d44462988", "rental_uris": {"ios": "https://dc.lft.to/lastmile_qr_scan", "android": "https://dc.lft.to/lastmile_qr_scan"}, "type": "electric_scooter", "fusion_lat": 0.0, "lon": -76.98849633333333}, {"fusion_lon": 0.0, "bike_id": "b43cd62b1e832358b5d3020b53d19bc7", "is_disabled": 0, "is_reserved": 0, "lat": 38.91749883333333, "name": "b43cd62b1e832358b5d3020b53d19bc7", "rental_uris": {"ios": "https://dc.lft.to/lastmile_qr_scan", "android": "https://dc.lft.to/lastmile_qr_scan"}, "type": "electric_scooter", "fusion_lat": 0.0, "lon": -77.03998783333333}, {"fusion_lon": 0.0, "bike_id": "51e9c798a9efb755f74b8daf019e0387", "is_disabled": 0, "is_reserved": 0, "lat": 38.90054816666667, "name": "51e9c798a9efb755f74b8daf019e0387", "rental_uris": {"ios": "https://dc.lft.to/lastmile_qr_scan", "android": "https://dc.lft.to/lastmile_qr_scan"}, "type": "electric_scooter", "fusion_lat": 0.0, "lon": -76.98707416666667}, {"fusion_lon": 0.0, "bike_id": "035c765e45f21c4b3b7668bf32d2d212", "is_disabled": 0, "is_reserved": 0, "lat": 38.809783, "name": "035c765e45f21c4b3b7668bf32d2d212", "rental_uris": {"ios": "https://dc.lft.to/lastmile_qr_scan", "android": "https://dc.lft.to/lastmile_qr_scan"}, "type": "electric_bike", "fusion_lat": 0.0, "lon": -77.07661716666667}, {"fusion_lon": 0.0, "bike_id": "f80f987a28a5d7f8af0e9e657bea0b85", "is_disabled": 0, "is_reserved": 0, "lat": 38.92464283333333, "name": "f80f987a28a5d7f8af0e9e657bea0b85", "rental_uris": {"ios": "https://dc.lft.to/lastmile_qr_scan", "android": "https://dc.lft.to/lastmile_qr_scan"}, "type": "electric_scooter", "fusion_lat": 0.0, "lon": -77.02241883333333}, {"fusion_lon": 0.0, "bike_id": "99158e93042ad90e5c9011d82bdc36c6", "is_disabled": 0, "is_reserved": 0, "lat": 38.89404366666667, "name": "99158e93042ad90e5c9011d82bdc36c6", "rental_uris": {"ios": "https://dc.lft.to/lastmile_qr_scan", "android": "https://dc.lft.to/lastmile_qr_scan"}, "type": "electric_scooter", "fusion_lat": 0.0, "lon": -76.97816383333333}, {"fusion_lon": 0.0, "bike_id": "5d1d0995aeaf696929f0b7f9abcbc6f5", "is_disabled": 0, "is_reserved": 0, "lat": 38.92643366666667, "name": "5d1d0995aeaf696929f0b7f9abcbc6f5", "rental_uris": {"ios": "https://dc.lft.to/lastmile_qr_scan", "android": "https://dc.lft.to/lastmile_qr_scan"}, "type": "electric_scooter", "fusion_lat": 0.0, "lon": -77.03843166666667}, {"fusion_lon": 0.0, "bike_id": "cd865216a834054aaaaf368ee16888b9", "is_disabled": 0, "is_reserved": 0, "lat": 38.876441, "name": "cd865216a834054aaaaf368ee16888b9", "rental_uris": {"ios": "https://dc.lft.to/lastmile_qr_scan", "android": "https://dc.lft.to/lastmile_qr_scan"}, "type": "electric_scooter", "fusion_lat": 0.0, "lon": -77.00608383333334}, {"fusion_lon": 0.0, "bike_id": "0e4834cfd1311f17286165a6827a381b", "is_disabled": 0, "is_reserved": 0, "lat": 38.93961133333333, "name": "0e4834cfd1311f17286165a6827a381b", "rental_uris": {"ios": "https://dc.lft.to/lastmile_qr_scan", "android": "https://dc.lft.to/lastmile_qr_scan"}, "type": "electric_bike", "fusion_lat": 0.0, "lon": -76.99131783333333}, {"fusion_lon": 0.0, "bike_id": "773b09bff52e5bf75c4ea8b970aed830", "is_disabled": 0, "is_reserved": 0, "lat": 38.91183483333333, "name": "773b09bff52e5bf75c4ea8b970aed830", "rental_uris": {"ios": "https://dc.lft.to/lastmile_qr_scan", "android": "https://dc.lft.to/lastmile_qr_scan"}, "type": "electric_scooter", "fusion_lat": 0.0, "lon": -77.02183583333333}, {"fusion_lon": 0.0, "bike_id": "c97520032c14ede68e467353f22fdef1", "is_disabled": 0, "is_reserved": 0, "lat": 38.924084666666666, "name": "c97520032c14ede68e467353f22fdef1", "rental_uris": {"ios": "https://dc.lft.to/lastmile_qr_scan", "android": "https://dc.lft.to/lastmile_qr_scan"}, "type": "electric_scooter", "fusion_lat": 0.0, "lon": -77.02137116666667}, {"fusion_lon": 0.0, "bike_id": "73efb6df604d642164c245c36ffb698a", "is_disabled": 0, "is_reserved": 0, "lat": 38.8997295, "name": "73efb6df604d642164c245c36ffb698a", "rental_uris": {"ios": "https://dc.lft.to/lastmile_qr_scan", "android": "https://dc.lft.to/lastmile_qr_scan"}, "type": "electric_scooter", "fusion_lat": 0.0, "lon": -77.02675833333333}, {"fusion_lon": 0.0, "bike_id": "36302305a67a4dcb1aba5554601a0fe6", "is_disabled": 0, "is_reserved": 0, "lat": 38.896325, "name": "36302305a67a4dcb1aba5554601a0fe6", "rental_uris": {"ios": "https://dc.lft.to/lastmile_qr_scan", "android": "https://dc.lft.to/lastmile_qr_scan"}, "type": "electric_scooter", "fusion_lat": 0.0, "lon": -77.02846583333333}, {"fusion_lon": 0.0, "bike_id": "48ed78a42244a4360e4ab04b580c2ab0", "is_disabled": 0, "is_reserved": 0, "lat": 38.899181166666665, "name": "48ed78a42244a4360e4ab04b580c2ab0", "rental_uris": {"ios": "https://dc.lft.to/lastmile_qr_scan", "android": "https://dc.lft.to/lastmile_qr_scan"}, "type": "electric_scooter", "fusion_lat": 0.0, "lon": -77.04792}, {"fusion_lon": 0.0, "bike_id": "9494589e744f0002043a1660cb71aaaa", "is_disabled": 0, "is_reserved": 0, "lat": 38.8981385, "name": "9494589e744f0002043a1660cb71aaaa", "rental_uris": {"ios": "https://dc.lft.to/lastmile_qr_scan", "android": "https://dc.lft.to/lastmile_qr_scan"}, "type": "electric_scooter", "fusion_lat": 0.0, "lon": -77.01265566666666}, {"fusion_lon": 0.0, "bike_id": "222c81772d3cd5abd6bb6b72bb08255d", "is_disabled": 0, "is_reserved": 0, "lat": 38.90871083333333, "name": "222c81772d3cd5abd6bb6b72bb08255d", "rental_uris": {"ios": "https://dc.lft.to/lastmile_qr_scan", "android": "https://dc.lft.to/lastmile_qr_scan"}, "type": "electric_scooter", "fusion_lat": 0.0, "lon": -77.0405915}, {"fusion_lon": 0.0, "bike_id": "274808da103271e1325d05d8af8014ff", "is_disabled": 0, "is_reserved": 0, "lat": 38.90353866666667, "name": "274808da103271e1325d05d8af8014ff", "rental_uris": {"ios": "https://dc.lft.to/lastmile_qr_scan", "android": "https://dc.lft.to/lastmile_qr_scan"}, "type": "electric_scooter", "fusion_lat": 0.0, "lon": -77.06003183333333}, {"fusion_lon": 0.0, "bike_id": "71296ef1f025dc6ce20ee5a46221f379", "is_disabled": 0, "is_reserved": 0, "lat": 38.90070016666667, "name": "71296ef1f025dc6ce20ee5a46221f379", "rental_uris": {"ios": "https://dc.lft.to/lastmile_qr_scan", "android": "https://dc.lft.to/lastmile_qr_scan"}, "type": "electric_scooter", "fusion_lat": 0.0, "lon": -77.05049883333334}, {"fusion_lon": 0.0, "bike_id": "cd2cb87680682ea5ae4dd3ed8be639d4", "is_disabled": 0, "is_reserved": 0, "lat": 38.91816883333333, "name": "cd2cb87680682ea5ae4dd3ed8be639d4", "rental_uris": {"ios": "https://dc.lft.to/lastmile_qr_scan", "android": "https://dc.lft.to/lastmile_qr_scan"}, "type": "electric_scooter", "fusion_lat": 0.0, "lon": -77.04534616666666}, {"fusion_lon": 0.0, "bike_id": "4998b05696d33b61921c14dc2daf5c2d", "is_disabled": 0, "is_reserved": 0, "lat": 38.916668666666666, "name": "4998b05696d33b61921c14dc2daf5c2d", "rental_uris": {"ios": "https://dc.lft.to/lastmile_qr_scan", "android": "https://dc.lft.to/lastmile_qr_scan"}, "type": "electric_scooter", "fusion_lat": 0.0, "lon": -77.022762}, {"fusion_lon": 0.0, "bike_id": "f10629919ac2594e594b5e37e66a2131", "is_disabled": 0, "is_reserved": 0, "lat": 38.927385666666666, "name": "f10629919ac2594e594b5e37e66a2131", "rental_uris": {"ios": "https://dc.lft.to/lastmile_qr_scan", "android": "https://dc.lft.to/lastmile_qr_scan"}, "type": "electric_scooter", "fusion_lat": 0.0, "lon": -77.03560316666666}, {"fusion_lon": 0.0, "bike_id": "abb6aa88a6589b18782d031ea32e2c0b", "is_disabled": 0, "is_reserved": 0, "lat": 38.9210625, "name": "abb6aa88a6589b18782d031ea32e2c0b", "rental_uris": {"ios": "https://dc.lft.to/lastmile_qr_scan", "android": "https://dc.lft.to/lastmile_qr_scan"}, "type": "electric_scooter", "fusion_lat": 0.0, "lon": -77.04701816666666}, {"fusion_lon": 0.0, "bike_id": "5d3529a2a7d59a74d8526e335f19a12a", "is_disabled": 0, "is_reserved": 0, "lat": 38.909823, "name": "5d3529a2a7d59a74d8526e335f19a12a", "rental_uris": {"ios": "https://dc.lft.to/lastmile_qr_scan", "android": "https://dc.lft.to/lastmile_qr_scan"}, "type": "electric_scooter", "fusion_lat": 0.0, "lon": -77.03321116666666}, {"fusion_lon": 0.0, "bike_id": "30c4ea1236f0decca3015e1d59b2acae", "is_disabled": 0, "is_reserved": 0, "lat": 38.92365366666667, "name": "30c4ea1236f0decca3015e1d59b2acae", "rental_uris": {"ios": "https://dc.lft.to/lastmile_qr_scan", "android": "https://dc.lft.to/lastmile_qr_scan"}, "type": "electric_scooter", "fusion_lat": 0.0, "lon": -77.01954966666666}, {"fusion_lon": 0.0, "bike_id": "c5f0206d4e1072db06dc34814a73f9ee", "is_disabled": 0, "is_reserved": 0, "lat": 38.905101, "name": "c5f0206d4e1072db06dc34814a73f9ee", "rental_uris": {"ios": "https://dc.lft.to/lastmile_qr_scan", "android": "https://dc.lft.to/lastmile_qr_scan"}, "type": "electric_scooter", "fusion_lat": 0.0, "lon": -76.98480916666666}, {"fusion_lon": 0.0, "bike_id": "d01c0e81a9d39b065259f26832d0efe3", "is_disabled": 0, "is_reserved": 0, "lat": 38.87856583333333, "name": "d01c0e81a9d39b065259f26832d0efe3", "rental_uris": {"ios": "https://dc.lft.to/lastmile_qr_scan", "android": "https://dc.lft.to/lastmile_qr_scan"}, "type": "electric_scooter", "fusion_lat": 0.0, "lon": -77.00697883333333}, {"fusion_lon": 0.0, "bike_id": "74e641b25f66eadf728041cfa26baf74", "is_disabled": 0, "is_reserved": 0, "lat": 38.91789166666667, "name": "74e641b25f66eadf728041cfa26baf74", "rental_uris": {"ios": "https://dc.lft.to/lastmile_qr_scan", "android": "https://dc.lft.to/lastmile_qr_scan"}, "type": "electric_scooter", "fusion_lat": 0.0, "lon": -77.02314316666667}, {"fusion_lon": 0.0, "bike_id": "ebcfa923f33a13794110ba1a94f8a6c9", "is_disabled": 0, "is_reserved": 0, "lat": 38.894346166666665, "name": "ebcfa923f33a13794110ba1a94f8a6c9", "rental_uris": {"ios": "https://dc.lft.to/lastmile_qr_scan", "android": "https://dc.lft.to/lastmile_qr_scan"}, "type": "electric_scooter", "fusion_lat": 0.0, "lon": -77.044658}, {"fusion_lon": 0.0, "bike_id": "d289a647b67da7544194a61376814241", "is_disabled": 0, "is_reserved": 0, "lat": 38.898747166666666, "name": "d289a647b67da7544194a61376814241", "rental_uris": {"ios": "https://dc.lft.to/lastmile_qr_scan", "android": "https://dc.lft.to/lastmile_qr_scan"}, "type": "electric_scooter", "fusion_lat": 0.0, "lon": -77.04660183333333}, {"fusion_lon": 0.0, "bike_id": "f8eba6a4c99a96c8e53fee51b88cd722", "is_disabled": 0, "is_reserved": 0, "lat": 38.92316483333333, "name": "f8eba6a4c99a96c8e53fee51b88cd722", "rental_uris": {"ios": "https://dc.lft.to/lastmile_qr_scan", "android": "https://dc.lft.to/lastmile_qr_scan"}, "type": "electric_scooter", "fusion_lat": 0.0, "lon": -77.04377533333333}, {"fusion_lon": 0.0, "bike_id": "10973399e8f075c0185121ccf0a6baa7", "is_disabled": 0, "is_reserved": 0, "lat": 38.9279315, "name": "10973399e8f075c0185121ccf0a6baa7", "rental_uris": {"ios": "https://dc.lft.to/lastmile_qr_scan", "android": "https://dc.lft.to/lastmile_qr_scan"}, "type": "electric_scooter", "fusion_lat": 0.0, "lon": -77.03148283333333}, {"fusion_lon": 0.0, "bike_id": "2244c9569703869a74705e5a863eb751", "is_disabled": 0, "is_reserved": 0, "lat": 38.94195166666667, "name": "2244c9569703869a74705e5a863eb751", "rental_uris": {"ios": "https://dc.lft.to/lastmile_qr_scan", "android": "https://dc.lft.to/lastmile_qr_scan"}, "type": "electric_scooter", "fusion_lat": 0.0, "lon": -77.02836433333333}, {"fusion_lon": 0.0, "bike_id": "3d31dbb42db5db37be53fdbb1f4d3466", "is_disabled": 0, "is_reserved": 0, "lat": 38.93728516666667, "name": "3d31dbb42db5db37be53fdbb1f4d3466", "rental_uris": {"ios": "https://dc.lft.to/lastmile_qr_scan", "android": "https://dc.lft.to/lastmile_qr_scan"}, "type": "electric_scooter", "fusion_lat": 0.0, "lon": -77.032661}, {"fusion_lon": 0.0, "bike_id": "1d251aedc74ba0dfde69e01e301bd05c", "is_disabled": 0, "is_reserved": 0, "lat": 38.9181535, "name": "1d251aedc74ba0dfde69e01e301bd05c", "rental_uris": {"ios": "https://dc.lft.to/lastmile_qr_scan", "android": "https://dc.lft.to/lastmile_qr_scan"}, "type": "electric_scooter", "fusion_lat": 0.0, "lon": -77.02936116666666}, {"fusion_lon": 0.0, "bike_id": "af77135cd3ba52df71f720b43208898a", "is_disabled": 0, "is_reserved": 0, "lat": 38.94408133333334, "name": "af77135cd3ba52df71f720b43208898a", "rental_uris": {"ios": "https://dc.lft.to/lastmile_qr_scan", "android": "https://dc.lft.to/lastmile_qr_scan"}, "type": "electric_bike", "fusion_lat": 0.0, "lon": -77.06369933333333}, {"fusion_lon": 0.0, "bike_id": "6ebae8bbf8fcc0531029dd196bc21e2c", "is_disabled": 0, "is_reserved": 0, "lat": 38.9085655, "name": "6ebae8bbf8fcc0531029dd196bc21e2c", "rental_uris": {"ios": "https://dc.lft.to/lastmile_qr_scan", "android": "https://dc.lft.to/lastmile_qr_scan"}, "type": "electric_scooter", "fusion_lat": 0.0, "lon": -76.999508}, {"fusion_lon": 0.0, "bike_id": "0ef202413b1ccc2095e77e6834b45aba", "is_disabled": 0, "is_reserved": 0, "lat": 38.9262315, "name": "0ef202413b1ccc2095e77e6834b45aba", "rental_uris": {"ios": "https://dc.lft.to/lastmile_qr_scan", "android": "https://dc.lft.to/lastmile_qr_scan"}, "type": "electric_scooter", "fusion_lat": 0.0, "lon": -77.03928133333334}, {"fusion_lon": 0.0, "bike_id": "5de03135cd879664850210b9607996f0", "is_disabled": 0, "is_reserved": 0, "lat": 38.89346883333333, "name": "5de03135cd879664850210b9607996f0", "rental_uris": {"ios": "https://dc.lft.to/lastmile_qr_scan", "android": "https://dc.lft.to/lastmile_qr_scan"}, "type": "electric_scooter", "fusion_lat": 0.0, "lon": -77.04191783333333}, {"fusion_lon": 0.0, "bike_id": "dddf05226bf3255e075bdbabba7fab67", "is_disabled": 0, "is_reserved": 0, "lat": 38.8860005, "name": "dddf05226bf3255e075bdbabba7fab67", "rental_uris": {"ios": "https://dc.lft.to/lastmile_qr_scan", "android": "https://dc.lft.to/lastmile_qr_scan"}, "type": "electric_scooter", "fusion_lat": 0.0, "lon": -76.925032}, {"fusion_lon": 0.0, "bike_id": "53d74768538a59cb104ac0090a0730b7", "is_disabled": 0, "is_reserved": 0, "lat": 38.905703, "name": "53d74768538a59cb104ac0090a0730b7", "rental_uris": {"ios": "https://dc.lft.to/lastmile_qr_scan", "android": "https://dc.lft.to/lastmile_qr_scan"}, "type": "electric_scooter", "fusion_lat": 0.0, "lon": -77.03455666666666}, {"fusion_lon": 0.0, "bike_id": "874432d88bf6513e7826202599bb980f", "is_disabled": 0, "is_reserved": 0, "lat": 38.917178666666665, "name": "874432d88bf6513e7826202599bb980f", "rental_uris": {"ios": "https://dc.lft.to/lastmile_qr_scan", "android": "https://dc.lft.to/lastmile_qr_scan"}, "type": "electric_scooter", "fusion_lat": 0.0, "lon": -77.03208283333333}, {"fusion_lon": 0.0, "bike_id": "e990a1b88c5332f47ecc1cfa9fae802d", "is_disabled": 0, "is_reserved": 0, "lat": 38.910238, "name": "e990a1b88c5332f47ecc1cfa9fae802d", "rental_uris": {"ios": "https://dc.lft.to/lastmile_qr_scan", "android": "https://dc.lft.to/lastmile_qr_scan"}, "type": "electric_scooter", "fusion_lat": 0.0, "lon": -77.02938566666667}, {"fusion_lon": 0.0, "bike_id": "17e1d80f0e5a759a5b03e92c06e830f1", "is_disabled": 0, "is_reserved": 0, "lat": 38.95643116666667, "name": "17e1d80f0e5a759a5b03e92c06e830f1", "rental_uris": {"ios": "https://dc.lft.to/lastmile_qr_scan", "android": "https://dc.lft.to/lastmile_qr_scan"}, "type": "electric_scooter", "fusion_lat": 0.0, "lon": -77.02819566666666}, {"fusion_lon": 0.0, "bike_id": "dde52d6d1c104ada519b8b481909cdec", "is_disabled": 0, "is_reserved": 0, "lat": 38.93531866666667, "name": "dde52d6d1c104ada519b8b481909cdec", "rental_uris": {"ios": "https://dc.lft.to/lastmile_qr_scan", "android": "https://dc.lft.to/lastmile_qr_scan"}, "type": "electric_scooter", "fusion_lat": 0.0, "lon": -77.02346633333333}, {"fusion_lon": 0.0, "bike_id": "510e2d735c14666368a876653617de36", "is_disabled": 0, "is_reserved": 0, "lat": 38.900511, "name": "510e2d735c14666368a876653617de36", "rental_uris": {"ios": "https://dc.lft.to/lastmile_qr_scan", "android": "https://dc.lft.to/lastmile_qr_scan"}, "type": "electric_scooter", "fusion_lat": 0.0, "lon": -76.99337383333334}, {"fusion_lon": 0.0, "bike_id": "0a8661bba33dc10066822cfc16629ff0", "is_disabled": 0, "is_reserved": 0, "lat": 38.893925333333335, "name": "0a8661bba33dc10066822cfc16629ff0", "rental_uris": {"ios": "https://dc.lft.to/lastmile_qr_scan", "android": "https://dc.lft.to/lastmile_qr_scan"}, "type": "electric_scooter", "fusion_lat": 0.0, "lon": -77.05474433333333}, {"fusion_lon": 0.0, "bike_id": "42476e2d14cc2f2c43cf30968aadef7a", "is_disabled": 0, "is_reserved": 0, "lat": 38.92499433333333, "name": "42476e2d14cc2f2c43cf30968aadef7a", "rental_uris": {"ios": "https://dc.lft.to/lastmile_qr_scan", "android": "https://dc.lft.to/lastmile_qr_scan"}, "type": "electric_scooter", "fusion_lat": 0.0, "lon": -77.04338183333333}, {"fusion_lon": 0.0, "bike_id": "07aff788d798dff4d0269190c27c8c1c", "is_disabled": 0, "is_reserved": 0, "lat": 38.91605883333333, "name": "07aff788d798dff4d0269190c27c8c1c", "rental_uris": {"ios": "https://dc.lft.to/lastmile_qr_scan", "android": "https://dc.lft.to/lastmile_qr_scan"}, "type": "electric_scooter", "fusion_lat": 0.0, "lon": -77.02304733333334}, {"fusion_lon": 0.0, "bike_id": "2a357c67dbf1f91eaeeada7069af6ad7", "is_disabled": 0, "is_reserved": 0, "lat": 38.99858783333333, "name": "2a357c67dbf1f91eaeeada7069af6ad7", "rental_uris": {"ios": "https://dc.lft.to/lastmile_qr_scan", "android": "https://dc.lft.to/lastmile_qr_scan"}, "type": "electric_bike", "fusion_lat": 0.0, "lon": -77.00386166666667}, {"fusion_lon": 0.0, "bike_id": "49b82579dc432d94caa9a0b56bc7a57b", "is_disabled": 0, "is_reserved": 0, "lat": 38.9028115, "name": "49b82579dc432d94caa9a0b56bc7a57b", "rental_uris": {"ios": "https://dc.lft.to/lastmile_qr_scan", "android": "https://dc.lft.to/lastmile_qr_scan"}, "type": "electric_scooter", "fusion_lat": 0.0, "lon": -77.032214}, {"fusion_lon": 0.0, "bike_id": "ca7bcce2a76ada3a34c9bf28f79eeb7e", "is_disabled": 0, "is_reserved": 0, "lat": 38.92112516666667, "name": "ca7bcce2a76ada3a34c9bf28f79eeb7e", "rental_uris": {"ios": "https://dc.lft.to/lastmile_qr_scan", "android": "https://dc.lft.to/lastmile_qr_scan"}, "type": "electric_scooter", "fusion_lat": 0.0, "lon": -77.03647633333334}, {"fusion_lon": 0.0, "bike_id": "5bdf1d5511ed53ca15a95a73e539a44d", "is_disabled": 0, "is_reserved": 0, "lat": 38.91156933333333, "name": "5bdf1d5511ed53ca15a95a73e539a44d", "rental_uris": {"ios": "https://dc.lft.to/lastmile_qr_scan", "android": "https://dc.lft.to/lastmile_qr_scan"}, "type": "electric_scooter", "fusion_lat": 0.0, "lon": -77.01990133333334}, {"fusion_lon": 0.0, "bike_id": "4c22a04da98b12591c37e63aba299d8f", "is_disabled": 0, "is_reserved": 0, "lat": 38.91002566666667, "name": "4c22a04da98b12591c37e63aba299d8f", "rental_uris": {"ios": "https://dc.lft.to/lastmile_qr_scan", "android": "https://dc.lft.to/lastmile_qr_scan"}, "type": "electric_scooter", "fusion_lat": 0.0, "lon": -77.07335716666667}, {"fusion_lon": 0.0, "bike_id": "df9e679e6085084906ee98df780f4fb7", "is_disabled": 0, "is_reserved": 0, "lat": 38.899159, "name": "df9e679e6085084906ee98df780f4fb7", "rental_uris": {"ios": "https://dc.lft.to/lastmile_qr_scan", "android": "https://dc.lft.to/lastmile_qr_scan"}, "type": "electric_scooter", "fusion_lat": 0.0, "lon": -77.033789}, {"fusion_lon": 0.0, "bike_id": "4ed03501359889173821c30aeafa0ccb", "is_disabled": 0, "is_reserved": 0, "lat": 38.903989833333334, "name": "4ed03501359889173821c30aeafa0ccb", "rental_uris": {"ios": "https://dc.lft.to/lastmile_qr_scan", "android": "https://dc.lft.to/lastmile_qr_scan"}, "type": "electric_scooter", "fusion_lat": 0.0, "lon": -77.04069716666666}, {"fusion_lon": 0.0, "bike_id": "27b698cc3ee3a361d3b5c547c7bdb2fe", "is_disabled": 0, "is_reserved": 0, "lat": 38.9216575, "name": "27b698cc3ee3a361d3b5c547c7bdb2fe", "rental_uris": {"ios": "https://dc.lft.to/lastmile_qr_scan", "android": "https://dc.lft.to/lastmile_qr_scan"}, "type": "electric_scooter", "fusion_lat": 0.0, "lon": -77.02664966666667}, {"fusion_lon": 0.0, "bike_id": "c94b771c93e46f818cb19cc3d3fbc68e", "is_disabled": 0, "is_reserved": 0, "lat": 38.91338916666667, "name": "c94b771c93e46f818cb19cc3d3fbc68e", "rental_uris": {"ios": "https://dc.lft.to/lastmile_qr_scan", "android": "https://dc.lft.to/lastmile_qr_scan"}, "type": "electric_scooter", "fusion_lat": 0.0, "lon": -77.02580916666666}, {"fusion_lon": 0.0, "bike_id": "ccf4618b8728473918636cd88697fa42", "is_disabled": 0, "is_reserved": 0, "lat": 38.8921445, "name": "ccf4618b8728473918636cd88697fa42", "rental_uris": {"ios": "https://dc.lft.to/lastmile_qr_scan", "android": "https://dc.lft.to/lastmile_qr_scan"}, "type": "electric_scooter", "fusion_lat": 0.0, "lon": -77.02542433333333}, {"fusion_lon": 0.0, "bike_id": "8d894794565339c87f5b370651dd29a3", "is_disabled": 0, "is_reserved": 0, "lat": 38.923619, "name": "8d894794565339c87f5b370651dd29a3", "rental_uris": {"ios": "https://dc.lft.to/lastmile_qr_scan", "android": "https://dc.lft.to/lastmile_qr_scan"}, "type": "electric_scooter", "fusion_lat": 0.0, "lon": -77.01962216666666}, {"fusion_lon": 0.0, "bike_id": "56535a074eef02b0a3b0e9d5eee28036", "is_disabled": 0, "is_reserved": 0, "lat": 38.905314, "name": "56535a074eef02b0a3b0e9d5eee28036", "rental_uris": {"ios": "https://dc.lft.to/lastmile_qr_scan", "android": "https://dc.lft.to/lastmile_qr_scan"}, "type": "electric_scooter", "fusion_lat": 0.0, "lon": -76.986432}, {"fusion_lon": 0.0, "bike_id": "f510b26b4c1112784358f548dd1ebc68", "is_disabled": 0, "is_reserved": 0, "lat": 38.9070605, "name": "f510b26b4c1112784358f548dd1ebc68", "rental_uris": {"ios": "https://dc.lft.to/lastmile_qr_scan", "android": "https://dc.lft.to/lastmile_qr_scan"}, "type": "electric_scooter", "fusion_lat": 0.0, "lon": -77.03197083333333}, {"fusion_lon": 0.0, "bike_id": "4cf5c624afa980c386e4d7188ab116bf", "is_disabled": 0, "is_reserved": 0, "lat": 38.9094685, "name": "4cf5c624afa980c386e4d7188ab116bf", "rental_uris": {"ios": "https://dc.lft.to/lastmile_qr_scan", "android": "https://dc.lft.to/lastmile_qr_scan"}, "type": "electric_scooter", "fusion_lat": 0.0, "lon": -76.935921}, {"fusion_lon": 0.0, "bike_id": "3b4e35a60aed8d130642e59dab1ccad8", "is_disabled": 0, "is_reserved": 0, "lat": 38.91447466666666, "name": "3b4e35a60aed8d130642e59dab1ccad8", "rental_uris": {"ios": "https://dc.lft.to/lastmile_qr_scan", "android": "https://dc.lft.to/lastmile_qr_scan"}, "type": "electric_scooter", "fusion_lat": 0.0, "lon": -77.0218265}, {"fusion_lon": 0.0, "bike_id": "1d3b4df5b10a5bee2eecc54063b5a39e", "is_disabled": 0, "is_reserved": 0, "lat": 38.92964633333333, "name": "1d3b4df5b10a5bee2eecc54063b5a39e", "rental_uris": {"ios": "https://dc.lft.to/lastmile_qr_scan", "android": "https://dc.lft.to/lastmile_qr_scan"}, "type": "electric_scooter", "fusion_lat": 0.0, "lon": -77.0318135}, {"fusion_lon": 0.0, "bike_id": "9fd6fc946279d19ba6b049eff8260d75", "is_disabled": 0, "is_reserved": 0, "lat": 38.9113425, "name": "9fd6fc946279d19ba6b049eff8260d75", "rental_uris": {"ios": "https://dc.lft.to/lastmile_qr_scan", "android": "https://dc.lft.to/lastmile_qr_scan"}, "type": "electric_bike", "fusion_lat": 0.0, "lon": -77.06576033333333}, {"fusion_lon": 0.0, "bike_id": "ee73e908336ad2b466ecbce72fd13467", "is_disabled": 0, "is_reserved": 0, "lat": 38.90955233333333, "name": "ee73e908336ad2b466ecbce72fd13467", "rental_uris": {"ios": "https://dc.lft.to/lastmile_qr_scan", "android": "https://dc.lft.to/lastmile_qr_scan"}, "type": "electric_scooter", "fusion_lat": 0.0, "lon": -77.02799466666667}, {"fusion_lon": 0.0, "bike_id": "97cdcfebf62af512649e6bdd83097fea", "is_disabled": 0, "is_reserved": 0, "lat": 38.90804516666667, "name": "97cdcfebf62af512649e6bdd83097fea", "rental_uris": {"ios": "https://dc.lft.to/lastmile_qr_scan", "android": "https://dc.lft.to/lastmile_qr_scan"}, "type": "electric_scooter", "fusion_lat": 0.0, "lon": -77.06365}, {"fusion_lon": 0.0, "bike_id": "83ebaa96b3da69a4424a856a3d43b736", "is_disabled": 0, "is_reserved": 0, "lat": 38.92254066666667, "name": "83ebaa96b3da69a4424a856a3d43b736", "rental_uris": {"ios": "https://dc.lft.to/lastmile_qr_scan", "android": "https://dc.lft.to/lastmile_qr_scan"}, "type": "electric_scooter", "fusion_lat": 0.0, "lon": -77.04290133333333}, {"fusion_lon": 0.0, "bike_id": "a78ecd88ee5b59d9ad55ba7f0518c981", "is_disabled": 0, "is_reserved": 0, "lat": 38.91572766666667, "name": "a78ecd88ee5b59d9ad55ba7f0518c981", "rental_uris": {"ios": "https://dc.lft.to/lastmile_qr_scan", "android": "https://dc.lft.to/lastmile_qr_scan"}, "type": "electric_scooter", "fusion_lat": 0.0, "lon": -77.0318885}, {"fusion_lon": 0.0, "bike_id": "7bff18568e18a850297c07d8dcb31845", "is_disabled": 0, "is_reserved": 0, "lat": 39.084272666666664, "name": "7bff18568e18a850297c07d8dcb31845", "rental_uris": {"ios": "https://dc.lft.to/lastmile_qr_scan", "android": "https://dc.lft.to/lastmile_qr_scan"}, "type": "electric_bike", "fusion_lat": 0.0, "lon": -76.951373}, {"fusion_lon": 0.0, "bike_id": "0210d33d12f6f362b4eaa70898328efd", "is_disabled": 0, "is_reserved": 0, "lat": 38.90462183333333, "name": "0210d33d12f6f362b4eaa70898328efd", "rental_uris": {"ios": "https://dc.lft.to/lastmile_qr_scan", "android": "https://dc.lft.to/lastmile_qr_scan"}, "type": "electric_scooter", "fusion_lat": 0.0, "lon": -77.01673883333333}, {"fusion_lon": 0.0, "bike_id": "1638f0a02dbc907a7ddfee4b40036b2a", "is_disabled": 0, "is_reserved": 0, "lat": 38.9199355, "name": "1638f0a02dbc907a7ddfee4b40036b2a", "rental_uris": {"ios": "https://dc.lft.to/lastmile_qr_scan", "android": "https://dc.lft.to/lastmile_qr_scan"}, "type": "electric_scooter", "fusion_lat": 0.0, "lon": -77.0217015}, {"fusion_lon": 0.0, "bike_id": "f3d04a51f20b72c34f2b0670d0af0a93", "is_disabled": 0, "is_reserved": 0, "lat": 38.902661, "name": "f3d04a51f20b72c34f2b0670d0af0a93", "rental_uris": {"ios": "https://dc.lft.to/lastmile_qr_scan", "android": "https://dc.lft.to/lastmile_qr_scan"}, "type": "electric_scooter", "fusion_lat": 0.0, "lon": -77.04016433333334}, {"fusion_lon": 0.0, "bike_id": "b9be6187d3af7a38549d1a17345e5b98", "is_disabled": 0, "is_reserved": 0, "lat": 38.93162733333333, "name": "b9be6187d3af7a38549d1a17345e5b98", "rental_uris": {"ios": "https://dc.lft.to/lastmile_qr_scan", "android": "https://dc.lft.to/lastmile_qr_scan"}, "type": "electric_scooter", "fusion_lat": 0.0, "lon": -77.05610666666666}, {"fusion_lon": 0.0, "bike_id": "438407c20052347ee7ac729e2878943d", "is_disabled": 0, "is_reserved": 0, "lat": 38.9206445, "name": "438407c20052347ee7ac729e2878943d", "rental_uris": {"ios": "https://dc.lft.to/lastmile_qr_scan", "android": "https://dc.lft.to/lastmile_qr_scan"}, "type": "electric_scooter", "fusion_lat": 0.0, "lon": -77.0788915}, {"fusion_lon": 0.0, "bike_id": "ef86b4b4ff80d4f6bc1059ba59031775", "is_disabled": 0, "is_reserved": 0, "lat": 38.89963133333333, "name": "ef86b4b4ff80d4f6bc1059ba59031775", "rental_uris": {"ios": "https://dc.lft.to/lastmile_qr_scan", "android": "https://dc.lft.to/lastmile_qr_scan"}, "type": "electric_scooter", "fusion_lat": 0.0, "lon": -77.02640716666667}, {"fusion_lon": 0.0, "bike_id": "691118a2d3bfd0f9db225d6b32fcbca4", "is_disabled": 0, "is_reserved": 0, "lat": 38.92575716666666, "name": "691118a2d3bfd0f9db225d6b32fcbca4", "rental_uris": {"ios": "https://dc.lft.to/lastmile_qr_scan", "android": "https://dc.lft.to/lastmile_qr_scan"}, "type": "electric_scooter", "fusion_lat": 0.0, "lon": -77.03795}, {"fusion_lon": 0.0, "bike_id": "b319dd307435c59175e55a40179f954c", "is_disabled": 0, "is_reserved": 0, "lat": 38.92312883333334, "name": "b319dd307435c59175e55a40179f954c", "rental_uris": {"ios": "https://dc.lft.to/lastmile_qr_scan", "android": "https://dc.lft.to/lastmile_qr_scan"}, "type": "electric_scooter", "fusion_lat": 0.0, "lon": -77.02898683333333}, {"fusion_lon": 0.0, "bike_id": "0d938ccbbb9c03bc86fa030514aef5c1", "is_disabled": 0, "is_reserved": 0, "lat": 38.93089716666667, "name": "0d938ccbbb9c03bc86fa030514aef5c1", "rental_uris": {"ios": "https://dc.lft.to/lastmile_qr_scan", "android": "https://dc.lft.to/lastmile_qr_scan"}, "type": "electric_scooter", "fusion_lat": 0.0, "lon": -77.02552166666666}, {"fusion_lon": 0.0, "bike_id": "e36d77a4d5d5938f3ae7ce11df7cd726", "is_disabled": 0, "is_reserved": 0, "lat": 38.923687, "name": "e36d77a4d5d5938f3ae7ce11df7cd726", "rental_uris": {"ios": "https://dc.lft.to/lastmile_qr_scan", "android": "https://dc.lft.to/lastmile_qr_scan"}, "type": "electric_scooter", "fusion_lat": 0.0, "lon": -77.02138566666666}, {"fusion_lon": 0.0, "bike_id": "c10ae2bfc3d03384eddb6d7f2e1c2416", "is_disabled": 0, "is_reserved": 0, "lat": 38.91268566666667, "name": "c10ae2bfc3d03384eddb6d7f2e1c2416", "rental_uris": {"ios": "https://dc.lft.to/lastmile_qr_scan", "android": "https://dc.lft.to/lastmile_qr_scan"}, "type": "electric_scooter", "fusion_lat": 0.0, "lon": -77.02227066666667}, {"fusion_lon": 0.0, "bike_id": "bc864af06ba73601398730103e732546", "is_disabled": 0, "is_reserved": 0, "lat": 38.914283, "name": "bc864af06ba73601398730103e732546", "rental_uris": {"ios": "https://dc.lft.to/lastmile_qr_scan", "android": "https://dc.lft.to/lastmile_qr_scan"}, "type": "electric_scooter", "fusion_lat": 0.0, "lon": -77.03208883333333}, {"fusion_lon": 0.0, "bike_id": "0b48ba4f67014b07318069151f2ba56d", "is_disabled": 0, "is_reserved": 0, "lat": 39.03473, "name": "0b48ba4f67014b07318069151f2ba56d", "rental_uris": {"ios": "https://dc.lft.to/lastmile_qr_scan", "android": "https://dc.lft.to/lastmile_qr_scan"}, "type": "electric_bike", "fusion_lat": 0.0, "lon": -77.04101316666667}, {"fusion_lon": 0.0, "bike_id": "c71b142c60f5c7bd648b30394be5b1da", "is_disabled": 0, "is_reserved": 0, "lat": 38.92740716666667, "name": "c71b142c60f5c7bd648b30394be5b1da", "rental_uris": {"ios": "https://dc.lft.to/lastmile_qr_scan", "android": "https://dc.lft.to/lastmile_qr_scan"}, "type": "electric_scooter", "fusion_lat": 0.0, "lon": -77.03556283333333}, {"fusion_lon": 0.0, "bike_id": "0aff619ad5112b1153d5012c1a4aca17", "is_disabled": 0, "is_reserved": 0, "lat": 38.90564083333334, "name": "0aff619ad5112b1153d5012c1a4aca17", "rental_uris": {"ios": "https://dc.lft.to/lastmile_qr_scan", "android": "https://dc.lft.to/lastmile_qr_scan"}, "type": "electric_scooter", "fusion_lat": 0.0, "lon": -77.02989416666667}, {"fusion_lon": 0.0, "bike_id": "e9db50068ba5358a4ea5ae0067a99129", "is_disabled": 0, "is_reserved": 0, "lat": 38.89510416666667, "name": "e9db50068ba5358a4ea5ae0067a99129", "rental_uris": {"ios": "https://dc.lft.to/lastmile_qr_scan", "android": "https://dc.lft.to/lastmile_qr_scan"}, "type": "electric_scooter", "fusion_lat": 0.0, "lon": -76.94889566666667}, {"fusion_lon": 0.0, "bike_id": "8515881f92b42c4bfbdc7f6344ded614", "is_disabled": 0, "is_reserved": 0, "lat": 38.874642333333334, "name": "8515881f92b42c4bfbdc7f6344ded614", "rental_uris": {"ios": "https://dc.lft.to/lastmile_qr_scan", "android": "https://dc.lft.to/lastmile_qr_scan"}, "type": "electric_scooter", "fusion_lat": 0.0, "lon": -77.00037166666667}, {"fusion_lon": 0.0, "bike_id": "50ed824eaaa02b4cb876a0d575f34ec5", "is_disabled": 0, "is_reserved": 0, "lat": 38.9021285, "name": "50ed824eaaa02b4cb876a0d575f34ec5", "rental_uris": {"ios": "https://dc.lft.to/lastmile_qr_scan", "android": "https://dc.lft.to/lastmile_qr_scan"}, "type": "electric_scooter", "fusion_lat": 0.0, "lon": -77.0511275}, {"fusion_lon": 0.0, "bike_id": "3116a0205d2a6e006ca6263ca461f713", "is_disabled": 0, "is_reserved": 0, "lat": 38.92061133333333, "name": "3116a0205d2a6e006ca6263ca461f713", "rental_uris": {"ios": "https://dc.lft.to/lastmile_qr_scan", "android": "https://dc.lft.to/lastmile_qr_scan"}, "type": "electric_scooter", "fusion_lat": 0.0, "lon": -77.041915}, {"fusion_lon": 0.0, "bike_id": "c4aed60f70edbfaad021cd1cf75dbd10", "is_disabled": 0, "is_reserved": 0, "lat": 38.90468966666667, "name": "c4aed60f70edbfaad021cd1cf75dbd10", "rental_uris": {"ios": "https://dc.lft.to/lastmile_qr_scan", "android": "https://dc.lft.to/lastmile_qr_scan"}, "type": "electric_scooter", "fusion_lat": 0.0, "lon": -77.030916}, {"fusion_lon": 0.0, "bike_id": "0f79741326b1f04b8d58917cc4384e86", "is_disabled": 0, "is_reserved": 0, "lat": 38.9080565, "name": "0f79741326b1f04b8d58917cc4384e86", "rental_uris": {"ios": "https://dc.lft.to/lastmile_qr_scan", "android": "https://dc.lft.to/lastmile_qr_scan"}, "type": "electric_scooter", "fusion_lat": 0.0, "lon": -77.04333733333333}, {"fusion_lon": 0.0, "bike_id": "86b90ca41af50a2f960e08a91e8c3ee1", "is_disabled": 0, "is_reserved": 0, "lat": 38.89924883333333, "name": "86b90ca41af50a2f960e08a91e8c3ee1", "rental_uris": {"ios": "https://dc.lft.to/lastmile_qr_scan", "android": "https://dc.lft.to/lastmile_qr_scan"}, "type": "electric_scooter", "fusion_lat": 0.0, "lon": -76.93737683333333}, {"fusion_lon": 0.0, "bike_id": "4e00add8e97a01809f12e66562691be7", "is_disabled": 0, "is_reserved": 0, "lat": 38.932081333333336, "name": "4e00add8e97a01809f12e66562691be7", "rental_uris": {"ios": "https://dc.lft.to/lastmile_qr_scan", "android": "https://dc.lft.to/lastmile_qr_scan"}, "type": "electric_scooter", "fusion_lat": 0.0, "lon": -77.026674}, {"fusion_lon": 0.0, "bike_id": "56a9345bfd72b34d9ecec3dfdac1b538", "is_disabled": 0, "is_reserved": 0, "lat": 38.9002785, "name": "56a9345bfd72b34d9ecec3dfdac1b538", "rental_uris": {"ios": "https://dc.lft.to/lastmile_qr_scan", "android": "https://dc.lft.to/lastmile_qr_scan"}, "type": "electric_scooter", "fusion_lat": 0.0, "lon": -77.00215716666666}, {"fusion_lon": 0.0, "bike_id": "127eef8ea2a92384e8b80678cceb4508", "is_disabled": 0, "is_reserved": 0, "lat": 38.8854835, "name": "127eef8ea2a92384e8b80678cceb4508", "rental_uris": {"ios": "https://dc.lft.to/lastmile_qr_scan", "android": "https://dc.lft.to/lastmile_qr_scan"}, "type": "electric_scooter", "fusion_lat": 0.0, "lon": -77.01997916666667}, {"fusion_lon": 0.0, "bike_id": "bed808907f5820699d6f1bbaf93d0ebd", "is_disabled": 0, "is_reserved": 0, "lat": 38.9114755, "name": "bed808907f5820699d6f1bbaf93d0ebd", "rental_uris": {"ios": "https://dc.lft.to/lastmile_qr_scan", "android": "https://dc.lft.to/lastmile_qr_scan"}, "type": "electric_scooter", "fusion_lat": 0.0, "lon": -76.98725633333333}, {"fusion_lon": 0.0, "bike_id": "a67fa9ee3f2f642cda927c8ad041d27c", "is_disabled": 0, "is_reserved": 0, "lat": 38.911850333333334, "name": "a67fa9ee3f2f642cda927c8ad041d27c", "rental_uris": {"ios": "https://dc.lft.to/lastmile_qr_scan", "android": "https://dc.lft.to/lastmile_qr_scan"}, "type": "electric_scooter", "fusion_lat": 0.0, "lon": -77.06613116666666}, {"fusion_lon": 0.0, "bike_id": "85e9f67d701a5713037ffd8860ea1ed4", "is_disabled": 0, "is_reserved": 0, "lat": 38.9141205, "name": "85e9f67d701a5713037ffd8860ea1ed4", "rental_uris": {"ios": "https://dc.lft.to/lastmile_qr_scan", "android": "https://dc.lft.to/lastmile_qr_scan"}, "type": "electric_scooter", "fusion_lat": 0.0, "lon": -77.06707766666666}, {"fusion_lon": 0.0, "bike_id": "ab3efb0db7481cd135c30f9e2eb28b06", "is_disabled": 0, "is_reserved": 0, "lat": 38.91468966666667, "name": "ab3efb0db7481cd135c30f9e2eb28b06", "rental_uris": {"ios": "https://dc.lft.to/lastmile_qr_scan", "android": "https://dc.lft.to/lastmile_qr_scan"}, "type": "electric_scooter", "fusion_lat": 0.0, "lon": -77.038839}, {"fusion_lon": 0.0, "bike_id": "e1468ab728f548825cf92ca9b9e54b2b", "is_disabled": 0, "is_reserved": 0, "lat": 38.921012166666664, "name": "e1468ab728f548825cf92ca9b9e54b2b", "rental_uris": {"ios": "https://dc.lft.to/lastmile_qr_scan", "android": "https://dc.lft.to/lastmile_qr_scan"}, "type": "electric_scooter", "fusion_lat": 0.0, "lon": -77.04687883333334}, {"fusion_lon": 0.0, "bike_id": "b631e103ec01324a275bca24f574adda", "is_disabled": 0, "is_reserved": 0, "lat": 38.90809933333333, "name": "b631e103ec01324a275bca24f574adda", "rental_uris": {"ios": "https://dc.lft.to/lastmile_qr_scan", "android": "https://dc.lft.to/lastmile_qr_scan"}, "type": "electric_scooter", "fusion_lat": 0.0, "lon": -77.02941083333333}, {"fusion_lon": 0.0, "bike_id": "74aa452713ec67a240ec024988a80813", "is_disabled": 0, "is_reserved": 0, "lat": 38.908310166666666, "name": "74aa452713ec67a240ec024988a80813", "rental_uris": {"ios": "https://dc.lft.to/lastmile_qr_scan", "android": "https://dc.lft.to/lastmile_qr_scan"}, "type": "electric_scooter", "fusion_lat": 0.0, "lon": -76.99188516666666}, {"fusion_lon": 0.0, "bike_id": "3e773b87533ab6f748245a6aba1af7f7", "is_disabled": 0, "is_reserved": 0, "lat": 38.9989755, "name": "3e773b87533ab6f748245a6aba1af7f7", "rental_uris": {"ios": "https://dc.lft.to/lastmile_qr_scan", "android": "https://dc.lft.to/lastmile_qr_scan"}, "type": "electric_bike", "fusion_lat": 0.0, "lon": -76.910799}, {"fusion_lon": 0.0, "bike_id": "5963d4a4d2dacc875bf5f984dc25224c", "is_disabled": 0, "is_reserved": 0, "lat": 38.90507683333333, "name": "5963d4a4d2dacc875bf5f984dc25224c", "rental_uris": {"ios": "https://dc.lft.to/lastmile_qr_scan", "android": "https://dc.lft.to/lastmile_qr_scan"}, "type": "electric_scooter", "fusion_lat": 0.0, "lon": -77.05140133333333}, {"fusion_lon": 0.0, "bike_id": "8193d582ee2fee097b951fe2d14d1e29", "is_disabled": 0, "is_reserved": 0, "lat": 38.92126183333333, "name": "8193d582ee2fee097b951fe2d14d1e29", "rental_uris": {"ios": "https://dc.lft.to/lastmile_qr_scan", "android": "https://dc.lft.to/lastmile_qr_scan"}, "type": "electric_scooter", "fusion_lat": 0.0, "lon": -77.0177275}, {"fusion_lon": 0.0, "bike_id": "2f82e05db67f7484b85398ec1cdd52fd", "is_disabled": 0, "is_reserved": 0, "lat": 38.9415035, "name": "2f82e05db67f7484b85398ec1cdd52fd", "rental_uris": {"ios": "https://dc.lft.to/lastmile_qr_scan", "android": "https://dc.lft.to/lastmile_qr_scan"}, "type": "electric_bike", "fusion_lat": 0.0, "lon": -77.001972}, {"fusion_lon": 0.0, "bike_id": "4111aa1bd11071264c2152d23bf7c26b", "is_disabled": 0, "is_reserved": 0, "lat": 38.92412566666667, "name": "4111aa1bd11071264c2152d23bf7c26b", "rental_uris": {"ios": "https://dc.lft.to/lastmile_qr_scan", "android": "https://dc.lft.to/lastmile_qr_scan"}, "type": "electric_scooter", "fusion_lat": 0.0, "lon": -77.02128466666667}, {"fusion_lon": 0.0, "bike_id": "357a4ef3b7fbc9c3efb630b9c6247d6a", "is_disabled": 0, "is_reserved": 0, "lat": 38.9154065, "name": "357a4ef3b7fbc9c3efb630b9c6247d6a", "rental_uris": {"ios": "https://dc.lft.to/lastmile_qr_scan", "android": "https://dc.lft.to/lastmile_qr_scan"}, "type": "electric_scooter", "fusion_lat": 0.0, "lon": -77.07548166666666}, {"fusion_lon": 0.0, "bike_id": "16368ed7f04061f16da1d416910b764e", "is_disabled": 0, "is_reserved": 0, "lat": 38.890147166666665, "name": "16368ed7f04061f16da1d416910b764e", "rental_uris": {"ios": "https://dc.lft.to/lastmile_qr_scan", "android": "https://dc.lft.to/lastmile_qr_scan"}, "type": "electric_scooter", "fusion_lat": 0.0, "lon": -76.937474}, {"fusion_lon": 0.0, "bike_id": "6802fb060c465d726b3a9e78e3ba5168", "is_disabled": 0, "is_reserved": 0, "lat": 38.852444, "name": "6802fb060c465d726b3a9e78e3ba5168", "rental_uris": {"ios": "https://dc.lft.to/lastmile_qr_scan", "android": "https://dc.lft.to/lastmile_qr_scan"}, "type": "electric_bike", "fusion_lat": 0.0, "lon": -77.11412733333333}, {"fusion_lon": 0.0, "bike_id": "c175a9521a3e3f6fa40c4dff7a4b31cf", "is_disabled": 0, "is_reserved": 0, "lat": 38.91567333333333, "name": "c175a9521a3e3f6fa40c4dff7a4b31cf", "rental_uris": {"ios": "https://dc.lft.to/lastmile_qr_scan", "android": "https://dc.lft.to/lastmile_qr_scan"}, "type": "electric_scooter", "fusion_lat": 0.0, "lon": -77.021855}, {"fusion_lon": 0.0, "bike_id": "3e3435e413bb50647d7ad59c130a476a", "is_disabled": 0, "is_reserved": 0, "lat": 38.92715533333333, "name": "3e3435e413bb50647d7ad59c130a476a", "rental_uris": {"ios": "https://dc.lft.to/lastmile_qr_scan", "android": "https://dc.lft.to/lastmile_qr_scan"}, "type": "electric_scooter", "fusion_lat": 0.0, "lon": -77.02283}, {"fusion_lon": 0.0, "bike_id": "72d94a8cb1a45be75f6d0d24e6770a51", "is_disabled": 0, "is_reserved": 0, "lat": 38.878829833333334, "name": "72d94a8cb1a45be75f6d0d24e6770a51", "rental_uris": {"ios": "https://dc.lft.to/lastmile_qr_scan", "android": "https://dc.lft.to/lastmile_qr_scan"}, "type": "electric_scooter", "fusion_lat": 0.0, "lon": -77.022825}, {"fusion_lon": 0.0, "bike_id": "c9076446ce08c62317f8a0436ac6793b", "is_disabled": 0, "is_reserved": 0, "lat": 38.9175175, "name": "c9076446ce08c62317f8a0436ac6793b", "rental_uris": {"ios": "https://dc.lft.to/lastmile_qr_scan", "android": "https://dc.lft.to/lastmile_qr_scan"}, "type": "electric_scooter", "fusion_lat": 0.0, "lon": -77.04155883333334}, {"fusion_lon": 0.0, "bike_id": "f5c5b2eab7150a7f077c506b1b297da9", "is_disabled": 0, "is_reserved": 0, "lat": 38.903982, "name": "f5c5b2eab7150a7f077c506b1b297da9", "rental_uris": {"ios": "https://dc.lft.to/lastmile_qr_scan", "android": "https://dc.lft.to/lastmile_qr_scan"}, "type": "electric_scooter", "fusion_lat": 0.0, "lon": -77.004263}, {"fusion_lon": 0.0, "bike_id": "496176b8da887e045c2622ca5aa1bcf9", "is_disabled": 0, "is_reserved": 0, "lat": 38.92199166666666, "name": "496176b8da887e045c2622ca5aa1bcf9", "rental_uris": {"ios": "https://dc.lft.to/lastmile_qr_scan", "android": "https://dc.lft.to/lastmile_qr_scan"}, "type": "electric_scooter", "fusion_lat": 0.0, "lon": -77.01847166666667}, {"fusion_lon": 0.0, "bike_id": "d896fced16a48a82d9db0b795775001d", "is_disabled": 0, "is_reserved": 0, "lat": 38.902678, "name": "d896fced16a48a82d9db0b795775001d", "rental_uris": {"ios": "https://dc.lft.to/lastmile_qr_scan", "android": "https://dc.lft.to/lastmile_qr_scan"}, "type": "electric_scooter", "fusion_lat": 0.0, "lon": -77.00324916666666}, {"fusion_lon": 0.0, "bike_id": "aa6e05c741e61992d8f5566bd1fd91b8", "is_disabled": 0, "is_reserved": 0, "lat": 39.006438, "name": "aa6e05c741e61992d8f5566bd1fd91b8", "rental_uris": {"ios": "https://dc.lft.to/lastmile_qr_scan", "android": "https://dc.lft.to/lastmile_qr_scan"}, "type": "electric_bike", "fusion_lat": 0.0, "lon": -76.90021516666667}, {"fusion_lon": 0.0, "bike_id": "1e4635ce7c0b22e0123edc1c47d9368e", "is_disabled": 0, "is_reserved": 0, "lat": 38.9388355, "name": "1e4635ce7c0b22e0123edc1c47d9368e", "rental_uris": {"ios": "https://dc.lft.to/lastmile_qr_scan", "android": "https://dc.lft.to/lastmile_qr_scan"}, "type": "electric_scooter", "fusion_lat": 0.0, "lon": -77.02472933333334}, {"fusion_lon": 0.0, "bike_id": "8f1d1395cd0df5766c11880a4825284c", "is_disabled": 0, "is_reserved": 0, "lat": 38.876273833333336, "name": "8f1d1395cd0df5766c11880a4825284c", "rental_uris": {"ios": "https://dc.lft.to/lastmile_qr_scan", "android": "https://dc.lft.to/lastmile_qr_scan"}, "type": "electric_scooter", "fusion_lat": 0.0, "lon": -77.00668266666666}, {"fusion_lon": 0.0, "bike_id": "c229dc07cfc2c1cfe5dac43b8582f10c", "is_disabled": 0, "is_reserved": 0, "lat": 38.92416633333333, "name": "c229dc07cfc2c1cfe5dac43b8582f10c", "rental_uris": {"ios": "https://dc.lft.to/lastmile_qr_scan", "android": "https://dc.lft.to/lastmile_qr_scan"}, "type": "electric_scooter", "fusion_lat": 0.0, "lon": -77.02130283333334}, {"fusion_lon": 0.0, "bike_id": "f57fe686fafb11c88709848d3488b310", "is_disabled": 0, "is_reserved": 0, "lat": 38.915196333333334, "name": "f57fe686fafb11c88709848d3488b310", "rental_uris": {"ios": "https://dc.lft.to/lastmile_qr_scan", "android": "https://dc.lft.to/lastmile_qr_scan"}, "type": "electric_scooter", "fusion_lat": 0.0, "lon": -77.012219}, {"fusion_lon": 0.0, "bike_id": "95768d2926063d799e0e4afbffde0614", "is_disabled": 0, "is_reserved": 0, "lat": 38.90832966666667, "name": "95768d2926063d799e0e4afbffde0614", "rental_uris": {"ios": "https://dc.lft.to/lastmile_qr_scan", "android": "https://dc.lft.to/lastmile_qr_scan"}, "type": "electric_scooter", "fusion_lat": 0.0, "lon": -76.93474533333334}, {"fusion_lon": 0.0, "bike_id": "9e60c9076c84261e84361265d788053c", "is_disabled": 0, "is_reserved": 0, "lat": 38.915531333333334, "name": "9e60c9076c84261e84361265d788053c", "rental_uris": {"ios": "https://dc.lft.to/lastmile_qr_scan", "android": "https://dc.lft.to/lastmile_qr_scan"}, "type": "electric_scooter", "fusion_lat": 0.0, "lon": -77.03171316666666}, {"fusion_lon": 0.0, "bike_id": "70bc0b30ef677d19bd0876c9a2b96403", "is_disabled": 0, "is_reserved": 0, "lat": 38.926154333333336, "name": "70bc0b30ef677d19bd0876c9a2b96403", "rental_uris": {"ios": "https://dc.lft.to/lastmile_qr_scan", "android": "https://dc.lft.to/lastmile_qr_scan"}, "type": "electric_scooter", "fusion_lat": 0.0, "lon": -77.02161816666667}, {"fusion_lon": 0.0, "bike_id": "aa0a977ea410b709533ec0a8fc3def59", "is_disabled": 0, "is_reserved": 0, "lat": 38.9210035, "name": "aa0a977ea410b709533ec0a8fc3def59", "rental_uris": {"ios": "https://dc.lft.to/lastmile_qr_scan", "android": "https://dc.lft.to/lastmile_qr_scan"}, "type": "electric_scooter", "fusion_lat": 0.0, "lon": -77.03929683333334}, {"fusion_lon": 0.0, "bike_id": "246f32a89cb9253106516827e6da6b1f", "is_disabled": 0, "is_reserved": 0, "lat": 38.887428, "name": "246f32a89cb9253106516827e6da6b1f", "rental_uris": {"ios": "https://dc.lft.to/lastmile_qr_scan", "android": "https://dc.lft.to/lastmile_qr_scan"}, "type": "electric_scooter", "fusion_lat": 0.0, "lon": -77.01707533333334}, {"fusion_lon": 0.0, "bike_id": "6c015f2bcf75baab46539fb895645755", "is_disabled": 0, "is_reserved": 0, "lat": 38.92597466666667, "name": "6c015f2bcf75baab46539fb895645755", "rental_uris": {"ios": "https://dc.lft.to/lastmile_qr_scan", "android": "https://dc.lft.to/lastmile_qr_scan"}, "type": "electric_scooter", "fusion_lat": 0.0, "lon": -77.03735416666666}, {"fusion_lon": 0.0, "bike_id": "9a074db004706e394b6df422165330ad", "is_disabled": 0, "is_reserved": 0, "lat": 38.91652083333334, "name": "9a074db004706e394b6df422165330ad", "rental_uris": {"ios": "https://dc.lft.to/lastmile_qr_scan", "android": "https://dc.lft.to/lastmile_qr_scan"}, "type": "electric_scooter", "fusion_lat": 0.0, "lon": -77.04737016666667}, {"fusion_lon": 0.0, "bike_id": "1e8e6356c431e73f133b6ebe0ea8d838", "is_disabled": 0, "is_reserved": 0, "lat": 38.9059955, "name": "1e8e6356c431e73f133b6ebe0ea8d838", "rental_uris": {"ios": "https://dc.lft.to/lastmile_qr_scan", "android": "https://dc.lft.to/lastmile_qr_scan"}, "type": "electric_scooter", "fusion_lat": 0.0, "lon": -77.0211335}, {"fusion_lon": 0.0, "bike_id": "1a43eb147d20dc683a1fa1974a443446", "is_disabled": 0, "is_reserved": 0, "lat": 38.886064166666664, "name": "1a43eb147d20dc683a1fa1974a443446", "rental_uris": {"ios": "https://dc.lft.to/lastmile_qr_scan", "android": "https://dc.lft.to/lastmile_qr_scan"}, "type": "electric_scooter", "fusion_lat": 0.0, "lon": -76.98547116666667}, {"fusion_lon": 0.0, "bike_id": "825a006a175d54e57c64b12033d9e642", "is_disabled": 0, "is_reserved": 0, "lat": 38.918088166666664, "name": "825a006a175d54e57c64b12033d9e642", "rental_uris": {"ios": "https://dc.lft.to/lastmile_qr_scan", "android": "https://dc.lft.to/lastmile_qr_scan"}, "type": "electric_scooter", "fusion_lat": 0.0, "lon": -77.03439066666667}, {"fusion_lon": 0.0, "bike_id": "3304d808d4f2b7cfe4bdf08e48624f59", "is_disabled": 0, "is_reserved": 0, "lat": 38.87842583333333, "name": "3304d808d4f2b7cfe4bdf08e48624f59", "rental_uris": {"ios": "https://dc.lft.to/lastmile_qr_scan", "android": "https://dc.lft.to/lastmile_qr_scan"}, "type": "electric_scooter", "fusion_lat": 0.0, "lon": -77.00501566666667}, {"fusion_lon": 0.0, "bike_id": "00d27d6a93c897c6fe548a8401517a0b", "is_disabled": 0, "is_reserved": 0, "lat": 38.861227, "name": "00d27d6a93c897c6fe548a8401517a0b", "rental_uris": {"ios": "https://dc.lft.to/lastmile_qr_scan", "android": "https://dc.lft.to/lastmile_qr_scan"}, "type": "electric_scooter", "fusion_lat": 0.0, "lon": -77.003215}, {"fusion_lon": 0.0, "bike_id": "2fddbe8a6c5ad65daf0b820b9e377977", "is_disabled": 0, "is_reserved": 0, "lat": 38.921521166666665, "name": "2fddbe8a6c5ad65daf0b820b9e377977", "rental_uris": {"ios": "https://dc.lft.to/lastmile_qr_scan", "android": "https://dc.lft.to/lastmile_qr_scan"}, "type": "electric_scooter", "fusion_lat": 0.0, "lon": -77.07241633333334}, {"fusion_lon": 0.0, "bike_id": "b19537ed93a92b282e3fa572002b50c5", "is_disabled": 0, "is_reserved": 0, "lat": 38.907175333333335, "name": "b19537ed93a92b282e3fa572002b50c5", "rental_uris": {"ios": "https://dc.lft.to/lastmile_qr_scan", "android": "https://dc.lft.to/lastmile_qr_scan"}, "type": "electric_scooter", "fusion_lat": 0.0, "lon": -76.99857483333334}, {"fusion_lon": 0.0, "bike_id": "b582ac9e151cc2c275bea7ad4e9a2562", "is_disabled": 0, "is_reserved": 0, "lat": 38.94075683333333, "name": "b582ac9e151cc2c275bea7ad4e9a2562", "rental_uris": {"ios": "https://dc.lft.to/lastmile_qr_scan", "android": "https://dc.lft.to/lastmile_qr_scan"}, "type": "electric_scooter", "fusion_lat": 0.0, "lon": -77.0211615}, {"fusion_lon": 0.0, "bike_id": "293834ddb613520188bd16728b05d4bb", "is_disabled": 0, "is_reserved": 0, "lat": 38.911522833333336, "name": "293834ddb613520188bd16728b05d4bb", "rental_uris": {"ios": "https://dc.lft.to/lastmile_qr_scan", "android": "https://dc.lft.to/lastmile_qr_scan"}, "type": "electric_scooter", "fusion_lat": 0.0, "lon": -77.02382666666666}, {"fusion_lon": 0.0, "bike_id": "5b1ae66a1ce65e8e54c15f9233c074b8", "is_disabled": 0, "is_reserved": 0, "lat": 38.87888133333333, "name": "5b1ae66a1ce65e8e54c15f9233c074b8", "rental_uris": {"ios": "https://dc.lft.to/lastmile_qr_scan", "android": "https://dc.lft.to/lastmile_qr_scan"}, "type": "electric_scooter", "fusion_lat": 0.0, "lon": -76.96543883333334}, {"fusion_lon": 0.0, "bike_id": "9fd62982e66832bc20d743cb58a938b4", "is_disabled": 0, "is_reserved": 0, "lat": 38.876902, "name": "9fd62982e66832bc20d743cb58a938b4", "rental_uris": {"ios": "https://dc.lft.to/lastmile_qr_scan", "android": "https://dc.lft.to/lastmile_qr_scan"}, "type": "electric_scooter", "fusion_lat": 0.0, "lon": -77.0075015}, {"fusion_lon": 0.0, "bike_id": "8de88cdcb44a96682889a5a2e1b31e83", "is_disabled": 0, "is_reserved": 0, "lat": 38.919291, "name": "8de88cdcb44a96682889a5a2e1b31e83", "rental_uris": {"ios": "https://dc.lft.to/lastmile_qr_scan", "android": "https://dc.lft.to/lastmile_qr_scan"}, "type": "electric_scooter", "fusion_lat": 0.0, "lon": -77.04629083333333}, {"fusion_lon": 0.0, "bike_id": "810ba363fdd9137b1c1ac46861ad7b71", "is_disabled": 0, "is_reserved": 0, "lat": 38.885243, "name": "810ba363fdd9137b1c1ac46861ad7b71", "rental_uris": {"ios": "https://dc.lft.to/lastmile_qr_scan", "android": "https://dc.lft.to/lastmile_qr_scan"}, "type": "electric_scooter", "fusion_lat": 0.0, "lon": -76.9770885}, {"fusion_lon": 0.0, "bike_id": "be0eac2114a10a01428ebdacdc17e887", "is_disabled": 0, "is_reserved": 0, "lat": 38.9223955, "name": "be0eac2114a10a01428ebdacdc17e887", "rental_uris": {"ios": "https://dc.lft.to/lastmile_qr_scan", "android": "https://dc.lft.to/lastmile_qr_scan"}, "type": "electric_scooter", "fusion_lat": 0.0, "lon": -77.03377333333333}, {"fusion_lon": 0.0, "bike_id": "aa27f3f754f0138a98ffbc400a56afd0", "is_disabled": 0, "is_reserved": 0, "lat": 38.923313666666665, "name": "aa27f3f754f0138a98ffbc400a56afd0", "rental_uris": {"ios": "https://dc.lft.to/lastmile_qr_scan", "android": "https://dc.lft.to/lastmile_qr_scan"}, "type": "electric_scooter", "fusion_lat": 0.0, "lon": -77.008931}, {"fusion_lon": 0.0, "bike_id": "1d5d291fa2666d05ff11c359031d288c", "is_disabled": 0, "is_reserved": 0, "lat": 38.879407666666665, "name": "1d5d291fa2666d05ff11c359031d288c", "rental_uris": {"ios": "https://dc.lft.to/lastmile_qr_scan", "android": "https://dc.lft.to/lastmile_qr_scan"}, "type": "electric_scooter", "fusion_lat": 0.0, "lon": -77.0100175}, {"fusion_lon": 0.0, "bike_id": "2f9ac65aa6918a2e4fcea553056fc586", "is_disabled": 0, "is_reserved": 0, "lat": 38.918494, "name": "2f9ac65aa6918a2e4fcea553056fc586", "rental_uris": {"ios": "https://dc.lft.to/lastmile_qr_scan", "android": "https://dc.lft.to/lastmile_qr_scan"}, "type": "electric_scooter", "fusion_lat": 0.0, "lon": -77.02538566666666}, {"fusion_lon": 0.0, "bike_id": "9443f2bbed6f34f1133226ea13c71cb8", "is_disabled": 0, "is_reserved": 0, "lat": 38.915791166666665, "name": "9443f2bbed6f34f1133226ea13c71cb8", "rental_uris": {"ios": "https://dc.lft.to/lastmile_qr_scan", "android": "https://dc.lft.to/lastmile_qr_scan"}, "type": "electric_scooter", "fusion_lat": 0.0, "lon": -77.03660283333333}, {"fusion_lon": 0.0, "bike_id": "962a69372f8956a4fcb624cfccb352d2", "is_disabled": 0, "is_reserved": 0, "lat": 38.90339816666667, "name": "962a69372f8956a4fcb624cfccb352d2", "rental_uris": {"ios": "https://dc.lft.to/lastmile_qr_scan", "android": "https://dc.lft.to/lastmile_qr_scan"}, "type": "electric_scooter", "fusion_lat": 0.0, "lon": -77.05006466666667}, {"fusion_lon": 0.0, "bike_id": "6559c0890d66215b4064c64b9a3498c7", "is_disabled": 0, "is_reserved": 0, "lat": 38.88486116666667, "name": "6559c0890d66215b4064c64b9a3498c7", "rental_uris": {"ios": "https://dc.lft.to/lastmile_qr_scan", "android": "https://dc.lft.to/lastmile_qr_scan"}, "type": "electric_scooter", "fusion_lat": 0.0, "lon": -77.0070775}, {"fusion_lon": 0.0, "bike_id": "c7f3b74accf98645b42c819c0d44f603", "is_disabled": 0, "is_reserved": 0, "lat": 38.898323, "name": "c7f3b74accf98645b42c819c0d44f603", "rental_uris": {"ios": "https://dc.lft.to/lastmile_qr_scan", "android": "https://dc.lft.to/lastmile_qr_scan"}, "type": "electric_scooter", "fusion_lat": 0.0, "lon": -76.9465005}, {"fusion_lon": 0.0, "bike_id": "4f6a5b44dc2d5ed12b33e1a5818ac1b9", "is_disabled": 0, "is_reserved": 0, "lat": 38.903853166666664, "name": "4f6a5b44dc2d5ed12b33e1a5818ac1b9", "rental_uris": {"ios": "https://dc.lft.to/lastmile_qr_scan", "android": "https://dc.lft.to/lastmile_qr_scan"}, "type": "electric_scooter", "fusion_lat": 0.0, "lon": -77.04187816666666}, {"fusion_lon": 0.0, "bike_id": "954e83b082de8611b66474c858da5487", "is_disabled": 0, "is_reserved": 0, "lat": 38.902293666666665, "name": "954e83b082de8611b66474c858da5487", "rental_uris": {"ios": "https://dc.lft.to/lastmile_qr_scan", "android": "https://dc.lft.to/lastmile_qr_scan"}, "type": "electric_scooter", "fusion_lat": 0.0, "lon": -77.05339}, {"fusion_lon": 0.0, "bike_id": "a6cd52ad1ec7b10a1bd70ac313cc9eb9", "is_disabled": 0, "is_reserved": 0, "lat": 38.91799733333333, "name": "a6cd52ad1ec7b10a1bd70ac313cc9eb9", "rental_uris": {"ios": "https://dc.lft.to/lastmile_qr_scan", "android": "https://dc.lft.to/lastmile_qr_scan"}, "type": "electric_scooter", "fusion_lat": 0.0, "lon": -77.02705116666667}, {"fusion_lon": 0.0, "bike_id": "ba4d2ea55539b8bc7807d9eb0532b8b6", "is_disabled": 0, "is_reserved": 0, "lat": 38.891537, "name": "ba4d2ea55539b8bc7807d9eb0532b8b6", "rental_uris": {"ios": "https://dc.lft.to/lastmile_qr_scan", "android": "https://dc.lft.to/lastmile_qr_scan"}, "type": "electric_scooter", "fusion_lat": 0.0, "lon": -76.98366533333333}, {"fusion_lon": 0.0, "bike_id": "cf14fb871ef678a8cb06eb23edb04a7c", "is_disabled": 0, "is_reserved": 0, "lat": 38.908502666666664, "name": "cf14fb871ef678a8cb06eb23edb04a7c", "rental_uris": {"ios": "https://dc.lft.to/lastmile_qr_scan", "android": "https://dc.lft.to/lastmile_qr_scan"}, "type": "electric_scooter", "fusion_lat": 0.0, "lon": -77.02291383333333}, {"fusion_lon": 0.0, "bike_id": "85c4c1d2624540f3d23a09c286807fd2", "is_disabled": 0, "is_reserved": 0, "lat": 38.94917816666667, "name": "85c4c1d2624540f3d23a09c286807fd2", "rental_uris": {"ios": "https://dc.lft.to/lastmile_qr_scan", "android": "https://dc.lft.to/lastmile_qr_scan"}, "type": "electric_scooter", "fusion_lat": 0.0, "lon": -77.01861166666667}, {"fusion_lon": 0.0, "bike_id": "6b2a29b5dda483cb1c18cbfd7abe8af7", "is_disabled": 0, "is_reserved": 0, "lat": 38.91348033333333, "name": "6b2a29b5dda483cb1c18cbfd7abe8af7", "rental_uris": {"ios": "https://dc.lft.to/lastmile_qr_scan", "android": "https://dc.lft.to/lastmile_qr_scan"}, "type": "electric_scooter", "fusion_lat": 0.0, "lon": -77.01225933333333}, {"fusion_lon": 0.0, "bike_id": "135e4558e6df39b04b7b74a4b706a6df", "is_disabled": 0, "is_reserved": 0, "lat": 38.924253, "name": "135e4558e6df39b04b7b74a4b706a6df", "rental_uris": {"ios": "https://dc.lft.to/lastmile_qr_scan", "android": "https://dc.lft.to/lastmile_qr_scan"}, "type": "electric_scooter", "fusion_lat": 0.0, "lon": -77.02120183333334}, {"fusion_lon": 0.0, "bike_id": "5dfee3719a5e78edfdde85e38eb3d158", "is_disabled": 0, "is_reserved": 0, "lat": 38.91067533333333, "name": "5dfee3719a5e78edfdde85e38eb3d158", "rental_uris": {"ios": "https://dc.lft.to/lastmile_qr_scan", "android": "https://dc.lft.to/lastmile_qr_scan"}, "type": "electric_scooter", "fusion_lat": 0.0, "lon": -77.01616166666666}, {"fusion_lon": 0.0, "bike_id": "2ffc2882b13e0f40b03c1e761a90aa2d", "is_disabled": 0, "is_reserved": 0, "lat": 38.9261345, "name": "2ffc2882b13e0f40b03c1e761a90aa2d", "rental_uris": {"ios": "https://dc.lft.to/lastmile_qr_scan", "android": "https://dc.lft.to/lastmile_qr_scan"}, "type": "electric_scooter", "fusion_lat": 0.0, "lon": -77.02159516666667}, {"fusion_lon": 0.0, "bike_id": "aeaa162adb43fe4a7ff8af2b29409c45", "is_disabled": 0, "is_reserved": 0, "lat": 38.901359166666666, "name": "aeaa162adb43fe4a7ff8af2b29409c45", "rental_uris": {"ios": "https://dc.lft.to/lastmile_qr_scan", "android": "https://dc.lft.to/lastmile_qr_scan"}, "type": "electric_scooter", "fusion_lat": 0.0, "lon": -77.017547}, {"fusion_lon": 0.0, "bike_id": "87a0675bed8929c7f96b82ebae671375", "is_disabled": 0, "is_reserved": 0, "lat": 38.9038155, "name": "87a0675bed8929c7f96b82ebae671375", "rental_uris": {"ios": "https://dc.lft.to/lastmile_qr_scan", "android": "https://dc.lft.to/lastmile_qr_scan"}, "type": "electric_scooter", "fusion_lat": 0.0, "lon": -77.05336733333333}, {"fusion_lon": 0.0, "bike_id": "f42d107f587372a83ca6253ef45f4d7d", "is_disabled": 0, "is_reserved": 0, "lat": 38.91676266666666, "name": "f42d107f587372a83ca6253ef45f4d7d", "rental_uris": {"ios": "https://dc.lft.to/lastmile_qr_scan", "android": "https://dc.lft.to/lastmile_qr_scan"}, "type": "electric_scooter", "fusion_lat": 0.0, "lon": -77.02398033333333}, {"fusion_lon": 0.0, "bike_id": "31a3e36425f1a2d9f0e8915a76fe96f1", "is_disabled": 0, "is_reserved": 0, "lat": 38.91851466666667, "name": "31a3e36425f1a2d9f0e8915a76fe96f1", "rental_uris": {"ios": "https://dc.lft.to/lastmile_qr_scan", "android": "https://dc.lft.to/lastmile_qr_scan"}, "type": "electric_scooter", "fusion_lat": 0.0, "lon": -77.02601233333333}, {"fusion_lon": 0.0, "bike_id": "bab7695785a99ed1046c654539b17fdf", "is_disabled": 0, "is_reserved": 0, "lat": 38.92011, "name": "bab7695785a99ed1046c654539b17fdf", "rental_uris": {"ios": "https://dc.lft.to/lastmile_qr_scan", "android": "https://dc.lft.to/lastmile_qr_scan"}, "type": "electric_scooter", "fusion_lat": 0.0, "lon": -77.07160316666666}, {"fusion_lon": 0.0, "bike_id": "1c2353a22a44bf178705072ad5f0f9ba", "is_disabled": 0, "is_reserved": 0, "lat": 38.91135883333333, "name": "1c2353a22a44bf178705072ad5f0f9ba", "rental_uris": {"ios": "https://dc.lft.to/lastmile_qr_scan", "android": "https://dc.lft.to/lastmile_qr_scan"}, "type": "electric_scooter", "fusion_lat": 0.0, "lon": -77.028013}, {"fusion_lon": 0.0, "bike_id": "43862bafd423fc40b97dcf0d4f681ebe", "is_disabled": 0, "is_reserved": 0, "lat": 38.909830666666664, "name": "43862bafd423fc40b97dcf0d4f681ebe", "rental_uris": {"ios": "https://dc.lft.to/lastmile_qr_scan", "android": "https://dc.lft.to/lastmile_qr_scan"}, "type": "electric_scooter", "fusion_lat": 0.0, "lon": -77.03379033333333}, {"fusion_lon": 0.0, "bike_id": "c1d6ddbd4e737a1cf147d0fc0afa1c07", "is_disabled": 0, "is_reserved": 0, "lat": 38.865504666666666, "name": "c1d6ddbd4e737a1cf147d0fc0afa1c07", "rental_uris": {"ios": "https://dc.lft.to/lastmile_qr_scan", "android": "https://dc.lft.to/lastmile_qr_scan"}, "type": "electric_bike", "fusion_lat": 0.0, "lon": -76.94154416666666}, {"fusion_lon": 0.0, "bike_id": "c74a05903b23bb47c5f5d35fb713156d", "is_disabled": 0, "is_reserved": 0, "lat": 38.91892, "name": "c74a05903b23bb47c5f5d35fb713156d", "rental_uris": {"ios": "https://dc.lft.to/lastmile_qr_scan", "android": "https://dc.lft.to/lastmile_qr_scan"}, "type": "electric_scooter", "fusion_lat": 0.0, "lon": -77.0412865}, {"fusion_lon": 0.0, "bike_id": "1dac76b79726d02faf17e5b53b8d7854", "is_disabled": 0, "is_reserved": 0, "lat": 38.9305965, "name": "1dac76b79726d02faf17e5b53b8d7854", "rental_uris": {"ios": "https://dc.lft.to/lastmile_qr_scan", "android": "https://dc.lft.to/lastmile_qr_scan"}, "type": "electric_scooter", "fusion_lat": 0.0, "lon": -77.02982383333334}, {"fusion_lon": 0.0, "bike_id": "f9c8f5c7b7b2f446cc7fcde06aa09318", "is_disabled": 0, "is_reserved": 0, "lat": 38.81327366666667, "name": "f9c8f5c7b7b2f446cc7fcde06aa09318", "rental_uris": {"ios": "https://dc.lft.to/lastmile_qr_scan", "android": "https://dc.lft.to/lastmile_qr_scan"}, "type": "electric_bike", "fusion_lat": 0.0, "lon": -77.05089383333333}, {"fusion_lon": 0.0, "bike_id": "9f11e4ca83e823917487b302eb91064b", "is_disabled": 0, "is_reserved": 0, "lat": 38.9308085, "name": "9f11e4ca83e823917487b302eb91064b", "rental_uris": {"ios": "https://dc.lft.to/lastmile_qr_scan", "android": "https://dc.lft.to/lastmile_qr_scan"}, "type": "electric_scooter", "fusion_lat": 0.0, "lon": -77.02794783333333}, {"fusion_lon": 0.0, "bike_id": "2c89e44b190a533a006791eb58a3ce6a", "is_disabled": 0, "is_reserved": 0, "lat": 38.9241285, "name": "2c89e44b190a533a006791eb58a3ce6a", "rental_uris": {"ios": "https://dc.lft.to/lastmile_qr_scan", "android": "https://dc.lft.to/lastmile_qr_scan"}, "type": "electric_scooter", "fusion_lat": 0.0, "lon": -77.02260966666667}, {"fusion_lon": 0.0, "bike_id": "6b9640d5c8f70bcdf7389bb53c50c06e", "is_disabled": 0, "is_reserved": 0, "lat": 38.9230345, "name": "6b9640d5c8f70bcdf7389bb53c50c06e", "rental_uris": {"ios": "https://dc.lft.to/lastmile_qr_scan", "android": "https://dc.lft.to/lastmile_qr_scan"}, "type": "electric_scooter", "fusion_lat": 0.0, "lon": -77.041654}, {"fusion_lon": 0.0, "bike_id": "a465aa8c2e41fbc1327d36735cb8c13f", "is_disabled": 0, "is_reserved": 0, "lat": 38.92646666666667, "name": "a465aa8c2e41fbc1327d36735cb8c13f", "rental_uris": {"ios": "https://dc.lft.to/lastmile_qr_scan", "android": "https://dc.lft.to/lastmile_qr_scan"}, "type": "electric_scooter", "fusion_lat": 0.0, "lon": -77.03302733333334}, {"fusion_lon": 0.0, "bike_id": "18ce6f8fb665aa8ba37cc42fb78b20b9", "is_disabled": 0, "is_reserved": 0, "lat": 38.90166516666667, "name": "18ce6f8fb665aa8ba37cc42fb78b20b9", "rental_uris": {"ios": "https://dc.lft.to/lastmile_qr_scan", "android": "https://dc.lft.to/lastmile_qr_scan"}, "type": "electric_scooter", "fusion_lat": 0.0, "lon": -77.04810816666667}, {"fusion_lon": 0.0, "bike_id": "7dc06349b7eaa54e538409c14551e946", "is_disabled": 0, "is_reserved": 0, "lat": 38.8791435, "name": "7dc06349b7eaa54e538409c14551e946", "rental_uris": {"ios": "https://dc.lft.to/lastmile_qr_scan", "android": "https://dc.lft.to/lastmile_qr_scan"}, "type": "electric_bike", "fusion_lat": 0.0, "lon": -77.01375883333333}, {"fusion_lon": 0.0, "bike_id": "af036a7846e0d2ef48fce1c514a73031", "is_disabled": 0, "is_reserved": 0, "lat": 38.896739833333335, "name": "af036a7846e0d2ef48fce1c514a73031", "rental_uris": {"ios": "https://dc.lft.to/lastmile_qr_scan", "android": "https://dc.lft.to/lastmile_qr_scan"}, "type": "electric_scooter", "fusion_lat": 0.0, "lon": -76.93208683333333}, {"fusion_lon": 0.0, "bike_id": "6b72eb4101f4ab62012d32d3035c40b4", "is_disabled": 0, "is_reserved": 0, "lat": 38.898799, "name": "6b72eb4101f4ab62012d32d3035c40b4", "rental_uris": {"ios": "https://dc.lft.to/lastmile_qr_scan", "android": "https://dc.lft.to/lastmile_qr_scan"}, "type": "electric_scooter", "fusion_lat": 0.0, "lon": -77.05296316666667}, {"fusion_lon": 0.0, "bike_id": "3cd90c1c0d2b606338e2217bcd458f9a", "is_disabled": 0, "is_reserved": 0, "lat": 38.908401, "name": "3cd90c1c0d2b606338e2217bcd458f9a", "rental_uris": {"ios": "https://dc.lft.to/lastmile_qr_scan", "android": "https://dc.lft.to/lastmile_qr_scan"}, "type": "electric_scooter", "fusion_lat": 0.0, "lon": -77.0039505}, {"fusion_lon": 0.0, "bike_id": "a4c319d20db451150ebc070114b491e1", "is_disabled": 0, "is_reserved": 0, "lat": 38.921117, "name": "a4c319d20db451150ebc070114b491e1", "rental_uris": {"ios": "https://dc.lft.to/lastmile_qr_scan", "android": "https://dc.lft.to/lastmile_qr_scan"}, "type": "electric_scooter", "fusion_lat": 0.0, "lon": -77.036468}, {"fusion_lon": 0.0, "bike_id": "7a00385fb146085315112cb2749ab1ad", "is_disabled": 0, "is_reserved": 0, "lat": 38.89825833333333, "name": "7a00385fb146085315112cb2749ab1ad", "rental_uris": {"ios": "https://dc.lft.to/lastmile_qr_scan", "android": "https://dc.lft.to/lastmile_qr_scan"}, "type": "electric_scooter", "fusion_lat": 0.0, "lon": -76.946538}, {"fusion_lon": 0.0, "bike_id": "15f5b24a8445dd706a04b32a16f86d9e", "is_disabled": 0, "is_reserved": 0, "lat": 38.92102083333333, "name": "15f5b24a8445dd706a04b32a16f86d9e", "rental_uris": {"ios": "https://dc.lft.to/lastmile_qr_scan", "android": "https://dc.lft.to/lastmile_qr_scan"}, "type": "electric_scooter", "fusion_lat": 0.0, "lon": -77.02108083333333}, {"fusion_lon": 0.0, "bike_id": "b36846fbea56ce8765132a9650f9b9bd", "is_disabled": 0, "is_reserved": 0, "lat": 38.874483166666664, "name": "b36846fbea56ce8765132a9650f9b9bd", "rental_uris": {"ios": "https://dc.lft.to/lastmile_qr_scan", "android": "https://dc.lft.to/lastmile_qr_scan"}, "type": "electric_scooter", "fusion_lat": 0.0, "lon": -77.00043433333333}, {"fusion_lon": 0.0, "bike_id": "b359edc27eba64c6f339ab52db70762b", "is_disabled": 0, "is_reserved": 0, "lat": 38.883556666666664, "name": "b359edc27eba64c6f339ab52db70762b", "rental_uris": {"ios": "https://dc.lft.to/lastmile_qr_scan", "android": "https://dc.lft.to/lastmile_qr_scan"}, "type": "electric_scooter", "fusion_lat": 0.0, "lon": -76.9576635}, {"fusion_lon": 0.0, "bike_id": "95a692dc6b9a4ba65cbfabc863003f7e", "is_disabled": 0, "is_reserved": 0, "lat": 38.90961816666667, "name": "95a692dc6b9a4ba65cbfabc863003f7e", "rental_uris": {"ios": "https://dc.lft.to/lastmile_qr_scan", "android": "https://dc.lft.to/lastmile_qr_scan"}, "type": "electric_scooter", "fusion_lat": 0.0, "lon": -77.033474}, {"fusion_lon": 0.0, "bike_id": "a81aeca30950b4dd887531a18db0b99f", "is_disabled": 0, "is_reserved": 0, "lat": 38.91192016666667, "name": "a81aeca30950b4dd887531a18db0b99f", "rental_uris": {"ios": "https://dc.lft.to/lastmile_qr_scan", "android": "https://dc.lft.to/lastmile_qr_scan"}, "type": "electric_scooter", "fusion_lat": 0.0, "lon": -77.0181465}, {"fusion_lon": 0.0, "bike_id": "38be230d9a25c9e7481c346580757a86", "is_disabled": 0, "is_reserved": 0, "lat": 38.9199435, "name": "38be230d9a25c9e7481c346580757a86", "rental_uris": {"ios": "https://dc.lft.to/lastmile_qr_scan", "android": "https://dc.lft.to/lastmile_qr_scan"}, "type": "electric_scooter", "fusion_lat": 0.0, "lon": -77.02168266666666}, {"fusion_lon": 0.0, "bike_id": "1bbf3b5998a7f04b90bbb18721932a9f", "is_disabled": 0, "is_reserved": 0, "lat": 38.836067, "name": "1bbf3b5998a7f04b90bbb18721932a9f", "rental_uris": {"ios": "https://dc.lft.to/lastmile_qr_scan", "android": "https://dc.lft.to/lastmile_qr_scan"}, "type": "electric_bike", "fusion_lat": 0.0, "lon": -77.00375083333333}, {"fusion_lon": 0.0, "bike_id": "93ef75ea3b82dc4e468a42e1ff456000", "is_disabled": 0, "is_reserved": 0, "lat": 38.90790833333333, "name": "93ef75ea3b82dc4e468a42e1ff456000", "rental_uris": {"ios": "https://dc.lft.to/lastmile_qr_scan", "android": "https://dc.lft.to/lastmile_qr_scan"}, "type": "electric_scooter", "fusion_lat": 0.0, "lon": -77.01079466666667}, {"fusion_lon": 0.0, "bike_id": "ee11194e2f0e9df4a4713ab76b902c8c", "is_disabled": 0, "is_reserved": 0, "lat": 38.9149015, "name": "ee11194e2f0e9df4a4713ab76b902c8c", "rental_uris": {"ios": "https://dc.lft.to/lastmile_qr_scan", "android": "https://dc.lft.to/lastmile_qr_scan"}, "type": "electric_scooter", "fusion_lat": 0.0, "lon": -77.02182283333333}, {"fusion_lon": 0.0, "bike_id": "035a437b64e98ec5ff6ba2cd993edaef", "is_disabled": 0, "is_reserved": 0, "lat": 38.90852433333333, "name": "035a437b64e98ec5ff6ba2cd993edaef", "rental_uris": {"ios": "https://dc.lft.to/lastmile_qr_scan", "android": "https://dc.lft.to/lastmile_qr_scan"}, "type": "electric_scooter", "fusion_lat": 0.0, "lon": -77.02387383333334}, {"fusion_lon": 0.0, "bike_id": "5a792bfdf470a7940dd6c819bb85ea62", "is_disabled": 0, "is_reserved": 0, "lat": 38.9201595, "name": "5a792bfdf470a7940dd6c819bb85ea62", "rental_uris": {"ios": "https://dc.lft.to/lastmile_qr_scan", "android": "https://dc.lft.to/lastmile_qr_scan"}, "type": "electric_scooter", "fusion_lat": 0.0, "lon": -77.04409616666666}, {"fusion_lon": 0.0, "bike_id": "fcb8103bda89f9fd03090be5e2f71519", "is_disabled": 0, "is_reserved": 0, "lat": 38.9170675, "name": "fcb8103bda89f9fd03090be5e2f71519", "rental_uris": {"ios": "https://dc.lft.to/lastmile_qr_scan", "android": "https://dc.lft.to/lastmile_qr_scan"}, "type": "electric_scooter", "fusion_lat": 0.0, "lon": -77.034669}, {"fusion_lon": 0.0, "bike_id": "b416c5fcb83478e60f38dffcacc54f7b", "is_disabled": 0, "is_reserved": 0, "lat": 38.95624566666667, "name": "b416c5fcb83478e60f38dffcacc54f7b", "rental_uris": {"ios": "https://dc.lft.to/lastmile_qr_scan", "android": "https://dc.lft.to/lastmile_qr_scan"}, "type": "electric_scooter", "fusion_lat": 0.0, "lon": -77.02430233333334}, {"fusion_lon": 0.0, "bike_id": "db2cc555e0dc866e48fa726498eb3c74", "is_disabled": 0, "is_reserved": 0, "lat": 38.96384066666667, "name": "db2cc555e0dc866e48fa726498eb3c74", "rental_uris": {"ios": "https://dc.lft.to/lastmile_qr_scan", "android": "https://dc.lft.to/lastmile_qr_scan"}, "type": "electric_scooter", "fusion_lat": 0.0, "lon": -77.0276835}, {"fusion_lon": 0.0, "bike_id": "3ae4167d8eacba06a951df5ec35b2b14", "is_disabled": 0, "is_reserved": 0, "lat": 38.91603033333333, "name": "3ae4167d8eacba06a951df5ec35b2b14", "rental_uris": {"ios": "https://dc.lft.to/lastmile_qr_scan", "android": "https://dc.lft.to/lastmile_qr_scan"}, "type": "electric_scooter", "fusion_lat": 0.0, "lon": -77.02964716666666}, {"fusion_lon": 0.0, "bike_id": "eb90bce2c16e4017f4c6ba884dd6df11", "is_disabled": 0, "is_reserved": 0, "lat": 38.83379883333333, "name": "eb90bce2c16e4017f4c6ba884dd6df11", "rental_uris": {"ios": "https://dc.lft.to/lastmile_qr_scan", "android": "https://dc.lft.to/lastmile_qr_scan"}, "type": "electric_scooter", "fusion_lat": 0.0, "lon": -77.00300333333334}, {"fusion_lon": 0.0, "bike_id": "dbca66d52218bc0edf1db758afbc6fd8", "is_disabled": 0, "is_reserved": 0, "lat": 38.89963083333333, "name": "dbca66d52218bc0edf1db758afbc6fd8", "rental_uris": {"ios": "https://dc.lft.to/lastmile_qr_scan", "android": "https://dc.lft.to/lastmile_qr_scan"}, "type": "electric_scooter", "fusion_lat": 0.0, "lon": -77.04715966666667}, {"fusion_lon": 0.0, "bike_id": "860f99568b7be2d3191377e9b619900c", "is_disabled": 0, "is_reserved": 0, "lat": 38.887667, "name": "860f99568b7be2d3191377e9b619900c", "rental_uris": {"ios": "https://dc.lft.to/lastmile_qr_scan", "android": "https://dc.lft.to/lastmile_qr_scan"}, "type": "electric_scooter", "fusion_lat": 0.0, "lon": -77.00041166666666}, {"fusion_lon": 0.0, "bike_id": "46c845ad601875e499c1ba2c771f15a7", "is_disabled": 0, "is_reserved": 0, "lat": 38.83579816666666, "name": "46c845ad601875e499c1ba2c771f15a7", "rental_uris": {"ios": "https://dc.lft.to/lastmile_qr_scan", "android": "https://dc.lft.to/lastmile_qr_scan"}, "type": "electric_bike", "fusion_lat": 0.0, "lon": -76.99023816666667}, {"fusion_lon": 0.0, "bike_id": "608b421e5e339d80ba4564f036d8296f", "is_disabled": 0, "is_reserved": 0, "lat": 38.93258216666667, "name": "608b421e5e339d80ba4564f036d8296f", "rental_uris": {"ios": "https://dc.lft.to/lastmile_qr_scan", "android": "https://dc.lft.to/lastmile_qr_scan"}, "type": "electric_scooter", "fusion_lat": 0.0, "lon": -76.988783}, {"fusion_lon": 0.0, "bike_id": "4aa8cc34610400149d2dccf111abb26a", "is_disabled": 0, "is_reserved": 0, "lat": 38.887705, "name": "4aa8cc34610400149d2dccf111abb26a", "rental_uris": {"ios": "https://dc.lft.to/lastmile_qr_scan", "android": "https://dc.lft.to/lastmile_qr_scan"}, "type": "electric_scooter", "fusion_lat": 0.0, "lon": -76.97734916666667}, {"fusion_lon": 0.0, "bike_id": "313ec808e2655ed66b518b1422759c3a", "is_disabled": 0, "is_reserved": 0, "lat": 38.96734133333333, "name": "313ec808e2655ed66b518b1422759c3a", "rental_uris": {"ios": "https://dc.lft.to/lastmile_qr_scan", "android": "https://dc.lft.to/lastmile_qr_scan"}, "type": "electric_bike", "fusion_lat": 0.0, "lon": -77.08911766666667}, {"fusion_lon": 0.0, "bike_id": "dbe71183ebb791cbc1dc06d590e0d35c", "is_disabled": 0, "is_reserved": 0, "lat": 38.922602166666664, "name": "dbe71183ebb791cbc1dc06d590e0d35c", "rental_uris": {"ios": "https://dc.lft.to/lastmile_qr_scan", "android": "https://dc.lft.to/lastmile_qr_scan"}, "type": "electric_scooter", "fusion_lat": 0.0, "lon": -77.01953866666666}, {"fusion_lon": 0.0, "bike_id": "0a823540d65352b5c255b96f238b0d43", "is_disabled": 0, "is_reserved": 0, "lat": 38.898045, "name": "0a823540d65352b5c255b96f238b0d43", "rental_uris": {"ios": "https://dc.lft.to/lastmile_qr_scan", "android": "https://dc.lft.to/lastmile_qr_scan"}, "type": "electric_bike", "fusion_lat": 0.0, "lon": -77.005988}, {"fusion_lon": 0.0, "bike_id": "51abaceed5c9abfe4bdfce18c0ca75f2", "is_disabled": 0, "is_reserved": 0, "lat": 38.93685216666667, "name": "51abaceed5c9abfe4bdfce18c0ca75f2", "rental_uris": {"ios": "https://dc.lft.to/lastmile_qr_scan", "android": "https://dc.lft.to/lastmile_qr_scan"}, "type": "electric_scooter", "fusion_lat": 0.0, "lon": -77.0662165}, {"fusion_lon": 0.0, "bike_id": "08540416fb794d39c6ce6ed920c689c3", "is_disabled": 0, "is_reserved": 0, "lat": 38.88724583333333, "name": "08540416fb794d39c6ce6ed920c689c3", "rental_uris": {"ios": "https://dc.lft.to/lastmile_qr_scan", "android": "https://dc.lft.to/lastmile_qr_scan"}, "type": "electric_scooter", "fusion_lat": 0.0, "lon": -77.002047},