{"data": {"bikes": [{"fusion_lat": 0.0, "name": "25eb4dacb02e3b69e59084d8b9f14055", "is_disabled": 0, "rental_uris": {"android": "https://dc.lft.to/lastmile_qr_scan", "ios": "https://dc.lft.to/lastmile_qr_scan"}, "fusion_lon": 0.0, "lat": 38.9427765, "bike_id": "25eb4dacb02e3b69e59084d8b9f14055", "type": "electric_scooter", "is_reserved": 0, "lon": -77.03254316666667}, {"fusion_lat": 0.0, "name": "f609ad9f79fda5bff60de5aa0d034d3b", "is_disabled": 0, "rental_uris": {"android": "https://dc.lft.to/lastmile_qr_scan", "ios": "https://dc.lft.to/lastmile_qr_scan"}, "fusion_lon": 0.0, "lat": 38.92498783333333, "bike_id": "f609ad9f79fda5bff60de5aa0d034d3b", "type": "electric_scooter", "is_reserved": 0, "lon": -77.02403666666666}, {"fusion_lat": 0.0, "name": "b9f1308f49ccd017cca407af6f1c8fe5", "is_disabled": 0, "rental_uris": {"android": "https://dc.lft.to/lastmile_qr_scan", "ios": "https://dc.lft.to/lastmile_qr_scan"}, "fusion_lon": 0.0, "lat": 38.83516016666667, "bike_id": "b9f1308f49ccd017cca407af6f1c8fe5", "type": "electric_bike", "is_reserved": 0, "lon": -76.986707}, {"fusion_lat": 0.0, "name": "0d2dbcead92646fcf7094493ae17feff", "is_disabled": 0, "rental_uris": {"android": "https://dc.lft.to/lastmile_qr_scan", "ios": "https://dc.lft.to/lastmile_qr_scan"}, "fusion_lon": 0.0, "lat": 38.9018065, "bike_id": "0d2dbcead92646fcf7094493ae17feff", "type": "electric_scooter", "is_reserved": 0, "lon": -77.024471}, {"fusion_lat": 0.0, "name": "db621d98036c84cc5c8b93e657f91473", "is_disabled": 0, "rental_uris": {"android": "https://dc.lft.to/lastmile_qr_scan", "ios": "https://dc.lft.to/lastmile_qr_scan"}, "fusion_lon": 0.0, "lat": 38.901142166666666, "bike_id": "db621d98036c84cc5c8b93e657f91473", "type": "electric_scooter", "is_reserved": 0, "lon": -77.04593483333333}, {"fusion_lat": 0.0, "name": "84c5ab149c0a25699e4ebcadc6a6a2df", "is_disabled": 0, "rental_uris": {"android": "https://dc.lft.to/lastmile_qr_scan", "ios": "https://dc.lft.to/lastmile_qr_scan"}, "fusion_lon": 0.0, "lat": 38.900605666666664, "bike_id": "84c5ab149c0a25699e4ebcadc6a6a2df", "type": "electric_scooter", "is_reserved": 0, "lon": -76.93387816666667}, {"fusion_lat": 0.0, "name": "ca8da7fea3bff04af09089b467bbc8f2", "is_disabled": 0, "rental_uris": {"android": "https://dc.lft.to/lastmile_qr_scan", "ios": "https://dc.lft.to/lastmile_qr_scan"}, "fusion_lon": 0.0, "lat": 38.9008925, "bike_id": "ca8da7fea3bff04af09089b467bbc8f2", "type": "electric_scooter", "is_reserved": 0, "lon": -77.02174916666667}, {"fusion_lat": 0.0, "name": "d211bb2d44c0f0afa74904c78bb0a2ea", "is_disabled": 0, "rental_uris": {"android": "https://dc.lft.to/lastmile_qr_scan", "ios": "https://dc.lft.to/lastmile_qr_scan"}, "fusion_lon": 0.0, "lat": 38.8904075, "bike_id": "d211bb2d44c0f0afa74904c78bb0a2ea", "type": "electric_scooter", "is_reserved": 0, "lon": -77.01508083333333}, {"fusion_lat": 0.0, "name": "eac0dcc3aa72e8a4eb6b254437993dfb", "is_disabled": 0, "rental_uris": {"android": "https://dc.lft.to/lastmile_qr_scan", "ios": "https://dc.lft.to/lastmile_qr_scan"}, "fusion_lon": 0.0, "lat": 38.914014, "bike_id": "eac0dcc3aa72e8a4eb6b254437993dfb", "type": "electric_scooter", "is_reserved": 0, "lon": -77.0298075}, {"fusion_lat": 0.0, "name": "480af968878a2236e355f17e7d602d51", "is_disabled": 0, "rental_uris": {"android": "https://dc.lft.to/lastmile_qr_scan", "ios": "https://dc.lft.to/lastmile_qr_scan"}, "fusion_lon": 0.0, "lat": 38.892237, "bike_id": "480af968878a2236e355f17e7d602d51", "type": "electric_scooter", "is_reserved": 0, "lon": -77.04321983333334}, {"fusion_lat": 0.0, "name": "5361834f983ce2f93b454c7bc7cb9e7f", "is_disabled": 0, "rental_uris": {"android": "https://dc.lft.to/lastmile_qr_scan", "ios": "https://dc.lft.to/lastmile_qr_scan"}, "fusion_lon": 0.0, "lat": 38.946918, "bike_id": "5361834f983ce2f93b454c7bc7cb9e7f", "type": "electric_scooter", "is_reserved": 0, "lon": -77.0792355}, {"fusion_lat": 0.0, "name": "ffd8ea08f1d243aa70dad9d7c063f1b4", "is_disabled": 0, "rental_uris": {"android": "https://dc.lft.to/lastmile_qr_scan", "ios": "https://dc.lft.to/lastmile_qr_scan"}, "fusion_lon": 0.0, "lat": 38.89219283333333, "bike_id": "ffd8ea08f1d243aa70dad9d7c063f1b4", "type": "electric_scooter", "is_reserved": 0, "lon": -77.02222116666667}, {"fusion_lat": 0.0, "name": "a7855edc8a2f752f0867231d80a89131", "is_disabled": 0, "rental_uris": {"android": "https://dc.lft.to/lastmile_qr_scan", "ios": "https://dc.lft.to/lastmile_qr_scan"}, "fusion_lon": 0.0, "lat": 38.90693316666667, "bike_id": "a7855edc8a2f752f0867231d80a89131", "type": "electric_scooter", "is_reserved": 0, "lon": -77.06899316666667}, {"fusion_lat": 0.0, "name": "6b97cfa63a7fe430de2762c8c0ba4b05", "is_disabled": 0, "rental_uris": {"android": "https://dc.lft.to/lastmile_qr_scan", "ios": "https://dc.lft.to/lastmile_qr_scan"}, "fusion_lon": 0.0, "lat": 38.887457166666664, "bike_id": "6b97cfa63a7fe430de2762c8c0ba4b05", "type": "electric_scooter", "is_reserved": 0, "lon": -77.02133016666667}, {"fusion_lat": 0.0, "name": "7c653e4d7cec5e25b96946b968f46a21", "is_disabled": 0, "rental_uris": {"android": "https://dc.lft.to/lastmile_qr_scan", "ios": "https://dc.lft.to/lastmile_qr_scan"}, "fusion_lon": 0.0, "lat": 38.91776616666667, "bike_id": "7c653e4d7cec5e25b96946b968f46a21", "type": "electric_scooter", "is_reserved": 0, "lon": -77.035573}, {"fusion_lat": 0.0, "name": "3fc400935f63a397e071039346a48e9d", "is_disabled": 0, "rental_uris": {"android": "https://dc.lft.to/lastmile_qr_scan", "ios": "https://dc.lft.to/lastmile_qr_scan"}, "fusion_lon": 0.0, "lat": 38.899505166666664, "bike_id": "3fc400935f63a397e071039346a48e9d", "type": "electric_scooter", "is_reserved": 0, "lon": -77.05704066666667}, {"fusion_lat": 0.0, "name": "2bf7836163d1ea388da9cd008c1d2d9e", "is_disabled": 0, "rental_uris": {"android": "https://dc.lft.to/lastmile_qr_scan", "ios": "https://dc.lft.to/lastmile_qr_scan"}, "fusion_lon": 0.0, "lat": 38.92279633333333, "bike_id": "2bf7836163d1ea388da9cd008c1d2d9e", "type": "electric_scooter", "is_reserved": 0, "lon": -77.03656283333333}, {"fusion_lat": 0.0, "name": "0ef8f2463e0f307e2414c4ddd562579f", "is_disabled": 0, "rental_uris": {"android": "https://dc.lft.to/lastmile_qr_scan", "ios": "https://dc.lft.to/lastmile_qr_scan"}, "fusion_lon": 0.0, "lat": 38.914013, "bike_id": "0ef8f2463e0f307e2414c4ddd562579f", "type": "electric_scooter", "is_reserved": 0, "lon": -77.07556366666667}, {"fusion_lat": 0.0, "name": "883c006d8ffa1e8efb777764d3b5ec5f", "is_disabled": 0, "rental_uris": {"android": "https://dc.lft.to/lastmile_qr_scan", "ios": "https://dc.lft.to/lastmile_qr_scan"}, "fusion_lon": 0.0, "lat": 38.91774616666667, "bike_id": "883c006d8ffa1e8efb777764d3b5ec5f", "type": "electric_scooter", "is_reserved": 0, "lon": -77.02314866666667}, {"fusion_lat": 0.0, "name": "a7f879ab92e3659125a0469eff0e909f", "is_disabled": 0, "rental_uris": {"android": "https://dc.lft.to/lastmile_qr_scan", "ios": "https://dc.lft.to/lastmile_qr_scan"}, "fusion_lon": 0.0, "lat": 38.90281433333333, "bike_id": "a7f879ab92e3659125a0469eff0e909f", "type": "electric_scooter", "is_reserved": 0, "lon": -77.03639933333334}, {"fusion_lat": 0.0, "name": "93c52ef8a0b1d57d3cfd18da96997d6d", "is_disabled": 0, "rental_uris": {"android": "https://dc.lft.to/lastmile_qr_scan", "ios": "https://dc.lft.to/lastmile_qr_scan"}, "fusion_lon": 0.0, "lat": 38.92105433333333, "bike_id": "93c52ef8a0b1d57d3cfd18da96997d6d", "type": "electric_scooter", "is_reserved": 0, "lon": -77.046849}, {"fusion_lat": 0.0, "name": "1a5b719610d013395c0851fae2c741af", "is_disabled": 0, "rental_uris": {"android": "https://dc.lft.to/lastmile_qr_scan", "ios": "https://dc.lft.to/lastmile_qr_scan"}, "fusion_lon": 0.0, "lat": 38.896304666666666, "bike_id": "1a5b719610d013395c0851fae2c741af", "type": "electric_scooter", "is_reserved": 0, "lon": -77.02409166666666}, {"fusion_lat": 0.0, "name": "4f0963b9a3f166af98bfe06fec38f9cc", "is_disabled": 0, "rental_uris": {"android": "https://dc.lft.to/lastmile_qr_scan", "ios": "https://dc.lft.to/lastmile_qr_scan"}, "fusion_lon": 0.0, "lat": 38.9162985, "bike_id": "4f0963b9a3f166af98bfe06fec38f9cc", "type": "electric_scooter", "is_reserved": 0, "lon": -77.05063433333333}, {"fusion_lat": 0.0, "name": "38b7d6a9379338b92ce9562c3a070954", "is_disabled": 0, "rental_uris": {"android": "https://dc.lft.to/lastmile_qr_scan", "ios": "https://dc.lft.to/lastmile_qr_scan"}, "fusion_lon": 0.0, "lat": 38.8785905, "bike_id": "38b7d6a9379338b92ce9562c3a070954", "type": "electric_scooter", "is_reserved": 0, "lon": -77.005586}, {"fusion_lat": 0.0, "name": "1e5f3eed7920ea3e94ea1533fa4ca003", "is_disabled": 0, "rental_uris": {"android": "https://dc.lft.to/lastmile_qr_scan", "ios": "https://dc.lft.to/lastmile_qr_scan"}, "fusion_lon": 0.0, "lat": 38.92027366666667, "bike_id": "1e5f3eed7920ea3e94ea1533fa4ca003", "type": "electric_scooter", "is_reserved": 0, "lon": -77.081941}, {"fusion_lat": 0.0, "name": "94f94feff1cd0d9dae304cf3aa7afd4c", "is_disabled": 0, "rental_uris": {"android": "https://dc.lft.to/lastmile_qr_scan", "ios": "https://dc.lft.to/lastmile_qr_scan"}, "fusion_lon": 0.0, "lat": 38.911741, "bike_id": "94f94feff1cd0d9dae304cf3aa7afd4c", "type": "electric_scooter", "is_reserved": 0, "lon": -77.03207316666666}, {"fusion_lat": 0.0, "name": "e967ebd0b238b34d1fa34cabd8d56238", "is_disabled": 0, "rental_uris": {"android": "https://dc.lft.to/lastmile_qr_scan", "ios": "https://dc.lft.to/lastmile_qr_scan"}, "fusion_lon": 0.0, "lat": 38.91537133333333, "bike_id": "e967ebd0b238b34d1fa34cabd8d56238", "type": "electric_scooter", "is_reserved": 0, "lon": -77.0209145}, {"fusion_lat": 0.0, "name": "09db55a01d565bbf6a7b753ac07891ca", "is_disabled": 0, "rental_uris": {"android": "https://dc.lft.to/lastmile_qr_scan", "ios": "https://dc.lft.to/lastmile_qr_scan"}, "fusion_lon": 0.0, "lat": 38.8874895, "bike_id": "09db55a01d565bbf6a7b753ac07891ca", "type": "electric_scooter", "is_reserved": 0, "lon": -77.02772733333333}, {"fusion_lat": 0.0, "name": "65b0fa7f3c7e8f7546afed4607715665", "is_disabled": 0, "rental_uris": {"android": "https://dc.lft.to/lastmile_qr_scan", "ios": "https://dc.lft.to/lastmile_qr_scan"}, "fusion_lon": 0.0, "lat": 38.8985115, "bike_id": "65b0fa7f3c7e8f7546afed4607715665", "type": "electric_bike", "is_reserved": 0, "lon": -77.01963166666667}, {"fusion_lat": 0.0, "name": "940d243e4bb89afbd7a1242218251bd3", "is_disabled": 0, "rental_uris": {"android": "https://dc.lft.to/lastmile_qr_scan", "ios": "https://dc.lft.to/lastmile_qr_scan"}, "fusion_lon": 0.0, "lat": 38.9341875, "bike_id": "940d243e4bb89afbd7a1242218251bd3", "type": "electric_scooter", "is_reserved": 0, "lon": -77.04280683333333}, {"fusion_lat": 0.0, "name": "18fc3decbfcd7ff1002b80a9e5447701", "is_disabled": 0, "rental_uris": {"android": "https://dc.lft.to/lastmile_qr_scan", "ios": "https://dc.lft.to/lastmile_qr_scan"}, "fusion_lon": 0.0, "lat": 38.907314666666664, "bike_id": "18fc3decbfcd7ff1002b80a9e5447701", "type": "electric_bike", "is_reserved": 0, "lon": -77.03338883333333}, {"fusion_lat": 0.0, "name": "c1fc496e2a148f30f5be13d84eee6858", "is_disabled": 0, "rental_uris": {"android": "https://dc.lft.to/lastmile_qr_scan", "ios": "https://dc.lft.to/lastmile_qr_scan"}, "fusion_lon": 0.0, "lat": 38.9299845, "bike_id": "c1fc496e2a148f30f5be13d84eee6858", "type": "electric_scooter", "is_reserved": 0, "lon": -77.021787}, {"fusion_lat": 0.0, "name": "eebec40fe0c03141a9a37ece1c85e724", "is_disabled": 0, "rental_uris": {"android": "https://dc.lft.to/lastmile_qr_scan", "ios": "https://dc.lft.to/lastmile_qr_scan"}, "fusion_lon": 0.0, "lat": 38.908150666666664, "bike_id": "eebec40fe0c03141a9a37ece1c85e724", "type": "electric_scooter", "is_reserved": 0, "lon": -77.0434105}, {"fusion_lat": 0.0, "name": "a1248dab3aa83a9b1d467f16511d5001", "is_disabled": 0, "rental_uris": {"android": "https://dc.lft.to/lastmile_qr_scan", "ios": "https://dc.lft.to/lastmile_qr_scan"}, "fusion_lon": 0.0, "lat": 38.904666, "bike_id": "a1248dab3aa83a9b1d467f16511d5001", "type": "electric_scooter", "is_reserved": 0, "lon": -77.062896}, {"fusion_lat": 0.0, "name": "c019542c5749ded506042f4dccfee34c", "is_disabled": 0, "rental_uris": {"android": "https://dc.lft.to/lastmile_qr_scan", "ios": "https://dc.lft.to/lastmile_qr_scan"}, "fusion_lon": 0.0, "lat": 38.912125, "bike_id": "c019542c5749ded506042f4dccfee34c", "type": "electric_scooter", "is_reserved": 0, "lon": -77.03196033333333}, {"fusion_lat": 0.0, "name": "28c8a8280ac9676f722330018a2e5fb8", "is_disabled": 0, "rental_uris": {"android": "https://dc.lft.to/lastmile_qr_scan", "ios": "https://dc.lft.to/lastmile_qr_scan"}, "fusion_lon": 0.0, "lat": 38.899696, "bike_id": "28c8a8280ac9676f722330018a2e5fb8", "type": "electric_scooter", "is_reserved": 0, "lon": -77.024331}, {"fusion_lat": 0.0, "name": "2e62d680fff31dabd1c91c37b8a74271", "is_disabled": 0, "rental_uris": {"android": "https://dc.lft.to/lastmile_qr_scan", "ios": "https://dc.lft.to/lastmile_qr_scan"}, "fusion_lon": 0.0, "lat": 38.90250983333333, "bike_id": "2e62d680fff31dabd1c91c37b8a74271", "type": "electric_scooter", "is_reserved": 0, "lon": -77.0109295}, {"fusion_lat": 0.0, "name": "f00252b3aa7931317920af9a92bf3ad8", "is_disabled": 0, "rental_uris": {"android": "https://dc.lft.to/lastmile_qr_scan", "ios": "https://dc.lft.to/lastmile_qr_scan"}, "fusion_lon": 0.0, "lat": 38.871789, "bike_id": "f00252b3aa7931317920af9a92bf3ad8", "type": "electric_scooter", "is_reserved": 0, "lon": -77.006505}, {"fusion_lat": 0.0, "name": "baefdd37b3357f36f26d615303cedde1", "is_disabled": 0, "rental_uris": {"android": "https://dc.lft.to/lastmile_qr_scan", "ios": "https://dc.lft.to/lastmile_qr_scan"}, "fusion_lon": 0.0, "lat": 38.940543166666664, "bike_id": "baefdd37b3357f36f26d615303cedde1", "type": "electric_bike", "is_reserved": 0, "lon": -77.02910533333333}, {"fusion_lat": 0.0, "name": "96cb125a362992f45d567f5fa40b83e8", "is_disabled": 0, "rental_uris": {"android": "https://dc.lft.to/lastmile_qr_scan", "ios": "https://dc.lft.to/lastmile_qr_scan"}, "fusion_lon": 0.0, "lat": 38.91178583333333, "bike_id": "96cb125a362992f45d567f5fa40b83e8", "type": "electric_scooter", "is_reserved": 0, "lon": -77.0112095}, {"fusion_lat": 0.0, "name": "a6db1d507f0add24f8b2e0200abec0b7", "is_disabled": 0, "rental_uris": {"android": "https://dc.lft.to/lastmile_qr_scan", "ios": "https://dc.lft.to/lastmile_qr_scan"}, "fusion_lon": 0.0, "lat": 38.8972615, "bike_id": "a6db1d507f0add24f8b2e0200abec0b7", "type": "electric_scooter", "is_reserved": 0, "lon": -77.05520233333333}, {"fusion_lat": 0.0, "name": "03b8bbb9442e09c31f5284d179725dc0", "is_disabled": 0, "rental_uris": {"android": "https://dc.lft.to/lastmile_qr_scan", "ios": "https://dc.lft.to/lastmile_qr_scan"}, "fusion_lon": 0.0, "lat": 38.902306333333335, "bike_id": "03b8bbb9442e09c31f5284d179725dc0", "type": "electric_scooter", "is_reserved": 0, "lon": -77.00517233333333}, {"fusion_lat": 0.0, "name": "c4de03ce155c96b396d4775363552ec2", "is_disabled": 0, "rental_uris": {"android": "https://dc.lft.to/lastmile_qr_scan", "ios": "https://dc.lft.to/lastmile_qr_scan"}, "fusion_lon": 0.0, "lat": 38.857686, "bike_id": "c4de03ce155c96b396d4775363552ec2", "type": "electric_bike", "is_reserved": 0, "lon": -76.9876805}, {"fusion_lat": 0.0, "name": "1a5ec0a50298d3d83ad439fffc8a3c0d", "is_disabled": 0, "rental_uris": {"android": "https://dc.lft.to/lastmile_qr_scan", "ios": "https://dc.lft.to/lastmile_qr_scan"}, "fusion_lon": 0.0, "lat": 38.897475166666666, "bike_id": "1a5ec0a50298d3d83ad439fffc8a3c0d", "type": "electric_scooter", "is_reserved": 0, "lon": -77.02763316666666}, {"fusion_lat": 0.0, "name": "228f46960d58c92e12dbd6b38c3e7017", "is_disabled": 0, "rental_uris": {"android": "https://dc.lft.to/lastmile_qr_scan", "ios": "https://dc.lft.to/lastmile_qr_scan"}, "fusion_lon": 0.0, "lat": 38.91721283333333, "bike_id": "228f46960d58c92e12dbd6b38c3e7017", "type": "electric_scooter", "is_reserved": 0, "lon": -77.02693666666667}, {"fusion_lat": 0.0, "name": "7052f8f617b3e68b12751478eb65efce", "is_disabled": 0, "rental_uris": {"android": "https://dc.lft.to/lastmile_qr_scan", "ios": "https://dc.lft.to/lastmile_qr_scan"}, "fusion_lon": 0.0, "lat": 38.8802195, "bike_id": "7052f8f617b3e68b12751478eb65efce", "type": "electric_scooter", "is_reserved": 0, "lon": -76.983505}, {"fusion_lat": 0.0, "name": "820b6cedc5fdc490a38011aed8e809d9", "is_disabled": 0, "rental_uris": {"android": "https://dc.lft.to/lastmile_qr_scan", "ios": "https://dc.lft.to/lastmile_qr_scan"}, "fusion_lon": 0.0, "lat": 38.9080185, "bike_id": "820b6cedc5fdc490a38011aed8e809d9", "type": "electric_scooter", "is_reserved": 0, "lon": -77.03458866666666}, {"fusion_lat": 0.0, "name": "05cdb14d336c04df0a5bd5447ac9206a", "is_disabled": 0, "rental_uris": {"android": "https://dc.lft.to/lastmile_qr_scan", "ios": "https://dc.lft.to/lastmile_qr_scan"}, "fusion_lon": 0.0, "lat": 38.9097285, "bike_id": "05cdb14d336c04df0a5bd5447ac9206a", "type": "electric_scooter", "is_reserved": 0, "lon": -77.02073783333333}, {"fusion_lat": 0.0, "name": "f312cc9980cc4755e5b4ec8ad3d8d95f", "is_disabled": 0, "rental_uris": {"android": "https://dc.lft.to/lastmile_qr_scan", "ios": "https://dc.lft.to/lastmile_qr_scan"}, "fusion_lon": 0.0, "lat": 38.8985085, "bike_id": "f312cc9980cc4755e5b4ec8ad3d8d95f", "type": "electric_bike", "is_reserved": 0, "lon": -76.93187516666667}, {"fusion_lat": 0.0, "name": "44f202cfeab2e43f4c17ca49c15ef904", "is_disabled": 0, "rental_uris": {"android": "https://dc.lft.to/lastmile_qr_scan", "ios": "https://dc.lft.to/lastmile_qr_scan"}, "fusion_lon": 0.0, "lat": 38.90609716666667, "bike_id": "44f202cfeab2e43f4c17ca49c15ef904", "type": "electric_scooter", "is_reserved": 0, "lon": -77.00586516666667}, {"fusion_lat": 0.0, "name": "d2b9a9b66b8e2a78fb2018a1b2e5a377", "is_disabled": 0, "rental_uris": {"android": "https://dc.lft.to/lastmile_qr_scan", "ios": "https://dc.lft.to/lastmile_qr_scan"}, "fusion_lon": 0.0, "lat": 38.93751533333333, "bike_id": "d2b9a9b66b8e2a78fb2018a1b2e5a377", "type": "electric_scooter", "is_reserved": 0, "lon": -77.03252916666666}, {"fusion_lat": 0.0, "name": "64a7f3765baa56f71b5bfd7737c0fb83", "is_disabled": 0, "rental_uris": {"android": "https://dc.lft.to/lastmile_qr_scan", "ios": "https://dc.lft.to/lastmile_qr_scan"}, "fusion_lon": 0.0, "lat": 38.92130183333333, "bike_id": "64a7f3765baa56f71b5bfd7737c0fb83", "type": "electric_scooter", "is_reserved": 0, "lon": -77.0193145}, {"fusion_lat": 0.0, "name": "68705f5b63ca1a6e9a419afe70c2988b", "is_disabled": 0, "rental_uris": {"android": "https://dc.lft.to/lastmile_qr_scan", "ios": "https://dc.lft.to/lastmile_qr_scan"}, "fusion_lon": 0.0, "lat": 38.909789833333335, "bike_id": "68705f5b63ca1a6e9a419afe70c2988b", "type": "electric_scooter", "is_reserved": 0, "lon": -77.02194833333333}, {"fusion_lat": 0.0, "name": "ecf5c242c04d8c86aa05bdd1d8ebac0a", "is_disabled": 0, "rental_uris": {"android": "https://dc.lft.to/lastmile_qr_scan", "ios": "https://dc.lft.to/lastmile_qr_scan"}, "fusion_lon": 0.0, "lat": 38.905023, "bike_id": "ecf5c242c04d8c86aa05bdd1d8ebac0a", "type": "electric_scooter", "is_reserved": 0, "lon": -77.02956816666666}, {"fusion_lat": 0.0, "name": "969fcac08196f6cb78702607dc2b3c40", "is_disabled": 0, "rental_uris": {"android": "https://dc.lft.to/lastmile_qr_scan", "ios": "https://dc.lft.to/lastmile_qr_scan"}, "fusion_lon": 0.0, "lat": 38.90653016666667, "bike_id": "969fcac08196f6cb78702607dc2b3c40", "type": "electric_scooter", "is_reserved": 0, "lon": -77.03857233333333}, {"fusion_lat": 0.0, "name": "88720d7034daeda6c2313025d100b784", "is_disabled": 0, "rental_uris": {"android": "https://dc.lft.to/lastmile_qr_scan", "ios": "https://dc.lft.to/lastmile_qr_scan"}, "fusion_lon": 0.0, "lat": 38.904841833333336, "bike_id": "88720d7034daeda6c2313025d100b784", "type": "electric_scooter", "is_reserved": 0, "lon": -77.03561683333334}, {"fusion_lat": 0.0, "name": "92cb8d4cc4304e37a5fe20ab88a39ff9", "is_disabled": 0, "rental_uris": {"android": "https://dc.lft.to/lastmile_qr_scan", "ios": "https://dc.lft.to/lastmile_qr_scan"}, "fusion_lon": 0.0, "lat": 38.91971916666667, "bike_id": "92cb8d4cc4304e37a5fe20ab88a39ff9", "type": "electric_scooter", "is_reserved": 0, "lon": -77.02333516666667}, {"fusion_lat": 0.0, "name": "ed1abd5972eb0b54c32ee218cca8c82d", "is_disabled": 0, "rental_uris": {"android": "https://dc.lft.to/lastmile_qr_scan", "ios": "https://dc.lft.to/lastmile_qr_scan"}, "fusion_lon": 0.0, "lat": 38.901240666666666, "bike_id": "ed1abd5972eb0b54c32ee218cca8c82d", "type": "electric_scooter", "is_reserved": 0, "lon": -77.02637033333333}, {"fusion_lat": 0.0, "name": "41c233fdccfdbe011a160a983b668b21", "is_disabled": 0, "rental_uris": {"android": "https://dc.lft.to/lastmile_qr_scan", "ios": "https://dc.lft.to/lastmile_qr_scan"}, "fusion_lon": 0.0, "lat": 38.931993, "bike_id": "41c233fdccfdbe011a160a983b668b21", "type": "electric_scooter", "is_reserved": 0, "lon": -77.03492633333333}, {"fusion_lat": 0.0, "name": "4bef04d7223859baee86841a39bec25a", "is_disabled": 0, "rental_uris": {"android": "https://dc.lft.to/lastmile_qr_scan", "ios": "https://dc.lft.to/lastmile_qr_scan"}, "fusion_lon": 0.0, "lat": 38.909807, "bike_id": "4bef04d7223859baee86841a39bec25a", "type": "electric_scooter", "is_reserved": 0, "lon": -77.0341875}, {"fusion_lat": 0.0, "name": "7a9afb0aaf6b6b57eab3216ef05e7987", "is_disabled": 0, "rental_uris": {"android": "https://dc.lft.to/lastmile_qr_scan", "ios": "https://dc.lft.to/lastmile_qr_scan"}, "fusion_lon": 0.0, "lat": 38.89738416666667, "bike_id": "7a9afb0aaf6b6b57eab3216ef05e7987", "type": "electric_scooter", "is_reserved": 0, "lon": -77.04415916666666}, {"fusion_lat": 0.0, "name": "8f94a1075a6241ff15583d10267676fa", "is_disabled": 0, "rental_uris": {"android": "https://dc.lft.to/lastmile_qr_scan", "ios": "https://dc.lft.to/lastmile_qr_scan"}, "fusion_lon": 0.0, "lat": 38.9072365, "bike_id": "8f94a1075a6241ff15583d10267676fa", "type": "electric_scooter", "is_reserved": 0, "lon": -77.02401783333333}, {"fusion_lat": 0.0, "name": "a51b47129232f7caf4609b10fcf5916d", "is_disabled": 0, "rental_uris": {"android": "https://dc.lft.to/lastmile_qr_scan", "ios": "https://dc.lft.to/lastmile_qr_scan"}, "fusion_lon": 0.0, "lat": 38.92754583333333, "bike_id": "a51b47129232f7caf4609b10fcf5916d", "type": "electric_scooter", "is_reserved": 0, "lon": -77.05270633333333}, {"fusion_lat": 0.0, "name": "aa0cfa1f9da41d471956339407b941a5", "is_disabled": 0, "rental_uris": {"android": "https://dc.lft.to/lastmile_qr_scan", "ios": "https://dc.lft.to/lastmile_qr_scan"}, "fusion_lon": 0.0, "lat": 38.92784916666667, "bike_id": "aa0cfa1f9da41d471956339407b941a5", "type": "electric_scooter", "is_reserved": 0, "lon": -77.05311416666666}, {"fusion_lat": 0.0, "name": "474b73b8a9f1dcbb07f819b08f1e8966", "is_disabled": 0, "rental_uris": {"android": "https://dc.lft.to/lastmile_qr_scan", "ios": "https://dc.lft.to/lastmile_qr_scan"}, "fusion_lon": 0.0, "lat": 38.925196666666665, "bike_id": "474b73b8a9f1dcbb07f819b08f1e8966", "type": "electric_scooter", "is_reserved": 0, "lon": -77.05035483333333}, {"fusion_lat": 0.0, "name": "940109c839394f65deba3c1d883fb005", "is_disabled": 0, "rental_uris": {"android": "https://dc.lft.to/lastmile_qr_scan", "ios": "https://dc.lft.to/lastmile_qr_scan"}, "fusion_lon": 0.0, "lat": 38.87485983333333, "bike_id": "940109c839394f65deba3c1d883fb005", "type": "electric_scooter", "is_reserved": 0, "lon": -77.00601266666666}, {"fusion_lat": 0.0, "name": "24e95789a3ac2f644b34bf4b963429c1", "is_disabled": 0, "rental_uris": {"android": "https://dc.lft.to/lastmile_qr_scan", "ios": "https://dc.lft.to/lastmile_qr_scan"}, "fusion_lon": 0.0, "lat": 38.90193816666667, "bike_id": "24e95789a3ac2f644b34bf4b963429c1", "type": "electric_scooter", "is_reserved": 0, "lon": -77.06122433333333}, {"fusion_lat": 0.0, "name": "e7c102455af62e7b7ae84827aba8ba93", "is_disabled": 0, "rental_uris": {"android": "https://dc.lft.to/lastmile_qr_scan", "ios": "https://dc.lft.to/lastmile_qr_scan"}, "fusion_lon": 0.0, "lat": 38.8766005, "bike_id": "e7c102455af62e7b7ae84827aba8ba93", "type": "electric_scooter", "is_reserved": 0, "lon": -77.00072566666667}, {"fusion_lat": 0.0, "name": "4f1d21c58f26088b2d8c399532426b63", "is_disabled": 0, "rental_uris": {"android": "https://dc.lft.to/lastmile_qr_scan", "ios": "https://dc.lft.to/lastmile_qr_scan"}, "fusion_lon": 0.0, "lat": 38.902581833333336, "bike_id": "4f1d21c58f26088b2d8c399532426b63", "type": "electric_scooter", "is_reserved": 0, "lon": -77.00538483333334}, {"fusion_lat": 0.0, "name": "67b69d103279e7c42dac79f06ad384c8", "is_disabled": 0, "rental_uris": {"android": "https://dc.lft.to/lastmile_qr_scan", "ios": "https://dc.lft.to/lastmile_qr_scan"}, "fusion_lon": 0.0, "lat": 38.90729483333333, "bike_id": "67b69d103279e7c42dac79f06ad384c8", "type": "electric_scooter", "is_reserved": 0, "lon": -77.00756533333333}, {"fusion_lat": 0.0, "name": "ca3e48a7d190a678b3fa124d5a9e9db6", "is_disabled": 0, "rental_uris": {"android": "https://dc.lft.to/lastmile_qr_scan", "ios": "https://dc.lft.to/lastmile_qr_scan"}, "fusion_lon": 0.0, "lat": 38.911005, "bike_id": "ca3e48a7d190a678b3fa124d5a9e9db6", "type": "electric_scooter", "is_reserved": 0, "lon": -77.00394083333333}, {"fusion_lat": 0.0, "name": "6163d07b4f186a9890282e7e10de54a3", "is_disabled": 0, "rental_uris": {"android": "https://dc.lft.to/lastmile_qr_scan", "ios": "https://dc.lft.to/lastmile_qr_scan"}, "fusion_lon": 0.0, "lat": 38.895752, "bike_id": "6163d07b4f186a9890282e7e10de54a3", "type": "electric_scooter", "is_reserved": 0, "lon": -76.98317816666666}, {"fusion_lat": 0.0, "name": "0978248ccbbf63aa301ac26e0438db4a", "is_disabled": 0, "rental_uris": {"android": "https://dc.lft.to/lastmile_qr_scan", "ios": "https://dc.lft.to/lastmile_qr_scan"}, "fusion_lon": 0.0, "lat": 38.935757833333334, "bike_id": "0978248ccbbf63aa301ac26e0438db4a", "type": "electric_scooter", "is_reserved": 0, "lon": -77.02122716666666}, {"fusion_lat": 0.0, "name": "10fb58af66e8ff4fad16b2f8b49d17a2", "is_disabled": 0, "rental_uris": {"android": "https://dc.lft.to/lastmile_qr_scan", "ios": "https://dc.lft.to/lastmile_qr_scan"}, "fusion_lon": 0.0, "lat": 38.949687833333336, "bike_id": "10fb58af66e8ff4fad16b2f8b49d17a2", "type": "electric_scooter", "is_reserved": 0, "lon": -77.0662985}, {"fusion_lat": 0.0, "name": "508e8394236f94c827bc6becffbdf92a", "is_disabled": 0, "rental_uris": {"android": "https://dc.lft.to/lastmile_qr_scan", "ios": "https://dc.lft.to/lastmile_qr_scan"}, "fusion_lon": 0.0, "lat": 38.923355, "bike_id": "508e8394236f94c827bc6becffbdf92a", "type": "electric_scooter", "is_reserved": 0, "lon": -77.052992}, {"fusion_lat": 0.0, "name": "017fb70f3eadcc773614708e5f941a1b", "is_disabled": 0, "rental_uris": {"android": "https://dc.lft.to/lastmile_qr_scan", "ios": "https://dc.lft.to/lastmile_qr_scan"}, "fusion_lon": 0.0, "lat": 38.900311333333335, "bike_id": "017fb70f3eadcc773614708e5f941a1b", "type": "electric_scooter", "is_reserved": 0, "lon": -76.99732916666666}, {"fusion_lat": 0.0, "name": "9c87496c4038b3b982036b49e9891d3b", "is_disabled": 0, "rental_uris": {"android": "https://dc.lft.to/lastmile_qr_scan", "ios": "https://dc.lft.to/lastmile_qr_scan"}, "fusion_lon": 0.0, "lat": 38.91836683333333, "bike_id": "9c87496c4038b3b982036b49e9891d3b", "type": "electric_scooter", "is_reserved": 0, "lon": -77.03211433333334}, {"fusion_lat": 0.0, "name": "2b6c47851ee0e27baabed3d59e9e11f7", "is_disabled": 0, "rental_uris": {"android": "https://dc.lft.to/lastmile_qr_scan", "ios": "https://dc.lft.to/lastmile_qr_scan"}, "fusion_lon": 0.0, "lat": 38.92452466666667, "bike_id": "2b6c47851ee0e27baabed3d59e9e11f7", "type": "electric_scooter", "is_reserved": 0, "lon": -77.03967066666667}, {"fusion_lat": 0.0, "name": "9bb670a02f82fe31039dd5042297d762", "is_disabled": 0, "rental_uris": {"android": "https://dc.lft.to/lastmile_qr_scan", "ios": "https://dc.lft.to/lastmile_qr_scan"}, "fusion_lon": 0.0, "lat": 38.92101483333333, "bike_id": "9bb670a02f82fe31039dd5042297d762", "type": "electric_scooter", "is_reserved": 0, "lon": -77.02515433333333}, {"fusion_lat": 0.0, "name": "8236b124523407e3e97ff11fdf9ee9b2", "is_disabled": 0, "rental_uris": {"android": "https://dc.lft.to/lastmile_qr_scan", "ios": "https://dc.lft.to/lastmile_qr_scan"}, "fusion_lon": 0.0, "lat": 38.917838333333336, "bike_id": "8236b124523407e3e97ff11fdf9ee9b2", "type": "electric_scooter", "is_reserved": 0, "lon": -77.0228825}, {"fusion_lat": 0.0, "name": "a3cb4e70eb47499aa4c14682fcbb865a", "is_disabled": 0, "rental_uris": {"android": "https://dc.lft.to/lastmile_qr_scan", "ios": "https://dc.lft.to/lastmile_qr_scan"}, "fusion_lon": 0.0, "lat": 38.9035955, "bike_id": "a3cb4e70eb47499aa4c14682fcbb865a", "type": "electric_scooter", "is_reserved": 0, "lon": -77.00758883333333}, {"fusion_lat": 0.0, "name": "181ea2d2bf809ea36b212ff3bb48414f", "is_disabled": 0, "rental_uris": {"android": "https://dc.lft.to/lastmile_qr_scan", "ios": "https://dc.lft.to/lastmile_qr_scan"}, "fusion_lon": 0.0, "lat": 38.8842735, "bike_id": "181ea2d2bf809ea36b212ff3bb48414f", "type": "electric_scooter", "is_reserved": 0, "lon": -77.0232035}, {"fusion_lat": 0.0, "name": "c2eefc6c547ce7deeb645adc5a86efa4", "is_disabled": 0, "rental_uris": {"android": "https://dc.lft.to/lastmile_qr_scan", "ios": "https://dc.lft.to/lastmile_qr_scan"}, "fusion_lon": 0.0, "lat": 38.915598, "bike_id": "c2eefc6c547ce7deeb645adc5a86efa4", "type": "electric_scooter", "is_reserved": 0, "lon": -77.03113633333334}, {"fusion_lat": 0.0, "name": "85d4c3ba41420c8e1249507bea49ee0c", "is_disabled": 0, "rental_uris": {"android": "https://dc.lft.to/lastmile_qr_scan", "ios": "https://dc.lft.to/lastmile_qr_scan"}, "fusion_lon": 0.0, "lat": 38.934128333333334, "bike_id": "85d4c3ba41420c8e1249507bea49ee0c", "type": "electric_bike", "is_reserved": 0, "lon": -77.043026}, {"fusion_lat": 0.0, "name": "359aeba12c4158cf3e3a5d15e8dd7647", "is_disabled": 0, "rental_uris": {"android": "https://dc.lft.to/lastmile_qr_scan", "ios": "https://dc.lft.to/lastmile_qr_scan"}, "fusion_lon": 0.0, "lat": 38.887389166666665, "bike_id": "359aeba12c4158cf3e3a5d15e8dd7647", "type": "electric_scooter", "is_reserved": 0, "lon": -77.02124533333334}, {"fusion_lat": 0.0, "name": "edf0c5e538dbd7b5444330a6576fb4cc", "is_disabled": 0, "rental_uris": {"android": "https://dc.lft.to/lastmile_qr_scan", "ios": "https://dc.lft.to/lastmile_qr_scan"}, "fusion_lon": 0.0, "lat": 38.91219783333333, "bike_id": "edf0c5e538dbd7b5444330a6576fb4cc", "type": "electric_scooter", "is_reserved": 0, "lon": -77.06600416666667}, {"fusion_lat": 0.0, "name": "80539452b45d111d723145351894bedf", "is_disabled": 0, "rental_uris": {"android": "https://dc.lft.to/lastmile_qr_scan", "ios": "https://dc.lft.to/lastmile_qr_scan"}, "fusion_lon": 0.0, "lat": 38.96669166666667, "bike_id": "80539452b45d111d723145351894bedf", "type": "electric_scooter", "is_reserved": 0, "lon": -77.0254905}, {"fusion_lat": 0.0, "name": "a924bebf85801076ba477bc45e48cd85", "is_disabled": 0, "rental_uris": {"android": "https://dc.lft.to/lastmile_qr_scan", "ios": "https://dc.lft.to/lastmile_qr_scan"}, "fusion_lon": 0.0, "lat": 38.90150833333333, "bike_id": "a924bebf85801076ba477bc45e48cd85", "type": "electric_scooter", "is_reserved": 0, "lon": -77.04160116666667}, {"fusion_lat": 0.0, "name": "1d299671cb4859fd75edf7c001e2d7e0", "is_disabled": 0, "rental_uris": {"android": "https://dc.lft.to/lastmile_qr_scan", "ios": "https://dc.lft.to/lastmile_qr_scan"}, "fusion_lon": 0.0, "lat": 38.905800666666664, "bike_id": "1d299671cb4859fd75edf7c001e2d7e0", "type": "electric_scooter", "is_reserved": 0, "lon": -77.00638183333334}, {"fusion_lat": 0.0, "name": "dc69626b318ac8204508b4f3f7c0e2ae", "is_disabled": 0, "rental_uris": {"android": "https://dc.lft.to/lastmile_qr_scan", "ios": "https://dc.lft.to/lastmile_qr_scan"}, "fusion_lon": 0.0, "lat": 38.902091666666664, "bike_id": "dc69626b318ac8204508b4f3f7c0e2ae", "type": "electric_scooter", "is_reserved": 0, "lon": -77.01773866666667}, {"fusion_lat": 0.0, "name": "3b461d9556bb6ac6ddc0f0c9eeb92729", "is_disabled": 0, "rental_uris": {"android": "https://dc.lft.to/lastmile_qr_scan", "ios": "https://dc.lft.to/lastmile_qr_scan"}, "fusion_lon": 0.0, "lat": 38.92027, "bike_id": "3b461d9556bb6ac6ddc0f0c9eeb92729", "type": "electric_scooter", "is_reserved": 0, "lon": -77.0715285}, {"fusion_lat": 0.0, "name": "7fb720d317f6af9f6fac709262538cce", "is_disabled": 0, "rental_uris": {"android": "https://dc.lft.to/lastmile_qr_scan", "ios": "https://dc.lft.to/lastmile_qr_scan"}, "fusion_lon": 0.0, "lat": 38.923574, "bike_id": "7fb720d317f6af9f6fac709262538cce", "type": "electric_scooter", "is_reserved": 0, "lon": -77.033695}, {"fusion_lat": 0.0, "name": "b4f40dcda1a9d3b07059cdf3dc2d19e9", "is_disabled": 0, "rental_uris": {"android": "https://dc.lft.to/lastmile_qr_scan", "ios": "https://dc.lft.to/lastmile_qr_scan"}, "fusion_lon": 0.0, "lat": 38.919244166666665, "bike_id": "b4f40dcda1a9d3b07059cdf3dc2d19e9", "type": "electric_scooter", "is_reserved": 0, "lon": -77.0304925}, {"fusion_lat": 0.0, "name": "881abfd7ac94ec89c514f65bd8429521", "is_disabled": 0, "rental_uris": {"android": "https://dc.lft.to/lastmile_qr_scan", "ios": "https://dc.lft.to/lastmile_qr_scan"}, "fusion_lon": 0.0, "lat": 38.93687583333333, "bike_id": "881abfd7ac94ec89c514f65bd8429521", "type": "electric_scooter", "is_reserved": 0, "lon": -77.03287733333333}, {"fusion_lat": 0.0, "name": "a28c301601617ffa438d6921431b07e0", "is_disabled": 0, "rental_uris": {"android": "https://dc.lft.to/lastmile_qr_scan", "ios": "https://dc.lft.to/lastmile_qr_scan"}, "fusion_lon": 0.0, "lat": 38.915612833333334, "bike_id": "a28c301601617ffa438d6921431b07e0", "type": "electric_scooter", "is_reserved": 0, "lon": -77.0427545}, {"fusion_lat": 0.0, "name": "0640de4e8bd4357b4676a3abb06668fa", "is_disabled": 0, "rental_uris": {"android": "https://dc.lft.to/lastmile_qr_scan", "ios": "https://dc.lft.to/lastmile_qr_scan"}, "fusion_lon": 0.0, "lat": 38.90950866666667, "bike_id": "0640de4e8bd4357b4676a3abb06668fa", "type": "electric_scooter", "is_reserved": 0, "lon": -76.98536566666667}, {"fusion_lat": 0.0, "name": "fe2bc6bccd82291b87226d0016bb20f9", "is_disabled": 0, "rental_uris": {"android": "https://dc.lft.to/lastmile_qr_scan", "ios": "https://dc.lft.to/lastmile_qr_scan"}, "fusion_lon": 0.0, "lat": 38.997725833333334, "bike_id": "fe2bc6bccd82291b87226d0016bb20f9", "type": "electric_bike", "is_reserved": 0, "lon": -77.04721266666667}, {"fusion_lat": 0.0, "name": "e29d6080a6eeade28c0fa003e6f2c7fa", "is_disabled": 0, "rental_uris": {"android": "https://dc.lft.to/lastmile_qr_scan", "ios": "https://dc.lft.to/lastmile_qr_scan"}, "fusion_lon": 0.0, "lat": 38.9039355, "bike_id": "e29d6080a6eeade28c0fa003e6f2c7fa", "type": "electric_scooter", "is_reserved": 0, "lon": -77.04814266666666}, {"fusion_lat": 0.0, "name": "d278c52ddf8ef6379439b3cfe1e7121a", "is_disabled": 0, "rental_uris": {"android": "https://dc.lft.to/lastmile_qr_scan", "ios": "https://dc.lft.to/lastmile_qr_scan"}, "fusion_lon": 0.0, "lat": 38.9006365, "bike_id": "d278c52ddf8ef6379439b3cfe1e7121a", "type": "electric_scooter", "is_reserved": 0, "lon": -77.04784066666667}, {"fusion_lat": 0.0, "name": "e40fad69883e2cd71e31e68cf52b817f", "is_disabled": 0, "rental_uris": {"android": "https://dc.lft.to/lastmile_qr_scan", "ios": "https://dc.lft.to/lastmile_qr_scan"}, "fusion_lon": 0.0, "lat": 38.905555, "bike_id": "e40fad69883e2cd71e31e68cf52b817f", "type": "electric_scooter", "is_reserved": 0, "lon": -77.045633}, {"fusion_lat": 0.0, "name": "bc629071387398d1764297dba69efcbf", "is_disabled": 0, "rental_uris": {"android": "https://dc.lft.to/lastmile_qr_scan", "ios": "https://dc.lft.to/lastmile_qr_scan"}, "fusion_lon": 0.0, "lat": 38.919543166666664, "bike_id": "bc629071387398d1764297dba69efcbf", "type": "electric_scooter", "is_reserved": 0, "lon": -77.01781666666666}, {"fusion_lat": 0.0, "name": "ed4b0a7d8408188866d980042690cc20", "is_disabled": 0, "rental_uris": {"android": "https://dc.lft.to/lastmile_qr_scan", "ios": "https://dc.lft.to/lastmile_qr_scan"}, "fusion_lon": 0.0, "lat": 38.909664666666664, "bike_id": "ed4b0a7d8408188866d980042690cc20", "type": "electric_scooter", "is_reserved": 0, "lon": -77.04838733333334}, {"fusion_lat": 0.0, "name": "6aa1939f25688307642407e8356c5649", "is_disabled": 0, "rental_uris": {"android": "https://dc.lft.to/lastmile_qr_scan", "ios": "https://dc.lft.to/lastmile_qr_scan"}, "fusion_lon": 0.0, "lat": 38.87498633333333, "bike_id": "6aa1939f25688307642407e8356c5649", "type": "electric_scooter", "is_reserved": 0, "lon": -77.0006285}, {"fusion_lat": 0.0, "name": "107457dded411d2ec5169b07f92d1980", "is_disabled": 0, "rental_uris": {"android": "https://dc.lft.to/lastmile_qr_scan", "ios": "https://dc.lft.to/lastmile_qr_scan"}, "fusion_lon": 0.0, "lat": 38.906184333333336, "bike_id": "107457dded411d2ec5169b07f92d1980", "type": "electric_scooter", "is_reserved": 0, "lon": -77.02606433333334}, {"fusion_lat": 0.0, "name": "f8ea2482e98b264516bd4dbf7958f2fa", "is_disabled": 0, "rental_uris": {"android": "https://dc.lft.to/lastmile_qr_scan", "ios": "https://dc.lft.to/lastmile_qr_scan"}, "fusion_lon": 0.0, "lat": 38.931147833333334, "bike_id": "f8ea2482e98b264516bd4dbf7958f2fa", "type": "electric_scooter", "is_reserved": 0, "lon": -77.02083166666667}, {"fusion_lat": 0.0, "name": "4cdcbec5bc8efa5083a3dd2bb9f68886", "is_disabled": 0, "rental_uris": {"android": "https://dc.lft.to/lastmile_qr_scan", "ios": "https://dc.lft.to/lastmile_qr_scan"}, "fusion_lon": 0.0, "lat": 38.893247, "bike_id": "4cdcbec5bc8efa5083a3dd2bb9f68886", "type": "electric_bike", "is_reserved": 0, "lon": -76.95129916666667}, {"fusion_lat": 0.0, "name": "944bd2477135e7e2e10428851cfdd792", "is_disabled": 0, "rental_uris": {"android": "https://dc.lft.to/lastmile_qr_scan", "ios": "https://dc.lft.to/lastmile_qr_scan"}, "fusion_lon": 0.0, "lat": 38.8921725, "bike_id": "944bd2477135e7e2e10428851cfdd792", "type": "electric_scooter", "is_reserved": 0, "lon": -77.02655666666666}, {"fusion_lat": 0.0, "name": "f84a1326f8af4bcabd67446c3079a553", "is_disabled": 0, "rental_uris": {"android": "https://dc.lft.to/lastmile_qr_scan", "ios": "https://dc.lft.to/lastmile_qr_scan"}, "fusion_lon": 0.0, "lat": 38.93958766666667, "bike_id": "f84a1326f8af4bcabd67446c3079a553", "type": "electric_scooter", "is_reserved": 0, "lon": -77.0368685}, {"fusion_lat": 0.0, "name": "2a2ccaa6e2225d5dbf25c97facbf645b", "is_disabled": 0, "rental_uris": {"android": "https://dc.lft.to/lastmile_qr_scan", "ios": "https://dc.lft.to/lastmile_qr_scan"}, "fusion_lon": 0.0, "lat": 38.89746866666667, "bike_id": "2a2ccaa6e2225d5dbf25c97facbf645b", "type": "electric_scooter", "is_reserved": 0, "lon": -77.00366533333333}, {"fusion_lat": 0.0, "name": "97b39b332eee5f0e11883d53a85220b1", "is_disabled": 0, "rental_uris": {"android": "https://dc.lft.to/lastmile_qr_scan", "ios": "https://dc.lft.to/lastmile_qr_scan"}, "fusion_lon": 0.0, "lat": 38.92246733333333, "bike_id": "97b39b332eee5f0e11883d53a85220b1", "type": "electric_scooter", "is_reserved": 0, "lon": -77.0425125}, {"fusion_lat": 0.0, "name": "e2788ee51003da6f1ac3596f90a0b7e2", "is_disabled": 0, "rental_uris": {"android": "https://dc.lft.to/lastmile_qr_scan", "ios": "https://dc.lft.to/lastmile_qr_scan"}, "fusion_lon": 0.0, "lat": 38.827836833333336, "bike_id": "e2788ee51003da6f1ac3596f90a0b7e2", "type": "electric_bike", "is_reserved": 0, "lon": -77.12487716666666}, {"fusion_lat": 0.0, "name": "bd9787581e316aa00c7bd640361e78b3", "is_disabled": 0, "rental_uris": {"android": "https://dc.lft.to/lastmile_qr_scan", "ios": "https://dc.lft.to/lastmile_qr_scan"}, "fusion_lon": 0.0, "lat": 38.913224666666665, "bike_id": "bd9787581e316aa00c7bd640361e78b3", "type": "electric_scooter", "is_reserved": 0, "lon": -77.01972816666667}, {"fusion_lat": 0.0, "name": "f4b338612ad2a5e1899ab97a1c2cf64e", "is_disabled": 0, "rental_uris": {"android": "https://dc.lft.to/lastmile_qr_scan", "ios": "https://dc.lft.to/lastmile_qr_scan"}, "fusion_lon": 0.0, "lat": 38.87394416666667, "bike_id": "f4b338612ad2a5e1899ab97a1c2cf64e", "type": "electric_scooter", "is_reserved": 0, "lon": -77.01448883333333}, {"fusion_lat": 0.0, "name": "706632249adba3a5403e4f6498ec6810", "is_disabled": 0, "rental_uris": {"android": "https://dc.lft.to/lastmile_qr_scan", "ios": "https://dc.lft.to/lastmile_qr_scan"}, "fusion_lon": 0.0, "lat": 38.90971833333333, "bike_id": "706632249adba3a5403e4f6498ec6810", "type": "electric_scooter", "is_reserved": 0, "lon": -77.0404485}, {"fusion_lat": 0.0, "name": "8c9e1a743bb6bec9a1b94aadec8fac1d", "is_disabled": 0, "rental_uris": {"android": "https://dc.lft.to/lastmile_qr_scan", "ios": "https://dc.lft.to/lastmile_qr_scan"}, "fusion_lon": 0.0, "lat": 38.901492166666664, "bike_id": "8c9e1a743bb6bec9a1b94aadec8fac1d", "type": "electric_scooter", "is_reserved": 0, "lon": -77.04181633333333}, {"fusion_lat": 0.0, "name": "aeb49f703068ab36b2f2de9a01c3289d", "is_disabled": 0, "rental_uris": {"android": "https://dc.lft.to/lastmile_qr_scan", "ios": "https://dc.lft.to/lastmile_qr_scan"}, "fusion_lon": 0.0, "lat": 38.84494216666667, "bike_id": "aeb49f703068ab36b2f2de9a01c3289d", "type": "electric_scooter", "is_reserved": 0, "lon": -76.9959945}, {"fusion_lat": 0.0, "name": "0b3bdc8d4bc3caa055fe23da20bb74d6", "is_disabled": 0, "rental_uris": {"android": "https://dc.lft.to/lastmile_qr_scan", "ios": "https://dc.lft.to/lastmile_qr_scan"}, "fusion_lon": 0.0, "lat": 38.887665166666665, "bike_id": "0b3bdc8d4bc3caa055fe23da20bb74d6", "type": "electric_scooter", "is_reserved": 0, "lon": -77.01301366666667}, {"fusion_lat": 0.0, "name": "596e45dd04173dfc210f0ed8facc313e", "is_disabled": 0, "rental_uris": {"android": "https://dc.lft.to/lastmile_qr_scan", "ios": "https://dc.lft.to/lastmile_qr_scan"}, "fusion_lon": 0.0, "lat": 38.917447333333335, "bike_id": "596e45dd04173dfc210f0ed8facc313e", "type": "electric_scooter", "is_reserved": 0, "lon": -77.01215016666667}, {"fusion_lat": 0.0, "name": "782d577906f705c5f67cf084c173ef93", "is_disabled": 0, "rental_uris": {"android": "https://dc.lft.to/lastmile_qr_scan", "ios": "https://dc.lft.to/lastmile_qr_scan"}, "fusion_lon": 0.0, "lat": 38.9032645, "bike_id": "782d577906f705c5f67cf084c173ef93", "type": "electric_scooter", "is_reserved": 0, "lon": -77.010933}, {"fusion_lat": 0.0, "name": "3344c3e01a2fc9d580c1918c47593ba1", "is_disabled": 0, "rental_uris": {"android": "https://dc.lft.to/lastmile_qr_scan", "ios": "https://dc.lft.to/lastmile_qr_scan"}, "fusion_lon": 0.0, "lat": 38.939563666666665, "bike_id": "3344c3e01a2fc9d580c1918c47593ba1", "type": "electric_scooter", "is_reserved": 0, "lon": -77.03292216666667}, {"fusion_lat": 0.0, "name": "c32c008d22964d64680609fe63cc0ef0", "is_disabled": 0, "rental_uris": {"android": "https://dc.lft.to/lastmile_qr_scan", "ios": "https://dc.lft.to/lastmile_qr_scan"}, "fusion_lon": 0.0, "lat": 38.8922015, "bike_id": "c32c008d22964d64680609fe63cc0ef0", "type": "electric_scooter", "is_reserved": 0, "lon": -77.0264385}, {"fusion_lat": 0.0, "name": "e860cc2233a52700b2a1007049bcf415", "is_disabled": 0, "rental_uris": {"android": "https://dc.lft.to/lastmile_qr_scan", "ios": "https://dc.lft.to/lastmile_qr_scan"}, "fusion_lon": 0.0, "lat": 38.88729166666667, "bike_id": "e860cc2233a52700b2a1007049bcf415", "type": "electric_scooter", "is_reserved": 0, "lon": -77.01340466666667}, {"fusion_lat": 0.0, "name": "88716e8ca9b78aeaa7e8bd5c5aaf26ca", "is_disabled": 0, "rental_uris": {"android": "https://dc.lft.to/lastmile_qr_scan", "ios": "https://dc.lft.to/lastmile_qr_scan"}, "fusion_lon": 0.0, "lat": 38.88422816666667, "bike_id": "88716e8ca9b78aeaa7e8bd5c5aaf26ca", "type": "electric_scooter", "is_reserved": 0, "lon": -77.02887816666667}, {"fusion_lat": 0.0, "name": "d62d20e9d41948b617ee00e31053fa69", "is_disabled": 0, "rental_uris": {"android": "https://dc.lft.to/lastmile_qr_scan", "ios": "https://dc.lft.to/lastmile_qr_scan"}, "fusion_lon": 0.0, "lat": 38.9072655, "bike_id": "d62d20e9d41948b617ee00e31053fa69", "type": "electric_scooter", "is_reserved": 0, "lon": -77.02498983333334}, {"fusion_lat": 0.0, "name": "9e66971a7b74a4ec340bd48b714ec6f1", "is_disabled": 0, "rental_uris": {"android": "https://dc.lft.to/lastmile_qr_scan", "ios": "https://dc.lft.to/lastmile_qr_scan"}, "fusion_lon": 0.0, "lat": 38.900361833333335, "bike_id": "9e66971a7b74a4ec340bd48b714ec6f1", "type": "electric_scooter", "is_reserved": 0, "lon": -77.01682333333333}, {"fusion_lat": 0.0, "name": "f7851dcfee69a993a64364218f049503", "is_disabled": 0, "rental_uris": {"android": "https://dc.lft.to/lastmile_qr_scan", "ios": "https://dc.lft.to/lastmile_qr_scan"}, "fusion_lon": 0.0, "lat": 38.900486, "bike_id": "f7851dcfee69a993a64364218f049503", "type": "electric_scooter", "is_reserved": 0, "lon": -77.02200966666666}, {"fusion_lat": 0.0, "name": "ed033e770ecc5881c05e7e787a36e7c5", "is_disabled": 0, "rental_uris": {"android": "https://dc.lft.to/lastmile_qr_scan", "ios": "https://dc.lft.to/lastmile_qr_scan"}, "fusion_lon": 0.0, "lat": 38.917889833333334, "bike_id": "ed033e770ecc5881c05e7e787a36e7c5", "type": "electric_scooter", "is_reserved": 0, "lon": -77.03187333333334}, {"fusion_lat": 0.0, "name": "9ba44142dc095d722277dab24939e3aa", "is_disabled": 0, "rental_uris": {"android": "https://dc.lft.to/lastmile_qr_scan", "ios": "https://dc.lft.to/lastmile_qr_scan"}, "fusion_lon": 0.0, "lat": 38.91474183333333, "bike_id": "9ba44142dc095d722277dab24939e3aa", "type": "electric_scooter", "is_reserved": 0, "lon": -76.98106116666666}, {"fusion_lat": 0.0, "name": "073c05ac79689f3a3acad26a0bceff66", "is_disabled": 0, "rental_uris": {"android": "https://dc.lft.to/lastmile_qr_scan", "ios": "https://dc.lft.to/lastmile_qr_scan"}, "fusion_lon": 0.0, "lat": 38.914792, "bike_id": "073c05ac79689f3a3acad26a0bceff66", "type": "electric_scooter", "is_reserved": 0, "lon": -77.0460915}, {"fusion_lat": 0.0, "name": "7354ba6c373e03cec7554b6b53544685", "is_disabled": 0, "rental_uris": {"android": "https://dc.lft.to/lastmile_qr_scan", "ios": "https://dc.lft.to/lastmile_qr_scan"}, "fusion_lon": 0.0, "lat": 38.9334735, "bike_id": "7354ba6c373e03cec7554b6b53544685", "type": "electric_scooter", "is_reserved": 0, "lon": -77.0619505}, {"fusion_lat": 0.0, "name": "340caa2ff15108509d153343fb06fd4a", "is_disabled": 0, "rental_uris": {"android": "https://dc.lft.to/lastmile_qr_scan", "ios": "https://dc.lft.to/lastmile_qr_scan"}, "fusion_lon": 0.0, "lat": 38.896729, "bike_id": "340caa2ff15108509d153343fb06fd4a", "type": "electric_scooter", "is_reserved": 0, "lon": -77.0506265}, {"fusion_lat": 0.0, "name": "e0cf313349b69d544efd53bb1678005d", "is_disabled": 0, "rental_uris": {"android": "https://dc.lft.to/lastmile_qr_scan", "ios": "https://dc.lft.to/lastmile_qr_scan"}, "fusion_lon": 0.0, "lat": 38.96988916666667, "bike_id": "e0cf313349b69d544efd53bb1678005d", "type": "electric_scooter", "is_reserved": 0, "lon": -77.01159383333334}, {"fusion_lat": 0.0, "name": "c50f194c5d15126673646168ce4c2423", "is_disabled": 0, "rental_uris": {"android": "https://dc.lft.to/lastmile_qr_scan", "ios": "https://dc.lft.to/lastmile_qr_scan"}, "fusion_lon": 0.0, "lat": 38.8730875, "bike_id": "c50f194c5d15126673646168ce4c2423", "type": "electric_scooter", "is_reserved": 0, "lon": -77.00131833333333}, {"fusion_lat": 0.0, "name": "f61931bdb708a050cbe2336a1a73c8c6", "is_disabled": 0, "rental_uris": {"android": "https://dc.lft.to/lastmile_qr_scan", "ios": "https://dc.lft.to/lastmile_qr_scan"}, "fusion_lon": 0.0, "lat": 38.92051, "bike_id": "f61931bdb708a050cbe2336a1a73c8c6", "type": "electric_scooter", "is_reserved": 0, "lon": -77.0434735}, {"fusion_lat": 0.0, "name": "f49731d44eb413c9aad3f3274c6e09e1", "is_disabled": 0, "rental_uris": {"android": "https://dc.lft.to/lastmile_qr_scan", "ios": "https://dc.lft.to/lastmile_qr_scan"}, "fusion_lon": 0.0, "lat": 38.87736983333333, "bike_id": "f49731d44eb413c9aad3f3274c6e09e1", "type": "electric_scooter", "is_reserved": 0, "lon": -77.002608}, {"fusion_lat": 0.0, "name": "f27cad8e1c6904a5fa67233312968ae2", "is_disabled": 0, "rental_uris": {"android": "https://dc.lft.to/lastmile_qr_scan", "ios": "https://dc.lft.to/lastmile_qr_scan"}, "fusion_lon": 0.0, "lat": 38.9061305, "bike_id": "f27cad8e1c6904a5fa67233312968ae2", "type": "electric_scooter", "is_reserved": 0, "lon": -77.05018983333333}, {"fusion_lat": 0.0, "name": "f90cfd6e69584e0e1a6d88953574d574", "is_disabled": 0, "rental_uris": {"android": "https://dc.lft.to/lastmile_qr_scan", "ios": "https://dc.lft.to/lastmile_qr_scan"}, "fusion_lon": 0.0, "lat": 38.89739466666666, "bike_id": "f90cfd6e69584e0e1a6d88953574d574", "type": "electric_scooter", "is_reserved": 0, "lon": -76.94722133333333}, {"fusion_lat": 0.0, "name": "28824d92f994b5e6789703e075b40e29", "is_disabled": 0, "rental_uris": {"android": "https://dc.lft.to/lastmile_qr_scan", "ios": "https://dc.lft.to/lastmile_qr_scan"}, "fusion_lon": 0.0, "lat": 38.92473366666667, "bike_id": "28824d92f994b5e6789703e075b40e29", "type": "electric_scooter", "is_reserved": 0, "lon": -77.03554216666667}, {"fusion_lat": 0.0, "name": "c937a69e547315761d4791128becd156", "is_disabled": 0, "rental_uris": {"android": "https://dc.lft.to/lastmile_qr_scan", "ios": "https://dc.lft.to/lastmile_qr_scan"}, "fusion_lon": 0.0, "lat": 38.874682166666666, "bike_id": "c937a69e547315761d4791128becd156", "type": "electric_scooter", "is_reserved": 0, "lon": -77.00470616666667}, {"fusion_lat": 0.0, "name": "3ec785b723615d1d14cd8ddd3a79c548", "is_disabled": 0, "rental_uris": {"android": "https://dc.lft.to/lastmile_qr_scan", "ios": "https://dc.lft.to/lastmile_qr_scan"}, "fusion_lon": 0.0, "lat": 38.909121999999996, "bike_id": "3ec785b723615d1d14cd8ddd3a79c548", "type": "electric_scooter", "is_reserved": 0, "lon": -77.03432833333333}, {"fusion_lat": 0.0, "name": "98d37cb7a99fd5211be44f0f0e2e75cf", "is_disabled": 0, "rental_uris": {"android": "https://dc.lft.to/lastmile_qr_scan", "ios": "https://dc.lft.to/lastmile_qr_scan"}, "fusion_lon": 0.0, "lat": 38.955105833333334, "bike_id": "98d37cb7a99fd5211be44f0f0e2e75cf", "type": "electric_scooter", "is_reserved": 0, "lon": -77.0283945}, {"fusion_lat": 0.0, "name": "ae46275e11fcdec01c81677ed50702d8", "is_disabled": 0, "rental_uris": {"android": "https://dc.lft.to/lastmile_qr_scan", "ios": "https://dc.lft.to/lastmile_qr_scan"}, "fusion_lon": 0.0, "lat": 38.882480666666666, "bike_id": "ae46275e11fcdec01c81677ed50702d8", "type": "electric_scooter", "is_reserved": 0, "lon": -76.9950105}, {"fusion_lat": 0.0, "name": "bdb52ebddaa2747f6ec1c6456765bf96", "is_disabled": 0, "rental_uris": {"android": "https://dc.lft.to/lastmile_qr_scan", "ios": "https://dc.lft.to/lastmile_qr_scan"}, "fusion_lon": 0.0, "lat": 38.9411115, "bike_id": "bdb52ebddaa2747f6ec1c6456765bf96", "type": "electric_scooter", "is_reserved": 0, "lon": -77.000419}, {"fusion_lat": 0.0, "name": "e6f06f319496427b4dabd37da77a8d2f", "is_disabled": 0, "rental_uris": {"android": "https://dc.lft.to/lastmile_qr_scan", "ios": "https://dc.lft.to/lastmile_qr_scan"}, "fusion_lon": 0.0, "lat": 38.903991166666664, "bike_id": "e6f06f319496427b4dabd37da77a8d2f", "type": "electric_scooter", "is_reserved": 0, "lon": -77.00200666666667}, {"fusion_lat": 0.0, "name": "f9282185e58f30fcac5409e11e50d9dc", "is_disabled": 0, "rental_uris": {"android": "https://dc.lft.to/lastmile_qr_scan", "ios": "https://dc.lft.to/lastmile_qr_scan"}, "fusion_lon": 0.0, "lat": 38.89188633333333, "bike_id": "f9282185e58f30fcac5409e11e50d9dc", "type": "electric_scooter", "is_reserved": 0, "lon": -76.99840166666667}, {"fusion_lat": 0.0, "name": "2faf2c76592fa62f165e0d5583a76fbe", "is_disabled": 0, "rental_uris": {"android": "https://dc.lft.to/lastmile_qr_scan", "ios": "https://dc.lft.to/lastmile_qr_scan"}, "fusion_lon": 0.0, "lat": 38.937555333333336, "bike_id": "2faf2c76592fa62f165e0d5583a76fbe", "type": "electric_bike", "is_reserved": 0, "lon": -76.9582555}, {"fusion_lat": 0.0, "name": "9d3871b216a419eee8395106fe638788", "is_disabled": 0, "rental_uris": {"android": "https://dc.lft.to/lastmile_qr_scan", "ios": "https://dc.lft.to/lastmile_qr_scan"}, "fusion_lon": 0.0, "lat": 38.91206733333333, "bike_id": "9d3871b216a419eee8395106fe638788", "type": "electric_scooter", "is_reserved": 0, "lon": -77.038566}, {"fusion_lat": 0.0, "name": "4816b2c6ed80ab2b98532d18e50eb706", "is_disabled": 0, "rental_uris": {"android": "https://dc.lft.to/lastmile_qr_scan", "ios": "https://dc.lft.to/lastmile_qr_scan"}, "fusion_lon": 0.0, "lat": 38.904899666666665, "bike_id": "4816b2c6ed80ab2b98532d18e50eb706", "type": "electric_scooter", "is_reserved": 0, "lon": -77.04088366666667}, {"fusion_lat": 0.0, "name": "a8e061b2a03c19bf3abd22747dfd5d1a", "is_disabled": 0, "rental_uris": {"android": "https://dc.lft.to/lastmile_qr_scan", "ios": "https://dc.lft.to/lastmile_qr_scan"}, "fusion_lon": 0.0, "lat": 38.919312166666664, "bike_id": "a8e061b2a03c19bf3abd22747dfd5d1a", "type": "electric_scooter", "is_reserved": 0, "lon": -77.04898083333333}, {"fusion_lat": 0.0, "name": "aa121ce027a38341e730c46ddd6cc94a", "is_disabled": 0, "rental_uris": {"android": "https://dc.lft.to/lastmile_qr_scan", "ios": "https://dc.lft.to/lastmile_qr_scan"}, "fusion_lon": 0.0, "lat": 38.91789766666667, "bike_id": "aa121ce027a38341e730c46ddd6cc94a", "type": "electric_scooter", "is_reserved": 0, "lon": -77.04167816666667}, {"fusion_lat": 0.0, "name": "0f955aeb5f9d112347b3a8c1a71f8e01", "is_disabled": 0, "rental_uris": {"android": "https://dc.lft.to/lastmile_qr_scan", "ios": "https://dc.lft.to/lastmile_qr_scan"}, "fusion_lon": 0.0, "lat": 38.899614666666665, "bike_id": "0f955aeb5f9d112347b3a8c1a71f8e01", "type": "electric_bike", "is_reserved": 0, "lon": -76.9867385}, {"fusion_lat": 0.0, "name": "9ae0bc085cfb38422cc314397082ef82", "is_disabled": 0, "rental_uris": {"android": "https://dc.lft.to/lastmile_qr_scan", "ios": "https://dc.lft.to/lastmile_qr_scan"}, "fusion_lon": 0.0, "lat": 38.937747333333334, "bike_id": "9ae0bc085cfb38422cc314397082ef82", "type": "electric_bike", "is_reserved": 0, "lon": -77.01903583333333}, {"fusion_lat": 0.0, "name": "9dc6170f55de1571d3a5df9a30d00868", "is_disabled": 0, "rental_uris": {"android": "https://dc.lft.to/lastmile_qr_scan", "ios": "https://dc.lft.to/lastmile_qr_scan"}, "fusion_lon": 0.0, "lat": 38.95267833333333, "bike_id": "9dc6170f55de1571d3a5df9a30d00868", "type": "electric_bike", "is_reserved": 0, "lon": -76.9987545}, {"fusion_lat": 0.0, "name": "8ca2cc7b4621b9d29657f7e7c48e518f", "is_disabled": 0, "rental_uris": {"android": "https://dc.lft.to/lastmile_qr_scan", "ios": "https://dc.lft.to/lastmile_qr_scan"}, "fusion_lon": 0.0, "lat": 38.893823166666664, "bike_id": "8ca2cc7b4621b9d29657f7e7c48e518f", "type": "electric_scooter", "is_reserved": 0, "lon": -76.92307966666667}, {"fusion_lat": 0.0, "name": "8ab6f5717d254d07087d92b346d0604c", "is_disabled": 0, "rental_uris": {"android": "https://dc.lft.to/lastmile_qr_scan", "ios": "https://dc.lft.to/lastmile_qr_scan"}, "fusion_lon": 0.0, "lat": 38.91022383333333, "bike_id": "8ab6f5717d254d07087d92b346d0604c", "type": "electric_scooter", "is_reserved": 0, "lon": -77.06895866666666}, {"fusion_lat": 0.0, "name": "d8267038be31baa9ee5e62001f5ae8a7", "is_disabled": 0, "rental_uris": {"android": "https://dc.lft.to/lastmile_qr_scan", "ios": "https://dc.lft.to/lastmile_qr_scan"}, "fusion_lon": 0.0, "lat": 38.9077405, "bike_id": "d8267038be31baa9ee5e62001f5ae8a7", "type": "electric_scooter", "is_reserved": 0, "lon": -76.99708}, {"fusion_lat": 0.0, "name": "42c3ab3ab3281ebbd70a73b98108be8a", "is_disabled": 0, "rental_uris": {"android": "https://dc.lft.to/lastmile_qr_scan", "ios": "https://dc.lft.to/lastmile_qr_scan"}, "fusion_lon": 0.0, "lat": 38.940829666666666, "bike_id": "42c3ab3ab3281ebbd70a73b98108be8a", "type": "electric_scooter", "is_reserved": 0, "lon": -77.0263955}, {"fusion_lat": 0.0, "name": "7a18b5c5dc71810eb9719a3142e2f20f", "is_disabled": 0, "rental_uris": {"android": "https://dc.lft.to/lastmile_qr_scan", "ios": "https://dc.lft.to/lastmile_qr_scan"}, "fusion_lon": 0.0, "lat": 38.90351366666667, "bike_id": "7a18b5c5dc71810eb9719a3142e2f20f", "type": "electric_scooter", "is_reserved": 0, "lon": -77.042606}, {"fusion_lat": 0.0, "name": "0357513fe4f676c328765cf6933a7775", "is_disabled": 0, "rental_uris": {"android": "https://dc.lft.to/lastmile_qr_scan", "ios": "https://dc.lft.to/lastmile_qr_scan"}, "fusion_lon": 0.0, "lat": 38.905671166666664, "bike_id": "0357513fe4f676c328765cf6933a7775", "type": "electric_scooter", "is_reserved": 0, "lon": -77.007095}, {"fusion_lat": 0.0, "name": "9136e191179579cdfd09a341740f1b22", "is_disabled": 0, "rental_uris": {"android": "https://dc.lft.to/lastmile_qr_scan", "ios": "https://dc.lft.to/lastmile_qr_scan"}, "fusion_lon": 0.0, "lat": 38.9169325, "bike_id": "9136e191179579cdfd09a341740f1b22", "type": "electric_scooter", "is_reserved": 0, "lon": -77.029175}, {"fusion_lat": 0.0, "name": "fee3c98070173eb1c034835c3168ee0b", "is_disabled": 0, "rental_uris": {"android": "https://dc.lft.to/lastmile_qr_scan", "ios": "https://dc.lft.to/lastmile_qr_scan"}, "fusion_lon": 0.0, "lat": 38.90693816666667, "bike_id": "fee3c98070173eb1c034835c3168ee0b", "type": "electric_scooter", "is_reserved": 0, "lon": -77.04208733333333}, {"fusion_lat": 0.0, "name": "5a7da4cdfcc6b9e320b4cf2975768f8a", "is_disabled": 0, "rental_uris": {"android": "https://dc.lft.to/lastmile_qr_scan", "ios": "https://dc.lft.to/lastmile_qr_scan"}, "fusion_lon": 0.0, "lat": 38.9125865, "bike_id": "5a7da4cdfcc6b9e320b4cf2975768f8a", "type": "electric_scooter", "is_reserved": 0, "lon": -77.01031533333334}, {"fusion_lat": 0.0, "name": "9f78aab0f955696c823e2aaec8d0f4d6", "is_disabled": 0, "rental_uris": {"android": "https://dc.lft.to/lastmile_qr_scan", "ios": "https://dc.lft.to/lastmile_qr_scan"}, "fusion_lon": 0.0, "lat": 38.920529, "bike_id": "9f78aab0f955696c823e2aaec8d0f4d6", "type": "electric_scooter", "is_reserved": 0, "lon": -77.03387333333333}, {"fusion_lat": 0.0, "name": "e74838a77c2caab71788b4f5f91162a1", "is_disabled": 0, "rental_uris": {"android": "https://dc.lft.to/lastmile_qr_scan", "ios": "https://dc.lft.to/lastmile_qr_scan"}, "fusion_lon": 0.0, "lat": 38.9304995, "bike_id": "e74838a77c2caab71788b4f5f91162a1", "type": "electric_scooter", "is_reserved": 0, "lon": -77.03205866666667}, {"fusion_lat": 0.0, "name": "982046719403672a9c02e4b65449eaf7", "is_disabled": 0, "rental_uris": {"android": "https://dc.lft.to/lastmile_qr_scan", "ios": "https://dc.lft.to/lastmile_qr_scan"}, "fusion_lon": 0.0, "lat": 38.87374766666667, "bike_id": "982046719403672a9c02e4b65449eaf7", "type": "electric_scooter", "is_reserved": 0, "lon": -77.00034}, {"fusion_lat": 0.0, "name": "f5026aa1908be9a2c5c686b737e958df", "is_disabled": 0, "rental_uris": {"android": "https://dc.lft.to/lastmile_qr_scan", "ios": "https://dc.lft.to/lastmile_qr_scan"}, "fusion_lon": 0.0, "lat": 38.912624666666666, "bike_id": "f5026aa1908be9a2c5c686b737e958df", "type": "electric_scooter", "is_reserved": 0, "lon": -77.03625233333334}, {"fusion_lat": 0.0, "name": "d0e0f15a760772b3b67538c09575d9f3", "is_disabled": 0, "rental_uris": {"android": "https://dc.lft.to/lastmile_qr_scan", "ios": "https://dc.lft.to/lastmile_qr_scan"}, "fusion_lon": 0.0, "lat": 38.878314, "bike_id": "d0e0f15a760772b3b67538c09575d9f3", "type": "electric_scooter", "is_reserved": 0, "lon": -76.96318933333333}, {"fusion_lat": 0.0, "name": "7dbcb5103bbed377d298ea715595e3c3", "is_disabled": 0, "rental_uris": {"android": "https://dc.lft.to/lastmile_qr_scan", "ios": "https://dc.lft.to/lastmile_qr_scan"}, "fusion_lon": 0.0, "lat": 38.924409, "bike_id": "7dbcb5103bbed377d298ea715595e3c3", "type": "electric_scooter", "is_reserved": 0, "lon": -77.02262733333333}, {"fusion_lat": 0.0, "name": "825bd37f1e31e85a07ec5ff5fda29664", "is_disabled": 0, "rental_uris": {"android": "https://dc.lft.to/lastmile_qr_scan", "ios": "https://dc.lft.to/lastmile_qr_scan"}, "fusion_lon": 0.0, "lat": 38.934738833333334, "bike_id": "825bd37f1e31e85a07ec5ff5fda29664", "type": "electric_scooter", "is_reserved": 0, "lon": -77.08661983333333}, {"fusion_lat": 0.0, "name": "768db70479080d29fa20ac9ac249224f", "is_disabled": 0, "rental_uris": {"android": "https://dc.lft.to/lastmile_qr_scan", "ios": "https://dc.lft.to/lastmile_qr_scan"}, "fusion_lon": 0.0, "lat": 38.920667333333334, "bike_id": "768db70479080d29fa20ac9ac249224f", "type": "electric_scooter", "is_reserved": 0, "lon": -77.02387966666667}, {"fusion_lat": 0.0, "name": "de96b88545fae70b480032802a195dcf", "is_disabled": 0, "rental_uris": {"android": "https://dc.lft.to/lastmile_qr_scan", "ios": "https://dc.lft.to/lastmile_qr_scan"}, "fusion_lon": 0.0, "lat": 38.924945666666666, "bike_id": "de96b88545fae70b480032802a195dcf", "type": "electric_scooter", "is_reserved": 0, "lon": -76.985355}, {"fusion_lat": 0.0, "name": "35902641d80dc0a312121dad989d0cb3", "is_disabled": 0, "rental_uris": {"android": "https://dc.lft.to/lastmile_qr_scan", "ios": "https://dc.lft.to/lastmile_qr_scan"}, "fusion_lon": 0.0, "lat": 38.917086, "bike_id": "35902641d80dc0a312121dad989d0cb3", "type": "electric_scooter", "is_reserved": 0, "lon": -77.02403033333333}, {"fusion_lat": 0.0, "name": "827115d68cdd334401a97e72233a54ae", "is_disabled": 0, "rental_uris": {"android": "https://dc.lft.to/lastmile_qr_scan", "ios": "https://dc.lft.to/lastmile_qr_scan"}, "fusion_lon": 0.0, "lat": 38.89228583333333, "bike_id": "827115d68cdd334401a97e72233a54ae", "type": "electric_scooter", "is_reserved": 0, "lon": -77.0487395}, {"fusion_lat": 0.0, "name": "ca5a6e14263adc092675fae2c21f4b40", "is_disabled": 0, "rental_uris": {"android": "https://dc.lft.to/lastmile_qr_scan", "ios": "https://dc.lft.to/lastmile_qr_scan"}, "fusion_lon": 0.0, "lat": 38.90093783333333, "bike_id": "ca5a6e14263adc092675fae2c21f4b40", "type": "electric_scooter", "is_reserved": 0, "lon": -77.049753}, {"fusion_lat": 0.0, "name": "0e154229014471bbee1b325f5c223374", "is_disabled": 0, "rental_uris": {"android": "https://dc.lft.to/lastmile_qr_scan", "ios": "https://dc.lft.to/lastmile_qr_scan"}, "fusion_lon": 0.0, "lat": 38.9542085, "bike_id": "0e154229014471bbee1b325f5c223374", "type": "electric_scooter", "is_reserved": 0, "lon": -77.02760533333333}, {"fusion_lat": 0.0, "name": "4166c006ff23ce97738a6614905c2c23", "is_disabled": 0, "rental_uris": {"android": "https://dc.lft.to/lastmile_qr_scan", "ios": "https://dc.lft.to/lastmile_qr_scan"}, "fusion_lon": 0.0, "lat": 38.886730666666665, "bike_id": "4166c006ff23ce97738a6614905c2c23", "type": "electric_bike", "is_reserved": 0, "lon": -76.99608116666667}, {"fusion_lat": 0.0, "name": "715970b1496153e72cf4a2fc21e34215", "is_disabled": 0, "rental_uris": {"android": "https://dc.lft.to/lastmile_qr_scan", "ios": "https://dc.lft.to/lastmile_qr_scan"}, "fusion_lon": 0.0, "lat": 38.91674283333333, "bike_id": "715970b1496153e72cf4a2fc21e34215", "type": "electric_scooter", "is_reserved": 0, "lon": -77.02349166666667}, {"fusion_lat": 0.0, "name": "6f089efdbc35ad0f6616777c112f3fb7", "is_disabled": 0, "rental_uris": {"android": "https://dc.lft.to/lastmile_qr_scan", "ios": "https://dc.lft.to/lastmile_qr_scan"}, "fusion_lon": 0.0, "lat": 38.885358333333336, "bike_id": "6f089efdbc35ad0f6616777c112f3fb7", "type": "electric_scooter", "is_reserved": 0, "lon": -77.00060666666667}, {"fusion_lat": 0.0, "name": "c1adb07d8d6874bf8d7c0056793845ce", "is_disabled": 0, "rental_uris": {"android": "https://dc.lft.to/lastmile_qr_scan", "ios": "https://dc.lft.to/lastmile_qr_scan"}, "fusion_lon": 0.0, "lat": 38.91927066666667, "bike_id": "c1adb07d8d6874bf8d7c0056793845ce", "type": "electric_scooter", "is_reserved": 0, "lon": -77.03218166666667}, {"fusion_lat": 0.0, "name": "26e28564d38df3b7493326a0f5823556", "is_disabled": 0, "rental_uris": {"android": "https://dc.lft.to/lastmile_qr_scan", "ios": "https://dc.lft.to/lastmile_qr_scan"}, "fusion_lon": 0.0, "lat": 38.885357166666665, "bike_id": "26e28564d38df3b7493326a0f5823556", "type": "electric_scooter", "is_reserved": 0, "lon": -77.00059133333333}, {"fusion_lat": 0.0, "name": "2d063d2d21366bd4473d8108feb3f04d", "is_disabled": 0, "rental_uris": {"android": "https://dc.lft.to/lastmile_qr_scan", "ios": "https://dc.lft.to/lastmile_qr_scan"}, "fusion_lon": 0.0, "lat": 38.923801, "bike_id": "2d063d2d21366bd4473d8108feb3f04d", "type": "electric_scooter", "is_reserved": 0, "lon": -77.0430875}, {"fusion_lat": 0.0, "name": "da69b4da3037e9995d26d71231290a8e", "is_disabled": 0, "rental_uris": {"android": "https://dc.lft.to/lastmile_qr_scan", "ios": "https://dc.lft.to/lastmile_qr_scan"}, "fusion_lon": 0.0, "lat": 38.87745816666666, "bike_id": "da69b4da3037e9995d26d71231290a8e", "type": "electric_scooter", "is_reserved": 0, "lon": -76.99661733333333}, {"fusion_lat": 0.0, "name": "e04ffbc61472700e3ebac27429ac662c", "is_disabled": 0, "rental_uris": {"android": "https://dc.lft.to/lastmile_qr_scan", "ios": "https://dc.lft.to/lastmile_qr_scan"}, "fusion_lon": 0.0, "lat": 38.88724883333333, "bike_id": "e04ffbc61472700e3ebac27429ac662c", "type": "electric_scooter", "is_reserved": 0, "lon": -77.01762883333333}, {"fusion_lat": 0.0, "name": "04894a04efac7644f5145b3ef0b4d529", "is_disabled": 0, "rental_uris": {"android": "https://dc.lft.to/lastmile_qr_scan", "ios": "https://dc.lft.to/lastmile_qr_scan"}, "fusion_lon": 0.0, "lat": 38.90396233333333, "bike_id": "04894a04efac7644f5145b3ef0b4d529", "type": "electric_scooter", "is_reserved": 0, "lon": -77.06812033333334}, {"fusion_lat": 0.0, "name": "318daa8b15bf9dab898bbaceb3cd529f", "is_disabled": 0, "rental_uris": {"android": "https://dc.lft.to/lastmile_qr_scan", "ios": "https://dc.lft.to/lastmile_qr_scan"}, "fusion_lon": 0.0, "lat": 38.90454166666667, "bike_id": "318daa8b15bf9dab898bbaceb3cd529f", "type": "electric_scooter", "is_reserved": 0, "lon": -77.00160916666667}, {"fusion_lat": 0.0, "name": "3281dc043f0ec0a7312541fb7979974e", "is_disabled": 0, "rental_uris": {"android": "https://dc.lft.to/lastmile_qr_scan", "ios": "https://dc.lft.to/lastmile_qr_scan"}, "fusion_lon": 0.0, "lat": 38.90462483333334, "bike_id": "3281dc043f0ec0a7312541fb7979974e", "type": "electric_scooter", "is_reserved": 0, "lon": -77.0628875}, {"fusion_lat": 0.0, "name": "481ec4c581f34a43e1b856a03ec39d90", "is_disabled": 0, "rental_uris": {"android": "https://dc.lft.to/lastmile_qr_scan", "ios": "https://dc.lft.to/lastmile_qr_scan"}, "fusion_lon": 0.0, "lat": 38.91813966666667, "bike_id": "481ec4c581f34a43e1b856a03ec39d90", "type": "electric_scooter", "is_reserved": 0, "lon": -77.03902416666666}, {"fusion_lat": 0.0, "name": "1c1b6d379ed665458746d243d550bc69", "is_disabled": 0, "rental_uris": {"android": "https://dc.lft.to/lastmile_qr_scan", "ios": "https://dc.lft.to/lastmile_qr_scan"}, "fusion_lon": 0.0, "lat": 38.93773916666667, "bike_id": "1c1b6d379ed665458746d243d550bc69", "type": "electric_bike", "is_reserved": 0, "lon": -77.01874383333333}, {"fusion_lat": 0.0, "name": "f08fbb3ffd83dcfee2b3cf1741bd3880", "is_disabled": 0, "rental_uris": {"android": "https://dc.lft.to/lastmile_qr_scan", "ios": "https://dc.lft.to/lastmile_qr_scan"}, "fusion_lon": 0.0, "lat": 38.907096, "bike_id": "f08fbb3ffd83dcfee2b3cf1741bd3880", "type": "electric_scooter", "is_reserved": 0, "lon": -77.04813733333333}, {"fusion_lat": 0.0, "name": "7b7c9abd9b0d45e0b07ed607d733b9a6", "is_disabled": 0, "rental_uris": {"android": "https://dc.lft.to/lastmile_qr_scan", "ios": "https://dc.lft.to/lastmile_qr_scan"}, "fusion_lon": 0.0, "lat": 38.88547666666667, "bike_id": "7b7c9abd9b0d45e0b07ed607d733b9a6", "type": "electric_scooter", "is_reserved": 0, "lon": -77.01995466666666}, {"fusion_lat": 0.0, "name": "25c53a8477cb4a5d442e0d14d30ad3f3", "is_disabled": 0, "rental_uris": {"android": "https://dc.lft.to/lastmile_qr_scan", "ios": "https://dc.lft.to/lastmile_qr_scan"}, "fusion_lon": 0.0, "lat": 38.90542116666667, "bike_id": "25c53a8477cb4a5d442e0d14d30ad3f3", "type": "electric_scooter", "is_reserved": 0, "lon": -77.062898}, {"fusion_lat": 0.0, "name": "ebfe2995b71f7fb57f8fd0e5956bf38e", "is_disabled": 0, "rental_uris": {"android": "https://dc.lft.to/lastmile_qr_scan", "ios": "https://dc.lft.to/lastmile_qr_scan"}, "fusion_lon": 0.0, "lat": 38.887338166666666, "bike_id": "ebfe2995b71f7fb57f8fd0e5956bf38e", "type": "electric_scooter", "is_reserved": 0, "lon": -77.00350333333333}, {"fusion_lat": 0.0, "name": "ab7027719ae3b2ff6e75fdb610cb6337", "is_disabled": 0, "rental_uris": {"android": "https://dc.lft.to/lastmile_qr_scan", "ios": "https://dc.lft.to/lastmile_qr_scan"}, "fusion_lon": 0.0, "lat": 38.9346145, "bike_id": "ab7027719ae3b2ff6e75fdb610cb6337", "type": "electric_scooter", "is_reserved": 0, "lon": -77.0411715}, {"fusion_lat": 0.0, "name": "c9e9040303c69ca9fe5f00aaa009f0fa", "is_disabled": 0, "rental_uris": {"android": "https://dc.lft.to/lastmile_qr_scan", "ios": "https://dc.lft.to/lastmile_qr_scan"}, "fusion_lon": 0.0, "lat": 38.900246, "bike_id": "c9e9040303c69ca9fe5f00aaa009f0fa", "type": "electric_scooter", "is_reserved": 0, "lon": -77.01204366666667}, {"fusion_lat": 0.0, "name": "fbfc8cd5fc59efe88572aab8b9e61d43", "is_disabled": 0, "rental_uris": {"android": "https://dc.lft.to/lastmile_qr_scan", "ios": "https://dc.lft.to/lastmile_qr_scan"}, "fusion_lon": 0.0, "lat": 38.903061, "bike_id": "fbfc8cd5fc59efe88572aab8b9e61d43", "type": "electric_scooter", "is_reserved": 0, "lon": -77.01198366666667}, {"fusion_lat": 0.0, "name": "e63479e17f4ac6c3d5f7f239fd025c5d", "is_disabled": 0, "rental_uris": {"android": "https://dc.lft.to/lastmile_qr_scan", "ios": "https://dc.lft.to/lastmile_qr_scan"}, "fusion_lon": 0.0, "lat": 38.9207855, "bike_id": "e63479e17f4ac6c3d5f7f239fd025c5d", "type": "electric_scooter", "is_reserved": 0, "lon": -77.02394366666667}, {"fusion_lat": 0.0, "name": "ca8c8c811667f8152c09a6d20627eab9", "is_disabled": 0, "rental_uris": {"android": "https://dc.lft.to/lastmile_qr_scan", "ios": "https://dc.lft.to/lastmile_qr_scan"}, "fusion_lon": 0.0, "lat": 38.91670966666667, "bike_id": "ca8c8c811667f8152c09a6d20627eab9", "type": "electric_scooter", "is_reserved": 0, "lon": -77.02713666666666}, {"fusion_lat": 0.0, "name": "75718aa7a65d1b15fc6cfe3a35ad4790", "is_disabled": 0, "rental_uris": {"android": "https://dc.lft.to/lastmile_qr_scan", "ios": "https://dc.lft.to/lastmile_qr_scan"}, "fusion_lon": 0.0, "lat": 38.94927083333333, "bike_id": "75718aa7a65d1b15fc6cfe3a35ad4790", "type": "electric_bike", "is_reserved": 0, "lon": -77.00795283333333}, {"fusion_lat": 0.0, "name": "12232257de69d01facfb2077ba21c588", "is_disabled": 0, "rental_uris": {"android": "https://dc.lft.to/lastmile_qr_scan", "ios": "https://dc.lft.to/lastmile_qr_scan"}, "fusion_lon": 0.0, "lat": 38.92475316666667, "bike_id": "12232257de69d01facfb2077ba21c588", "type": "electric_scooter", "is_reserved": 0, "lon": -77.03532416666667}, {"fusion_lat": 0.0, "name": "3ea0fa4523a288f4cfc9ed60377f1388", "is_disabled": 0, "rental_uris": {"android": "https://dc.lft.to/lastmile_qr_scan", "ios": "https://dc.lft.to/lastmile_qr_scan"}, "fusion_lon": 0.0, "lat": 38.901401166666666, "bike_id": "3ea0fa4523a288f4cfc9ed60377f1388", "type": "electric_scooter", "is_reserved": 0, "lon": -77.04497466666666}, {"fusion_lat": 0.0, "name": "70f8567de9e18f7411102fea2b569e45", "is_disabled": 0, "rental_uris": {"android": "https://dc.lft.to/lastmile_qr_scan", "ios": "https://dc.lft.to/lastmile_qr_scan"}, "fusion_lon": 0.0, "lat": 38.993839666666666, "bike_id": "70f8567de9e18f7411102fea2b569e45", "type": "electric_bike", "is_reserved": 0, "lon": -76.92881633333333}, {"fusion_lat": 0.0, "name": "14ae028aac238fea61abb71a0527313b", "is_disabled": 0, "rental_uris": {"android": "https://dc.lft.to/lastmile_qr_scan", "ios": "https://dc.lft.to/lastmile_qr_scan"}, "fusion_lon": 0.0, "lat": 38.920468, "bike_id": "14ae028aac238fea61abb71a0527313b", "type": "electric_scooter", "is_reserved": 0, "lon": -77.0340475}, {"fusion_lat": 0.0, "name": "e0e079c6baf194f4c977ff8912fb90ff", "is_disabled": 0, "rental_uris": {"android": "https://dc.lft.to/lastmile_qr_scan", "ios": "https://dc.lft.to/lastmile_qr_scan"}, "fusion_lon": 0.0, "lat": 38.916666166666666, "bike_id": "e0e079c6baf194f4c977ff8912fb90ff", "type": "electric_scooter", "is_reserved": 0, "lon": -77.0226705}, {"fusion_lat": 0.0, "name": "6aa6c1d6df3213e0f08ebf3a2bb3814d", "is_disabled": 0, "rental_uris": {"android": "https://dc.lft.to/lastmile_qr_scan", "ios": "https://dc.lft.to/lastmile_qr_scan"}, "fusion_lon": 0.0, "lat": 38.89838483333333, "bike_id": "6aa6c1d6df3213e0f08ebf3a2bb3814d", "type": "electric_scooter", "is_reserved": 0, "lon": -77.02986616666666}, {"fusion_lat": 0.0, "name": "ef5b50f56c4d76fffc4faf6893ec57e0", "is_disabled": 0, "rental_uris": {"android": "https://dc.lft.to/lastmile_qr_scan", "ios": "https://dc.lft.to/lastmile_qr_scan"}, "fusion_lon": 0.0, "lat": 38.93078583333333, "bike_id": "ef5b50f56c4d76fffc4faf6893ec57e0", "type": "electric_scooter", "is_reserved": 0, "lon": -77.02001116666666}, {"fusion_lat": 0.0, "name": "a81f761d4195f2491ad4e24091d818fa", "is_disabled": 0, "rental_uris": {"android": "https://dc.lft.to/lastmile_qr_scan", "ios": "https://dc.lft.to/lastmile_qr_scan"}, "fusion_lon": 0.0, "lat": 38.92671383333333, "bike_id": "a81f761d4195f2491ad4e24091d818fa", "type": "electric_scooter", "is_reserved": 0, "lon": -77.0230545}, {"fusion_lat": 0.0, "name": "234c404ebbd2f03c01ff9ff23fc75e90", "is_disabled": 0, "rental_uris": {"android": "https://dc.lft.to/lastmile_qr_scan", "ios": "https://dc.lft.to/lastmile_qr_scan"}, "fusion_lon": 0.0, "lat": 38.907738333333334, "bike_id": "234c404ebbd2f03c01ff9ff23fc75e90", "type": "electric_scooter", "is_reserved": 0, "lon": -76.99384916666666}, {"fusion_lat": 0.0, "name": "da00a42ad54e5ec1f4a825dde66e479a", "is_disabled": 0, "rental_uris": {"android": "https://dc.lft.to/lastmile_qr_scan", "ios": "https://dc.lft.to/lastmile_qr_scan"}, "fusion_lon": 0.0, "lat": 38.894714, "bike_id": "da00a42ad54e5ec1f4a825dde66e479a", "type": "electric_scooter", "is_reserved": 0, "lon": -77.01762766666667}, {"fusion_lat": 0.0, "name": "70418e324fef2406f62a8a8e60400228", "is_disabled": 0, "rental_uris": {"android": "https://dc.lft.to/lastmile_qr_scan", "ios": "https://dc.lft.to/lastmile_qr_scan"}, "fusion_lon": 0.0, "lat": 38.918103, "bike_id": "70418e324fef2406f62a8a8e60400228", "type": "electric_scooter", "is_reserved": 0, "lon": -77.02683666666667}, {"fusion_lat": 0.0, "name": "d0e46f92679e9fd02129acb9c7d5544e", "is_disabled": 0, "rental_uris": {"android": "https://dc.lft.to/lastmile_qr_scan", "ios": "https://dc.lft.to/lastmile_qr_scan"}, "fusion_lon": 0.0, "lat": 38.927621, "bike_id": "d0e46f92679e9fd02129acb9c7d5544e", "type": "electric_scooter", "is_reserved": 0, "lon": -77.02961166666667}, {"fusion_lat": 0.0, "name": "019268677a251e56b2e1302d2a8b72f2", "is_disabled": 0, "rental_uris": {"android": "https://dc.lft.to/lastmile_qr_scan", "ios": "https://dc.lft.to/lastmile_qr_scan"}, "fusion_lon": 0.0, "lat": 38.901559166666665, "bike_id": "019268677a251e56b2e1302d2a8b72f2", "type": "electric_scooter", "is_reserved": 0, "lon": -77.0330455}, {"fusion_lat": 0.0, "name": "0c5c4212dfac1196699c1d591c1be9b9", "is_disabled": 0, "rental_uris": {"android": "https://dc.lft.to/lastmile_qr_scan", "ios": "https://dc.lft.to/lastmile_qr_scan"}, "fusion_lon": 0.0, "lat": 38.91700433333333, "bike_id": "0c5c4212dfac1196699c1d591c1be9b9", "type": "electric_scooter", "is_reserved": 0, "lon": -77.01600516666667}, {"fusion_lat": 0.0, "name": "2f22897b8eeac6f094100142a5b3a4e4", "is_disabled": 0, "rental_uris": {"android": "https://dc.lft.to/lastmile_qr_scan", "ios": "https://dc.lft.to/lastmile_qr_scan"}, "fusion_lon": 0.0, "lat": 38.91259683333333, "bike_id": "2f22897b8eeac6f094100142a5b3a4e4", "type": "electric_scooter", "is_reserved": 0, "lon": -77.03870333333333}, {"fusion_lat": 0.0, "name": "e21b0c36a5c08a7f528b3811ff30e5c2", "is_disabled": 0, "rental_uris": {"android": "https://dc.lft.to/lastmile_qr_scan", "ios": "https://dc.lft.to/lastmile_qr_scan"}, "fusion_lon": 0.0, "lat": 38.9176225, "bike_id": "e21b0c36a5c08a7f528b3811ff30e5c2", "type": "electric_scooter", "is_reserved": 0, "lon": -77.06948366666667}, {"fusion_lat": 0.0, "name": "8c0338041826523a8e20336cbb126cd4", "is_disabled": 0, "rental_uris": {"android": "https://dc.lft.to/lastmile_qr_scan", "ios": "https://dc.lft.to/lastmile_qr_scan"}, "fusion_lon": 0.0, "lat": 38.892863, "bike_id": "8c0338041826523a8e20336cbb126cd4", "type": "electric_scooter", "is_reserved": 0, "lon": -77.03206416666667}, {"fusion_lat": 0.0, "name": "0627c3e13000cf83d0346ac8fd22f8ee", "is_disabled": 0, "rental_uris": {"android": "https://dc.lft.to/lastmile_qr_scan", "ios": "https://dc.lft.to/lastmile_qr_scan"}, "fusion_lon": 0.0, "lat": 38.90234516666666, "bike_id": "0627c3e13000cf83d0346ac8fd22f8ee", "type": "electric_scooter", "is_reserved": 0, "lon": -77.00200266666667}, {"fusion_lat": 0.0, "name": "e81ae9d9231e5261d1c429a36a644333", "is_disabled": 0, "rental_uris": {"android": "https://dc.lft.to/lastmile_qr_scan", "ios": "https://dc.lft.to/lastmile_qr_scan"}, "fusion_lon": 0.0, "lat": 38.87363033333333, "bike_id": "e81ae9d9231e5261d1c429a36a644333", "type": "electric_scooter", "is_reserved": 0, "lon": -77.0005545}, {"fusion_lat": 0.0, "name": "426ba47a4f08b3d7c1da407466f433c6", "is_disabled": 0, "rental_uris": {"android": "https://dc.lft.to/lastmile_qr_scan", "ios": "https://dc.lft.to/lastmile_qr_scan"}, "fusion_lon": 0.0, "lat": 38.87464966666667, "bike_id": "426ba47a4f08b3d7c1da407466f433c6", "type": "electric_scooter", "is_reserved": 0, "lon": -77.00467183333333}, {"fusion_lat": 0.0, "name": "d9f89d321a1718dbeb9074cb34765868", "is_disabled": 0, "rental_uris": {"android": "https://dc.lft.to/lastmile_qr_scan", "ios": "https://dc.lft.to/lastmile_qr_scan"}, "fusion_lon": 0.0, "lat": 38.926421500000004, "bike_id": "d9f89d321a1718dbeb9074cb34765868", "type": "electric_scooter", "is_reserved": 0, "lon": -77.04130266666667}, {"fusion_lat": 0.0, "name": "d18fe1a47b48cf07bb74e1a7c690621b", "is_disabled": 0, "rental_uris": {"android": "https://dc.lft.to/lastmile_qr_scan", "ios": "https://dc.lft.to/lastmile_qr_scan"}, "fusion_lon": 0.0, "lat": 38.91482, "bike_id": "d18fe1a47b48cf07bb74e1a7c690621b", "type": "electric_scooter", "is_reserved": 0, "lon": -77.04233016666667}, {"fusion_lat": 0.0, "name": "a40ee7fc01e06d1d0227f0281e7b3d72", "is_disabled": 0, "rental_uris": {"android": "https://dc.lft.to/lastmile_qr_scan", "ios": "https://dc.lft.to/lastmile_qr_scan"}, "fusion_lon": 0.0, "lat": 38.907992166666666, "bike_id": "a40ee7fc01e06d1d0227f0281e7b3d72", "type": "electric_scooter", "is_reserved": 0, "lon": -77.0345525}, {"fusion_lat": 0.0, "name": "d13d5e9264cfe742fab05ec3c3e30eb8", "is_disabled": 0, "rental_uris": {"android": "https://dc.lft.to/lastmile_qr_scan", "ios": "https://dc.lft.to/lastmile_qr_scan"}, "fusion_lon": 0.0, "lat": 38.92345266666667, "bike_id": "d13d5e9264cfe742fab05ec3c3e30eb8", "type": "electric_scooter", "is_reserved": 0, "lon": -77.03896566666667}, {"fusion_lat": 0.0, "name": "d2424d035af02701cb6706e6e08b9c5a", "is_disabled": 0, "rental_uris": {"android": "https://dc.lft.to/lastmile_qr_scan", "ios": "https://dc.lft.to/lastmile_qr_scan"}, "fusion_lon": 0.0, "lat": 38.90240133333333, "bike_id": "d2424d035af02701cb6706e6e08b9c5a", "type": "electric_scooter", "is_reserved": 0, "lon": -77.01813366666667}, {"fusion_lat": 0.0, "name": "66466dee981ce9ed6847842ae740cf78", "is_disabled": 0, "rental_uris": {"android": "https://dc.lft.to/lastmile_qr_scan", "ios": "https://dc.lft.to/lastmile_qr_scan"}, "fusion_lon": 0.0, "lat": 38.94268366666667, "bike_id": "66466dee981ce9ed6847842ae740cf78", "type": "electric_scooter", "is_reserved": 0, "lon": -77.03256033333334}, {"fusion_lat": 0.0, "name": "251b0cb769885ec19a83ef4fa14e61b2", "is_disabled": 0, "rental_uris": {"android": "https://dc.lft.to/lastmile_qr_scan", "ios": "https://dc.lft.to/lastmile_qr_scan"}, "fusion_lon": 0.0, "lat": 38.93479116666666, "bike_id": "251b0cb769885ec19a83ef4fa14e61b2", "type": "electric_scooter", "is_reserved": 0, "lon": -77.07273916666666}, {"fusion_lat": 0.0, "name": "f9c1630688c1aa28c5560e051ac5a548", "is_disabled": 0, "rental_uris": {"android": "https://dc.lft.to/lastmile_qr_scan", "ios": "https://dc.lft.to/lastmile_qr_scan"}, "fusion_lon": 0.0, "lat": 38.89790633333333, "bike_id": "f9c1630688c1aa28c5560e051ac5a548", "type": "electric_scooter", "is_reserved": 0, "lon": -76.947343}, {"fusion_lat": 0.0, "name": "d34ad35a2bcc2b0b52a7e9005a6f5535", "is_disabled": 0, "rental_uris": {"android": "https://dc.lft.to/lastmile_qr_scan", "ios": "https://dc.lft.to/lastmile_qr_scan"}, "fusion_lon": 0.0, "lat": 38.90267516666667, "bike_id": "d34ad35a2bcc2b0b52a7e9005a6f5535", "type": "electric_scooter", "is_reserved": 0, "lon": -77.03629133333334}, {"fusion_lat": 0.0, "name": "4de775023a2ed5ea3a33f431feca9eb6", "is_disabled": 0, "rental_uris": {"android": "https://dc.lft.to/lastmile_qr_scan", "ios": "https://dc.lft.to/lastmile_qr_scan"}, "fusion_lon": 0.0, "lat": 38.914865, "bike_id": "4de775023a2ed5ea3a33f431feca9eb6", "type": "electric_bike", "is_reserved": 0, "lon": -77.018486}, {"fusion_lat": 0.0, "name": "4c172875da7e0185685d1b0cc86849ab", "is_disabled": 0, "rental_uris": {"android": "https://dc.lft.to/lastmile_qr_scan", "ios": "https://dc.lft.to/lastmile_qr_scan"}, "fusion_lon": 0.0, "lat": 38.90461966666667, "bike_id": "4c172875da7e0185685d1b0cc86849ab", "type": "electric_scooter", "is_reserved": 0, "lon": -77.04849716666666}, {"fusion_lat": 0.0, "name": "1dc8ac8ba6bd7659f7cb5a67cf2b8b74", "is_disabled": 0, "rental_uris": {"android": "https://dc.lft.to/lastmile_qr_scan", "ios": "https://dc.lft.to/lastmile_qr_scan"}, "fusion_lon": 0.0, "lat": 38.898885166666666, "bike_id": "1dc8ac8ba6bd7659f7cb5a67cf2b8b74", "type": "electric_scooter", "is_reserved": 0, "lon": -76.933432}, {"fusion_lat": 0.0, "name": "d28973aa8cd200e7423e8b491d64b2cf", "is_disabled": 0, "rental_uris": {"android": "https://dc.lft.to/lastmile_qr_scan", "ios": "https://dc.lft.to/lastmile_qr_scan"}, "fusion_lon": 0.0, "lat": 38.9169025, "bike_id": "d28973aa8cd200e7423e8b491d64b2cf", "type": "electric_scooter", "is_reserved": 0, "lon": -77.03377866666666}, {"fusion_lat": 0.0, "name": "ea91fea92a801f16552c75f230b1991f", "is_disabled": 0, "rental_uris": {"android": "https://dc.lft.to/lastmile_qr_scan", "ios": "https://dc.lft.to/lastmile_qr_scan"}, "fusion_lon": 0.0, "lat": 38.93538733333333, "bike_id": "ea91fea92a801f16552c75f230b1991f", "type": "electric_scooter", "is_reserved": 0, "lon": -77.05741833333333}, {"fusion_lat": 0.0, "name": "c6ebf84892fc720452b48cdb4ee78e34", "is_disabled": 0, "rental_uris": {"android": "https://dc.lft.to/lastmile_qr_scan", "ios": "https://dc.lft.to/lastmile_qr_scan"}, "fusion_lon": 0.0, "lat": 38.89294983333333, "bike_id": "c6ebf84892fc720452b48cdb4ee78e34", "type": "electric_scooter", "is_reserved": 0, "lon": -77.01240666666666}, {"fusion_lat": 0.0, "name": "b195cd8701e2060b26fa53b009664e82", "is_disabled": 0, "rental_uris": {"android": "https://dc.lft.to/lastmile_qr_scan", "ios": "https://dc.lft.to/lastmile_qr_scan"}, "fusion_lon": 0.0, "lat": 38.901261166666664, "bike_id": "b195cd8701e2060b26fa53b009664e82", "type": "electric_scooter", "is_reserved": 0, "lon": -77.00208616666667}, {"fusion_lat": 0.0, "name": "0cf74af1423dd025c3e227c47a0e4a5d", "is_disabled": 0, "rental_uris": {"android": "https://dc.lft.to/lastmile_qr_scan", "ios": "https://dc.lft.to/lastmile_qr_scan"}, "fusion_lon": 0.0, "lat": 38.919459333333336, "bike_id": "0cf74af1423dd025c3e227c47a0e4a5d", "type": "electric_scooter", "is_reserved": 0, "lon": -77.03204866666667}, {"fusion_lat": 0.0, "name": "5bcbadf06993b68f90ac0dd8c301bd1d", "is_disabled": 0, "rental_uris": {"android": "https://dc.lft.to/lastmile_qr_scan", "ios": "https://dc.lft.to/lastmile_qr_scan"}, "fusion_lon": 0.0, "lat": 38.909933333333335, "bike_id": "5bcbadf06993b68f90ac0dd8c301bd1d", "type": "electric_scooter", "is_reserved": 0, "lon": -77.046731}, {"fusion_lat": 0.0, "name": "bb28d7b9bf0ab8f04caa780d14da90a2", "is_disabled": 0, "rental_uris": {"android": "https://dc.lft.to/lastmile_qr_scan", "ios": "https://dc.lft.to/lastmile_qr_scan"}, "fusion_lon": 0.0, "lat": 38.905539, "bike_id": "bb28d7b9bf0ab8f04caa780d14da90a2", "type": "electric_scooter", "is_reserved": 0, "lon": -77.04647016666667}, {"fusion_lat": 0.0, "name": "b2aed30b05dfda8b3f0bc25f2ab7215c", "is_disabled": 0, "rental_uris": {"android": "https://dc.lft.to/lastmile_qr_scan", "ios": "https://dc.lft.to/lastmile_qr_scan"}, "fusion_lon": 0.0, "lat": 38.93862, "bike_id": "b2aed30b05dfda8b3f0bc25f2ab7215c", "type": "electric_scooter", "is_reserved": 0, "lon": -77.03431933333333}, {"fusion_lat": 0.0, "name": "d8b73120e9705917e6f4c5978573d96a", "is_disabled": 0, "rental_uris": {"android": "https://dc.lft.to/lastmile_qr_scan", "ios": "https://dc.lft.to/lastmile_qr_scan"}, "fusion_lon": 0.0, "lat": 38.93396283333333, "bike_id": "d8b73120e9705917e6f4c5978573d96a", "type": "electric_scooter", "is_reserved": 0, "lon": -77.05742533333333}, {"fusion_lat": 0.0, "name": "3394acf96e96274f793d4e3ef986c182", "is_disabled": 0, "rental_uris": {"android": "https://dc.lft.to/lastmile_qr_scan", "ios": "https://dc.lft.to/lastmile_qr_scan"}, "fusion_lon": 0.0, "lat": 38.89501766666667, "bike_id": "3394acf96e96274f793d4e3ef986c182", "type": "electric_scooter", "is_reserved": 0, "lon": -77.00326966666667}, {"fusion_lat": 0.0, "name": "647de944586c8c78ff98c45898a1e6c6", "is_disabled": 0, "rental_uris": {"android": "https://dc.lft.to/lastmile_qr_scan", "ios": "https://dc.lft.to/lastmile_qr_scan"}, "fusion_lon": 0.0, "lat": 38.92084166666667, "bike_id": "647de944586c8c78ff98c45898a1e6c6", "type": "electric_scooter", "is_reserved": 0, "lon": -77.01394183333333}, {"fusion_lat": 0.0, "name": "0afb653da655fbbbf5e20f70014bd9fd", "is_disabled": 0, "rental_uris": {"android": "https://dc.lft.to/lastmile_qr_scan", "ios": "https://dc.lft.to/lastmile_qr_scan"}, "fusion_lon": 0.0, "lat": 38.90083333333333, "bike_id": "0afb653da655fbbbf5e20f70014bd9fd", "type": "electric_scooter", "is_reserved": 0, "lon": -76.98324416666667}, {"fusion_lat": 0.0, "name": "a317fbd5a19df8c7b6936f2c72bd6023", "is_disabled": 0, "rental_uris": {"android": "https://dc.lft.to/lastmile_qr_scan", "ios": "https://dc.lft.to/lastmile_qr_scan"}, "fusion_lon": 0.0, "lat": 38.901303, "bike_id": "a317fbd5a19df8c7b6936f2c72bd6023", "type": "electric_scooter", "is_reserved": 0, "lon": -77.04190916666667}, {"fusion_lat": 0.0, "name": "7df91257a82d772adafede2c168ed5e1", "is_disabled": 0, "rental_uris": {"android": "https://dc.lft.to/lastmile_qr_scan", "ios": "https://dc.lft.to/lastmile_qr_scan"}, "fusion_lon": 0.0, "lat": 38.9354425, "bike_id": "7df91257a82d772adafede2c168ed5e1", "type": "electric_scooter", "is_reserved": 0, "lon": -77.081838}, {"fusion_lat": 0.0, "name": "0d742b6ef6f753e4f65956553daa7f25", "is_disabled": 0, "rental_uris": {"android": "https://dc.lft.to/lastmile_qr_scan", "ios": "https://dc.lft.to/lastmile_qr_scan"}, "fusion_lon": 0.0, "lat": 38.905275333333336, "bike_id": "0d742b6ef6f753e4f65956553daa7f25", "type": "electric_scooter", "is_reserved": 0, "lon": -77.065293}, {"fusion_lat": 0.0, "name": "c1ee3cb0c11a0e7dd23237b6e885a0a8", "is_disabled": 0, "rental_uris": {"android": "https://dc.lft.to/lastmile_qr_scan", "ios": "https://dc.lft.to/lastmile_qr_scan"}, "fusion_lon": 0.0, "lat": 38.8853465, "bike_id": "c1ee3cb0c11a0e7dd23237b6e885a0a8", "type": "electric_scooter", "is_reserved": 0, "lon": -76.99824516666666}, {"fusion_lat": 0.0, "name": "12e49a242c397b3d4e9c274ed0d11846", "is_disabled": 0, "rental_uris": {"android": "https://dc.lft.to/lastmile_qr_scan", "ios": "https://dc.lft.to/lastmile_qr_scan"}, "fusion_lon": 0.0, "lat": 38.9243275, "bike_id": "12e49a242c397b3d4e9c274ed0d11846", "type": "electric_scooter", "is_reserved": 0, "lon": -77.02024333333334}, {"fusion_lat": 0.0, "name": "d45c82c5b7b29023b4520fd667ad4852", "is_disabled": 0, "rental_uris": {"android": "https://dc.lft.to/lastmile_qr_scan", "ios": "https://dc.lft.to/lastmile_qr_scan"}, "fusion_lon": 0.0, "lat": 38.922343166666664, "bike_id": "d45c82c5b7b29023b4520fd667ad4852", "type": "electric_scooter", "is_reserved": 0, "lon": -77.02909866666667}, {"fusion_lat": 0.0, "name": "90c84473be2308ecea88421825d6167f", "is_disabled": 0, "rental_uris": {"android": "https://dc.lft.to/lastmile_qr_scan", "ios": "https://dc.lft.to/lastmile_qr_scan"}, "fusion_lon": 0.0, "lat": 38.92007483333333, "bike_id": "90c84473be2308ecea88421825d6167f", "type": "electric_scooter", "is_reserved": 0, "lon": -77.0321455}, {"fusion_lat": 0.0, "name": "5113b814cc02dcb60b33d098ec8513b0", "is_disabled": 0, "rental_uris": {"android": "https://dc.lft.to/lastmile_qr_scan", "ios": "https://dc.lft.to/lastmile_qr_scan"}, "fusion_lon": 0.0, "lat": 38.9019295, "bike_id": "5113b814cc02dcb60b33d098ec8513b0", "type": "electric_scooter", "is_reserved": 0, "lon": -77.02454}, {"fusion_lat": 0.0, "name": "2f616a2d2f899268c8901e16be518167", "is_disabled": 0, "rental_uris": {"android": "https://dc.lft.to/lastmile_qr_scan", "ios": "https://dc.lft.to/lastmile_qr_scan"}, "fusion_lon": 0.0, "lat": 38.9305505, "bike_id": "2f616a2d2f899268c8901e16be518167", "type": "electric_scooter", "is_reserved": 0, "lon": -77.0235215}, {"fusion_lat": 0.0, "name": "296a5036beb53ffa517d0c83284726e2", "is_disabled": 0, "rental_uris": {"android": "https://dc.lft.to/lastmile_qr_scan", "ios": "https://dc.lft.to/lastmile_qr_scan"}, "fusion_lon": 0.0, "lat": 38.92124183333333, "bike_id": "296a5036beb53ffa517d0c83284726e2", "type": "electric_scooter", "is_reserved": 0, "lon": -77.0178575}, {"fusion_lat": 0.0, "name": "11d3caf1b2a1948452573e16991e0b38", "is_disabled": 0, "rental_uris": {"android": "https://dc.lft.to/lastmile_qr_scan", "ios": "https://dc.lft.to/lastmile_qr_scan"}, "fusion_lon": 0.0, "lat": 38.91710533333333, "bike_id": "11d3caf1b2a1948452573e16991e0b38", "type": "electric_scooter", "is_reserved": 0, "lon": -76.97659016666667}, {"fusion_lat": 0.0, "name": "4faa0cbd798bc044d538e111f5c3b2ad", "is_disabled": 0, "rental_uris": {"android": "https://dc.lft.to/lastmile_qr_scan", "ios": "https://dc.lft.to/lastmile_qr_scan"}, "fusion_lon": 0.0, "lat": 38.903839833333336, "bike_id": "4faa0cbd798bc044d538e111f5c3b2ad", "type": "electric_scooter", "is_reserved": 0, "lon": -77.060196}, {"fusion_lat": 0.0, "name": "528a3e9a5af92935aa40a77f2916822d", "is_disabled": 0, "rental_uris": {"android": "https://dc.lft.to/lastmile_qr_scan", "ios": "https://dc.lft.to/lastmile_qr_scan"}, "fusion_lon": 0.0, "lat": 38.9388045, "bike_id": "528a3e9a5af92935aa40a77f2916822d", "type": "electric_scooter", "is_reserved": 0, "lon": -77.0248305}, {"fusion_lat": 0.0, "name": "4a9953e3b084b8468c9189d40afbd380", "is_disabled": 0, "rental_uris": {"android": "https://dc.lft.to/lastmile_qr_scan", "ios": "https://dc.lft.to/lastmile_qr_scan"}, "fusion_lon": 0.0, "lat": 38.88744033333333, "bike_id": "4a9953e3b084b8468c9189d40afbd380", "type": "electric_scooter", "is_reserved": 0, "lon": -77.021239}, {"fusion_lat": 0.0, "name": "6f52bb23b5fdcd6e44e16167bd9d1aa3", "is_disabled": 0, "rental_uris": {"android": "https://dc.lft.to/lastmile_qr_scan", "ios": "https://dc.lft.to/lastmile_qr_scan"}, "fusion_lon": 0.0, "lat": 38.89885966666667, "bike_id": "6f52bb23b5fdcd6e44e16167bd9d1aa3", "type": "electric_scooter", "is_reserved": 0, "lon": -77.05298166666667}, {"fusion_lat": 0.0, "name": "8999b294cb486db398e9c254334adcb7", "is_disabled": 0, "rental_uris": {"android": "https://dc.lft.to/lastmile_qr_scan", "ios": "https://dc.lft.to/lastmile_qr_scan"}, "fusion_lon": 0.0, "lat": 38.9127245, "bike_id": "8999b294cb486db398e9c254334adcb7", "type": "electric_scooter", "is_reserved": 0, "lon": -77.04506966666666}, {"fusion_lat": 0.0, "name": "7160c51bb2ce0d9d733592755133caa2", "is_disabled": 0, "rental_uris": {"android": "https://dc.lft.to/lastmile_qr_scan", "ios": "https://dc.lft.to/lastmile_qr_scan"}, "fusion_lon": 0.0, "lat": 38.884848833333336, "bike_id": "7160c51bb2ce0d9d733592755133caa2", "type": "electric_scooter", "is_reserved": 0, "lon": -77.024162}, {"fusion_lat": 0.0, "name": "1769aa728e3df8446324df0a922801fa", "is_disabled": 0, "rental_uris": {"android": "https://dc.lft.to/lastmile_qr_scan", "ios": "https://dc.lft.to/lastmile_qr_scan"}, "fusion_lon": 0.0, "lat": 38.90270366666667, "bike_id": "1769aa728e3df8446324df0a922801fa", "type": "electric_scooter", "is_reserved": 0, "lon": -76.92897833333333}, {"fusion_lat": 0.0, "name": "2216debd2fccc3e9a7980957440270f1", "is_disabled": 0, "rental_uris": {"android": "https://dc.lft.to/lastmile_qr_scan", "ios": "https://dc.lft.to/lastmile_qr_scan"}, "fusion_lon": 0.0, "lat": 38.901359166666666, "bike_id": "2216debd2fccc3e9a7980957440270f1", "type": "electric_scooter", "is_reserved": 0, "lon": -77.002173}, {"fusion_lat": 0.0, "name": "d46a0a8eda6c12f906e3246d0d41a667", "is_disabled": 0, "rental_uris": {"android": "https://dc.lft.to/lastmile_qr_scan", "ios": "https://dc.lft.to/lastmile_qr_scan"}, "fusion_lon": 0.0, "lat": 38.917885, "bike_id": "d46a0a8eda6c12f906e3246d0d41a667", "type": "electric_scooter", "is_reserved": 0, "lon": -77.02287966666667}, {"fusion_lat": 0.0, "name": "36b3e24fd0cacedc741b06b0a72e3f4b", "is_disabled": 0, "rental_uris": {"android": "https://dc.lft.to/lastmile_qr_scan", "ios": "https://dc.lft.to/lastmile_qr_scan"}, "fusion_lon": 0.0, "lat": 38.917157, "bike_id": "36b3e24fd0cacedc741b06b0a72e3f4b", "type": "electric_scooter", "is_reserved": 0, "lon": -77.03347283333333}, {"fusion_lat": 0.0, "name": "5e28794c88b0baed5409b0f7927071ee", "is_disabled": 0, "rental_uris": {"android": "https://dc.lft.to/lastmile_qr_scan", "ios": "https://dc.lft.to/lastmile_qr_scan"}, "fusion_lon": 0.0, "lat": 38.92082083333333, "bike_id": "5e28794c88b0baed5409b0f7927071ee", "type": "electric_scooter", "is_reserved": 0, "lon": -77.02213616666667}, {"fusion_lat": 0.0, "name": "b0b32a762c537ccfaf8091517e279a0c", "is_disabled": 0, "rental_uris": {"android": "https://dc.lft.to/lastmile_qr_scan", "ios": "https://dc.lft.to/lastmile_qr_scan"}, "fusion_lon": 0.0, "lat": 38.918456, "bike_id": "b0b32a762c537ccfaf8091517e279a0c", "type": "electric_scooter", "is_reserved": 0, "lon": -76.96540083333333}, {"fusion_lat": 0.0, "name": "6a4e7df3bf411811367cd12d73b948b8", "is_disabled": 0, "rental_uris": {"android": "https://dc.lft.to/lastmile_qr_scan", "ios": "https://dc.lft.to/lastmile_qr_scan"}, "fusion_lon": 0.0, "lat": 38.92445716666667, "bike_id": "6a4e7df3bf411811367cd12d73b948b8", "type": "electric_scooter", "is_reserved": 0, "lon": -77.03327983333334}, {"fusion_lat": 0.0, "name": "892c571dc1d04a572648eb73f8f74116", "is_disabled": 0, "rental_uris": {"android": "https://dc.lft.to/lastmile_qr_scan", "ios": "https://dc.lft.to/lastmile_qr_scan"}, "fusion_lon": 0.0, "lat": 38.919285, "bike_id": "892c571dc1d04a572648eb73f8f74116", "type": "electric_scooter", "is_reserved": 0, "lon": -77.0304705}, {"fusion_lat": 0.0, "name": "40e6bc50f4af952d906dd36b61a098e4", "is_disabled": 0, "rental_uris": {"android": "https://dc.lft.to/lastmile_qr_scan", "ios": "https://dc.lft.to/lastmile_qr_scan"}, "fusion_lon": 0.0, "lat": 38.9203175, "bike_id": "40e6bc50f4af952d906dd36b61a098e4", "type": "electric_scooter", "is_reserved": 0, "lon": -77.04177766666666}, {"fusion_lat": 0.0, "name": "db08669340d6a2fef4cc0f1caecf7e71", "is_disabled": 0, "rental_uris": {"android": "https://dc.lft.to/lastmile_qr_scan", "ios": "https://dc.lft.to/lastmile_qr_scan"}, "fusion_lon": 0.0, "lat": 38.88718383333333, "bike_id": "db08669340d6a2fef4cc0f1caecf7e71", "type": "electric_scooter", "is_reserved": 0, "lon": -76.99643133333333}, {"fusion_lat": 0.0, "name": "0fcb4d60128fbe714c52227f7620112f", "is_disabled": 0, "rental_uris": {"android": "https://dc.lft.to/lastmile_qr_scan", "ios": "https://dc.lft.to/lastmile_qr_scan"}, "fusion_lon": 0.0, "lat": 38.87905416666667, "bike_id": "0fcb4d60128fbe714c52227f7620112f", "type": "electric_scooter", "is_reserved": 0, "lon": -77.00566083333334}, {"fusion_lat": 0.0, "name": "21751d0362e1d838ef9b4ecd087f36c2", "is_disabled": 0, "rental_uris": {"android": "https://dc.lft.to/lastmile_qr_scan", "ios": "https://dc.lft.to/lastmile_qr_scan"}, "fusion_lon": 0.0, "lat": 38.89739383333333, "bike_id": "21751d0362e1d838ef9b4ecd087f36c2", "type": "electric_scooter", "is_reserved": 0, "lon": -77.008319}, {"fusion_lat": 0.0, "name": "b1f9de8e98e8c6972f11402e31d6f042", "is_disabled": 0, "rental_uris": {"android": "https://dc.lft.to/lastmile_qr_scan", "ios": "https://dc.lft.to/lastmile_qr_scan"}, "fusion_lon": 0.0, "lat": 38.9327745, "bike_id": "b1f9de8e98e8c6972f11402e31d6f042", "type": "electric_scooter", "is_reserved": 0, "lon": -77.040792}, {"fusion_lat": 0.0, "name": "4a2e930295fba611a91a967d0ae10146", "is_disabled": 0, "rental_uris": {"android": "https://dc.lft.to/lastmile_qr_scan", "ios": "https://dc.lft.to/lastmile_qr_scan"}, "fusion_lon": 0.0, "lat": 38.90958633333334, "bike_id": "4a2e930295fba611a91a967d0ae10146", "type": "electric_scooter", "is_reserved": 0, "lon": -77.014349}, {"fusion_lat": 0.0, "name": "b9f3c16a25d9fc9d679de40b075f2506", "is_disabled": 0, "rental_uris": {"android": "https://dc.lft.to/lastmile_qr_scan", "ios": "https://dc.lft.to/lastmile_qr_scan"}, "fusion_lon": 0.0, "lat": 38.83499233333333, "bike_id": "b9f3c16a25d9fc9d679de40b075f2506", "type": "electric_bike", "is_reserved": 0, "lon": -77.090151}, {"fusion_lat": 0.0, "name": "c7c0c35da618a4bfede971a6e213b3e2", "is_disabled": 0, "rental_uris": {"android": "https://dc.lft.to/lastmile_qr_scan", "ios": "https://dc.lft.to/lastmile_qr_scan"}, "fusion_lon": 0.0, "lat": 38.89757633333333, "bike_id": "c7c0c35da618a4bfede971a6e213b3e2", "type": "electric_scooter", "is_reserved": 0, "lon": -77.00199116666667}, {"fusion_lat": 0.0, "name": "e1602604b42f9186e30cd4c4281e3d77", "is_disabled": 0, "rental_uris": {"android": "https://dc.lft.to/lastmile_qr_scan", "ios": "https://dc.lft.to/lastmile_qr_scan"}, "fusion_lon": 0.0, "lat": 38.9229445, "bike_id": "e1602604b42f9186e30cd4c4281e3d77", "type": "electric_scooter", "is_reserved": 0, "lon": -77.04208533333333}, {"fusion_lat": 0.0, "name": "98cc099af42b5f1e4f2fb077bdbb6182", "is_disabled": 0, "rental_uris": {"android": "https://dc.lft.to/lastmile_qr_scan", "ios": "https://dc.lft.to/lastmile_qr_scan"}, "fusion_lon": 0.0, "lat": 38.915633166666666, "bike_id": "98cc099af42b5f1e4f2fb077bdbb6182", "type": "electric_scooter", "is_reserved": 0, "lon": -77.03164516666666}, {"fusion_lat": 0.0, "name": "243dd5c73b66808adc64e49097a06755", "is_disabled": 0, "rental_uris": {"android": "https://dc.lft.to/lastmile_qr_scan", "ios": "https://dc.lft.to/lastmile_qr_scan"}, "fusion_lon": 0.0, "lat": 38.883881333333335, "bike_id": "243dd5c73b66808adc64e49097a06755", "type": "electric_scooter", "is_reserved": 0, "lon": -76.930432}, {"fusion_lat": 0.0, "name": "c51db73a23639f9cc014daccc5fe84c0", "is_disabled": 0, "rental_uris": {"android": "https://dc.lft.to/lastmile_qr_scan", "ios": "https://dc.lft.to/lastmile_qr_scan"}, "fusion_lon": 0.0, "lat": 38.9073225, "bike_id": "c51db73a23639f9cc014daccc5fe84c0", "type": "electric_scooter", "is_reserved": 0, "lon": -77.0433265}, {"fusion_lat": 0.0, "name": "fc314ccd78a0100af188cc176af1ff95", "is_disabled": 0, "rental_uris": {"android": "https://dc.lft.to/lastmile_qr_scan", "ios": "https://dc.lft.to/lastmile_qr_scan"}, "fusion_lon": 0.0, "lat": 38.919281166666664, "bike_id": "fc314ccd78a0100af188cc176af1ff95", "type": "electric_scooter", "is_reserved": 0, "lon": -77.02663533333333}, {"fusion_lat": 0.0, "name": "1168d5219b93992ecca36f0de3b912d0", "is_disabled": 0, "rental_uris": {"android": "https://dc.lft.to/lastmile_qr_scan", "ios": "https://dc.lft.to/lastmile_qr_scan"}, "fusion_lon": 0.0, "lat": 38.90062533333333, "bike_id": "1168d5219b93992ecca36f0de3b912d0", "type": "electric_scooter", "is_reserved": 0, "lon": -77.0163075}, {"fusion_lat": 0.0, "name": "854e3e38b7ceddfaaf20ceb6b9740167", "is_disabled": 0, "rental_uris": {"android": "https://dc.lft.to/lastmile_qr_scan", "ios": "https://dc.lft.to/lastmile_qr_scan"}, "fusion_lon": 0.0, "lat": 38.910123, "bike_id": "854e3e38b7ceddfaaf20ceb6b9740167", "type": "electric_scooter", "is_reserved": 0, "lon": -77.052931},