{"data": {"bikes": [{"type": "electric_scooter", "name": "f0c91f475be215cd9d2904d2b561fee6", "rental_uris": {"ios": "https://dc.lft.to/lastmile_qr_scan", "android": "https://dc.lft.to/lastmile_qr_scan"}, "fusion_lon": 0.0, "lat": 38.923246, "is_disabled": 0, "bike_id": "f0c91f475be215cd9d2904d2b561fee6", "fusion_lat": 0.0, "is_reserved": 0, "lon": -77.02971266666667}, {"type": "electric_scooter", "name": "839b007564bfc8adde7e465bb2a386f4", "rental_uris": {"ios": "https://dc.lft.to/lastmile_qr_scan", "android": "https://dc.lft.to/lastmile_qr_scan"}, "fusion_lon": 0.0, "lat": 38.905135666666666, "is_disabled": 0, "bike_id": "839b007564bfc8adde7e465bb2a386f4", "fusion_lat": 0.0, "is_reserved": 0, "lon": -77.0677735}, {"type": "electric_scooter", "name": "7e96243b5dbcdc606e6a86aaa47ec16d", "rental_uris": {"ios": "https://dc.lft.to/lastmile_qr_scan", "android": "https://dc.lft.to/lastmile_qr_scan"}, "fusion_lon": 0.0, "lat": 38.89730183333333, "is_disabled": 0, "bike_id": "7e96243b5dbcdc606e6a86aaa47ec16d", "fusion_lat": 0.0, "is_reserved": 0, "lon": -77.05521616666667}, {"type": "electric_scooter", "name": "02fddd67bd39f0ab8dd328f8add6559b", "rental_uris": {"ios": "https://dc.lft.to/lastmile_qr_scan", "android": "https://dc.lft.to/lastmile_qr_scan"}, "fusion_lon": 0.0, "lat": 38.93900766666667, "is_disabled": 0, "bike_id": "02fddd67bd39f0ab8dd328f8add6559b", "fusion_lat": 0.0, "is_reserved": 0, "lon": -77.0332205}, {"type": "electric_scooter", "name": "d99d7b08b75336f1f2378b9e72860d00", "rental_uris": {"ios": "https://dc.lft.to/lastmile_qr_scan", "android": "https://dc.lft.to/lastmile_qr_scan"}, "fusion_lon": 0.0, "lat": 38.927516, "is_disabled": 0, "bike_id": "d99d7b08b75336f1f2378b9e72860d00", "fusion_lat": 0.0, "is_reserved": 0, "lon": -77.02132583333334}, {"type": "electric_scooter", "name": "4b4381c7b355652a61a96cfcc62bd44e", "rental_uris": {"ios": "https://dc.lft.to/lastmile_qr_scan", "android": "https://dc.lft.to/lastmile_qr_scan"}, "fusion_lon": 0.0, "lat": 38.91566133333333, "is_disabled": 0, "bike_id": "4b4381c7b355652a61a96cfcc62bd44e", "fusion_lat": 0.0, "is_reserved": 0, "lon": -77.03225966666666}, {"type": "electric_scooter", "name": "85662bcfd3aefb87731ad585b61fb902", "rental_uris": {"ios": "https://dc.lft.to/lastmile_qr_scan", "android": "https://dc.lft.to/lastmile_qr_scan"}, "fusion_lon": 0.0, "lat": 38.89554666666667, "is_disabled": 0, "bike_id": "85662bcfd3aefb87731ad585b61fb902", "fusion_lat": 0.0, "is_reserved": 0, "lon": -77.03960666666667}, {"type": "electric_bike", "name": "c3737278e06e8aca08f0be3f8b2c75cc", "rental_uris": {"ios": "https://dc.lft.to/lastmile_qr_scan", "android": "https://dc.lft.to/lastmile_qr_scan"}, "fusion_lon": 0.0, "lat": 38.903051, "is_disabled": 0, "bike_id": "c3737278e06e8aca08f0be3f8b2c75cc", "fusion_lat": 0.0, "is_reserved": 0, "lon": -76.97654366666667}, {"type": "electric_scooter", "name": "5234564401a1b10fc3501b9d6fc23974", "rental_uris": {"ios": "https://dc.lft.to/lastmile_qr_scan", "android": "https://dc.lft.to/lastmile_qr_scan"}, "fusion_lon": 0.0, "lat": 38.97514366666667, "is_disabled": 0, "bike_id": "5234564401a1b10fc3501b9d6fc23974", "fusion_lat": 0.0, "is_reserved": 0, "lon": -77.01668533333333}, {"type": "electric_scooter", "name": "ba16755b3ce0de73c804669ed0369235", "rental_uris": {"ios": "https://dc.lft.to/lastmile_qr_scan", "android": "https://dc.lft.to/lastmile_qr_scan"}, "fusion_lon": 0.0, "lat": 38.9095185, "is_disabled": 0, "bike_id": "ba16755b3ce0de73c804669ed0369235", "fusion_lat": 0.0, "is_reserved": 0, "lon": -76.99900466666666}, {"type": "electric_scooter", "name": "2c0493e20670530516ef2183b6eed870", "rental_uris": {"ios": "https://dc.lft.to/lastmile_qr_scan", "android": "https://dc.lft.to/lastmile_qr_scan"}, "fusion_lon": 0.0, "lat": 38.942697, "is_disabled": 0, "bike_id": "2c0493e20670530516ef2183b6eed870", "fusion_lat": 0.0, "is_reserved": 0, "lon": -77.01260916666666}, {"type": "electric_scooter", "name": "bb2614641101923d1c0f9610181bc845", "rental_uris": {"ios": "https://dc.lft.to/lastmile_qr_scan", "android": "https://dc.lft.to/lastmile_qr_scan"}, "fusion_lon": 0.0, "lat": 38.918479833333336, "is_disabled": 0, "bike_id": "bb2614641101923d1c0f9610181bc845", "fusion_lat": 0.0, "is_reserved": 0, "lon": -77.04503233333334}, {"type": "electric_bike", "name": "6d4b4436861afa649d5944b25b2d3a13", "rental_uris": {"ios": "https://dc.lft.to/lastmile_qr_scan", "android": "https://dc.lft.to/lastmile_qr_scan"}, "fusion_lon": 0.0, "lat": 38.8336405, "is_disabled": 0, "bike_id": "6d4b4436861afa649d5944b25b2d3a13", "fusion_lat": 0.0, "is_reserved": 0, "lon": -77.00303}, {"type": "electric_scooter", "name": "c211cf82f854496663150ace2c712722", "rental_uris": {"ios": "https://dc.lft.to/lastmile_qr_scan", "android": "https://dc.lft.to/lastmile_qr_scan"}, "fusion_lon": 0.0, "lat": 38.8942565, "is_disabled": 0, "bike_id": "c211cf82f854496663150ace2c712722", "fusion_lat": 0.0, "is_reserved": 0, "lon": -77.0009565}, {"type": "electric_scooter", "name": "03662618613fddb2c7ec4c02a9ba643e", "rental_uris": {"ios": "https://dc.lft.to/lastmile_qr_scan", "android": "https://dc.lft.to/lastmile_qr_scan"}, "fusion_lon": 0.0, "lat": 38.9253825, "is_disabled": 0, "bike_id": "03662618613fddb2c7ec4c02a9ba643e", "fusion_lat": 0.0, "is_reserved": 0, "lon": -77.0352935}, {"type": "electric_scooter", "name": "596ef16b2f6358210d0f7f0724375c4c", "rental_uris": {"ios": "https://dc.lft.to/lastmile_qr_scan", "android": "https://dc.lft.to/lastmile_qr_scan"}, "fusion_lon": 0.0, "lat": 38.89534116666667, "is_disabled": 0, "bike_id": "596ef16b2f6358210d0f7f0724375c4c", "fusion_lat": 0.0, "is_reserved": 0, "lon": -77.02819133333334}, {"type": "electric_scooter", "name": "932466d68ded220e1f73e5aa08b62e65", "rental_uris": {"ios": "https://dc.lft.to/lastmile_qr_scan", "android": "https://dc.lft.to/lastmile_qr_scan"}, "fusion_lon": 0.0, "lat": 38.90952166666667, "is_disabled": 0, "bike_id": "932466d68ded220e1f73e5aa08b62e65", "fusion_lat": 0.0, "is_reserved": 0, "lon": -77.02271983333333}, {"type": "electric_scooter", "name": "7bebd69bb73ca240d48bff0eb34d630c", "rental_uris": {"ios": "https://dc.lft.to/lastmile_qr_scan", "android": "https://dc.lft.to/lastmile_qr_scan"}, "fusion_lon": 0.0, "lat": 38.90873833333333, "is_disabled": 0, "bike_id": "7bebd69bb73ca240d48bff0eb34d630c", "fusion_lat": 0.0, "is_reserved": 0, "lon": -77.0269055}, {"type": "electric_scooter", "name": "ad99752308285dfbc498e6c381d2df84", "rental_uris": {"ios": "https://dc.lft.to/lastmile_qr_scan", "android": "https://dc.lft.to/lastmile_qr_scan"}, "fusion_lon": 0.0, "lat": 38.91685666666667, "is_disabled": 0, "bike_id": "ad99752308285dfbc498e6c381d2df84", "fusion_lat": 0.0, "is_reserved": 0, "lon": -77.0414215}, {"type": "electric_scooter", "name": "4df2cfe5a6ac2dc88b6162c25ffefbc3", "rental_uris": {"ios": "https://dc.lft.to/lastmile_qr_scan", "android": "https://dc.lft.to/lastmile_qr_scan"}, "fusion_lon": 0.0, "lat": 38.937555333333336, "is_disabled": 0, "bike_id": "4df2cfe5a6ac2dc88b6162c25ffefbc3", "fusion_lat": 0.0, "is_reserved": 0, "lon": -77.025512}, {"type": "electric_scooter", "name": "cb530f82679d4347b0c4c4f78ad83c71", "rental_uris": {"ios": "https://dc.lft.to/lastmile_qr_scan", "android": "https://dc.lft.to/lastmile_qr_scan"}, "fusion_lon": 0.0, "lat": 38.892900166666664, "is_disabled": 0, "bike_id": "cb530f82679d4347b0c4c4f78ad83c71", "fusion_lat": 0.0, "is_reserved": 0, "lon": -76.94981416666667}, {"type": "electric_scooter", "name": "9b6e0542f381c0deac7b4d83bfbbe9b8", "rental_uris": {"ios": "https://dc.lft.to/lastmile_qr_scan", "android": "https://dc.lft.to/lastmile_qr_scan"}, "fusion_lon": 0.0, "lat": 38.89634566666667, "is_disabled": 0, "bike_id": "9b6e0542f381c0deac7b4d83bfbbe9b8", "fusion_lat": 0.0, "is_reserved": 0, "lon": -77.04008366666666}, {"type": "electric_scooter", "name": "60687255292d89dccacf38003ff238e9", "rental_uris": {"ios": "https://dc.lft.to/lastmile_qr_scan", "android": "https://dc.lft.to/lastmile_qr_scan"}, "fusion_lon": 0.0, "lat": 38.86443083333333, "is_disabled": 0, "bike_id": "60687255292d89dccacf38003ff238e9", "fusion_lat": 0.0, "is_reserved": 0, "lon": -76.9800315}, {"type": "electric_scooter", "name": "07e3f2d327967ec4207a09f8b619afb3", "rental_uris": {"ios": "https://dc.lft.to/lastmile_qr_scan", "android": "https://dc.lft.to/lastmile_qr_scan"}, "fusion_lon": 0.0, "lat": 38.9110135, "is_disabled": 0, "bike_id": "07e3f2d327967ec4207a09f8b619afb3", "fusion_lat": 0.0, "is_reserved": 0, "lon": -77.02720066666667}, {"type": "electric_scooter", "name": "32283d93c109be40824c28b996b7b81f", "rental_uris": {"ios": "https://dc.lft.to/lastmile_qr_scan", "android": "https://dc.lft.to/lastmile_qr_scan"}, "fusion_lon": 0.0, "lat": 38.90268016666667, "is_disabled": 0, "bike_id": "32283d93c109be40824c28b996b7b81f", "fusion_lat": 0.0, "is_reserved": 0, "lon": -77.03834266666667}, {"type": "electric_scooter", "name": "84049439acdd42f36c20a16dff249799", "rental_uris": {"ios": "https://dc.lft.to/lastmile_qr_scan", "android": "https://dc.lft.to/lastmile_qr_scan"}, "fusion_lon": 0.0, "lat": 38.93512166666667, "is_disabled": 0, "bike_id": "84049439acdd42f36c20a16dff249799", "fusion_lat": 0.0, "is_reserved": 0, "lon": -77.0329115}, {"type": "electric_scooter", "name": "ff0ee03e21ccdb533c241ac8e1dc34b4", "rental_uris": {"ios": "https://dc.lft.to/lastmile_qr_scan", "android": "https://dc.lft.to/lastmile_qr_scan"}, "fusion_lon": 0.0, "lat": 38.921539833333334, "is_disabled": 0, "bike_id": "ff0ee03e21ccdb533c241ac8e1dc34b4", "fusion_lat": 0.0, "is_reserved": 0, "lon": -77.03379633333333}, {"type": "electric_scooter", "name": "2e1f58f5741c31834b8a387ac97968fa", "rental_uris": {"ios": "https://dc.lft.to/lastmile_qr_scan", "android": "https://dc.lft.to/lastmile_qr_scan"}, "fusion_lon": 0.0, "lat": 38.90971116666667, "is_disabled": 0, "bike_id": "2e1f58f5741c31834b8a387ac97968fa", "fusion_lat": 0.0, "is_reserved": 0, "lon": -77.032912}, {"type": "electric_scooter", "name": "c4d813a280d18f59d56a9356d6114c07", "rental_uris": {"ios": "https://dc.lft.to/lastmile_qr_scan", "android": "https://dc.lft.to/lastmile_qr_scan"}, "fusion_lon": 0.0, "lat": 38.92219716666666, "is_disabled": 0, "bike_id": "c4d813a280d18f59d56a9356d6114c07", "fusion_lat": 0.0, "is_reserved": 0, "lon": -77.02215733333334}, {"type": "electric_scooter", "name": "63c0616c3b7d6c4ae9f91901b7c3542a", "rental_uris": {"ios": "https://dc.lft.to/lastmile_qr_scan", "android": "https://dc.lft.to/lastmile_qr_scan"}, "fusion_lon": 0.0, "lat": 38.920774, "is_disabled": 0, "bike_id": "63c0616c3b7d6c4ae9f91901b7c3542a", "fusion_lat": 0.0, "is_reserved": 0, "lon": -77.01829833333333}, {"type": "electric_scooter", "name": "9f32444b55dc8a8327b980d079087610", "rental_uris": {"ios": "https://dc.lft.to/lastmile_qr_scan", "android": "https://dc.lft.to/lastmile_qr_scan"}, "fusion_lon": 0.0, "lat": 38.91105666666667, "is_disabled": 0, "bike_id": "9f32444b55dc8a8327b980d079087610", "fusion_lat": 0.0, "is_reserved": 0, "lon": -77.04226933333334}, {"type": "electric_scooter", "name": "7cd2a108d871abe5e6b59606f657f7ec", "rental_uris": {"ios": "https://dc.lft.to/lastmile_qr_scan", "android": "https://dc.lft.to/lastmile_qr_scan"}, "fusion_lon": 0.0, "lat": 38.921206, "is_disabled": 0, "bike_id": "7cd2a108d871abe5e6b59606f657f7ec", "fusion_lat": 0.0, "is_reserved": 0, "lon": -77.0318045}, {"type": "electric_scooter", "name": "9e54f1a3759ef14dc9cd64fa389995f1", "rental_uris": {"ios": "https://dc.lft.to/lastmile_qr_scan", "android": "https://dc.lft.to/lastmile_qr_scan"}, "fusion_lon": 0.0, "lat": 38.92845416666667, "is_disabled": 0, "bike_id": "9e54f1a3759ef14dc9cd64fa389995f1", "fusion_lat": 0.0, "is_reserved": 0, "lon": -76.99605333333334}, {"type": "electric_bike", "name": "72172ec2cb74e497bbd9ce67515619b9", "rental_uris": {"ios": "https://dc.lft.to/lastmile_qr_scan", "android": "https://dc.lft.to/lastmile_qr_scan"}, "fusion_lon": 0.0, "lat": 38.800174, "is_disabled": 0, "bike_id": "72172ec2cb74e497bbd9ce67515619b9", "fusion_lat": 0.0, "is_reserved": 0, "lon": -77.05482633333334}, {"type": "electric_scooter", "name": "bf44a33bfc73d03fd3ed9fc9a4a6da8f", "rental_uris": {"ios": "https://dc.lft.to/lastmile_qr_scan", "android": "https://dc.lft.to/lastmile_qr_scan"}, "fusion_lon": 0.0, "lat": 38.84727483333333, "is_disabled": 0, "bike_id": "bf44a33bfc73d03fd3ed9fc9a4a6da8f", "fusion_lat": 0.0, "is_reserved": 0, "lon": -76.982496}, {"type": "electric_scooter", "name": "0e2d87c7e3cd5c2db623cf5d3909462e", "rental_uris": {"ios": "https://dc.lft.to/lastmile_qr_scan", "android": "https://dc.lft.to/lastmile_qr_scan"}, "fusion_lon": 0.0, "lat": 38.87740816666667, "is_disabled": 0, "bike_id": "0e2d87c7e3cd5c2db623cf5d3909462e", "fusion_lat": 0.0, "is_reserved": 0, "lon": -77.00806833333333}, {"type": "electric_scooter", "name": "953fec9eccd1d36c1a5567674ca5b57e", "rental_uris": {"ios": "https://dc.lft.to/lastmile_qr_scan", "android": "https://dc.lft.to/lastmile_qr_scan"}, "fusion_lon": 0.0, "lat": 38.91425066666667, "is_disabled": 0, "bike_id": "953fec9eccd1d36c1a5567674ca5b57e", "fusion_lat": 0.0, "is_reserved": 0, "lon": -77.0318625}, {"type": "electric_scooter", "name": "c27c8a2480d0f8761b666b8490ec7825", "rental_uris": {"ios": "https://dc.lft.to/lastmile_qr_scan", "android": "https://dc.lft.to/lastmile_qr_scan"}, "fusion_lon": 0.0, "lat": 38.87580066666666, "is_disabled": 0, "bike_id": "c27c8a2480d0f8761b666b8490ec7825", "fusion_lat": 0.0, "is_reserved": 0, "lon": -77.00417933333334}, {"type": "electric_scooter", "name": "430b5d115d3f0b2546ca80cd1f5e119e", "rental_uris": {"ios": "https://dc.lft.to/lastmile_qr_scan", "android": "https://dc.lft.to/lastmile_qr_scan"}, "fusion_lon": 0.0, "lat": 38.92757066666667, "is_disabled": 0, "bike_id": "430b5d115d3f0b2546ca80cd1f5e119e", "fusion_lat": 0.0, "is_reserved": 0, "lon": -77.02114083333333}, {"type": "electric_scooter", "name": "764855972bc1789dd9ceb5c93c50c5c7", "rental_uris": {"ios": "https://dc.lft.to/lastmile_qr_scan", "android": "https://dc.lft.to/lastmile_qr_scan"}, "fusion_lon": 0.0, "lat": 38.876735333333336, "is_disabled": 0, "bike_id": "764855972bc1789dd9ceb5c93c50c5c7", "fusion_lat": 0.0, "is_reserved": 0, "lon": -77.00887533333334}, {"type": "electric_scooter", "name": "743f17adab0d542b68a6786cd33348cd", "rental_uris": {"ios": "https://dc.lft.to/lastmile_qr_scan", "android": "https://dc.lft.to/lastmile_qr_scan"}, "fusion_lon": 0.0, "lat": 38.90249716666667, "is_disabled": 0, "bike_id": "743f17adab0d542b68a6786cd33348cd", "fusion_lat": 0.0, "is_reserved": 0, "lon": -77.05934466666666}, {"type": "electric_scooter", "name": "715355af8c65ecaf8a49d01d6739b282", "rental_uris": {"ios": "https://dc.lft.to/lastmile_qr_scan", "android": "https://dc.lft.to/lastmile_qr_scan"}, "fusion_lon": 0.0, "lat": 38.900653, "is_disabled": 0, "bike_id": "715355af8c65ecaf8a49d01d6739b282", "fusion_lat": 0.0, "is_reserved": 0, "lon": -77.04534083333333}, {"type": "electric_scooter", "name": "e0ecab2b72909c78f14d4dd2750dda13", "rental_uris": {"ios": "https://dc.lft.to/lastmile_qr_scan", "android": "https://dc.lft.to/lastmile_qr_scan"}, "fusion_lon": 0.0, "lat": 38.923601833333336, "is_disabled": 0, "bike_id": "e0ecab2b72909c78f14d4dd2750dda13", "fusion_lat": 0.0, "is_reserved": 0, "lon": -77.05049416666667}, {"type": "electric_bike", "name": "063e202a18e16ec1b07cb1c005652b2a", "rental_uris": {"ios": "https://dc.lft.to/lastmile_qr_scan", "android": "https://dc.lft.to/lastmile_qr_scan"}, "fusion_lon": 0.0, "lat": 38.94919083333333, "is_disabled": 0, "bike_id": "063e202a18e16ec1b07cb1c005652b2a", "fusion_lat": 0.0, "is_reserved": 0, "lon": -77.0079715}, {"type": "electric_scooter", "name": "09fe74325ad8f4328d0d32fc0bb4d61f", "rental_uris": {"ios": "https://dc.lft.to/lastmile_qr_scan", "android": "https://dc.lft.to/lastmile_qr_scan"}, "fusion_lon": 0.0, "lat": 38.92769083333334, "is_disabled": 0, "bike_id": "09fe74325ad8f4328d0d32fc0bb4d61f", "fusion_lat": 0.0, "is_reserved": 0, "lon": -77.02713666666666}, {"type": "electric_scooter", "name": "e1869c40668229f74bb1a3c60f177607", "rental_uris": {"ios": "https://dc.lft.to/lastmile_qr_scan", "android": "https://dc.lft.to/lastmile_qr_scan"}, "fusion_lon": 0.0, "lat": 38.88524733333333, "is_disabled": 0, "bike_id": "e1869c40668229f74bb1a3c60f177607", "fusion_lat": 0.0, "is_reserved": 0, "lon": -77.015351}, {"type": "electric_scooter", "name": "915573ce67fbf9521a26121309152614", "rental_uris": {"ios": "https://dc.lft.to/lastmile_qr_scan", "android": "https://dc.lft.to/lastmile_qr_scan"}, "fusion_lon": 0.0, "lat": 38.908043, "is_disabled": 0, "bike_id": "915573ce67fbf9521a26121309152614", "fusion_lat": 0.0, "is_reserved": 0, "lon": -77.03457683333333}, {"type": "electric_scooter", "name": "c36cac23b5dab60d0c8fc6040a6b3d1b", "rental_uris": {"ios": "https://dc.lft.to/lastmile_qr_scan", "android": "https://dc.lft.to/lastmile_qr_scan"}, "fusion_lon": 0.0, "lat": 38.887206166666665, "is_disabled": 0, "bike_id": "c36cac23b5dab60d0c8fc6040a6b3d1b", "fusion_lat": 0.0, "is_reserved": 0, "lon": -76.99691283333334}, {"type": "electric_scooter", "name": "598ef1cf5372986f3842780897ad857d", "rental_uris": {"ios": "https://dc.lft.to/lastmile_qr_scan", "android": "https://dc.lft.to/lastmile_qr_scan"}, "fusion_lon": 0.0, "lat": 38.92079233333333, "is_disabled": 0, "bike_id": "598ef1cf5372986f3842780897ad857d", "fusion_lat": 0.0, "is_reserved": 0, "lon": -77.0139195}, {"type": "electric_scooter", "name": "7370491a580e5a1d7fcef4836568ae35", "rental_uris": {"ios": "https://dc.lft.to/lastmile_qr_scan", "android": "https://dc.lft.to/lastmile_qr_scan"}, "fusion_lon": 0.0, "lat": 38.87398966666667, "is_disabled": 0, "bike_id": "7370491a580e5a1d7fcef4836568ae35", "fusion_lat": 0.0, "is_reserved": 0, "lon": -77.00026416666667}, {"type": "electric_scooter", "name": "a324792fcf66a94dc22ddb12d4ea6f66", "rental_uris": {"ios": "https://dc.lft.to/lastmile_qr_scan", "android": "https://dc.lft.to/lastmile_qr_scan"}, "fusion_lon": 0.0, "lat": 38.91005233333333, "is_disabled": 0, "bike_id": "a324792fcf66a94dc22ddb12d4ea6f66", "fusion_lat": 0.0, "is_reserved": 0, "lon": -76.99409483333334}, {"type": "electric_scooter", "name": "3d914bc6dd544d1f7863c181aebf0c51", "rental_uris": {"ios": "https://dc.lft.to/lastmile_qr_scan", "android": "https://dc.lft.to/lastmile_qr_scan"}, "fusion_lon": 0.0, "lat": 38.865029666666665, "is_disabled": 0, "bike_id": "3d914bc6dd544d1f7863c181aebf0c51", "fusion_lat": 0.0, "is_reserved": 0, "lon": -76.990024}, {"type": "electric_scooter", "name": "4408181e9406b08eb8ecfe4375cf54bb", "rental_uris": {"ios": "https://dc.lft.to/lastmile_qr_scan", "android": "https://dc.lft.to/lastmile_qr_scan"}, "fusion_lon": 0.0, "lat": 38.8979115, "is_disabled": 0, "bike_id": "4408181e9406b08eb8ecfe4375cf54bb", "fusion_lat": 0.0, "is_reserved": 0, "lon": -76.931211}, {"type": "electric_scooter", "name": "cedfcad8142164ba646acb2da1b9a1af", "rental_uris": {"ios": "https://dc.lft.to/lastmile_qr_scan", "android": "https://dc.lft.to/lastmile_qr_scan"}, "fusion_lon": 0.0, "lat": 38.93606416666667, "is_disabled": 0, "bike_id": "cedfcad8142164ba646acb2da1b9a1af", "fusion_lat": 0.0, "is_reserved": 0, "lon": -77.058622}, {"type": "electric_scooter", "name": "18764c65a6ffeed6aee93215cbe89a2b", "rental_uris": {"ios": "https://dc.lft.to/lastmile_qr_scan", "android": "https://dc.lft.to/lastmile_qr_scan"}, "fusion_lon": 0.0, "lat": 38.915585666666665, "is_disabled": 0, "bike_id": "18764c65a6ffeed6aee93215cbe89a2b", "fusion_lat": 0.0, "is_reserved": 0, "lon": -77.0235525}, {"type": "electric_scooter", "name": "47b15f061937b36cb8994c046dc28ec9", "rental_uris": {"ios": "https://dc.lft.to/lastmile_qr_scan", "android": "https://dc.lft.to/lastmile_qr_scan"}, "fusion_lon": 0.0, "lat": 38.90157333333333, "is_disabled": 0, "bike_id": "47b15f061937b36cb8994c046dc28ec9", "fusion_lat": 0.0, "is_reserved": 0, "lon": -76.980743}, {"type": "electric_scooter", "name": "fa0b6c5578ce4f6b5d72ea75fd95be47", "rental_uris": {"ios": "https://dc.lft.to/lastmile_qr_scan", "android": "https://dc.lft.to/lastmile_qr_scan"}, "fusion_lon": 0.0, "lat": 38.90451483333333, "is_disabled": 0, "bike_id": "fa0b6c5578ce4f6b5d72ea75fd95be47", "fusion_lat": 0.0, "is_reserved": 0, "lon": -77.019015}, {"type": "electric_scooter", "name": "2948d017ee8f0b8c1c8718ca818bc661", "rental_uris": {"ios": "https://dc.lft.to/lastmile_qr_scan", "android": "https://dc.lft.to/lastmile_qr_scan"}, "fusion_lon": 0.0, "lat": 38.929751333333336, "is_disabled": 0, "bike_id": "2948d017ee8f0b8c1c8718ca818bc661", "fusion_lat": 0.0, "is_reserved": 0, "lon": -77.054977}, {"type": "electric_scooter", "name": "7d6b7da8e87f0264e545c633f736d3ea", "rental_uris": {"ios": "https://dc.lft.to/lastmile_qr_scan", "android": "https://dc.lft.to/lastmile_qr_scan"}, "fusion_lon": 0.0, "lat": 38.90275233333333, "is_disabled": 0, "bike_id": "7d6b7da8e87f0264e545c633f736d3ea", "fusion_lat": 0.0, "is_reserved": 0, "lon": -77.03524766666666}, {"type": "electric_scooter", "name": "edeb863a7f428f7f0de5dce5fe05c2dd", "rental_uris": {"ios": "https://dc.lft.to/lastmile_qr_scan", "android": "https://dc.lft.to/lastmile_qr_scan"}, "fusion_lon": 0.0, "lat": 38.9737005, "is_disabled": 0, "bike_id": "edeb863a7f428f7f0de5dce5fe05c2dd", "fusion_lat": 0.0, "is_reserved": 0, "lon": -77.01853616666666}, {"type": "electric_scooter", "name": "79d22464e7214f62f9b6b7afae25ce91", "rental_uris": {"ios": "https://dc.lft.to/lastmile_qr_scan", "android": "https://dc.lft.to/lastmile_qr_scan"}, "fusion_lon": 0.0, "lat": 38.90159216666667, "is_disabled": 0, "bike_id": "79d22464e7214f62f9b6b7afae25ce91", "fusion_lat": 0.0, "is_reserved": 0, "lon": -77.01316716666666}, {"type": "electric_scooter", "name": "8efe314e90a4fad4d1afc272b99f46ca", "rental_uris": {"ios": "https://dc.lft.to/lastmile_qr_scan", "android": "https://dc.lft.to/lastmile_qr_scan"}, "fusion_lon": 0.0, "lat": 38.91239683333333, "is_disabled": 0, "bike_id": "8efe314e90a4fad4d1afc272b99f46ca", "fusion_lat": 0.0, "is_reserved": 0, "lon": -76.98790933333333}, {"type": "electric_scooter", "name": "ceff16c8c41f1ba6e833661c8c8a5398", "rental_uris": {"ios": "https://dc.lft.to/lastmile_qr_scan", "android": "https://dc.lft.to/lastmile_qr_scan"}, "fusion_lon": 0.0, "lat": 38.89222133333333, "is_disabled": 0, "bike_id": "ceff16c8c41f1ba6e833661c8c8a5398", "fusion_lat": 0.0, "is_reserved": 0, "lon": -77.0438245}, {"type": "electric_scooter", "name": "716431ede0a8f01f4a9322e045a372a8", "rental_uris": {"ios": "https://dc.lft.to/lastmile_qr_scan", "android": "https://dc.lft.to/lastmile_qr_scan"}, "fusion_lon": 0.0, "lat": 38.892223, "is_disabled": 0, "bike_id": "716431ede0a8f01f4a9322e045a372a8", "fusion_lat": 0.0, "is_reserved": 0, "lon": -77.0333835}, {"type": "electric_scooter", "name": "454c7a586101d3c420e8244bb2ed10ae", "rental_uris": {"ios": "https://dc.lft.to/lastmile_qr_scan", "android": "https://dc.lft.to/lastmile_qr_scan"}, "fusion_lon": 0.0, "lat": 38.901406333333334, "is_disabled": 0, "bike_id": "454c7a586101d3c420e8244bb2ed10ae", "fusion_lat": 0.0, "is_reserved": 0, "lon": -77.06075383333334}, {"type": "electric_scooter", "name": "8669e9c93bfbdbb7c27b0e2b36e6ebcb", "rental_uris": {"ios": "https://dc.lft.to/lastmile_qr_scan", "android": "https://dc.lft.to/lastmile_qr_scan"}, "fusion_lon": 0.0, "lat": 38.9059245, "is_disabled": 0, "bike_id": "8669e9c93bfbdbb7c27b0e2b36e6ebcb", "fusion_lat": 0.0, "is_reserved": 0, "lon": -77.00408216666666}, {"type": "electric_scooter", "name": "3eb17b5c8343c336acf12d3573194c80", "rental_uris": {"ios": "https://dc.lft.to/lastmile_qr_scan", "android": "https://dc.lft.to/lastmile_qr_scan"}, "fusion_lon": 0.0, "lat": 38.914498333333334, "is_disabled": 0, "bike_id": "3eb17b5c8343c336acf12d3573194c80", "fusion_lat": 0.0, "is_reserved": 0, "lon": -77.0462925}, {"type": "electric_scooter", "name": "7a22a8b57666f84707c532f0fc4014ef", "rental_uris": {"ios": "https://dc.lft.to/lastmile_qr_scan", "android": "https://dc.lft.to/lastmile_qr_scan"}, "fusion_lon": 0.0, "lat": 38.9067935, "is_disabled": 0, "bike_id": "7a22a8b57666f84707c532f0fc4014ef", "fusion_lat": 0.0, "is_reserved": 0, "lon": -77.07184716666667}, {"type": "electric_scooter", "name": "31c8113d058da73d4535c7791f1d0d04", "rental_uris": {"ios": "https://dc.lft.to/lastmile_qr_scan", "android": "https://dc.lft.to/lastmile_qr_scan"}, "fusion_lon": 0.0, "lat": 38.8779645, "is_disabled": 0, "bike_id": "31c8113d058da73d4535c7791f1d0d04", "fusion_lat": 0.0, "is_reserved": 0, "lon": -77.00124316666667}, {"type": "electric_scooter", "name": "e26191f692cc21185c67b5d68d16be29", "rental_uris": {"ios": "https://dc.lft.to/lastmile_qr_scan", "android": "https://dc.lft.to/lastmile_qr_scan"}, "fusion_lon": 0.0, "lat": 38.908476, "is_disabled": 0, "bike_id": "e26191f692cc21185c67b5d68d16be29", "fusion_lat": 0.0, "is_reserved": 0, "lon": -76.99803933333334}, {"type": "electric_bike", "name": "b4940ab085d5ee203b002c453d54bc10", "rental_uris": {"ios": "https://dc.lft.to/lastmile_qr_scan", "android": "https://dc.lft.to/lastmile_qr_scan"}, "fusion_lon": 0.0, "lat": 38.95626883333333, "is_disabled": 0, "bike_id": "b4940ab085d5ee203b002c453d54bc10", "fusion_lat": 0.0, "is_reserved": 0, "lon": -77.02319416666667}, {"type": "electric_scooter", "name": "e07763d18bc01efb60be9d858af45269", "rental_uris": {"ios": "https://dc.lft.to/lastmile_qr_scan", "android": "https://dc.lft.to/lastmile_qr_scan"}, "fusion_lon": 0.0, "lat": 38.887463333333336, "is_disabled": 0, "bike_id": "e07763d18bc01efb60be9d858af45269", "fusion_lat": 0.0, "is_reserved": 0, "lon": -77.02124466666666}, {"type": "electric_scooter", "name": "67db5d2335c478c8ed8ebc8a1757be72", "rental_uris": {"ios": "https://dc.lft.to/lastmile_qr_scan", "android": "https://dc.lft.to/lastmile_qr_scan"}, "fusion_lon": 0.0, "lat": 38.91711016666667, "is_disabled": 0, "bike_id": "67db5d2335c478c8ed8ebc8a1757be72", "fusion_lat": 0.0, "is_reserved": 0, "lon": -77.00885916666667}, {"type": "electric_scooter", "name": "5124955144be3bd9491692a761f59eea", "rental_uris": {"ios": "https://dc.lft.to/lastmile_qr_scan", "android": "https://dc.lft.to/lastmile_qr_scan"}, "fusion_lon": 0.0, "lat": 38.92098933333333, "is_disabled": 0, "bike_id": "5124955144be3bd9491692a761f59eea", "fusion_lat": 0.0, "is_reserved": 0, "lon": -77.02479416666667}, {"type": "electric_scooter", "name": "efdf6e4b8434473898349a2e19c9f2e0", "rental_uris": {"ios": "https://dc.lft.to/lastmile_qr_scan", "android": "https://dc.lft.to/lastmile_qr_scan"}, "fusion_lon": 0.0, "lat": 38.91920916666667, "is_disabled": 0, "bike_id": "efdf6e4b8434473898349a2e19c9f2e0", "fusion_lat": 0.0, "is_reserved": 0, "lon": -77.03181416666666}, {"type": "electric_bike", "name": "3df1613963ab80bbd65a30e3530c52d5", "rental_uris": {"ios": "https://dc.lft.to/lastmile_qr_scan", "android": "https://dc.lft.to/lastmile_qr_scan"}, "fusion_lon": 0.0, "lat": 38.88427266666667, "is_disabled": 0, "bike_id": "3df1613963ab80bbd65a30e3530c52d5", "fusion_lat": 0.0, "is_reserved": 0, "lon": -76.9541245}, {"type": "electric_scooter", "name": "79fd1d3328cf3f8baed84725e48be4af", "rental_uris": {"ios": "https://dc.lft.to/lastmile_qr_scan", "android": "https://dc.lft.to/lastmile_qr_scan"}, "fusion_lon": 0.0, "lat": 38.9191975, "is_disabled": 0, "bike_id": "79fd1d3328cf3f8baed84725e48be4af", "fusion_lat": 0.0, "is_reserved": 0, "lon": -77.03182833333334}, {"type": "electric_scooter", "name": "f8a3b24700bcb69d40dd9b48231d47fb", "rental_uris": {"ios": "https://dc.lft.to/lastmile_qr_scan", "android": "https://dc.lft.to/lastmile_qr_scan"}, "fusion_lon": 0.0, "lat": 38.88486783333333, "is_disabled": 0, "bike_id": "f8a3b24700bcb69d40dd9b48231d47fb", "fusion_lat": 0.0, "is_reserved": 0, "lon": -77.00712183333333}, {"type": "electric_scooter", "name": "1939249b90fec852e283a12eeaaca277", "rental_uris": {"ios": "https://dc.lft.to/lastmile_qr_scan", "android": "https://dc.lft.to/lastmile_qr_scan"}, "fusion_lon": 0.0, "lat": 38.9000995, "is_disabled": 0, "bike_id": "1939249b90fec852e283a12eeaaca277", "fusion_lat": 0.0, "is_reserved": 0, "lon": -77.0018255}, {"type": "electric_scooter", "name": "f055a7d22a14c28b74064866dc752dd6", "rental_uris": {"ios": "https://dc.lft.to/lastmile_qr_scan", "android": "https://dc.lft.to/lastmile_qr_scan"}, "fusion_lon": 0.0, "lat": 38.9431515, "is_disabled": 0, "bike_id": "f055a7d22a14c28b74064866dc752dd6", "fusion_lat": 0.0, "is_reserved": 0, "lon": -77.01729416666667}, {"type": "electric_scooter", "name": "79097a1bc77aa6f01dd355f0abcf8290", "rental_uris": {"ios": "https://dc.lft.to/lastmile_qr_scan", "android": "https://dc.lft.to/lastmile_qr_scan"}, "fusion_lon": 0.0, "lat": 38.906870166666664, "is_disabled": 0, "bike_id": "79097a1bc77aa6f01dd355f0abcf8290", "fusion_lat": 0.0, "is_reserved": 0, "lon": -76.98499833333334}, {"type": "electric_scooter", "name": "a5b972ecc1db480039393100631cf429", "rental_uris": {"ios": "https://dc.lft.to/lastmile_qr_scan", "android": "https://dc.lft.to/lastmile_qr_scan"}, "fusion_lon": 0.0, "lat": 38.92106016666666, "is_disabled": 0, "bike_id": "a5b972ecc1db480039393100631cf429", "fusion_lat": 0.0, "is_reserved": 0, "lon": -77.03170566666667}, {"type": "electric_scooter", "name": "4afb6af9568d3d69d5615398758d43b6", "rental_uris": {"ios": "https://dc.lft.to/lastmile_qr_scan", "android": "https://dc.lft.to/lastmile_qr_scan"}, "fusion_lon": 0.0, "lat": 38.88645566666667, "is_disabled": 0, "bike_id": "4afb6af9568d3d69d5615398758d43b6", "fusion_lat": 0.0, "is_reserved": 0, "lon": -77.01537033333334}, {"type": "electric_scooter", "name": "35abbe8861c208cfbf2774f923a3b029", "rental_uris": {"ios": "https://dc.lft.to/lastmile_qr_scan", "android": "https://dc.lft.to/lastmile_qr_scan"}, "fusion_lon": 0.0, "lat": 38.90844033333333, "is_disabled": 0, "bike_id": "35abbe8861c208cfbf2774f923a3b029", "fusion_lat": 0.0, "is_reserved": 0, "lon": -77.055786}, {"type": "electric_scooter", "name": "e51578ef8d3ec546d2d2591a5536883c", "rental_uris": {"ios": "https://dc.lft.to/lastmile_qr_scan", "android": "https://dc.lft.to/lastmile_qr_scan"}, "fusion_lon": 0.0, "lat": 38.90592383333333, "is_disabled": 0, "bike_id": "e51578ef8d3ec546d2d2591a5536883c", "fusion_lat": 0.0, "is_reserved": 0, "lon": -77.06561083333334}, {"type": "electric_scooter", "name": "469aa71261d9bf434839c53d6eb371c0", "rental_uris": {"ios": "https://dc.lft.to/lastmile_qr_scan", "android": "https://dc.lft.to/lastmile_qr_scan"}, "fusion_lon": 0.0, "lat": 38.9192105, "is_disabled": 0, "bike_id": "469aa71261d9bf434839c53d6eb371c0", "fusion_lat": 0.0, "is_reserved": 0, "lon": -77.0317965}, {"type": "electric_scooter", "name": "751b7e9a11a714d79967b18b1ec45145", "rental_uris": {"ios": "https://dc.lft.to/lastmile_qr_scan", "android": "https://dc.lft.to/lastmile_qr_scan"}, "fusion_lon": 0.0, "lat": 38.8546165, "is_disabled": 0, "bike_id": "751b7e9a11a714d79967b18b1ec45145", "fusion_lat": 0.0, "is_reserved": 0, "lon": -76.9722805}, {"type": "electric_scooter", "name": "c083aa29d184019f12008a7eaece3e8c", "rental_uris": {"ios": "https://dc.lft.to/lastmile_qr_scan", "android": "https://dc.lft.to/lastmile_qr_scan"}, "fusion_lon": 0.0, "lat": 38.9191185, "is_disabled": 0, "bike_id": "c083aa29d184019f12008a7eaece3e8c", "fusion_lat": 0.0, "is_reserved": 0, "lon": -77.03173616666666}, {"type": "electric_scooter", "name": "aa9cac3ba0664ad82b7731f0e1c63870", "rental_uris": {"ios": "https://dc.lft.to/lastmile_qr_scan", "android": "https://dc.lft.to/lastmile_qr_scan"}, "fusion_lon": 0.0, "lat": 38.87646633333333, "is_disabled": 0, "bike_id": "aa9cac3ba0664ad82b7731f0e1c63870", "fusion_lat": 0.0, "is_reserved": 0, "lon": -77.007523}, {"type": "electric_bike", "name": "4d128a5441fed8f182847db585656728", "rental_uris": {"ios": "https://dc.lft.to/lastmile_qr_scan", "android": "https://dc.lft.to/lastmile_qr_scan"}, "fusion_lon": 0.0, "lat": 39.03407516666667, "is_disabled": 0, "bike_id": "4d128a5441fed8f182847db585656728", "fusion_lat": 0.0, "is_reserved": 0, "lon": -77.041729}, {"type": "electric_scooter", "name": "0b78d11cb440cd8be2aa933724988736", "rental_uris": {"ios": "https://dc.lft.to/lastmile_qr_scan", "android": "https://dc.lft.to/lastmile_qr_scan"}, "fusion_lon": 0.0, "lat": 38.88765083333333, "is_disabled": 0, "bike_id": "0b78d11cb440cd8be2aa933724988736", "fusion_lat": 0.0, "is_reserved": 0, "lon": -76.97749766666666}, {"type": "electric_scooter", "name": "262eeaab89338b7712e1147fb45835a3", "rental_uris": {"ios": "https://dc.lft.to/lastmile_qr_scan", "android": "https://dc.lft.to/lastmile_qr_scan"}, "fusion_lon": 0.0, "lat": 38.879065, "is_disabled": 0, "bike_id": "262eeaab89338b7712e1147fb45835a3", "fusion_lat": 0.0, "is_reserved": 0, "lon": -77.02194483333334}, {"type": "electric_scooter", "name": "d99777106e7f4a2282098bdc1ad79223", "rental_uris": {"ios": "https://dc.lft.to/lastmile_qr_scan", "android": "https://dc.lft.to/lastmile_qr_scan"}, "fusion_lon": 0.0, "lat": 38.89046166666667, "is_disabled": 0, "bike_id": "d99777106e7f4a2282098bdc1ad79223", "fusion_lat": 0.0, "is_reserved": 0, "lon": -76.9904225}, {"type": "electric_scooter", "name": "184b5a7897a53e49ce9fdc4930033b25", "rental_uris": {"ios": "https://dc.lft.to/lastmile_qr_scan", "android": "https://dc.lft.to/lastmile_qr_scan"}, "fusion_lon": 0.0, "lat": 38.9153125, "is_disabled": 0, "bike_id": "184b5a7897a53e49ce9fdc4930033b25", "fusion_lat": 0.0, "is_reserved": 0, "lon": -77.01225533333333}, {"type": "electric_scooter", "name": "03d159bac84af6f57202907616865a36", "rental_uris": {"ios": "https://dc.lft.to/lastmile_qr_scan", "android": "https://dc.lft.to/lastmile_qr_scan"}, "fusion_lon": 0.0, "lat": 38.9349435, "is_disabled": 0, "bike_id": "03d159bac84af6f57202907616865a36", "fusion_lat": 0.0, "is_reserved": 0, "lon": -77.02422616666666}, {"type": "electric_scooter", "name": "456973ff078505146479c233fc2d9293", "rental_uris": {"ios": "https://dc.lft.to/lastmile_qr_scan", "android": "https://dc.lft.to/lastmile_qr_scan"}, "fusion_lon": 0.0, "lat": 38.9339515, "is_disabled": 0, "bike_id": "456973ff078505146479c233fc2d9293", "fusion_lat": 0.0, "is_reserved": 0, "lon": -77.05743816666667}, {"type": "electric_scooter", "name": "9210d266e12cc4a6b756b7af67afc3f9", "rental_uris": {"ios": "https://dc.lft.to/lastmile_qr_scan", "android": "https://dc.lft.to/lastmile_qr_scan"}, "fusion_lon": 0.0, "lat": 38.91273366666667, "is_disabled": 0, "bike_id": "9210d266e12cc4a6b756b7af67afc3f9", "fusion_lat": 0.0, "is_reserved": 0, "lon": -77.0221885}, {"type": "electric_scooter", "name": "b8514dad5f1b95825a4ce7a375a36483", "rental_uris": {"ios": "https://dc.lft.to/lastmile_qr_scan", "android": "https://dc.lft.to/lastmile_qr_scan"}, "fusion_lon": 0.0, "lat": 38.905604833333335, "is_disabled": 0, "bike_id": "b8514dad5f1b95825a4ce7a375a36483", "fusion_lat": 0.0, "is_reserved": 0, "lon": -77.00578833333333}, {"type": "electric_scooter", "name": "8b47fefc09a4df61f3b6717497760232", "rental_uris": {"ios": "https://dc.lft.to/lastmile_qr_scan", "android": "https://dc.lft.to/lastmile_qr_scan"}, "fusion_lon": 0.0, "lat": 38.90530583333334, "is_disabled": 0, "bike_id": "8b47fefc09a4df61f3b6717497760232", "fusion_lat": 0.0, "is_reserved": 0, "lon": -77.04844716666666}, {"type": "electric_scooter", "name": "157bf37b766134650eda22ab5f7eb182", "rental_uris": {"ios": "https://dc.lft.to/lastmile_qr_scan", "android": "https://dc.lft.to/lastmile_qr_scan"}, "fusion_lon": 0.0, "lat": 38.946159, "is_disabled": 0, "bike_id": "157bf37b766134650eda22ab5f7eb182", "fusion_lat": 0.0, "is_reserved": 0, "lon": -77.03681783333333}, {"type": "electric_scooter", "name": "368d8cdd3055d3e889e09f39b8acce0c", "rental_uris": {"ios": "https://dc.lft.to/lastmile_qr_scan", "android": "https://dc.lft.to/lastmile_qr_scan"}, "fusion_lon": 0.0, "lat": 38.90291166666667, "is_disabled": 0, "bike_id": "368d8cdd3055d3e889e09f39b8acce0c", "fusion_lat": 0.0, "is_reserved": 0, "lon": -76.976378}, {"type": "electric_scooter", "name": "4c64332da292fe67f23418f505bcd161", "rental_uris": {"ios": "https://dc.lft.to/lastmile_qr_scan", "android": "https://dc.lft.to/lastmile_qr_scan"}, "fusion_lon": 0.0, "lat": 38.892283666666664, "is_disabled": 0, "bike_id": "4c64332da292fe67f23418f505bcd161", "fusion_lat": 0.0, "is_reserved": 0, "lon": -77.0331625}, {"type": "electric_scooter", "name": "866730f3f231e240be5703a0440d3ef6", "rental_uris": {"ios": "https://dc.lft.to/lastmile_qr_scan", "android": "https://dc.lft.to/lastmile_qr_scan"}, "fusion_lon": 0.0, "lat": 38.97512833333333, "is_disabled": 0, "bike_id": "866730f3f231e240be5703a0440d3ef6", "fusion_lat": 0.0, "is_reserved": 0, "lon": -77.0167085}, {"type": "electric_scooter", "name": "80f12948f4aa31a2dc720d14fee275fc", "rental_uris": {"ios": "https://dc.lft.to/lastmile_qr_scan", "android": "https://dc.lft.to/lastmile_qr_scan"}, "fusion_lon": 0.0, "lat": 38.9161725, "is_disabled": 0, "bike_id": "80f12948f4aa31a2dc720d14fee275fc", "fusion_lat": 0.0, "is_reserved": 0, "lon": -77.04861733333334}, {"type": "electric_bike", "name": "e8bc825e474ea1a6a90c4661961a8275", "rental_uris": {"ios": "https://dc.lft.to/lastmile_qr_scan", "android": "https://dc.lft.to/lastmile_qr_scan"}, "fusion_lon": 0.0, "lat": 38.8766735, "is_disabled": 0, "bike_id": "e8bc825e474ea1a6a90c4661961a8275", "fusion_lat": 0.0, "is_reserved": 0, "lon": -77.01450283333334}, {"type": "electric_scooter", "name": "f7d7370ec142486e5f1fa9fe4877849b", "rental_uris": {"ios": "https://dc.lft.to/lastmile_qr_scan", "android": "https://dc.lft.to/lastmile_qr_scan"}, "fusion_lon": 0.0, "lat": 38.912561833333335, "is_disabled": 0, "bike_id": "f7d7370ec142486e5f1fa9fe4877849b", "fusion_lat": 0.0, "is_reserved": 0, "lon": -77.0443685}, {"type": "electric_scooter", "name": "27b1a6b8f147cd3d439e9c2dc7a1ff58", "rental_uris": {"ios": "https://dc.lft.to/lastmile_qr_scan", "android": "https://dc.lft.to/lastmile_qr_scan"}, "fusion_lon": 0.0, "lat": 38.92113583333333, "is_disabled": 0, "bike_id": "27b1a6b8f147cd3d439e9c2dc7a1ff58", "fusion_lat": 0.0, "is_reserved": 0, "lon": -77.02519216666667}, {"type": "electric_scooter", "name": "b12fb9516747f0024d60c5b4ee8032b7", "rental_uris": {"ios": "https://dc.lft.to/lastmile_qr_scan", "android": "https://dc.lft.to/lastmile_qr_scan"}, "fusion_lon": 0.0, "lat": 38.926842666666666, "is_disabled": 0, "bike_id": "b12fb9516747f0024d60c5b4ee8032b7", "fusion_lat": 0.0, "is_reserved": 0, "lon": -77.03229066666667}, {"type": "electric_scooter", "name": "86961671be52e81fce773e181d2c283e", "rental_uris": {"ios": "https://dc.lft.to/lastmile_qr_scan", "android": "https://dc.lft.to/lastmile_qr_scan"}, "fusion_lon": 0.0, "lat": 38.90471766666667, "is_disabled": 0, "bike_id": "86961671be52e81fce773e181d2c283e", "fusion_lat": 0.0, "is_reserved": 0, "lon": -77.06537983333334}, {"type": "electric_scooter", "name": "18e30b78e1a40f234073e23f80b7577e", "rental_uris": {"ios": "https://dc.lft.to/lastmile_qr_scan", "android": "https://dc.lft.to/lastmile_qr_scan"}, "fusion_lon": 0.0, "lat": 38.89727366666666, "is_disabled": 0, "bike_id": "18e30b78e1a40f234073e23f80b7577e", "fusion_lat": 0.0, "is_reserved": 0, "lon": -77.05521266666666}, {"type": "electric_bike", "name": "60fda055a36838e8f8916ca3c94eca30", "rental_uris": {"ios": "https://dc.lft.to/lastmile_qr_scan", "android": "https://dc.lft.to/lastmile_qr_scan"}, "fusion_lon": 0.0, "lat": 38.99773, "is_disabled": 0, "bike_id": "60fda055a36838e8f8916ca3c94eca30", "fusion_lat": 0.0, "is_reserved": 0, "lon": -77.047197}, {"type": "electric_scooter", "name": "62b2d7d850b32dd3c883e060dd1c08d8", "rental_uris": {"ios": "https://dc.lft.to/lastmile_qr_scan", "android": "https://dc.lft.to/lastmile_qr_scan"}, "fusion_lon": 0.0, "lat": 38.914159166666664, "is_disabled": 0, "bike_id": "62b2d7d850b32dd3c883e060dd1c08d8", "fusion_lat": 0.0, "is_reserved": 0, "lon": -77.01876683333333}, {"type": "electric_scooter", "name": "0525d5344cc0a64b97e4c5faeca98870", "rental_uris": {"ios": "https://dc.lft.to/lastmile_qr_scan", "android": "https://dc.lft.to/lastmile_qr_scan"}, "fusion_lon": 0.0, "lat": 38.901194, "is_disabled": 0, "bike_id": "0525d5344cc0a64b97e4c5faeca98870", "fusion_lat": 0.0, "is_reserved": 0, "lon": -77.042295}, {"type": "electric_scooter", "name": "584af6f426cc73d2d5e96bd3a117c7a1", "rental_uris": {"ios": "https://dc.lft.to/lastmile_qr_scan", "android": "https://dc.lft.to/lastmile_qr_scan"}, "fusion_lon": 0.0, "lat": 38.9050435, "is_disabled": 0, "bike_id": "584af6f426cc73d2d5e96bd3a117c7a1", "fusion_lat": 0.0, "is_reserved": 0, "lon": -77.06099266666666}, {"type": "electric_scooter", "name": "b6dfe33a185809f2bfc92d087179f158", "rental_uris": {"ios": "https://dc.lft.to/lastmile_qr_scan", "android": "https://dc.lft.to/lastmile_qr_scan"}, "fusion_lon": 0.0, "lat": 38.877282666666666, "is_disabled": 0, "bike_id": "b6dfe33a185809f2bfc92d087179f158", "fusion_lat": 0.0, "is_reserved": 0, "lon": -77.00429233333334}, {"type": "electric_scooter", "name": "72131021856d504353f6b749923b7938", "rental_uris": {"ios": "https://dc.lft.to/lastmile_qr_scan", "android": "https://dc.lft.to/lastmile_qr_scan"}, "fusion_lon": 0.0, "lat": 38.92398283333333, "is_disabled": 0, "bike_id": "72131021856d504353f6b749923b7938", "fusion_lat": 0.0, "is_reserved": 0, "lon": -77.0248995}, {"type": "electric_scooter", "name": "23b50f3c9585fe47055f9375b84a7d4a", "rental_uris": {"ios": "https://dc.lft.to/lastmile_qr_scan", "android": "https://dc.lft.to/lastmile_qr_scan"}, "fusion_lon": 0.0, "lat": 38.922711666666665, "is_disabled": 0, "bike_id": "23b50f3c9585fe47055f9375b84a7d4a", "fusion_lat": 0.0, "is_reserved": 0, "lon": -77.03262233333334}, {"type": "electric_scooter", "name": "d187cb12f5b0ee2094a91f0e29f8f6cc", "rental_uris": {"ios": "https://dc.lft.to/lastmile_qr_scan", "android": "https://dc.lft.to/lastmile_qr_scan"}, "fusion_lon": 0.0, "lat": 38.919179, "is_disabled": 0, "bike_id": "d187cb12f5b0ee2094a91f0e29f8f6cc", "fusion_lat": 0.0, "is_reserved": 0, "lon": -77.03174716666666}, {"type": "electric_bike", "name": "87ca321503933bc7d864df9e9490ed2e", "rental_uris": {"ios": "https://dc.lft.to/lastmile_qr_scan", "android": "https://dc.lft.to/lastmile_qr_scan"}, "fusion_lon": 0.0, "lat": 38.936287666666665, "is_disabled": 0, "bike_id": "87ca321503933bc7d864df9e9490ed2e", "fusion_lat": 0.0, "is_reserved": 0, "lon": -77.03655566666667}, {"type": "electric_scooter", "name": "9d4250a322efc6afa992359c2a4619bd", "rental_uris": {"ios": "https://dc.lft.to/lastmile_qr_scan", "android": "https://dc.lft.to/lastmile_qr_scan"}, "fusion_lon": 0.0, "lat": 38.90467366666667, "is_disabled": 0, "bike_id": "9d4250a322efc6afa992359c2a4619bd", "fusion_lat": 0.0, "is_reserved": 0, "lon": -77.03472266666667}, {"type": "electric_bike", "name": "c195aacaba8b6847f731b6ab95bfca93", "rental_uris": {"ios": "https://dc.lft.to/lastmile_qr_scan", "android": "https://dc.lft.to/lastmile_qr_scan"}, "fusion_lon": 0.0, "lat": 38.931704333333336, "is_disabled": 0, "bike_id": "c195aacaba8b6847f731b6ab95bfca93", "fusion_lat": 0.0, "is_reserved": 0, "lon": -77.03539983333333}, {"type": "electric_scooter", "name": "60e882d9a1fec311cb138f3f31dd40ca", "rental_uris": {"ios": "https://dc.lft.to/lastmile_qr_scan", "android": "https://dc.lft.to/lastmile_qr_scan"}, "fusion_lon": 0.0, "lat": 38.90136533333333, "is_disabled": 0, "bike_id": "60e882d9a1fec311cb138f3f31dd40ca", "fusion_lat": 0.0, "is_reserved": 0, "lon": -77.0326445}, {"type": "electric_scooter", "name": "1a3253796a062c30a820545de57cd035", "rental_uris": {"ios": "https://dc.lft.to/lastmile_qr_scan", "android": "https://dc.lft.to/lastmile_qr_scan"}, "fusion_lon": 0.0, "lat": 38.90770466666667, "is_disabled": 0, "bike_id": "1a3253796a062c30a820545de57cd035", "fusion_lat": 0.0, "is_reserved": 0, "lon": -77.00155416666666}, {"type": "electric_scooter", "name": "cb10a971627148ff60d30c3aa1a0b2c7", "rental_uris": {"ios": "https://dc.lft.to/lastmile_qr_scan", "android": "https://dc.lft.to/lastmile_qr_scan"}, "fusion_lon": 0.0, "lat": 38.89584283333333, "is_disabled": 0, "bike_id": "cb10a971627148ff60d30c3aa1a0b2c7", "fusion_lat": 0.0, "is_reserved": 0, "lon": -77.02297366666667}, {"type": "electric_scooter", "name": "c7c66aed4484c641f60d973494ebd56a", "rental_uris": {"ios": "https://dc.lft.to/lastmile_qr_scan", "android": "https://dc.lft.to/lastmile_qr_scan"}, "fusion_lon": 0.0, "lat": 38.917858833333334, "is_disabled": 0, "bike_id": "c7c66aed4484c641f60d973494ebd56a", "fusion_lat": 0.0, "is_reserved": 0, "lon": -77.02221433333334}, {"type": "electric_scooter", "name": "b544811e89c92bae58717d0cee3f6b1c", "rental_uris": {"ios": "https://dc.lft.to/lastmile_qr_scan", "android": "https://dc.lft.to/lastmile_qr_scan"}, "fusion_lon": 0.0, "lat": 38.89898066666667, "is_disabled": 0, "bike_id": "b544811e89c92bae58717d0cee3f6b1c", "fusion_lat": 0.0, "is_reserved": 0, "lon": -77.0022565}, {"type": "electric_scooter", "name": "d82ad266110c0afe88e883ddf3f6e502", "rental_uris": {"ios": "https://dc.lft.to/lastmile_qr_scan", "android": "https://dc.lft.to/lastmile_qr_scan"}, "fusion_lon": 0.0, "lat": 38.924209833333336, "is_disabled": 0, "bike_id": "d82ad266110c0afe88e883ddf3f6e502", "fusion_lat": 0.0, "is_reserved": 0, "lon": -77.02035383333333}, {"type": "electric_scooter", "name": "9fd5f514f9bcb9be37c2a8c9a0ef8ccb", "rental_uris": {"ios": "https://dc.lft.to/lastmile_qr_scan", "android": "https://dc.lft.to/lastmile_qr_scan"}, "fusion_lon": 0.0, "lat": 38.936097333333336, "is_disabled": 0, "bike_id": "9fd5f514f9bcb9be37c2a8c9a0ef8ccb", "fusion_lat": 0.0, "is_reserved": 0, "lon": -77.05862133333333}, {"type": "electric_scooter", "name": "f768ab7b4c8dfa79dd46d267d67e6988", "rental_uris": {"ios": "https://dc.lft.to/lastmile_qr_scan", "android": "https://dc.lft.to/lastmile_qr_scan"}, "fusion_lon": 0.0, "lat": 38.9056935, "is_disabled": 0, "bike_id": "f768ab7b4c8dfa79dd46d267d67e6988", "fusion_lat": 0.0, "is_reserved": 0, "lon": -77.02213583333334}, {"type": "electric_scooter", "name": "12883280b0768685e3aa48d00294eb2a", "rental_uris": {"ios": "https://dc.lft.to/lastmile_qr_scan", "android": "https://dc.lft.to/lastmile_qr_scan"}, "fusion_lon": 0.0, "lat": 38.8790775, "is_disabled": 0, "bike_id": "12883280b0768685e3aa48d00294eb2a", "fusion_lat": 0.0, "is_reserved": 0, "lon": -76.98691}, {"type": "electric_scooter", "name": "a6a32e73c34fb9627c08ff931fa68242", "rental_uris": {"ios": "https://dc.lft.to/lastmile_qr_scan", "android": "https://dc.lft.to/lastmile_qr_scan"}, "fusion_lon": 0.0, "lat": 38.9288095, "is_disabled": 0, "bike_id": "a6a32e73c34fb9627c08ff931fa68242", "fusion_lat": 0.0, "is_reserved": 0, "lon": -77.0271115}, {"type": "electric_scooter", "name": "9ac5f1a622e6f3f5fbe08f18d2037bc0", "rental_uris": {"ios": "https://dc.lft.to/lastmile_qr_scan", "android": "https://dc.lft.to/lastmile_qr_scan"}, "fusion_lon": 0.0, "lat": 38.9131635, "is_disabled": 0, "bike_id": "9ac5f1a622e6f3f5fbe08f18d2037bc0", "fusion_lat": 0.0, "is_reserved": 0, "lon": -77.01514483333334}, {"type": "electric_scooter", "name": "a2ea6ce8e0e155aa59d5491aac3cf4bd", "rental_uris": {"ios": "https://dc.lft.to/lastmile_qr_scan", "android": "https://dc.lft.to/lastmile_qr_scan"}, "fusion_lon": 0.0, "lat": 38.902588, "is_disabled": 0, "bike_id": "a2ea6ce8e0e155aa59d5491aac3cf4bd", "fusion_lat": 0.0, "is_reserved": 0, "lon": -76.97463066666667}, {"type": "electric_scooter", "name": "fae03c33a1976ce487a00a2bc423f71f", "rental_uris": {"ios": "https://dc.lft.to/lastmile_qr_scan", "android": "https://dc.lft.to/lastmile_qr_scan"}, "fusion_lon": 0.0, "lat": 38.89830516666667, "is_disabled": 0, "bike_id": "fae03c33a1976ce487a00a2bc423f71f", "fusion_lat": 0.0, "is_reserved": 0, "lon": -77.031738}, {"type": "electric_scooter", "name": "6f1675b7da070fb50bf5f98826453bdc", "rental_uris": {"ios": "https://dc.lft.to/lastmile_qr_scan", "android": "https://dc.lft.to/lastmile_qr_scan"}, "fusion_lon": 0.0, "lat": 38.90855833333333, "is_disabled": 0, "bike_id": "6f1675b7da070fb50bf5f98826453bdc", "fusion_lat": 0.0, "is_reserved": 0, "lon": -76.99796066666667}, {"type": "electric_scooter", "name": "919a0d914b21050a9c7967c936e5b8d9", "rental_uris": {"ios": "https://dc.lft.to/lastmile_qr_scan", "android": "https://dc.lft.to/lastmile_qr_scan"}, "fusion_lon": 0.0, "lat": 38.915030333333334, "is_disabled": 0, "bike_id": "919a0d914b21050a9c7967c936e5b8d9", "fusion_lat": 0.0, "is_reserved": 0, "lon": -77.03825133333333}, {"type": "electric_scooter", "name": "9d61d09f816dc80f976826f07f0117d1", "rental_uris": {"ios": "https://dc.lft.to/lastmile_qr_scan", "android": "https://dc.lft.to/lastmile_qr_scan"}, "fusion_lon": 0.0, "lat": 38.907846166666666, "is_disabled": 0, "bike_id": "9d61d09f816dc80f976826f07f0117d1", "fusion_lat": 0.0, "is_reserved": 0, "lon": -77.0399965}, {"type": "electric_scooter", "name": "a7fe5d6de3d394610736d2abc6cf542f", "rental_uris": {"ios": "https://dc.lft.to/lastmile_qr_scan", "android": "https://dc.lft.to/lastmile_qr_scan"}, "fusion_lon": 0.0, "lat": 38.91255966666667, "is_disabled": 0, "bike_id": "a7fe5d6de3d394610736d2abc6cf542f", "fusion_lat": 0.0, "is_reserved": 0, "lon": -77.01910383333333}, {"type": "electric_scooter", "name": "424a0a21d9b9db7f089a4368bb643126", "rental_uris": {"ios": "https://dc.lft.to/lastmile_qr_scan", "android": "https://dc.lft.to/lastmile_qr_scan"}, "fusion_lon": 0.0, "lat": 38.9040705, "is_disabled": 0, "bike_id": "424a0a21d9b9db7f089a4368bb643126", "fusion_lat": 0.0, "is_reserved": 0, "lon": -76.97330583333333}, {"type": "electric_scooter", "name": "592b07d4cb9c6fc598e5792492cab9c9", "rental_uris": {"ios": "https://dc.lft.to/lastmile_qr_scan", "android": "https://dc.lft.to/lastmile_qr_scan"}, "fusion_lon": 0.0, "lat": 38.92098433333334, "is_disabled": 0, "bike_id": "592b07d4cb9c6fc598e5792492cab9c9", "fusion_lat": 0.0, "is_reserved": 0, "lon": -77.04692516666667}, {"type": "electric_scooter", "name": "ec4562aa9e43713d3b62b4427a663f9f", "rental_uris": {"ios": "https://dc.lft.to/lastmile_qr_scan", "android": "https://dc.lft.to/lastmile_qr_scan"}, "fusion_lon": 0.0, "lat": 38.898724, "is_disabled": 0, "bike_id": "ec4562aa9e43713d3b62b4427a663f9f", "fusion_lat": 0.0, "is_reserved": 0, "lon": -76.931855}, {"type": "electric_scooter", "name": "a579b4220476c2563ac06b2f0c058606", "rental_uris": {"ios": "https://dc.lft.to/lastmile_qr_scan", "android": "https://dc.lft.to/lastmile_qr_scan"}, "fusion_lon": 0.0, "lat": 38.924847166666666, "is_disabled": 0, "bike_id": "a579b4220476c2563ac06b2f0c058606", "fusion_lat": 0.0, "is_reserved": 0, "lon": -77.02662933333333}, {"type": "electric_scooter", "name": "9c1d5a079b95a5e2d25d4e072e16a8f8", "rental_uris": {"ios": "https://dc.lft.to/lastmile_qr_scan", "android": "https://dc.lft.to/lastmile_qr_scan"}, "fusion_lon": 0.0, "lat": 38.8850395, "is_disabled": 0, "bike_id": "9c1d5a079b95a5e2d25d4e072e16a8f8", "fusion_lat": 0.0, "is_reserved": 0, "lon": -77.00699683333333}, {"type": "electric_scooter", "name": "ed74defe21390e89181151009b47ea20", "rental_uris": {"ios": "https://dc.lft.to/lastmile_qr_scan", "android": "https://dc.lft.to/lastmile_qr_scan"}, "fusion_lon": 0.0, "lat": 38.86557783333333, "is_disabled": 0, "bike_id": "ed74defe21390e89181151009b47ea20", "fusion_lat": 0.0, "is_reserved": 0, "lon": -76.98352166666666}, {"type": "electric_scooter", "name": "f79114a0cde01624dc4a9f3682f2c35c", "rental_uris": {"ios": "https://dc.lft.to/lastmile_qr_scan", "android": "https://dc.lft.to/lastmile_qr_scan"}, "fusion_lon": 0.0, "lat": 38.925617, "is_disabled": 0, "bike_id": "f79114a0cde01624dc4a9f3682f2c35c", "fusion_lat": 0.0, "is_reserved": 0, "lon": -77.02715166666667}, {"type": "electric_scooter", "name": "a6b426e263d326558512613c40b53441", "rental_uris": {"ios": "https://dc.lft.to/lastmile_qr_scan", "android": "https://dc.lft.to/lastmile_qr_scan"}, "fusion_lon": 0.0, "lat": 38.90570616666667, "is_disabled": 0, "bike_id": "a6b426e263d326558512613c40b53441", "fusion_lat": 0.0, "is_reserved": 0, "lon": -77.02416683333334}, {"type": "electric_scooter", "name": "6b690753309e3c6c92bba384a48f9e8d", "rental_uris": {"ios": "https://dc.lft.to/lastmile_qr_scan", "android": "https://dc.lft.to/lastmile_qr_scan"}, "fusion_lon": 0.0, "lat": 38.922702, "is_disabled": 0, "bike_id": "6b690753309e3c6c92bba384a48f9e8d", "fusion_lat": 0.0, "is_reserved": 0, "lon": -77.029662}, {"type": "electric_scooter", "name": "9bc79f56732bf2f117a7b9761bf31550", "rental_uris": {"ios": "https://dc.lft.to/lastmile_qr_scan", "android": "https://dc.lft.to/lastmile_qr_scan"}, "fusion_lon": 0.0, "lat": 38.900013666666666, "is_disabled": 0, "bike_id": "9bc79f56732bf2f117a7b9761bf31550", "fusion_lat": 0.0, "is_reserved": 0, "lon": -77.0713645}, {"type": "electric_scooter", "name": "41bc0b05e598ce3d18334c2a81bed5e4", "rental_uris": {"ios": "https://dc.lft.to/lastmile_qr_scan", "android": "https://dc.lft.to/lastmile_qr_scan"}, "fusion_lon": 0.0, "lat": 38.9082835, "is_disabled": 0, "bike_id": "41bc0b05e598ce3d18334c2a81bed5e4", "fusion_lat": 0.0, "is_reserved": 0, "lon": -77.04347333333334}, {"type": "electric_scooter", "name": "72236b30222c80e631e731c63fe5bd44", "rental_uris": {"ios": "https://dc.lft.to/lastmile_qr_scan", "android": "https://dc.lft.to/lastmile_qr_scan"}, "fusion_lon": 0.0, "lat": 38.910898833333334, "is_disabled": 0, "bike_id": "72236b30222c80e631e731c63fe5bd44", "fusion_lat": 0.0, "is_reserved": 0, "lon": -77.01625466666667}, {"type": "electric_scooter", "name": "e8f9ae4387fb6c5bfc3a04114ce283ac", "rental_uris": {"ios": "https://dc.lft.to/lastmile_qr_scan", "android": "https://dc.lft.to/lastmile_qr_scan"}, "fusion_lon": 0.0, "lat": 38.938736666666664, "is_disabled": 0, "bike_id": "e8f9ae4387fb6c5bfc3a04114ce283ac", "fusion_lat": 0.0, "is_reserved": 0, "lon": -77.030827}, {"type": "electric_scooter", "name": "58c43424cd243ac6a6773dad30f8799f", "rental_uris": {"ios": "https://dc.lft.to/lastmile_qr_scan", "android": "https://dc.lft.to/lastmile_qr_scan"}, "fusion_lon": 0.0, "lat": 38.922686, "is_disabled": 0, "bike_id": "58c43424cd243ac6a6773dad30f8799f", "fusion_lat": 0.0, "is_reserved": 0, "lon": -77.03393966666667}, {"type": "electric_scooter", "name": "cbc62d1208a2fdd85b45e5c62f1295a1", "rental_uris": {"ios": "https://dc.lft.to/lastmile_qr_scan", "android": "https://dc.lft.to/lastmile_qr_scan"}, "fusion_lon": 0.0, "lat": 38.9304985, "is_disabled": 0, "bike_id": "cbc62d1208a2fdd85b45e5c62f1295a1", "fusion_lat": 0.0, "is_reserved": 0, "lon": -77.032202}, {"type": "electric_scooter", "name": "d7f22122139213607ce54ff7fa18c7e2", "rental_uris": {"ios": "https://dc.lft.to/lastmile_qr_scan", "android": "https://dc.lft.to/lastmile_qr_scan"}, "fusion_lon": 0.0, "lat": 38.94335616666667, "is_disabled": 0, "bike_id": "d7f22122139213607ce54ff7fa18c7e2", "fusion_lat": 0.0, "is_reserved": 0, "lon": -77.026882}, {"type": "electric_scooter", "name": "831d8821c7c75286febaf47439f542ba", "rental_uris": {"ios": "https://dc.lft.to/lastmile_qr_scan", "android": "https://dc.lft.to/lastmile_qr_scan"}, "fusion_lon": 0.0, "lat": 38.896344166666665, "is_disabled": 0, "bike_id": "831d8821c7c75286febaf47439f542ba", "fusion_lat": 0.0, "is_reserved": 0, "lon": -77.03322066666667}, {"type": "electric_scooter", "name": "76d1e9a780e8be0b2914e279af15c3e7", "rental_uris": {"ios": "https://dc.lft.to/lastmile_qr_scan", "android": "https://dc.lft.to/lastmile_qr_scan"}, "fusion_lon": 0.0, "lat": 38.917155666666666, "is_disabled": 0, "bike_id": "76d1e9a780e8be0b2914e279af15c3e7", "fusion_lat": 0.0, "is_reserved": 0, "lon": -77.02299483333333}, {"type": "electric_scooter", "name": "f7fb3a5e503fd1e1a295fda2466eb4cd", "rental_uris": {"ios": "https://dc.lft.to/lastmile_qr_scan", "android": "https://dc.lft.to/lastmile_qr_scan"}, "fusion_lon": 0.0, "lat": 38.94345716666667, "is_disabled": 0, "bike_id": "f7fb3a5e503fd1e1a295fda2466eb4cd", "fusion_lat": 0.0, "is_reserved": 0, "lon": -77.06131183333333}, {"type": "electric_bike", "name": "c72a7728af3d0d1b7edefbbde131b573", "rental_uris": {"ios": "https://dc.lft.to/lastmile_qr_scan", "android": "https://dc.lft.to/lastmile_qr_scan"}, "fusion_lon": 0.0, "lat": 38.896152666666666, "is_disabled": 0, "bike_id": "c72a7728af3d0d1b7edefbbde131b573", "fusion_lat": 0.0, "is_reserved": 0, "lon": -76.907456}, {"type": "electric_scooter", "name": "1eb75f1e4dcadbb061c2c39e8f0d1f0e", "rental_uris": {"ios": "https://dc.lft.to/lastmile_qr_scan", "android": "https://dc.lft.to/lastmile_qr_scan"}, "fusion_lon": 0.0, "lat": 38.91705566666667, "is_disabled": 0, "bike_id": "1eb75f1e4dcadbb061c2c39e8f0d1f0e", "fusion_lat": 0.0, "is_reserved": 0, "lon": -77.02282916666667}, {"type": "electric_scooter", "name": "fe4f40a5fc8159200628b4387e0a25e8", "rental_uris": {"ios": "https://dc.lft.to/lastmile_qr_scan", "android": "https://dc.lft.to/lastmile_qr_scan"}, "fusion_lon": 0.0, "lat": 38.91546183333333, "is_disabled": 0, "bike_id": "fe4f40a5fc8159200628b4387e0a25e8", "fusion_lat": 0.0, "is_reserved": 0, "lon": -77.03854466666667}, {"type": "electric_scooter", "name": "e679d1c22ad18064a036170047ceb352", "rental_uris": {"ios": "https://dc.lft.to/lastmile_qr_scan", "android": "https://dc.lft.to/lastmile_qr_scan"}, "fusion_lon": 0.0, "lat": 38.9198315, "is_disabled": 0, "bike_id": "e679d1c22ad18064a036170047ceb352", "fusion_lat": 0.0, "is_reserved": 0, "lon": -77.01804733333333}, {"type": "electric_bike", "name": "1e3ddd253bf830fa2cb48718582daf19", "rental_uris": {"ios": "https://dc.lft.to/lastmile_qr_scan", "android": "https://dc.lft.to/lastmile_qr_scan"}, "fusion_lon": 0.0, "lat": 38.846108, "is_disabled": 0, "bike_id": "1e3ddd253bf830fa2cb48718582daf19", "fusion_lat": 0.0, "is_reserved": 0, "lon": -76.96911116666666}, {"type": "electric_bike", "name": "a6f10fbac8a9bd8f5f2f5efc9dbfd1de", "rental_uris": {"ios": "https://dc.lft.to/lastmile_qr_scan", "android": "https://dc.lft.to/lastmile_qr_scan"}, "fusion_lon": 0.0, "lat": 38.864020333333336, "is_disabled": 0, "bike_id": "a6f10fbac8a9bd8f5f2f5efc9dbfd1de", "fusion_lat": 0.0, "is_reserved": 0, "lon": -77.06350683333334}, {"type": "electric_bike", "name": "5137604e1af08a6c4f28c9bf72be227c", "rental_uris": {"ios": "https://dc.lft.to/lastmile_qr_scan", "android": "https://dc.lft.to/lastmile_qr_scan"}, "fusion_lon": 0.0, "lat": 38.874922166666664, "is_disabled": 0, "bike_id": "5137604e1af08a6c4f28c9bf72be227c", "fusion_lat": 0.0, "is_reserved": 0, "lon": -77.21124916666666}, {"type": "electric_scooter", "name": "d84e059553990f17538097a2d9461424", "rental_uris": {"ios": "https://dc.lft.to/lastmile_qr_scan", "android": "https://dc.lft.to/lastmile_qr_scan"}, "fusion_lon": 0.0, "lat": 38.93303433333333, "is_disabled": 0, "bike_id": "d84e059553990f17538097a2d9461424", "fusion_lat": 0.0, "is_reserved": 0, "lon": -77.02140533333333}, {"type": "electric_scooter", "name": "c14b5700a1b3e6c0089c6279fabcf4c3", "rental_uris": {"ios": "https://dc.lft.to/lastmile_qr_scan", "android": "https://dc.lft.to/lastmile_qr_scan"}, "fusion_lon": 0.0, "lat": 38.92056133333333, "is_disabled": 0, "bike_id": "c14b5700a1b3e6c0089c6279fabcf4c3", "fusion_lat": 0.0, "is_reserved": 0, "lon": -77.023738}, {"type": "electric_scooter", "name": "8982f4548d782842002f292d0032f321", "rental_uris": {"ios": "https://dc.lft.to/lastmile_qr_scan", "android": "https://dc.lft.to/lastmile_qr_scan"}, "fusion_lon": 0.0, "lat": 38.918802, "is_disabled": 0, "bike_id": "8982f4548d782842002f292d0032f321", "fusion_lat": 0.0, "is_reserved": 0, "lon": -77.03512333333333}, {"type": "electric_bike", "name": "b2d09b77d9815a56574b9016b6c3ff1a", "rental_uris": {"ios": "https://dc.lft.to/lastmile_qr_scan", "android": "https://dc.lft.to/lastmile_qr_scan"}, "fusion_lon": 0.0, "lat": 38.87977583333333, "is_disabled": 0, "bike_id": "b2d09b77d9815a56574b9016b6c3ff1a", "fusion_lat": 0.0, "is_reserved": 0, "lon": -76.91604616666666}, {"type": "electric_scooter", "name": "fbdb9293d509c56339de75e42831016d", "rental_uris": {"ios": "https://dc.lft.to/lastmile_qr_scan", "android": "https://dc.lft.to/lastmile_qr_scan"}, "fusion_lon": 0.0, "lat": 38.90559416666667, "is_disabled": 0, "bike_id": "fbdb9293d509c56339de75e42831016d", "fusion_lat": 0.0, "is_reserved": 0, "lon": -77.00577583333333}, {"type": "electric_scooter", "name": "c617ce9b8a4fb072d85342ada2155db9", "rental_uris": {"ios": "https://dc.lft.to/lastmile_qr_scan", "android": "https://dc.lft.to/lastmile_qr_scan"}, "fusion_lon": 0.0, "lat": 38.93262766666667, "is_disabled": 0, "bike_id": "c617ce9b8a4fb072d85342ada2155db9", "fusion_lat": 0.0, "is_reserved": 0, "lon": -77.02097216666667}, {"type": "electric_scooter", "name": "b777056a19595cc9c04d31dd58604151", "rental_uris": {"ios": "https://dc.lft.to/lastmile_qr_scan", "android": "https://dc.lft.to/lastmile_qr_scan"}, "fusion_lon": 0.0, "lat": 38.8972735, "is_disabled": 0, "bike_id": "b777056a19595cc9c04d31dd58604151", "fusion_lat": 0.0, "is_reserved": 0, "lon": -77.04547983333333}, {"type": "electric_bike", "name": "f9321a7c39e4b391432d51d57dca552a", "rental_uris": {"ios": "https://dc.lft.to/lastmile_qr_scan", "android": "https://dc.lft.to/lastmile_qr_scan"}, "fusion_lon": 0.0, "lat": 38.936006666666664, "is_disabled": 0, "bike_id": "f9321a7c39e4b391432d51d57dca552a", "fusion_lat": 0.0, "is_reserved": 0, "lon": -77.02118433333334}, {"type": "electric_bike", "name": "df4469466fed4a6f38823cb7be73c0c4", "rental_uris": {"ios": "https://dc.lft.to/lastmile_qr_scan", "android": "https://dc.lft.to/lastmile_qr_scan"}, "fusion_lon": 0.0, "lat": 38.896146, "is_disabled": 0, "bike_id": "df4469466fed4a6f38823cb7be73c0c4", "fusion_lat": 0.0, "is_reserved": 0, "lon": -76.90743116666667}, {"type": "electric_bike", "name": "ccd2b5c42d7ba2fcdd03d9c586c40857", "rental_uris": {"ios": "https://dc.lft.to/lastmile_qr_scan", "android": "https://dc.lft.to/lastmile_qr_scan"}, "fusion_lon": 0.0, "lat": 38.804467, "is_disabled": 0, "bike_id": "ccd2b5c42d7ba2fcdd03d9c586c40857", "fusion_lat": 0.0, "is_reserved": 0, "lon": -77.05397516666666}, {"type": "electric_scooter", "name": "531a8cbec390b7e3802f3b981dc644a8", "rental_uris": {"ios": "https://dc.lft.to/lastmile_qr_scan", "android": "https://dc.lft.to/lastmile_qr_scan"}, "fusion_lon": 0.0, "lat": 38.91033266666667, "is_disabled": 0, "bike_id": "531a8cbec390b7e3802f3b981dc644a8", "fusion_lat": 0.0, "is_reserved": 0, "lon": -77.0292495}, {"type": "electric_scooter", "name": "029324d5ecb4a4eb61d4278186ca1a52", "rental_uris": {"ios": "https://dc.lft.to/lastmile_qr_scan", "android": "https://dc.lft.to/lastmile_qr_scan"}, "fusion_lon": 0.0, "lat": 38.90606916666667, "is_disabled": 0, "bike_id": "029324d5ecb4a4eb61d4278186ca1a52", "fusion_lat": 0.0, "is_reserved": 0, "lon": -77.05688133333334}, {"type": "electric_scooter", "name": "db39a748c4df9826ba351fb932613567", "rental_uris": {"ios": "https://dc.lft.to/lastmile_qr_scan", "android": "https://dc.lft.to/lastmile_qr_scan"}, "fusion_lon": 0.0, "lat": 38.931468333333335, "is_disabled": 0, "bike_id": "db39a748c4df9826ba351fb932613567", "fusion_lat": 0.0, "is_reserved": 0, "lon": -77.04185316666667}, {"type": "electric_scooter", "name": "e42a1bdfaa43bce7bc8ce1bd982616af", "rental_uris": {"ios": "https://dc.lft.to/lastmile_qr_scan", "android": "https://dc.lft.to/lastmile_qr_scan"}, "fusion_lon": 0.0, "lat": 38.8982955, "is_disabled": 0, "bike_id": "e42a1bdfaa43bce7bc8ce1bd982616af", "fusion_lat": 0.0, "is_reserved": 0, "lon": -77.04157266666667}, {"type": "electric_scooter", "name": "96c71139eb8b797e3cdb44e4f476ce35", "rental_uris": {"ios": "https://dc.lft.to/lastmile_qr_scan", "android": "https://dc.lft.to/lastmile_qr_scan"}, "fusion_lon": 0.0, "lat": 38.920285, "is_disabled": 0, "bike_id": "96c71139eb8b797e3cdb44e4f476ce35", "fusion_lat": 0.0, "is_reserved": 0, "lon": -77.017945}, {"type": "electric_scooter", "name": "177c2f95a2a7e68120e3d35458a7e1a7", "rental_uris": {"ios": "https://dc.lft.to/lastmile_qr_scan", "android": "https://dc.lft.to/lastmile_qr_scan"}, "fusion_lon": 0.0, "lat": 38.9241135, "is_disabled": 0, "bike_id": "177c2f95a2a7e68120e3d35458a7e1a7", "fusion_lat": 0.0, "is_reserved": 0, "lon": -77.04456333333333}, {"type": "electric_scooter", "name": "9c8d415cda14486803f0795e3d6e22c5", "rental_uris": {"ios": "https://dc.lft.to/lastmile_qr_scan", "android": "https://dc.lft.to/lastmile_qr_scan"}, "fusion_lon": 0.0, "lat": 38.8871745, "is_disabled": 0, "bike_id": "9c8d415cda14486803f0795e3d6e22c5", "fusion_lat": 0.0, "is_reserved": 0, "lon": -76.99690216666667}, {"type": "electric_scooter", "name": "a9e71ee24fdc4730d391272a93b32e11", "rental_uris": {"ios": "https://dc.lft.to/lastmile_qr_scan", "android": "https://dc.lft.to/lastmile_qr_scan"}, "fusion_lon": 0.0, "lat": 38.926727166666666, "is_disabled": 0, "bike_id": "a9e71ee24fdc4730d391272a93b32e11", "fusion_lat": 0.0, "is_reserved": 0, "lon": -77.01477016666666}, {"type": "electric_scooter", "name": "83c8c9214a5a3516fd9bbfb3d377c76a", "rental_uris": {"ios": "https://dc.lft.to/lastmile_qr_scan", "android": "https://dc.lft.to/lastmile_qr_scan"}, "fusion_lon": 0.0, "lat": 38.92041533333333, "is_disabled": 0, "bike_id": "83c8c9214a5a3516fd9bbfb3d377c76a", "fusion_lat": 0.0, "is_reserved": 0, "lon": -77.01793333333333}, {"type": "electric_scooter", "name": "3f8c4a500df0a6cbfbef6c48ef31ebe3", "rental_uris": {"ios": "https://dc.lft.to/lastmile_qr_scan", "android": "https://dc.lft.to/lastmile_qr_scan"}, "fusion_lon": 0.0, "lat": 38.932391833333334, "is_disabled": 0, "bike_id": "3f8c4a500df0a6cbfbef6c48ef31ebe3", "fusion_lat": 0.0, "is_reserved": 0, "lon": -77.03420766666666}, {"type": "electric_scooter", "name": "2d6f03fb383ae9b5171b0dbf33e0fae0", "rental_uris": {"ios": "https://dc.lft.to/lastmile_qr_scan", "android": "https://dc.lft.to/lastmile_qr_scan"}, "fusion_lon": 0.0, "lat": 38.93899733333333, "is_disabled": 0, "bike_id": "2d6f03fb383ae9b5171b0dbf33e0fae0", "fusion_lat": 0.0, "is_reserved": 0, "lon": -77.03317216666666}, {"type": "electric_scooter", "name": "8686a76a17cc6af87f05d43726b5ccdc", "rental_uris": {"ios": "https://dc.lft.to/lastmile_qr_scan", "android": "https://dc.lft.to/lastmile_qr_scan"}, "fusion_lon": 0.0, "lat": 38.9251665, "is_disabled": 0, "bike_id": "8686a76a17cc6af87f05d43726b5ccdc", "fusion_lat": 0.0, "is_reserved": 0, "lon": -77.05129933333333}, {"type": "electric_scooter", "name": "0d7c581b0684739c32aab838bc3a431a", "rental_uris": {"ios": "https://dc.lft.to/lastmile_qr_scan", "android": "https://dc.lft.to/lastmile_qr_scan"}, "fusion_lon": 0.0, "lat": 38.91301983333334, "is_disabled": 0, "bike_id": "0d7c581b0684739c32aab838bc3a431a", "fusion_lat": 0.0, "is_reserved": 0, "lon": -77.03181216666667}, {"type": "electric_scooter", "name": "e5add8d0611cdf08400a14d0fcee08cd", "rental_uris": {"ios": "https://dc.lft.to/lastmile_qr_scan", "android": "https://dc.lft.to/lastmile_qr_scan"}, "fusion_lon": 0.0, "lat": 38.8967875, "is_disabled": 0, "bike_id": "e5add8d0611cdf08400a14d0fcee08cd", "fusion_lat": 0.0, "is_reserved": 0, "lon": -77.03217916666667}, {"type": "electric_scooter", "name": "dc142303fa4fb24c069d14ad5f500ea6", "rental_uris": {"ios": "https://dc.lft.to/lastmile_qr_scan", "android": "https://dc.lft.to/lastmile_qr_scan"}, "fusion_lon": 0.0, "lat": 38.893703, "is_disabled": 0, "bike_id": "dc142303fa4fb24c069d14ad5f500ea6", "fusion_lat": 0.0, "is_reserved": 0, "lon": -77.01981816666667}, {"type": "electric_scooter", "name": "f3abfc3e18e7edb32e4463f9bcd9bb99", "rental_uris": {"ios": "https://dc.lft.to/lastmile_qr_scan", "android": "https://dc.lft.to/lastmile_qr_scan"}, "fusion_lon": 0.0, "lat": 38.9002175, "is_disabled": 0, "bike_id": "f3abfc3e18e7edb32e4463f9bcd9bb99", "fusion_lat": 0.0, "is_reserved": 0, "lon": -76.98750883333334}, {"type": "electric_scooter", "name": "96a038ce66e2ca46fb2c68536b50652b", "rental_uris": {"ios": "https://dc.lft.to/lastmile_qr_scan", "android": "https://dc.lft.to/lastmile_qr_scan"}, "fusion_lon": 0.0, "lat": 38.884373333333336, "is_disabled": 0, "bike_id": "96a038ce66e2ca46fb2c68536b50652b", "fusion_lat": 0.0, "is_reserved": 0, "lon": -77.0154385}, {"type": "electric_scooter", "name": "db7b71326254590affc5632ac52b2250", "rental_uris": {"ios": "https://dc.lft.to/lastmile_qr_scan", "android": "https://dc.lft.to/lastmile_qr_scan"}, "fusion_lon": 0.0, "lat": 38.941338333333334, "is_disabled": 0, "bike_id": "db7b71326254590affc5632ac52b2250", "fusion_lat": 0.0, "is_reserved": 0, "lon": -77.01541183333333}, {"type": "electric_scooter", "name": "6f21de0b9e05aaeb0e6cfcb78d73b170", "rental_uris": {"ios": "https://dc.lft.to/lastmile_qr_scan", "android": "https://dc.lft.to/lastmile_qr_scan"}, "fusion_lon": 0.0, "lat": 38.936635333333335, "is_disabled": 0, "bike_id": "6f21de0b9e05aaeb0e6cfcb78d73b170", "fusion_lat": 0.0, "is_reserved": 0, "lon": -77.036331}, {"type": "electric_scooter", "name": "6df847787bc945b0ca8aa503a9ad7791", "rental_uris": {"ios": "https://dc.lft.to/lastmile_qr_scan", "android": "https://dc.lft.to/lastmile_qr_scan"}, "fusion_lon": 0.0, "lat": 38.935244833333336, "is_disabled": 0, "bike_id": "6df847787bc945b0ca8aa503a9ad7791", "fusion_lat": 0.0, "is_reserved": 0, "lon": -77.02353766666667}, {"type": "electric_scooter", "name": "020498e42abf364c2a3ec58247498945", "rental_uris": {"ios": "https://dc.lft.to/lastmile_qr_scan", "android": "https://dc.lft.to/lastmile_qr_scan"}, "fusion_lon": 0.0, "lat": 38.923677, "is_disabled": 0, "bike_id": "020498e42abf364c2a3ec58247498945", "fusion_lat": 0.0, "is_reserved": 0, "lon": -77.01953183333333}, {"type": "electric_scooter", "name": "43a6e8acf6f5fe64374c9956955a5e0d", "rental_uris": {"ios": "https://dc.lft.to/lastmile_qr_scan", "android": "https://dc.lft.to/lastmile_qr_scan"}, "fusion_lon": 0.0, "lat": 38.87962066666667, "is_disabled": 0, "bike_id": "43a6e8acf6f5fe64374c9956955a5e0d", "fusion_lat": 0.0, "is_reserved": 0, "lon": -77.02369866666666}, {"type": "electric_scooter", "name": "e8bc8df437a74cc9979e2e584882fc2d", "rental_uris": {"ios": "https://dc.lft.to/lastmile_qr_scan", "android": "https://dc.lft.to/lastmile_qr_scan"}, "fusion_lon": 0.0, "lat": 38.92591616666667, "is_disabled": 0, "bike_id": "e8bc8df437a74cc9979e2e584882fc2d", "fusion_lat": 0.0, "is_reserved": 0, "lon": -77.037782}, {"type": "electric_scooter", "name": "7efa6a1a1fa610ea73efd6ec067637eb", "rental_uris": {"ios": "https://dc.lft.to/lastmile_qr_scan", "android": "https://dc.lft.to/lastmile_qr_scan"}, "fusion_lon": 0.0, "lat": 38.89731233333333, "is_disabled": 0, "bike_id": "7efa6a1a1fa610ea73efd6ec067637eb", "fusion_lat": 0.0, "is_reserved": 0, "lon": -77.05526766666667}, {"type": "electric_scooter", "name": "6661a2b5b1cc7f535cc43c47d9a497a2", "rental_uris": {"ios": "https://dc.lft.to/lastmile_qr_scan", "android": "https://dc.lft.to/lastmile_qr_scan"}, "fusion_lon": 0.0, "lat": 38.9294815, "is_disabled": 0, "bike_id": "6661a2b5b1cc7f535cc43c47d9a497a2", "fusion_lat": 0.0, "is_reserved": 0, "lon": -77.01844516666667}, {"type": "electric_scooter", "name": "3351b4a96a61ec0c29d18d4a61c61418", "rental_uris": {"ios": "https://dc.lft.to/lastmile_qr_scan", "android": "https://dc.lft.to/lastmile_qr_scan"}, "fusion_lon": 0.0, "lat": 38.902687, "is_disabled": 0, "bike_id": "3351b4a96a61ec0c29d18d4a61c61418", "fusion_lat": 0.0, "is_reserved": 0, "lon": -77.03038883333333}, {"type": "electric_bike", "name": "85c67781cd6fe8bc68917b2f44eecec7", "rental_uris": {"ios": "https://dc.lft.to/lastmile_qr_scan", "android": "https://dc.lft.to/lastmile_qr_scan"}, "fusion_lon": 0.0, "lat": 38.95635516666667, "is_disabled": 0, "bike_id": "85c67781cd6fe8bc68917b2f44eecec7", "fusion_lat": 0.0, "is_reserved": 0, "lon": -76.9387085}, {"type": "electric_scooter", "name": "bd6db9a9bb7b91b3f25d9ed18bb74e38", "rental_uris": {"ios": "https://dc.lft.to/lastmile_qr_scan", "android": "https://dc.lft.to/lastmile_qr_scan"}, "fusion_lon": 0.0, "lat": 38.91890983333333, "is_disabled": 0, "bike_id": "bd6db9a9bb7b91b3f25d9ed18bb74e38", "fusion_lat": 0.0, "is_reserved": 0, "lon": -77.00343266666667}, {"type": "electric_bike", "name": "62a75f5f9d31d61eca6c7e389b1d3e8c", "rental_uris": {"ios": "https://dc.lft.to/lastmile_qr_scan", "android": "https://dc.lft.to/lastmile_qr_scan"}, "fusion_lon": 0.0, "lat": 38.9377115, "is_disabled": 0, "bike_id": "62a75f5f9d31d61eca6c7e389b1d3e8c", "fusion_lat": 0.0, "is_reserved": 0, "lon": -77.01915433333333}, {"type": "electric_scooter", "name": "13d43dedfbda53c9386b463214ee66f2", "rental_uris": {"ios": "https://dc.lft.to/lastmile_qr_scan", "android": "https://dc.lft.to/lastmile_qr_scan"}, "fusion_lon": 0.0, "lat": 38.92368233333333, "is_disabled": 0, "bike_id": "13d43dedfbda53c9386b463214ee66f2", "fusion_lat": 0.0, "is_reserved": 0, "lon": -77.02123383333333}, {"type": "electric_scooter", "name": "adc932ecac6c7bec9f469efd3692bece", "rental_uris": {"ios": "https://dc.lft.to/lastmile_qr_scan", "android": "https://dc.lft.to/lastmile_qr_scan"}, "fusion_lon": 0.0, "lat": 38.89728616666667, "is_disabled": 0, "bike_id": "adc932ecac6c7bec9f469efd3692bece", "fusion_lat": 0.0, "is_reserved": 0, "lon": -77.00985933333334}, {"type": "electric_bike", "name": "7bfe7d3fc7a4f86664b7ebdf8ccefef8", "rental_uris": {"ios": "https://dc.lft.to/lastmile_qr_scan", "android": "https://dc.lft.to/lastmile_qr_scan"}, "fusion_lon": 0.0, "lat": 38.877927, "is_disabled": 0, "bike_id": "7bfe7d3fc7a4f86664b7ebdf8ccefef8", "fusion_lat": 0.0, "is_reserved": 0, "lon": -77.00766283333333}, {"type": "electric_scooter", "name": "45a326455376c5ccd01adfce0c7ea2c6", "rental_uris": {"ios": "https://dc.lft.to/lastmile_qr_scan", "android": "https://dc.lft.to/lastmile_qr_scan"}, "fusion_lon": 0.0, "lat": 38.932854, "is_disabled": 0, "bike_id": "45a326455376c5ccd01adfce0c7ea2c6", "fusion_lat": 0.0, "is_reserved": 0, "lon": -77.025472}, {"type": "electric_scooter", "name": "8193f5dadfbe6cb732596e2697870352", "rental_uris": {"ios": "https://dc.lft.to/lastmile_qr_scan", "android": "https://dc.lft.to/lastmile_qr_scan"}, "fusion_lon": 0.0, "lat": 38.88737316666667, "is_disabled": 0, "bike_id": "8193f5dadfbe6cb732596e2697870352", "fusion_lat": 0.0, "is_reserved": 0, "lon": -77.02585183333333}, {"type": "electric_scooter", "name": "193f935a06ae737307ca338fc0411a32", "rental_uris": {"ios": "https://dc.lft.to/lastmile_qr_scan", "android": "https://dc.lft.to/lastmile_qr_scan"}, "fusion_lon": 0.0, "lat": 38.92219, "is_disabled": 0, "bike_id": "193f935a06ae737307ca338fc0411a32", "fusion_lat": 0.0, "is_reserved": 0, "lon": -77.03511683333333}, {"type": "electric_scooter", "name": "f8b4b83ac3efed651b313c95d75a3a2a", "rental_uris": {"ios": "https://dc.lft.to/lastmile_qr_scan", "android": "https://dc.lft.to/lastmile_qr_scan"}, "fusion_lon": 0.0, "lat": 38.901798, "is_disabled": 0, "bike_id": "f8b4b83ac3efed651b313c95d75a3a2a", "fusion_lat": 0.0, "is_reserved": 0, "lon": -76.941507}, {"type": "electric_scooter", "name": "50c52ae35089347c6040a483384fc1da", "rental_uris": {"ios": "https://dc.lft.to/lastmile_qr_scan", "android": "https://dc.lft.to/lastmile_qr_scan"}, "fusion_lon": 0.0, "lat": 38.918409, "is_disabled": 0, "bike_id": "50c52ae35089347c6040a483384fc1da", "fusion_lat": 0.0, "is_reserved": 0, "lon": -77.01355666666667}, {"type": "electric_scooter", "name": "dd9598e86122a32cc5bf6a3dbe401baa", "rental_uris": {"ios": "https://dc.lft.to/lastmile_qr_scan", "android": "https://dc.lft.to/lastmile_qr_scan"}, "fusion_lon": 0.0, "lat": 38.92045666666667, "is_disabled": 0, "bike_id": "dd9598e86122a32cc5bf6a3dbe401baa", "fusion_lat": 0.0, "is_reserved": 0, "lon": -77.02576233333333}, {"type": "electric_scooter", "name": "215c716ee4189f06b2fb816154a0070a", "rental_uris": {"ios": "https://dc.lft.to/lastmile_qr_scan", "android": "https://dc.lft.to/lastmile_qr_scan"}, "fusion_lon": 0.0, "lat": 38.896175666666664, "is_disabled": 0, "bike_id": "215c716ee4189f06b2fb816154a0070a", "fusion_lat": 0.0, "is_reserved": 0, "lon": -76.97976033333333}, {"type": "electric_scooter", "name": "a45bd65b9d7d054d3e4cbe94acb92c56", "rental_uris": {"ios": "https://dc.lft.to/lastmile_qr_scan", "android": "https://dc.lft.to/lastmile_qr_scan"}, "fusion_lon": 0.0, "lat": 38.89622133333334, "is_disabled": 0, "bike_id": "a45bd65b9d7d054d3e4cbe94acb92c56", "fusion_lat": 0.0, "is_reserved": 0, "lon": -76.99332983333333}, {"type": "electric_scooter", "name": "be25d7a23a9558d6edd6557c6d8970f0", "rental_uris": {"ios": "https://dc.lft.to/lastmile_qr_scan", "android": "https://dc.lft.to/lastmile_qr_scan"}, "fusion_lon": 0.0, "lat": 38.90120616666667, "is_disabled": 0, "bike_id": "be25d7a23a9558d6edd6557c6d8970f0", "fusion_lat": 0.0, "is_reserved": 0, "lon": -77.036592}, {"type": "electric_scooter", "name": "0bee81ae9e3f792bda25ee42475ed66a", "rental_uris": {"ios": "https://dc.lft.to/lastmile_qr_scan", "android": "https://dc.lft.to/lastmile_qr_scan"}, "fusion_lon": 0.0, "lat": 38.86471483333333, "is_disabled": 0, "bike_id": "0bee81ae9e3f792bda25ee42475ed66a", "fusion_lat": 0.0, "is_reserved": 0, "lon": -76.98229533333334}, {"type": "electric_scooter", "name": "31b289ecbd7e4d0d236ca166a54ef530", "rental_uris": {"ios": "https://dc.lft.to/lastmile_qr_scan", "android": "https://dc.lft.to/lastmile_qr_scan"}, "fusion_lon": 0.0, "lat": 38.90955183333333, "is_disabled": 0, "bike_id": "31b289ecbd7e4d0d236ca166a54ef530", "fusion_lat": 0.0, "is_reserved": 0, "lon": -77.02276283333333}, {"type": "electric_scooter", "name": "4e9371907785d099e116efbfad2f28f1", "rental_uris": {"ios": "https://dc.lft.to/lastmile_qr_scan", "android": "https://dc.lft.to/lastmile_qr_scan"}, "fusion_lon": 0.0, "lat": 38.9101565, "is_disabled": 0, "bike_id": "4e9371907785d099e116efbfad2f28f1", "fusion_lat": 0.0, "is_reserved": 0, "lon": -77.02218316666666}, {"type": "electric_scooter", "name": "e537070f04e5ea4623f668a7c3083d71", "rental_uris": {"ios": "https://dc.lft.to/lastmile_qr_scan", "android": "https://dc.lft.to/lastmile_qr_scan"}, "fusion_lon": 0.0, "lat": 38.90136183333333, "is_disabled": 0, "bike_id": "e537070f04e5ea4623f668a7c3083d71", "fusion_lat": 0.0, "is_reserved": 0, "lon": -76.98965566666666}, {"type": "electric_scooter", "name": "0c72b0f14f87a4f5d6c881ce77562d0e", "rental_uris": {"ios": "https://dc.lft.to/lastmile_qr_scan", "android": "https://dc.lft.to/lastmile_qr_scan"}, "fusion_lon": 0.0, "lat": 38.861740833333336, "is_disabled": 0, "bike_id": "0c72b0f14f87a4f5d6c881ce77562d0e", "fusion_lat": 0.0, "is_reserved": 0, "lon": -76.9971425}, {"type": "electric_scooter", "name": "8bbddeb372bc7924e38b9501cc6d2f7d", "rental_uris": {"ios": "https://dc.lft.to/lastmile_qr_scan", "android": "https://dc.lft.to/lastmile_qr_scan"}, "fusion_lon": 0.0, "lat": 38.884423166666664, "is_disabled": 0, "bike_id": "8bbddeb372bc7924e38b9501cc6d2f7d", "fusion_lat": 0.0, "is_reserved": 0, "lon": -76.99628016666666}, {"type": "electric_scooter", "name": "239d971eb472a434068f6fd075519afe", "rental_uris": {"ios": "https://dc.lft.to/lastmile_qr_scan", "android": "https://dc.lft.to/lastmile_qr_scan"}, "fusion_lon": 0.0, "lat": 38.90005333333333, "is_disabled": 0, "bike_id": "239d971eb472a434068f6fd075519afe", "fusion_lat": 0.0, "is_reserved": 0, "lon": -77.02723666666667}, {"type": "electric_scooter", "name": "01abd4ca90c5556679156aceb5be8c83", "rental_uris": {"ios": "https://dc.lft.to/lastmile_qr_scan", "android": "https://dc.lft.to/lastmile_qr_scan"}, "fusion_lon": 0.0, "lat": 38.9204405, "is_disabled": 0, "bike_id": "01abd4ca90c5556679156aceb5be8c83", "fusion_lat": 0.0, "is_reserved": 0, "lon": -77.01789216666667}, {"type": "electric_scooter", "name": "29fcbe715b3b13b4b759150387047487", "rental_uris": {"ios": "https://dc.lft.to/lastmile_qr_scan", "android": "https://dc.lft.to/lastmile_qr_scan"}, "fusion_lon": 0.0, "lat": 38.898391833333335, "is_disabled": 0, "bike_id": "29fcbe715b3b13b4b759150387047487", "fusion_lat": 0.0, "is_reserved": 0, "lon": -77.00737016666666}, {"type": "electric_scooter", "name": "afbc659d62832843ca1b259dde23af0a", "rental_uris": {"ios": "https://dc.lft.to/lastmile_qr_scan", "android": "https://dc.lft.to/lastmile_qr_scan"}, "fusion_lon": 0.0, "lat": 38.89442016666667, "is_disabled": 0, "bike_id": "afbc659d62832843ca1b259dde23af0a", "fusion_lat": 0.0, "is_reserved": 0, "lon": -77.02635283333333}, {"type": "electric_scooter", "name": "2cee5f483f2975482d7bc894cd8206a8", "rental_uris": {"ios": "https://dc.lft.to/lastmile_qr_scan", "android": "https://dc.lft.to/lastmile_qr_scan"}, "fusion_lon": 0.0, "lat": 38.89731366666667, "is_disabled": 0, "bike_id": "2cee5f483f2975482d7bc894cd8206a8", "fusion_lat": 0.0, "is_reserved": 0, "lon": -77.02016583333334}, {"type": "electric_scooter", "name": "e618ddd62cd799ee011d3299b4e79d66", "rental_uris": {"ios": "https://dc.lft.to/lastmile_qr_scan", "android": "https://dc.lft.to/lastmile_qr_scan"}, "fusion_lon": 0.0, "lat": 38.906676833333336, "is_disabled": 0, "bike_id": "e618ddd62cd799ee011d3299b4e79d66", "fusion_lat": 0.0, "is_reserved": 0, "lon": -77.02586183333334}, {"type": "electric_scooter", "name": "c13e5896e38b81d8aafeaef063e3a05b", "rental_uris": {"ios": "https://dc.lft.to/lastmile_qr_scan", "android": "https://dc.lft.to/lastmile_qr_scan"}, "fusion_lon": 0.0, "lat": 38.906910833333335, "is_disabled": 0, "bike_id": "c13e5896e38b81d8aafeaef063e3a05b", "fusion_lat": 0.0, "is_reserved": 0, "lon": -77.06137316666667}, {"type": "electric_scooter", "name": "fc90acfe0432814b7021c6168338e3db", "rental_uris": {"ios": "https://dc.lft.to/lastmile_qr_scan", "android": "https://dc.lft.to/lastmile_qr_scan"}, "fusion_lon": 0.0, "lat": 38.90041883333333, "is_disabled": 0, "bike_id": "fc90acfe0432814b7021c6168338e3db", "fusion_lat": 0.0, "is_reserved": 0, "lon": -77.00101483333333}, {"type": "electric_scooter", "name": "41a50c6110e89041696b9fc87bcd2b81", "rental_uris": {"ios": "https://dc.lft.to/lastmile_qr_scan", "android": "https://dc.lft.to/lastmile_qr_scan"}, "fusion_lon": 0.0, "lat": 38.932222, "is_disabled": 0, "bike_id": "41a50c6110e89041696b9fc87bcd2b81", "fusion_lat": 0.0, "is_reserved": 0, "lon": -77.02684683333334}, {"type": "electric_scooter", "name": "9463a15d4b97082bc23487ca5fff7663", "rental_uris": {"ios": "https://dc.lft.to/lastmile_qr_scan", "android": "https://dc.lft.to/lastmile_qr_scan"}, "fusion_lon": 0.0, "lat": 38.912712, "is_disabled": 0, "bike_id": "9463a15d4b97082bc23487ca5fff7663", "fusion_lat": 0.0, "is_reserved": 0, "lon": -77.02214816666667}, {"type": "electric_bike", "name": "45bd700db5144b9c540c326afbe22d2c", "rental_uris": {"ios": "https://dc.lft.to/lastmile_qr_scan", "android": "https://dc.lft.to/lastmile_qr_scan"}, "fusion_lon": 0.0, "lat": 38.926648, "is_disabled": 0, "bike_id": "45bd700db5144b9c540c326afbe22d2c", "fusion_lat": 0.0, "is_reserved": 0, "lon": -77.09851966666666}, {"type": "electric_scooter", "name": "695e3eea6ba779e41e374b03a213594f", "rental_uris": {"ios": "https://dc.lft.to/lastmile_qr_scan", "android": "https://dc.lft.to/lastmile_qr_scan"}, "fusion_lon": 0.0, "lat": 38.92551983333333, "is_disabled": 0, "bike_id": "695e3eea6ba779e41e374b03a213594f", "fusion_lat": 0.0, "is_reserved": 0, "lon": -77.00073216666667}, {"type": "electric_bike", "name": "9485ea158395e14763d512f3a29bc84f", "rental_uris": {"ios": "https://dc.lft.to/lastmile_qr_scan", "android": "https://dc.lft.to/lastmile_qr_scan"}, "fusion_lon": 0.0, "lat": 38.9574385, "is_disabled": 0, "bike_id": "9485ea158395e14763d512f3a29bc84f", "fusion_lat": 0.0, "is_reserved": 0, "lon": -76.972565}, {"type": "electric_bike", "name": "036fc85cbae77281cf4a48d08ed85081", "rental_uris": {"ios": "https://dc.lft.to/lastmile_qr_scan", "android": "https://dc.lft.to/lastmile_qr_scan"}, "fusion_lon": 0.0, "lat": 38.9574125, "is_disabled": 0, "bike_id": "036fc85cbae77281cf4a48d08ed85081", "fusion_lat": 0.0, "is_reserved": 0, "lon": -76.9725635}, {"type": "electric_scooter", "name": "613c0e3ae6bdd62befb9e808223bf6ca", "rental_uris": {"ios": "https://dc.lft.to/lastmile_qr_scan", "android": "https://dc.lft.to/lastmile_qr_scan"}, "fusion_lon": 0.0, "lat": 38.91440083333333, "is_disabled": 0, "bike_id": "613c0e3ae6bdd62befb9e808223bf6ca", "fusion_lat": 0.0, "is_reserved": 0, "lon": -77.01220083333334}, {"type": "electric_scooter", "name": "cc9f25de385735c694d8d63a45e2a8b9", "rental_uris": {"ios": "https://dc.lft.to/lastmile_qr_scan", "android": "https://dc.lft.to/lastmile_qr_scan"}, "fusion_lon": 0.0, "lat": 38.93831983333333, "is_disabled": 0, "bike_id": "cc9f25de385735c694d8d63a45e2a8b9", "fusion_lat": 0.0, "is_reserved": 0, "lon": -77.08548033333334}, {"type": "electric_scooter", "name": "0100371a242efa2aff73524397e77601", "rental_uris": {"ios": "https://dc.lft.to/lastmile_qr_scan", "android": "https://dc.lft.to/lastmile_qr_scan"}, "fusion_lon": 0.0, "lat": 38.916943833333335, "is_disabled": 0, "bike_id": "0100371a242efa2aff73524397e77601", "fusion_lat": 0.0, "is_reserved": 0, "lon": -77.00742783333334}, {"type": "electric_scooter", "name": "4fc613ba00d2be9051a5b14d5739a803", "rental_uris": {"ios": "https://dc.lft.to/lastmile_qr_scan", "android": "https://dc.lft.to/lastmile_qr_scan"}, "fusion_lon": 0.0, "lat": 38.91195733333333, "is_disabled": 0, "bike_id": "4fc613ba00d2be9051a5b14d5739a803", "fusion_lat": 0.0, "is_reserved": 0, "lon": -77.03254883333334}, {"type": "electric_scooter", "name": "7100601fbb11549ce9b8608b50b652a7", "rental_uris": {"ios": "https://dc.lft.to/lastmile_qr_scan", "android": "https://dc.lft.to/lastmile_qr_scan"}, "fusion_lon": 0.0, "lat": 38.924840333333336, "is_disabled": 0, "bike_id": "7100601fbb11549ce9b8608b50b652a7", "fusion_lat": 0.0, "is_reserved": 0, "lon": -77.027609}, {"type": "electric_bike", "name": "bb83796f8bc6bd4e35df2aa3bff35912", "rental_uris": {"ios": "https://dc.lft.to/lastmile_qr_scan", "android": "https://dc.lft.to/lastmile_qr_scan"}, "fusion_lon": 0.0, "lat": 38.95763383333333, "is_disabled": 0, "bike_id": "bb83796f8bc6bd4e35df2aa3bff35912", "fusion_lat": 0.0, "is_reserved": 0, "lon": -76.980936}, {"type": "electric_scooter", "name": "feecd4659a835dd5f46c0262fd68bc6b", "rental_uris": {"ios": "https://dc.lft.to/lastmile_qr_scan", "android": "https://dc.lft.to/lastmile_qr_scan"}, "fusion_lon": 0.0, "lat": 38.8922155, "is_disabled": 0, "bike_id": "feecd4659a835dd5f46c0262fd68bc6b", "fusion_lat": 0.0, "is_reserved": 0, "lon": -77.04865033333333}, {"type": "electric_scooter", "name": "eba57be65a74526308346e3a994574ce", "rental_uris": {"ios": "https://dc.lft.to/lastmile_qr_scan", "android": "https://dc.lft.to/lastmile_qr_scan"}, "fusion_lon": 0.0, "lat": 38.898352833333334, "is_disabled": 0, "bike_id": "eba57be65a74526308346e3a994574ce", "fusion_lat": 0.0, "is_reserved": 0, "lon": -77.0327455}, {"type": "electric_scooter", "name": "52dc7f6d8cf5590c50764d12e9b1b8b0", "rental_uris": {"ios": "https://dc.lft.to/lastmile_qr_scan", "android": "https://dc.lft.to/lastmile_qr_scan"}, "fusion_lon": 0.0, "lat": 38.93229783333334, "is_disabled": 0, "bike_id": "52dc7f6d8cf5590c50764d12e9b1b8b0", "fusion_lat": 0.0, "is_reserved": 0, "lon": -76.99537033333333}, {"type": "electric_scooter", "name": "1d6144d4027d899cd0f4a425890f1b03", "rental_uris": {"ios": "https://dc.lft.to/lastmile_qr_scan", "android": "https://dc.lft.to/lastmile_qr_scan"}, "fusion_lon": 0.0, "lat": 38.91932533333333, "is_disabled": 0, "bike_id": "1d6144d4027d899cd0f4a425890f1b03", "fusion_lat": 0.0, "is_reserved": 0, "lon": -77.04496716666667}, {"type": "electric_bike", "name": "44072e9e368a77a6e1b0476c573ee9b7", "rental_uris": {"ios": "https://dc.lft.to/lastmile_qr_scan", "android": "https://dc.lft.to/lastmile_qr_scan"}, "fusion_lon": 0.0, "lat": 38.95961233333333, "is_disabled": 0, "bike_id": "44072e9e368a77a6e1b0476c573ee9b7", "fusion_lat": 0.0, "is_reserved": 0, "lon": -76.98164766666666}, {"type": "electric_scooter", "name": "a218008e113edfdcfae4dc7531c7e266", "rental_uris": {"ios": "https://dc.lft.to/lastmile_qr_scan", "android": "https://dc.lft.to/lastmile_qr_scan"}, "fusion_lon": 0.0, "lat": 38.920299, "is_disabled": 0, "bike_id": "a218008e113edfdcfae4dc7531c7e266", "fusion_lat": 0.0, "is_reserved": 0, "lon": -77.02193216666667}, {"type": "electric_scooter", "name": "77ad15b026230a8fa9c9c7f7d4212c42", "rental_uris": {"ios": "https://dc.lft.to/lastmile_qr_scan", "android": "https://dc.lft.to/lastmile_qr_scan"}, "fusion_lon": 0.0, "lat": 38.887397166666666, "is_disabled": 0, "bike_id": "77ad15b026230a8fa9c9c7f7d4212c42", "fusion_lat": 0.0, "is_reserved": 0, "lon": -77.01726416666666}, {"type": "electric_bike", "name": "3e2cc9bfd720108d3919aeeb52318a62", "rental_uris": {"ios": "https://dc.lft.to/lastmile_qr_scan", "android": "https://dc.lft.to/lastmile_qr_scan"}, "fusion_lon": 0.0, "lat": 38.961225166666665, "is_disabled": 0, "bike_id": "3e2cc9bfd720108d3919aeeb52318a62", "fusion_lat": 0.0, "is_reserved": 0, "lon": -77.03277333333334}, {"type": "electric_scooter", "name": "38c50b0274bfade9b1f4687e54784836", "rental_uris": {"ios": "https://dc.lft.to/lastmile_qr_scan", "android": "https://dc.lft.to/lastmile_qr_scan"}, "fusion_lon": 0.0, "lat": 38.92121316666667, "is_disabled": 0, "bike_id": "38c50b0274bfade9b1f4687e54784836", "fusion_lat": 0.0, "is_reserved": 0, "lon": -77.0439045}, {"type": "electric_scooter", "name": "0197564921ead31c62f189e7bf13ad33", "rental_uris": {"ios": "https://dc.lft.to/lastmile_qr_scan", "android": "https://dc.lft.to/lastmile_qr_scan"}, "fusion_lon": 0.0, "lat": 38.884704, "is_disabled": 0, "bike_id": "0197564921ead31c62f189e7bf13ad33", "fusion_lat": 0.0, "is_reserved": 0, "lon": -76.9498785}, {"type": "electric_scooter", "name": "a9acc388541a0128ea4d7df4a411af2e", "rental_uris": {"ios": "https://dc.lft.to/lastmile_qr_scan", "android": "https://dc.lft.to/lastmile_qr_scan"}, "fusion_lon": 0.0, "lat": 38.896599, "is_disabled": 0, "bike_id": "a9acc388541a0128ea4d7df4a411af2e", "fusion_lat": 0.0, "is_reserved": 0, "lon": -77.04666616666667}, {"type": "electric_scooter", "name": "cd7c951e1af669d725f32ca6dc6a4028", "rental_uris": {"ios": "https://dc.lft.to/lastmile_qr_scan", "android": "https://dc.lft.to/lastmile_qr_scan"}, "fusion_lon": 0.0, "lat": 38.883252666666664, "is_disabled": 0, "bike_id": "cd7c951e1af669d725f32ca6dc6a4028", "fusion_lat": 0.0, "is_reserved": 0, "lon": -77.01764716666666}, {"type": "electric_scooter", "name": "494249d1304b5b21d96ef83af0464be3", "rental_uris": {"ios": "https://dc.lft.to/lastmile_qr_scan", "android": "https://dc.lft.to/lastmile_qr_scan"}, "fusion_lon": 0.0, "lat": 38.93672483333334, "is_disabled": 0, "bike_id": "494249d1304b5b21d96ef83af0464be3", "fusion_lat": 0.0, "is_reserved": 0, "lon": -77.03591133333333}, {"type": "electric_scooter", "name": "186bb9af2ea51332088554225fb6c1be", "rental_uris": {"ios": "https://dc.lft.to/lastmile_qr_scan", "android": "https://dc.lft.to/lastmile_qr_scan"}, "fusion_lon": 0.0, "lat": 38.923362, "is_disabled": 0, "bike_id": "186bb9af2ea51332088554225fb6c1be", "fusion_lat": 0.0, "is_reserved": 0, "lon": -77.0004355}, {"type": "electric_scooter", "name": "d296e50f9fe16fda8c82e03e6dbd3e81", "rental_uris": {"ios": "https://dc.lft.to/lastmile_qr_scan", "android": "https://dc.lft.to/lastmile_qr_scan"}, "fusion_lon": 0.0, "lat": 38.9024705, "is_disabled": 0, "bike_id": "d296e50f9fe16fda8c82e03e6dbd3e81", "fusion_lat": 0.0, "is_reserved": 0, "lon": -77.04599733333333}, {"type": "electric_scooter", "name": "f0165f94dc7ba876a02a4ad3533cc26a", "rental_uris": {"ios": "https://dc.lft.to/lastmile_qr_scan", "android": "https://dc.lft.to/lastmile_qr_scan"}, "fusion_lon": 0.0, "lat": 38.920395166666665, "is_disabled": 0, "bike_id": "f0165f94dc7ba876a02a4ad3533cc26a", "fusion_lat": 0.0, "is_reserved": 0, "lon": -77.01676466666666}, {"type": "electric_scooter", "name": "cf89a77b45cb618c2f2f9ea6c1af6c90", "rental_uris": {"ios": "https://dc.lft.to/lastmile_qr_scan", "android": "https://dc.lft.to/lastmile_qr_scan"}, "fusion_lon": 0.0, "lat": 38.91643283333333, "is_disabled": 0, "bike_id": "cf89a77b45cb618c2f2f9ea6c1af6c90", "fusion_lat": 0.0, "is_reserved": 0, "lon": -77.04786316666667}, {"type": "electric_bike", "name": "bb2b8b38ac770223405a309c1f681e9b", "rental_uris": {"ios": "https://dc.lft.to/lastmile_qr_scan", "android": "https://dc.lft.to/lastmile_qr_scan"}, "fusion_lon": 0.0, "lat": 38.83159366666667, "is_disabled": 0, "bike_id": "bb2b8b38ac770223405a309c1f681e9b", "fusion_lat": 0.0, "is_reserved": 0, "lon": -76.99545716666667}, {"type": "electric_bike", "name": "2140b0edc1f4447de7e05b75cef3bba1", "rental_uris": {"ios": "https://dc.lft.to/lastmile_qr_scan", "android": "https://dc.lft.to/lastmile_qr_scan"}, "fusion_lon": 0.0, "lat": 38.900324166666664, "is_disabled": 0, "bike_id": "2140b0edc1f4447de7e05b75cef3bba1", "fusion_lat": 0.0, "is_reserved": 0, "lon": -76.97224}, {"type": "electric_scooter", "name": "b6618d7cc6ec930d83d9ad8fbdeba56f", "rental_uris": {"ios": "https://dc.lft.to/lastmile_qr_scan", "android": "https://dc.lft.to/lastmile_qr_scan"}, "fusion_lon": 0.0, "lat": 38.87721116666667, "is_disabled": 0, "bike_id": "b6618d7cc6ec930d83d9ad8fbdeba56f", "fusion_lat": 0.0, "is_reserved": 0, "lon": -77.00406933333333}, {"type": "electric_scooter", "name": "b1c8efb2f2002bcf0ac9b4f9b5c5c193", "rental_uris": {"ios": "https://dc.lft.to/lastmile_qr_scan", "android": "https://dc.lft.to/lastmile_qr_scan"}, "fusion_lon": 0.0, "lat": 38.91718933333333, "is_disabled": 0, "bike_id": "b1c8efb2f2002bcf0ac9b4f9b5c5c193", "fusion_lat": 0.0, "is_reserved": 0, "lon": -77.029759}, {"type": "electric_scooter", "name": "650a34ee918038c95787cf7dde1b761f", "rental_uris": {"ios": "https://dc.lft.to/lastmile_qr_scan", "android": "https://dc.lft.to/lastmile_qr_scan"}, "fusion_lon": 0.0, "lat": 38.9153545, "is_disabled": 0, "bike_id": "650a34ee918038c95787cf7dde1b761f", "fusion_lat": 0.0, "is_reserved": 0, "lon": -77.01224233333333}, {"type": "electric_scooter", "name": "8c087649518be4136fb14f80bb81699b", "rental_uris": {"ios": "https://dc.lft.to/lastmile_qr_scan", "android": "https://dc.lft.to/lastmile_qr_scan"}, "fusion_lon": 0.0, "lat": 38.91396116666667, "is_disabled": 0, "bike_id": "8c087649518be4136fb14f80bb81699b", "fusion_lat": 0.0, "is_reserved": 0, "lon": -77.04174316666666}, {"type": "electric_scooter", "name": "8350655b27a4dafd95a8a522e547c789", "rental_uris": {"ios": "https://dc.lft.to/lastmile_qr_scan", "android": "https://dc.lft.to/lastmile_qr_scan"}, "fusion_lon": 0.0, "lat": 38.934090833333336, "is_disabled": 0, "bike_id": "8350655b27a4dafd95a8a522e547c789", "fusion_lat": 0.0, "is_reserved": 0, "lon": -77.020363}, {"type": "electric_scooter", "name": "0bf471ed4bce57d3bcb27793fd78467f", "rental_uris": {"ios": "https://dc.lft.to/lastmile_qr_scan", "android": "https://dc.lft.to/lastmile_qr_scan"}, "fusion_lon": 0.0, "lat": 38.88007983333333, "is_disabled": 0, "bike_id": "0bf471ed4bce57d3bcb27793fd78467f", "fusion_lat": 0.0, "is_reserved": 0, "lon": -77.025284}, {"type": "electric_scooter", "name": "df812db1e9a1dbb9716bd1f7310d7b7e", "rental_uris": {"ios": "https://dc.lft.to/lastmile_qr_scan", "android": "https://dc.lft.to/lastmile_qr_scan"}, "fusion_lon": 0.0, "lat": 38.9225745, "is_disabled": 0, "bike_id": "df812db1e9a1dbb9716bd1f7310d7b7e", "fusion_lat": 0.0, "is_reserved": 0, "lon": -77.00914983333334}, {"type": "electric_scooter", "name": "c6e82b61c2ff6e7943f8cfa189e96d3e", "rental_uris": {"ios": "https://dc.lft.to/lastmile_qr_scan", "android": "https://dc.lft.to/lastmile_qr_scan"}, "fusion_lon": 0.0, "lat": 38.921865833333335, "is_disabled": 0, "bike_id": "c6e82b61c2ff6e7943f8cfa189e96d3e", "fusion_lat": 0.0, "is_reserved": 0, "lon": -76.99700516666667}, {"type": "electric_scooter", "name": "c45059321227b249af1192bdc1335e95", "rental_uris": {"ios": "https://dc.lft.to/lastmile_qr_scan", "android": "https://dc.lft.to/lastmile_qr_scan"}, "fusion_lon": 0.0, "lat": 38.9050105, "is_disabled": 0, "bike_id": "c45059321227b249af1192bdc1335e95", "fusion_lat": 0.0, "is_reserved": 0, "lon": -77.01989383333333}, {"type": "electric_scooter", "name": "24ea28961f10f1dc73e09e3425028a62", "rental_uris": {"ios": "https://dc.lft.to/lastmile_qr_scan", "android": "https://dc.lft.to/lastmile_qr_scan"}, "fusion_lon": 0.0, "lat": 38.896768, "is_disabled": 0, "bike_id": "24ea28961f10f1dc73e09e3425028a62", "fusion_lat": 0.0, "is_reserved": 0, "lon": -77.00515933333334}, {"type": "electric_scooter", "name": "f8509667db9bf156c1311d882b2e4697", "rental_uris": {"ios": "https://dc.lft.to/lastmile_qr_scan", "android": "https://dc.lft.to/lastmile_qr_scan"}, "fusion_lon": 0.0, "lat": 38.90958233333333, "is_disabled": 0, "bike_id": "f8509667db9bf156c1311d882b2e4697", "fusion_lat": 0.0, "is_reserved": 0, "lon": -77.03502716666667}, {"type": "electric_scooter", "name": "59652872b96812701b4811e5fbce68c0", "rental_uris": {"ios": "https://dc.lft.to/lastmile_qr_scan", "android": "https://dc.lft.to/lastmile_qr_scan"}, "fusion_lon": 0.0, "lat": 38.92244316666667, "is_disabled": 0, "bike_id": "59652872b96812701b4811e5fbce68c0", "fusion_lat": 0.0, "is_reserved": 0, "lon": -77.080818}, {"type": "electric_scooter", "name": "329b3aede9ef4979914090b1a70581f6", "rental_uris": {"ios": "https://dc.lft.to/lastmile_qr_scan", "android": "https://dc.lft.to/lastmile_qr_scan"}, "fusion_lon": 0.0, "lat": 38.89730516666667, "is_disabled": 0, "bike_id": "329b3aede9ef4979914090b1a70581f6", "fusion_lat": 0.0, "is_reserved": 0, "lon": -77.047421}, {"type": "electric_scooter", "name": "9974d79e7fc31da3754613d721678085", "rental_uris": {"ios": "https://dc.lft.to/lastmile_qr_scan", "android": "https://dc.lft.to/lastmile_qr_scan"}, "fusion_lon": 0.0, "lat": 38.93472283333333, "is_disabled": 0, "bike_id": "9974d79e7fc31da3754613d721678085", "fusion_lat": 0.0, "is_reserved": 0, "lon": -77.029725}, {"type": "electric_scooter", "name": "7578ccc76b5cedb98903243c6d336343", "rental_uris": {"ios": "https://dc.lft.to/lastmile_qr_scan", "android": "https://dc.lft.to/lastmile_qr_scan"}, "fusion_lon": 0.0, "lat": 38.90993366666667, "is_disabled": 0, "bike_id": "7578ccc76b5cedb98903243c6d336343", "fusion_lat": 0.0, "is_reserved": 0, "lon": -77.02695133333333}, {"type": "electric_scooter", "name": "b7585b5fdb56a4f86eced81e3b2eea61", "rental_uris": {"ios": "https://dc.lft.to/lastmile_qr_scan", "android": "https://dc.lft.to/lastmile_qr_scan"}, "fusion_lon": 0.0, "lat": 38.88387766666666, "is_disabled": 0, "bike_id": "b7585b5fdb56a4f86eced81e3b2eea61", "fusion_lat": 0.0, "is_reserved": 0, "lon": -76.93045883333333}, {"type": "electric_scooter", "name": "ac504e02de8d91f558be15c2176f0062", "rental_uris": {"ios": "https://dc.lft.to/lastmile_qr_scan", "android": "https://dc.lft.to/lastmile_qr_scan"}, "fusion_lon": 0.0, "lat": 38.949631, "is_disabled": 0, "bike_id": "ac504e02de8d91f558be15c2176f0062", "fusion_lat": 0.0, "is_reserved": 0, "lon": -77.075266}, {"type": "electric_scooter", "name": "6b1d616ebb0bf4b903a1d9223e00bc58", "rental_uris": {"ios": "https://dc.lft.to/lastmile_qr_scan", "android": "https://dc.lft.to/lastmile_qr_scan"}, "fusion_lon": 0.0, "lat": 38.9363815, "is_disabled": 0, "bike_id": "6b1d616ebb0bf4b903a1d9223e00bc58", "fusion_lat": 0.0, "is_reserved": 0, "lon": -77.02468733333333}, {"type": "electric_scooter", "name": "3ba4b25c8725be5ecbf4f28df1ac21ca", "rental_uris": {"ios": "https://dc.lft.to/lastmile_qr_scan", "android": "https://dc.lft.to/lastmile_qr_scan"}, "fusion_lon": 0.0, "lat": 38.89736333333333, "is_disabled": 0, "bike_id": "3ba4b25c8725be5ecbf4f28df1ac21ca", "fusion_lat": 0.0, "is_reserved": 0, "lon": -77.0442105}, {"type": "electric_scooter", "name": "342da0629f00dec4d952457dff32f069", "rental_uris": {"ios": "https://dc.lft.to/lastmile_qr_scan", "android": "https://dc.lft.to/lastmile_qr_scan"}, "fusion_lon": 0.0, "lat": 38.9097625, "is_disabled": 0, "bike_id": "342da0629f00dec4d952457dff32f069", "fusion_lat": 0.0, "is_reserved": 0, "lon": -77.040702}, {"type": "electric_scooter", "name": "f58e2f8210d845a3cd5ffb375726ad74", "rental_uris": {"ios": "https://dc.lft.to/lastmile_qr_scan", "android": "https://dc.lft.to/lastmile_qr_scan"}, "fusion_lon": 0.0, "lat": 38.941827333333336, "is_disabled": 0, "bike_id": "f58e2f8210d845a3cd5ffb375726ad74", "fusion_lat": 0.0, "is_reserved": 0, "lon": -77.02406066666667}, {"type": "electric_scooter", "name": "88b11a671758cf8e7083cb66f30a50c2", "rental_uris": {"ios": "https://dc.lft.to/lastmile_qr_scan", "android": "https://dc.lft.to/lastmile_qr_scan"}, "fusion_lon": 0.0, "lat": 38.9017415, "is_disabled": 0, "bike_id": "88b11a671758cf8e7083cb66f30a50c2", "fusion_lat": 0.0, "is_reserved": 0, "lon": -77.01616433333334},