{"data": {"bikes": [{"lat": 38.972757, "is_disabled": 0, "type": "electric_bike", "lon": -77.03624333333333, "bike_id": "6859a9ad6a9f44038e68371be9afcaf8", "fusion_lat": 0.0, "name": "6859a9ad6a9f44038e68371be9afcaf8", "is_reserved": 0, "rental_uris": {"android": "https://dc.lft.to/lastmile_qr_scan", "ios": "https://dc.lft.to/lastmile_qr_scan"}, "fusion_lon": 0.0}, {"lat": 38.90770333333333, "is_disabled": 0, "type": "electric_scooter", "lon": -76.9830275, "bike_id": "a2b90247493185f892810154a9c884e3", "fusion_lat": 0.0, "name": "a2b90247493185f892810154a9c884e3", "is_reserved": 0, "rental_uris": {"android": "https://dc.lft.to/lastmile_qr_scan", "ios": "https://dc.lft.to/lastmile_qr_scan"}, "fusion_lon": 0.0}, {"lat": 38.91816133333333, "is_disabled": 0, "type": "electric_scooter", "lon": -77.03910866666666, "bike_id": "f1771596cc58498bfaedb166a4868aaf", "fusion_lat": 0.0, "name": "f1771596cc58498bfaedb166a4868aaf", "is_reserved": 0, "rental_uris": {"android": "https://dc.lft.to/lastmile_qr_scan", "ios": "https://dc.lft.to/lastmile_qr_scan"}, "fusion_lon": 0.0}, {"lat": 38.914224833333336, "is_disabled": 0, "type": "electric_scooter", "lon": -77.02202483333333, "bike_id": "bc45ca2254506881a5f663bba5732f9b", "fusion_lat": 0.0, "name": "bc45ca2254506881a5f663bba5732f9b", "is_reserved": 0, "rental_uris": {"android": "https://dc.lft.to/lastmile_qr_scan", "ios": "https://dc.lft.to/lastmile_qr_scan"}, "fusion_lon": 0.0}, {"lat": 38.89465333333333, "is_disabled": 0, "type": "electric_scooter", "lon": -77.02118933333334, "bike_id": "68184692bce46c7222806cf2a06f8d4a", "fusion_lat": 0.0, "name": "68184692bce46c7222806cf2a06f8d4a", "is_reserved": 0, "rental_uris": {"android": "https://dc.lft.to/lastmile_qr_scan", "ios": "https://dc.lft.to/lastmile_qr_scan"}, "fusion_lon": 0.0}, {"lat": 38.908569166666666, "is_disabled": 0, "type": "electric_scooter", "lon": -77.02289683333333, "bike_id": "1bf4b80605eae1a54e4e3e59cd77b5ec", "fusion_lat": 0.0, "name": "1bf4b80605eae1a54e4e3e59cd77b5ec", "is_reserved": 0, "rental_uris": {"android": "https://dc.lft.to/lastmile_qr_scan", "ios": "https://dc.lft.to/lastmile_qr_scan"}, "fusion_lon": 0.0}, {"lat": 38.90361733333334, "is_disabled": 0, "type": "electric_scooter", "lon": -77.04014916666667, "bike_id": "da447f86d8b6aaec592332b265b7925d", "fusion_lat": 0.0, "name": "da447f86d8b6aaec592332b265b7925d", "is_reserved": 0, "rental_uris": {"android": "https://dc.lft.to/lastmile_qr_scan", "ios": "https://dc.lft.to/lastmile_qr_scan"}, "fusion_lon": 0.0}, {"lat": 38.91693683333333, "is_disabled": 0, "type": "electric_scooter", "lon": -77.0377325, "bike_id": "05021d7311996225982d7c0420f6cb37", "fusion_lat": 0.0, "name": "05021d7311996225982d7c0420f6cb37", "is_reserved": 0, "rental_uris": {"android": "https://dc.lft.to/lastmile_qr_scan", "ios": "https://dc.lft.to/lastmile_qr_scan"}, "fusion_lon": 0.0}, {"lat": 38.8934705, "is_disabled": 0, "type": "electric_scooter", "lon": -76.949298, "bike_id": "152486698df06bcf58eb8dcac9be9a47", "fusion_lat": 0.0, "name": "152486698df06bcf58eb8dcac9be9a47", "is_reserved": 0, "rental_uris": {"android": "https://dc.lft.to/lastmile_qr_scan", "ios": "https://dc.lft.to/lastmile_qr_scan"}, "fusion_lon": 0.0}, {"lat": 38.915505833333334, "is_disabled": 0, "type": "electric_scooter", "lon": -77.01232566666667, "bike_id": "09dfdedbd239932ff1c14f9d406517e5", "fusion_lat": 0.0, "name": "09dfdedbd239932ff1c14f9d406517e5", "is_reserved": 0, "rental_uris": {"android": "https://dc.lft.to/lastmile_qr_scan", "ios": "https://dc.lft.to/lastmile_qr_scan"}, "fusion_lon": 0.0}, {"lat": 38.90827316666667, "is_disabled": 0, "type": "electric_scooter", "lon": -77.0432115, "bike_id": "49e09bb2afd7ec2f01ba49158168fb3f", "fusion_lat": 0.0, "name": "49e09bb2afd7ec2f01ba49158168fb3f", "is_reserved": 0, "rental_uris": {"android": "https://dc.lft.to/lastmile_qr_scan", "ios": "https://dc.lft.to/lastmile_qr_scan"}, "fusion_lon": 0.0}, {"lat": 38.904259833333334, "is_disabled": 0, "type": "electric_scooter", "lon": -77.02607283333333, "bike_id": "594831fc0b8792e392da4220ab4328b6", "fusion_lat": 0.0, "name": "594831fc0b8792e392da4220ab4328b6", "is_reserved": 0, "rental_uris": {"android": "https://dc.lft.to/lastmile_qr_scan", "ios": "https://dc.lft.to/lastmile_qr_scan"}, "fusion_lon": 0.0}, {"lat": 38.922149166666664, "is_disabled": 0, "type": "electric_scooter", "lon": -77.03285566666666, "bike_id": "623e9b3d9e1a9ebce99253516fb7c370", "fusion_lat": 0.0, "name": "623e9b3d9e1a9ebce99253516fb7c370", "is_reserved": 0, "rental_uris": {"android": "https://dc.lft.to/lastmile_qr_scan", "ios": "https://dc.lft.to/lastmile_qr_scan"}, "fusion_lon": 0.0}, {"lat": 38.901353, "is_disabled": 0, "type": "electric_scooter", "lon": -77.00067183333333, "bike_id": "a1a29904385b7bce2774c31c59a7aab9", "fusion_lat": 0.0, "name": "a1a29904385b7bce2774c31c59a7aab9", "is_reserved": 0, "rental_uris": {"android": "https://dc.lft.to/lastmile_qr_scan", "ios": "https://dc.lft.to/lastmile_qr_scan"}, "fusion_lon": 0.0}, {"lat": 38.960917, "is_disabled": 0, "type": "electric_scooter", "lon": -77.08281633333333, "bike_id": "50e3172cc89dc7e221e02becb29bf54a", "fusion_lat": 0.0, "name": "50e3172cc89dc7e221e02becb29bf54a", "is_reserved": 0, "rental_uris": {"android": "https://dc.lft.to/lastmile_qr_scan", "ios": "https://dc.lft.to/lastmile_qr_scan"}, "fusion_lon": 0.0}, {"lat": 38.9268075, "is_disabled": 0, "type": "electric_scooter", "lon": -77.01483966666666, "bike_id": "e377ef951dc7527ee88718468ab2c27e", "fusion_lat": 0.0, "name": "e377ef951dc7527ee88718468ab2c27e", "is_reserved": 0, "rental_uris": {"android": "https://dc.lft.to/lastmile_qr_scan", "ios": "https://dc.lft.to/lastmile_qr_scan"}, "fusion_lon": 0.0}, {"lat": 38.91567533333333, "is_disabled": 0, "type": "electric_scooter", "lon": -77.05018216666667, "bike_id": "8973077921e0dc79da52c3854a3db72e", "fusion_lat": 0.0, "name": "8973077921e0dc79da52c3854a3db72e", "is_reserved": 0, "rental_uris": {"android": "https://dc.lft.to/lastmile_qr_scan", "ios": "https://dc.lft.to/lastmile_qr_scan"}, "fusion_lon": 0.0}, {"lat": 38.94324816666666, "is_disabled": 0, "type": "electric_scooter", "lon": -77.06133216666667, "bike_id": "c643f59d901110d62de707c4be20aaa4", "fusion_lat": 0.0, "name": "c643f59d901110d62de707c4be20aaa4", "is_reserved": 0, "rental_uris": {"android": "https://dc.lft.to/lastmile_qr_scan", "ios": "https://dc.lft.to/lastmile_qr_scan"}, "fusion_lon": 0.0}, {"lat": 38.98230366666667, "is_disabled": 0, "type": "electric_scooter", "lon": -77.02645766666667, "bike_id": "d008824df7710693cfb3d8ec96217252", "fusion_lat": 0.0, "name": "d008824df7710693cfb3d8ec96217252", "is_reserved": 0, "rental_uris": {"android": "https://dc.lft.to/lastmile_qr_scan", "ios": "https://dc.lft.to/lastmile_qr_scan"}, "fusion_lon": 0.0}, {"lat": 38.9216055, "is_disabled": 0, "type": "electric_scooter", "lon": -77.0402425, "bike_id": "76da4af2930cd91e03a1acce62b51037", "fusion_lat": 0.0, "name": "76da4af2930cd91e03a1acce62b51037", "is_reserved": 0, "rental_uris": {"android": "https://dc.lft.to/lastmile_qr_scan", "ios": "https://dc.lft.to/lastmile_qr_scan"}, "fusion_lon": 0.0}, {"lat": 38.90480483333333, "is_disabled": 0, "type": "electric_scooter", "lon": -76.973197, "bike_id": "21978cc6ba423883ee36ea1a032bee4c", "fusion_lat": 0.0, "name": "21978cc6ba423883ee36ea1a032bee4c", "is_reserved": 0, "rental_uris": {"android": "https://dc.lft.to/lastmile_qr_scan", "ios": "https://dc.lft.to/lastmile_qr_scan"}, "fusion_lon": 0.0}, {"lat": 38.902857, "is_disabled": 0, "type": "electric_scooter", "lon": -77.03645366666667, "bike_id": "4579797017d9b4e9f11115c3c12a7080", "fusion_lat": 0.0, "name": "4579797017d9b4e9f11115c3c12a7080", "is_reserved": 0, "rental_uris": {"android": "https://dc.lft.to/lastmile_qr_scan", "ios": "https://dc.lft.to/lastmile_qr_scan"}, "fusion_lon": 0.0}, {"lat": 38.91485016666667, "is_disabled": 0, "type": "electric_scooter", "lon": -77.02176, "bike_id": "a55810469a239d0e5becb5bce3203b26", "fusion_lat": 0.0, "name": "a55810469a239d0e5becb5bce3203b26", "is_reserved": 0, "rental_uris": {"android": "https://dc.lft.to/lastmile_qr_scan", "ios": "https://dc.lft.to/lastmile_qr_scan"}, "fusion_lon": 0.0}, {"lat": 38.892255, "is_disabled": 0, "type": "electric_scooter", "lon": -77.04860316666667, "bike_id": "978d12f2b67bb8cd7cafab7a9b6f779b", "fusion_lat": 0.0, "name": "978d12f2b67bb8cd7cafab7a9b6f779b", "is_reserved": 0, "rental_uris": {"android": "https://dc.lft.to/lastmile_qr_scan", "ios": "https://dc.lft.to/lastmile_qr_scan"}, "fusion_lon": 0.0}, {"lat": 38.88619766666667, "is_disabled": 0, "type": "electric_scooter", "lon": -76.9550795, "bike_id": "d84bfb4b75831d8ee583e1bb62dd4eab", "fusion_lat": 0.0, "name": "d84bfb4b75831d8ee583e1bb62dd4eab", "is_reserved": 0, "rental_uris": {"android": "https://dc.lft.to/lastmile_qr_scan", "ios": "https://dc.lft.to/lastmile_qr_scan"}, "fusion_lon": 0.0}, {"lat": 38.92483383333333, "is_disabled": 0, "type": "electric_scooter", "lon": -77.0348045, "bike_id": "9cb593c8f59f26366dc1efdca9b7c585", "fusion_lat": 0.0, "name": "9cb593c8f59f26366dc1efdca9b7c585", "is_reserved": 0, "rental_uris": {"android": "https://dc.lft.to/lastmile_qr_scan", "ios": "https://dc.lft.to/lastmile_qr_scan"}, "fusion_lon": 0.0}, {"lat": 38.894869166666666, "is_disabled": 0, "type": "electric_scooter", "lon": -77.00224283333333, "bike_id": "cdd18bccc295b64de373fcdbc0317e49", "fusion_lat": 0.0, "name": "cdd18bccc295b64de373fcdbc0317e49", "is_reserved": 0, "rental_uris": {"android": "https://dc.lft.to/lastmile_qr_scan", "ios": "https://dc.lft.to/lastmile_qr_scan"}, "fusion_lon": 0.0}, {"lat": 38.92117416666667, "is_disabled": 0, "type": "electric_scooter", "lon": -77.04180416666667, "bike_id": "83ab919fa0a7cee4b85d3acc3aae60fe", "fusion_lat": 0.0, "name": "83ab919fa0a7cee4b85d3acc3aae60fe", "is_reserved": 0, "rental_uris": {"android": "https://dc.lft.to/lastmile_qr_scan", "ios": "https://dc.lft.to/lastmile_qr_scan"}, "fusion_lon": 0.0}, {"lat": 38.9507475, "is_disabled": 0, "type": "electric_scooter", "lon": -77.02714366666666, "bike_id": "a8fb9c0f1951723027ad8caf6cd5f11a", "fusion_lat": 0.0, "name": "a8fb9c0f1951723027ad8caf6cd5f11a", "is_reserved": 0, "rental_uris": {"android": "https://dc.lft.to/lastmile_qr_scan", "ios": "https://dc.lft.to/lastmile_qr_scan"}, "fusion_lon": 0.0}, {"lat": 38.926629, "is_disabled": 0, "type": "electric_scooter", "lon": -77.0146795, "bike_id": "aa3671db26a94129128a76ceadda35da", "fusion_lat": 0.0, "name": "aa3671db26a94129128a76ceadda35da", "is_reserved": 0, "rental_uris": {"android": "https://dc.lft.to/lastmile_qr_scan", "ios": "https://dc.lft.to/lastmile_qr_scan"}, "fusion_lon": 0.0}, {"lat": 38.92580316666667, "is_disabled": 0, "type": "electric_scooter", "lon": -77.05759716666667, "bike_id": "198c6b6735da88492c5deb74ecc4df7b", "fusion_lat": 0.0, "name": "198c6b6735da88492c5deb74ecc4df7b", "is_reserved": 0, "rental_uris": {"android": "https://dc.lft.to/lastmile_qr_scan", "ios": "https://dc.lft.to/lastmile_qr_scan"}, "fusion_lon": 0.0}, {"lat": 38.91830916666667, "is_disabled": 0, "type": "electric_scooter", "lon": -77.035109, "bike_id": "88f7eba5c8132f575bbd982b05670910", "fusion_lat": 0.0, "name": "88f7eba5c8132f575bbd982b05670910", "is_reserved": 0, "rental_uris": {"android": "https://dc.lft.to/lastmile_qr_scan", "ios": "https://dc.lft.to/lastmile_qr_scan"}, "fusion_lon": 0.0}, {"lat": 38.8865015, "is_disabled": 0, "type": "electric_scooter", "lon": -77.02147233333334, "bike_id": "e3e7acd381e1c0bf8e6987471036383d", "fusion_lat": 0.0, "name": "e3e7acd381e1c0bf8e6987471036383d", "is_reserved": 0, "rental_uris": {"android": "https://dc.lft.to/lastmile_qr_scan", "ios": "https://dc.lft.to/lastmile_qr_scan"}, "fusion_lon": 0.0}, {"lat": 38.89518183333333, "is_disabled": 0, "type": "electric_scooter", "lon": -77.00737583333333, "bike_id": "e0ead1f4da39f31430b456c7ae00225d", "fusion_lat": 0.0, "name": "e0ead1f4da39f31430b456c7ae00225d", "is_reserved": 0, "rental_uris": {"android": "https://dc.lft.to/lastmile_qr_scan", "ios": "https://dc.lft.to/lastmile_qr_scan"}, "fusion_lon": 0.0}, {"lat": 38.91305166666667, "is_disabled": 0, "type": "electric_scooter", "lon": -77.01953266666666, "bike_id": "f478347af955dbc520f3948ebbfd9f5b", "fusion_lat": 0.0, "name": "f478347af955dbc520f3948ebbfd9f5b", "is_reserved": 0, "rental_uris": {"android": "https://dc.lft.to/lastmile_qr_scan", "ios": "https://dc.lft.to/lastmile_qr_scan"}, "fusion_lon": 0.0}, {"lat": 38.915606333333336, "is_disabled": 0, "type": "electric_scooter", "lon": -77.03660083333334, "bike_id": "b67f405e5dbe2c87ab33184df277d50a", "fusion_lat": 0.0, "name": "b67f405e5dbe2c87ab33184df277d50a", "is_reserved": 0, "rental_uris": {"android": "https://dc.lft.to/lastmile_qr_scan", "ios": "https://dc.lft.to/lastmile_qr_scan"}, "fusion_lon": 0.0}, {"lat": 38.90994666666667, "is_disabled": 0, "type": "electric_scooter", "lon": -77.031808, "bike_id": "764e9d93b6afe3510237966ecb3ab689", "fusion_lat": 0.0, "name": "764e9d93b6afe3510237966ecb3ab689", "is_reserved": 0, "rental_uris": {"android": "https://dc.lft.to/lastmile_qr_scan", "ios": "https://dc.lft.to/lastmile_qr_scan"}, "fusion_lon": 0.0}, {"lat": 38.91254083333333, "is_disabled": 0, "type": "electric_scooter", "lon": -77.0199655, "bike_id": "3b3c854f04a8529eadff978447621e7d", "fusion_lat": 0.0, "name": "3b3c854f04a8529eadff978447621e7d", "is_reserved": 0, "rental_uris": {"android": "https://dc.lft.to/lastmile_qr_scan", "ios": "https://dc.lft.to/lastmile_qr_scan"}, "fusion_lon": 0.0}, {"lat": 38.859192166666666, "is_disabled": 0, "type": "electric_scooter", "lon": -76.98978033333333, "bike_id": "00ca7cd75e40b9c82aec97d7909a930a", "fusion_lat": 0.0, "name": "00ca7cd75e40b9c82aec97d7909a930a", "is_reserved": 0, "rental_uris": {"android": "https://dc.lft.to/lastmile_qr_scan", "ios": "https://dc.lft.to/lastmile_qr_scan"}, "fusion_lon": 0.0}, {"lat": 38.930615833333334, "is_disabled": 0, "type": "electric_scooter", "lon": -77.04030733333333, "bike_id": "af5d2c0349d20659bf35030a5d057411", "fusion_lat": 0.0, "name": "af5d2c0349d20659bf35030a5d057411", "is_reserved": 0, "rental_uris": {"android": "https://dc.lft.to/lastmile_qr_scan", "ios": "https://dc.lft.to/lastmile_qr_scan"}, "fusion_lon": 0.0}, {"lat": 38.91356733333333, "is_disabled": 0, "type": "electric_scooter", "lon": -77.0691465, "bike_id": "2e8fba794585e4924e38aec59b20fc20", "fusion_lat": 0.0, "name": "2e8fba794585e4924e38aec59b20fc20", "is_reserved": 0, "rental_uris": {"android": "https://dc.lft.to/lastmile_qr_scan", "ios": "https://dc.lft.to/lastmile_qr_scan"}, "fusion_lon": 0.0}, {"lat": 38.92310716666667, "is_disabled": 0, "type": "electric_scooter", "lon": -77.03956566666666, "bike_id": "2f581b1440aaae38d351b24988eee748", "fusion_lat": 0.0, "name": "2f581b1440aaae38d351b24988eee748", "is_reserved": 0, "rental_uris": {"android": "https://dc.lft.to/lastmile_qr_scan", "ios": "https://dc.lft.to/lastmile_qr_scan"}, "fusion_lon": 0.0}, {"lat": 38.9053395, "is_disabled": 0, "type": "electric_scooter", "lon": -77.05710416666666, "bike_id": "540fbc202702f58cf51fdbe048635fe6", "fusion_lat": 0.0, "name": "540fbc202702f58cf51fdbe048635fe6", "is_reserved": 0, "rental_uris": {"android": "https://dc.lft.to/lastmile_qr_scan", "ios": "https://dc.lft.to/lastmile_qr_scan"}, "fusion_lon": 0.0}, {"lat": 38.914158666666665, "is_disabled": 0, "type": "electric_scooter", "lon": -77.029169, "bike_id": "21c441c41d7d2869c91a26ced3f1a4af", "fusion_lat": 0.0, "name": "21c441c41d7d2869c91a26ced3f1a4af", "is_reserved": 0, "rental_uris": {"android": "https://dc.lft.to/lastmile_qr_scan", "ios": "https://dc.lft.to/lastmile_qr_scan"}, "fusion_lon": 0.0}, {"lat": 38.920639666666666, "is_disabled": 0, "type": "electric_scooter", "lon": -77.04233233333333, "bike_id": "af3fe25bac5ed8a1332e58e500269b6b", "fusion_lat": 0.0, "name": "af3fe25bac5ed8a1332e58e500269b6b", "is_reserved": 0, "rental_uris": {"android": "https://dc.lft.to/lastmile_qr_scan", "ios": "https://dc.lft.to/lastmile_qr_scan"}, "fusion_lon": 0.0}, {"lat": 38.90391066666667, "is_disabled": 0, "type": "electric_scooter", "lon": -77.04808833333334, "bike_id": "99d915e3fa52a72165f86062a5f87c5a", "fusion_lat": 0.0, "name": "99d915e3fa52a72165f86062a5f87c5a", "is_reserved": 0, "rental_uris": {"android": "https://dc.lft.to/lastmile_qr_scan", "ios": "https://dc.lft.to/lastmile_qr_scan"}, "fusion_lon": 0.0}, {"lat": 38.944393, "is_disabled": 0, "type": "electric_scooter", "lon": -77.0233935, "bike_id": "8fb71ff515a982f80ad850c4a2582f7b", "fusion_lat": 0.0, "name": "8fb71ff515a982f80ad850c4a2582f7b", "is_reserved": 0, "rental_uris": {"android": "https://dc.lft.to/lastmile_qr_scan", "ios": "https://dc.lft.to/lastmile_qr_scan"}, "fusion_lon": 0.0}, {"lat": 38.91268183333333, "is_disabled": 0, "type": "electric_scooter", "lon": -77.01768, "bike_id": "c886f443b17960e6d33e251d6b1b5e2f", "fusion_lat": 0.0, "name": "c886f443b17960e6d33e251d6b1b5e2f", "is_reserved": 0, "rental_uris": {"android": "https://dc.lft.to/lastmile_qr_scan", "ios": "https://dc.lft.to/lastmile_qr_scan"}, "fusion_lon": 0.0}, {"lat": 38.932466166666664, "is_disabled": 0, "type": "electric_scooter", "lon": -77.02847816666667, "bike_id": "a3566445b2463e55cfd9796a6dfafb3b", "fusion_lat": 0.0, "name": "a3566445b2463e55cfd9796a6dfafb3b", "is_reserved": 0, "rental_uris": {"android": "https://dc.lft.to/lastmile_qr_scan", "ios": "https://dc.lft.to/lastmile_qr_scan"}, "fusion_lon": 0.0}, {"lat": 38.85735533333333, "is_disabled": 0, "type": "electric_scooter", "lon": -76.99430716666667, "bike_id": "46ca2fa8ca7868e03f0ba703d96c2bf2", "fusion_lat": 0.0, "name": "46ca2fa8ca7868e03f0ba703d96c2bf2", "is_reserved": 0, "rental_uris": {"android": "https://dc.lft.to/lastmile_qr_scan", "ios": "https://dc.lft.to/lastmile_qr_scan"}, "fusion_lon": 0.0}, {"lat": 38.93348783333333, "is_disabled": 0, "type": "electric_scooter", "lon": -77.02495883333333, "bike_id": "42e5f52a2b619e0cdd71dd5e4aa12feb", "fusion_lat": 0.0, "name": "42e5f52a2b619e0cdd71dd5e4aa12feb", "is_reserved": 0, "rental_uris": {"android": "https://dc.lft.to/lastmile_qr_scan", "ios": "https://dc.lft.to/lastmile_qr_scan"}, "fusion_lon": 0.0}, {"lat": 38.991587, "is_disabled": 0, "type": "electric_bike", "lon": -77.02504266666666, "bike_id": "6dc1086c4e385ba4809ebed3de4486f8", "fusion_lat": 0.0, "name": "6dc1086c4e385ba4809ebed3de4486f8", "is_reserved": 0, "rental_uris": {"android": "https://dc.lft.to/lastmile_qr_scan", "ios": "https://dc.lft.to/lastmile_qr_scan"}, "fusion_lon": 0.0}, {"lat": 38.90021983333333, "is_disabled": 0, "type": "electric_scooter", "lon": -76.998974, "bike_id": "c1d4184b84b0756511981b62c1bf9c8f", "fusion_lat": 0.0, "name": "c1d4184b84b0756511981b62c1bf9c8f", "is_reserved": 0, "rental_uris": {"android": "https://dc.lft.to/lastmile_qr_scan", "ios": "https://dc.lft.to/lastmile_qr_scan"}, "fusion_lon": 0.0}, {"lat": 38.802679166666664, "is_disabled": 0, "type": "electric_bike", "lon": -77.081084, "bike_id": "3298eb21b07c09aaa062839023df2e74", "fusion_lat": 0.0, "name": "3298eb21b07c09aaa062839023df2e74", "is_reserved": 0, "rental_uris": {"android": "https://dc.lft.to/lastmile_qr_scan", "ios": "https://dc.lft.to/lastmile_qr_scan"}, "fusion_lon": 0.0}, {"lat": 38.862554333333335, "is_disabled": 0, "type": "electric_scooter", "lon": -76.99514866666667, "bike_id": "f16bd767b8c0584441f2609b285b867c", "fusion_lat": 0.0, "name": "f16bd767b8c0584441f2609b285b867c", "is_reserved": 0, "rental_uris": {"android": "https://dc.lft.to/lastmile_qr_scan", "ios": "https://dc.lft.to/lastmile_qr_scan"}, "fusion_lon": 0.0}, {"lat": 38.92038566666667, "is_disabled": 0, "type": "electric_scooter", "lon": -77.02375666666667, "bike_id": "2a44299d5a437312e91e4b08642c40ba", "fusion_lat": 0.0, "name": "2a44299d5a437312e91e4b08642c40ba", "is_reserved": 0, "rental_uris": {"android": "https://dc.lft.to/lastmile_qr_scan", "ios": "https://dc.lft.to/lastmile_qr_scan"}, "fusion_lon": 0.0}, {"lat": 38.92897716666667, "is_disabled": 0, "type": "electric_scooter", "lon": -77.0240275, "bike_id": "28061d9eda909fa2e6823dfff58d32d6", "fusion_lat": 0.0, "name": "28061d9eda909fa2e6823dfff58d32d6", "is_reserved": 0, "rental_uris": {"android": "https://dc.lft.to/lastmile_qr_scan", "ios": "https://dc.lft.to/lastmile_qr_scan"}, "fusion_lon": 0.0}, {"lat": 38.954030333333336, "is_disabled": 0, "type": "electric_scooter", "lon": -77.02747566666666, "bike_id": "0b5b4e566be21d84bd0a5a6b0da4dae5", "fusion_lat": 0.0, "name": "0b5b4e566be21d84bd0a5a6b0da4dae5", "is_reserved": 0, "rental_uris": {"android": "https://dc.lft.to/lastmile_qr_scan", "ios": "https://dc.lft.to/lastmile_qr_scan"}, "fusion_lon": 0.0}, {"lat": 38.855645, "is_disabled": 0, "type": "electric_bike", "lon": -77.11134433333334, "bike_id": "7e5f0dcb99e2bee1dafbcffa6c82c894", "fusion_lat": 0.0, "name": "7e5f0dcb99e2bee1dafbcffa6c82c894", "is_reserved": 0, "rental_uris": {"android": "https://dc.lft.to/lastmile_qr_scan", "ios": "https://dc.lft.to/lastmile_qr_scan"}, "fusion_lon": 0.0}, {"lat": 38.90526283333333, "is_disabled": 0, "type": "electric_scooter", "lon": -77.06238383333333, "bike_id": "b755229b81d22d1d00e8e5184829f712", "fusion_lat": 0.0, "name": "b755229b81d22d1d00e8e5184829f712", "is_reserved": 0, "rental_uris": {"android": "https://dc.lft.to/lastmile_qr_scan", "ios": "https://dc.lft.to/lastmile_qr_scan"}, "fusion_lon": 0.0}, {"lat": 38.89734516666667, "is_disabled": 0, "type": "electric_scooter", "lon": -77.007735, "bike_id": "08f0dc5126eb599b5ebd075a13de0d21", "fusion_lat": 0.0, "name": "08f0dc5126eb599b5ebd075a13de0d21", "is_reserved": 0, "rental_uris": {"android": "https://dc.lft.to/lastmile_qr_scan", "ios": "https://dc.lft.to/lastmile_qr_scan"}, "fusion_lon": 0.0}, {"lat": 38.93328966666667, "is_disabled": 0, "type": "electric_scooter", "lon": -77.04366333333333, "bike_id": "407b88d1485f5bf2ffb1ae6825ad4ad1", "fusion_lat": 0.0, "name": "407b88d1485f5bf2ffb1ae6825ad4ad1", "is_reserved": 0, "rental_uris": {"android": "https://dc.lft.to/lastmile_qr_scan", "ios": "https://dc.lft.to/lastmile_qr_scan"}, "fusion_lon": 0.0}, {"lat": 38.91953183333333, "is_disabled": 0, "type": "electric_scooter", "lon": -76.98077116666667, "bike_id": "36bb8612ff80e8e30aaea5b92e54e35d", "fusion_lat": 0.0, "name": "36bb8612ff80e8e30aaea5b92e54e35d", "is_reserved": 0, "rental_uris": {"android": "https://dc.lft.to/lastmile_qr_scan", "ios": "https://dc.lft.to/lastmile_qr_scan"}, "fusion_lon": 0.0}, {"lat": 38.972293, "is_disabled": 0, "type": "electric_bike", "lon": -76.9933695, "bike_id": "fa43f86053afdea01f3b1626e4533000", "fusion_lat": 0.0, "name": "fa43f86053afdea01f3b1626e4533000", "is_reserved": 0, "rental_uris": {"android": "https://dc.lft.to/lastmile_qr_scan", "ios": "https://dc.lft.to/lastmile_qr_scan"}, "fusion_lon": 0.0}, {"lat": 38.948958, "is_disabled": 0, "type": "electric_scooter", "lon": -77.03044716666666, "bike_id": "1accf2181d0a7a4514358224504d95fd", "fusion_lat": 0.0, "name": "1accf2181d0a7a4514358224504d95fd", "is_reserved": 0, "rental_uris": {"android": "https://dc.lft.to/lastmile_qr_scan", "ios": "https://dc.lft.to/lastmile_qr_scan"}, "fusion_lon": 0.0}, {"lat": 38.9028805, "is_disabled": 0, "type": "electric_scooter", "lon": -77.03783166666666, "bike_id": "edecff161bd5caa63e9452707c5840b0", "fusion_lat": 0.0, "name": "edecff161bd5caa63e9452707c5840b0", "is_reserved": 0, "rental_uris": {"android": "https://dc.lft.to/lastmile_qr_scan", "ios": "https://dc.lft.to/lastmile_qr_scan"}, "fusion_lon": 0.0}, {"lat": 38.90835666666667, "is_disabled": 0, "type": "electric_scooter", "lon": -76.99695316666667, "bike_id": "23277cbb3d40d8b6797baa2e0391b150", "fusion_lat": 0.0, "name": "23277cbb3d40d8b6797baa2e0391b150", "is_reserved": 0, "rental_uris": {"android": "https://dc.lft.to/lastmile_qr_scan", "ios": "https://dc.lft.to/lastmile_qr_scan"}, "fusion_lon": 0.0}, {"lat": 38.9223465, "is_disabled": 0, "type": "electric_scooter", "lon": -77.0457725, "bike_id": "53533a47203cfb9f222790b2fa3fea36", "fusion_lat": 0.0, "name": "53533a47203cfb9f222790b2fa3fea36", "is_reserved": 0, "rental_uris": {"android": "https://dc.lft.to/lastmile_qr_scan", "ios": "https://dc.lft.to/lastmile_qr_scan"}, "fusion_lon": 0.0}, {"lat": 38.933181166666664, "is_disabled": 0, "type": "electric_scooter", "lon": -77.045271, "bike_id": "912fc6016a029fe4c13eb9c9b42244be", "fusion_lat": 0.0, "name": "912fc6016a029fe4c13eb9c9b42244be", "is_reserved": 0, "rental_uris": {"android": "https://dc.lft.to/lastmile_qr_scan", "ios": "https://dc.lft.to/lastmile_qr_scan"}, "fusion_lon": 0.0}, {"lat": 38.930347833333336, "is_disabled": 0, "type": "electric_scooter", "lon": -77.02958433333333, "bike_id": "a8b35118f40f186498bdde64b5f64f96", "fusion_lat": 0.0, "name": "a8b35118f40f186498bdde64b5f64f96", "is_reserved": 0, "rental_uris": {"android": "https://dc.lft.to/lastmile_qr_scan", "ios": "https://dc.lft.to/lastmile_qr_scan"}, "fusion_lon": 0.0}, {"lat": 38.912609, "is_disabled": 0, "type": "electric_scooter", "lon": -77.0380345, "bike_id": "6eacf848e5f132ab2840206355a30734", "fusion_lat": 0.0, "name": "6eacf848e5f132ab2840206355a30734", "is_reserved": 0, "rental_uris": {"android": "https://dc.lft.to/lastmile_qr_scan", "ios": "https://dc.lft.to/lastmile_qr_scan"}, "fusion_lon": 0.0}, {"lat": 38.903706, "is_disabled": 0, "type": "electric_scooter", "lon": -76.99228633333334, "bike_id": "14bb091d9b16afd2f007dd7aab5ae7cd", "fusion_lat": 0.0, "name": "14bb091d9b16afd2f007dd7aab5ae7cd", "is_reserved": 0, "rental_uris": {"android": "https://dc.lft.to/lastmile_qr_scan", "ios": "https://dc.lft.to/lastmile_qr_scan"}, "fusion_lon": 0.0}, {"lat": 38.92342716666667, "is_disabled": 0, "type": "electric_scooter", "lon": -77.05117166666666, "bike_id": "36e59b153a3b9cffb7891bdbe44e09b5", "fusion_lat": 0.0, "name": "36e59b153a3b9cffb7891bdbe44e09b5", "is_reserved": 0, "rental_uris": {"android": "https://dc.lft.to/lastmile_qr_scan", "ios": "https://dc.lft.to/lastmile_qr_scan"}, "fusion_lon": 0.0}, {"lat": 38.93472466666667, "is_disabled": 0, "type": "electric_scooter", "lon": -77.04113216666667, "bike_id": "478fe18c4291299ac29091f3a32a4a66", "fusion_lat": 0.0, "name": "478fe18c4291299ac29091f3a32a4a66", "is_reserved": 0, "rental_uris": {"android": "https://dc.lft.to/lastmile_qr_scan", "ios": "https://dc.lft.to/lastmile_qr_scan"}, "fusion_lon": 0.0}, {"lat": 38.895480666666664, "is_disabled": 0, "type": "electric_scooter", "lon": -77.00914833333333, "bike_id": "5be759f67f86d24bd6fc8f79780ac07a", "fusion_lat": 0.0, "name": "5be759f67f86d24bd6fc8f79780ac07a", "is_reserved": 0, "rental_uris": {"android": "https://dc.lft.to/lastmile_qr_scan", "ios": "https://dc.lft.to/lastmile_qr_scan"}, "fusion_lon": 0.0}, {"lat": 38.852076, "is_disabled": 0, "type": "electric_bike", "lon": -77.10126666666666, "bike_id": "ff02f68abc55f056fcf367b8ef9af8ac", "fusion_lat": 0.0, "name": "ff02f68abc55f056fcf367b8ef9af8ac", "is_reserved": 0, "rental_uris": {"android": "https://dc.lft.to/lastmile_qr_scan", "ios": "https://dc.lft.to/lastmile_qr_scan"}, "fusion_lon": 0.0}, {"lat": 38.9261255, "is_disabled": 0, "type": "electric_scooter", "lon": -77.021551, "bike_id": "71ccae0477c5a26f10ec0f8a88b9ec9a", "fusion_lat": 0.0, "name": "71ccae0477c5a26f10ec0f8a88b9ec9a", "is_reserved": 0, "rental_uris": {"android": "https://dc.lft.to/lastmile_qr_scan", "ios": "https://dc.lft.to/lastmile_qr_scan"}, "fusion_lon": 0.0}, {"lat": 38.91856933333333, "is_disabled": 0, "type": "electric_scooter", "lon": -77.04175366666666, "bike_id": "3127b2e5d621c2ca6e7ec213252ebcae", "fusion_lat": 0.0, "name": "3127b2e5d621c2ca6e7ec213252ebcae", "is_reserved": 0, "rental_uris": {"android": "https://dc.lft.to/lastmile_qr_scan", "ios": "https://dc.lft.to/lastmile_qr_scan"}, "fusion_lon": 0.0}, {"lat": 38.90271166666667, "is_disabled": 0, "type": "electric_scooter", "lon": -77.03864383333334, "bike_id": "ebd7f83f0e2dc33704e7ae76514c28ff", "fusion_lat": 0.0, "name": "ebd7f83f0e2dc33704e7ae76514c28ff", "is_reserved": 0, "rental_uris": {"android": "https://dc.lft.to/lastmile_qr_scan", "ios": "https://dc.lft.to/lastmile_qr_scan"}, "fusion_lon": 0.0}, {"lat": 38.970887, "is_disabled": 0, "type": "electric_bike", "lon": -77.06961266666667, "bike_id": "147b8b314045dc8d05c11b155aab2f45", "fusion_lat": 0.0, "name": "147b8b314045dc8d05c11b155aab2f45", "is_reserved": 0, "rental_uris": {"android": "https://dc.lft.to/lastmile_qr_scan", "ios": "https://dc.lft.to/lastmile_qr_scan"}, "fusion_lon": 0.0}, {"lat": 38.8792005, "is_disabled": 0, "type": "electric_scooter", "lon": -77.0308935, "bike_id": "9ad9db56f22e84bc9b13a50e8020ac1a", "fusion_lat": 0.0, "name": "9ad9db56f22e84bc9b13a50e8020ac1a", "is_reserved": 0, "rental_uris": {"android": "https://dc.lft.to/lastmile_qr_scan", "ios": "https://dc.lft.to/lastmile_qr_scan"}, "fusion_lon": 0.0}, {"lat": 38.936343666666666, "is_disabled": 0, "type": "electric_scooter", "lon": -77.02486666666667, "bike_id": "70a2d3a8faa5af6e88e1659743ac397e", "fusion_lat": 0.0, "name": "70a2d3a8faa5af6e88e1659743ac397e", "is_reserved": 0, "rental_uris": {"android": "https://dc.lft.to/lastmile_qr_scan", "ios": "https://dc.lft.to/lastmile_qr_scan"}, "fusion_lon": 0.0}, {"lat": 38.9225765, "is_disabled": 0, "type": "electric_scooter", "lon": -77.04294933333334, "bike_id": "8c5c8cd44fab2852318ae05f8bf8e8b0", "fusion_lat": 0.0, "name": "8c5c8cd44fab2852318ae05f8bf8e8b0", "is_reserved": 0, "rental_uris": {"android": "https://dc.lft.to/lastmile_qr_scan", "ios": "https://dc.lft.to/lastmile_qr_scan"}, "fusion_lon": 0.0}, {"lat": 38.893466333333336, "is_disabled": 0, "type": "electric_scooter", "lon": -77.04134383333333, "bike_id": "72ef9321347c548fe70324df3966adfb", "fusion_lat": 0.0, "name": "72ef9321347c548fe70324df3966adfb", "is_reserved": 0, "rental_uris": {"android": "https://dc.lft.to/lastmile_qr_scan", "ios": "https://dc.lft.to/lastmile_qr_scan"}, "fusion_lon": 0.0}, {"lat": 38.92851366666667, "is_disabled": 0, "type": "electric_bike", "lon": -77.10677083333333, "bike_id": "9ffce4a9a9fc41a255e562778f176dce", "fusion_lat": 0.0, "name": "9ffce4a9a9fc41a255e562778f176dce", "is_reserved": 0, "rental_uris": {"android": "https://dc.lft.to/lastmile_qr_scan", "ios": "https://dc.lft.to/lastmile_qr_scan"}, "fusion_lon": 0.0}, {"lat": 38.914860833333336, "is_disabled": 0, "type": "electric_scooter", "lon": -77.03260433333334, "bike_id": "03f86526fc5d189296a24e83dd93a5f1", "fusion_lat": 0.0, "name": "03f86526fc5d189296a24e83dd93a5f1", "is_reserved": 0, "rental_uris": {"android": "https://dc.lft.to/lastmile_qr_scan", "ios": "https://dc.lft.to/lastmile_qr_scan"}, "fusion_lon": 0.0}, {"lat": 38.89925483333333, "is_disabled": 0, "type": "electric_scooter", "lon": -77.00350366666666, "bike_id": "17aba6f99deac41106a8561496117a83", "fusion_lat": 0.0, "name": "17aba6f99deac41106a8561496117a83", "is_reserved": 0, "rental_uris": {"android": "https://dc.lft.to/lastmile_qr_scan", "ios": "https://dc.lft.to/lastmile_qr_scan"}, "fusion_lon": 0.0}, {"lat": 38.92531, "is_disabled": 0, "type": "electric_scooter", "lon": -77.0442015, "bike_id": "29edb4f765fd18a254bb7cee9058d98b", "fusion_lat": 0.0, "name": "29edb4f765fd18a254bb7cee9058d98b", "is_reserved": 0, "rental_uris": {"android": "https://dc.lft.to/lastmile_qr_scan", "ios": "https://dc.lft.to/lastmile_qr_scan"}, "fusion_lon": 0.0}, {"lat": 38.916914166666665, "is_disabled": 0, "type": "electric_scooter", "lon": -77.0371575, "bike_id": "62b8d98a1396f10fca9039a41ae45945", "fusion_lat": 0.0, "name": "62b8d98a1396f10fca9039a41ae45945", "is_reserved": 0, "rental_uris": {"android": "https://dc.lft.to/lastmile_qr_scan", "ios": "https://dc.lft.to/lastmile_qr_scan"}, "fusion_lon": 0.0}, {"lat": 38.932083, "is_disabled": 0, "type": "electric_scooter", "lon": -77.036677, "bike_id": "ff6ce79c66e93b1591cdb0ba0174b9a6", "fusion_lat": 0.0, "name": "ff6ce79c66e93b1591cdb0ba0174b9a6", "is_reserved": 0, "rental_uris": {"android": "https://dc.lft.to/lastmile_qr_scan", "ios": "https://dc.lft.to/lastmile_qr_scan"}, "fusion_lon": 0.0}, {"lat": 38.90032083333333, "is_disabled": 0, "type": "electric_scooter", "lon": -76.993653, "bike_id": "96df57aab974cc57f9de3f54243c04fa", "fusion_lat": 0.0, "name": "96df57aab974cc57f9de3f54243c04fa", "is_reserved": 0, "rental_uris": {"android": "https://dc.lft.to/lastmile_qr_scan", "ios": "https://dc.lft.to/lastmile_qr_scan"}, "fusion_lon": 0.0}, {"lat": 38.92116933333333, "is_disabled": 0, "type": "electric_scooter", "lon": -77.03195533333333, "bike_id": "55099b7e52fe4e3703034a8fd6778a13", "fusion_lat": 0.0, "name": "55099b7e52fe4e3703034a8fd6778a13", "is_reserved": 0, "rental_uris": {"android": "https://dc.lft.to/lastmile_qr_scan", "ios": "https://dc.lft.to/lastmile_qr_scan"}, "fusion_lon": 0.0}, {"lat": 38.92662766666667, "is_disabled": 0, "type": "electric_scooter", "lon": -77.05590666666667, "bike_id": "2005641498d5122eddbaceeb07bab930", "fusion_lat": 0.0, "name": "2005641498d5122eddbaceeb07bab930", "is_reserved": 0, "rental_uris": {"android": "https://dc.lft.to/lastmile_qr_scan", "ios": "https://dc.lft.to/lastmile_qr_scan"}, "fusion_lon": 0.0}, {"lat": 38.89547783333333, "is_disabled": 0, "type": "electric_scooter", "lon": -76.93363216666667, "bike_id": "0036af1b747b9fdd2667559cc575e187", "fusion_lat": 0.0, "name": "0036af1b747b9fdd2667559cc575e187", "is_reserved": 0, "rental_uris": {"android": "https://dc.lft.to/lastmile_qr_scan", "ios": "https://dc.lft.to/lastmile_qr_scan"}, "fusion_lon": 0.0}, {"lat": 38.918167833333335, "is_disabled": 0, "type": "electric_scooter", "lon": -77.03467183333333, "bike_id": "bb8bc0cd2b935f3206d56ed50dfe66d4", "fusion_lat": 0.0, "name": "bb8bc0cd2b935f3206d56ed50dfe66d4", "is_reserved": 0, "rental_uris": {"android": "https://dc.lft.to/lastmile_qr_scan", "ios": "https://dc.lft.to/lastmile_qr_scan"}, "fusion_lon": 0.0}, {"lat": 38.9178365, "is_disabled": 0, "type": "electric_scooter", "lon": -77.02606016666667, "bike_id": "96498c76aa16416c675b80f22716f3ee", "fusion_lat": 0.0, "name": "96498c76aa16416c675b80f22716f3ee", "is_reserved": 0, "rental_uris": {"android": "https://dc.lft.to/lastmile_qr_scan", "ios": "https://dc.lft.to/lastmile_qr_scan"}, "fusion_lon": 0.0}, {"lat": 38.9607145, "is_disabled": 0, "type": "electric_scooter", "lon": -77.0729845, "bike_id": "a32d575555185959ea396d860d8cff96", "fusion_lat": 0.0, "name": "a32d575555185959ea396d860d8cff96", "is_reserved": 0, "rental_uris": {"android": "https://dc.lft.to/lastmile_qr_scan", "ios": "https://dc.lft.to/lastmile_qr_scan"}, "fusion_lon": 0.0}, {"lat": 38.90362966666667, "is_disabled": 0, "type": "electric_scooter", "lon": -76.97652883333333, "bike_id": "fec4f451e0a3e628abb39fbb4f15f407", "fusion_lat": 0.0, "name": "fec4f451e0a3e628abb39fbb4f15f407", "is_reserved": 0, "rental_uris": {"android": "https://dc.lft.to/lastmile_qr_scan", "ios": "https://dc.lft.to/lastmile_qr_scan"}, "fusion_lon": 0.0}, {"lat": 38.921217, "is_disabled": 0, "type": "electric_scooter", "lon": -77.04351783333334, "bike_id": "591afc908d5affe4a06558af48e92906", "fusion_lat": 0.0, "name": "591afc908d5affe4a06558af48e92906", "is_reserved": 0, "rental_uris": {"android": "https://dc.lft.to/lastmile_qr_scan", "ios": "https://dc.lft.to/lastmile_qr_scan"}, "fusion_lon": 0.0}, {"lat": 38.926033333333336, "is_disabled": 0, "type": "electric_scooter", "lon": -77.02495933333333, "bike_id": "993d89bfc1f173b3e80d4b8b515d5eab", "fusion_lat": 0.0, "name": "993d89bfc1f173b3e80d4b8b515d5eab", "is_reserved": 0, "rental_uris": {"android": "https://dc.lft.to/lastmile_qr_scan", "ios": "https://dc.lft.to/lastmile_qr_scan"}, "fusion_lon": 0.0}, {"lat": 38.914825666666665, "is_disabled": 0, "type": "electric_scooter", "lon": -77.03212216666667, "bike_id": "29d586096c1e117ea0836ff3d53015f3", "fusion_lat": 0.0, "name": "29d586096c1e117ea0836ff3d53015f3", "is_reserved": 0, "rental_uris": {"android": "https://dc.lft.to/lastmile_qr_scan", "ios": "https://dc.lft.to/lastmile_qr_scan"}, "fusion_lon": 0.0}, {"lat": 38.90065116666667, "is_disabled": 0, "type": "electric_scooter", "lon": -77.04534166666667, "bike_id": "d24eff773924255499d7591b39298819", "fusion_lat": 0.0, "name": "d24eff773924255499d7591b39298819", "is_reserved": 0, "rental_uris": {"android": "https://dc.lft.to/lastmile_qr_scan", "ios": "https://dc.lft.to/lastmile_qr_scan"}, "fusion_lon": 0.0}, {"lat": 38.8865925, "is_disabled": 0, "type": "electric_bike", "lon": -77.03384816666667, "bike_id": "e0d566215316867f2c39c2c2c4a2e499", "fusion_lat": 0.0, "name": "e0d566215316867f2c39c2c2c4a2e499", "is_reserved": 0, "rental_uris": {"android": "https://dc.lft.to/lastmile_qr_scan", "ios": "https://dc.lft.to/lastmile_qr_scan"}, "fusion_lon": 0.0}, {"lat": 38.91710883333333, "is_disabled": 0, "type": "electric_scooter", "lon": -77.04674883333334, "bike_id": "df6f41ca5c9773aeb291a44284558ded", "fusion_lat": 0.0, "name": "df6f41ca5c9773aeb291a44284558ded", "is_reserved": 0, "rental_uris": {"android": "https://dc.lft.to/lastmile_qr_scan", "ios": "https://dc.lft.to/lastmile_qr_scan"}, "fusion_lon": 0.0}, {"lat": 38.911710166666666, "is_disabled": 0, "type": "electric_scooter", "lon": -77.04665433333334, "bike_id": "ee4915303068948f42af6473842c5af9", "fusion_lat": 0.0, "name": "ee4915303068948f42af6473842c5af9", "is_reserved": 0, "rental_uris": {"android": "https://dc.lft.to/lastmile_qr_scan", "ios": "https://dc.lft.to/lastmile_qr_scan"}, "fusion_lon": 0.0}, {"lat": 38.932097, "is_disabled": 0, "type": "electric_scooter", "lon": -77.02248066666667, "bike_id": "43c0295f40fef25073eef246e2aad397", "fusion_lat": 0.0, "name": "43c0295f40fef25073eef246e2aad397", "is_reserved": 0, "rental_uris": {"android": "https://dc.lft.to/lastmile_qr_scan", "ios": "https://dc.lft.to/lastmile_qr_scan"}, "fusion_lon": 0.0}, {"lat": 38.955607666666666, "is_disabled": 0, "type": "electric_scooter", "lon": -77.022267, "bike_id": "932c1bf6e077b151bfb50d367cef923c", "fusion_lat": 0.0, "name": "932c1bf6e077b151bfb50d367cef923c", "is_reserved": 0, "rental_uris": {"android": "https://dc.lft.to/lastmile_qr_scan", "ios": "https://dc.lft.to/lastmile_qr_scan"}, "fusion_lon": 0.0}, {"lat": 39.05633983333333, "is_disabled": 0, "type": "electric_bike", "lon": -77.12521866666667, "bike_id": "64ce3c5de86c6a9bc7f6b8d8928ee5d5", "fusion_lat": 0.0, "name": "64ce3c5de86c6a9bc7f6b8d8928ee5d5", "is_reserved": 0, "rental_uris": {"android": "https://dc.lft.to/lastmile_qr_scan", "ios": "https://dc.lft.to/lastmile_qr_scan"}, "fusion_lon": 0.0}, {"lat": 38.902628, "is_disabled": 0, "type": "electric_scooter", "lon": -77.043794, "bike_id": "bb70a169bcbbaa42f8669ab6b102ac8f", "fusion_lat": 0.0, "name": "bb70a169bcbbaa42f8669ab6b102ac8f", "is_reserved": 0, "rental_uris": {"android": "https://dc.lft.to/lastmile_qr_scan", "ios": "https://dc.lft.to/lastmile_qr_scan"}, "fusion_lon": 0.0}, {"lat": 38.8904195, "is_disabled": 0, "type": "electric_scooter", "lon": -76.952468, "bike_id": "ecbd42a8c5305c6a4fee76dac54b62d6", "fusion_lat": 0.0, "name": "ecbd42a8c5305c6a4fee76dac54b62d6", "is_reserved": 0, "rental_uris": {"android": "https://dc.lft.to/lastmile_qr_scan", "ios": "https://dc.lft.to/lastmile_qr_scan"}, "fusion_lon": 0.0}, {"lat": 38.884120833333334, "is_disabled": 0, "type": "electric_bike", "lon": -76.95412366666666, "bike_id": "a4305285ebe4b7d33bdec6421d52750e", "fusion_lat": 0.0, "name": "a4305285ebe4b7d33bdec6421d52750e", "is_reserved": 0, "rental_uris": {"android": "https://dc.lft.to/lastmile_qr_scan", "ios": "https://dc.lft.to/lastmile_qr_scan"}, "fusion_lon": 0.0}, {"lat": 38.88886266666667, "is_disabled": 0, "type": "electric_scooter", "lon": -76.93151716666667, "bike_id": "b1ec51b84bc9c5f71438a31d171ab4b2", "fusion_lat": 0.0, "name": "b1ec51b84bc9c5f71438a31d171ab4b2", "is_reserved": 0, "rental_uris": {"android": "https://dc.lft.to/lastmile_qr_scan", "ios": "https://dc.lft.to/lastmile_qr_scan"}, "fusion_lon": 0.0}, {"lat": 38.887344666666664, "is_disabled": 0, "type": "electric_scooter", "lon": -77.0152255, "bike_id": "eb9ccf2e4c032f4f511b330ae26cd249", "fusion_lat": 0.0, "name": "eb9ccf2e4c032f4f511b330ae26cd249", "is_reserved": 0, "rental_uris": {"android": "https://dc.lft.to/lastmile_qr_scan", "ios": "https://dc.lft.to/lastmile_qr_scan"}, "fusion_lon": 0.0}, {"lat": 38.911176166666664, "is_disabled": 0, "type": "electric_scooter", "lon": -77.03837616666667, "bike_id": "1ce5a44a9b3a9869b216148b87ae5f3a", "fusion_lat": 0.0, "name": "1ce5a44a9b3a9869b216148b87ae5f3a", "is_reserved": 0, "rental_uris": {"android": "https://dc.lft.to/lastmile_qr_scan", "ios": "https://dc.lft.to/lastmile_qr_scan"}, "fusion_lon": 0.0}, {"lat": 38.9118675, "is_disabled": 0, "type": "electric_scooter", "lon": -77.04294866666666, "bike_id": "afb2e51b65bef933e41b9bb1599bca4f", "fusion_lat": 0.0, "name": "afb2e51b65bef933e41b9bb1599bca4f", "is_reserved": 0, "rental_uris": {"android": "https://dc.lft.to/lastmile_qr_scan", "ios": "https://dc.lft.to/lastmile_qr_scan"}, "fusion_lon": 0.0}, {"lat": 38.87014416666667, "is_disabled": 0, "type": "electric_bike", "lon": -76.96016916666666, "bike_id": "eaebe5b723991b134d846dbf2f386ab3", "fusion_lat": 0.0, "name": "eaebe5b723991b134d846dbf2f386ab3", "is_reserved": 0, "rental_uris": {"android": "https://dc.lft.to/lastmile_qr_scan", "ios": "https://dc.lft.to/lastmile_qr_scan"}, "fusion_lon": 0.0}, {"lat": 38.90055866666667, "is_disabled": 0, "type": "electric_scooter", "lon": -77.00209683333334, "bike_id": "fd093cb39cb363812d8991304eee0cd3", "fusion_lat": 0.0, "name": "fd093cb39cb363812d8991304eee0cd3", "is_reserved": 0, "rental_uris": {"android": "https://dc.lft.to/lastmile_qr_scan", "ios": "https://dc.lft.to/lastmile_qr_scan"}, "fusion_lon": 0.0}, {"lat": 38.83672266666667, "is_disabled": 0, "type": "electric_scooter", "lon": -77.00570916666666, "bike_id": "abe91b742a5844660f25cff411f6a6e9", "fusion_lat": 0.0, "name": "abe91b742a5844660f25cff411f6a6e9", "is_reserved": 0, "rental_uris": {"android": "https://dc.lft.to/lastmile_qr_scan", "ios": "https://dc.lft.to/lastmile_qr_scan"}, "fusion_lon": 0.0}, {"lat": 38.908681, "is_disabled": 0, "type": "electric_scooter", "lon": -77.04582833333333, "bike_id": "057ce4f88032f920df65305a26d4d38b", "fusion_lat": 0.0, "name": "057ce4f88032f920df65305a26d4d38b", "is_reserved": 0, "rental_uris": {"android": "https://dc.lft.to/lastmile_qr_scan", "ios": "https://dc.lft.to/lastmile_qr_scan"}, "fusion_lon": 0.0}, {"lat": 38.90742183333333, "is_disabled": 0, "type": "electric_scooter", "lon": -77.03479183333333, "bike_id": "f0b82a5dcf59916074ca515694ec4839", "fusion_lat": 0.0, "name": "f0b82a5dcf59916074ca515694ec4839", "is_reserved": 0, "rental_uris": {"android": "https://dc.lft.to/lastmile_qr_scan", "ios": "https://dc.lft.to/lastmile_qr_scan"}, "fusion_lon": 0.0}, {"lat": 38.899911, "is_disabled": 0, "type": "electric_scooter", "lon": -76.99478466666666, "bike_id": "65afa0b8ba03a448621ba27f8082e1b3", "fusion_lat": 0.0, "name": "65afa0b8ba03a448621ba27f8082e1b3", "is_reserved": 0, "rental_uris": {"android": "https://dc.lft.to/lastmile_qr_scan", "ios": "https://dc.lft.to/lastmile_qr_scan"}, "fusion_lon": 0.0}, {"lat": 38.90849683333333, "is_disabled": 0, "type": "electric_scooter", "lon": -77.04765666666667, "bike_id": "f53ff24d8ac2e779a98db85d745edcc3", "fusion_lat": 0.0, "name": "f53ff24d8ac2e779a98db85d745edcc3", "is_reserved": 0, "rental_uris": {"android": "https://dc.lft.to/lastmile_qr_scan", "ios": "https://dc.lft.to/lastmile_qr_scan"}, "fusion_lon": 0.0}, {"lat": 38.91817016666667, "is_disabled": 0, "type": "electric_scooter", "lon": -77.02472866666666, "bike_id": "95ef04b28dc78345b1b6557a3779d9db", "fusion_lat": 0.0, "name": "95ef04b28dc78345b1b6557a3779d9db", "is_reserved": 0, "rental_uris": {"android": "https://dc.lft.to/lastmile_qr_scan", "ios": "https://dc.lft.to/lastmile_qr_scan"}, "fusion_lon": 0.0}, {"lat": 38.895011333333336, "is_disabled": 0, "type": "electric_scooter", "lon": -77.0032525, "bike_id": "ec2dab3af548590fbbbe2841a69937a3", "fusion_lat": 0.0, "name": "ec2dab3af548590fbbbe2841a69937a3", "is_reserved": 0, "rental_uris": {"android": "https://dc.lft.to/lastmile_qr_scan", "ios": "https://dc.lft.to/lastmile_qr_scan"}, "fusion_lon": 0.0}, {"lat": 38.922654666666666, "is_disabled": 0, "type": "electric_scooter", "lon": -77.02235016666667, "bike_id": "5f8368716ab15174f90a2ec6ba657f40", "fusion_lat": 0.0, "name": "5f8368716ab15174f90a2ec6ba657f40", "is_reserved": 0, "rental_uris": {"android": "https://dc.lft.to/lastmile_qr_scan", "ios": "https://dc.lft.to/lastmile_qr_scan"}, "fusion_lon": 0.0}, {"lat": 38.88189216666667, "is_disabled": 0, "type": "electric_scooter", "lon": -76.99612916666666, "bike_id": "821bbf035550f5772a79a648a1e49bbb", "fusion_lat": 0.0, "name": "821bbf035550f5772a79a648a1e49bbb", "is_reserved": 0, "rental_uris": {"android": "https://dc.lft.to/lastmile_qr_scan", "ios": "https://dc.lft.to/lastmile_qr_scan"}, "fusion_lon": 0.0}, {"lat": 38.902330666666664, "is_disabled": 0, "type": "electric_scooter", "lon": -77.00066316666667, "bike_id": "f9973661e7fb3070bd1a9d08e7ce944c", "fusion_lat": 0.0, "name": "f9973661e7fb3070bd1a9d08e7ce944c", "is_reserved": 0, "rental_uris": {"android": "https://dc.lft.to/lastmile_qr_scan", "ios": "https://dc.lft.to/lastmile_qr_scan"}, "fusion_lon": 0.0}, {"lat": 38.9077095, "is_disabled": 0, "type": "electric_scooter", "lon": -77.03850166666666, "bike_id": "e806f5bc83511c0ca7a945d9e9cb13aa", "fusion_lat": 0.0, "name": "e806f5bc83511c0ca7a945d9e9cb13aa", "is_reserved": 0, "rental_uris": {"android": "https://dc.lft.to/lastmile_qr_scan", "ios": "https://dc.lft.to/lastmile_qr_scan"}, "fusion_lon": 0.0}, {"lat": 38.90575483333333, "is_disabled": 0, "type": "electric_scooter", "lon": -77.00883616666667, "bike_id": "f7724583e0b1d328a18bac4e78c013c2", "fusion_lat": 0.0, "name": "f7724583e0b1d328a18bac4e78c013c2", "is_reserved": 0, "rental_uris": {"android": "https://dc.lft.to/lastmile_qr_scan", "ios": "https://dc.lft.to/lastmile_qr_scan"}, "fusion_lon": 0.0}, {"lat": 38.906468333333336, "is_disabled": 0, "type": "electric_scooter", "lon": -77.05330466666666, "bike_id": "0c6368686d583df88256a1f0326cd116", "fusion_lat": 0.0, "name": "0c6368686d583df88256a1f0326cd116", "is_reserved": 0, "rental_uris": {"android": "https://dc.lft.to/lastmile_qr_scan", "ios": "https://dc.lft.to/lastmile_qr_scan"}, "fusion_lon": 0.0}, {"lat": 38.906850166666665, "is_disabled": 0, "type": "electric_scooter", "lon": -77.03853466666666, "bike_id": "0fc571a3f5636795dc431e2d530b2019", "fusion_lat": 0.0, "name": "0fc571a3f5636795dc431e2d530b2019", "is_reserved": 0, "rental_uris": {"android": "https://dc.lft.to/lastmile_qr_scan", "ios": "https://dc.lft.to/lastmile_qr_scan"}, "fusion_lon": 0.0}, {"lat": 38.88258666666667, "is_disabled": 0, "type": "electric_scooter", "lon": -77.0043275, "bike_id": "d72959f9d50745ea2421b744d346baec", "fusion_lat": 0.0, "name": "d72959f9d50745ea2421b744d346baec", "is_reserved": 0, "rental_uris": {"android": "https://dc.lft.to/lastmile_qr_scan", "ios": "https://dc.lft.to/lastmile_qr_scan"}, "fusion_lon": 0.0}, {"lat": 38.868891166666664, "is_disabled": 0, "type": "electric_scooter", "lon": -76.9830865, "bike_id": "e5673c8c22c1869b5fdfe6cf7e151d48", "fusion_lat": 0.0, "name": "e5673c8c22c1869b5fdfe6cf7e151d48", "is_reserved": 0, "rental_uris": {"android": "https://dc.lft.to/lastmile_qr_scan", "ios": "https://dc.lft.to/lastmile_qr_scan"}, "fusion_lon": 0.0}, {"lat": 38.8989405, "is_disabled": 0, "type": "electric_scooter", "lon": -76.997272, "bike_id": "6f2e235d58ac002c9d2baa2da5c3941e", "fusion_lat": 0.0, "name": "6f2e235d58ac002c9d2baa2da5c3941e", "is_reserved": 0, "rental_uris": {"android": "https://dc.lft.to/lastmile_qr_scan", "ios": "https://dc.lft.to/lastmile_qr_scan"}, "fusion_lon": 0.0}, {"lat": 38.902938166666665, "is_disabled": 0, "type": "electric_scooter", "lon": -77.00198483333334, "bike_id": "e8413cf895c66115a4d9ec257fd1a7cc", "fusion_lat": 0.0, "name": "e8413cf895c66115a4d9ec257fd1a7cc", "is_reserved": 0, "rental_uris": {"android": "https://dc.lft.to/lastmile_qr_scan", "ios": "https://dc.lft.to/lastmile_qr_scan"}, "fusion_lon": 0.0}, {"lat": 38.91421966666667, "is_disabled": 0, "type": "electric_scooter", "lon": -77.03184033333334, "bike_id": "aa55e24000e40d99e3539897aeb00d04", "fusion_lat": 0.0, "name": "aa55e24000e40d99e3539897aeb00d04", "is_reserved": 0, "rental_uris": {"android": "https://dc.lft.to/lastmile_qr_scan", "ios": "https://dc.lft.to/lastmile_qr_scan"}, "fusion_lon": 0.0}, {"lat": 38.93356283333333, "is_disabled": 0, "type": "electric_bike", "lon": -77.0995685, "bike_id": "c108ddceb5711253f27d026312771918", "fusion_lat": 0.0, "name": "c108ddceb5711253f27d026312771918", "is_reserved": 0, "rental_uris": {"android": "https://dc.lft.to/lastmile_qr_scan", "ios": "https://dc.lft.to/lastmile_qr_scan"}, "fusion_lon": 0.0}, {"lat": 38.9320455, "is_disabled": 0, "type": "electric_scooter", "lon": -76.977694, "bike_id": "1114b002b1f8b2c45e4d422b4d93bf06", "fusion_lat": 0.0, "name": "1114b002b1f8b2c45e4d422b4d93bf06", "is_reserved": 0, "rental_uris": {"android": "https://dc.lft.to/lastmile_qr_scan", "ios": "https://dc.lft.to/lastmile_qr_scan"}, "fusion_lon": 0.0}, {"lat": 38.90284416666667, "is_disabled": 0, "type": "electric_scooter", "lon": -77.03621833333334, "bike_id": "4901047146e7c7cb9f53991af5e8377c", "fusion_lat": 0.0, "name": "4901047146e7c7cb9f53991af5e8377c", "is_reserved": 0, "rental_uris": {"android": "https://dc.lft.to/lastmile_qr_scan", "ios": "https://dc.lft.to/lastmile_qr_scan"}, "fusion_lon": 0.0}, {"lat": 38.9100375, "is_disabled": 0, "type": "electric_scooter", "lon": -77.04422616666666, "bike_id": "b7977ff399235eab8e2bb37fa0fbdc81", "fusion_lat": 0.0, "name": "b7977ff399235eab8e2bb37fa0fbdc81", "is_reserved": 0, "rental_uris": {"android": "https://dc.lft.to/lastmile_qr_scan", "ios": "https://dc.lft.to/lastmile_qr_scan"}, "fusion_lon": 0.0}, {"lat": 38.91709733333333, "is_disabled": 0, "type": "electric_scooter", "lon": -77.03332166666667, "bike_id": "969e284198b79d5404eb37aab5c239c2", "fusion_lat": 0.0, "name": "969e284198b79d5404eb37aab5c239c2", "is_reserved": 0, "rental_uris": {"android": "https://dc.lft.to/lastmile_qr_scan", "ios": "https://dc.lft.to/lastmile_qr_scan"}, "fusion_lon": 0.0}, {"lat": 38.89586, "is_disabled": 0, "type": "electric_bike", "lon": -77.126989, "bike_id": "c73c9fad69b16ed8a907836eabfbe809", "fusion_lat": 0.0, "name": "c73c9fad69b16ed8a907836eabfbe809", "is_reserved": 0, "rental_uris": {"android": "https://dc.lft.to/lastmile_qr_scan", "ios": "https://dc.lft.to/lastmile_qr_scan"}, "fusion_lon": 0.0}, {"lat": 38.922643, "is_disabled": 0, "type": "electric_bike", "lon": -77.032855, "bike_id": "f24b936db2678fe3dcc0279029c4a0ae", "fusion_lat": 0.0, "name": "f24b936db2678fe3dcc0279029c4a0ae", "is_reserved": 0, "rental_uris": {"android": "https://dc.lft.to/lastmile_qr_scan", "ios": "https://dc.lft.to/lastmile_qr_scan"}, "fusion_lon": 0.0}, {"lat": 38.91011, "is_disabled": 0, "type": "electric_scooter", "lon": -77.04441666666666, "bike_id": "fb63540a3356318232a207975b259a47", "fusion_lat": 0.0, "name": "fb63540a3356318232a207975b259a47", "is_reserved": 0, "rental_uris": {"android": "https://dc.lft.to/lastmile_qr_scan", "ios": "https://dc.lft.to/lastmile_qr_scan"}, "fusion_lon": 0.0}, {"lat": 38.90957016666667, "is_disabled": 0, "type": "electric_scooter", "lon": -77.02276483333333, "bike_id": "15a1309e18d9d4bf4f77ff8bd88f4b56", "fusion_lat": 0.0, "name": "15a1309e18d9d4bf4f77ff8bd88f4b56", "is_reserved": 0, "rental_uris": {"android": "https://dc.lft.to/lastmile_qr_scan", "ios": "https://dc.lft.to/lastmile_qr_scan"}, "fusion_lon": 0.0}, {"lat": 38.86519716666667, "is_disabled": 0, "type": "electric_scooter", "lon": -76.99028766666666, "bike_id": "df46ea05198d06b41db0a7d6a6d058fa", "fusion_lat": 0.0, "name": "df46ea05198d06b41db0a7d6a6d058fa", "is_reserved": 0, "rental_uris": {"android": "https://dc.lft.to/lastmile_qr_scan", "ios": "https://dc.lft.to/lastmile_qr_scan"}, "fusion_lon": 0.0}, {"lat": 38.901527, "is_disabled": 0, "type": "electric_scooter", "lon": -77.03919916666666, "bike_id": "839fdf8b30e44b43f8ecbeaf242d8d9e", "fusion_lat": 0.0, "name": "839fdf8b30e44b43f8ecbeaf242d8d9e", "is_reserved": 0, "rental_uris": {"android": "https://dc.lft.to/lastmile_qr_scan", "ios": "https://dc.lft.to/lastmile_qr_scan"}, "fusion_lon": 0.0}, {"lat": 38.9084535, "is_disabled": 0, "type": "electric_scooter", "lon": -77.02055016666667, "bike_id": "7cc009fc39082fa43e660468ecf1f33e", "fusion_lat": 0.0, "name": "7cc009fc39082fa43e660468ecf1f33e", "is_reserved": 0, "rental_uris": {"android": "https://dc.lft.to/lastmile_qr_scan", "ios": "https://dc.lft.to/lastmile_qr_scan"}, "fusion_lon": 0.0}, {"lat": 38.86659233333334, "is_disabled": 0, "type": "electric_scooter", "lon": -76.98885266666667, "bike_id": "c80d72b5195c4fe46d7cac81b2f13873", "fusion_lat": 0.0, "name": "c80d72b5195c4fe46d7cac81b2f13873", "is_reserved": 0, "rental_uris": {"android": "https://dc.lft.to/lastmile_qr_scan", "ios": "https://dc.lft.to/lastmile_qr_scan"}, "fusion_lon": 0.0}, {"lat": 38.9054365, "is_disabled": 0, "type": "electric_scooter", "lon": -77.03240966666667, "bike_id": "db2e600d44e391e33d5098a79c37c19a", "fusion_lat": 0.0, "name": "db2e600d44e391e33d5098a79c37c19a", "is_reserved": 0, "rental_uris": {"android": "https://dc.lft.to/lastmile_qr_scan", "ios": "https://dc.lft.to/lastmile_qr_scan"}, "fusion_lon": 0.0}, {"lat": 38.88497533333334, "is_disabled": 0, "type": "electric_scooter", "lon": -77.00706116666667, "bike_id": "c973e46740a9b20b2faedeceeb8cb124", "fusion_lat": 0.0, "name": "c973e46740a9b20b2faedeceeb8cb124", "is_reserved": 0, "rental_uris": {"android": "https://dc.lft.to/lastmile_qr_scan", "ios": "https://dc.lft.to/lastmile_qr_scan"}, "fusion_lon": 0.0}, {"lat": 38.800609666666666, "is_disabled": 0, "type": "electric_bike", "lon": -77.07107866666666, "bike_id": "976c358628be1d8c52211e6b4a4bc279", "fusion_lat": 0.0, "name": "976c358628be1d8c52211e6b4a4bc279", "is_reserved": 0, "rental_uris": {"android": "https://dc.lft.to/lastmile_qr_scan", "ios": "https://dc.lft.to/lastmile_qr_scan"}, "fusion_lon": 0.0}, {"lat": 38.940424166666666, "is_disabled": 0, "type": "electric_bike", "lon": -76.9881765, "bike_id": "7fd7a8402efb0971f25d03fb92217df3", "fusion_lat": 0.0, "name": "7fd7a8402efb0971f25d03fb92217df3", "is_reserved": 0, "rental_uris": {"android": "https://dc.lft.to/lastmile_qr_scan", "ios": "https://dc.lft.to/lastmile_qr_scan"}, "fusion_lon": 0.0}, {"lat": 38.9207265, "is_disabled": 0, "type": "electric_scooter", "lon": -77.02536383333333, "bike_id": "8a857125986637a4f0513d39c135d794", "fusion_lat": 0.0, "name": "8a857125986637a4f0513d39c135d794", "is_reserved": 0, "rental_uris": {"android": "https://dc.lft.to/lastmile_qr_scan", "ios": "https://dc.lft.to/lastmile_qr_scan"}, "fusion_lon": 0.0}, {"lat": 38.927339333333336, "is_disabled": 0, "type": "electric_scooter", "lon": -77.02245116666667, "bike_id": "760ea14baa035d28965f30ccddb7f4ec", "fusion_lat": 0.0, "name": "760ea14baa035d28965f30ccddb7f4ec", "is_reserved": 0, "rental_uris": {"android": "https://dc.lft.to/lastmile_qr_scan", "ios": "https://dc.lft.to/lastmile_qr_scan"}, "fusion_lon": 0.0}, {"lat": 38.9131355, "is_disabled": 0, "type": "electric_scooter", "lon": -77.044801, "bike_id": "8c98c5f06be9a0e073be8dbc03b03777", "fusion_lat": 0.0, "name": "8c98c5f06be9a0e073be8dbc03b03777", "is_reserved": 0, "rental_uris": {"android": "https://dc.lft.to/lastmile_qr_scan", "ios": "https://dc.lft.to/lastmile_qr_scan"}, "fusion_lon": 0.0}, {"lat": 38.8860325, "is_disabled": 0, "type": "electric_scooter", "lon": -77.0217995, "bike_id": "d69cd5eb4b651d93d04a91d6ead1a3ce", "fusion_lat": 0.0, "name": "d69cd5eb4b651d93d04a91d6ead1a3ce", "is_reserved": 0, "rental_uris": {"android": "https://dc.lft.to/lastmile_qr_scan", "ios": "https://dc.lft.to/lastmile_qr_scan"}, "fusion_lon": 0.0}, {"lat": 38.916921333333335, "is_disabled": 0, "type": "electric_scooter", "lon": -77.037448, "bike_id": "1ca59cc71a6da33eb8b5beaa74222f83", "fusion_lat": 0.0, "name": "1ca59cc71a6da33eb8b5beaa74222f83", "is_reserved": 0, "rental_uris": {"android": "https://dc.lft.to/lastmile_qr_scan", "ios": "https://dc.lft.to/lastmile_qr_scan"}, "fusion_lon": 0.0}, {"lat": 38.926780666666666, "is_disabled": 0, "type": "electric_scooter", "lon": -77.01490616666666, "bike_id": "ff4a0c9741076615d4ca797407227339", "fusion_lat": 0.0, "name": "ff4a0c9741076615d4ca797407227339", "is_reserved": 0, "rental_uris": {"android": "https://dc.lft.to/lastmile_qr_scan", "ios": "https://dc.lft.to/lastmile_qr_scan"}, "fusion_lon": 0.0}, {"lat": 38.902637166666665, "is_disabled": 0, "type": "electric_scooter", "lon": -77.0363665, "bike_id": "524846a6f2b48db5775b6a91f2b5e74f", "fusion_lat": 0.0, "name": "524846a6f2b48db5775b6a91f2b5e74f", "is_reserved": 0, "rental_uris": {"android": "https://dc.lft.to/lastmile_qr_scan", "ios": "https://dc.lft.to/lastmile_qr_scan"}, "fusion_lon": 0.0}, {"lat": 38.914139, "is_disabled": 0, "type": "electric_scooter", "lon": -77.02944966666666, "bike_id": "28bb23c5c708126f14691cc0fe5e96b3", "fusion_lat": 0.0, "name": "28bb23c5c708126f14691cc0fe5e96b3", "is_reserved": 0, "rental_uris": {"android": "https://dc.lft.to/lastmile_qr_scan", "ios": "https://dc.lft.to/lastmile_qr_scan"}, "fusion_lon": 0.0}, {"lat": 38.923213833333335, "is_disabled": 0, "type": "electric_scooter", "lon": -77.03633683333334, "bike_id": "bd6721e9b6952e71aafd580b9cb5de93", "fusion_lat": 0.0, "name": "bd6721e9b6952e71aafd580b9cb5de93", "is_reserved": 0, "rental_uris": {"android": "https://dc.lft.to/lastmile_qr_scan", "ios": "https://dc.lft.to/lastmile_qr_scan"}, "fusion_lon": 0.0}, {"lat": 38.92253433333333, "is_disabled": 0, "type": "electric_scooter", "lon": -77.02339366666666, "bike_id": "bd209f653faf88d33cd10a12064f8a5b", "fusion_lat": 0.0, "name": "bd209f653faf88d33cd10a12064f8a5b", "is_reserved": 0, "rental_uris": {"android": "https://dc.lft.to/lastmile_qr_scan", "ios": "https://dc.lft.to/lastmile_qr_scan"}, "fusion_lon": 0.0}, {"lat": 38.90280766666667, "is_disabled": 0, "type": "electric_scooter", "lon": -77.043831, "bike_id": "cb686376a32b3b91a9ae5dbe672eb9ca", "fusion_lat": 0.0, "name": "cb686376a32b3b91a9ae5dbe672eb9ca", "is_reserved": 0, "rental_uris": {"android": "https://dc.lft.to/lastmile_qr_scan", "ios": "https://dc.lft.to/lastmile_qr_scan"}, "fusion_lon": 0.0}, {"lat": 38.9117595, "is_disabled": 0, "type": "electric_scooter", "lon": -77.03182166666667, "bike_id": "1ead1740376dede7133987e7a5ccc8d2", "fusion_lat": 0.0, "name": "1ead1740376dede7133987e7a5ccc8d2", "is_reserved": 0, "rental_uris": {"android": "https://dc.lft.to/lastmile_qr_scan", "ios": "https://dc.lft.to/lastmile_qr_scan"}, "fusion_lon": 0.0}, {"lat": 38.933798333333336, "is_disabled": 0, "type": "electric_scooter", "lon": -77.0324645, "bike_id": "8804dbb0f3029356d8d96534b29e5a8e", "fusion_lat": 0.0, "name": "8804dbb0f3029356d8d96534b29e5a8e", "is_reserved": 0, "rental_uris": {"android": "https://dc.lft.to/lastmile_qr_scan", "ios": "https://dc.lft.to/lastmile_qr_scan"}, "fusion_lon": 0.0}, {"lat": 38.9042595, "is_disabled": 0, "type": "electric_scooter", "lon": -77.0531845, "bike_id": "7a28ab7c3df5e0efa1f402b467889281", "fusion_lat": 0.0, "name": "7a28ab7c3df5e0efa1f402b467889281", "is_reserved": 0, "rental_uris": {"android": "https://dc.lft.to/lastmile_qr_scan", "ios": "https://dc.lft.to/lastmile_qr_scan"}, "fusion_lon": 0.0}, {"lat": 38.90749916666667, "is_disabled": 0, "type": "electric_scooter", "lon": -77.04150616666666, "bike_id": "f8e991bc34413bfb76ca4761a6f8cfa0", "fusion_lat": 0.0, "name": "f8e991bc34413bfb76ca4761a6f8cfa0", "is_reserved": 0, "rental_uris": {"android": "https://dc.lft.to/lastmile_qr_scan", "ios": "https://dc.lft.to/lastmile_qr_scan"}, "fusion_lon": 0.0}, {"lat": 38.91494216666667, "is_disabled": 0, "type": "electric_scooter", "lon": -76.98351566666666, "bike_id": "1fe0128c1533fc96117174530a3488f2", "fusion_lat": 0.0, "name": "1fe0128c1533fc96117174530a3488f2", "is_reserved": 0, "rental_uris": {"android": "https://dc.lft.to/lastmile_qr_scan", "ios": "https://dc.lft.to/lastmile_qr_scan"}, "fusion_lon": 0.0}, {"lat": 38.914671, "is_disabled": 0, "type": "electric_scooter", "lon": -77.01425183333333, "bike_id": "5661bd3fd79e2898e9c35c7edf09d272", "fusion_lat": 0.0, "name": "5661bd3fd79e2898e9c35c7edf09d272", "is_reserved": 0, "rental_uris": {"android": "https://dc.lft.to/lastmile_qr_scan", "ios": "https://dc.lft.to/lastmile_qr_scan"}, "fusion_lon": 0.0}, {"lat": 38.908853, "is_disabled": 0, "type": "electric_scooter", "lon": -77.03660083333334, "bike_id": "2e1ba2eda737439fcad5faac8da36f81", "fusion_lat": 0.0, "name": "2e1ba2eda737439fcad5faac8da36f81", "is_reserved": 0, "rental_uris": {"android": "https://dc.lft.to/lastmile_qr_scan", "ios": "https://dc.lft.to/lastmile_qr_scan"}, "fusion_lon": 0.0}, {"lat": 38.86616883333333, "is_disabled": 0, "type": "electric_scooter", "lon": -76.98659283333333, "bike_id": "239ea037772b56ff0f40683db9d52ddc", "fusion_lat": 0.0, "name": "239ea037772b56ff0f40683db9d52ddc", "is_reserved": 0, "rental_uris": {"android": "https://dc.lft.to/lastmile_qr_scan", "ios": "https://dc.lft.to/lastmile_qr_scan"}, "fusion_lon": 0.0}, {"lat": 38.88278066666667, "is_disabled": 0, "type": "electric_bike", "lon": -76.93235733333333, "bike_id": "8e86f41c0127ab458d992a4a6515c762", "fusion_lat": 0.0, "name": "8e86f41c0127ab458d992a4a6515c762", "is_reserved": 0, "rental_uris": {"android": "https://dc.lft.to/lastmile_qr_scan", "ios": "https://dc.lft.to/lastmile_qr_scan"}, "fusion_lon": 0.0}, {"lat": 38.94654033333333, "is_disabled": 0, "type": "electric_scooter", "lon": -77.03651033333334, "bike_id": "b96609fc294f73235f6910f5a6b7f874", "fusion_lat": 0.0, "name": "b96609fc294f73235f6910f5a6b7f874", "is_reserved": 0, "rental_uris": {"android": "https://dc.lft.to/lastmile_qr_scan", "ios": "https://dc.lft.to/lastmile_qr_scan"}, "fusion_lon": 0.0}, {"lat": 38.90347216666667, "is_disabled": 0, "type": "electric_scooter", "lon": -77.00213833333333, "bike_id": "31684d53983c39569da6fd3e0d340a3d", "fusion_lat": 0.0, "name": "31684d53983c39569da6fd3e0d340a3d", "is_reserved": 0, "rental_uris": {"android": "https://dc.lft.to/lastmile_qr_scan", "ios": "https://dc.lft.to/lastmile_qr_scan"}, "fusion_lon": 0.0}, {"lat": 38.93575633333333, "is_disabled": 0, "type": "electric_scooter", "lon": -77.0374855, "bike_id": "7b3da49671f277d287b0f49df068c415", "fusion_lat": 0.0, "name": "7b3da49671f277d287b0f49df068c415", "is_reserved": 0, "rental_uris": {"android": "https://dc.lft.to/lastmile_qr_scan", "ios": "https://dc.lft.to/lastmile_qr_scan"}, "fusion_lon": 0.0}, {"lat": 38.90147266666666, "is_disabled": 0, "type": "electric_scooter", "lon": -77.05104166666666, "bike_id": "8f19c923bc8726fba8f5aa5dd116558b", "fusion_lat": 0.0, "name": "8f19c923bc8726fba8f5aa5dd116558b", "is_reserved": 0, "rental_uris": {"android": "https://dc.lft.to/lastmile_qr_scan", "ios": "https://dc.lft.to/lastmile_qr_scan"}, "fusion_lon": 0.0}, {"lat": 38.894220833333335, "is_disabled": 0, "type": "electric_scooter", "lon": -77.02080833333333, "bike_id": "ac9ccdab460aba9ae542d73ed4642266", "fusion_lat": 0.0, "name": "ac9ccdab460aba9ae542d73ed4642266", "is_reserved": 0, "rental_uris": {"android": "https://dc.lft.to/lastmile_qr_scan", "ios": "https://dc.lft.to/lastmile_qr_scan"}, "fusion_lon": 0.0}, {"lat": 38.90337733333333, "is_disabled": 0, "type": "electric_scooter", "lon": -76.97058633333333, "bike_id": "7a539d3bb81068ddd01b7ed20e7c232f", "fusion_lat": 0.0, "name": "7a539d3bb81068ddd01b7ed20e7c232f", "is_reserved": 0, "rental_uris": {"android": "https://dc.lft.to/lastmile_qr_scan", "ios": "https://dc.lft.to/lastmile_qr_scan"}, "fusion_lon": 0.0}, {"lat": 38.902543333333334, "is_disabled": 0, "type": "electric_scooter", "lon": -77.040349, "bike_id": "d0211ed932affddd25b6cb46a62abeaf", "fusion_lat": 0.0, "name": "d0211ed932affddd25b6cb46a62abeaf", "is_reserved": 0, "rental_uris": {"android": "https://dc.lft.to/lastmile_qr_scan", "ios": "https://dc.lft.to/lastmile_qr_scan"}, "fusion_lon": 0.0}, {"lat": 38.92603316666667, "is_disabled": 0, "type": "electric_scooter", "lon": -77.0215125, "bike_id": "dffd38d7cae18e37743c67ebf5c00ce3", "fusion_lat": 0.0, "name": "dffd38d7cae18e37743c67ebf5c00ce3", "is_reserved": 0, "rental_uris": {"android": "https://dc.lft.to/lastmile_qr_scan", "ios": "https://dc.lft.to/lastmile_qr_scan"}, "fusion_lon": 0.0}, {"lat": 38.950818, "is_disabled": 0, "type": "electric_bike", "lon": -77.01202766666667, "bike_id": "c9f66b23736dfb945962f80492c39b5b", "fusion_lat": 0.0, "name": "c9f66b23736dfb945962f80492c39b5b", "is_reserved": 0, "rental_uris": {"android": "https://dc.lft.to/lastmile_qr_scan", "ios": "https://dc.lft.to/lastmile_qr_scan"}, "fusion_lon": 0.0}, {"lat": 38.9062355, "is_disabled": 0, "type": "electric_scooter", "lon": -77.02178583333334, "bike_id": "b2221f7eb9142875529a080ffa15df94", "fusion_lat": 0.0, "name": "b2221f7eb9142875529a080ffa15df94", "is_reserved": 0, "rental_uris": {"android": "https://dc.lft.to/lastmile_qr_scan", "ios": "https://dc.lft.to/lastmile_qr_scan"}, "fusion_lon": 0.0}, {"lat": 38.91326016666667, "is_disabled": 0, "type": "electric_scooter", "lon": -77.03181883333333, "bike_id": "9c93fbffc3d0f0dbb0a57186cad6e4df", "fusion_lat": 0.0, "name": "9c93fbffc3d0f0dbb0a57186cad6e4df", "is_reserved": 0, "rental_uris": {"android": "https://dc.lft.to/lastmile_qr_scan", "ios": "https://dc.lft.to/lastmile_qr_scan"}, "fusion_lon": 0.0}, {"lat": 38.8922555, "is_disabled": 0, "type": "electric_bike", "lon": -77.03442883333334, "bike_id": "cbbaba04604965e9e049ef7261b7cbd9", "fusion_lat": 0.0, "name": "cbbaba04604965e9e049ef7261b7cbd9", "is_reserved": 0, "rental_uris": {"android": "https://dc.lft.to/lastmile_qr_scan", "ios": "https://dc.lft.to/lastmile_qr_scan"}, "fusion_lon": 0.0}, {"lat": 38.9063745, "is_disabled": 0, "type": "electric_scooter", "lon": -77.03383083333334, "bike_id": "58be8865a08face21966859d7c5076ed", "fusion_lat": 0.0, "name": "58be8865a08face21966859d7c5076ed", "is_reserved": 0, "rental_uris": {"android": "https://dc.lft.to/lastmile_qr_scan", "ios": "https://dc.lft.to/lastmile_qr_scan"}, "fusion_lon": 0.0}, {"lat": 38.923267, "is_disabled": 0, "type": "electric_scooter", "lon": -77.04302616666666, "bike_id": "ce3aa52d25625cdc43b992b039647c73", "fusion_lat": 0.0, "name": "ce3aa52d25625cdc43b992b039647c73", "is_reserved": 0, "rental_uris": {"android": "https://dc.lft.to/lastmile_qr_scan", "ios": "https://dc.lft.to/lastmile_qr_scan"}, "fusion_lon": 0.0}, {"lat": 38.880189666666666, "is_disabled": 0, "type": "electric_scooter", "lon": -76.96012416666667, "bike_id": "ff8ec4ae02d47e220420c56c3b11c9b5", "fusion_lat": 0.0, "name": "ff8ec4ae02d47e220420c56c3b11c9b5", "is_reserved": 0, "rental_uris": {"android": "https://dc.lft.to/lastmile_qr_scan", "ios": "https://dc.lft.to/lastmile_qr_scan"}, "fusion_lon": 0.0}, {"lat": 38.938731, "is_disabled": 0, "type": "electric_scooter", "lon": -77.0311835, "bike_id": "7a7d4985bcc3b0f46a2d90949072139e", "fusion_lat": 0.0, "name": "7a7d4985bcc3b0f46a2d90949072139e", "is_reserved": 0, "rental_uris": {"android": "https://dc.lft.to/lastmile_qr_scan", "ios": "https://dc.lft.to/lastmile_qr_scan"}, "fusion_lon": 0.0}, {"lat": 38.920648666666665, "is_disabled": 0, "type": "electric_scooter", "lon": -77.043728, "bike_id": "d5560a3979592a9d4029c7f4bb410879", "fusion_lat": 0.0, "name": "d5560a3979592a9d4029c7f4bb410879", "is_reserved": 0, "rental_uris": {"android": "https://dc.lft.to/lastmile_qr_scan", "ios": "https://dc.lft.to/lastmile_qr_scan"}, "fusion_lon": 0.0}, {"lat": 38.93860933333333, "is_disabled": 0, "type": "electric_scooter", "lon": -77.03079883333334, "bike_id": "846c186eb1c7f8645fcb3995a6a5f136", "fusion_lat": 0.0, "name": "846c186eb1c7f8645fcb3995a6a5f136", "is_reserved": 0, "rental_uris": {"android": "https://dc.lft.to/lastmile_qr_scan", "ios": "https://dc.lft.to/lastmile_qr_scan"}, "fusion_lon": 0.0}, {"lat": 38.90661, "is_disabled": 0, "type": "electric_scooter", "lon": -77.02678683333333, "bike_id": "9dfa25ab7316b118adfea6b309355ea2", "fusion_lat": 0.0, "name": "9dfa25ab7316b118adfea6b309355ea2", "is_reserved": 0, "rental_uris": {"android": "https://dc.lft.to/lastmile_qr_scan", "ios": "https://dc.lft.to/lastmile_qr_scan"}, "fusion_lon": 0.0}, {"lat": 38.9528965, "is_disabled": 0, "type": "electric_scooter", "lon": -77.08156466666667, "bike_id": "48c6a8ab100948cfbb3df34ce1edd083", "fusion_lat": 0.0, "name": "48c6a8ab100948cfbb3df34ce1edd083", "is_reserved": 0, "rental_uris": {"android": "https://dc.lft.to/lastmile_qr_scan", "ios": "https://dc.lft.to/lastmile_qr_scan"}, "fusion_lon": 0.0}, {"lat": 38.916953, "is_disabled": 0, "type": "electric_scooter", "lon": -77.03742866666667, "bike_id": "6269c7537a26a5226b008c68f2977087", "fusion_lat": 0.0, "name": "6269c7537a26a5226b008c68f2977087", "is_reserved": 0, "rental_uris": {"android": "https://dc.lft.to/lastmile_qr_scan", "ios": "https://dc.lft.to/lastmile_qr_scan"}, "fusion_lon": 0.0}, {"lat": 38.86656, "is_disabled": 0, "type": "electric_scooter", "lon": -76.9888145, "bike_id": "a98e208903e635b69bfe58d33c046873", "fusion_lat": 0.0, "name": "a98e208903e635b69bfe58d33c046873", "is_reserved": 0, "rental_uris": {"android": "https://dc.lft.to/lastmile_qr_scan", "ios": "https://dc.lft.to/lastmile_qr_scan"}, "fusion_lon": 0.0}, {"lat": 38.863868333333336, "is_disabled": 0, "type": "electric_bike", "lon": -76.989856, "bike_id": "e172f7f1ddcb770377ad179dcf1b60d2", "fusion_lat": 0.0, "name": "e172f7f1ddcb770377ad179dcf1b60d2", "is_reserved": 0, "rental_uris": {"android": "https://dc.lft.to/lastmile_qr_scan", "ios": "https://dc.lft.to/lastmile_qr_scan"}, "fusion_lon": 0.0}, {"lat": 38.86555416666667, "is_disabled": 0, "type": "electric_scooter", "lon": -76.974176, "bike_id": "f790e2c8933d1305e1d9b29aafe131d2", "fusion_lat": 0.0, "name": "f790e2c8933d1305e1d9b29aafe131d2", "is_reserved": 0, "rental_uris": {"android": "https://dc.lft.to/lastmile_qr_scan", "ios": "https://dc.lft.to/lastmile_qr_scan"}, "fusion_lon": 0.0}, {"lat": 38.933719333333336, "is_disabled": 0, "type": "electric_scooter", "lon": -77.02366716666667, "bike_id": "ab64b9d7ce3829271b2107668cd3cecc", "fusion_lat": 0.0, "name": "ab64b9d7ce3829271b2107668cd3cecc", "is_reserved": 0, "rental_uris": {"android": "https://dc.lft.to/lastmile_qr_scan", "ios": "https://dc.lft.to/lastmile_qr_scan"}, "fusion_lon": 0.0}, {"lat": 38.95332333333333, "is_disabled": 0, "type": "electric_bike", "lon": -76.97360483333334, "bike_id": "e4ba3d1f694004a046e7e44fd1d8d404", "fusion_lat": 0.0, "name": "e4ba3d1f694004a046e7e44fd1d8d404", "is_reserved": 0, "rental_uris": {"android": "https://dc.lft.to/lastmile_qr_scan", "ios": "https://dc.lft.to/lastmile_qr_scan"}, "fusion_lon": 0.0}, {"lat": 38.937400833333335, "is_disabled": 0, "type": "electric_scooter", "lon": -77.03613083333333, "bike_id": "ee0a93a0870e3ece2302c07ecd23ce0c", "fusion_lat": 0.0, "name": "ee0a93a0870e3ece2302c07ecd23ce0c", "is_reserved": 0, "rental_uris": {"android": "https://dc.lft.to/lastmile_qr_scan", "ios": "https://dc.lft.to/lastmile_qr_scan"}, "fusion_lon": 0.0}, {"lat": 38.934681833333336, "is_disabled": 0, "type": "electric_scooter", "lon": -77.06186766666667, "bike_id": "0bf92f61987b6c5d5f2fb89e57b519eb", "fusion_lat": 0.0, "name": "0bf92f61987b6c5d5f2fb89e57b519eb", "is_reserved": 0, "rental_uris": {"android": "https://dc.lft.to/lastmile_qr_scan", "ios": "https://dc.lft.to/lastmile_qr_scan"}, "fusion_lon": 0.0}, {"lat": 38.93132333333333, "is_disabled": 0, "type": "electric_scooter", "lon": -77.03252833333333, "bike_id": "c12ca7e8e01d9626bc0569b5ca3db1ac", "fusion_lat": 0.0, "name": "c12ca7e8e01d9626bc0569b5ca3db1ac", "is_reserved": 0, "rental_uris": {"android": "https://dc.lft.to/lastmile_qr_scan", "ios": "https://dc.lft.to/lastmile_qr_scan"}, "fusion_lon": 0.0}, {"lat": 38.9008575, "is_disabled": 0, "type": "electric_scooter", "lon": -77.04907333333334, "bike_id": "f9a214de623345264d11b8fe29082e44", "fusion_lat": 0.0, "name": "f9a214de623345264d11b8fe29082e44", "is_reserved": 0, "rental_uris": {"android": "https://dc.lft.to/lastmile_qr_scan", "ios": "https://dc.lft.to/lastmile_qr_scan"}, "fusion_lon": 0.0}, {"lat": 39.00020266666667, "is_disabled": 0, "type": "electric_bike", "lon": -76.91079066666667, "bike_id": "9eac857aae5acabe4cbc2f6cde3f60c5", "fusion_lat": 0.0, "name": "9eac857aae5acabe4cbc2f6cde3f60c5", "is_reserved": 0, "rental_uris": {"android": "https://dc.lft.to/lastmile_qr_scan", "ios": "https://dc.lft.to/lastmile_qr_scan"}, "fusion_lon": 0.0}, {"lat": 38.925777, "is_disabled": 0, "type": "electric_scooter", "lon": -77.02836116666667, "bike_id": "795468b327d6165e1cc0b4d41922a645", "fusion_lat": 0.0, "name": "795468b327d6165e1cc0b4d41922a645", "is_reserved": 0, "rental_uris": {"android": "https://dc.lft.to/lastmile_qr_scan", "ios": "https://dc.lft.to/lastmile_qr_scan"}, "fusion_lon": 0.0}, {"lat": 38.92611683333333, "is_disabled": 0, "type": "electric_scooter", "lon": -77.02159183333333, "bike_id": "f580de7d724afe4d06611bbcf9347e98", "fusion_lat": 0.0, "name": "f580de7d724afe4d06611bbcf9347e98", "is_reserved": 0, "rental_uris": {"android": "https://dc.lft.to/lastmile_qr_scan", "ios": "https://dc.lft.to/lastmile_qr_scan"}, "fusion_lon": 0.0}, {"lat": 38.88487883333333, "is_disabled": 0, "type": "electric_scooter", "lon": -77.00709083333334, "bike_id": "e2f1c9dffbc8c25ce28280d291e3f2f3", "fusion_lat": 0.0, "name": "e2f1c9dffbc8c25ce28280d291e3f2f3", "is_reserved": 0, "rental_uris": {"android": "https://dc.lft.to/lastmile_qr_scan", "ios": "https://dc.lft.to/lastmile_qr_scan"}, "fusion_lon": 0.0}, {"lat": 38.994070666666666, "is_disabled": 0, "type": "electric_bike", "lon": -77.03178583333333, "bike_id": "7859b70f5ec0d33717085d5b2943621b", "fusion_lat": 0.0, "name": "7859b70f5ec0d33717085d5b2943621b", "is_reserved": 0, "rental_uris": {"android": "https://dc.lft.to/lastmile_qr_scan", "ios": "https://dc.lft.to/lastmile_qr_scan"}, "fusion_lon": 0.0}, {"lat": 38.87965833333333, "is_disabled": 0, "type": "electric_scooter", "lon": -76.9873905, "bike_id": "12be286924cb889cfbaaca50be7f4ad5", "fusion_lat": 0.0, "name": "12be286924cb889cfbaaca50be7f4ad5", "is_reserved": 0, "rental_uris": {"android": "https://dc.lft.to/lastmile_qr_scan", "ios": "https://dc.lft.to/lastmile_qr_scan"}, "fusion_lon": 0.0}, {"lat": 38.90012883333333, "is_disabled": 0, "type": "electric_scooter", "lon": -77.01198116666667, "bike_id": "2d234f7a1df2c4606af31e6a0d45e648", "fusion_lat": 0.0, "name": "2d234f7a1df2c4606af31e6a0d45e648", "is_reserved": 0, "rental_uris": {"android": "https://dc.lft.to/lastmile_qr_scan", "ios": "https://dc.lft.to/lastmile_qr_scan"}, "fusion_lon": 0.0}, {"lat": 38.92574, "is_disabled": 0, "type": "electric_scooter", "lon": -76.98608783333333, "bike_id": "aa7e40598cd08b8ae8d78879547d0e87", "fusion_lat": 0.0, "name": "aa7e40598cd08b8ae8d78879547d0e87", "is_reserved": 0, "rental_uris": {"android": "https://dc.lft.to/lastmile_qr_scan", "ios": "https://dc.lft.to/lastmile_qr_scan"}, "fusion_lon": 0.0}, {"lat": 38.9167425, "is_disabled": 0, "type": "electric_scooter", "lon": -77.02590383333333, "bike_id": "c26c1ed92518a759dff8316fdbb6a11a", "fusion_lat": 0.0, "name": "c26c1ed92518a759dff8316fdbb6a11a", "is_reserved": 0, "rental_uris": {"android": "https://dc.lft.to/lastmile_qr_scan", "ios": "https://dc.lft.to/lastmile_qr_scan"}, "fusion_lon": 0.0}, {"lat": 38.923746333333334, "is_disabled": 0, "type": "electric_scooter", "lon": -77.029154, "bike_id": "53badc1ccecbc74f872d14230554ae14", "fusion_lat": 0.0, "name": "53badc1ccecbc74f872d14230554ae14", "is_reserved": 0, "rental_uris": {"android": "https://dc.lft.to/lastmile_qr_scan", "ios": "https://dc.lft.to/lastmile_qr_scan"}, "fusion_lon": 0.0}, {"lat": 38.84293433333333, "is_disabled": 0, "type": "electric_scooter", "lon": -76.99943583333334, "bike_id": "761d556ab988eaaea00251adea1ca3ca", "fusion_lat": 0.0, "name": "761d556ab988eaaea00251adea1ca3ca", "is_reserved": 0, "rental_uris": {"android": "https://dc.lft.to/lastmile_qr_scan", "ios": "https://dc.lft.to/lastmile_qr_scan"}, "fusion_lon": 0.0}, {"lat": 38.90259116666667, "is_disabled": 0, "type": "electric_scooter", "lon": -77.05410683333334, "bike_id": "014fc7fc7a202dbb726327192214bf2b", "fusion_lat": 0.0, "name": "014fc7fc7a202dbb726327192214bf2b", "is_reserved": 0, "rental_uris": {"android": "https://dc.lft.to/lastmile_qr_scan", "ios": "https://dc.lft.to/lastmile_qr_scan"}, "fusion_lon": 0.0}, {"lat": 38.92144416666667, "is_disabled": 0, "type": "electric_scooter", "lon": -77.03506416666667, "bike_id": "7767ae8e7ebfb02850ed8edda824badb", "fusion_lat": 0.0, "name": "7767ae8e7ebfb02850ed8edda824badb", "is_reserved": 0, "rental_uris": {"android": "https://dc.lft.to/lastmile_qr_scan", "ios": "https://dc.lft.to/lastmile_qr_scan"}, "fusion_lon": 0.0}, {"lat": 38.8866945, "is_disabled": 0, "type": "electric_scooter", "lon": -76.99028333333334, "bike_id": "5c6452e783b3df0e387c2b91dfc0eaac", "fusion_lat": 0.0, "name": "5c6452e783b3df0e387c2b91dfc0eaac", "is_reserved": 0, "rental_uris": {"android": "https://dc.lft.to/lastmile_qr_scan", "ios": "https://dc.lft.to/lastmile_qr_scan"}, "fusion_lon": 0.0}, {"lat": 38.90957083333333, "is_disabled": 0, "type": "electric_scooter", "lon": -77.0482015, "bike_id": "4dc9ec2d642bc645cd63b26a79e9f48d", "fusion_lat": 0.0, "name": "4dc9ec2d642bc645cd63b26a79e9f48d", "is_reserved": 0, "rental_uris": {"android": "https://dc.lft.to/lastmile_qr_scan", "ios": "https://dc.lft.to/lastmile_qr_scan"}, "fusion_lon": 0.0}, {"lat": 39.0750065, "is_disabled": 0, "type": "electric_bike", "lon": -77.11896833333333, "bike_id": "2a29b99e44264461cc60633e638e3337", "fusion_lat": 0.0, "name": "2a29b99e44264461cc60633e638e3337", "is_reserved": 0, "rental_uris": {"android": "https://dc.lft.to/lastmile_qr_scan", "ios": "https://dc.lft.to/lastmile_qr_scan"}, "fusion_lon": 0.0}, {"lat": 38.9210415, "is_disabled": 0, "type": "electric_scooter", "lon": -77.045634, "bike_id": "8fcd76263a4664a70ff046a077f28e1e", "fusion_lat": 0.0, "name": "8fcd76263a4664a70ff046a077f28e1e", "is_reserved": 0, "rental_uris": {"android": "https://dc.lft.to/lastmile_qr_scan", "ios": "https://dc.lft.to/lastmile_qr_scan"}, "fusion_lon": 0.0}, {"lat": 38.9126755, "is_disabled": 0, "type": "electric_scooter", "lon": -77.022465, "bike_id": "7c441fe96641eb188c87f4c92cab39df", "fusion_lat": 0.0, "name": "7c441fe96641eb188c87f4c92cab39df", "is_reserved": 0, "rental_uris": {"android": "https://dc.lft.to/lastmile_qr_scan", "ios": "https://dc.lft.to/lastmile_qr_scan"}, "fusion_lon": 0.0}, {"lat": 38.9110085, "is_disabled": 0, "type": "electric_scooter", "lon": -77.03851566666667, "bike_id": "0d8dc57895e50bd448394ee2b7dd7ced", "fusion_lat": 0.0, "name": "0d8dc57895e50bd448394ee2b7dd7ced", "is_reserved": 0, "rental_uris": {"android": "https://dc.lft.to/lastmile_qr_scan", "ios": "https://dc.lft.to/lastmile_qr_scan"}, "fusion_lon": 0.0}, {"lat": 38.8925225, "is_disabled": 0, "type": "electric_scooter", "lon": -77.04894983333334, "bike_id": "cf9655bdfed242a2c76532d92d42ceeb", "fusion_lat": 0.0, "name": "cf9655bdfed242a2c76532d92d42ceeb", "is_reserved": 0, "rental_uris": {"android": "https://dc.lft.to/lastmile_qr_scan", "ios": "https://dc.lft.to/lastmile_qr_scan"}, "fusion_lon": 0.0}, {"lat": 38.90609766666667, "is_disabled": 0, "type": "electric_scooter", "lon": -77.06349116666667, "bike_id": "267dcdc84af07fb29ef50ea22d969239", "fusion_lat": 0.0, "name": "267dcdc84af07fb29ef50ea22d969239", "is_reserved": 0, "rental_uris": {"android": "https://dc.lft.to/lastmile_qr_scan", "ios": "https://dc.lft.to/lastmile_qr_scan"}, "fusion_lon": 0.0}, {"lat": 38.930924833333336, "is_disabled": 0, "type": "electric_scooter", "lon": -77.0255795, "bike_id": "d92dd80be6e2c2870730b832f99edc08", "fusion_lat": 0.0, "name": "d92dd80be6e2c2870730b832f99edc08", "is_reserved": 0, "rental_uris": {"android": "https://dc.lft.to/lastmile_qr_scan", "ios": "https://dc.lft.to/lastmile_qr_scan"}, "fusion_lon": 0.0}, {"lat": 38.933631166666665, "is_disabled": 0, "type": "electric_scooter", "lon": -77.05744933333334, "bike_id": "13e05dbb78725129b8b4e3f00593a804", "fusion_lat": 0.0, "name": "13e05dbb78725129b8b4e3f00593a804", "is_reserved": 0, "rental_uris": {"android": "https://dc.lft.to/lastmile_qr_scan", "ios": "https://dc.lft.to/lastmile_qr_scan"}, "fusion_lon": 0.0}, {"lat": 38.9056835, "is_disabled": 0, "type": "electric_scooter", "lon": -77.024951, "bike_id": "7b434619d43f35bfc9b0dfb529f41bea", "fusion_lat": 0.0, "name": "7b434619d43f35bfc9b0dfb529f41bea", "is_reserved": 0, "rental_uris": {"android": "https://dc.lft.to/lastmile_qr_scan", "ios": "https://dc.lft.to/lastmile_qr_scan"}, "fusion_lon": 0.0}, {"lat": 38.89830716666667, "is_disabled": 0, "type": "electric_scooter", "lon": -76.93102283333333, "bike_id": "cf2229395a06bca86a870503a8814295", "fusion_lat": 0.0, "name": "cf2229395a06bca86a870503a8814295", "is_reserved": 0, "rental_uris": {"android": "https://dc.lft.to/lastmile_qr_scan", "ios": "https://dc.lft.to/lastmile_qr_scan"}, "fusion_lon": 0.0}, {"lat": 38.925007, "is_disabled": 0, "type": "electric_bike", "lon": -76.98225433333333, "bike_id": "2c5f9161b50609e929866cf0e04489e1", "fusion_lat": 0.0, "name": "2c5f9161b50609e929866cf0e04489e1", "is_reserved": 0, "rental_uris": {"android": "https://dc.lft.to/lastmile_qr_scan", "ios": "https://dc.lft.to/lastmile_qr_scan"}, "fusion_lon": 0.0}, {"lat": 38.9086285, "is_disabled": 0, "type": "electric_bike", "lon": -76.93159083333333, "bike_id": "fc318a984b79d5a1f5a1e9d6c5eae613", "fusion_lat": 0.0, "name": "fc318a984b79d5a1f5a1e9d6c5eae613", "is_reserved": 0, "rental_uris": {"android": "https://dc.lft.to/lastmile_qr_scan", "ios": "https://dc.lft.to/lastmile_qr_scan"}, "fusion_lon": 0.0}, {"lat": 38.906901833333336, "is_disabled": 0, "type": "electric_scooter", "lon": -77.05822766666667, "bike_id": "4c91849f3deaba047c115637a301805a", "fusion_lat": 0.0, "name": "4c91849f3deaba047c115637a301805a", "is_reserved": 0, "rental_uris": {"android": "https://dc.lft.to/lastmile_qr_scan", "ios": "https://dc.lft.to/lastmile_qr_scan"}, "fusion_lon": 0.0}, {"lat": 38.90311533333333, "is_disabled": 0, "type": "electric_scooter", "lon": -76.98986316666667, "bike_id": "ef71b4863a3289343f03c359127e7aad", "fusion_lat": 0.0, "name": "ef71b4863a3289343f03c359127e7aad", "is_reserved": 0, "rental_uris": {"android": "https://dc.lft.to/lastmile_qr_scan", "ios": "https://dc.lft.to/lastmile_qr_scan"}, "fusion_lon": 0.0}, {"lat": 38.96928066666667, "is_disabled": 0, "type": "electric_bike", "lon": -77.02615216666666, "bike_id": "4d52c7f8f0e66402719b007d5f14338d", "fusion_lat": 0.0, "name": "4d52c7f8f0e66402719b007d5f14338d", "is_reserved": 0, "rental_uris": {"android": "https://dc.lft.to/lastmile_qr_scan", "ios": "https://dc.lft.to/lastmile_qr_scan"}, "fusion_lon": 0.0}, {"lat": 38.90455716666666, "is_disabled": 0, "type": "electric_scooter", "lon": -76.99456466666666, "bike_id": "124712844481a42388ea2a0456a958e6", "fusion_lat": 0.0, "name": "124712844481a42388ea2a0456a958e6", "is_reserved": 0, "rental_uris": {"android": "https://dc.lft.to/lastmile_qr_scan", "ios": "https://dc.lft.to/lastmile_qr_scan"}, "fusion_lon": 0.0}, {"lat": 38.9038245, "is_disabled": 0, "type": "electric_scooter", "lon": -77.03416916666667, "bike_id": "e2cd73ad918bd8c5f4eefd25b30c5251", "fusion_lat": 0.0, "name": "e2cd73ad918bd8c5f4eefd25b30c5251", "is_reserved": 0, "rental_uris": {"android": "https://dc.lft.to/lastmile_qr_scan", "ios": "https://dc.lft.to/lastmile_qr_scan"}, "fusion_lon": 0.0}, {"lat": 38.96133966666667, "is_disabled": 0, "type": "electric_scooter", "lon": -77.02231233333333, "bike_id": "880124c8556f3d64f2b3e4c335c619fb", "fusion_lat": 0.0, "name": "880124c8556f3d64f2b3e4c335c619fb", "is_reserved": 0, "rental_uris": {"android": "https://dc.lft.to/lastmile_qr_scan", "ios": "https://dc.lft.to/lastmile_qr_scan"}, "fusion_lon": 0.0}, {"lat": 38.916225833333336, "is_disabled": 0, "type": "electric_scooter", "lon": -77.0228165, "bike_id": "30d2c07cf80a0571eea1176e003a6a32", "fusion_lat": 0.0, "name": "30d2c07cf80a0571eea1176e003a6a32", "is_reserved": 0, "rental_uris": {"android": "https://dc.lft.to/lastmile_qr_scan", "ios": "https://dc.lft.to/lastmile_qr_scan"}, "fusion_lon": 0.0}, {"lat": 38.887750833333335, "is_disabled": 0, "type": "electric_scooter", "lon": -77.03314616666667, "bike_id": "def11775b1965460dc242c0bbf1d991c", "fusion_lat": 0.0, "name": "def11775b1965460dc242c0bbf1d991c", "is_reserved": 0, "rental_uris": {"android": "https://dc.lft.to/lastmile_qr_scan", "ios": "https://dc.lft.to/lastmile_qr_scan"}, "fusion_lon": 0.0}, {"lat": 38.9297335, "is_disabled": 0, "type": "electric_scooter", "lon": -77.01299966666667, "bike_id": "b8540883447d7c9b548c6864095a36da", "fusion_lat": 0.0, "name": "b8540883447d7c9b548c6864095a36da", "is_reserved": 0, "rental_uris": {"android": "https://dc.lft.to/lastmile_qr_scan", "ios": "https://dc.lft.to/lastmile_qr_scan"}, "fusion_lon": 0.0}, {"lat": 38.90659566666667, "is_disabled": 0, "type": "electric_scooter", "lon": -77.03846883333334, "bike_id": "9f637b2d35fb7ae85e786bf447cd467f", "fusion_lat": 0.0, "name": "9f637b2d35fb7ae85e786bf447cd467f", "is_reserved": 0, "rental_uris": {"android": "https://dc.lft.to/lastmile_qr_scan", "ios": "https://dc.lft.to/lastmile_qr_scan"}, "fusion_lon": 0.0}, {"lat": 38.922735833333334, "is_disabled": 0, "type": "electric_scooter", "lon": -77.02237483333333, "bike_id": "5f764161e232d9632f80049465823167", "fusion_lat": 0.0, "name": "5f764161e232d9632f80049465823167", "is_reserved": 0, "rental_uris": {"android": "https://dc.lft.to/lastmile_qr_scan", "ios": "https://dc.lft.to/lastmile_qr_scan"}, "fusion_lon": 0.0}, {"lat": 38.857178166666664, "is_disabled": 0, "type": "electric_bike", "lon": -76.97118716666667, "bike_id": "d91a7993a5017670a0ec73e4f869775b", "fusion_lat": 0.0, "name": "d91a7993a5017670a0ec73e4f869775b", "is_reserved": 0, "rental_uris": {"android": "https://dc.lft.to/lastmile_qr_scan", "ios": "https://dc.lft.to/lastmile_qr_scan"}, "fusion_lon": 0.0}, {"lat": 38.9177115, "is_disabled": 0, "type": "electric_scooter", "lon": -77.01487566666667, "bike_id": "50137df4244b31e7e7e2ace881f998e3", "fusion_lat": 0.0, "name": "50137df4244b31e7e7e2ace881f998e3", "is_reserved": 0, "rental_uris": {"android": "https://dc.lft.to/lastmile_qr_scan", "ios": "https://dc.lft.to/lastmile_qr_scan"}, "fusion_lon": 0.0}, {"lat": 38.871444333333336, "is_disabled": 0, "type": "electric_bike", "lon": -76.937002, "bike_id": "24c7a91cf2fe4e75b814e64959b81ad6", "fusion_lat": 0.0, "name": "24c7a91cf2fe4e75b814e64959b81ad6", "is_reserved": 0, "rental_uris": {"android": "https://dc.lft.to/lastmile_qr_scan", "ios": "https://dc.lft.to/lastmile_qr_scan"}, "fusion_lon": 0.0}, {"lat": 38.925731666666664, "is_disabled": 0, "type": "electric_scooter", "lon": -77.05755133333334, "bike_id": "6620092cbf5ea177976b9a06c129c504", "fusion_lat": 0.0, "name": "6620092cbf5ea177976b9a06c129c504", "is_reserved": 0, "rental_uris": {"android": "https://dc.lft.to/lastmile_qr_scan", "ios": "https://dc.lft.to/lastmile_qr_scan"}, "fusion_lon": 0.0}, {"lat": 38.866558, "is_disabled": 0, "type": "electric_scooter", "lon": -76.98885316666667, "bike_id": "338357ba9a5ad8ff298253a2ed1722bc", "fusion_lat": 0.0, "name": "338357ba9a5ad8ff298253a2ed1722bc", "is_reserved": 0, "rental_uris": {"android": "https://dc.lft.to/lastmile_qr_scan", "ios": "https://dc.lft.to/lastmile_qr_scan"}, "fusion_lon": 0.0}, {"lat": 38.87408966666667, "is_disabled": 0, "type": "electric_scooter", "lon": -76.97307866666667, "bike_id": "334fd26ca610cf4d7d40649bb921ee21", "fusion_lat": 0.0, "name": "334fd26ca610cf4d7d40649bb921ee21", "is_reserved": 0, "rental_uris": {"android": "https://dc.lft.to/lastmile_qr_scan", "ios": "https://dc.lft.to/lastmile_qr_scan"}, "fusion_lon": 0.0}, {"lat": 38.9177965, "is_disabled": 0, "type": "electric_scooter", "lon": -77.0433305, "bike_id": "14d34b40fd55bc5980d0f096926a7e9a", "fusion_lat": 0.0, "name": "14d34b40fd55bc5980d0f096926a7e9a", "is_reserved": 0, "rental_uris": {"android": "https://dc.lft.to/lastmile_qr_scan", "ios": "https://dc.lft.to/lastmile_qr_scan"}, "fusion_lon": 0.0}, {"lat": 38.90332383333333, "is_disabled": 0, "type": "electric_scooter", "lon": -76.9759125, "bike_id": "5fd2e958cc45289cc69080e057473624", "fusion_lat": 0.0, "name": "5fd2e958cc45289cc69080e057473624", "is_reserved": 0, "rental_uris": {"android": "https://dc.lft.to/lastmile_qr_scan", "ios": "https://dc.lft.to/lastmile_qr_scan"}, "fusion_lon": 0.0}, {"lat": 38.921394166666666, "is_disabled": 0, "type": "electric_scooter", "lon": -77.0436405, "bike_id": "b81577dd5cd5ea1deb165e6c5640829f", "fusion_lat": 0.0, "name": "b81577dd5cd5ea1deb165e6c5640829f", "is_reserved": 0, "rental_uris": {"android": "https://dc.lft.to/lastmile_qr_scan", "ios": "https://dc.lft.to/lastmile_qr_scan"}, "fusion_lon": 0.0}, {"lat": 38.907622833333335, "is_disabled": 0, "type": "electric_scooter", "lon": -77.07024783333334, "bike_id": "65212a3e9376cd45b3610977bb8664ff", "fusion_lat": 0.0, "name": "65212a3e9376cd45b3610977bb8664ff", "is_reserved": 0, "rental_uris": {"android": "https://dc.lft.to/lastmile_qr_scan", "ios": "https://dc.lft.to/lastmile_qr_scan"}, "fusion_lon": 0.0}, {"lat": 38.90343766666667, "is_disabled": 0, "type": "electric_scooter", "lon": -77.02521, "bike_id": "e7ee67e026734ccf526d9d16cb599de0", "fusion_lat": 0.0, "name": "e7ee67e026734ccf526d9d16cb599de0", "is_reserved": 0, "rental_uris": {"android": "https://dc.lft.to/lastmile_qr_scan", "ios": "https://dc.lft.to/lastmile_qr_scan"}, "fusion_lon": 0.0}, {"lat": 38.806776166666666, "is_disabled": 0, "type": "electric_bike", "lon": -77.081209, "bike_id": "565d2ffa3e9783ce8c44fcdbac777eff", "fusion_lat": 0.0, "name": "565d2ffa3e9783ce8c44fcdbac777eff", "is_reserved": 0, "rental_uris": {"android": "https://dc.lft.to/lastmile_qr_scan", "ios": "https://dc.lft.to/lastmile_qr_scan"}, "fusion_lon": 0.0}, {"lat": 38.907334, "is_disabled": 0, "type": "electric_scooter", "lon": -76.93546383333333, "bike_id": "c32be9922992176d9006838cbb67649c", "fusion_lat": 0.0, "name": "c32be9922992176d9006838cbb67649c", "is_reserved": 0, "rental_uris": {"android": "https://dc.lft.to/lastmile_qr_scan", "ios": "https://dc.lft.to/lastmile_qr_scan"}, "fusion_lon": 0.0}, {"lat": 38.91672116666667, "is_disabled": 0, "type": "electric_scooter", "lon": -77.03655366666666, "bike_id": "1105955284b25cbdaf0232099cce06e8", "fusion_lat": 0.0, "name": "1105955284b25cbdaf0232099cce06e8", "is_reserved": 0, "rental_uris": {"android": "https://dc.lft.to/lastmile_qr_scan", "ios": "https://dc.lft.to/lastmile_qr_scan"}, "fusion_lon": 0.0}, {"lat": 38.897492166666666, "is_disabled": 0, "type": "electric_scooter", "lon": -77.045369, "bike_id": "c2b7fdf2e15789e8b84edb9d820a2c84", "fusion_lat": 0.0, "name": "c2b7fdf2e15789e8b84edb9d820a2c84", "is_reserved": 0, "rental_uris": {"android": "https://dc.lft.to/lastmile_qr_scan", "ios": "https://dc.lft.to/lastmile_qr_scan"}, "fusion_lon": 0.0}, {"lat": 38.87643516666667, "is_disabled": 0, "type": "electric_scooter", "lon": -77.01535033333333, "bike_id": "ca0c563b59b12b8320ba49a14afa5ad2", "fusion_lat": 0.0, "name": "ca0c563b59b12b8320ba49a14afa5ad2", "is_reserved": 0, "rental_uris": {"android": "https://dc.lft.to/lastmile_qr_scan", "ios": "https://dc.lft.to/lastmile_qr_scan"}, "fusion_lon": 0.0}, {"lat": 38.87686583333333, "is_disabled": 0, "type": "electric_bike", "lon": -77.01755416666667, "bike_id": "4782cf66c4b04e3a5843c8cc6eee09ba", "fusion_lat": 0.0, "name": "4782cf66c4b04e3a5843c8cc6eee09ba", "is_reserved": 0, "rental_uris": {"android": "https://dc.lft.to/lastmile_qr_scan", "ios": "https://dc.lft.to/lastmile_qr_scan"}, "fusion_lon": 0.0}, {"lat": 38.9155755, "is_disabled": 0, "type": "electric_scooter", "lon": -77.01041883333333, "bike_id": "05ccfce94fbec6f3f1826a4693e22908", "fusion_lat": 0.0, "name": "05ccfce94fbec6f3f1826a4693e22908", "is_reserved": 0, "rental_uris": {"android": "https://dc.lft.to/lastmile_qr_scan", "ios": "https://dc.lft.to/lastmile_qr_scan"}, "fusion_lon": 0.0}, {"lat": 38.877259, "is_disabled": 0, "type": "electric_scooter", "lon": -77.0028645, "bike_id": "a30f1759565f1e63aaebb2f04f36d0eb", "fusion_lat": 0.0, "name": "a30f1759565f1e63aaebb2f04f36d0eb", "is_reserved": 0, "rental_uris": {"android": "https://dc.lft.to/lastmile_qr_scan", "ios": "https://dc.lft.to/lastmile_qr_scan"}, "fusion_lon": 0.0}, {"lat": 38.9329555, "is_disabled": 0, "type": "electric_scooter", "lon": -77.0452985, "bike_id": "83a490d0bf454ed7faf1de8819c6f0e6", "fusion_lat": 0.0, "name": "83a490d0bf454ed7faf1de8819c6f0e6", "is_reserved": 0, "rental_uris": {"android": "https://dc.lft.to/lastmile_qr_scan", "ios": "https://dc.lft.to/lastmile_qr_scan"}, "fusion_lon": 0.0}, {"lat": 38.914610333333336, "is_disabled": 0, "type": "electric_scooter", "lon": -77.01428366666667, "bike_id": "8a39809bb2a52ad735e665c50e06a931", "fusion_lat": 0.0, "name": "8a39809bb2a52ad735e665c50e06a931", "is_reserved": 0, "rental_uris": {"android": "https://dc.lft.to/lastmile_qr_scan", "ios": "https://dc.lft.to/lastmile_qr_scan"}, "fusion_lon": 0.0}, {"lat": 38.88796133333334, "is_disabled": 0, "type": "electric_scooter", "lon": -76.93361133333333, "bike_id": "dbc2d7336811b97150636298d9ae7e6b", "fusion_lat": 0.0, "name": "dbc2d7336811b97150636298d9ae7e6b", "is_reserved": 0, "rental_uris": {"android": "https://dc.lft.to/lastmile_qr_scan", "ios": "https://dc.lft.to/lastmile_qr_scan"}, "fusion_lon": 0.0}, {"lat": 38.9236115, "is_disabled": 0, "type": "electric_scooter", "lon": -77.05425916666667, "bike_id": "cca6649d93de53eae271971acfff9798", "fusion_lat": 0.0, "name": "cca6649d93de53eae271971acfff9798", "is_reserved": 0, "rental_uris": {"android": "https://dc.lft.to/lastmile_qr_scan", "ios": "https://dc.lft.to/lastmile_qr_scan"}, "fusion_lon": 0.0}, {"lat": 38.870698, "is_disabled": 0, "type": "electric_bike", "lon": -76.978373, "bike_id": "433f510bf1675accf4811e1dffb9922f", "fusion_lat": 0.0, "name": "433f510bf1675accf4811e1dffb9922f", "is_reserved": 0, "rental_uris": {"android": "https://dc.lft.to/lastmile_qr_scan", "ios": "https://dc.lft.to/lastmile_qr_scan"}, "fusion_lon": 0.0}, {"lat": 38.9521545, "is_disabled": 0, "type": "electric_scooter", "lon": -77.08596133333333, "bike_id": "bf59a30d170aee1458d7652210f614d0", "fusion_lat": 0.0, "name": "bf59a30d170aee1458d7652210f614d0", "is_reserved": 0, "rental_uris": {"android": "https://dc.lft.to/lastmile_qr_scan", "ios": "https://dc.lft.to/lastmile_qr_scan"}, "fusion_lon": 0.0}, {"lat": 38.915387333333335, "is_disabled": 0, "type": "electric_scooter", "lon": -77.03201366666667, "bike_id": "c6e27b5a489015b1e942b1af1ed0e27d", "fusion_lat": 0.0, "name": "c6e27b5a489015b1e942b1af1ed0e27d", "is_reserved": 0, "rental_uris": {"android": "https://dc.lft.to/lastmile_qr_scan", "ios": "https://dc.lft.to/lastmile_qr_scan"}, "fusion_lon": 0.0}, {"lat": 38.930846833333334, "is_disabled": 0, "type": "electric_scooter", "lon": -77.0312205, "bike_id": "7ba4fc39f270c5d5f965ddb802bda547", "fusion_lat": 0.0, "name": "7ba4fc39f270c5d5f965ddb802bda547", "is_reserved": 0, "rental_uris": {"android": "https://dc.lft.to/lastmile_qr_scan", "ios": "https://dc.lft.to/lastmile_qr_scan"}, "fusion_lon": 0.0}, {"lat": 38.999942, "is_disabled": 0, "type": "electric_bike", "lon": -76.92493916666666, "bike_id": "c81ffaa7ba271d939447da54d77f9ac7", "fusion_lat": 0.0, "name": "c81ffaa7ba271d939447da54d77f9ac7", "is_reserved": 0, "rental_uris": {"android": "https://dc.lft.to/lastmile_qr_scan", "ios": "https://dc.lft.to/lastmile_qr_scan"}, "fusion_lon": 0.0}, {"lat": 38.91305333333333, "is_disabled": 0, "type": "electric_scooter", "lon": -77.03180666666667, "bike_id": "bac79dbc7701ee88ed46ff8a9f6bceeb", "fusion_lat": 0.0, "name": "bac79dbc7701ee88ed46ff8a9f6bceeb", "is_reserved": 0, "rental_uris": {"android": "https://dc.lft.to/lastmile_qr_scan", "ios": "https://dc.lft.to/lastmile_qr_scan"}, "fusion_lon": 0.0}, {"lat": 38.916414333333336, "is_disabled": 0, "type": "electric_scooter", "lon": -77.0223855, "bike_id": "8281f322aa8d2831ceb7b478731f64d0", "fusion_lat": 0.0, "name": "8281f322aa8d2831ceb7b478731f64d0", "is_reserved": 0, "rental_uris": {"android": "https://dc.lft.to/lastmile_qr_scan", "ios": "https://dc.lft.to/lastmile_qr_scan"}, "fusion_lon": 0.0}, {"lat": 38.890885, "is_disabled": 0, "type": "electric_scooter", "lon": -76.95264066666667, "bike_id": "6933d328d5e716e35aa2c473e624bbc5", "fusion_lat": 0.0, "name": "6933d328d5e716e35aa2c473e624bbc5", "is_reserved": 0, "rental_uris": {"android": "https://dc.lft.to/lastmile_qr_scan", "ios": "https://dc.lft.to/lastmile_qr_scan"}, "fusion_lon": 0.0}, {"lat": 38.9110965, "is_disabled": 0, "type": "electric_scooter", "lon": -77.03716683333333, "bike_id": "b75363f876a091ca1824a30d2a18bda3", "fusion_lat": 0.0, "name": "b75363f876a091ca1824a30d2a18bda3", "is_reserved": 0, "rental_uris": {"android": "https://dc.lft.to/lastmile_qr_scan", "ios": "https://dc.lft.to/lastmile_qr_scan"}, "fusion_lon": 0.0}, {"lat": 38.935975166666665, "is_disabled": 0, "type": "electric_scooter", "lon": -77.03542883333333, "bike_id": "8d963bae870522004b2dde3eac38a656", "fusion_lat": 0.0, "name": "8d963bae870522004b2dde3eac38a656", "is_reserved": 0, "rental_uris": {"android": "https://dc.lft.to/lastmile_qr_scan", "ios": "https://dc.lft.to/lastmile_qr_scan"}, "fusion_lon": 0.0}, {"lat": 38.91691633333333, "is_disabled": 0, "type": "electric_scooter", "lon": -77.03759133333334, "bike_id": "2ea856f76a220a8710fa67e7910e4903", "fusion_lat": 0.0, "name": "2ea856f76a220a8710fa67e7910e4903", "is_reserved": 0, "rental_uris": {"android": "https://dc.lft.to/lastmile_qr_scan", "ios": "https://dc.lft.to/lastmile_qr_scan"}, "fusion_lon": 0.0}, {"lat": 38.90033016666667, "is_disabled": 0, "type": "electric_scooter", "lon": -77.00584366666666, "bike_id": "ad5f40fae7f39fd68b68017b3f77076d", "fusion_lat": 0.0, "name": "ad5f40fae7f39fd68b68017b3f77076d", "is_reserved": 0, "rental_uris": {"android": "https://dc.lft.to/lastmile_qr_scan", "ios": "https://dc.lft.to/lastmile_qr_scan"}, "fusion_lon": 0.0}, {"lat": 38.88445216666667, "is_disabled": 0, "type": "electric_bike", "lon": -77.096615, "bike_id": "b0d3eee57350985850004a907b230c7f", "fusion_lat": 0.0, "name": "b0d3eee57350985850004a907b230c7f", "is_reserved": 0, "rental_uris": {"android": "https://dc.lft.to/lastmile_qr_scan", "ios": "https://dc.lft.to/lastmile_qr_scan"}, "fusion_lon": 0.0}, {"lat": 38.91110116666667, "is_disabled": 0, "type": "electric_scooter", "lon": -77.03828433333334, "bike_id": "93c05a7314aa2fd7106c4f35168d235f", "fusion_lat": 0.0, "name": "93c05a7314aa2fd7106c4f35168d235f", "is_reserved": 0, "rental_uris": {"android": "https://dc.lft.to/lastmile_qr_scan", "ios": "https://dc.lft.to/lastmile_qr_scan"}, "fusion_lon": 0.0}, {"lat": 38.8973055, "is_disabled": 0, "type": "electric_scooter", "lon": -77.0479245, "bike_id": "e33fb85337186c07d053de1687a36625", "fusion_lat": 0.0, "name": "e33fb85337186c07d053de1687a36625", "is_reserved": 0, "rental_uris": {"android": "https://dc.lft.to/lastmile_qr_scan", "ios": "https://dc.lft.to/lastmile_qr_scan"}, "fusion_lon": 0.0}, {"lat": 38.907129, "is_disabled": 0, "type": "electric_scooter", "lon": -77.00596133333333, "bike_id": "a33604e3691abaa78edfff10ddd764f7", "fusion_lat": 0.0, "name": "a33604e3691abaa78edfff10ddd764f7", "is_reserved": 0, "rental_uris": {"android": "https://dc.lft.to/lastmile_qr_scan", "ios": "https://dc.lft.to/lastmile_qr_scan"}, "fusion_lon": 0.0}, {"lat": 38.90589766666667, "is_disabled": 0, "type": "electric_scooter", "lon": -77.03988733333334, "bike_id": "7073e7d6aeaf99afb4368e50e4ae5c1a", "fusion_lat": 0.0, "name": "7073e7d6aeaf99afb4368e50e4ae5c1a", "is_reserved": 0, "rental_uris": {"android": "https://dc.lft.to/lastmile_qr_scan", "ios": "https://dc.lft.to/lastmile_qr_scan"}, "fusion_lon": 0.0}, {"lat": 38.90831333333333, "is_disabled": 0, "type": "electric_scooter", "lon": -76.99702633333334, "bike_id": "7c041a1ac97162d93f7109c957c0fd57", "fusion_lat": 0.0, "name": "7c041a1ac97162d93f7109c957c0fd57", "is_reserved": 0, "rental_uris": {"android": "https://dc.lft.to/lastmile_qr_scan", "ios": "https://dc.lft.to/lastmile_qr_scan"}, "fusion_lon": 0.0},