{"data": {"bikes": [{"lat": 38.9399525, "is_disabled": 0, "type": "electric_scooter", "lon": -77.0718385, "bike_id": "521d4e58c16676dff60af63e9d089cc1", "fusion_lat": 0.0, "name": "521d4e58c16676dff60af63e9d089cc1", "is_reserved": 0, "rental_uris": {"android": "https://dc.lft.to/lastmile_qr_scan", "ios": "https://dc.lft.to/lastmile_qr_scan"}, "fusion_lon": 0.0}, {"lat": 38.904304833333335, "is_disabled": 0, "type": "electric_scooter", "lon": -77.05326916666667, "bike_id": "833ddc7a52f2074d6deb89a71db5d400", "fusion_lat": 0.0, "name": "833ddc7a52f2074d6deb89a71db5d400", "is_reserved": 0, "rental_uris": {"android": "https://dc.lft.to/lastmile_qr_scan", "ios": "https://dc.lft.to/lastmile_qr_scan"}, "fusion_lon": 0.0}, {"lat": 38.899051166666666, "is_disabled": 0, "type": "electric_scooter", "lon": -76.933532, "bike_id": "f0be2c7b710a11fe31b6fcec22837db4", "fusion_lat": 0.0, "name": "f0be2c7b710a11fe31b6fcec22837db4", "is_reserved": 0, "rental_uris": {"android": "https://dc.lft.to/lastmile_qr_scan", "ios": "https://dc.lft.to/lastmile_qr_scan"}, "fusion_lon": 0.0}, {"lat": 38.9167805, "is_disabled": 0, "type": "electric_scooter", "lon": -77.02979816666667, "bike_id": "b7d9d90c649259bf7234cca4f2f13958", "fusion_lat": 0.0, "name": "b7d9d90c649259bf7234cca4f2f13958", "is_reserved": 0, "rental_uris": {"android": "https://dc.lft.to/lastmile_qr_scan", "ios": "https://dc.lft.to/lastmile_qr_scan"}, "fusion_lon": 0.0}, {"lat": 38.907053, "is_disabled": 0, "type": "electric_scooter", "lon": -76.98691916666667, "bike_id": "b0bc61dff6b7b0a93d160f1e139af139", "fusion_lat": 0.0, "name": "b0bc61dff6b7b0a93d160f1e139af139", "is_reserved": 0, "rental_uris": {"android": "https://dc.lft.to/lastmile_qr_scan", "ios": "https://dc.lft.to/lastmile_qr_scan"}, "fusion_lon": 0.0}, {"lat": 38.8925955, "is_disabled": 0, "type": "electric_scooter", "lon": -76.94160416666666, "bike_id": "bf8313ebdf015f7a0730dcb263df2d94", "fusion_lat": 0.0, "name": "bf8313ebdf015f7a0730dcb263df2d94", "is_reserved": 0, "rental_uris": {"android": "https://dc.lft.to/lastmile_qr_scan", "ios": "https://dc.lft.to/lastmile_qr_scan"}, "fusion_lon": 0.0}, {"lat": 38.8978905, "is_disabled": 0, "type": "electric_scooter", "lon": -77.03218716666667, "bike_id": "5743f70d9f5ef2641578c6e396b321ea", "fusion_lat": 0.0, "name": "5743f70d9f5ef2641578c6e396b321ea", "is_reserved": 0, "rental_uris": {"android": "https://dc.lft.to/lastmile_qr_scan", "ios": "https://dc.lft.to/lastmile_qr_scan"}, "fusion_lon": 0.0}, {"lat": 38.90423533333333, "is_disabled": 0, "type": "electric_scooter", "lon": -77.02085366666667, "bike_id": "c07c088d4f754e9707fc585b4ea7422c", "fusion_lat": 0.0, "name": "c07c088d4f754e9707fc585b4ea7422c", "is_reserved": 0, "rental_uris": {"android": "https://dc.lft.to/lastmile_qr_scan", "ios": "https://dc.lft.to/lastmile_qr_scan"}, "fusion_lon": 0.0}, {"lat": 38.858142, "is_disabled": 0, "type": "electric_scooter", "lon": -76.989954, "bike_id": "6fde11301e39cd1bda228756cc532192", "fusion_lat": 0.0, "name": "6fde11301e39cd1bda228756cc532192", "is_reserved": 0, "rental_uris": {"android": "https://dc.lft.to/lastmile_qr_scan", "ios": "https://dc.lft.to/lastmile_qr_scan"}, "fusion_lon": 0.0}, {"lat": 38.8056695, "is_disabled": 0, "type": "electric_bike", "lon": -77.13246866666667, "bike_id": "cbaa4c6014f1d49bb36ea703d7e98260", "fusion_lat": 0.0, "name": "cbaa4c6014f1d49bb36ea703d7e98260", "is_reserved": 0, "rental_uris": {"android": "https://dc.lft.to/lastmile_qr_scan", "ios": "https://dc.lft.to/lastmile_qr_scan"}, "fusion_lon": 0.0}, {"lat": 38.87498883333333, "is_disabled": 0, "type": "electric_scooter", "lon": -77.0013015, "bike_id": "c290846b1132fce5fe77129ef1c6d533", "fusion_lat": 0.0, "name": "c290846b1132fce5fe77129ef1c6d533", "is_reserved": 0, "rental_uris": {"android": "https://dc.lft.to/lastmile_qr_scan", "ios": "https://dc.lft.to/lastmile_qr_scan"}, "fusion_lon": 0.0}, {"lat": 38.916950666666665, "is_disabled": 0, "type": "electric_scooter", "lon": -77.03734083333333, "bike_id": "fe9c5efc800574584e23091fbc8d9936", "fusion_lat": 0.0, "name": "fe9c5efc800574584e23091fbc8d9936", "is_reserved": 0, "rental_uris": {"android": "https://dc.lft.to/lastmile_qr_scan", "ios": "https://dc.lft.to/lastmile_qr_scan"}, "fusion_lon": 0.0}, {"lat": 38.897537, "is_disabled": 0, "type": "electric_scooter", "lon": -77.03261933333333, "bike_id": "5d1c7f693c8268d6c58fe567b3762e32", "fusion_lat": 0.0, "name": "5d1c7f693c8268d6c58fe567b3762e32", "is_reserved": 0, "rental_uris": {"android": "https://dc.lft.to/lastmile_qr_scan", "ios": "https://dc.lft.to/lastmile_qr_scan"}, "fusion_lon": 0.0}, {"lat": 38.9087385, "is_disabled": 0, "type": "electric_scooter", "lon": -77.03184916666666, "bike_id": "9780a48d170f3b9d10875348f3527d32", "fusion_lat": 0.0, "name": "9780a48d170f3b9d10875348f3527d32", "is_reserved": 0, "rental_uris": {"android": "https://dc.lft.to/lastmile_qr_scan", "ios": "https://dc.lft.to/lastmile_qr_scan"}, "fusion_lon": 0.0}, {"lat": 38.9154415, "is_disabled": 0, "type": "electric_scooter", "lon": -77.031833, "bike_id": "9558fa83d352efc85badac57f0b24d9f", "fusion_lat": 0.0, "name": "9558fa83d352efc85badac57f0b24d9f", "is_reserved": 0, "rental_uris": {"android": "https://dc.lft.to/lastmile_qr_scan", "ios": "https://dc.lft.to/lastmile_qr_scan"}, "fusion_lon": 0.0}, {"lat": 38.906837333333335, "is_disabled": 0, "type": "electric_scooter", "lon": -77.0269135, "bike_id": "9b547af2bb8fa68b13ba38e55c07d819", "fusion_lat": 0.0, "name": "9b547af2bb8fa68b13ba38e55c07d819", "is_reserved": 0, "rental_uris": {"android": "https://dc.lft.to/lastmile_qr_scan", "ios": "https://dc.lft.to/lastmile_qr_scan"}, "fusion_lon": 0.0}, {"lat": 38.87345033333333, "is_disabled": 0, "type": "electric_scooter", "lon": -76.99165133333334, "bike_id": "a6e761eacf83b477c77bbcf1d097b84a", "fusion_lat": 0.0, "name": "a6e761eacf83b477c77bbcf1d097b84a", "is_reserved": 0, "rental_uris": {"android": "https://dc.lft.to/lastmile_qr_scan", "ios": "https://dc.lft.to/lastmile_qr_scan"}, "fusion_lon": 0.0}, {"lat": 38.9280315, "is_disabled": 0, "type": "electric_scooter", "lon": -77.04312283333333, "bike_id": "09396ffd937715e3f08745e6c19d0251", "fusion_lat": 0.0, "name": "09396ffd937715e3f08745e6c19d0251", "is_reserved": 0, "rental_uris": {"android": "https://dc.lft.to/lastmile_qr_scan", "ios": "https://dc.lft.to/lastmile_qr_scan"}, "fusion_lon": 0.0}, {"lat": 38.89735616666667, "is_disabled": 0, "type": "electric_scooter", "lon": -77.04534366666667, "bike_id": "15cc6e8764e00307bd4eb6dab392445f", "fusion_lat": 0.0, "name": "15cc6e8764e00307bd4eb6dab392445f", "is_reserved": 0, "rental_uris": {"android": "https://dc.lft.to/lastmile_qr_scan", "ios": "https://dc.lft.to/lastmile_qr_scan"}, "fusion_lon": 0.0}, {"lat": 38.91703783333333, "is_disabled": 0, "type": "electric_scooter", "lon": -77.04333316666667, "bike_id": "3044f835e81043fc95c76724c4612aff", "fusion_lat": 0.0, "name": "3044f835e81043fc95c76724c4612aff", "is_reserved": 0, "rental_uris": {"android": "https://dc.lft.to/lastmile_qr_scan", "ios": "https://dc.lft.to/lastmile_qr_scan"}, "fusion_lon": 0.0}, {"lat": 38.95618133333333, "is_disabled": 0, "type": "electric_scooter", "lon": -77.02778233333333, "bike_id": "6cd827ef48d298fdd08c7899356137ff", "fusion_lat": 0.0, "name": "6cd827ef48d298fdd08c7899356137ff", "is_reserved": 0, "rental_uris": {"android": "https://dc.lft.to/lastmile_qr_scan", "ios": "https://dc.lft.to/lastmile_qr_scan"}, "fusion_lon": 0.0}, {"lat": 38.93016316666667, "is_disabled": 0, "type": "electric_bike", "lon": -77.21646833333334, "bike_id": "463b34bfe3e761e862b4046a54db97a2", "fusion_lat": 0.0, "name": "463b34bfe3e761e862b4046a54db97a2", "is_reserved": 0, "rental_uris": {"android": "https://dc.lft.to/lastmile_qr_scan", "ios": "https://dc.lft.to/lastmile_qr_scan"}, "fusion_lon": 0.0}, {"lat": 38.962808333333335, "is_disabled": 0, "type": "electric_bike", "lon": -77.03251, "bike_id": "0c8f023280254b21ec862e011299ae69", "fusion_lat": 0.0, "name": "0c8f023280254b21ec862e011299ae69", "is_reserved": 0, "rental_uris": {"android": "https://dc.lft.to/lastmile_qr_scan", "ios": "https://dc.lft.to/lastmile_qr_scan"}, "fusion_lon": 0.0}, {"lat": 38.923383, "is_disabled": 0, "type": "electric_bike", "lon": -77.056802, "bike_id": "ea21a9f1cf13098b308ecfad784012f6", "fusion_lat": 0.0, "name": "ea21a9f1cf13098b308ecfad784012f6", "is_reserved": 0, "rental_uris": {"android": "https://dc.lft.to/lastmile_qr_scan", "ios": "https://dc.lft.to/lastmile_qr_scan"}, "fusion_lon": 0.0}, {"lat": 38.89718283333333, "is_disabled": 0, "type": "electric_bike", "lon": -77.00743233333333, "bike_id": "e6fa298efdc698be7a4c3d503cec5bc3", "fusion_lat": 0.0, "name": "e6fa298efdc698be7a4c3d503cec5bc3", "is_reserved": 0, "rental_uris": {"android": "https://dc.lft.to/lastmile_qr_scan", "ios": "https://dc.lft.to/lastmile_qr_scan"}, "fusion_lon": 0.0}, {"lat": 38.90219333333334, "is_disabled": 0, "type": "electric_scooter", "lon": -76.945938, "bike_id": "ed8a6aacb1b15f7c6f863ae08d7cc648", "fusion_lat": 0.0, "name": "ed8a6aacb1b15f7c6f863ae08d7cc648", "is_reserved": 0, "rental_uris": {"android": "https://dc.lft.to/lastmile_qr_scan", "ios": "https://dc.lft.to/lastmile_qr_scan"}, "fusion_lon": 0.0}, {"lat": 38.92072683333333, "is_disabled": 0, "type": "electric_scooter", "lon": -77.02339016666667, "bike_id": "2b7f31b494196adcf804d69d66bddc21", "fusion_lat": 0.0, "name": "2b7f31b494196adcf804d69d66bddc21", "is_reserved": 0, "rental_uris": {"android": "https://dc.lft.to/lastmile_qr_scan", "ios": "https://dc.lft.to/lastmile_qr_scan"}, "fusion_lon": 0.0}, {"lat": 38.897967, "is_disabled": 0, "type": "electric_scooter", "lon": -77.04377666666667, "bike_id": "56ec8e68b4aaea1f73d37fe28e7d215d", "fusion_lat": 0.0, "name": "56ec8e68b4aaea1f73d37fe28e7d215d", "is_reserved": 0, "rental_uris": {"android": "https://dc.lft.to/lastmile_qr_scan", "ios": "https://dc.lft.to/lastmile_qr_scan"}, "fusion_lon": 0.0}, {"lat": 38.915589833333335, "is_disabled": 0, "type": "electric_scooter", "lon": -77.04671483333334, "bike_id": "d3178ea813bdbc0609b90b9d20d9de81", "fusion_lat": 0.0, "name": "d3178ea813bdbc0609b90b9d20d9de81", "is_reserved": 0, "rental_uris": {"android": "https://dc.lft.to/lastmile_qr_scan", "ios": "https://dc.lft.to/lastmile_qr_scan"}, "fusion_lon": 0.0}, {"lat": 38.94514216666666, "is_disabled": 0, "type": "electric_scooter", "lon": -77.02172083333333, "bike_id": "f05aa226f8660433f7ab1fffee423fa7", "fusion_lat": 0.0, "name": "f05aa226f8660433f7ab1fffee423fa7", "is_reserved": 0, "rental_uris": {"android": "https://dc.lft.to/lastmile_qr_scan", "ios": "https://dc.lft.to/lastmile_qr_scan"}, "fusion_lon": 0.0}, {"lat": 38.91275866666667, "is_disabled": 0, "type": "electric_scooter", "lon": -77.02267483333334, "bike_id": "056a35f6374c9836e9ef9c2091f1b268", "fusion_lat": 0.0, "name": "056a35f6374c9836e9ef9c2091f1b268", "is_reserved": 0, "rental_uris": {"android": "https://dc.lft.to/lastmile_qr_scan", "ios": "https://dc.lft.to/lastmile_qr_scan"}, "fusion_lon": 0.0}, {"lat": 38.925784166666666, "is_disabled": 0, "type": "electric_scooter", "lon": -77.0256665, "bike_id": "94e9c7fbb3931a7369781c9b2171cbc8", "fusion_lat": 0.0, "name": "94e9c7fbb3931a7369781c9b2171cbc8", "is_reserved": 0, "rental_uris": {"android": "https://dc.lft.to/lastmile_qr_scan", "ios": "https://dc.lft.to/lastmile_qr_scan"}, "fusion_lon": 0.0}, {"lat": 38.86620583333333, "is_disabled": 0, "type": "electric_bike", "lon": -76.94573616666666, "bike_id": "cc4c702b176e25310ecbca95638cceb1", "fusion_lat": 0.0, "name": "cc4c702b176e25310ecbca95638cceb1", "is_reserved": 0, "rental_uris": {"android": "https://dc.lft.to/lastmile_qr_scan", "ios": "https://dc.lft.to/lastmile_qr_scan"}, "fusion_lon": 0.0}, {"lat": 38.9097335, "is_disabled": 0, "type": "electric_scooter", "lon": -77.03217533333333, "bike_id": "a8a23fe8a4e817be84c913fafb32ee5f", "fusion_lat": 0.0, "name": "a8a23fe8a4e817be84c913fafb32ee5f", "is_reserved": 0, "rental_uris": {"android": "https://dc.lft.to/lastmile_qr_scan", "ios": "https://dc.lft.to/lastmile_qr_scan"}, "fusion_lon": 0.0}, {"lat": 38.907244166666665, "is_disabled": 0, "type": "electric_scooter", "lon": -77.02534516666667, "bike_id": "fdd0dee38fe1b4c5a61558ac158c443a", "fusion_lat": 0.0, "name": "fdd0dee38fe1b4c5a61558ac158c443a", "is_reserved": 0, "rental_uris": {"android": "https://dc.lft.to/lastmile_qr_scan", "ios": "https://dc.lft.to/lastmile_qr_scan"}, "fusion_lon": 0.0}, {"lat": 38.9096095, "is_disabled": 0, "type": "electric_scooter", "lon": -77.02108783333334, "bike_id": "019486c4ffa02dbc46c5476dba35873d", "fusion_lat": 0.0, "name": "019486c4ffa02dbc46c5476dba35873d", "is_reserved": 0, "rental_uris": {"android": "https://dc.lft.to/lastmile_qr_scan", "ios": "https://dc.lft.to/lastmile_qr_scan"}, "fusion_lon": 0.0}, {"lat": 38.932220666666666, "is_disabled": 0, "type": "electric_scooter", "lon": -77.02734033333333, "bike_id": "14eadd88c253adfa384da8650d076db5", "fusion_lat": 0.0, "name": "14eadd88c253adfa384da8650d076db5", "is_reserved": 0, "rental_uris": {"android": "https://dc.lft.to/lastmile_qr_scan", "ios": "https://dc.lft.to/lastmile_qr_scan"}, "fusion_lon": 0.0}, {"lat": 38.88432183333333, "is_disabled": 0, "type": "electric_scooter", "lon": -76.957547, "bike_id": "b1b23bed342aedd08c9117188655152f", "fusion_lat": 0.0, "name": "b1b23bed342aedd08c9117188655152f", "is_reserved": 0, "rental_uris": {"android": "https://dc.lft.to/lastmile_qr_scan", "ios": "https://dc.lft.to/lastmile_qr_scan"}, "fusion_lon": 0.0}, {"lat": 38.8656025, "is_disabled": 0, "type": "electric_scooter", "lon": -76.98949016666667, "bike_id": "da9eec7512f18efcfeeffdebc815f844", "fusion_lat": 0.0, "name": "da9eec7512f18efcfeeffdebc815f844", "is_reserved": 0, "rental_uris": {"android": "https://dc.lft.to/lastmile_qr_scan", "ios": "https://dc.lft.to/lastmile_qr_scan"}, "fusion_lon": 0.0}, {"lat": 38.89223416666667, "is_disabled": 0, "type": "electric_scooter", "lon": -76.93299516666667, "bike_id": "583a816eba4ce5420c6c1d8a4e91413a", "fusion_lat": 0.0, "name": "583a816eba4ce5420c6c1d8a4e91413a", "is_reserved": 0, "rental_uris": {"android": "https://dc.lft.to/lastmile_qr_scan", "ios": "https://dc.lft.to/lastmile_qr_scan"}, "fusion_lon": 0.0}, {"lat": 38.9182815, "is_disabled": 0, "type": "electric_scooter", "lon": -77.03444433333334, "bike_id": "d46bd243b52430b4987d770b1df4a5f6", "fusion_lat": 0.0, "name": "d46bd243b52430b4987d770b1df4a5f6", "is_reserved": 0, "rental_uris": {"android": "https://dc.lft.to/lastmile_qr_scan", "ios": "https://dc.lft.to/lastmile_qr_scan"}, "fusion_lon": 0.0}, {"lat": 38.90775466666667, "is_disabled": 0, "type": "electric_scooter", "lon": -77.03861266666667, "bike_id": "1eaf7c5d9618986f59093e7d33f68e6e", "fusion_lat": 0.0, "name": "1eaf7c5d9618986f59093e7d33f68e6e", "is_reserved": 0, "rental_uris": {"android": "https://dc.lft.to/lastmile_qr_scan", "ios": "https://dc.lft.to/lastmile_qr_scan"}, "fusion_lon": 0.0}, {"lat": 38.904674166666666, "is_disabled": 0, "type": "electric_scooter", "lon": -77.0322445, "bike_id": "360d02bd54e4f0ee35a42bee7359bb01", "fusion_lat": 0.0, "name": "360d02bd54e4f0ee35a42bee7359bb01", "is_reserved": 0, "rental_uris": {"android": "https://dc.lft.to/lastmile_qr_scan", "ios": "https://dc.lft.to/lastmile_qr_scan"}, "fusion_lon": 0.0}, {"lat": 38.88980333333333, "is_disabled": 0, "type": "electric_scooter", "lon": -76.937426, "bike_id": "a77a7856e44394390bea584edbc2055c", "fusion_lat": 0.0, "name": "a77a7856e44394390bea584edbc2055c", "is_reserved": 0, "rental_uris": {"android": "https://dc.lft.to/lastmile_qr_scan", "ios": "https://dc.lft.to/lastmile_qr_scan"}, "fusion_lon": 0.0}, {"lat": 38.86635883333334, "is_disabled": 0, "type": "electric_scooter", "lon": -76.98693383333334, "bike_id": "a63eec2e3290375166976670d4f6207c", "fusion_lat": 0.0, "name": "a63eec2e3290375166976670d4f6207c", "is_reserved": 0, "rental_uris": {"android": "https://dc.lft.to/lastmile_qr_scan", "ios": "https://dc.lft.to/lastmile_qr_scan"}, "fusion_lon": 0.0}, {"lat": 38.842960833333336, "is_disabled": 0, "type": "electric_scooter", "lon": -76.9994825, "bike_id": "f5c8c686218a5483f9ec751be3d12154", "fusion_lat": 0.0, "name": "f5c8c686218a5483f9ec751be3d12154", "is_reserved": 0, "rental_uris": {"android": "https://dc.lft.to/lastmile_qr_scan", "ios": "https://dc.lft.to/lastmile_qr_scan"}, "fusion_lon": 0.0}, {"lat": 38.88492733333333, "is_disabled": 0, "type": "electric_scooter", "lon": -77.00706, "bike_id": "a306ffe25c5e08a8029d14335b45569f", "fusion_lat": 0.0, "name": "a306ffe25c5e08a8029d14335b45569f", "is_reserved": 0, "rental_uris": {"android": "https://dc.lft.to/lastmile_qr_scan", "ios": "https://dc.lft.to/lastmile_qr_scan"}, "fusion_lon": 0.0}, {"lat": 38.849365, "is_disabled": 0, "type": "electric_bike", "lon": -77.1001405, "bike_id": "8243100a63f334bcc4c2ffc49c2674d0", "fusion_lat": 0.0, "name": "8243100a63f334bcc4c2ffc49c2674d0", "is_reserved": 0, "rental_uris": {"android": "https://dc.lft.to/lastmile_qr_scan", "ios": "https://dc.lft.to/lastmile_qr_scan"}, "fusion_lon": 0.0}, {"lat": 38.923666833333336, "is_disabled": 0, "type": "electric_scooter", "lon": -77.04032583333333, "bike_id": "175c07beb128e5fe012a182d5e4ecbef", "fusion_lat": 0.0, "name": "175c07beb128e5fe012a182d5e4ecbef", "is_reserved": 0, "rental_uris": {"android": "https://dc.lft.to/lastmile_qr_scan", "ios": "https://dc.lft.to/lastmile_qr_scan"}, "fusion_lon": 0.0}, {"lat": 38.893718, "is_disabled": 0, "type": "electric_scooter", "lon": -76.95000933333333, "bike_id": "2679edc8ff07b1d0b3b866ee988e51f3", "fusion_lat": 0.0, "name": "2679edc8ff07b1d0b3b866ee988e51f3", "is_reserved": 0, "rental_uris": {"android": "https://dc.lft.to/lastmile_qr_scan", "ios": "https://dc.lft.to/lastmile_qr_scan"}, "fusion_lon": 0.0}, {"lat": 38.9178945, "is_disabled": 0, "type": "electric_scooter", "lon": -77.023105, "bike_id": "7dcce44a5bb6c4990a387ff583ed06e0", "fusion_lat": 0.0, "name": "7dcce44a5bb6c4990a387ff583ed06e0", "is_reserved": 0, "rental_uris": {"android": "https://dc.lft.to/lastmile_qr_scan", "ios": "https://dc.lft.to/lastmile_qr_scan"}, "fusion_lon": 0.0}, {"lat": 38.84291266666666, "is_disabled": 0, "type": "electric_bike", "lon": -76.98834483333333, "bike_id": "744cc5b2bf72083960c00986925339c7", "fusion_lat": 0.0, "name": "744cc5b2bf72083960c00986925339c7", "is_reserved": 0, "rental_uris": {"android": "https://dc.lft.to/lastmile_qr_scan", "ios": "https://dc.lft.to/lastmile_qr_scan"}, "fusion_lon": 0.0}, {"lat": 38.92138466666667, "is_disabled": 0, "type": "electric_scooter", "lon": -77.01041216666667, "bike_id": "919aa814c6b45ef2e74d4939322d2a69", "fusion_lat": 0.0, "name": "919aa814c6b45ef2e74d4939322d2a69", "is_reserved": 0, "rental_uris": {"android": "https://dc.lft.to/lastmile_qr_scan", "ios": "https://dc.lft.to/lastmile_qr_scan"}, "fusion_lon": 0.0}, {"lat": 38.902697, "is_disabled": 0, "type": "electric_scooter", "lon": -77.0344615, "bike_id": "c1c700f87720ca88d60a4f36e149c293", "fusion_lat": 0.0, "name": "c1c700f87720ca88d60a4f36e149c293", "is_reserved": 0, "rental_uris": {"android": "https://dc.lft.to/lastmile_qr_scan", "ios": "https://dc.lft.to/lastmile_qr_scan"}, "fusion_lon": 0.0}, {"lat": 38.945254, "is_disabled": 0, "type": "electric_scooter", "lon": -77.06397733333333, "bike_id": "1bf947d3c38b9a6b8f9d47368e758872", "fusion_lat": 0.0, "name": "1bf947d3c38b9a6b8f9d47368e758872", "is_reserved": 0, "rental_uris": {"android": "https://dc.lft.to/lastmile_qr_scan", "ios": "https://dc.lft.to/lastmile_qr_scan"}, "fusion_lon": 0.0}, {"lat": 39.024300333333336, "is_disabled": 0, "type": "electric_bike", "lon": -77.13103433333333, "bike_id": "128de2f8063206827e4374f388e93f3f", "fusion_lat": 0.0, "name": "128de2f8063206827e4374f388e93f3f", "is_reserved": 0, "rental_uris": {"android": "https://dc.lft.to/lastmile_qr_scan", "ios": "https://dc.lft.to/lastmile_qr_scan"}, "fusion_lon": 0.0}, {"lat": 38.885862833333334, "is_disabled": 0, "type": "electric_scooter", "lon": -77.01229533333333, "bike_id": "25e994870c9d039405873852938d57d9", "fusion_lat": 0.0, "name": "25e994870c9d039405873852938d57d9", "is_reserved": 0, "rental_uris": {"android": "https://dc.lft.to/lastmile_qr_scan", "ios": "https://dc.lft.to/lastmile_qr_scan"}, "fusion_lon": 0.0}, {"lat": 38.9171185, "is_disabled": 0, "type": "electric_scooter", "lon": -77.03869333333333, "bike_id": "5be48418f4c7fb3ec600907906c01a4d", "fusion_lat": 0.0, "name": "5be48418f4c7fb3ec600907906c01a4d", "is_reserved": 0, "rental_uris": {"android": "https://dc.lft.to/lastmile_qr_scan", "ios": "https://dc.lft.to/lastmile_qr_scan"}, "fusion_lon": 0.0}, {"lat": 38.862337, "is_disabled": 0, "type": "electric_scooter", "lon": -76.99546133333334, "bike_id": "e94c45e87d1492efa47462c95efdccf1", "fusion_lat": 0.0, "name": "e94c45e87d1492efa47462c95efdccf1", "is_reserved": 0, "rental_uris": {"android": "https://dc.lft.to/lastmile_qr_scan", "ios": "https://dc.lft.to/lastmile_qr_scan"}, "fusion_lon": 0.0}, {"lat": 38.936164833333336, "is_disabled": 0, "type": "electric_scooter", "lon": -77.03213983333333, "bike_id": "76e0dabbcf0523236fd0edf72ccd0bc8", "fusion_lat": 0.0, "name": "76e0dabbcf0523236fd0edf72ccd0bc8", "is_reserved": 0, "rental_uris": {"android": "https://dc.lft.to/lastmile_qr_scan", "ios": "https://dc.lft.to/lastmile_qr_scan"}, "fusion_lon": 0.0}, {"lat": 38.90775583333333, "is_disabled": 0, "type": "electric_scooter", "lon": -77.0386295, "bike_id": "3db0a5215387399225694d65f3785c6b", "fusion_lat": 0.0, "name": "3db0a5215387399225694d65f3785c6b", "is_reserved": 0, "rental_uris": {"android": "https://dc.lft.to/lastmile_qr_scan", "ios": "https://dc.lft.to/lastmile_qr_scan"}, "fusion_lon": 0.0}, {"lat": 38.872136, "is_disabled": 0, "type": "electric_scooter", "lon": -77.01762233333334, "bike_id": "e6e61390f24a0fb92e1c54ccc47528e5", "fusion_lat": 0.0, "name": "e6e61390f24a0fb92e1c54ccc47528e5", "is_reserved": 0, "rental_uris": {"android": "https://dc.lft.to/lastmile_qr_scan", "ios": "https://dc.lft.to/lastmile_qr_scan"}, "fusion_lon": 0.0}, {"lat": 39.03050533333333, "is_disabled": 0, "type": "electric_bike", "lon": -77.094843, "bike_id": "44f5b2aa3fa166ed1add7298bb5cee27", "fusion_lat": 0.0, "name": "44f5b2aa3fa166ed1add7298bb5cee27", "is_reserved": 0, "rental_uris": {"android": "https://dc.lft.to/lastmile_qr_scan", "ios": "https://dc.lft.to/lastmile_qr_scan"}, "fusion_lon": 0.0}, {"lat": 38.916929833333334, "is_disabled": 0, "type": "electric_scooter", "lon": -77.02951216666666, "bike_id": "addc2cf3bdc463b7060ca53b36188b29", "fusion_lat": 0.0, "name": "addc2cf3bdc463b7060ca53b36188b29", "is_reserved": 0, "rental_uris": {"android": "https://dc.lft.to/lastmile_qr_scan", "ios": "https://dc.lft.to/lastmile_qr_scan"}, "fusion_lon": 0.0}, {"lat": 38.887070666666666, "is_disabled": 0, "type": "electric_scooter", "lon": -77.03200416666667, "bike_id": "824eef8ffa1dbf119875abd704a2a550", "fusion_lat": 0.0, "name": "824eef8ffa1dbf119875abd704a2a550", "is_reserved": 0, "rental_uris": {"android": "https://dc.lft.to/lastmile_qr_scan", "ios": "https://dc.lft.to/lastmile_qr_scan"}, "fusion_lon": 0.0}, {"lat": 38.908853666666666, "is_disabled": 0, "type": "electric_scooter", "lon": -77.043647, "bike_id": "d5fb1f55dc52ea496e2f44c2fb9edb56", "fusion_lat": 0.0, "name": "d5fb1f55dc52ea496e2f44c2fb9edb56", "is_reserved": 0, "rental_uris": {"android": "https://dc.lft.to/lastmile_qr_scan", "ios": "https://dc.lft.to/lastmile_qr_scan"}, "fusion_lon": 0.0}, {"lat": 38.9127215, "is_disabled": 0, "type": "electric_scooter", "lon": -77.03804, "bike_id": "d32d6b82941eb334228186c997c5b1a5", "fusion_lat": 0.0, "name": "d32d6b82941eb334228186c997c5b1a5", "is_reserved": 0, "rental_uris": {"android": "https://dc.lft.to/lastmile_qr_scan", "ios": "https://dc.lft.to/lastmile_qr_scan"}, "fusion_lon": 0.0}, {"lat": 38.908934333333335, "is_disabled": 0, "type": "electric_scooter", "lon": -77.04351916666667, "bike_id": "7a4216935841021ac40f6e0bccb9b26c", "fusion_lat": 0.0, "name": "7a4216935841021ac40f6e0bccb9b26c", "is_reserved": 0, "rental_uris": {"android": "https://dc.lft.to/lastmile_qr_scan", "ios": "https://dc.lft.to/lastmile_qr_scan"}, "fusion_lon": 0.0}, {"lat": 38.945044833333334, "is_disabled": 0, "type": "electric_scooter", "lon": -77.01545016666667, "bike_id": "fb7f9d038c5a0d325557e12f06236a63", "fusion_lat": 0.0, "name": "fb7f9d038c5a0d325557e12f06236a63", "is_reserved": 0, "rental_uris": {"android": "https://dc.lft.to/lastmile_qr_scan", "ios": "https://dc.lft.to/lastmile_qr_scan"}, "fusion_lon": 0.0}, {"lat": 38.913559666666664, "is_disabled": 0, "type": "electric_scooter", "lon": -77.0318255, "bike_id": "ce4b11ec46a23936139f7549a5612b25", "fusion_lat": 0.0, "name": "ce4b11ec46a23936139f7549a5612b25", "is_reserved": 0, "rental_uris": {"android": "https://dc.lft.to/lastmile_qr_scan", "ios": "https://dc.lft.to/lastmile_qr_scan"}, "fusion_lon": 0.0}, {"lat": 38.8926465, "is_disabled": 0, "type": "electric_bike", "lon": -77.02613716666667, "bike_id": "7f30e814857a9d696d87e823c0e38de5", "fusion_lat": 0.0, "name": "7f30e814857a9d696d87e823c0e38de5", "is_reserved": 0, "rental_uris": {"android": "https://dc.lft.to/lastmile_qr_scan", "ios": "https://dc.lft.to/lastmile_qr_scan"}, "fusion_lon": 0.0}, {"lat": 38.917221166666664, "is_disabled": 0, "type": "electric_scooter", "lon": -77.03859816666667, "bike_id": "d9e85f47bf58bc77eab40bcf37016081", "fusion_lat": 0.0, "name": "d9e85f47bf58bc77eab40bcf37016081", "is_reserved": 0, "rental_uris": {"android": "https://dc.lft.to/lastmile_qr_scan", "ios": "https://dc.lft.to/lastmile_qr_scan"}, "fusion_lon": 0.0}, {"lat": 38.92187883333333, "is_disabled": 0, "type": "electric_scooter", "lon": -77.029787, "bike_id": "8eb01951db4ab0542ea5e2be0a0815c0", "fusion_lat": 0.0, "name": "8eb01951db4ab0542ea5e2be0a0815c0", "is_reserved": 0, "rental_uris": {"android": "https://dc.lft.to/lastmile_qr_scan", "ios": "https://dc.lft.to/lastmile_qr_scan"}, "fusion_lon": 0.0}, {"lat": 38.93070066666667, "is_disabled": 0, "type": "electric_scooter", "lon": -77.02823316666667, "bike_id": "a0522bc70bd1d981348ecc03ff384a66", "fusion_lat": 0.0, "name": "a0522bc70bd1d981348ecc03ff384a66", "is_reserved": 0, "rental_uris": {"android": "https://dc.lft.to/lastmile_qr_scan", "ios": "https://dc.lft.to/lastmile_qr_scan"}, "fusion_lon": 0.0}, {"lat": 38.91862416666667, "is_disabled": 0, "type": "electric_scooter", "lon": -77.03218883333334, "bike_id": "7966214093737a1558babc0fc698d59d", "fusion_lat": 0.0, "name": "7966214093737a1558babc0fc698d59d", "is_reserved": 0, "rental_uris": {"android": "https://dc.lft.to/lastmile_qr_scan", "ios": "https://dc.lft.to/lastmile_qr_scan"}, "fusion_lon": 0.0}, {"lat": 38.90910233333334, "is_disabled": 0, "type": "electric_scooter", "lon": -77.02715283333333, "bike_id": "d7ed7076e5d11f27a0e15242c6b2d849", "fusion_lat": 0.0, "name": "d7ed7076e5d11f27a0e15242c6b2d849", "is_reserved": 0, "rental_uris": {"android": "https://dc.lft.to/lastmile_qr_scan", "ios": "https://dc.lft.to/lastmile_qr_scan"}, "fusion_lon": 0.0}, {"lat": 38.900801333333334, "is_disabled": 0, "type": "electric_scooter", "lon": -77.05005533333333, "bike_id": "6914aec3caac03a65edc87446d02f040", "fusion_lat": 0.0, "name": "6914aec3caac03a65edc87446d02f040", "is_reserved": 0, "rental_uris": {"android": "https://dc.lft.to/lastmile_qr_scan", "ios": "https://dc.lft.to/lastmile_qr_scan"}, "fusion_lon": 0.0}, {"lat": 38.9080725, "is_disabled": 0, "type": "electric_scooter", "lon": -77.0433115, "bike_id": "582d835b471cd10084ded3ef7367cf67", "fusion_lat": 0.0, "name": "582d835b471cd10084ded3ef7367cf67", "is_reserved": 0, "rental_uris": {"android": "https://dc.lft.to/lastmile_qr_scan", "ios": "https://dc.lft.to/lastmile_qr_scan"}, "fusion_lon": 0.0}, {"lat": 38.908503333333336, "is_disabled": 0, "type": "electric_scooter", "lon": -77.02067416666667, "bike_id": "47bf22aa1f06db21f2c9938065780eaa", "fusion_lat": 0.0, "name": "47bf22aa1f06db21f2c9938065780eaa", "is_reserved": 0, "rental_uris": {"android": "https://dc.lft.to/lastmile_qr_scan", "ios": "https://dc.lft.to/lastmile_qr_scan"}, "fusion_lon": 0.0}, {"lat": 38.904685666666666, "is_disabled": 0, "type": "electric_scooter", "lon": -77.02955166666666, "bike_id": "b3b321f70e866fbc962ce63a5c5f8dc6", "fusion_lat": 0.0, "name": "b3b321f70e866fbc962ce63a5c5f8dc6", "is_reserved": 0, "rental_uris": {"android": "https://dc.lft.to/lastmile_qr_scan", "ios": "https://dc.lft.to/lastmile_qr_scan"}, "fusion_lon": 0.0}, {"lat": 38.9082735, "is_disabled": 0, "type": "electric_scooter", "lon": -76.94146783333333, "bike_id": "f36d84cc98550f6f71aa2f3714ad4565", "fusion_lat": 0.0, "name": "f36d84cc98550f6f71aa2f3714ad4565", "is_reserved": 0, "rental_uris": {"android": "https://dc.lft.to/lastmile_qr_scan", "ios": "https://dc.lft.to/lastmile_qr_scan"}, "fusion_lon": 0.0}, {"lat": 38.884013833333334, "is_disabled": 0, "type": "electric_bike", "lon": -76.9605995, "bike_id": "46c0994d99ff6234c47c9d95235e25eb", "fusion_lat": 0.0, "name": "46c0994d99ff6234c47c9d95235e25eb", "is_reserved": 0, "rental_uris": {"android": "https://dc.lft.to/lastmile_qr_scan", "ios": "https://dc.lft.to/lastmile_qr_scan"}, "fusion_lon": 0.0}, {"lat": 38.92482566666666, "is_disabled": 0, "type": "electric_scooter", "lon": -77.02721933333333, "bike_id": "1c23adafb3c2450cee9c77c8c0bbedbf", "fusion_lat": 0.0, "name": "1c23adafb3c2450cee9c77c8c0bbedbf", "is_reserved": 0, "rental_uris": {"android": "https://dc.lft.to/lastmile_qr_scan", "ios": "https://dc.lft.to/lastmile_qr_scan"}, "fusion_lon": 0.0}, {"lat": 38.839887166666664, "is_disabled": 0, "type": "electric_bike", "lon": -77.00568016666666, "bike_id": "6eafcd387e92a5a9c3db2fc8b78a823e", "fusion_lat": 0.0, "name": "6eafcd387e92a5a9c3db2fc8b78a823e", "is_reserved": 0, "rental_uris": {"android": "https://dc.lft.to/lastmile_qr_scan", "ios": "https://dc.lft.to/lastmile_qr_scan"}, "fusion_lon": 0.0}, {"lat": 38.9172715, "is_disabled": 0, "type": "electric_scooter", "lon": -77.04090683333334, "bike_id": "e4ae9c88c961e3caa0c2ed74aee36366", "fusion_lat": 0.0, "name": "e4ae9c88c961e3caa0c2ed74aee36366", "is_reserved": 0, "rental_uris": {"android": "https://dc.lft.to/lastmile_qr_scan", "ios": "https://dc.lft.to/lastmile_qr_scan"}, "fusion_lon": 0.0}, {"lat": 38.866634, "is_disabled": 0, "type": "electric_scooter", "lon": -76.99018116666667, "bike_id": "5a0a96f5011689abf12cc7fdcca510de", "fusion_lat": 0.0, "name": "5a0a96f5011689abf12cc7fdcca510de", "is_reserved": 0, "rental_uris": {"android": "https://dc.lft.to/lastmile_qr_scan", "ios": "https://dc.lft.to/lastmile_qr_scan"}, "fusion_lon": 0.0}, {"lat": 38.900458666666665, "is_disabled": 0, "type": "electric_scooter", "lon": -76.99504083333333, "bike_id": "6c53f23b31bdac6c84c87b7ac5152dda", "fusion_lat": 0.0, "name": "6c53f23b31bdac6c84c87b7ac5152dda", "is_reserved": 0, "rental_uris": {"android": "https://dc.lft.to/lastmile_qr_scan", "ios": "https://dc.lft.to/lastmile_qr_scan"}, "fusion_lon": 0.0}, {"lat": 38.91702, "is_disabled": 0, "type": "electric_scooter", "lon": -77.04267083333333, "bike_id": "8ef7be7d3092d42b48356eb0d3cb1e0c", "fusion_lat": 0.0, "name": "8ef7be7d3092d42b48356eb0d3cb1e0c", "is_reserved": 0, "rental_uris": {"android": "https://dc.lft.to/lastmile_qr_scan", "ios": "https://dc.lft.to/lastmile_qr_scan"}, "fusion_lon": 0.0}, {"lat": 38.96395966666667, "is_disabled": 0, "type": "electric_scooter", "lon": -77.02590116666667, "bike_id": "033e35579487b8de23b02d5c3b281166", "fusion_lat": 0.0, "name": "033e35579487b8de23b02d5c3b281166", "is_reserved": 0, "rental_uris": {"android": "https://dc.lft.to/lastmile_qr_scan", "ios": "https://dc.lft.to/lastmile_qr_scan"}, "fusion_lon": 0.0}, {"lat": 38.902458, "is_disabled": 0, "type": "electric_scooter", "lon": -77.00529316666666, "bike_id": "54eb99dffe083093fb92bbdd7094c6ce", "fusion_lat": 0.0, "name": "54eb99dffe083093fb92bbdd7094c6ce", "is_reserved": 0, "rental_uris": {"android": "https://dc.lft.to/lastmile_qr_scan", "ios": "https://dc.lft.to/lastmile_qr_scan"}, "fusion_lon": 0.0}, {"lat": 38.9108145, "is_disabled": 0, "type": "electric_scooter", "lon": -77.04419783333333, "bike_id": "ee9dd97da74e6b362e49286d06e08ead", "fusion_lat": 0.0, "name": "ee9dd97da74e6b362e49286d06e08ead", "is_reserved": 0, "rental_uris": {"android": "https://dc.lft.to/lastmile_qr_scan", "ios": "https://dc.lft.to/lastmile_qr_scan"}, "fusion_lon": 0.0}, {"lat": 38.918043, "is_disabled": 0, "type": "electric_scooter", "lon": -77.03655433333333, "bike_id": "17dbbd1a5d79959f16c0d54bb075b482", "fusion_lat": 0.0, "name": "17dbbd1a5d79959f16c0d54bb075b482", "is_reserved": 0, "rental_uris": {"android": "https://dc.lft.to/lastmile_qr_scan", "ios": "https://dc.lft.to/lastmile_qr_scan"}, "fusion_lon": 0.0}, {"lat": 38.92473066666667, "is_disabled": 0, "type": "electric_bike", "lon": -77.20844783333334, "bike_id": "5baa78b7385cdbc0ef8a3d915e00b763", "fusion_lat": 0.0, "name": "5baa78b7385cdbc0ef8a3d915e00b763", "is_reserved": 0, "rental_uris": {"android": "https://dc.lft.to/lastmile_qr_scan", "ios": "https://dc.lft.to/lastmile_qr_scan"}, "fusion_lon": 0.0}, {"lat": 38.9273315, "is_disabled": 0, "type": "electric_scooter", "lon": -77.0209595, "bike_id": "f8b61019d3cc370c31a178a289240085", "fusion_lat": 0.0, "name": "f8b61019d3cc370c31a178a289240085", "is_reserved": 0, "rental_uris": {"android": "https://dc.lft.to/lastmile_qr_scan", "ios": "https://dc.lft.to/lastmile_qr_scan"}, "fusion_lon": 0.0}, {"lat": 38.900371, "is_disabled": 0, "type": "electric_scooter", "lon": -77.0058045, "bike_id": "01c00c005212e1529611b9749a2d7be8", "fusion_lat": 0.0, "name": "01c00c005212e1529611b9749a2d7be8", "is_reserved": 0, "rental_uris": {"android": "https://dc.lft.to/lastmile_qr_scan", "ios": "https://dc.lft.to/lastmile_qr_scan"}, "fusion_lon": 0.0}, {"lat": 38.8925015, "is_disabled": 0, "type": "electric_scooter", "lon": -77.039583, "bike_id": "8e3a1751c1c94a4b91dfe1d67a7be887", "fusion_lat": 0.0, "name": "8e3a1751c1c94a4b91dfe1d67a7be887", "is_reserved": 0, "rental_uris": {"android": "https://dc.lft.to/lastmile_qr_scan", "ios": "https://dc.lft.to/lastmile_qr_scan"}, "fusion_lon": 0.0}, {"lat": 38.877529333333335, "is_disabled": 0, "type": "electric_bike", "lon": -76.99514283333333, "bike_id": "47d6e54d39db4a48288fe73e2fb35cfa", "fusion_lat": 0.0, "name": "47d6e54d39db4a48288fe73e2fb35cfa", "is_reserved": 0, "rental_uris": {"android": "https://dc.lft.to/lastmile_qr_scan", "ios": "https://dc.lft.to/lastmile_qr_scan"}, "fusion_lon": 0.0}, {"lat": 38.944528, "is_disabled": 0, "type": "electric_scooter", "lon": -77.06033116666667, "bike_id": "4627f0a72b6d26dc9f1f5c374dfc4aa9", "fusion_lat": 0.0, "name": "4627f0a72b6d26dc9f1f5c374dfc4aa9", "is_reserved": 0, "rental_uris": {"android": "https://dc.lft.to/lastmile_qr_scan", "ios": "https://dc.lft.to/lastmile_qr_scan"}, "fusion_lon": 0.0}, {"lat": 38.95281816666667, "is_disabled": 0, "type": "electric_scooter", "lon": -77.03653316666667, "bike_id": "8751a8615e928f88ab9e802159d16527", "fusion_lat": 0.0, "name": "8751a8615e928f88ab9e802159d16527", "is_reserved": 0, "rental_uris": {"android": "https://dc.lft.to/lastmile_qr_scan", "ios": "https://dc.lft.to/lastmile_qr_scan"}, "fusion_lon": 0.0}, {"lat": 38.85807583333333, "is_disabled": 0, "type": "electric_scooter", "lon": -76.98655983333333, "bike_id": "bf806aaa7878037b0c0cfb308a46ea47", "fusion_lat": 0.0, "name": "bf806aaa7878037b0c0cfb308a46ea47", "is_reserved": 0, "rental_uris": {"android": "https://dc.lft.to/lastmile_qr_scan", "ios": "https://dc.lft.to/lastmile_qr_scan"}, "fusion_lon": 0.0}, {"lat": 38.91755366666667, "is_disabled": 0, "type": "electric_scooter", "lon": -77.03184316666666, "bike_id": "4df61fec6fa30a328c936e33f9e1d5d9", "fusion_lat": 0.0, "name": "4df61fec6fa30a328c936e33f9e1d5d9", "is_reserved": 0, "rental_uris": {"android": "https://dc.lft.to/lastmile_qr_scan", "ios": "https://dc.lft.to/lastmile_qr_scan"}, "fusion_lon": 0.0}, {"lat": 38.89096333333333, "is_disabled": 0, "type": "electric_scooter", "lon": -76.94293083333334, "bike_id": "975f53da0712ce4b792fc0aeedbd0d9a", "fusion_lat": 0.0, "name": "975f53da0712ce4b792fc0aeedbd0d9a", "is_reserved": 0, "rental_uris": {"android": "https://dc.lft.to/lastmile_qr_scan", "ios": "https://dc.lft.to/lastmile_qr_scan"}, "fusion_lon": 0.0}, {"lat": 38.929315333333335, "is_disabled": 0, "type": "electric_scooter", "lon": -77.032678, "bike_id": "3e70bedaa25b26d84fc3b39f3e39678e", "fusion_lat": 0.0, "name": "3e70bedaa25b26d84fc3b39f3e39678e", "is_reserved": 0, "rental_uris": {"android": "https://dc.lft.to/lastmile_qr_scan", "ios": "https://dc.lft.to/lastmile_qr_scan"}, "fusion_lon": 0.0}, {"lat": 38.916024666666665, "is_disabled": 0, "type": "electric_scooter", "lon": -77.07564483333333, "bike_id": "1e820c1ccf1ab40dc602a4565aed0971", "fusion_lat": 0.0, "name": "1e820c1ccf1ab40dc602a4565aed0971", "is_reserved": 0, "rental_uris": {"android": "https://dc.lft.to/lastmile_qr_scan", "ios": "https://dc.lft.to/lastmile_qr_scan"}, "fusion_lon": 0.0}, {"lat": 38.92834233333333, "is_disabled": 0, "type": "electric_scooter", "lon": -77.03722133333333, "bike_id": "7f8172ac275c1caa4bd2e1e203e34cea", "fusion_lat": 0.0, "name": "7f8172ac275c1caa4bd2e1e203e34cea", "is_reserved": 0, "rental_uris": {"android": "https://dc.lft.to/lastmile_qr_scan", "ios": "https://dc.lft.to/lastmile_qr_scan"}, "fusion_lon": 0.0}, {"lat": 38.876822, "is_disabled": 0, "type": "electric_scooter", "lon": -77.01790966666667, "bike_id": "ff065cd663fc2f120a7f373515441a90", "fusion_lat": 0.0, "name": "ff065cd663fc2f120a7f373515441a90", "is_reserved": 0, "rental_uris": {"android": "https://dc.lft.to/lastmile_qr_scan", "ios": "https://dc.lft.to/lastmile_qr_scan"}, "fusion_lon": 0.0}, {"lat": 38.9105545, "is_disabled": 0, "type": "electric_scooter", "lon": -77.01527766666666, "bike_id": "2dec570027d39c0cf0358f9b75733381", "fusion_lat": 0.0, "name": "2dec570027d39c0cf0358f9b75733381", "is_reserved": 0, "rental_uris": {"android": "https://dc.lft.to/lastmile_qr_scan", "ios": "https://dc.lft.to/lastmile_qr_scan"}, "fusion_lon": 0.0}, {"lat": 38.90371, "is_disabled": 0, "type": "electric_scooter", "lon": -77.04838483333333, "bike_id": "e1d303c8f81df651c7b5fa02de7cc1a5", "fusion_lat": 0.0, "name": "e1d303c8f81df651c7b5fa02de7cc1a5", "is_reserved": 0, "rental_uris": {"android": "https://dc.lft.to/lastmile_qr_scan", "ios": "https://dc.lft.to/lastmile_qr_scan"}, "fusion_lon": 0.0}, {"lat": 38.90781716666667, "is_disabled": 0, "type": "electric_scooter", "lon": -77.00337466666667, "bike_id": "d5f0c8344e2f1b888b160260a8508736", "fusion_lat": 0.0, "name": "d5f0c8344e2f1b888b160260a8508736", "is_reserved": 0, "rental_uris": {"android": "https://dc.lft.to/lastmile_qr_scan", "ios": "https://dc.lft.to/lastmile_qr_scan"}, "fusion_lon": 0.0}, {"lat": 38.92630666666667, "is_disabled": 0, "type": "electric_scooter", "lon": -77.03791666666666, "bike_id": "2e0d6141cf5152f2765d75bc02da5044", "fusion_lat": 0.0, "name": "2e0d6141cf5152f2765d75bc02da5044", "is_reserved": 0, "rental_uris": {"android": "https://dc.lft.to/lastmile_qr_scan", "ios": "https://dc.lft.to/lastmile_qr_scan"}, "fusion_lon": 0.0}, {"lat": 38.87733766666667, "is_disabled": 0, "type": "electric_bike", "lon": -76.9810685, "bike_id": "1ed6157fd99b5e22610410112c476ec7", "fusion_lat": 0.0, "name": "1ed6157fd99b5e22610410112c476ec7", "is_reserved": 0, "rental_uris": {"android": "https://dc.lft.to/lastmile_qr_scan", "ios": "https://dc.lft.to/lastmile_qr_scan"}, "fusion_lon": 0.0}, {"lat": 38.9156375, "is_disabled": 0, "type": "electric_scooter", "lon": -77.03315633333334, "bike_id": "20a2bfab6963c43fca77f1f0fec71fcb", "fusion_lat": 0.0, "name": "20a2bfab6963c43fca77f1f0fec71fcb", "is_reserved": 0, "rental_uris": {"android": "https://dc.lft.to/lastmile_qr_scan", "ios": "https://dc.lft.to/lastmile_qr_scan"}, "fusion_lon": 0.0}, {"lat": 38.892760333333335, "is_disabled": 0, "type": "electric_scooter", "lon": -77.02608616666667, "bike_id": "b05a8c897248c9a4ac25cb0ecfa98b5d", "fusion_lat": 0.0, "name": "b05a8c897248c9a4ac25cb0ecfa98b5d", "is_reserved": 0, "rental_uris": {"android": "https://dc.lft.to/lastmile_qr_scan", "ios": "https://dc.lft.to/lastmile_qr_scan"}, "fusion_lon": 0.0}, {"lat": 38.874768833333334, "is_disabled": 0, "type": "electric_scooter", "lon": -77.01071833333333, "bike_id": "3de93c5e5a3bbe1b7014f741b0855c25", "fusion_lat": 0.0, "name": "3de93c5e5a3bbe1b7014f741b0855c25", "is_reserved": 0, "rental_uris": {"android": "https://dc.lft.to/lastmile_qr_scan", "ios": "https://dc.lft.to/lastmile_qr_scan"}, "fusion_lon": 0.0}, {"lat": 38.89949883333333, "is_disabled": 0, "type": "electric_scooter", "lon": -77.05167783333333, "bike_id": "1558529d316980b599d3dadcfc0b4e2e", "fusion_lat": 0.0, "name": "1558529d316980b599d3dadcfc0b4e2e", "is_reserved": 0, "rental_uris": {"android": "https://dc.lft.to/lastmile_qr_scan", "ios": "https://dc.lft.to/lastmile_qr_scan"}, "fusion_lon": 0.0}, {"lat": 38.908144, "is_disabled": 0, "type": "electric_scooter", "lon": -76.98275616666666, "bike_id": "ef7c076bb760caccf63c2957043bd80d", "fusion_lat": 0.0, "name": "ef7c076bb760caccf63c2957043bd80d", "is_reserved": 0, "rental_uris": {"android": "https://dc.lft.to/lastmile_qr_scan", "ios": "https://dc.lft.to/lastmile_qr_scan"}, "fusion_lon": 0.0}, {"lat": 38.9027495, "is_disabled": 0, "type": "electric_scooter", "lon": -77.02825083333333, "bike_id": "3f23cba040ca8165b542e47680a75f5e", "fusion_lat": 0.0, "name": "3f23cba040ca8165b542e47680a75f5e", "is_reserved": 0, "rental_uris": {"android": "https://dc.lft.to/lastmile_qr_scan", "ios": "https://dc.lft.to/lastmile_qr_scan"}, "fusion_lon": 0.0}, {"lat": 38.89226766666667, "is_disabled": 0, "type": "electric_scooter", "lon": -77.02645816666667, "bike_id": "7580f25016e73455cfb9a328d4db5659", "fusion_lat": 0.0, "name": "7580f25016e73455cfb9a328d4db5659", "is_reserved": 0, "rental_uris": {"android": "https://dc.lft.to/lastmile_qr_scan", "ios": "https://dc.lft.to/lastmile_qr_scan"}, "fusion_lon": 0.0}, {"lat": 38.906332166666665, "is_disabled": 0, "type": "electric_scooter", "lon": -77.06289016666666, "bike_id": "0451eec821b1239ad69a491fba372bad", "fusion_lat": 0.0, "name": "0451eec821b1239ad69a491fba372bad", "is_reserved": 0, "rental_uris": {"android": "https://dc.lft.to/lastmile_qr_scan", "ios": "https://dc.lft.to/lastmile_qr_scan"}, "fusion_lon": 0.0}, {"lat": 38.914215666666664, "is_disabled": 0, "type": "electric_scooter", "lon": -77.02236633333334, "bike_id": "54bb25fa1cda4af5cde86438820a3cf0", "fusion_lat": 0.0, "name": "54bb25fa1cda4af5cde86438820a3cf0", "is_reserved": 0, "rental_uris": {"android": "https://dc.lft.to/lastmile_qr_scan", "ios": "https://dc.lft.to/lastmile_qr_scan"}, "fusion_lon": 0.0}, {"lat": 38.910689, "is_disabled": 0, "type": "electric_scooter", "lon": -77.0423405, "bike_id": "733a4c4644fa621719e739ce888e7e0a", "fusion_lat": 0.0, "name": "733a4c4644fa621719e739ce888e7e0a", "is_reserved": 0, "rental_uris": {"android": "https://dc.lft.to/lastmile_qr_scan", "ios": "https://dc.lft.to/lastmile_qr_scan"}, "fusion_lon": 0.0}, {"lat": 38.96706866666667, "is_disabled": 0, "type": "electric_bike", "lon": -77.10220033333333, "bike_id": "800c7d4e4957e2452d912a22c1e03cb7", "fusion_lat": 0.0, "name": "800c7d4e4957e2452d912a22c1e03cb7", "is_reserved": 0, "rental_uris": {"android": "https://dc.lft.to/lastmile_qr_scan", "ios": "https://dc.lft.to/lastmile_qr_scan"}, "fusion_lon": 0.0}, {"lat": 38.861606, "is_disabled": 0, "type": "electric_bike", "lon": -77.13094633333333, "bike_id": "5113ac55e84ec2cb9aa9a263fe511331", "fusion_lat": 0.0, "name": "5113ac55e84ec2cb9aa9a263fe511331", "is_reserved": 0, "rental_uris": {"android": "https://dc.lft.to/lastmile_qr_scan", "ios": "https://dc.lft.to/lastmile_qr_scan"}, "fusion_lon": 0.0}, {"lat": 38.908816333333334, "is_disabled": 0, "type": "electric_scooter", "lon": -77.0434785, "bike_id": "44426905fe62d2740e103a47e4150a2d", "fusion_lat": 0.0, "name": "44426905fe62d2740e103a47e4150a2d", "is_reserved": 0, "rental_uris": {"android": "https://dc.lft.to/lastmile_qr_scan", "ios": "https://dc.lft.to/lastmile_qr_scan"}, "fusion_lon": 0.0}, {"lat": 38.920627333333336, "is_disabled": 0, "type": "electric_scooter", "lon": -77.0329105, "bike_id": "f023b0266d94e50241e7f8cb6843ef5f", "fusion_lat": 0.0, "name": "f023b0266d94e50241e7f8cb6843ef5f", "is_reserved": 0, "rental_uris": {"android": "https://dc.lft.to/lastmile_qr_scan", "ios": "https://dc.lft.to/lastmile_qr_scan"}, "fusion_lon": 0.0}, {"lat": 38.910638, "is_disabled": 0, "type": "electric_scooter", "lon": -77.026556, "bike_id": "55ac28a4024a30a46b6cd67da0a06c5c", "fusion_lat": 0.0, "name": "55ac28a4024a30a46b6cd67da0a06c5c", "is_reserved": 0, "rental_uris": {"android": "https://dc.lft.to/lastmile_qr_scan", "ios": "https://dc.lft.to/lastmile_qr_scan"}, "fusion_lon": 0.0}, {"lat": 38.905384, "is_disabled": 0, "type": "electric_scooter", "lon": -77.02221833333333, "bike_id": "d8d54637604212536e330738dee73ee9", "fusion_lat": 0.0, "name": "d8d54637604212536e330738dee73ee9", "is_reserved": 0, "rental_uris": {"android": "https://dc.lft.to/lastmile_qr_scan", "ios": "https://dc.lft.to/lastmile_qr_scan"}, "fusion_lon": 0.0}, {"lat": 38.88927783333333, "is_disabled": 0, "type": "electric_scooter", "lon": -76.97372783333333, "bike_id": "83a8ee28c06a6d6d3c75f6f8ba1dc16f", "fusion_lat": 0.0, "name": "83a8ee28c06a6d6d3c75f6f8ba1dc16f", "is_reserved": 0, "rental_uris": {"android": "https://dc.lft.to/lastmile_qr_scan", "ios": "https://dc.lft.to/lastmile_qr_scan"}, "fusion_lon": 0.0}, {"lat": 38.94201783333333, "is_disabled": 0, "type": "electric_scooter", "lon": -77.01828833333333, "bike_id": "33ccdf7a8d99a01f56cc2060404be18c", "fusion_lat": 0.0, "name": "33ccdf7a8d99a01f56cc2060404be18c", "is_reserved": 0, "rental_uris": {"android": "https://dc.lft.to/lastmile_qr_scan", "ios": "https://dc.lft.to/lastmile_qr_scan"}, "fusion_lon": 0.0}, {"lat": 38.917857833333336, "is_disabled": 0, "type": "electric_scooter", "lon": -77.02262233333333, "bike_id": "92354d3b2ee25ac5ab959833fc2c02bd", "fusion_lat": 0.0, "name": "92354d3b2ee25ac5ab959833fc2c02bd", "is_reserved": 0, "rental_uris": {"android": "https://dc.lft.to/lastmile_qr_scan", "ios": "https://dc.lft.to/lastmile_qr_scan"}, "fusion_lon": 0.0}, {"lat": 38.90801283333333, "is_disabled": 0, "type": "electric_scooter", "lon": -77.00375283333334, "bike_id": "d8a6ab1f2332c2af4dd7876489c6055d", "fusion_lat": 0.0, "name": "d8a6ab1f2332c2af4dd7876489c6055d", "is_reserved": 0, "rental_uris": {"android": "https://dc.lft.to/lastmile_qr_scan", "ios": "https://dc.lft.to/lastmile_qr_scan"}, "fusion_lon": 0.0}, {"lat": 38.9353895, "is_disabled": 0, "type": "electric_scooter", "lon": -77.0339535, "bike_id": "b0edc502486db2bb54b4c85aa85c88cb", "fusion_lat": 0.0, "name": "b0edc502486db2bb54b4c85aa85c88cb", "is_reserved": 0, "rental_uris": {"android": "https://dc.lft.to/lastmile_qr_scan", "ios": "https://dc.lft.to/lastmile_qr_scan"}, "fusion_lon": 0.0}, {"lat": 38.91611116666667, "is_disabled": 0, "type": "electric_scooter", "lon": -77.0219055, "bike_id": "263f0bcb539b05a243ef440630edfc0e", "fusion_lat": 0.0, "name": "263f0bcb539b05a243ef440630edfc0e", "is_reserved": 0, "rental_uris": {"android": "https://dc.lft.to/lastmile_qr_scan", "ios": "https://dc.lft.to/lastmile_qr_scan"}, "fusion_lon": 0.0}, {"lat": 38.896248, "is_disabled": 0, "type": "electric_scooter", "lon": -76.9929785, "bike_id": "7e32565ec610ef1c5b7b4cf21063cd20", "fusion_lat": 0.0, "name": "7e32565ec610ef1c5b7b4cf21063cd20", "is_reserved": 0, "rental_uris": {"android": "https://dc.lft.to/lastmile_qr_scan", "ios": "https://dc.lft.to/lastmile_qr_scan"}, "fusion_lon": 0.0}, {"lat": 38.86115733333333, "is_disabled": 0, "type": "electric_scooter", "lon": -76.983786, "bike_id": "5a137c2e8fd0034d6df33ef71bdae31e", "fusion_lat": 0.0, "name": "5a137c2e8fd0034d6df33ef71bdae31e", "is_reserved": 0, "rental_uris": {"android": "https://dc.lft.to/lastmile_qr_scan", "ios": "https://dc.lft.to/lastmile_qr_scan"}, "fusion_lon": 0.0}, {"lat": 38.907248, "is_disabled": 0, "type": "electric_scooter", "lon": -76.98928316666667, "bike_id": "b24c7cde1736d4f00c3d41c222a31dc0", "fusion_lat": 0.0, "name": "b24c7cde1736d4f00c3d41c222a31dc0", "is_reserved": 0, "rental_uris": {"android": "https://dc.lft.to/lastmile_qr_scan", "ios": "https://dc.lft.to/lastmile_qr_scan"}, "fusion_lon": 0.0}, {"lat": 38.89834883333333, "is_disabled": 0, "type": "electric_scooter", "lon": -77.03001683333333, "bike_id": "17cfb4bff433158e281f46d23db9ed67", "fusion_lat": 0.0, "name": "17cfb4bff433158e281f46d23db9ed67", "is_reserved": 0, "rental_uris": {"android": "https://dc.lft.to/lastmile_qr_scan", "ios": "https://dc.lft.to/lastmile_qr_scan"}, "fusion_lon": 0.0}, {"lat": 38.930943, "is_disabled": 0, "type": "electric_scooter", "lon": -77.077442, "bike_id": "2f0bb4828d3ab3217e18b09488064bb2", "fusion_lat": 0.0, "name": "2f0bb4828d3ab3217e18b09488064bb2", "is_reserved": 0, "rental_uris": {"android": "https://dc.lft.to/lastmile_qr_scan", "ios": "https://dc.lft.to/lastmile_qr_scan"}, "fusion_lon": 0.0}, {"lat": 38.92277633333333, "is_disabled": 0, "type": "electric_scooter", "lon": -77.03670316666667, "bike_id": "87fcf090da9071013f5f3d676dbd9a59", "fusion_lat": 0.0, "name": "87fcf090da9071013f5f3d676dbd9a59", "is_reserved": 0, "rental_uris": {"android": "https://dc.lft.to/lastmile_qr_scan", "ios": "https://dc.lft.to/lastmile_qr_scan"}, "fusion_lon": 0.0}, {"lat": 38.89629133333333, "is_disabled": 0, "type": "electric_scooter", "lon": -77.030161, "bike_id": "1fc730e0617244c83c52756cd226a9d3", "fusion_lat": 0.0, "name": "1fc730e0617244c83c52756cd226a9d3", "is_reserved": 0, "rental_uris": {"android": "https://dc.lft.to/lastmile_qr_scan", "ios": "https://dc.lft.to/lastmile_qr_scan"}, "fusion_lon": 0.0}, {"lat": 38.84030033333333, "is_disabled": 0, "type": "electric_bike", "lon": -76.97586216666667, "bike_id": "f0da1ac5e48699a78c193cca6b5b9f4c", "fusion_lat": 0.0, "name": "f0da1ac5e48699a78c193cca6b5b9f4c", "is_reserved": 0, "rental_uris": {"android": "https://dc.lft.to/lastmile_qr_scan", "ios": "https://dc.lft.to/lastmile_qr_scan"}, "fusion_lon": 0.0}, {"lat": 38.940808833333335, "is_disabled": 0, "type": "electric_scooter", "lon": -77.035027, "bike_id": "df970f93379ae8fefc99acabad3ded2e", "fusion_lat": 0.0, "name": "df970f93379ae8fefc99acabad3ded2e", "is_reserved": 0, "rental_uris": {"android": "https://dc.lft.to/lastmile_qr_scan", "ios": "https://dc.lft.to/lastmile_qr_scan"}, "fusion_lon": 0.0}, {"lat": 38.930311833333334, "is_disabled": 0, "type": "electric_scooter", "lon": -77.0235185, "bike_id": "cac4be27315bf276e20b30f040551c91", "fusion_lat": 0.0, "name": "cac4be27315bf276e20b30f040551c91", "is_reserved": 0, "rental_uris": {"android": "https://dc.lft.to/lastmile_qr_scan", "ios": "https://dc.lft.to/lastmile_qr_scan"}, "fusion_lon": 0.0}, {"lat": 38.842952833333335, "is_disabled": 0, "type": "electric_scooter", "lon": -76.99950016666666, "bike_id": "c44b0751f2c3fd37c51e303d80b5802a", "fusion_lat": 0.0, "name": "c44b0751f2c3fd37c51e303d80b5802a", "is_reserved": 0, "rental_uris": {"android": "https://dc.lft.to/lastmile_qr_scan", "ios": "https://dc.lft.to/lastmile_qr_scan"}, "fusion_lon": 0.0}, {"lat": 38.90056666666667, "is_disabled": 0, "type": "electric_scooter", "lon": -77.04385, "bike_id": "251926b55f7e04dd60db7f20b7e07327", "fusion_lat": 0.0, "name": "251926b55f7e04dd60db7f20b7e07327", "is_reserved": 0, "rental_uris": {"android": "https://dc.lft.to/lastmile_qr_scan", "ios": "https://dc.lft.to/lastmile_qr_scan"}, "fusion_lon": 0.0}, {"lat": 38.90741516666667, "is_disabled": 0, "type": "electric_scooter", "lon": -77.04782866666666, "bike_id": "1a74709999d4ca339b58e6b004595013", "fusion_lat": 0.0, "name": "1a74709999d4ca339b58e6b004595013", "is_reserved": 0, "rental_uris": {"android": "https://dc.lft.to/lastmile_qr_scan", "ios": "https://dc.lft.to/lastmile_qr_scan"}, "fusion_lon": 0.0}, {"lat": 38.892439333333336, "is_disabled": 0, "type": "electric_scooter", "lon": -77.03953316666667, "bike_id": "74d318971646637ef44cc0feff092be2", "fusion_lat": 0.0, "name": "74d318971646637ef44cc0feff092be2", "is_reserved": 0, "rental_uris": {"android": "https://dc.lft.to/lastmile_qr_scan", "ios": "https://dc.lft.to/lastmile_qr_scan"}, "fusion_lon": 0.0}, {"lat": 38.86001533333334, "is_disabled": 0, "type": "electric_scooter", "lon": -76.98539933333333, "bike_id": "5598aa8390ea683415eed5e42a593115", "fusion_lat": 0.0, "name": "5598aa8390ea683415eed5e42a593115", "is_reserved": 0, "rental_uris": {"android": "https://dc.lft.to/lastmile_qr_scan", "ios": "https://dc.lft.to/lastmile_qr_scan"}, "fusion_lon": 0.0}, {"lat": 38.9232105, "is_disabled": 0, "type": "electric_scooter", "lon": -77.03527266666667, "bike_id": "661506f4403cb6574b217616968bc7c3", "fusion_lat": 0.0, "name": "661506f4403cb6574b217616968bc7c3", "is_reserved": 0, "rental_uris": {"android": "https://dc.lft.to/lastmile_qr_scan", "ios": "https://dc.lft.to/lastmile_qr_scan"}, "fusion_lon": 0.0}, {"lat": 38.9122725, "is_disabled": 0, "type": "electric_scooter", "lon": -77.03443, "bike_id": "c77b31a19673d7c755972511cef66134", "fusion_lat": 0.0, "name": "c77b31a19673d7c755972511cef66134", "is_reserved": 0, "rental_uris": {"android": "https://dc.lft.to/lastmile_qr_scan", "ios": "https://dc.lft.to/lastmile_qr_scan"}, "fusion_lon": 0.0}, {"lat": 38.90574383333333, "is_disabled": 0, "type": "electric_scooter", "lon": -77.02202216666667, "bike_id": "d6f0fc76cd9fb8dda80994eb084cf8b2", "fusion_lat": 0.0, "name": "d6f0fc76cd9fb8dda80994eb084cf8b2", "is_reserved": 0, "rental_uris": {"android": "https://dc.lft.to/lastmile_qr_scan", "ios": "https://dc.lft.to/lastmile_qr_scan"}, "fusion_lon": 0.0}, {"lat": 38.9003615, "is_disabled": 0, "type": "electric_scooter", "lon": -77.00209066666666, "bike_id": "49513952c155ae311cc3a39fde3fdd0b", "fusion_lat": 0.0, "name": "49513952c155ae311cc3a39fde3fdd0b", "is_reserved": 0, "rental_uris": {"android": "https://dc.lft.to/lastmile_qr_scan", "ios": "https://dc.lft.to/lastmile_qr_scan"}, "fusion_lon": 0.0}, {"lat": 38.940962166666665, "is_disabled": 0, "type": "electric_scooter", "lon": -77.03284866666667, "bike_id": "676e61a7ce7144ec030442ee1eb6bd5a", "fusion_lat": 0.0, "name": "676e61a7ce7144ec030442ee1eb6bd5a", "is_reserved": 0, "rental_uris": {"android": "https://dc.lft.to/lastmile_qr_scan", "ios": "https://dc.lft.to/lastmile_qr_scan"}, "fusion_lon": 0.0}, {"lat": 38.90583083333333, "is_disabled": 0, "type": "electric_scooter", "lon": -77.046716, "bike_id": "0fd3a364a06c992189fb19d09e6fb1ad", "fusion_lat": 0.0, "name": "0fd3a364a06c992189fb19d09e6fb1ad", "is_reserved": 0, "rental_uris": {"android": "https://dc.lft.to/lastmile_qr_scan", "ios": "https://dc.lft.to/lastmile_qr_scan"}, "fusion_lon": 0.0}, {"lat": 38.950765833333335, "is_disabled": 0, "type": "electric_scooter", "lon": -77.066547, "bike_id": "4196008a9bc800112e7cd54145dd9be1", "fusion_lat": 0.0, "name": "4196008a9bc800112e7cd54145dd9be1", "is_reserved": 0, "rental_uris": {"android": "https://dc.lft.to/lastmile_qr_scan", "ios": "https://dc.lft.to/lastmile_qr_scan"}, "fusion_lon": 0.0}, {"lat": 38.8763235, "is_disabled": 0, "type": "electric_scooter", "lon": -76.96527866666666, "bike_id": "3c72536a24fc79ea070fdd189cdcbf1d", "fusion_lat": 0.0, "name": "3c72536a24fc79ea070fdd189cdcbf1d", "is_reserved": 0, "rental_uris": {"android": "https://dc.lft.to/lastmile_qr_scan", "ios": "https://dc.lft.to/lastmile_qr_scan"}, "fusion_lon": 0.0}, {"lat": 38.91424133333334, "is_disabled": 0, "type": "electric_scooter", "lon": -77.032033, "bike_id": "1af21091f8dd99dc6cacd39300c47876", "fusion_lat": 0.0, "name": "1af21091f8dd99dc6cacd39300c47876", "is_reserved": 0, "rental_uris": {"android": "https://dc.lft.to/lastmile_qr_scan", "ios": "https://dc.lft.to/lastmile_qr_scan"}, "fusion_lon": 0.0}, {"lat": 38.90803366666667, "is_disabled": 0, "type": "electric_scooter", "lon": -77.0038995, "bike_id": "86a7641a33ca88a5ac67181d441874c6", "fusion_lat": 0.0, "name": "86a7641a33ca88a5ac67181d441874c6", "is_reserved": 0, "rental_uris": {"android": "https://dc.lft.to/lastmile_qr_scan", "ios": "https://dc.lft.to/lastmile_qr_scan"}, "fusion_lon": 0.0}, {"lat": 38.92190133333333, "is_disabled": 0, "type": "electric_scooter", "lon": -77.02419533333334, "bike_id": "7924f9ae2ae2a42e9f4ded6b4f1e7aa3", "fusion_lat": 0.0, "name": "7924f9ae2ae2a42e9f4ded6b4f1e7aa3", "is_reserved": 0, "rental_uris": {"android": "https://dc.lft.to/lastmile_qr_scan", "ios": "https://dc.lft.to/lastmile_qr_scan"}, "fusion_lon": 0.0}, {"lat": 38.852122333333334, "is_disabled": 0, "type": "electric_bike", "lon": -76.99576816666666, "bike_id": "6c0392cad69e85796925a4e156c827a9", "fusion_lat": 0.0, "name": "6c0392cad69e85796925a4e156c827a9", "is_reserved": 0, "rental_uris": {"android": "https://dc.lft.to/lastmile_qr_scan", "ios": "https://dc.lft.to/lastmile_qr_scan"}, "fusion_lon": 0.0}, {"lat": 38.914155, "is_disabled": 0, "type": "electric_scooter", "lon": -77.03164333333334, "bike_id": "4fa8d2ae6b81d81e698da81c312646d2", "fusion_lat": 0.0, "name": "4fa8d2ae6b81d81e698da81c312646d2", "is_reserved": 0, "rental_uris": {"android": "https://dc.lft.to/lastmile_qr_scan", "ios": "https://dc.lft.to/lastmile_qr_scan"}, "fusion_lon": 0.0}, {"lat": 38.8050735, "is_disabled": 0, "type": "electric_bike", "lon": -77.04136116666666, "bike_id": "aec4d5293a8d916a2d2d671202d6d444", "fusion_lat": 0.0, "name": "aec4d5293a8d916a2d2d671202d6d444", "is_reserved": 0, "rental_uris": {"android": "https://dc.lft.to/lastmile_qr_scan", "ios": "https://dc.lft.to/lastmile_qr_scan"}, "fusion_lon": 0.0}, {"lat": 38.8443395, "is_disabled": 0, "type": "electric_scooter", "lon": -76.99780833333334, "bike_id": "76f0867ec6ade91a88cd5d03397038bd", "fusion_lat": 0.0, "name": "76f0867ec6ade91a88cd5d03397038bd", "is_reserved": 0, "rental_uris": {"android": "https://dc.lft.to/lastmile_qr_scan", "ios": "https://dc.lft.to/lastmile_qr_scan"}, "fusion_lon": 0.0}, {"lat": 38.907127833333334, "is_disabled": 0, "type": "electric_scooter", "lon": -77.03112433333334, "bike_id": "d89647c693268f3433c1b020ade32b08", "fusion_lat": 0.0, "name": "d89647c693268f3433c1b020ade32b08", "is_reserved": 0, "rental_uris": {"android": "https://dc.lft.to/lastmile_qr_scan", "ios": "https://dc.lft.to/lastmile_qr_scan"}, "fusion_lon": 0.0}, {"lat": 38.953304833333334, "is_disabled": 0, "type": "electric_bike", "lon": -76.98819166666667, "bike_id": "0f551c2ac5fa6efcc8d1dc845e22a564", "fusion_lat": 0.0, "name": "0f551c2ac5fa6efcc8d1dc845e22a564", "is_reserved": 0, "rental_uris": {"android": "https://dc.lft.to/lastmile_qr_scan", "ios": "https://dc.lft.to/lastmile_qr_scan"}, "fusion_lon": 0.0}, {"lat": 38.917092333333336, "is_disabled": 0, "type": "electric_scooter", "lon": -77.011039, "bike_id": "d27739357aa475d5b614ee533d08a742", "fusion_lat": 0.0, "name": "d27739357aa475d5b614ee533d08a742", "is_reserved": 0, "rental_uris": {"android": "https://dc.lft.to/lastmile_qr_scan", "ios": "https://dc.lft.to/lastmile_qr_scan"}, "fusion_lon": 0.0}, {"lat": 38.92264433333333, "is_disabled": 0, "type": "electric_scooter", "lon": -77.03892833333333, "bike_id": "22b4f05f29d2ecad10f62c87a309401a", "fusion_lat": 0.0, "name": "22b4f05f29d2ecad10f62c87a309401a", "is_reserved": 0, "rental_uris": {"android": "https://dc.lft.to/lastmile_qr_scan", "ios": "https://dc.lft.to/lastmile_qr_scan"}, "fusion_lon": 0.0}, {"lat": 38.8662375, "is_disabled": 0, "type": "electric_scooter", "lon": -76.9864145, "bike_id": "f138a4887427d195ed594bbc59084427", "fusion_lat": 0.0, "name": "f138a4887427d195ed594bbc59084427", "is_reserved": 0, "rental_uris": {"android": "https://dc.lft.to/lastmile_qr_scan", "ios": "https://dc.lft.to/lastmile_qr_scan"}, "fusion_lon": 0.0}, {"lat": 38.91556333333333, "is_disabled": 0, "type": "electric_scooter", "lon": -77.0324055, "bike_id": "cdb599f60d5aee317ac152430d07ca0f", "fusion_lat": 0.0, "name": "cdb599f60d5aee317ac152430d07ca0f", "is_reserved": 0, "rental_uris": {"android": "https://dc.lft.to/lastmile_qr_scan", "ios": "https://dc.lft.to/lastmile_qr_scan"}, "fusion_lon": 0.0}, {"lat": 38.9152475, "is_disabled": 0, "type": "electric_scooter", "lon": -77.0383735, "bike_id": "7c7f7c237b6c49ea3a75f327f9be51b5", "fusion_lat": 0.0, "name": "7c7f7c237b6c49ea3a75f327f9be51b5", "is_reserved": 0, "rental_uris": {"android": "https://dc.lft.to/lastmile_qr_scan", "ios": "https://dc.lft.to/lastmile_qr_scan"}, "fusion_lon": 0.0}, {"lat": 38.85912283333333, "is_disabled": 0, "type": "electric_scooter", "lon": -76.99147016666667, "bike_id": "1fc9e404e85142ffa9c5d7f14af622b0", "fusion_lat": 0.0, "name": "1fc9e404e85142ffa9c5d7f14af622b0", "is_reserved": 0, "rental_uris": {"android": "https://dc.lft.to/lastmile_qr_scan", "ios": "https://dc.lft.to/lastmile_qr_scan"}, "fusion_lon": 0.0}, {"lat": 38.93066816666666, "is_disabled": 0, "type": "electric_scooter", "lon": -77.0418135, "bike_id": "ba9afbb31a85fbb1d3dde07ca87461d2", "fusion_lat": 0.0, "name": "ba9afbb31a85fbb1d3dde07ca87461d2", "is_reserved": 0, "rental_uris": {"android": "https://dc.lft.to/lastmile_qr_scan", "ios": "https://dc.lft.to/lastmile_qr_scan"}, "fusion_lon": 0.0}, {"lat": 38.91275133333333, "is_disabled": 0, "type": "electric_scooter", "lon": -77.02271983333333, "bike_id": "99902a55dc7c14495ea8ffe45662b0f4", "fusion_lat": 0.0, "name": "99902a55dc7c14495ea8ffe45662b0f4", "is_reserved": 0, "rental_uris": {"android": "https://dc.lft.to/lastmile_qr_scan", "ios": "https://dc.lft.to/lastmile_qr_scan"}, "fusion_lon": 0.0}, {"lat": 38.905672, "is_disabled": 0, "type": "electric_scooter", "lon": -77.02508383333333, "bike_id": "31686253d8a5211a04cd41947a504b00", "fusion_lat": 0.0, "name": "31686253d8a5211a04cd41947a504b00", "is_reserved": 0, "rental_uris": {"android": "https://dc.lft.to/lastmile_qr_scan", "ios": "https://dc.lft.to/lastmile_qr_scan"}, "fusion_lon": 0.0}, {"lat": 38.90582716666667, "is_disabled": 0, "type": "electric_scooter", "lon": -77.06276783333334, "bike_id": "a71ab7f2308e438236402e56da9d5f33", "fusion_lat": 0.0, "name": "a71ab7f2308e438236402e56da9d5f33", "is_reserved": 0, "rental_uris": {"android": "https://dc.lft.to/lastmile_qr_scan", "ios": "https://dc.lft.to/lastmile_qr_scan"}, "fusion_lon": 0.0}, {"lat": 38.90773866666667, "is_disabled": 0, "type": "electric_scooter", "lon": -77.043447, "bike_id": "f1af182c2c6d161b028a180215ba3844", "fusion_lat": 0.0, "name": "f1af182c2c6d161b028a180215ba3844", "is_reserved": 0, "rental_uris": {"android": "https://dc.lft.to/lastmile_qr_scan", "ios": "https://dc.lft.to/lastmile_qr_scan"}, "fusion_lon": 0.0}, {"lat": 38.891371166666666, "is_disabled": 0, "type": "electric_scooter", "lon": -76.94384633333334, "bike_id": "9f63a7ca32367ba62f7d9a57b96a5306", "fusion_lat": 0.0, "name": "9f63a7ca32367ba62f7d9a57b96a5306", "is_reserved": 0, "rental_uris": {"android": "https://dc.lft.to/lastmile_qr_scan", "ios": "https://dc.lft.to/lastmile_qr_scan"}, "fusion_lon": 0.0}, {"lat": 38.92578833333334, "is_disabled": 0, "type": "electric_scooter", "lon": -77.02562966666666, "bike_id": "2adacea877b3103dfe886388af9c41ed", "fusion_lat": 0.0, "name": "2adacea877b3103dfe886388af9c41ed", "is_reserved": 0, "rental_uris": {"android": "https://dc.lft.to/lastmile_qr_scan", "ios": "https://dc.lft.to/lastmile_qr_scan"}, "fusion_lon": 0.0}, {"lat": 38.91698483333333, "is_disabled": 0, "type": "electric_scooter", "lon": -77.00809583333333, "bike_id": "b612d92af2e0e246ea87e308f00fa520", "fusion_lat": 0.0, "name": "b612d92af2e0e246ea87e308f00fa520", "is_reserved": 0, "rental_uris": {"android": "https://dc.lft.to/lastmile_qr_scan", "ios": "https://dc.lft.to/lastmile_qr_scan"}, "fusion_lon": 0.0}, {"lat": 38.9363845, "is_disabled": 0, "type": "electric_scooter", "lon": -77.0587935, "bike_id": "f667e9556dd1ea0ba9089693fbe8c6c7", "fusion_lat": 0.0, "name": "f667e9556dd1ea0ba9089693fbe8c6c7", "is_reserved": 0, "rental_uris": {"android": "https://dc.lft.to/lastmile_qr_scan", "ios": "https://dc.lft.to/lastmile_qr_scan"}, "fusion_lon": 0.0}, {"lat": 38.931686, "is_disabled": 0, "type": "electric_scooter", "lon": -77.02830833333333, "bike_id": "72b705f7f443cf30f7017568ee8388ca", "fusion_lat": 0.0, "name": "72b705f7f443cf30f7017568ee8388ca", "is_reserved": 0, "rental_uris": {"android": "https://dc.lft.to/lastmile_qr_scan", "ios": "https://dc.lft.to/lastmile_qr_scan"}, "fusion_lon": 0.0}, {"lat": 38.932097166666665, "is_disabled": 0, "type": "electric_scooter", "lon": -77.03659933333333, "bike_id": "91c6c07fac3a0031a3da8e6638979eae", "fusion_lat": 0.0, "name": "91c6c07fac3a0031a3da8e6638979eae", "is_reserved": 0, "rental_uris": {"android": "https://dc.lft.to/lastmile_qr_scan", "ios": "https://dc.lft.to/lastmile_qr_scan"}, "fusion_lon": 0.0}, {"lat": 38.90761783333333, "is_disabled": 0, "type": "electric_scooter", "lon": -77.00323083333333, "bike_id": "e0727ceaac7f5e6b6c16ec11baf76407", "fusion_lat": 0.0, "name": "e0727ceaac7f5e6b6c16ec11baf76407", "is_reserved": 0, "rental_uris": {"android": "https://dc.lft.to/lastmile_qr_scan", "ios": "https://dc.lft.to/lastmile_qr_scan"}, "fusion_lon": 0.0}, {"lat": 38.906253, "is_disabled": 0, "type": "electric_scooter", "lon": -76.98982766666667, "bike_id": "5ea148442011bc64fd120fbd180fabec", "fusion_lat": 0.0, "name": "5ea148442011bc64fd120fbd180fabec", "is_reserved": 0, "rental_uris": {"android": "https://dc.lft.to/lastmile_qr_scan", "ios": "https://dc.lft.to/lastmile_qr_scan"}, "fusion_lon": 0.0}, {"lat": 38.91556816666667, "is_disabled": 0, "type": "electric_scooter", "lon": -77.03173283333334, "bike_id": "99a8a6b1abe2e9cdf1827a9e219f6565", "fusion_lat": 0.0, "name": "99a8a6b1abe2e9cdf1827a9e219f6565", "is_reserved": 0, "rental_uris": {"android": "https://dc.lft.to/lastmile_qr_scan", "ios": "https://dc.lft.to/lastmile_qr_scan"}, "fusion_lon": 0.0}, {"lat": 38.89907933333333, "is_disabled": 0, "type": "electric_scooter", "lon": -76.93353216666667, "bike_id": "4a40a17eea1c7bf4a15bd3219a5d3f88", "fusion_lat": 0.0, "name": "4a40a17eea1c7bf4a15bd3219a5d3f88", "is_reserved": 0, "rental_uris": {"android": "https://dc.lft.to/lastmile_qr_scan", "ios": "https://dc.lft.to/lastmile_qr_scan"}, "fusion_lon": 0.0}, {"lat": 38.93088616666667, "is_disabled": 0, "type": "electric_scooter", "lon": -77.02792133333334, "bike_id": "f44fdaf12a2bc3a9d26afc646703cf82", "fusion_lat": 0.0, "name": "f44fdaf12a2bc3a9d26afc646703cf82", "is_reserved": 0, "rental_uris": {"android": "https://dc.lft.to/lastmile_qr_scan", "ios": "https://dc.lft.to/lastmile_qr_scan"}, "fusion_lon": 0.0}, {"lat": 38.90020283333333, "is_disabled": 0, "type": "electric_scooter", "lon": -76.99866766666666, "bike_id": "72f7417d308cf0f2c87b6b005b636c41", "fusion_lat": 0.0, "name": "72f7417d308cf0f2c87b6b005b636c41", "is_reserved": 0, "rental_uris": {"android": "https://dc.lft.to/lastmile_qr_scan", "ios": "https://dc.lft.to/lastmile_qr_scan"}, "fusion_lon": 0.0}, {"lat": 38.92677783333333, "is_disabled": 0, "type": "electric_scooter", "lon": -77.0278055, "bike_id": "a97d0badf2bd4c5d5294c3e9f62d9353", "fusion_lat": 0.0, "name": "a97d0badf2bd4c5d5294c3e9f62d9353", "is_reserved": 0, "rental_uris": {"android": "https://dc.lft.to/lastmile_qr_scan", "ios": "https://dc.lft.to/lastmile_qr_scan"}, "fusion_lon": 0.0}, {"lat": 38.9348245, "is_disabled": 0, "type": "electric_scooter", "lon": -77.05788183333334, "bike_id": "d79ae50ad232a8fb694b4010c453c387", "fusion_lat": 0.0, "name": "d79ae50ad232a8fb694b4010c453c387", "is_reserved": 0, "rental_uris": {"android": "https://dc.lft.to/lastmile_qr_scan", "ios": "https://dc.lft.to/lastmile_qr_scan"}, "fusion_lon": 0.0}, {"lat": 38.90043466666667, "is_disabled": 0, "type": "electric_scooter", "lon": -77.00204483333333, "bike_id": "c505cbe3023fac36518c9f059fb956a0", "fusion_lat": 0.0, "name": "c505cbe3023fac36518c9f059fb956a0", "is_reserved": 0, "rental_uris": {"android": "https://dc.lft.to/lastmile_qr_scan", "ios": "https://dc.lft.to/lastmile_qr_scan"}, "fusion_lon": 0.0}, {"lat": 38.9254175, "is_disabled": 0, "type": "electric_scooter", "lon": -77.03453833333333, "bike_id": "408113f11651b18f7a0799053d0ad84c", "fusion_lat": 0.0, "name": "408113f11651b18f7a0799053d0ad84c", "is_reserved": 0, "rental_uris": {"android": "https://dc.lft.to/lastmile_qr_scan", "ios": "https://dc.lft.to/lastmile_qr_scan"}, "fusion_lon": 0.0}, {"lat": 38.85809716666667, "is_disabled": 0, "type": "electric_scooter", "lon": -76.98653166666666, "bike_id": "40f94f6158aefc9b64748358492190ee", "fusion_lat": 0.0, "name": "40f94f6158aefc9b64748358492190ee", "is_reserved": 0, "rental_uris": {"android": "https://dc.lft.to/lastmile_qr_scan", "ios": "https://dc.lft.to/lastmile_qr_scan"}, "fusion_lon": 0.0}, {"lat": 38.96612566666667, "is_disabled": 0, "type": "electric_scooter", "lon": -77.02057416666666, "bike_id": "f2c531faec5e23c8b4c28a7f5522b06b", "fusion_lat": 0.0, "name": "f2c531faec5e23c8b4c28a7f5522b06b", "is_reserved": 0, "rental_uris": {"android": "https://dc.lft.to/lastmile_qr_scan", "ios": "https://dc.lft.to/lastmile_qr_scan"}, "fusion_lon": 0.0}, {"lat": 38.917037, "is_disabled": 0, "type": "electric_scooter", "lon": -77.03031533333333, "bike_id": "db842a9901bc43de02f576300bd6ffc0", "fusion_lat": 0.0, "name": "db842a9901bc43de02f576300bd6ffc0", "is_reserved": 0, "rental_uris": {"android": "https://dc.lft.to/lastmile_qr_scan", "ios": "https://dc.lft.to/lastmile_qr_scan"}, "fusion_lon": 0.0}, {"lat": 38.9068435, "is_disabled": 0, "type": "electric_scooter", "lon": -77.0627015, "bike_id": "2ca894c92b0d74282592325e0261cd83", "fusion_lat": 0.0, "name": "2ca894c92b0d74282592325e0261cd83", "is_reserved": 0, "rental_uris": {"android": "https://dc.lft.to/lastmile_qr_scan", "ios": "https://dc.lft.to/lastmile_qr_scan"}, "fusion_lon": 0.0}, {"lat": 38.881391666666666, "is_disabled": 0, "type": "electric_scooter", "lon": -76.9872175, "bike_id": "acf072d34c6649ed8cfee8569773bfd2", "fusion_lat": 0.0, "name": "acf072d34c6649ed8cfee8569773bfd2", "is_reserved": 0, "rental_uris": {"android": "https://dc.lft.to/lastmile_qr_scan", "ios": "https://dc.lft.to/lastmile_qr_scan"}, "fusion_lon": 0.0}, {"lat": 38.92839566666667, "is_disabled": 0, "type": "electric_scooter", "lon": -77.05419466666666, "bike_id": "2598d09106d81f080a4eda05788a618b", "fusion_lat": 0.0, "name": "2598d09106d81f080a4eda05788a618b", "is_reserved": 0, "rental_uris": {"android": "https://dc.lft.to/lastmile_qr_scan", "ios": "https://dc.lft.to/lastmile_qr_scan"}, "fusion_lon": 0.0}, {"lat": 38.90992766666667, "is_disabled": 0, "type": "electric_scooter", "lon": -76.99739683333334, "bike_id": "7cd9dec493b6274ecd7c1b04e3255fab", "fusion_lat": 0.0, "name": "7cd9dec493b6274ecd7c1b04e3255fab", "is_reserved": 0, "rental_uris": {"android": "https://dc.lft.to/lastmile_qr_scan", "ios": "https://dc.lft.to/lastmile_qr_scan"}, "fusion_lon": 0.0}, {"lat": 38.86660283333333, "is_disabled": 0, "type": "electric_scooter", "lon": -76.98908433333334, "bike_id": "30ed107934e9c1e8958a09560acbcab1", "fusion_lat": 0.0, "name": "30ed107934e9c1e8958a09560acbcab1", "is_reserved": 0, "rental_uris": {"android": "https://dc.lft.to/lastmile_qr_scan", "ios": "https://dc.lft.to/lastmile_qr_scan"}, "fusion_lon": 0.0}, {"lat": 38.9101445, "is_disabled": 0, "type": "electric_scooter", "lon": -77.03013333333334, "bike_id": "000a831a361a216b06d287732a7b6850", "fusion_lat": 0.0, "name": "000a831a361a216b06d287732a7b6850", "is_reserved": 0, "rental_uris": {"android": "https://dc.lft.to/lastmile_qr_scan", "ios": "https://dc.lft.to/lastmile_qr_scan"}, "fusion_lon": 0.0}, {"lat": 38.930649833333334, "is_disabled": 0, "type": "electric_scooter", "lon": -77.03675566666666, "bike_id": "ef40857a76e0b678f59d5d6f954f223b", "fusion_lat": 0.0, "name": "ef40857a76e0b678f59d5d6f954f223b", "is_reserved": 0, "rental_uris": {"android": "https://dc.lft.to/lastmile_qr_scan", "ios": "https://dc.lft.to/lastmile_qr_scan"}, "fusion_lon": 0.0}, {"lat": 38.91706533333333, "is_disabled": 0, "type": "electric_scooter", "lon": -77.02897333333334, "bike_id": "7fe672863db1753ca98cccdc557fb82d", "fusion_lat": 0.0, "name": "7fe672863db1753ca98cccdc557fb82d", "is_reserved": 0, "rental_uris": {"android": "https://dc.lft.to/lastmile_qr_scan", "ios": "https://dc.lft.to/lastmile_qr_scan"}, "fusion_lon": 0.0}, {"lat": 38.93140616666667, "is_disabled": 0, "type": "electric_scooter", "lon": -77.02139766666667, "bike_id": "6584e5fc4295c4ce03f2d968b82e6ee4", "fusion_lat": 0.0, "name": "6584e5fc4295c4ce03f2d968b82e6ee4", "is_reserved": 0, "rental_uris": {"android": "https://dc.lft.to/lastmile_qr_scan", "ios": "https://dc.lft.to/lastmile_qr_scan"}, "fusion_lon": 0.0}, {"lat": 38.896585, "is_disabled": 0, "type": "electric_scooter", "lon": -77.04682116666666, "bike_id": "505764a62deb69c4250fe34fb9cca6ff", "fusion_lat": 0.0, "name": "505764a62deb69c4250fe34fb9cca6ff", "is_reserved": 0, "rental_uris": {"android": "https://dc.lft.to/lastmile_qr_scan", "ios": "https://dc.lft.to/lastmile_qr_scan"}, "fusion_lon": 0.0}, {"lat": 38.90656333333333, "is_disabled": 0, "type": "electric_scooter", "lon": -77.00829866666666, "bike_id": "cce069b64176daa522d7723feaa73f4a", "fusion_lat": 0.0, "name": "cce069b64176daa522d7723feaa73f4a", "is_reserved": 0, "rental_uris": {"android": "https://dc.lft.to/lastmile_qr_scan", "ios": "https://dc.lft.to/lastmile_qr_scan"}, "fusion_lon": 0.0}, {"lat": 38.93845433333333, "is_disabled": 0, "type": "electric_scooter", "lon": -77.03400166666667, "bike_id": "e2eb02c2108bb3f7b95c4ab5611e2a98", "fusion_lat": 0.0, "name": "e2eb02c2108bb3f7b95c4ab5611e2a98", "is_reserved": 0, "rental_uris": {"android": "https://dc.lft.to/lastmile_qr_scan", "ios": "https://dc.lft.to/lastmile_qr_scan"}, "fusion_lon": 0.0}, {"lat": 38.9097185, "is_disabled": 0, "type": "electric_scooter", "lon": -77.033603, "bike_id": "66179ab071bf30a9af173eec1cf5a115", "fusion_lat": 0.0, "name": "66179ab071bf30a9af173eec1cf5a115", "is_reserved": 0, "rental_uris": {"android": "https://dc.lft.to/lastmile_qr_scan", "ios": "https://dc.lft.to/lastmile_qr_scan"}, "fusion_lon": 0.0}, {"lat": 38.901339666666665, "is_disabled": 0, "type": "electric_scooter", "lon": -77.05004266666667, "bike_id": "8555914102730765dba1dde63b6ff782", "fusion_lat": 0.0, "name": "8555914102730765dba1dde63b6ff782", "is_reserved": 0, "rental_uris": {"android": "https://dc.lft.to/lastmile_qr_scan", "ios": "https://dc.lft.to/lastmile_qr_scan"}, "fusion_lon": 0.0}, {"lat": 38.930923, "is_disabled": 0, "type": "electric_scooter", "lon": -77.02793916666667, "bike_id": "5c88c93b3d5532dd961841769bf6450d", "fusion_lat": 0.0, "name": "5c88c93b3d5532dd961841769bf6450d", "is_reserved": 0, "rental_uris": {"android": "https://dc.lft.to/lastmile_qr_scan", "ios": "https://dc.lft.to/lastmile_qr_scan"}, "fusion_lon": 0.0}, {"lat": 38.93114033333333, "is_disabled": 0, "type": "electric_scooter", "lon": -77.03809166666667, "bike_id": "c23fb90da52d89297d7c0bbf128656dc", "fusion_lat": 0.0, "name": "c23fb90da52d89297d7c0bbf128656dc", "is_reserved": 0, "rental_uris": {"android": "https://dc.lft.to/lastmile_qr_scan", "ios": "https://dc.lft.to/lastmile_qr_scan"}, "fusion_lon": 0.0}, {"lat": 38.90064566666667, "is_disabled": 0, "type": "electric_scooter", "lon": -77.01387033333333, "bike_id": "e77fe8f97a887f6c9dedab6f4e15c223", "fusion_lat": 0.0, "name": "e77fe8f97a887f6c9dedab6f4e15c223", "is_reserved": 0, "rental_uris": {"android": "https://dc.lft.to/lastmile_qr_scan", "ios": "https://dc.lft.to/lastmile_qr_scan"}, "fusion_lon": 0.0}, {"lat": 38.928773166666666, "is_disabled": 0, "type": "electric_scooter", "lon": -77.0321935, "bike_id": "699304472f73e22beb0c6647de067573", "fusion_lat": 0.0, "name": "699304472f73e22beb0c6647de067573", "is_reserved": 0, "rental_uris": {"android": "https://dc.lft.to/lastmile_qr_scan", "ios": "https://dc.lft.to/lastmile_qr_scan"}, "fusion_lon": 0.0}, {"lat": 38.923564, "is_disabled": 0, "type": "electric_scooter", "lon": -77.024433, "bike_id": "814ecce034a89a339cb7edb654f8a631", "fusion_lat": 0.0, "name": "814ecce034a89a339cb7edb654f8a631", "is_reserved": 0, "rental_uris": {"android": "https://dc.lft.to/lastmile_qr_scan", "ios": "https://dc.lft.to/lastmile_qr_scan"}, "fusion_lon": 0.0}, {"lat": 38.90050033333333, "is_disabled": 0, "type": "electric_scooter", "lon": -77.03201283333334, "bike_id": "50c16dd58d45a5f74442f58e7af51dfd", "fusion_lat": 0.0, "name": "50c16dd58d45a5f74442f58e7af51dfd", "is_reserved": 0, "rental_uris": {"android": "https://dc.lft.to/lastmile_qr_scan", "ios": "https://dc.lft.to/lastmile_qr_scan"}, "fusion_lon": 0.0}, {"lat": 38.9171205, "is_disabled": 0, "type": "electric_scooter", "lon": -77.034953, "bike_id": "a7b5be1b52524346b35f2f034104d9f5", "fusion_lat": 0.0, "name": "a7b5be1b52524346b35f2f034104d9f5", "is_reserved": 0, "rental_uris": {"android": "https://dc.lft.to/lastmile_qr_scan", "ios": "https://dc.lft.to/lastmile_qr_scan"}, "fusion_lon": 0.0}, {"lat": 38.903523166666666, "is_disabled": 0, "type": "electric_scooter", "lon": -77.02518466666666, "bike_id": "fb91173f8fbce63633b4b4c65d1c3545", "fusion_lat": 0.0, "name": "fb91173f8fbce63633b4b4c65d1c3545", "is_reserved": 0, "rental_uris": {"android": "https://dc.lft.to/lastmile_qr_scan", "ios": "https://dc.lft.to/lastmile_qr_scan"}, "fusion_lon": 0.0}, {"lat": 38.90782983333333, "is_disabled": 0, "type": "electric_scooter", "lon": -77.06410683333333, "bike_id": "7317a9a25f3c9c59ac01236249bd08da", "fusion_lat": 0.0, "name": "7317a9a25f3c9c59ac01236249bd08da", "is_reserved": 0, "rental_uris": {"android": "https://dc.lft.to/lastmile_qr_scan", "ios": "https://dc.lft.to/lastmile_qr_scan"}, "fusion_lon": 0.0}, {"lat": 38.9540665, "is_disabled": 0, "type": "electric_scooter", "lon": -77.02745983333334, "bike_id": "9cfb57cb376713d76d73a37db50f3ec9", "fusion_lat": 0.0, "name": "9cfb57cb376713d76d73a37db50f3ec9", "is_reserved": 0, "rental_uris": {"android": "https://dc.lft.to/lastmile_qr_scan", "ios": "https://dc.lft.to/lastmile_qr_scan"}, "fusion_lon": 0.0}, {"lat": 38.93340833333333, "is_disabled": 0, "type": "electric_scooter", "lon": -77.02388133333334, "bike_id": "4ddbfa7ce9dc66101aa82af36d52f472", "fusion_lat": 0.0, "name": "4ddbfa7ce9dc66101aa82af36d52f472", "is_reserved": 0, "rental_uris": {"android": "https://dc.lft.to/lastmile_qr_scan", "ios": "https://dc.lft.to/lastmile_qr_scan"}, "fusion_lon": 0.0}, {"lat": 38.9097475, "is_disabled": 0, "type": "electric_scooter", "lon": -77.04048, "bike_id": "9b0605f647abfd1768fc4815a8c7a8c3", "fusion_lat": 0.0, "name": "9b0605f647abfd1768fc4815a8c7a8c3", "is_reserved": 0, "rental_uris": {"android": "https://dc.lft.to/lastmile_qr_scan", "ios": "https://dc.lft.to/lastmile_qr_scan"}, "fusion_lon": 0.0}, {"lat": 38.80270983333333, "is_disabled": 0, "type": "electric_bike", "lon": -77.08112516666667, "bike_id": "640e42bf86cce0314385b56769d698e0", "fusion_lat": 0.0, "name": "640e42bf86cce0314385b56769d698e0", "is_reserved": 0, "rental_uris": {"android": "https://dc.lft.to/lastmile_qr_scan", "ios": "https://dc.lft.to/lastmile_qr_scan"}, "fusion_lon": 0.0}, {"lat": 38.88468816666666, "is_disabled": 0, "type": "electric_scooter", "lon": -77.0152385, "bike_id": "dfa3a96ed622be1581e477dab3f07a7e", "fusion_lat": 0.0, "name": "dfa3a96ed622be1581e477dab3f07a7e", "is_reserved": 0, "rental_uris": {"android": "https://dc.lft.to/lastmile_qr_scan", "ios": "https://dc.lft.to/lastmile_qr_scan"}, "fusion_lon": 0.0}, {"lat": 38.90041166666666, "is_disabled": 0, "type": "electric_scooter", "lon": -77.00212716666667, "bike_id": "74d29073bfd22efb1c0dd007d3ee131c", "fusion_lat": 0.0, "name": "74d29073bfd22efb1c0dd007d3ee131c", "is_reserved": 0, "rental_uris": {"android": "https://dc.lft.to/lastmile_qr_scan", "ios": "https://dc.lft.to/lastmile_qr_scan"}, "fusion_lon": 0.0}, {"lat": 38.891462, "is_disabled": 0, "type": "electric_bike", "lon": -77.11305783333333, "bike_id": "d346e20f890bef214d9e1fd058239729", "fusion_lat": 0.0, "name": "d346e20f890bef214d9e1fd058239729", "is_reserved": 0, "rental_uris": {"android": "https://dc.lft.to/lastmile_qr_scan", "ios": "https://dc.lft.to/lastmile_qr_scan"}, "fusion_lon": 0.0}, {"lat": 38.89224016666667, "is_disabled": 0, "type": "electric_bike", "lon": -77.10779833333333, "bike_id": "66d4ae7a1f7d1f90ea519896580ba0a8", "fusion_lat": 0.0, "name": "66d4ae7a1f7d1f90ea519896580ba0a8", "is_reserved": 0, "rental_uris": {"android": "https://dc.lft.to/lastmile_qr_scan", "ios": "https://dc.lft.to/lastmile_qr_scan"}, "fusion_lon": 0.0}, {"lat": 38.92024383333333, "is_disabled": 0, "type": "electric_scooter", "lon": -77.03122833333333, "bike_id": "8468d842d90f01164eb639183de5df45", "fusion_lat": 0.0, "name": "8468d842d90f01164eb639183de5df45", "is_reserved": 0, "rental_uris": {"android": "https://dc.lft.to/lastmile_qr_scan", "ios": "https://dc.lft.to/lastmile_qr_scan"}, "fusion_lon": 0.0}, {"lat": 38.89841283333333, "is_disabled": 0, "type": "electric_scooter", "lon": -77.0073735, "bike_id": "b57525a27bee7859e44519aa5002fef2", "fusion_lat": 0.0, "name": "b57525a27bee7859e44519aa5002fef2", "is_reserved": 0, "rental_uris": {"android": "https://dc.lft.to/lastmile_qr_scan", "ios": "https://dc.lft.to/lastmile_qr_scan"}, "fusion_lon": 0.0}, {"lat": 38.9082075, "is_disabled": 0, "type": "electric_scooter", "lon": -76.99673533333333, "bike_id": "22210a444bd170061b7dd4fbfd6dd3fe", "fusion_lat": 0.0, "name": "22210a444bd170061b7dd4fbfd6dd3fe", "is_reserved": 0, "rental_uris": {"android": "https://dc.lft.to/lastmile_qr_scan", "ios": "https://dc.lft.to/lastmile_qr_scan"}, "fusion_lon": 0.0}, {"lat": 38.900349, "is_disabled": 0, "type": "electric_scooter", "lon": -77.0053675, "bike_id": "07dff185e6c4f578d0cbafc0347abc5c", "fusion_lat": 0.0, "name": "07dff185e6c4f578d0cbafc0347abc5c", "is_reserved": 0, "rental_uris": {"android": "https://dc.lft.to/lastmile_qr_scan", "ios": "https://dc.lft.to/lastmile_qr_scan"}, "fusion_lon": 0.0}, {"lat": 38.917390166666664, "is_disabled": 0, "type": "electric_scooter", "lon": -77.03662433333334, "bike_id": "2da3b031f5e79f7da9b9616d71992463", "fusion_lat": 0.0, "name": "2da3b031f5e79f7da9b9616d71992463", "is_reserved": 0, "rental_uris": {"android": "https://dc.lft.to/lastmile_qr_scan", "ios": "https://dc.lft.to/lastmile_qr_scan"}, "fusion_lon": 0.0}, {"lat": 38.95745766666667, "is_disabled": 0, "type": "electric_bike", "lon": -77.02320166666667, "bike_id": "24147e2d450c82ebc5d013a397f9c43d", "fusion_lat": 0.0, "name": "24147e2d450c82ebc5d013a397f9c43d", "is_reserved": 0, "rental_uris": {"android": "https://dc.lft.to/lastmile_qr_scan", "ios": "https://dc.lft.to/lastmile_qr_scan"}, "fusion_lon": 0.0}, {"lat": 38.92682466666667, "is_disabled": 0, "type": "electric_scooter", "lon": -77.00743783333333, "bike_id": "887fec3103a9eb9b5ff13f467ef95a67", "fusion_lat": 0.0, "name": "887fec3103a9eb9b5ff13f467ef95a67", "is_reserved": 0, "rental_uris": {"android": "https://dc.lft.to/lastmile_qr_scan", "ios": "https://dc.lft.to/lastmile_qr_scan"}, "fusion_lon": 0.0}, {"lat": 38.90277433333333, "is_disabled": 0, "type": "electric_scooter", "lon": -77.01749616666666, "bike_id": "a9715e3cc87d0183e90b0f1be8bff94b", "fusion_lat": 0.0, "name": "a9715e3cc87d0183e90b0f1be8bff94b", "is_reserved": 0, "rental_uris": {"android": "https://dc.lft.to/lastmile_qr_scan", "ios": "https://dc.lft.to/lastmile_qr_scan"}, "fusion_lon": 0.0}, {"lat": 38.91996616666667, "is_disabled": 0, "type": "electric_scooter", "lon": -77.01745716666667, "bike_id": "768f6b22bf016ea986881fd98b685320", "fusion_lat": 0.0, "name": "768f6b22bf016ea986881fd98b685320", "is_reserved": 0, "rental_uris": {"android": "https://dc.lft.to/lastmile_qr_scan", "ios": "https://dc.lft.to/lastmile_qr_scan"}, "fusion_lon": 0.0}, {"lat": 38.91674116666667, "is_disabled": 0, "type": "electric_scooter", "lon": -77.02398516666666, "bike_id": "e440c59c85997e990ef3ce8367735785", "fusion_lat": 0.0, "name": "e440c59c85997e990ef3ce8367735785", "is_reserved": 0, "rental_uris": {"android": "https://dc.lft.to/lastmile_qr_scan", "ios": "https://dc.lft.to/lastmile_qr_scan"}, "fusion_lon": 0.0}, {"lat": 38.905011333333334, "is_disabled": 0, "type": "electric_scooter", "lon": -77.00132083333334, "bike_id": "faa70bdf9fcdbf46fb481baa358d25fe", "fusion_lat": 0.0, "name": "faa70bdf9fcdbf46fb481baa358d25fe", "is_reserved": 0, "rental_uris": {"android": "https://dc.lft.to/lastmile_qr_scan", "ios": "https://dc.lft.to/lastmile_qr_scan"}, "fusion_lon": 0.0}, {"lat": 38.90358033333333, "is_disabled": 0, "type": "electric_scooter", "lon": -77.06579283333333, "bike_id": "d6fbcfaaa1a5a44efad2fc65add044d7", "fusion_lat": 0.0, "name": "d6fbcfaaa1a5a44efad2fc65add044d7", "is_reserved": 0, "rental_uris": {"android": "https://dc.lft.to/lastmile_qr_scan", "ios": "https://dc.lft.to/lastmile_qr_scan"}, "fusion_lon": 0.0}, {"lat": 38.887701, "is_disabled": 0, "type": "electric_scooter", "lon": -76.9559555, "bike_id": "85f0f9b68915275908eb3b7868e7e17d", "fusion_lat": 0.0, "name": "85f0f9b68915275908eb3b7868e7e17d", "is_reserved": 0, "rental_uris": {"android": "https://dc.lft.to/lastmile_qr_scan", "ios": "https://dc.lft.to/lastmile_qr_scan"}, "fusion_lon": 0.0}, {"lat": 38.93570883333334, "is_disabled": 0, "type": "electric_scooter", "lon": -77.08764483333333, "bike_id": "2c7bcb26a8b75b6c460728b144b9c99d", "fusion_lat": 0.0, "name": "2c7bcb26a8b75b6c460728b144b9c99d", "is_reserved": 0, "rental_uris": {"android": "https://dc.lft.to/lastmile_qr_scan", "ios": "https://dc.lft.to/lastmile_qr_scan"}, "fusion_lon": 0.0}, {"lat": 38.92980633333333, "is_disabled": 0, "type": "electric_bike", "lon": -76.97499783333333, "bike_id": "ec7c9ff4a6cd7f64b3d3142c8251997c", "fusion_lat": 0.0, "name": "ec7c9ff4a6cd7f64b3d3142c8251997c", "is_reserved": 0, "rental_uris": {"android": "https://dc.lft.to/lastmile_qr_scan", "ios": "https://dc.lft.to/lastmile_qr_scan"}, "fusion_lon": 0.0}, {"lat": 38.913238666666665, "is_disabled": 0, "type": "electric_scooter", "lon": -77.03195466666666, "bike_id": "5faa6544514ad6cbf000808e55b8f6a9", "fusion_lat": 0.0, "name": "5faa6544514ad6cbf000808e55b8f6a9", "is_reserved": 0, "rental_uris": {"android": "https://dc.lft.to/lastmile_qr_scan", "ios": "https://dc.lft.to/lastmile_qr_scan"}, "fusion_lon": 0.0}, {"lat": 38.9166525, "is_disabled": 0, "type": "electric_bike", "lon": -77.0473035, "bike_id": "12b9480aac5a0a4c4183ed417f14f57b", "fusion_lat": 0.0, "name": "12b9480aac5a0a4c4183ed417f14f57b", "is_reserved": 0, "rental_uris": {"android": "https://dc.lft.to/lastmile_qr_scan", "ios": "https://dc.lft.to/lastmile_qr_scan"}, "fusion_lon": 0.0}, {"lat": 38.92247316666667, "is_disabled": 0, "type": "electric_scooter", "lon": -77.02188183333334, "bike_id": "a882975f01c2e9edada5e9fef213d689", "fusion_lat": 0.0, "name": "a882975f01c2e9edada5e9fef213d689", "is_reserved": 0, "rental_uris": {"android": "https://dc.lft.to/lastmile_qr_scan", "ios": "https://dc.lft.to/lastmile_qr_scan"}, "fusion_lon": 0.0}, {"lat": 38.8838455, "is_disabled": 0, "type": "electric_scooter", "lon": -77.01887783333333, "bike_id": "324497da29c11cc96b37afeafe7c418a", "fusion_lat": 0.0, "name": "324497da29c11cc96b37afeafe7c418a", "is_reserved": 0, "rental_uris": {"android": "https://dc.lft.to/lastmile_qr_scan", "ios": "https://dc.lft.to/lastmile_qr_scan"}, "fusion_lon": 0.0}, {"lat": 38.90493416666666, "is_disabled": 0, "type": "electric_scooter", "lon": -76.987137, "bike_id": "cc8ab8d7c46be5edae2fb13a055f8e92", "fusion_lat": 0.0, "name": "cc8ab8d7c46be5edae2fb13a055f8e92", "is_reserved": 0, "rental_uris": {"android": "https://dc.lft.to/lastmile_qr_scan", "ios": "https://dc.lft.to/lastmile_qr_scan"}, "fusion_lon": 0.0}, {"lat": 38.9038035, "is_disabled": 0, "type": "electric_scooter", "lon": -77.0220305, "bike_id": "0228b7e8d0aeca7478f26ba47815c346", "fusion_lat": 0.0, "name": "0228b7e8d0aeca7478f26ba47815c346", "is_reserved": 0, "rental_uris": {"android": "https://dc.lft.to/lastmile_qr_scan", "ios": "https://dc.lft.to/lastmile_qr_scan"}, "fusion_lon": 0.0}, {"lat": 38.86891966666666, "is_disabled": 0, "type": "electric_scooter", "lon": -76.98310816666667, "bike_id": "834ef694c2c2c2fcd47916c7a0380fa9", "fusion_lat": 0.0, "name": "834ef694c2c2c2fcd47916c7a0380fa9", "is_reserved": 0, "rental_uris": {"android": "https://dc.lft.to/lastmile_qr_scan", "ios": "https://dc.lft.to/lastmile_qr_scan"}, "fusion_lon": 0.0}, {"lat": 38.873427, "is_disabled": 0, "type": "electric_scooter", "lon": -76.991657, "bike_id": "0c540ee543380e4a9df74f4182756d52", "fusion_lat": 0.0, "name": "0c540ee543380e4a9df74f4182756d52", "is_reserved": 0, "rental_uris": {"android": "https://dc.lft.to/lastmile_qr_scan", "ios": "https://dc.lft.to/lastmile_qr_scan"}, "fusion_lon": 0.0}, {"lat": 38.907924333333334, "is_disabled": 0, "type": "electric_scooter", "lon": -77.04224466666666, "bike_id": "3f528f2927660d13f3e4dc1a4d298adc", "fusion_lat": 0.0, "name": "3f528f2927660d13f3e4dc1a4d298adc", "is_reserved": 0, "rental_uris": {"android": "https://dc.lft.to/lastmile_qr_scan", "ios": "https://dc.lft.to/lastmile_qr_scan"}, "fusion_lon": 0.0}, {"lat": 38.90589833333333, "is_disabled": 0, "type": "electric_scooter", "lon": -77.04050466666666, "bike_id": "40bc4816ceb2d9bb1c81647faeb2c987", "fusion_lat": 0.0, "name": "40bc4816ceb2d9bb1c81647faeb2c987", "is_reserved": 0, "rental_uris": {"android": "https://dc.lft.to/lastmile_qr_scan", "ios": "https://dc.lft.to/lastmile_qr_scan"}, "fusion_lon": 0.0}, {"lat": 38.910134, "is_disabled": 0, "type": "electric_scooter", "lon": -77.03838733333333, "bike_id": "693af1b3e073baa427f0fdbb53dca5ed", "fusion_lat": 0.0, "name": "693af1b3e073baa427f0fdbb53dca5ed", "is_reserved": 0, "rental_uris": {"android": "https://dc.lft.to/lastmile_qr_scan", "ios": "https://dc.lft.to/lastmile_qr_scan"}, "fusion_lon": 0.0}, {"lat": 38.90776233333333, "is_disabled": 0, "type": "electric_scooter", "lon": -77.069234, "bike_id": "539888421398b6a0a60c756ed9111bed", "fusion_lat": 0.0, "name": "539888421398b6a0a60c756ed9111bed", "is_reserved": 0, "rental_uris": {"android": "https://dc.lft.to/lastmile_qr_scan", "ios": "https://dc.lft.to/lastmile_qr_scan"}, "fusion_lon": 0.0}, {"lat": 38.919107333333336, "is_disabled": 0, "type": "electric_scooter", "lon": -77.04627533333333, "bike_id": "dfbfc7be098860d69ef86c2c1353a169", "fusion_lat": 0.0, "name": "dfbfc7be098860d69ef86c2c1353a169", "is_reserved": 0, "rental_uris": {"android": "https://dc.lft.to/lastmile_qr_scan", "ios": "https://dc.lft.to/lastmile_qr_scan"}, "fusion_lon": 0.0}, {"lat": 38.876865333333335, "is_disabled": 0, "type": "electric_scooter", "lon": -77.01792, "bike_id": "c3114e305774c517a0ecd60c4efa2678", "fusion_lat": 0.0, "name": "c3114e305774c517a0ecd60c4efa2678", "is_reserved": 0, "rental_uris": {"android": "https://dc.lft.to/lastmile_qr_scan", "ios": "https://dc.lft.to/lastmile_qr_scan"}, "fusion_lon": 0.0}, {"lat": 38.909663333333334, "is_disabled": 0, "type": "electric_scooter", "lon": -77.0371745, "bike_id": "81cbc0aea81d1e5f0c2dd9097499ac6c", "fusion_lat": 0.0, "name": "81cbc0aea81d1e5f0c2dd9097499ac6c", "is_reserved": 0, "rental_uris": {"android": "https://dc.lft.to/lastmile_qr_scan", "ios": "https://dc.lft.to/lastmile_qr_scan"}, "fusion_lon": 0.0}, {"lat": 38.8652675, "is_disabled": 0, "type": "electric_scooter", "lon": -76.99028283333334, "bike_id": "4e2d2202e859e2f36fb4fee862f933e8", "fusion_lat": 0.0, "name": "4e2d2202e859e2f36fb4fee862f933e8", "is_reserved": 0, "rental_uris": {"android": "https://dc.lft.to/lastmile_qr_scan", "ios": "https://dc.lft.to/lastmile_qr_scan"}, "fusion_lon": 0.0}, {"lat": 38.9034385, "is_disabled": 0, "type": "electric_scooter", "lon": -77.02536966666666, "bike_id": "6bf57b3387cdac37e1e56cc0dceaeaa9", "fusion_lat": 0.0, "name": "6bf57b3387cdac37e1e56cc0dceaeaa9", "is_reserved": 0, "rental_uris": {"android": "https://dc.lft.to/lastmile_qr_scan", "ios": "https://dc.lft.to/lastmile_qr_scan"}, "fusion_lon": 0.0}, {"lat": 38.904633833333335, "is_disabled": 0, "type": "electric_scooter", "lon": -77.03224566666667, "bike_id": "56ff497e5a3e4ac36fa2915b5d3370ee", "fusion_lat": 0.0, "name": "56ff497e5a3e4ac36fa2915b5d3370ee", "is_reserved": 0, "rental_uris": {"android": "https://dc.lft.to/lastmile_qr_scan", "ios": "https://dc.lft.to/lastmile_qr_scan"}, "fusion_lon": 0.0}, {"lat": 38.82567516666667, "is_disabled": 0, "type": "electric_scooter", "lon": -76.99977883333334, "bike_id": "8f9e96c16c318976b496194ceee8817e", "fusion_lat": 0.0, "name": "8f9e96c16c318976b496194ceee8817e", "is_reserved": 0, "rental_uris": {"android": "https://dc.lft.to/lastmile_qr_scan", "ios": "https://dc.lft.to/lastmile_qr_scan"}, "fusion_lon": 0.0}, {"lat": 38.91929583333334, "is_disabled": 0, "type": "electric_scooter", "lon": -77.031267, "bike_id": "be2b0c00f04705c5a688bfd1d556da85", "fusion_lat": 0.0, "name": "be2b0c00f04705c5a688bfd1d556da85", "is_reserved": 0, "rental_uris": {"android": "https://dc.lft.to/lastmile_qr_scan", "ios": "https://dc.lft.to/lastmile_qr_scan"}, "fusion_lon": 0.0}, {"lat": 38.90506366666666, "is_disabled": 0, "type": "electric_scooter", "lon": -77.05816383333334, "bike_id": "85aa30e911e0c94031bf80ab915f1da6", "fusion_lat": 0.0, "name": "85aa30e911e0c94031bf80ab915f1da6", "is_reserved": 0, "rental_uris": {"android": "https://dc.lft.to/lastmile_qr_scan", "ios": "https://dc.lft.to/lastmile_qr_scan"}, "fusion_lon": 0.0}, {"lat": 38.90977733333333, "is_disabled": 0, "type": "electric_scooter", "lon": -77.0480545, "bike_id": "6c7df8bf663629acabc1a848b43893b2", "fusion_lat": 0.0, "name": "6c7df8bf663629acabc1a848b43893b2", "is_reserved": 0, "rental_uris": {"android": "https://dc.lft.to/lastmile_qr_scan", "ios": "https://dc.lft.to/lastmile_qr_scan"}, "fusion_lon": 0.0}, {"lat": 38.939851166666664, "is_disabled": 0, "type": "electric_scooter", "lon": -77.029631, "bike_id": "586469953ed558082103aa0ce01fc3ea", "fusion_lat": 0.0, "name": "586469953ed558082103aa0ce01fc3ea", "is_reserved": 0, "rental_uris": {"android": "https://dc.lft.to/lastmile_qr_scan", "ios": "https://dc.lft.to/lastmile_qr_scan"}, "fusion_lon": 0.0}, {"lat": 38.8459235, "is_disabled": 0, "type": "electric_bike", "lon": -77.07682166666666, "bike_id": "d6fd48508a06bf1aa0c84a8784ccd28f", "fusion_lat": 0.0, "name": "d6fd48508a06bf1aa0c84a8784ccd28f", "is_reserved": 0, "rental_uris": {"android": "https://dc.lft.to/lastmile_qr_scan", "ios": "https://dc.lft.to/lastmile_qr_scan"}, "fusion_lon": 0.0}, {"lat": 38.86621783333333, "is_disabled": 0, "type": "electric_scooter", "lon": -76.98663416666666, "bike_id": "33c9414a65a76cc7bf005f524a2c9942", "fusion_lat": 0.0, "name": "33c9414a65a76cc7bf005f524a2c9942", "is_reserved": 0, "rental_uris": {"android": "https://dc.lft.to/lastmile_qr_scan", "ios": "https://dc.lft.to/lastmile_qr_scan"}, "fusion_lon": 0.0}, {"lat": 38.88513966666667, "is_disabled": 0, "type": "electric_scooter", "lon": -77.0106615, "bike_id": "68962d4869f24efa8b2882e7792cd554", "fusion_lat": 0.0, "name": "68962d4869f24efa8b2882e7792cd554", "is_reserved": 0, "rental_uris": {"android": "https://dc.lft.to/lastmile_qr_scan", "ios": "https://dc.lft.to/lastmile_qr_scan"}, "fusion_lon": 0.0}, {"lat": 38.909703666666665, "is_disabled": 0, "type": "electric_scooter", "lon": -77.048223, "bike_id": "ffa549a7d4adfd096819d38f408cf9a1", "fusion_lat": 0.0, "name": "ffa549a7d4adfd096819d38f408cf9a1", "is_reserved": 0, "rental_uris": {"android": "https://dc.lft.to/lastmile_qr_scan", "ios": "https://dc.lft.to/lastmile_qr_scan"}, "fusion_lon": 0.0}, {"lat": 38.88489783333333, "is_disabled": 0, "type": "electric_scooter", "lon": -77.0071235, "bike_id": "09ea483f289e6abb45073c6c27fa5d56", "fusion_lat": 0.0, "name": "09ea483f289e6abb45073c6c27fa5d56", "is_reserved": 0, "rental_uris": {"android": "https://dc.lft.to/lastmile_qr_scan", "ios": "https://dc.lft.to/lastmile_qr_scan"}, "fusion_lon": 0.0}, {"lat": 38.90640233333333, "is_disabled": 0, "type": "electric_scooter", "lon": -77.01370333333334, "bike_id": "aaed10ee7ba088588937116c93a37f76", "fusion_lat": 0.0, "name": "aaed10ee7ba088588937116c93a37f76", "is_reserved": 0, "rental_uris": {"android": "https://dc.lft.to/lastmile_qr_scan", "ios": "https://dc.lft.to/lastmile_qr_scan"}, "fusion_lon": 0.0}, {"lat": 38.905880333333336, "is_disabled": 0, "type": "electric_scooter", "lon": -77.046684, "bike_id": "f10025c417629209271ee1551e79f022", "fusion_lat": 0.0, "name": "f10025c417629209271ee1551e79f022", "is_reserved": 0, "rental_uris": {"android": "https://dc.lft.to/lastmile_qr_scan", "ios": "https://dc.lft.to/lastmile_qr_scan"}, "fusion_lon": 0.0}, {"lat": 38.8925835, "is_disabled": 0, "type": "electric_scooter", "lon": -77.022058, "bike_id": "2174055e0e4f529566b12514aff4ff56", "fusion_lat": 0.0, "name": "2174055e0e4f529566b12514aff4ff56", "is_reserved": 0, "rental_uris": {"android": "https://dc.lft.to/lastmile_qr_scan", "ios": "https://dc.lft.to/lastmile_qr_scan"}, "fusion_lon": 0.0}, {"lat": 38.8143325, "is_disabled": 0, "type": "electric_bike", "lon": -77.11892083333333, "bike_id": "72ac42fb1aefa7518d85de032ba922c4", "fusion_lat": 0.0, "name": "72ac42fb1aefa7518d85de032ba922c4", "is_reserved": 0, "rental_uris": {"android": "https://dc.lft.to/lastmile_qr_scan", "ios": "https://dc.lft.to/lastmile_qr_scan"}, "fusion_lon": 0.0}, {"lat": 38.9320705, "is_disabled": 0, "type": "electric_scooter", "lon": -77.03860666666667, "bike_id": "9580c0a149823935117e75c0bacf1925", "fusion_lat": 0.0, "name": "9580c0a149823935117e75c0bacf1925", "is_reserved": 0, "rental_uris": {"android": "https://dc.lft.to/lastmile_qr_scan", "ios": "https://dc.lft.to/lastmile_qr_scan"}, "fusion_lon": 0.0}, {"lat": 38.93707, "is_disabled": 0, "type": "electric_scooter", "lon": -77.0239695, "bike_id": "da13ab3fdc3167000ab833cef76d3cb1", "fusion_lat": 0.0, "name": "da13ab3fdc3167000ab833cef76d3cb1", "is_reserved": 0, "rental_uris": {"android": "https://dc.lft.to/lastmile_qr_scan", "ios": "https://dc.lft.to/lastmile_qr_scan"}, "fusion_lon": 0.0}, {"lat": 39.09441566666667, "is_disabled": 0, "type": "electric_bike", "lon": -77.13461366666667, "bike_id": "ea0714a4ecce5fd6735c621e337490f1", "fusion_lat": 0.0, "name": "ea0714a4ecce5fd6735c621e337490f1", "is_reserved": 0, "rental_uris": {"android": "https://dc.lft.to/lastmile_qr_scan", "ios": "https://dc.lft.to/lastmile_qr_scan"}, "fusion_lon": 0.0}, {"lat": 38.93272483333333, "is_disabled": 0, "type": "electric_bike", "lon": -77.028443, "bike_id": "b84c5eb110058b6f9caf6b1f80098ca0", "fusion_lat": 0.0, "name": "b84c5eb110058b6f9caf6b1f80098ca0", "is_reserved": 0, "rental_uris": {"android": "https://dc.lft.to/lastmile_qr_scan", "ios": "https://dc.lft.to/lastmile_qr_scan"}, "fusion_lon": 0.0}, {"lat": 38.893683333333335, "is_disabled": 0, "type": "electric_scooter", "lon": -77.04154283333334, "bike_id": "e9155571937d6f77d35007b6bf6ba239", "fusion_lat": 0.0, "name": "e9155571937d6f77d35007b6bf6ba239", "is_reserved": 0, "rental_uris": {"android": "https://dc.lft.to/lastmile_qr_scan", "ios": "https://dc.lft.to/lastmile_qr_scan"}, "fusion_lon": 0.0}, {"lat": 38.86286666666667, "is_disabled": 0, "type": "electric_scooter", "lon": -76.99239566666667, "bike_id": "0d68cf655f4bae0e67429f0d585b955f", "fusion_lat": 0.0, "name": "0d68cf655f4bae0e67429f0d585b955f", "is_reserved": 0, "rental_uris": {"android": "https://dc.lft.to/lastmile_qr_scan", "ios": "https://dc.lft.to/lastmile_qr_scan"}, "fusion_lon": 0.0}, {"lat": 38.898462333333335, "is_disabled": 0, "type": "electric_scooter", "lon": -76.94462233333333, "bike_id": "ee7c29718ce2d8a25f2d8e8edd74bf8a", "fusion_lat": 0.0, "name": "ee7c29718ce2d8a25f2d8e8edd74bf8a", "is_reserved": 0, "rental_uris": {"android": "https://dc.lft.to/lastmile_qr_scan", "ios": "https://dc.lft.to/lastmile_qr_scan"}, "fusion_lon": 0.0}, {"lat": 38.9095635, "is_disabled": 0, "type": "electric_scooter", "lon": -77.04665466666667, "bike_id": "da178293d0219c4e91b7e8946626e3a4", "fusion_lat": 0.0, "name": "da178293d0219c4e91b7e8946626e3a4", "is_reserved": 0, "rental_uris": {"android": "https://dc.lft.to/lastmile_qr_scan", "ios": "https://dc.lft.to/lastmile_qr_scan"}, "fusion_lon": 0.0}, {"lat": 38.924475, "is_disabled": 0, "type": "electric_scooter", "lon": -77.0337045, "bike_id": "1ddc2a58023caab9a76b7284bcef9819", "fusion_lat": 0.0, "name": "1ddc2a58023caab9a76b7284bcef9819", "is_reserved": 0, "rental_uris": {"android": "https://dc.lft.to/lastmile_qr_scan", "ios": "https://dc.lft.to/lastmile_qr_scan"}, "fusion_lon": 0.0},