{"data": {"bikes": [{"bike_id": "aa88edb87b47883df13521ca2f558e0a", "fusion_lon": 0.0, "lon": -77.02180583333333, "name": "aa88edb87b47883df13521ca2f558e0a", "is_disabled": 0, "rental_uris": {"android": "https://dc.lft.to/lastmile_qr_scan", "ios": "https://dc.lft.to/lastmile_qr_scan"}, "type": "electric_scooter", "lat": 38.914240166666666, "is_reserved": 0, "fusion_lat": 0.0}, {"bike_id": "13f96e9759fde2131f108f6570b7a74b", "fusion_lon": 0.0, "lon": -76.96541333333333, "name": "13f96e9759fde2131f108f6570b7a74b", "is_disabled": 0, "rental_uris": {"android": "https://dc.lft.to/lastmile_qr_scan", "ios": "https://dc.lft.to/lastmile_qr_scan"}, "type": "electric_scooter", "lat": 38.918501, "is_reserved": 0, "fusion_lat": 0.0}, {"bike_id": "b151092ca80a01bcccb3bf3035583b25", "fusion_lon": 0.0, "lon": -77.034602, "name": "b151092ca80a01bcccb3bf3035583b25", "is_disabled": 0, "rental_uris": {"android": "https://dc.lft.to/lastmile_qr_scan", "ios": "https://dc.lft.to/lastmile_qr_scan"}, "type": "electric_scooter", "lat": 38.9086695, "is_reserved": 0, "fusion_lat": 0.0}, {"bike_id": "63fcf893f949fd7350636e806c0d49c7", "fusion_lon": 0.0, "lon": -77.00711783333334, "name": "63fcf893f949fd7350636e806c0d49c7", "is_disabled": 0, "rental_uris": {"android": "https://dc.lft.to/lastmile_qr_scan", "ios": "https://dc.lft.to/lastmile_qr_scan"}, "type": "electric_scooter", "lat": 38.898219166666664, "is_reserved": 0, "fusion_lat": 0.0}, {"bike_id": "fb6080d258a0de47b0334b78a69a62e9", "fusion_lon": 0.0, "lon": -77.029086, "name": "fb6080d258a0de47b0334b78a69a62e9", "is_disabled": 0, "rental_uris": {"android": "https://dc.lft.to/lastmile_qr_scan", "ios": "https://dc.lft.to/lastmile_qr_scan"}, "type": "electric_scooter", "lat": 38.92571266666667, "is_reserved": 0, "fusion_lat": 0.0}, {"bike_id": "cfcc27777d1995582026c18662f633e8", "fusion_lon": 0.0, "lon": -77.0236565, "name": "cfcc27777d1995582026c18662f633e8", "is_disabled": 0, "rental_uris": {"android": "https://dc.lft.to/lastmile_qr_scan", "ios": "https://dc.lft.to/lastmile_qr_scan"}, "type": "electric_scooter", "lat": 38.892241166666665, "is_reserved": 0, "fusion_lat": 0.0}, {"bike_id": "ec9a6af13c37ed14a265be3298bbd787", "fusion_lon": 0.0, "lon": -77.04074016666667, "name": "ec9a6af13c37ed14a265be3298bbd787", "is_disabled": 0, "rental_uris": {"android": "https://dc.lft.to/lastmile_qr_scan", "ios": "https://dc.lft.to/lastmile_qr_scan"}, "type": "electric_scooter", "lat": 38.90508033333333, "is_reserved": 0, "fusion_lat": 0.0}, {"bike_id": "cf0f05d18329aebd122f0f89b47f32af", "fusion_lon": 0.0, "lon": -77.00072033333333, "name": "cf0f05d18329aebd122f0f89b47f32af", "is_disabled": 0, "rental_uris": {"android": "https://dc.lft.to/lastmile_qr_scan", "ios": "https://dc.lft.to/lastmile_qr_scan"}, "type": "electric_scooter", "lat": 38.925511166666666, "is_reserved": 0, "fusion_lat": 0.0}, {"bike_id": "ae1033d846cc27e8e0563b06de74b933", "fusion_lon": 0.0, "lon": -77.0093, "name": "ae1033d846cc27e8e0563b06de74b933", "is_disabled": 0, "rental_uris": {"android": "https://dc.lft.to/lastmile_qr_scan", "ios": "https://dc.lft.to/lastmile_qr_scan"}, "type": "electric_scooter", "lat": 38.9180735, "is_reserved": 0, "fusion_lat": 0.0}, {"bike_id": "ee1095dc3e06428477b4c7035502d232", "fusion_lon": 0.0, "lon": -77.0321335, "name": "ee1095dc3e06428477b4c7035502d232", "is_disabled": 0, "rental_uris": {"android": "https://dc.lft.to/lastmile_qr_scan", "ios": "https://dc.lft.to/lastmile_qr_scan"}, "type": "electric_scooter", "lat": 38.91552516666667, "is_reserved": 0, "fusion_lat": 0.0}, {"bike_id": "f129ad32ae9d19ec9c203151321e6293", "fusion_lon": 0.0, "lon": -77.02309716666667, "name": "f129ad32ae9d19ec9c203151321e6293", "is_disabled": 0, "rental_uris": {"android": "https://dc.lft.to/lastmile_qr_scan", "ios": "https://dc.lft.to/lastmile_qr_scan"}, "type": "electric_scooter", "lat": 38.9096205, "is_reserved": 0, "fusion_lat": 0.0}, {"bike_id": "1878b50ce23844eb44c6c15367abf3ce", "fusion_lon": 0.0, "lon": -77.1013705, "name": "1878b50ce23844eb44c6c15367abf3ce", "is_disabled": 0, "rental_uris": {"android": "https://dc.lft.to/lastmile_qr_scan", "ios": "https://dc.lft.to/lastmile_qr_scan"}, "type": "electric_bike", "lat": 38.85213916666667, "is_reserved": 0, "fusion_lat": 0.0}, {"bike_id": "3aacbb7567a78df9ab5b7dc2c5af6a7f", "fusion_lon": 0.0, "lon": -76.93185, "name": "3aacbb7567a78df9ab5b7dc2c5af6a7f", "is_disabled": 0, "rental_uris": {"android": "https://dc.lft.to/lastmile_qr_scan", "ios": "https://dc.lft.to/lastmile_qr_scan"}, "type": "electric_scooter", "lat": 38.898765833333336, "is_reserved": 0, "fusion_lat": 0.0}, {"bike_id": "a506f307f16465459b761d220f173657", "fusion_lon": 0.0, "lon": -77.02415833333333, "name": "a506f307f16465459b761d220f173657", "is_disabled": 0, "rental_uris": {"android": "https://dc.lft.to/lastmile_qr_scan", "ios": "https://dc.lft.to/lastmile_qr_scan"}, "type": "electric_scooter", "lat": 38.92191916666667, "is_reserved": 0, "fusion_lat": 0.0}, {"bike_id": "058ac1b7e46eaf07cf4b1f7ab6825e88", "fusion_lon": 0.0, "lon": -77.00975083333333, "name": "058ac1b7e46eaf07cf4b1f7ab6825e88", "is_disabled": 0, "rental_uris": {"android": "https://dc.lft.to/lastmile_qr_scan", "ios": "https://dc.lft.to/lastmile_qr_scan"}, "type": "electric_bike", "lat": 38.9614125, "is_reserved": 0, "fusion_lat": 0.0}, {"bike_id": "b3df3507c5d15d4c431667af71c11762", "fusion_lon": 0.0, "lon": -77.04878633333334, "name": "b3df3507c5d15d4c431667af71c11762", "is_disabled": 0, "rental_uris": {"android": "https://dc.lft.to/lastmile_qr_scan", "ios": "https://dc.lft.to/lastmile_qr_scan"}, "type": "electric_scooter", "lat": 38.906409333333336, "is_reserved": 0, "fusion_lat": 0.0}, {"bike_id": "96ff4e891b2abfc848276d7deb45e580", "fusion_lon": 0.0, "lon": -77.005966, "name": "96ff4e891b2abfc848276d7deb45e580", "is_disabled": 0, "rental_uris": {"android": "https://dc.lft.to/lastmile_qr_scan", "ios": "https://dc.lft.to/lastmile_qr_scan"}, "type": "electric_scooter", "lat": 38.9056695, "is_reserved": 0, "fusion_lat": 0.0}, {"bike_id": "890363f1d45a155eda0ce274cd92dbbc", "fusion_lon": 0.0, "lon": -77.04316333333334, "name": "890363f1d45a155eda0ce274cd92dbbc", "is_disabled": 0, "rental_uris": {"android": "https://dc.lft.to/lastmile_qr_scan", "ios": "https://dc.lft.to/lastmile_qr_scan"}, "type": "electric_scooter", "lat": 38.91876116666667, "is_reserved": 0, "fusion_lat": 0.0}, {"bike_id": "59044ffeeb0b26a72a7665cc2403efb0", "fusion_lon": 0.0, "lon": -77.02810733333334, "name": "59044ffeeb0b26a72a7665cc2403efb0", "is_disabled": 0, "rental_uris": {"android": "https://dc.lft.to/lastmile_qr_scan", "ios": "https://dc.lft.to/lastmile_qr_scan"}, "type": "electric_scooter", "lat": 38.93082716666667, "is_reserved": 0, "fusion_lat": 0.0}, {"bike_id": "8a4e35c1a410b767eb8282bc67fa3216", "fusion_lon": 0.0, "lon": -76.9883635, "name": "8a4e35c1a410b767eb8282bc67fa3216", "is_disabled": 0, "rental_uris": {"android": "https://dc.lft.to/lastmile_qr_scan", "ios": "https://dc.lft.to/lastmile_qr_scan"}, "type": "electric_scooter", "lat": 38.900310166666664, "is_reserved": 0, "fusion_lat": 0.0}, {"bike_id": "0fd22e7064338081b5ce58a1e8904cca", "fusion_lon": 0.0, "lon": -77.041498, "name": "0fd22e7064338081b5ce58a1e8904cca", "is_disabled": 0, "rental_uris": {"android": "https://dc.lft.to/lastmile_qr_scan", "ios": "https://dc.lft.to/lastmile_qr_scan"}, "type": "electric_scooter", "lat": 38.921677333333335, "is_reserved": 0, "fusion_lat": 0.0}, {"bike_id": "1cc90d14d2b41d924df0c1c8f7ecacc9", "fusion_lon": 0.0, "lon": -77.044863, "name": "1cc90d14d2b41d924df0c1c8f7ecacc9", "is_disabled": 0, "rental_uris": {"android": "https://dc.lft.to/lastmile_qr_scan", "ios": "https://dc.lft.to/lastmile_qr_scan"}, "type": "electric_scooter", "lat": 38.913647166666664, "is_reserved": 0, "fusion_lat": 0.0}, {"bike_id": "2aaa9ca301cb6a9bcd3f02c1f3a6be6f", "fusion_lon": 0.0, "lon": -77.02441133333333, "name": "2aaa9ca301cb6a9bcd3f02c1f3a6be6f", "is_disabled": 0, "rental_uris": {"android": "https://dc.lft.to/lastmile_qr_scan", "ios": "https://dc.lft.to/lastmile_qr_scan"}, "type": "electric_scooter", "lat": 38.90218566666667, "is_reserved": 0, "fusion_lat": 0.0}, {"bike_id": "398c4fa7cab941394082f95eef52b2bd", "fusion_lon": 0.0, "lon": -77.07374833333333, "name": "398c4fa7cab941394082f95eef52b2bd", "is_disabled": 0, "rental_uris": {"android": "https://dc.lft.to/lastmile_qr_scan", "ios": "https://dc.lft.to/lastmile_qr_scan"}, "type": "electric_bike", "lat": 38.96185916666667, "is_reserved": 0, "fusion_lat": 0.0}, {"bike_id": "108cfe1fd23880969975915b23c42cbb", "fusion_lon": 0.0, "lon": -76.99095166666666, "name": "108cfe1fd23880969975915b23c42cbb", "is_disabled": 0, "rental_uris": {"android": "https://dc.lft.to/lastmile_qr_scan", "ios": "https://dc.lft.to/lastmile_qr_scan"}, "type": "electric_scooter", "lat": 38.88232433333334, "is_reserved": 0, "fusion_lat": 0.0}, {"bike_id": "00699dcc4a520cac2c95711c1dfc726c", "fusion_lon": 0.0, "lon": -76.9373625, "name": "00699dcc4a520cac2c95711c1dfc726c", "is_disabled": 0, "rental_uris": {"android": "https://dc.lft.to/lastmile_qr_scan", "ios": "https://dc.lft.to/lastmile_qr_scan"}, "type": "electric_scooter", "lat": 38.890154, "is_reserved": 0, "fusion_lat": 0.0}, {"bike_id": "c5f5cf9ef85592292f499069a1c47f84", "fusion_lon": 0.0, "lon": -77.0141015, "name": "c5f5cf9ef85592292f499069a1c47f84", "is_disabled": 0, "rental_uris": {"android": "https://dc.lft.to/lastmile_qr_scan", "ios": "https://dc.lft.to/lastmile_qr_scan"}, "type": "electric_scooter", "lat": 38.887450666666666, "is_reserved": 0, "fusion_lat": 0.0}, {"bike_id": "438fedff8c43d131d7f46a2743dc3874", "fusion_lon": 0.0, "lon": -77.00199483333333, "name": "438fedff8c43d131d7f46a2743dc3874", "is_disabled": 0, "rental_uris": {"android": "https://dc.lft.to/lastmile_qr_scan", "ios": "https://dc.lft.to/lastmile_qr_scan"}, "type": "electric_scooter", "lat": 38.90239616666667, "is_reserved": 0, "fusion_lat": 0.0}, {"bike_id": "9c70ed50d5ac7dfb2b91d0963722057e", "fusion_lon": 0.0, "lon": -77.022265, "name": "9c70ed50d5ac7dfb2b91d0963722057e", "is_disabled": 0, "rental_uris": {"android": "https://dc.lft.to/lastmile_qr_scan", "ios": "https://dc.lft.to/lastmile_qr_scan"}, "type": "electric_scooter", "lat": 38.892228833333334, "is_reserved": 0, "fusion_lat": 0.0}, {"bike_id": "ba417b90560defdce3e066651b3e92a1", "fusion_lon": 0.0, "lon": -77.02697283333333, "name": "ba417b90560defdce3e066651b3e92a1", "is_disabled": 0, "rental_uris": {"android": "https://dc.lft.to/lastmile_qr_scan", "ios": "https://dc.lft.to/lastmile_qr_scan"}, "type": "electric_scooter", "lat": 38.89985883333333, "is_reserved": 0, "fusion_lat": 0.0}, {"bike_id": "b884d6b8763bbd64e45a49bdb979c64c", "fusion_lon": 0.0, "lon": -77.02893616666667, "name": "b884d6b8763bbd64e45a49bdb979c64c", "is_disabled": 0, "rental_uris": {"android": "https://dc.lft.to/lastmile_qr_scan", "ios": "https://dc.lft.to/lastmile_qr_scan"}, "type": "electric_scooter", "lat": 38.9073055, "is_reserved": 0, "fusion_lat": 0.0}, {"bike_id": "87a69ed6a679bd5555b55eecd4d94251", "fusion_lon": 0.0, "lon": -77.03993966666667, "name": "87a69ed6a679bd5555b55eecd4d94251", "is_disabled": 0, "rental_uris": {"android": "https://dc.lft.to/lastmile_qr_scan", "ios": "https://dc.lft.to/lastmile_qr_scan"}, "type": "electric_scooter", "lat": 38.917660833333336, "is_reserved": 0, "fusion_lat": 0.0}, {"bike_id": "0be00ecf755a5e4e7b1a9559a7ad2cd3", "fusion_lon": 0.0, "lon": -77.03129833333334, "name": "0be00ecf755a5e4e7b1a9559a7ad2cd3", "is_disabled": 0, "rental_uris": {"android": "https://dc.lft.to/lastmile_qr_scan", "ios": "https://dc.lft.to/lastmile_qr_scan"}, "type": "electric_scooter", "lat": 38.9155025, "is_reserved": 0, "fusion_lat": 0.0}, {"bike_id": "57491f05032dc8d8d93b2fc21721d13c", "fusion_lon": 0.0, "lon": -76.92500933333334, "name": "57491f05032dc8d8d93b2fc21721d13c", "is_disabled": 0, "rental_uris": {"android": "https://dc.lft.to/lastmile_qr_scan", "ios": "https://dc.lft.to/lastmile_qr_scan"}, "type": "electric_bike", "lat": 38.95908466666667, "is_reserved": 0, "fusion_lat": 0.0}, {"bike_id": "a369e6375be2e350a62db6346da7cf9b", "fusion_lon": 0.0, "lon": -77.00931316666667, "name": "a369e6375be2e350a62db6346da7cf9b", "is_disabled": 0, "rental_uris": {"android": "https://dc.lft.to/lastmile_qr_scan", "ios": "https://dc.lft.to/lastmile_qr_scan"}, "type": "electric_scooter", "lat": 38.90830483333333, "is_reserved": 0, "fusion_lat": 0.0}, {"bike_id": "f30bb00489cb72167d5122ff8033c97b", "fusion_lon": 0.0, "lon": -77.0308995, "name": "f30bb00489cb72167d5122ff8033c97b", "is_disabled": 0, "rental_uris": {"android": "https://dc.lft.to/lastmile_qr_scan", "ios": "https://dc.lft.to/lastmile_qr_scan"}, "type": "electric_scooter", "lat": 38.897708333333334, "is_reserved": 0, "fusion_lat": 0.0}, {"bike_id": "ea6651991a2c585bafe99561e86fd987", "fusion_lon": 0.0, "lon": -77.03247833333333, "name": "ea6651991a2c585bafe99561e86fd987", "is_disabled": 0, "rental_uris": {"android": "https://dc.lft.to/lastmile_qr_scan", "ios": "https://dc.lft.to/lastmile_qr_scan"}, "type": "electric_scooter", "lat": 38.9285505, "is_reserved": 0, "fusion_lat": 0.0}, {"bike_id": "8bcc528ea3749e1450aec18324e5ebd6", "fusion_lon": 0.0, "lon": -77.00869833333333, "name": "8bcc528ea3749e1450aec18324e5ebd6", "is_disabled": 0, "rental_uris": {"android": "https://dc.lft.to/lastmile_qr_scan", "ios": "https://dc.lft.to/lastmile_qr_scan"}, "type": "electric_scooter", "lat": 38.917075, "is_reserved": 0, "fusion_lat": 0.0}, {"bike_id": "1e5b9c1847203f0c795fef06dee3c026", "fusion_lon": 0.0, "lon": -77.03452316666667, "name": "1e5b9c1847203f0c795fef06dee3c026", "is_disabled": 0, "rental_uris": {"android": "https://dc.lft.to/lastmile_qr_scan", "ios": "https://dc.lft.to/lastmile_qr_scan"}, "type": "electric_scooter", "lat": 38.918114, "is_reserved": 0, "fusion_lat": 0.0}, {"bike_id": "4bd0e15eab98cdc0a59bbbe4c6c4f159", "fusion_lon": 0.0, "lon": -77.016144, "name": "4bd0e15eab98cdc0a59bbbe4c6c4f159", "is_disabled": 0, "rental_uris": {"android": "https://dc.lft.to/lastmile_qr_scan", "ios": "https://dc.lft.to/lastmile_qr_scan"}, "type": "electric_scooter", "lat": 38.90585333333333, "is_reserved": 0, "fusion_lat": 0.0}, {"bike_id": "4ee2c69fe1b417c62bf73af796d1ac42", "fusion_lon": 0.0, "lon": -77.03509483333333, "name": "4ee2c69fe1b417c62bf73af796d1ac42", "is_disabled": 0, "rental_uris": {"android": "https://dc.lft.to/lastmile_qr_scan", "ios": "https://dc.lft.to/lastmile_qr_scan"}, "type": "electric_scooter", "lat": 38.918836166666665, "is_reserved": 0, "fusion_lat": 0.0}, {"bike_id": "20bd7a592e98d8db8a3e8045bac80787", "fusion_lon": 0.0, "lon": -77.13479233333334, "name": "20bd7a592e98d8db8a3e8045bac80787", "is_disabled": 0, "rental_uris": {"android": "https://dc.lft.to/lastmile_qr_scan", "ios": "https://dc.lft.to/lastmile_qr_scan"}, "type": "electric_bike", "lat": 38.853488, "is_reserved": 0, "fusion_lat": 0.0}, {"bike_id": "db7b171a841a6c0b1251f9868453d878", "fusion_lon": 0.0, "lon": -77.03403033333333, "name": "db7b171a841a6c0b1251f9868453d878", "is_disabled": 0, "rental_uris": {"android": "https://dc.lft.to/lastmile_qr_scan", "ios": "https://dc.lft.to/lastmile_qr_scan"}, "type": "electric_scooter", "lat": 38.9312665, "is_reserved": 0, "fusion_lat": 0.0}, {"bike_id": "5eb3ba4713ff90f95fd85af73f5e589f", "fusion_lon": 0.0, "lon": -77.027182, "name": "5eb3ba4713ff90f95fd85af73f5e589f", "is_disabled": 0, "rental_uris": {"android": "https://dc.lft.to/lastmile_qr_scan", "ios": "https://dc.lft.to/lastmile_qr_scan"}, "type": "electric_scooter", "lat": 38.9167025, "is_reserved": 0, "fusion_lat": 0.0}, {"bike_id": "b7a4831f57e520b78490adff3fc08044", "fusion_lon": 0.0, "lon": -76.980855, "name": "b7a4831f57e520b78490adff3fc08044", "is_disabled": 0, "rental_uris": {"android": "https://dc.lft.to/lastmile_qr_scan", "ios": "https://dc.lft.to/lastmile_qr_scan"}, "type": "electric_bike", "lat": 38.953515333333335, "is_reserved": 0, "fusion_lat": 0.0}, {"bike_id": "c8bf3bd096d59b3939ed612375ec0e86", "fusion_lon": 0.0, "lon": -76.98582366666666, "name": "c8bf3bd096d59b3939ed612375ec0e86", "is_disabled": 0, "rental_uris": {"android": "https://dc.lft.to/lastmile_qr_scan", "ios": "https://dc.lft.to/lastmile_qr_scan"}, "type": "electric_scooter", "lat": 38.85447333333333, "is_reserved": 0, "fusion_lat": 0.0}, {"bike_id": "fb0b2dd3b843ccc50ce57c2424c9df07", "fusion_lon": 0.0, "lon": -77.04400466666667, "name": "fb0b2dd3b843ccc50ce57c2424c9df07", "is_disabled": 0, "rental_uris": {"android": "https://dc.lft.to/lastmile_qr_scan", "ios": "https://dc.lft.to/lastmile_qr_scan"}, "type": "electric_scooter", "lat": 38.91414483333333, "is_reserved": 0, "fusion_lat": 0.0}, {"bike_id": "b4c4a9e2bf4f15b2ec4f5a734067c032", "fusion_lon": 0.0, "lon": -76.9313375, "name": "b4c4a9e2bf4f15b2ec4f5a734067c032", "is_disabled": 0, "rental_uris": {"android": "https://dc.lft.to/lastmile_qr_scan", "ios": "https://dc.lft.to/lastmile_qr_scan"}, "type": "electric_scooter", "lat": 38.893378, "is_reserved": 0, "fusion_lat": 0.0}, {"bike_id": "6d9873bdd670ae88adbbf499f4b12e5b", "fusion_lon": 0.0, "lon": -77.02767233333333, "name": "6d9873bdd670ae88adbbf499f4b12e5b", "is_disabled": 0, "rental_uris": {"android": "https://dc.lft.to/lastmile_qr_scan", "ios": "https://dc.lft.to/lastmile_qr_scan"}, "type": "electric_scooter", "lat": 38.954277, "is_reserved": 0, "fusion_lat": 0.0}, {"bike_id": "1689c0636c9517e1b04a129264974e55", "fusion_lon": 0.0, "lon": -77.02172716666666, "name": "1689c0636c9517e1b04a129264974e55", "is_disabled": 0, "rental_uris": {"android": "https://dc.lft.to/lastmile_qr_scan", "ios": "https://dc.lft.to/lastmile_qr_scan"}, "type": "electric_scooter", "lat": 38.94292466666667, "is_reserved": 0, "fusion_lat": 0.0}, {"bike_id": "32773109514708df00ebedd80ee8f430", "fusion_lon": 0.0, "lon": -77.0262495, "name": "32773109514708df00ebedd80ee8f430", "is_disabled": 0, "rental_uris": {"android": "https://dc.lft.to/lastmile_qr_scan", "ios": "https://dc.lft.to/lastmile_qr_scan"}, "type": "electric_bike", "lat": 38.9621855, "is_reserved": 0, "fusion_lat": 0.0}, {"bike_id": "59a66f3f2be8ce56ed2c6c083e3a7c54", "fusion_lon": 0.0, "lon": -77.04322316666666, "name": "59a66f3f2be8ce56ed2c6c083e3a7c54", "is_disabled": 0, "rental_uris": {"android": "https://dc.lft.to/lastmile_qr_scan", "ios": "https://dc.lft.to/lastmile_qr_scan"}, "type": "electric_scooter", "lat": 38.9232495, "is_reserved": 0, "fusion_lat": 0.0}, {"bike_id": "486a6b9cb1939ad1689f63062f56bd10", "fusion_lon": 0.0, "lon": -77.02813833333333, "name": "486a6b9cb1939ad1689f63062f56bd10", "is_disabled": 0, "rental_uris": {"android": "https://dc.lft.to/lastmile_qr_scan", "ios": "https://dc.lft.to/lastmile_qr_scan"}, "type": "electric_scooter", "lat": 38.93167666666667, "is_reserved": 0, "fusion_lat": 0.0}, {"bike_id": "0dc25304be6f3f919107ae22ad0fed75", "fusion_lon": 0.0, "lon": -76.965275, "name": "0dc25304be6f3f919107ae22ad0fed75", "is_disabled": 0, "rental_uris": {"android": "https://dc.lft.to/lastmile_qr_scan", "ios": "https://dc.lft.to/lastmile_qr_scan"}, "type": "electric_scooter", "lat": 38.87629483333333, "is_reserved": 0, "fusion_lat": 0.0}, {"bike_id": "02b3d0b78d55bc065c70c50b5bf6e44c", "fusion_lon": 0.0, "lon": -77.015394, "name": "02b3d0b78d55bc065c70c50b5bf6e44c", "is_disabled": 0, "rental_uris": {"android": "https://dc.lft.to/lastmile_qr_scan", "ios": "https://dc.lft.to/lastmile_qr_scan"}, "type": "electric_scooter", "lat": 38.88742966666667, "is_reserved": 0, "fusion_lat": 0.0}, {"bike_id": "1cf7b50fd3922cedc97b24979365b5d8", "fusion_lon": 0.0, "lon": -77.0478895, "name": "1cf7b50fd3922cedc97b24979365b5d8", "is_disabled": 0, "rental_uris": {"android": "https://dc.lft.to/lastmile_qr_scan", "ios": "https://dc.lft.to/lastmile_qr_scan"}, "type": "electric_scooter", "lat": 38.89363983333333, "is_reserved": 0, "fusion_lat": 0.0}, {"bike_id": "e086bd1f21a50bbc95187163ef1f8fc1", "fusion_lon": 0.0, "lon": -77.02010466666667, "name": "e086bd1f21a50bbc95187163ef1f8fc1", "is_disabled": 0, "rental_uris": {"android": "https://dc.lft.to/lastmile_qr_scan", "ios": "https://dc.lft.to/lastmile_qr_scan"}, "type": "electric_scooter", "lat": 38.92413966666667, "is_reserved": 0, "fusion_lat": 0.0}, {"bike_id": "473bb14d9f498ba40075390fd578c060", "fusion_lon": 0.0, "lon": -76.990348, "name": "473bb14d9f498ba40075390fd578c060", "is_disabled": 0, "rental_uris": {"android": "https://dc.lft.to/lastmile_qr_scan", "ios": "https://dc.lft.to/lastmile_qr_scan"}, "type": "electric_scooter", "lat": 38.901847833333335, "is_reserved": 0, "fusion_lat": 0.0}, {"bike_id": "addf74d11123a998ed965ede2c4ff41f", "fusion_lon": 0.0, "lon": -77.0219345, "name": "addf74d11123a998ed965ede2c4ff41f", "is_disabled": 0, "rental_uris": {"android": "https://dc.lft.to/lastmile_qr_scan", "ios": "https://dc.lft.to/lastmile_qr_scan"}, "type": "electric_scooter", "lat": 38.911031, "is_reserved": 0, "fusion_lat": 0.0}, {"bike_id": "031c6fb9cecd404f5810f8282f801659", "fusion_lon": 0.0, "lon": -77.00584216666667, "name": "031c6fb9cecd404f5810f8282f801659", "is_disabled": 0, "rental_uris": {"android": "https://dc.lft.to/lastmile_qr_scan", "ios": "https://dc.lft.to/lastmile_qr_scan"}, "type": "electric_scooter", "lat": 38.90555966666667, "is_reserved": 0, "fusion_lat": 0.0}, {"bike_id": "4f47b614f8aa21dedc2c3f49d6fb9c9f", "fusion_lon": 0.0, "lon": -77.03995533333334, "name": "4f47b614f8aa21dedc2c3f49d6fb9c9f", "is_disabled": 0, "rental_uris": {"android": "https://dc.lft.to/lastmile_qr_scan", "ios": "https://dc.lft.to/lastmile_qr_scan"}, "type": "electric_scooter", "lat": 38.925851, "is_reserved": 0, "fusion_lat": 0.0}, {"bike_id": "e6cf6a89caa72ed54e0dc8c261624c3b", "fusion_lon": 0.0, "lon": -77.02539333333333, "name": "e6cf6a89caa72ed54e0dc8c261624c3b", "is_disabled": 0, "rental_uris": {"android": "https://dc.lft.to/lastmile_qr_scan", "ios": "https://dc.lft.to/lastmile_qr_scan"}, "type": "electric_scooter", "lat": 38.9096205, "is_reserved": 0, "fusion_lat": 0.0}, {"bike_id": "bc608b8b5f5ce986a97e37943311cf2e", "fusion_lon": 0.0, "lon": -77.02534966666667, "name": "bc608b8b5f5ce986a97e37943311cf2e", "is_disabled": 0, "rental_uris": {"android": "https://dc.lft.to/lastmile_qr_scan", "ios": "https://dc.lft.to/lastmile_qr_scan"}, "type": "electric_scooter", "lat": 38.898183833333334, "is_reserved": 0, "fusion_lat": 0.0}, {"bike_id": "ca3fba84b0a6c6999c99f7bcdabe9154", "fusion_lon": 0.0, "lon": -77.01530633333333, "name": "ca3fba84b0a6c6999c99f7bcdabe9154", "is_disabled": 0, "rental_uris": {"android": "https://dc.lft.to/lastmile_qr_scan", "ios": "https://dc.lft.to/lastmile_qr_scan"}, "type": "electric_scooter", "lat": 38.88410783333333, "is_reserved": 0, "fusion_lat": 0.0}, {"bike_id": "9b3b37cfad06265fa8938dd5e284f2fa", "fusion_lon": 0.0, "lon": -76.99912233333333, "name": "9b3b37cfad06265fa8938dd5e284f2fa", "is_disabled": 0, "rental_uris": {"android": "https://dc.lft.to/lastmile_qr_scan", "ios": "https://dc.lft.to/lastmile_qr_scan"}, "type": "electric_bike", "lat": 38.8920575, "is_reserved": 0, "fusion_lat": 0.0}, {"bike_id": "e4219ed64460bc7915814e70c8648705", "fusion_lon": 0.0, "lon": -77.046056, "name": "e4219ed64460bc7915814e70c8648705", "is_disabled": 0, "rental_uris": {"android": "https://dc.lft.to/lastmile_qr_scan", "ios": "https://dc.lft.to/lastmile_qr_scan"}, "type": "electric_scooter", "lat": 38.917215, "is_reserved": 0, "fusion_lat": 0.0}, {"bike_id": "2bea3839574b0dc5e37969fa90865b40", "fusion_lon": 0.0, "lon": -77.02165483333333, "name": "2bea3839574b0dc5e37969fa90865b40", "is_disabled": 0, "rental_uris": {"android": "https://dc.lft.to/lastmile_qr_scan", "ios": "https://dc.lft.to/lastmile_qr_scan"}, "type": "electric_scooter", "lat": 38.9261305, "is_reserved": 0, "fusion_lat": 0.0}, {"bike_id": "b1329bd3fe8db8bc8e1b5ac76f6d74ec", "fusion_lon": 0.0, "lon": -77.00798116666667, "name": "b1329bd3fe8db8bc8e1b5ac76f6d74ec", "is_disabled": 0, "rental_uris": {"android": "https://dc.lft.to/lastmile_qr_scan", "ios": "https://dc.lft.to/lastmile_qr_scan"}, "type": "electric_bike", "lat": 38.949154166666666, "is_reserved": 0, "fusion_lat": 0.0}, {"bike_id": "96f931edc47cbf78653d1872989edf98", "fusion_lon": 0.0, "lon": -77.036374, "name": "96f931edc47cbf78653d1872989edf98", "is_disabled": 0, "rental_uris": {"android": "https://dc.lft.to/lastmile_qr_scan", "ios": "https://dc.lft.to/lastmile_qr_scan"}, "type": "electric_scooter", "lat": 38.92338766666667, "is_reserved": 0, "fusion_lat": 0.0}, {"bike_id": "f45b0a146467224bceee4f29bb76905a", "fusion_lon": 0.0, "lon": -77.02951, "name": "f45b0a146467224bceee4f29bb76905a", "is_disabled": 0, "rental_uris": {"android": "https://dc.lft.to/lastmile_qr_scan", "ios": "https://dc.lft.to/lastmile_qr_scan"}, "type": "electric_scooter", "lat": 38.904959, "is_reserved": 0, "fusion_lat": 0.0}, {"bike_id": "8e1d58e721ea51d21187db792b2a88cc", "fusion_lon": 0.0, "lon": -77.0295865, "name": "8e1d58e721ea51d21187db792b2a88cc", "is_disabled": 0, "rental_uris": {"android": "https://dc.lft.to/lastmile_qr_scan", "ios": "https://dc.lft.to/lastmile_qr_scan"}, "type": "electric_scooter", "lat": 38.92333683333333, "is_reserved": 0, "fusion_lat": 0.0}, {"bike_id": "4a23a328f3234d5f1649d5d5713f6af9", "fusion_lon": 0.0, "lon": -77.22325166666667, "name": "4a23a328f3234d5f1649d5d5713f6af9", "is_disabled": 0, "rental_uris": {"android": "https://dc.lft.to/lastmile_qr_scan", "ios": "https://dc.lft.to/lastmile_qr_scan"}, "type": "electric_bike", "lat": 38.918142833333334, "is_reserved": 0, "fusion_lat": 0.0}, {"bike_id": "dd4223a9d2f72ece54ebf5a50756a68a", "fusion_lon": 0.0, "lon": -77.03830566666667, "name": "dd4223a9d2f72ece54ebf5a50756a68a", "is_disabled": 0, "rental_uris": {"android": "https://dc.lft.to/lastmile_qr_scan", "ios": "https://dc.lft.to/lastmile_qr_scan"}, "type": "electric_scooter", "lat": 38.907846166666666, "is_reserved": 0, "fusion_lat": 0.0}, {"bike_id": "6a612248f3d90f9bce9bf0a4c6734b54", "fusion_lon": 0.0, "lon": -77.03813666666667, "name": "6a612248f3d90f9bce9bf0a4c6734b54", "is_disabled": 0, "rental_uris": {"android": "https://dc.lft.to/lastmile_qr_scan", "ios": "https://dc.lft.to/lastmile_qr_scan"}, "type": "electric_scooter", "lat": 38.91415033333333, "is_reserved": 0, "fusion_lat": 0.0}, {"bike_id": "1c614bd3c07d697068fcbb11af19f118", "fusion_lon": 0.0, "lon": -77.02349816666667, "name": "1c614bd3c07d697068fcbb11af19f118", "is_disabled": 0, "rental_uris": {"android": "https://dc.lft.to/lastmile_qr_scan", "ios": "https://dc.lft.to/lastmile_qr_scan"}, "type": "electric_scooter", "lat": 38.9353495, "is_reserved": 0, "fusion_lat": 0.0}, {"bike_id": "fe899dcbe739e36a88127fde6c0bbece", "fusion_lon": 0.0, "lon": -77.04178816666666, "name": "fe899dcbe739e36a88127fde6c0bbece", "is_disabled": 0, "rental_uris": {"android": "https://dc.lft.to/lastmile_qr_scan", "ios": "https://dc.lft.to/lastmile_qr_scan"}, "type": "electric_scooter", "lat": 38.91974583333333, "is_reserved": 0, "fusion_lat": 0.0}, {"bike_id": "b04a548d8167ac7659336623f342a166", "fusion_lon": 0.0, "lon": -77.0951935, "name": "b04a548d8167ac7659336623f342a166", "is_disabled": 0, "rental_uris": {"android": "https://dc.lft.to/lastmile_qr_scan", "ios": "https://dc.lft.to/lastmile_qr_scan"}, "type": "electric_bike", "lat": 38.838136666666664, "is_reserved": 0, "fusion_lat": 0.0}, {"bike_id": "fd3e4725782157bcbfa07781bf18c246", "fusion_lon": 0.0, "lon": -77.048271, "name": "fd3e4725782157bcbfa07781bf18c246", "is_disabled": 0, "rental_uris": {"android": "https://dc.lft.to/lastmile_qr_scan", "ios": "https://dc.lft.to/lastmile_qr_scan"}, "type": "electric_scooter", "lat": 38.9110125, "is_reserved": 0, "fusion_lat": 0.0}, {"bike_id": "e3ec6bc7501f92cabcbfb458a6fc4d6c", "fusion_lon": 0.0, "lon": -76.938623, "name": "e3ec6bc7501f92cabcbfb458a6fc4d6c", "is_disabled": 0, "rental_uris": {"android": "https://dc.lft.to/lastmile_qr_scan", "ios": "https://dc.lft.to/lastmile_qr_scan"}, "type": "electric_scooter", "lat": 38.899011, "is_reserved": 0, "fusion_lat": 0.0}, {"bike_id": "62863aaa0d2376ed90b9cfa9616e8638", "fusion_lon": 0.0, "lon": -77.07851166666667, "name": "62863aaa0d2376ed90b9cfa9616e8638", "is_disabled": 0, "rental_uris": {"android": "https://dc.lft.to/lastmile_qr_scan", "ios": "https://dc.lft.to/lastmile_qr_scan"}, "type": "electric_bike", "lat": 38.93135933333333, "is_reserved": 0, "fusion_lat": 0.0}, {"bike_id": "16854a4ac4d9c14cbdab96357703eb48", "fusion_lon": 0.0, "lon": -76.99862833333333, "name": "16854a4ac4d9c14cbdab96357703eb48", "is_disabled": 0, "rental_uris": {"android": "https://dc.lft.to/lastmile_qr_scan", "ios": "https://dc.lft.to/lastmile_qr_scan"}, "type": "electric_scooter", "lat": 38.90365333333333, "is_reserved": 0, "fusion_lat": 0.0}, {"bike_id": "c78c4bb398f21bd6d60460e549dbc0a4", "fusion_lon": 0.0, "lon": -77.02694716666667, "name": "c78c4bb398f21bd6d60460e549dbc0a4", "is_disabled": 0, "rental_uris": {"android": "https://dc.lft.to/lastmile_qr_scan", "ios": "https://dc.lft.to/lastmile_qr_scan"}, "type": "electric_scooter", "lat": 38.917982, "is_reserved": 0, "fusion_lat": 0.0}, {"bike_id": "56b7acb316889bc262d02efe0c09bc56", "fusion_lon": 0.0, "lon": -77.05313783333334, "name": "56b7acb316889bc262d02efe0c09bc56", "is_disabled": 0, "rental_uris": {"android": "https://dc.lft.to/lastmile_qr_scan", "ios": "https://dc.lft.to/lastmile_qr_scan"}, "type": "electric_scooter", "lat": 38.90263366666667, "is_reserved": 0, "fusion_lat": 0.0}, {"bike_id": "239ee25e56d3b1af740a0188b383b96d", "fusion_lon": 0.0, "lon": -77.01358033333334, "name": "239ee25e56d3b1af740a0188b383b96d", "is_disabled": 0, "rental_uris": {"android": "https://dc.lft.to/lastmile_qr_scan", "ios": "https://dc.lft.to/lastmile_qr_scan"}, "type": "electric_scooter", "lat": 38.893301666666666, "is_reserved": 0, "fusion_lat": 0.0}, {"bike_id": "1550b88dbb57f76ad7d525422b2216ea", "fusion_lon": 0.0, "lon": -77.037622, "name": "1550b88dbb57f76ad7d525422b2216ea", "is_disabled": 0, "rental_uris": {"android": "https://dc.lft.to/lastmile_qr_scan", "ios": "https://dc.lft.to/lastmile_qr_scan"}, "type": "electric_scooter", "lat": 38.91256533333333, "is_reserved": 0, "fusion_lat": 0.0}, {"bike_id": "2249a8a5a63ad684d71804e5ee7087af", "fusion_lon": 0.0, "lon": -77.03824, "name": "2249a8a5a63ad684d71804e5ee7087af", "is_disabled": 0, "rental_uris": {"android": "https://dc.lft.to/lastmile_qr_scan", "ios": "https://dc.lft.to/lastmile_qr_scan"}, "type": "electric_scooter", "lat": 38.910096333333335, "is_reserved": 0, "fusion_lat": 0.0}, {"bike_id": "dd44997baf7c1bfd9e902eeaefe07bfb", "fusion_lon": 0.0, "lon": -77.01405766666667, "name": "dd44997baf7c1bfd9e902eeaefe07bfb", "is_disabled": 0, "rental_uris": {"android": "https://dc.lft.to/lastmile_qr_scan", "ios": "https://dc.lft.to/lastmile_qr_scan"}, "type": "electric_scooter", "lat": 38.918146, "is_reserved": 0, "fusion_lat": 0.0}, {"bike_id": "0190e41b1f9639074d9eb6f6860c6067", "fusion_lon": 0.0, "lon": -77.035071, "name": "0190e41b1f9639074d9eb6f6860c6067", "is_disabled": 0, "rental_uris": {"android": "https://dc.lft.to/lastmile_qr_scan", "ios": "https://dc.lft.to/lastmile_qr_scan"}, "type": "electric_scooter", "lat": 38.92148316666667, "is_reserved": 0, "fusion_lat": 0.0}, {"bike_id": "377ceac2bd4c943699964d3426190eb8", "fusion_lon": 0.0, "lon": -77.053194, "name": "377ceac2bd4c943699964d3426190eb8", "is_disabled": 0, "rental_uris": {"android": "https://dc.lft.to/lastmile_qr_scan", "ios": "https://dc.lft.to/lastmile_qr_scan"}, "type": "electric_scooter", "lat": 38.904111666666665, "is_reserved": 0, "fusion_lat": 0.0}, {"bike_id": "6261d72cf558668932c45288c9522539", "fusion_lon": 0.0, "lon": -77.05266466666667, "name": "6261d72cf558668932c45288c9522539", "is_disabled": 0, "rental_uris": {"android": "https://dc.lft.to/lastmile_qr_scan", "ios": "https://dc.lft.to/lastmile_qr_scan"}, "type": "electric_scooter", "lat": 38.89966066666667, "is_reserved": 0, "fusion_lat": 0.0}, {"bike_id": "9b47aa3cf5f912d844a5ef0b874d8b07", "fusion_lon": 0.0, "lon": -77.00981216666666, "name": "9b47aa3cf5f912d844a5ef0b874d8b07", "is_disabled": 0, "rental_uris": {"android": "https://dc.lft.to/lastmile_qr_scan", "ios": "https://dc.lft.to/lastmile_qr_scan"}, "type": "electric_scooter", "lat": 38.91565816666667, "is_reserved": 0, "fusion_lat": 0.0}, {"bike_id": "381bd3a6b4e569538bdf591f68cb53b8", "fusion_lon": 0.0, "lon": -77.038416, "name": "381bd3a6b4e569538bdf591f68cb53b8", "is_disabled": 0, "rental_uris": {"android": "https://dc.lft.to/lastmile_qr_scan", "ios": "https://dc.lft.to/lastmile_qr_scan"}, "type": "electric_scooter", "lat": 38.90959, "is_reserved": 0, "fusion_lat": 0.0}, {"bike_id": "5ec9f889d10281b2d63797256d3c7a2a", "fusion_lon": 0.0, "lon": -77.03484333333333, "name": "5ec9f889d10281b2d63797256d3c7a2a", "is_disabled": 0, "rental_uris": {"android": "https://dc.lft.to/lastmile_qr_scan", "ios": "https://dc.lft.to/lastmile_qr_scan"}, "type": "electric_scooter", "lat": 38.9327135, "is_reserved": 0, "fusion_lat": 0.0}, {"bike_id": "08a1034b151ab9826c083b62348b7e68", "fusion_lon": 0.0, "lon": -77.03658716666666, "name": "08a1034b151ab9826c083b62348b7e68", "is_disabled": 0, "rental_uris": {"android": "https://dc.lft.to/lastmile_qr_scan", "ios": "https://dc.lft.to/lastmile_qr_scan"}, "type": "electric_scooter", "lat": 38.9209465, "is_reserved": 0, "fusion_lat": 0.0}, {"bike_id": "7514f4b6359af33a2a83c0acab61b40d", "fusion_lon": 0.0, "lon": -77.0326665, "name": "7514f4b6359af33a2a83c0acab61b40d", "is_disabled": 0, "rental_uris": {"android": "https://dc.lft.to/lastmile_qr_scan", "ios": "https://dc.lft.to/lastmile_qr_scan"}, "type": "electric_scooter", "lat": 38.933058333333335, "is_reserved": 0, "fusion_lat": 0.0}, {"bike_id": "575e21e554caaea675229cb31dca72a1", "fusion_lon": 0.0, "lon": -77.0529485, "name": "575e21e554caaea675229cb31dca72a1", "is_disabled": 0, "rental_uris": {"android": "https://dc.lft.to/lastmile_qr_scan", "ios": "https://dc.lft.to/lastmile_qr_scan"}, "type": "electric_scooter", "lat": 38.927098666666666, "is_reserved": 0, "fusion_lat": 0.0}, {"bike_id": "4ad4d050deee822d8797e0dc0da75fe6", "fusion_lon": 0.0, "lon": -77.00280483333333, "name": "4ad4d050deee822d8797e0dc0da75fe6", "is_disabled": 0, "rental_uris": {"android": "https://dc.lft.to/lastmile_qr_scan", "ios": "https://dc.lft.to/lastmile_qr_scan"}, "type": "electric_scooter", "lat": 38.90879183333333, "is_reserved": 0, "fusion_lat": 0.0}, {"bike_id": "63d5eb9fe871867c55de1a92de0fa6a4", "fusion_lon": 0.0, "lon": -77.00588616666667, "name": "63d5eb9fe871867c55de1a92de0fa6a4", "is_disabled": 0, "rental_uris": {"android": "https://dc.lft.to/lastmile_qr_scan", "ios": "https://dc.lft.to/lastmile_qr_scan"}, "type": "electric_scooter", "lat": 38.90558566666667, "is_reserved": 0, "fusion_lat": 0.0}, {"bike_id": "5f18ad6c1377fe3e338b87727779dfba", "fusion_lon": 0.0, "lon": -77.02290233333333, "name": "5f18ad6c1377fe3e338b87727779dfba", "is_disabled": 0, "rental_uris": {"android": "https://dc.lft.to/lastmile_qr_scan", "ios": "https://dc.lft.to/lastmile_qr_scan"}, "type": "electric_scooter", "lat": 38.915675666666665, "is_reserved": 0, "fusion_lat": 0.0}, {"bike_id": "27cf297d859300646b6442a9a187a45d", "fusion_lon": 0.0, "lon": -77.05428083333334, "name": "27cf297d859300646b6442a9a187a45d", "is_disabled": 0, "rental_uris": {"android": "https://dc.lft.to/lastmile_qr_scan", "ios": "https://dc.lft.to/lastmile_qr_scan"}, "type": "electric_scooter", "lat": 38.923568333333336, "is_reserved": 0, "fusion_lat": 0.0}, {"bike_id": "168c753124cb412803645d48485a72f0", "fusion_lon": 0.0, "lon": -77.03805716666666, "name": "168c753124cb412803645d48485a72f0", "is_disabled": 0, "rental_uris": {"android": "https://dc.lft.to/lastmile_qr_scan", "ios": "https://dc.lft.to/lastmile_qr_scan"}, "type": "electric_scooter", "lat": 38.921911, "is_reserved": 0, "fusion_lat": 0.0}, {"bike_id": "8bf83161256265463932802894790268", "fusion_lon": 0.0, "lon": -77.04141666666666, "name": "8bf83161256265463932802894790268", "is_disabled": 0, "rental_uris": {"android": "https://dc.lft.to/lastmile_qr_scan", "ios": "https://dc.lft.to/lastmile_qr_scan"}, "type": "electric_scooter", "lat": 38.903322, "is_reserved": 0, "fusion_lat": 0.0}, {"bike_id": "56bef6eeb2194a3ab6bb5e8eafa7eb87", "fusion_lon": 0.0, "lon": -77.04463283333334, "name": "56bef6eeb2194a3ab6bb5e8eafa7eb87", "is_disabled": 0, "rental_uris": {"android": "https://dc.lft.to/lastmile_qr_scan", "ios": "https://dc.lft.to/lastmile_qr_scan"}, "type": "electric_scooter", "lat": 38.91852516666667, "is_reserved": 0, "fusion_lat": 0.0}, {"bike_id": "d0644fbfd0fbadf9c8d3638582044ee4", "fusion_lon": 0.0, "lon": -77.03935683333333, "name": "d0644fbfd0fbadf9c8d3638582044ee4", "is_disabled": 0, "rental_uris": {"android": "https://dc.lft.to/lastmile_qr_scan", "ios": "https://dc.lft.to/lastmile_qr_scan"}, "type": "electric_scooter", "lat": 38.924911333333334, "is_reserved": 0, "fusion_lat": 0.0}, {"bike_id": "aa0815be09ccaa079ff1ed7f784e0c9f", "fusion_lon": 0.0, "lon": -77.03295883333334, "name": "aa0815be09ccaa079ff1ed7f784e0c9f", "is_disabled": 0, "rental_uris": {"android": "https://dc.lft.to/lastmile_qr_scan", "ios": "https://dc.lft.to/lastmile_qr_scan"}, "type": "electric_scooter", "lat": 38.92051033333333, "is_reserved": 0, "fusion_lat": 0.0}, {"bike_id": "9ba78de446f0d5a4c296d2381d364ca0", "fusion_lon": 0.0, "lon": -77.0379045, "name": "9ba78de446f0d5a4c296d2381d364ca0", "is_disabled": 0, "rental_uris": {"android": "https://dc.lft.to/lastmile_qr_scan", "ios": "https://dc.lft.to/lastmile_qr_scan"}, "type": "electric_scooter", "lat": 38.92554633333334, "is_reserved": 0, "fusion_lat": 0.0}, {"bike_id": "9b4c0f7b87a874a0c2706905fe160a55", "fusion_lon": 0.0, "lon": -77.07015316666667, "name": "9b4c0f7b87a874a0c2706905fe160a55", "is_disabled": 0, "rental_uris": {"android": "https://dc.lft.to/lastmile_qr_scan", "ios": "https://dc.lft.to/lastmile_qr_scan"}, "type": "electric_bike", "lat": 38.927730833333335, "is_reserved": 0, "fusion_lat": 0.0}, {"bike_id": "aec3221dda5c705f2cfedc63ccf95bf7", "fusion_lon": 0.0, "lon": -77.00204466666666, "name": "aec3221dda5c705f2cfedc63ccf95bf7", "is_disabled": 0, "rental_uris": {"android": "https://dc.lft.to/lastmile_qr_scan", "ios": "https://dc.lft.to/lastmile_qr_scan"}, "type": "electric_scooter", "lat": 38.902446, "is_reserved": 0, "fusion_lat": 0.0}, {"bike_id": "e5dad0804ffe65fd4306900375540df1", "fusion_lon": 0.0, "lon": -76.983565, "name": "e5dad0804ffe65fd4306900375540df1", "is_disabled": 0, "rental_uris": {"android": "https://dc.lft.to/lastmile_qr_scan", "ios": "https://dc.lft.to/lastmile_qr_scan"}, "type": "electric_scooter", "lat": 38.88591233333333, "is_reserved": 0, "fusion_lat": 0.0}, {"bike_id": "0374973d0acd67aaadb8221214531eb9", "fusion_lon": 0.0, "lon": -77.03161983333334, "name": "0374973d0acd67aaadb8221214531eb9", "is_disabled": 0, "rental_uris": {"android": "https://dc.lft.to/lastmile_qr_scan", "ios": "https://dc.lft.to/lastmile_qr_scan"}, "type": "electric_bike", "lat": 38.999516666666665, "is_reserved": 0, "fusion_lat": 0.0}, {"bike_id": "a2bb13bc4b5875238ab1a5313792e578", "fusion_lon": 0.0, "lon": -77.03550833333334, "name": "a2bb13bc4b5875238ab1a5313792e578", "is_disabled": 0, "rental_uris": {"android": "https://dc.lft.to/lastmile_qr_scan", "ios": "https://dc.lft.to/lastmile_qr_scan"}, "type": "electric_scooter", "lat": 38.9286795, "is_reserved": 0, "fusion_lat": 0.0}, {"bike_id": "5529cb0f0ac6932a0c19a957c7fcf220", "fusion_lon": 0.0, "lon": -77.04700633333333, "name": "5529cb0f0ac6932a0c19a957c7fcf220", "is_disabled": 0, "rental_uris": {"android": "https://dc.lft.to/lastmile_qr_scan", "ios": "https://dc.lft.to/lastmile_qr_scan"}, "type": "electric_scooter", "lat": 38.909729, "is_reserved": 0, "fusion_lat": 0.0}, {"bike_id": "8fd37b8ef96d25e25c343e0dfa22661f", "fusion_lon": 0.0, "lon": -77.04154083333333, "name": "8fd37b8ef96d25e25c343e0dfa22661f", "is_disabled": 0, "rental_uris": {"android": "https://dc.lft.to/lastmile_qr_scan", "ios": "https://dc.lft.to/lastmile_qr_scan"}, "type": "electric_scooter", "lat": 38.90338116666667, "is_reserved": 0, "fusion_lat": 0.0}, {"bike_id": "137636027125046d9025a92e4a781609", "fusion_lon": 0.0, "lon": -77.01879833333334, "name": "137636027125046d9025a92e4a781609", "is_disabled": 0, "rental_uris": {"android": "https://dc.lft.to/lastmile_qr_scan", "ios": "https://dc.lft.to/lastmile_qr_scan"}, "type": "electric_scooter", "lat": 38.904328, "is_reserved": 0, "fusion_lat": 0.0}, {"bike_id": "a26dc18589a623cb348b94f201eefadc", "fusion_lon": 0.0, "lon": -76.9717055, "name": "a26dc18589a623cb348b94f201eefadc", "is_disabled": 0, "rental_uris": {"android": "https://dc.lft.to/lastmile_qr_scan", "ios": "https://dc.lft.to/lastmile_qr_scan"}, "type": "electric_bike", "lat": 38.9164925, "is_reserved": 0, "fusion_lat": 0.0}, {"bike_id": "fa956baa4acd03108d1420ce50d315c7", "fusion_lon": 0.0, "lon": -77.0268655, "name": "fa956baa4acd03108d1420ce50d315c7", "is_disabled": 0, "rental_uris": {"android": "https://dc.lft.to/lastmile_qr_scan", "ios": "https://dc.lft.to/lastmile_qr_scan"}, "type": "electric_scooter", "lat": 38.912669, "is_reserved": 0, "fusion_lat": 0.0}, {"bike_id": "22fc937eae9923fe77d8be3ee0e8057c", "fusion_lon": 0.0, "lon": -77.03229333333333, "name": "22fc937eae9923fe77d8be3ee0e8057c", "is_disabled": 0, "rental_uris": {"android": "https://dc.lft.to/lastmile_qr_scan", "ios": "https://dc.lft.to/lastmile_qr_scan"}, "type": "electric_scooter", "lat": 38.96166916666667, "is_reserved": 0, "fusion_lat": 0.0}, {"bike_id": "2360d48fc7e678b513920f2c5e304044", "fusion_lon": 0.0, "lon": -77.2331945, "name": "2360d48fc7e678b513920f2c5e304044", "is_disabled": 0, "rental_uris": {"android": "https://dc.lft.to/lastmile_qr_scan", "ios": "https://dc.lft.to/lastmile_qr_scan"}, "type": "electric_bike", "lat": 38.872857, "is_reserved": 0, "fusion_lat": 0.0}, {"bike_id": "15e81f6d4c33deaa508a4555f060225a", "fusion_lon": 0.0, "lon": -77.0296325, "name": "15e81f6d4c33deaa508a4555f060225a", "is_disabled": 0, "rental_uris": {"android": "https://dc.lft.to/lastmile_qr_scan", "ios": "https://dc.lft.to/lastmile_qr_scan"}, "type": "electric_scooter", "lat": 38.907268, "is_reserved": 0, "fusion_lat": 0.0}, {"bike_id": "63a8d1ab7b01a77d4da4c011b9178a41", "fusion_lon": 0.0, "lon": -77.02724, "name": "63a8d1ab7b01a77d4da4c011b9178a41", "is_disabled": 0, "rental_uris": {"android": "https://dc.lft.to/lastmile_qr_scan", "ios": "https://dc.lft.to/lastmile_qr_scan"}, "type": "electric_scooter", "lat": 38.924845166666664, "is_reserved": 0, "fusion_lat": 0.0}, {"bike_id": "5c85ecbd04c5448032db25e1aff9e560", "fusion_lon": 0.0, "lon": -77.07592383333333, "name": "5c85ecbd04c5448032db25e1aff9e560", "is_disabled": 0, "rental_uris": {"android": "https://dc.lft.to/lastmile_qr_scan", "ios": "https://dc.lft.to/lastmile_qr_scan"}, "type": "electric_scooter", "lat": 38.91217733333333, "is_reserved": 0, "fusion_lat": 0.0}, {"bike_id": "cbe49e7b239124637c4fe9caccf583a5", "fusion_lon": 0.0, "lon": -77.00354933333334, "name": "cbe49e7b239124637c4fe9caccf583a5", "is_disabled": 0, "rental_uris": {"android": "https://dc.lft.to/lastmile_qr_scan", "ios": "https://dc.lft.to/lastmile_qr_scan"}, "type": "electric_scooter", "lat": 38.901446166666666, "is_reserved": 0, "fusion_lat": 0.0}, {"bike_id": "1ce57247157cdc992783196ce33c5948", "fusion_lon": 0.0, "lon": -77.017646, "name": "1ce57247157cdc992783196ce33c5948", "is_disabled": 0, "rental_uris": {"android": "https://dc.lft.to/lastmile_qr_scan", "ios": "https://dc.lft.to/lastmile_qr_scan"}, "type": "electric_bike", "lat": 38.878801, "is_reserved": 0, "fusion_lat": 0.0}, {"bike_id": "4d154285f49d947839337efe23b91097", "fusion_lon": 0.0, "lon": -76.93751, "name": "4d154285f49d947839337efe23b91097", "is_disabled": 0, "rental_uris": {"android": "https://dc.lft.to/lastmile_qr_scan", "ios": "https://dc.lft.to/lastmile_qr_scan"}, "type": "electric_scooter", "lat": 38.89050683333333, "is_reserved": 0, "fusion_lat": 0.0}, {"bike_id": "168a5847243efa56a1e55e0e2658f6ae", "fusion_lon": 0.0, "lon": -77.02167216666666, "name": "168a5847243efa56a1e55e0e2658f6ae", "is_disabled": 0, "rental_uris": {"android": "https://dc.lft.to/lastmile_qr_scan", "ios": "https://dc.lft.to/lastmile_qr_scan"}, "type": "electric_scooter", "lat": 38.88326583333333, "is_reserved": 0, "fusion_lat": 0.0}, {"bike_id": "da315f8691998a0e93e310323b7aa0c1", "fusion_lon": 0.0, "lon": -77.043277, "name": "da315f8691998a0e93e310323b7aa0c1", "is_disabled": 0, "rental_uris": {"android": "https://dc.lft.to/lastmile_qr_scan", "ios": "https://dc.lft.to/lastmile_qr_scan"}, "type": "electric_scooter", "lat": 38.892262833333334, "is_reserved": 0, "fusion_lat": 0.0}, {"bike_id": "f6d845dfeffec003dadd653bda72ab99", "fusion_lon": 0.0, "lon": -77.24444083333333, "name": "f6d845dfeffec003dadd653bda72ab99", "is_disabled": 0, "rental_uris": {"android": "https://dc.lft.to/lastmile_qr_scan", "ios": "https://dc.lft.to/lastmile_qr_scan"}, "type": "electric_bike", "lat": 38.881924, "is_reserved": 0, "fusion_lat": 0.0}, {"bike_id": "540b4d8039ea782ee477b76d66049bc6", "fusion_lon": 0.0, "lon": -77.043277, "name": "540b4d8039ea782ee477b76d66049bc6", "is_disabled": 0, "rental_uris": {"android": "https://dc.lft.to/lastmile_qr_scan", "ios": "https://dc.lft.to/lastmile_qr_scan"}, "type": "electric_scooter", "lat": 38.892234, "is_reserved": 0, "fusion_lat": 0.0}, {"bike_id": "dc09d3593e5df9a3db8a0f6f65a98e78", "fusion_lon": 0.0, "lon": -77.1310615, "name": "dc09d3593e5df9a3db8a0f6f65a98e78", "is_disabled": 0, "rental_uris": {"android": "https://dc.lft.to/lastmile_qr_scan", "ios": "https://dc.lft.to/lastmile_qr_scan"}, "type": "electric_bike", "lat": 39.024320333333335, "is_reserved": 0, "fusion_lat": 0.0}, {"bike_id": "70a1e674c2c8568e162b626c28819260", "fusion_lon": 0.0, "lon": -76.94747283333334, "name": "70a1e674c2c8568e162b626c28819260", "is_disabled": 0, "rental_uris": {"android": "https://dc.lft.to/lastmile_qr_scan", "ios": "https://dc.lft.to/lastmile_qr_scan"}, "type": "electric_scooter", "lat": 38.896537333333335, "is_reserved": 0, "fusion_lat": 0.0}, {"bike_id": "c818298ce85e7dcd5a98528ad4ef7a7f", "fusion_lon": 0.0, "lon": -77.06076416666667, "name": "c818298ce85e7dcd5a98528ad4ef7a7f", "is_disabled": 0, "rental_uris": {"android": "https://dc.lft.to/lastmile_qr_scan", "ios": "https://dc.lft.to/lastmile_qr_scan"}, "type": "electric_bike", "lat": 38.885815, "is_reserved": 0, "fusion_lat": 0.0}, {"bike_id": "6a59dbe72802f3a4dc96fe006ce266b4", "fusion_lon": 0.0, "lon": -77.09482483333333, "name": "6a59dbe72802f3a4dc96fe006ce266b4", "is_disabled": 0, "rental_uris": {"android": "https://dc.lft.to/lastmile_qr_scan", "ios": "https://dc.lft.to/lastmile_qr_scan"}, "type": "electric_bike", "lat": 39.03045183333333, "is_reserved": 0, "fusion_lat": 0.0}, {"bike_id": "84365646a14108b54f3b34c4031b01a9", "fusion_lon": 0.0, "lon": -77.03198816666666, "name": "84365646a14108b54f3b34c4031b01a9", "is_disabled": 0, "rental_uris": {"android": "https://dc.lft.to/lastmile_qr_scan", "ios": "https://dc.lft.to/lastmile_qr_scan"}, "type": "electric_scooter", "lat": 38.915720666666665, "is_reserved": 0, "fusion_lat": 0.0}, {"bike_id": "a522db7ce29f99a2d020bd4cfcc8cfea", "fusion_lon": 0.0, "lon": -77.02092733333333, "name": "a522db7ce29f99a2d020bd4cfcc8cfea", "is_disabled": 0, "rental_uris": {"android": "https://dc.lft.to/lastmile_qr_scan", "ios": "https://dc.lft.to/lastmile_qr_scan"}, "type": "electric_bike", "lat": 38.9410695, "is_reserved": 0, "fusion_lat": 0.0}, {"bike_id": "3fc3d37486fd1e0575e86c40164d7bdb", "fusion_lon": 0.0, "lon": -77.04344266666666, "name": "3fc3d37486fd1e0575e86c40164d7bdb", "is_disabled": 0, "rental_uris": {"android": "https://dc.lft.to/lastmile_qr_scan", "ios": "https://dc.lft.to/lastmile_qr_scan"}, "type": "electric_scooter", "lat": 38.90728633333333, "is_reserved": 0, "fusion_lat": 0.0}, {"bike_id": "cc0fbfbb2a74bb628fd2e59979d0e6ca", "fusion_lon": 0.0, "lon": -77.03373483333333, "name": "cc0fbfbb2a74bb628fd2e59979d0e6ca", "is_disabled": 0, "rental_uris": {"android": "https://dc.lft.to/lastmile_qr_scan", "ios": "https://dc.lft.to/lastmile_qr_scan"}, "type": "electric_scooter", "lat": 38.932236, "is_reserved": 0, "fusion_lat": 0.0}, {"bike_id": "13298acc23468b1b9df9a19ce4df0d1a", "fusion_lon": 0.0, "lon": -77.0278795, "name": "13298acc23468b1b9df9a19ce4df0d1a", "is_disabled": 0, "rental_uris": {"android": "https://dc.lft.to/lastmile_qr_scan", "ios": "https://dc.lft.to/lastmile_qr_scan"}, "type": "electric_scooter", "lat": 38.930612833333335, "is_reserved": 0, "fusion_lat": 0.0}, {"bike_id": "b97d009b3726b7d50d583bff2fae5b10", "fusion_lon": 0.0, "lon": -77.02391816666666, "name": "b97d009b3726b7d50d583bff2fae5b10", "is_disabled": 0, "rental_uris": {"android": "https://dc.lft.to/lastmile_qr_scan", "ios": "https://dc.lft.to/lastmile_qr_scan"}, "type": "electric_scooter", "lat": 38.919631, "is_reserved": 0, "fusion_lat": 0.0}, {"bike_id": "f595a8ff558d5e63304556344b620d96", "fusion_lon": 0.0, "lon": -77.032058, "name": "f595a8ff558d5e63304556344b620d96", "is_disabled": 0, "rental_uris": {"android": "https://dc.lft.to/lastmile_qr_scan", "ios": "https://dc.lft.to/lastmile_qr_scan"}, "type": "electric_scooter", "lat": 38.914699166666665, "is_reserved": 0, "fusion_lat": 0.0}, {"bike_id": "0243bfeea1307a496acd9bcbafd836eb", "fusion_lon": 0.0, "lon": -77.0511725, "name": "0243bfeea1307a496acd9bcbafd836eb", "is_disabled": 0, "rental_uris": {"android": "https://dc.lft.to/lastmile_qr_scan", "ios": "https://dc.lft.to/lastmile_qr_scan"}, "type": "electric_scooter", "lat": 38.9053345, "is_reserved": 0, "fusion_lat": 0.0}, {"bike_id": "13fc500f382e0f15f64a20c2ae40d19d", "fusion_lon": 0.0, "lon": -77.014827, "name": "13fc500f382e0f15f64a20c2ae40d19d", "is_disabled": 0, "rental_uris": {"android": "https://dc.lft.to/lastmile_qr_scan", "ios": "https://dc.lft.to/lastmile_qr_scan"}, "type": "electric_scooter", "lat": 38.876566, "is_reserved": 0, "fusion_lat": 0.0}, {"bike_id": "387e0d52b904a591e1304011da198e0b", "fusion_lon": 0.0, "lon": -77.027203, "name": "387e0d52b904a591e1304011da198e0b", "is_disabled": 0, "rental_uris": {"android": "https://dc.lft.to/lastmile_qr_scan", "ios": "https://dc.lft.to/lastmile_qr_scan"}, "type": "electric_scooter", "lat": 38.906719333333335, "is_reserved": 0, "fusion_lat": 0.0}, {"bike_id": "8a3baef8e7b2703618944c2b1c9b6a47", "fusion_lon": 0.0, "lon": -76.98999316666666, "name": "8a3baef8e7b2703618944c2b1c9b6a47", "is_disabled": 0, "rental_uris": {"android": "https://dc.lft.to/lastmile_qr_scan", "ios": "https://dc.lft.to/lastmile_qr_scan"}, "type": "electric_scooter", "lat": 38.924501, "is_reserved": 0, "fusion_lat": 0.0}, {"bike_id": "92ef1ae1c21bd81c1ef95cd797ba268e", "fusion_lon": 0.0, "lon": -77.02751366666666, "name": "92ef1ae1c21bd81c1ef95cd797ba268e", "is_disabled": 0, "rental_uris": {"android": "https://dc.lft.to/lastmile_qr_scan", "ios": "https://dc.lft.to/lastmile_qr_scan"}, "type": "electric_scooter", "lat": 38.95167283333333, "is_reserved": 0, "fusion_lat": 0.0}, {"bike_id": "00a391839f28fe8a6830b695be0023c5", "fusion_lon": 0.0, "lon": -77.06215666666667, "name": "00a391839f28fe8a6830b695be0023c5", "is_disabled": 0, "rental_uris": {"android": "https://dc.lft.to/lastmile_qr_scan", "ios": "https://dc.lft.to/lastmile_qr_scan"}, "type": "electric_bike", "lat": 38.92035466666667, "is_reserved": 0, "fusion_lat": 0.0}, {"bike_id": "4d5034308634bc5df9ff003f1c7981f0", "fusion_lon": 0.0, "lon": -77.0176675, "name": "4d5034308634bc5df9ff003f1c7981f0", "is_disabled": 0, "rental_uris": {"android": "https://dc.lft.to/lastmile_qr_scan", "ios": "https://dc.lft.to/lastmile_qr_scan"}, "type": "electric_scooter", "lat": 38.917453333333334, "is_reserved": 0, "fusion_lat": 0.0}, {"bike_id": "6d56d2c3e126cc33b62bad858c9a48a6", "fusion_lon": 0.0, "lon": -77.02977816666667, "name": "6d56d2c3e126cc33b62bad858c9a48a6", "is_disabled": 0, "rental_uris": {"android": "https://dc.lft.to/lastmile_qr_scan", "ios": "https://dc.lft.to/lastmile_qr_scan"}, "type": "electric_scooter", "lat": 38.951950833333335, "is_reserved": 0, "fusion_lat": 0.0}, {"bike_id": "2e4e5ea15c11789dcc00dbab8e7cc909", "fusion_lon": 0.0, "lon": -76.965079, "name": "2e4e5ea15c11789dcc00dbab8e7cc909", "is_disabled": 0, "rental_uris": {"android": "https://dc.lft.to/lastmile_qr_scan", "ios": "https://dc.lft.to/lastmile_qr_scan"}, "type": "electric_bike", "lat": 38.87553466666667, "is_reserved": 0, "fusion_lat": 0.0}, {"bike_id": "c5396760e7d9cd29edf3313271f547a4", "fusion_lon": 0.0, "lon": -77.041811, "name": "c5396760e7d9cd29edf3313271f547a4", "is_disabled": 0, "rental_uris": {"android": "https://dc.lft.to/lastmile_qr_scan", "ios": "https://dc.lft.to/lastmile_qr_scan"}, "type": "electric_scooter", "lat": 38.9193855, "is_reserved": 0, "fusion_lat": 0.0}, {"bike_id": "7893a6568db4e24aa6053c115671e0c0", "fusion_lon": 0.0, "lon": -77.01757166666667, "name": "7893a6568db4e24aa6053c115671e0c0", "is_disabled": 0, "rental_uris": {"android": "https://dc.lft.to/lastmile_qr_scan", "ios": "https://dc.lft.to/lastmile_qr_scan"}, "type": "electric_scooter", "lat": 38.878544833333336, "is_reserved": 0, "fusion_lat": 0.0}, {"bike_id": "2e3d4360e7e438ce2d9e240897c26cf8", "fusion_lon": 0.0, "lon": -77.0218635, "name": "2e3d4360e7e438ce2d9e240897c26cf8", "is_disabled": 0, "rental_uris": {"android": "https://dc.lft.to/lastmile_qr_scan", "ios": "https://dc.lft.to/lastmile_qr_scan"}, "type": "electric_scooter", "lat": 38.8953745, "is_reserved": 0, "fusion_lat": 0.0}, {"bike_id": "9a98b7e6f446c2d206d4cc17ac9e1de8", "fusion_lon": 0.0, "lon": -77.03848983333333, "name": "9a98b7e6f446c2d206d4cc17ac9e1de8", "is_disabled": 0, "rental_uris": {"android": "https://dc.lft.to/lastmile_qr_scan", "ios": "https://dc.lft.to/lastmile_qr_scan"}, "type": "electric_scooter", "lat": 38.9078235, "is_reserved": 0, "fusion_lat": 0.0}, {"bike_id": "07be80bb3d476397f696b3ff9598fbcf", "fusion_lon": 0.0, "lon": -77.03574383333333, "name": "07be80bb3d476397f696b3ff9598fbcf", "is_disabled": 0, "rental_uris": {"android": "https://dc.lft.to/lastmile_qr_scan", "ios": "https://dc.lft.to/lastmile_qr_scan"}, "type": "electric_scooter", "lat": 38.9233055, "is_reserved": 0, "fusion_lat": 0.0}, {"bike_id": "38bd805f7dc21b2f0a5786bd600e67b2", "fusion_lon": 0.0, "lon": -77.02695066666666, "name": "38bd805f7dc21b2f0a5786bd600e67b2", "is_disabled": 0, "rental_uris": {"android": "https://dc.lft.to/lastmile_qr_scan", "ios": "https://dc.lft.to/lastmile_qr_scan"}, "type": "electric_scooter", "lat": 38.911373833333336, "is_reserved": 0, "fusion_lat": 0.0}, {"bike_id": "1df9560e9a54ce793ff3a46771db38c3", "fusion_lon": 0.0, "lon": -77.0505115, "name": "1df9560e9a54ce793ff3a46771db38c3", "is_disabled": 0, "rental_uris": {"android": "https://dc.lft.to/lastmile_qr_scan", "ios": "https://dc.lft.to/lastmile_qr_scan"}, "type": "electric_scooter", "lat": 38.9234315, "is_reserved": 0, "fusion_lat": 0.0}, {"bike_id": "003cd6c1cdd66ae12ae691c7b67d09d0", "fusion_lon": 0.0, "lon": -77.0271995, "name": "003cd6c1cdd66ae12ae691c7b67d09d0", "is_disabled": 0, "rental_uris": {"android": "https://dc.lft.to/lastmile_qr_scan", "ios": "https://dc.lft.to/lastmile_qr_scan"}, "type": "electric_scooter", "lat": 38.9095115, "is_reserved": 0, "fusion_lat": 0.0}, {"bike_id": "3ef32f39d42c89ebf2bcd95186f0a7ee", "fusion_lon": 0.0, "lon": -76.97740833333333, "name": "3ef32f39d42c89ebf2bcd95186f0a7ee", "is_disabled": 0, "rental_uris": {"android": "https://dc.lft.to/lastmile_qr_scan", "ios": "https://dc.lft.to/lastmile_qr_scan"}, "type": "electric_scooter", "lat": 38.868313666666666, "is_reserved": 0, "fusion_lat": 0.0}, {"bike_id": "17f1c989c36d4b3a2c3582b527dc0a9e", "fusion_lon": 0.0, "lon": -77.011894, "name": "17f1c989c36d4b3a2c3582b527dc0a9e", "is_disabled": 0, "rental_uris": {"android": "https://dc.lft.to/lastmile_qr_scan", "ios": "https://dc.lft.to/lastmile_qr_scan"}, "type": "electric_scooter", "lat": 38.91548733333333, "is_reserved": 0, "fusion_lat": 0.0}, {"bike_id": "fbbbe32cfeab1cde65f8f6931f911f09", "fusion_lon": 0.0, "lon": -77.03657866666667, "name": "fbbbe32cfeab1cde65f8f6931f911f09", "is_disabled": 0, "rental_uris": {"android": "https://dc.lft.to/lastmile_qr_scan", "ios": "https://dc.lft.to/lastmile_qr_scan"}, "type": "electric_scooter", "lat": 38.929795, "is_reserved": 0, "fusion_lat": 0.0}, {"bike_id": "8f85c7b6a24c04962322a0f6137787e4", "fusion_lon": 0.0, "lon": -77.006684, "name": "8f85c7b6a24c04962322a0f6137787e4", "is_disabled": 0, "rental_uris": {"android": "https://dc.lft.to/lastmile_qr_scan", "ios": "https://dc.lft.to/lastmile_qr_scan"}, "type": "electric_bike", "lat": 38.9451005, "is_reserved": 0, "fusion_lat": 0.0}, {"bike_id": "1892dd9fc11c04e73caf94a49d385d01", "fusion_lon": 0.0, "lon": -77.01944066666667, "name": "1892dd9fc11c04e73caf94a49d385d01", "is_disabled": 0, "rental_uris": {"android": "https://dc.lft.to/lastmile_qr_scan", "ios": "https://dc.lft.to/lastmile_qr_scan"}, "type": "electric_scooter", "lat": 38.92418083333333, "is_reserved": 0, "fusion_lat": 0.0}, {"bike_id": "04c7150951c0cea7b77b07aa06310375", "fusion_lon": 0.0, "lon": -76.9871255, "name": "04c7150951c0cea7b77b07aa06310375", "is_disabled": 0, "rental_uris": {"android": "https://dc.lft.to/lastmile_qr_scan", "ios": "https://dc.lft.to/lastmile_qr_scan"}, "type": "electric_scooter", "lat": 38.86700066666667, "is_reserved": 0, "fusion_lat": 0.0}, {"bike_id": "104afca7109abd984afe179e28de45e2", "fusion_lon": 0.0, "lon": -77.03702133333333, "name": "104afca7109abd984afe179e28de45e2", "is_disabled": 0, "rental_uris": {"android": "https://dc.lft.to/lastmile_qr_scan", "ios": "https://dc.lft.to/lastmile_qr_scan"}, "type": "electric_scooter", "lat": 38.926408333333335, "is_reserved": 0, "fusion_lat": 0.0}, {"bike_id": "7e445b911e437bda9dccf0346b2259a2", "fusion_lon": 0.0, "lon": -76.94948366666667, "name": "7e445b911e437bda9dccf0346b2259a2", "is_disabled": 0, "rental_uris": {"android": "https://dc.lft.to/lastmile_qr_scan", "ios": "https://dc.lft.to/lastmile_qr_scan"}, "type": "electric_scooter", "lat": 38.89354316666667, "is_reserved": 0, "fusion_lat": 0.0}, {"bike_id": "6cf567b8bb71cb299bc13af521b23f68", "fusion_lon": 0.0, "lon": -77.02517583333334, "name": "6cf567b8bb71cb299bc13af521b23f68", "is_disabled": 0, "rental_uris": {"android": "https://dc.lft.to/lastmile_qr_scan", "ios": "https://dc.lft.to/lastmile_qr_scan"}, "type": "electric_scooter", "lat": 38.946218333333334, "is_reserved": 0, "fusion_lat": 0.0}, {"bike_id": "20fdefc0d75fd685babfc9a2bfede06e", "fusion_lon": 0.0, "lon": -77.0539865, "name": "20fdefc0d75fd685babfc9a2bfede06e", "is_disabled": 0, "rental_uris": {"android": "https://dc.lft.to/lastmile_qr_scan", "ios": "https://dc.lft.to/lastmile_qr_scan"}, "type": "electric_scooter", "lat": 38.92811533333333, "is_reserved": 0, "fusion_lat": 0.0}, {"bike_id": "2401675eb06475ce144180a60bfbc74e", "fusion_lon": 0.0, "lon": -77.00586966666667, "name": "2401675eb06475ce144180a60bfbc74e", "is_disabled": 0, "rental_uris": {"android": "https://dc.lft.to/lastmile_qr_scan", "ios": "https://dc.lft.to/lastmile_qr_scan"}, "type": "electric_scooter", "lat": 38.90558566666667, "is_reserved": 0, "fusion_lat": 0.0}, {"bike_id": "3105f421cc021a8db33715a72a450384", "fusion_lon": 0.0, "lon": -77.03524216666666, "name": "3105f421cc021a8db33715a72a450384", "is_disabled": 0, "rental_uris": {"android": "https://dc.lft.to/lastmile_qr_scan", "ios": "https://dc.lft.to/lastmile_qr_scan"}, "type": "electric_scooter", "lat": 38.92305483333333, "is_reserved": 0, "fusion_lat": 0.0}, {"bike_id": "45033eb927ce60eeaaad10d3f6290352", "fusion_lon": 0.0, "lon": -77.02183316666667, "name": "45033eb927ce60eeaaad10d3f6290352", "is_disabled": 0, "rental_uris": {"android": "https://dc.lft.to/lastmile_qr_scan", "ios": "https://dc.lft.to/lastmile_qr_scan"}, "type": "electric_scooter", "lat": 38.91425683333333, "is_reserved": 0, "fusion_lat": 0.0}, {"bike_id": "6767bca578bc00d6010181bc16c0db88", "fusion_lon": 0.0, "lon": -76.99029783333333, "name": "6767bca578bc00d6010181bc16c0db88", "is_disabled": 0, "rental_uris": {"android": "https://dc.lft.to/lastmile_qr_scan", "ios": "https://dc.lft.to/lastmile_qr_scan"}, "type": "electric_scooter", "lat": 38.8652395, "is_reserved": 0, "fusion_lat": 0.0}, {"bike_id": "3c00024877f76e1855868b179f2f6912", "fusion_lon": 0.0, "lon": -77.02341416666667, "name": "3c00024877f76e1855868b179f2f6912", "is_disabled": 0, "rental_uris": {"android": "https://dc.lft.to/lastmile_qr_scan", "ios": "https://dc.lft.to/lastmile_qr_scan"}, "type": "electric_scooter", "lat": 38.907239833333335, "is_reserved": 0, "fusion_lat": 0.0}, {"bike_id": "f1a5e7c85219cc5991c9615a1c031175", "fusion_lon": 0.0, "lon": -77.12965816666667, "name": "f1a5e7c85219cc5991c9615a1c031175", "is_disabled": 0, "rental_uris": {"android": "https://dc.lft.to/lastmile_qr_scan", "ios": "https://dc.lft.to/lastmile_qr_scan"}, "type": "electric_bike", "lat": 38.85222133333333, "is_reserved": 0, "fusion_lat": 0.0}, {"bike_id": "eac476076b7a8981be01489a54e9caa7", "fusion_lon": 0.0, "lon": -77.055265, "name": "eac476076b7a8981be01489a54e9caa7", "is_disabled": 0, "rental_uris": {"android": "https://dc.lft.to/lastmile_qr_scan", "ios": "https://dc.lft.to/lastmile_qr_scan"}, "type": "electric_scooter", "lat": 38.8973095, "is_reserved": 0, "fusion_lat": 0.0}, {"bike_id": "e2bd19638463a55f8043f8fb79788740", "fusion_lon": 0.0, "lon": -77.01481766666667, "name": "e2bd19638463a55f8043f8fb79788740", "is_disabled": 0, "rental_uris": {"android": "https://dc.lft.to/lastmile_qr_scan", "ios": "https://dc.lft.to/lastmile_qr_scan"}, "type": "electric_scooter", "lat": 38.87633066666667, "is_reserved": 0, "fusion_lat": 0.0}, {"bike_id": "f3d328dbf45b33432ea438bf3f38f5d8", "fusion_lon": 0.0, "lon": -77.03107166666666, "name": "f3d328dbf45b33432ea438bf3f38f5d8", "is_disabled": 0, "rental_uris": {"android": "https://dc.lft.to/lastmile_qr_scan", "ios": "https://dc.lft.to/lastmile_qr_scan"}, "type": "electric_scooter", "lat": 38.91924133333333, "is_reserved": 0, "fusion_lat": 0.0}, {"bike_id": "c994bdcb5443d71882c1d2595a194ef1", "fusion_lon": 0.0, "lon": -77.03878016666667, "name": "c994bdcb5443d71882c1d2595a194ef1", "is_disabled": 0, "rental_uris": {"android": "https://dc.lft.to/lastmile_qr_scan", "ios": "https://dc.lft.to/lastmile_qr_scan"}, "type": "electric_scooter", "lat": 38.917084, "is_reserved": 0, "fusion_lat": 0.0}, {"bike_id": "3d8b3c283f91adc02727ae26839f35e3", "fusion_lon": 0.0, "lon": -76.9323085, "name": "3d8b3c283f91adc02727ae26839f35e3", "is_disabled": 0, "rental_uris": {"android": "https://dc.lft.to/lastmile_qr_scan", "ios": "https://dc.lft.to/lastmile_qr_scan"}, "type": "electric_bike", "lat": 38.865943333333334, "is_reserved": 0, "fusion_lat": 0.0}, {"bike_id": "270e653741b43974b862027ff8a7b55d", "fusion_lon": 0.0, "lon": -77.034016, "name": "270e653741b43974b862027ff8a7b55d", "is_disabled": 0, "rental_uris": {"android": "https://dc.lft.to/lastmile_qr_scan", "ios": "https://dc.lft.to/lastmile_qr_scan"}, "type": "electric_scooter", "lat": 38.91967533333333, "is_reserved": 0, "fusion_lat": 0.0}, {"bike_id": "9c7b4593197c0ffdd779559e473d6396", "fusion_lon": 0.0, "lon": -77.03675016666666, "name": "9c7b4593197c0ffdd779559e473d6396", "is_disabled": 0, "rental_uris": {"android": "https://dc.lft.to/lastmile_qr_scan", "ios": "https://dc.lft.to/lastmile_qr_scan"}, "type": "electric_scooter", "lat": 38.917080166666665, "is_reserved": 0, "fusion_lat": 0.0}, {"bike_id": "515394990f2036eec68d1278810fa8db", "fusion_lon": 0.0, "lon": -77.035002, "name": "515394990f2036eec68d1278810fa8db", "is_disabled": 0, "rental_uris": {"android": "https://dc.lft.to/lastmile_qr_scan", "ios": "https://dc.lft.to/lastmile_qr_scan"}, "type": "electric_bike", "lat": 38.93545066666667, "is_reserved": 0, "fusion_lat": 0.0}, {"bike_id": "677e652a58fb53f40f3f357a7dc6ffdb", "fusion_lon": 0.0, "lon": -77.01753833333333, "name": "677e652a58fb53f40f3f357a7dc6ffdb", "is_disabled": 0, "rental_uris": {"android": "https://dc.lft.to/lastmile_qr_scan", "ios": "https://dc.lft.to/lastmile_qr_scan"}, "type": "electric_scooter", "lat": 38.88322733333333, "is_reserved": 0, "fusion_lat": 0.0}, {"bike_id": "11b1987a85a0ebce6691163fcc7c950a", "fusion_lon": 0.0, "lon": -77.0290415, "name": "11b1987a85a0ebce6691163fcc7c950a", "is_disabled": 0, "rental_uris": {"android": "https://dc.lft.to/lastmile_qr_scan", "ios": "https://dc.lft.to/lastmile_qr_scan"}, "type": "electric_scooter", "lat": 38.904416166666664, "is_reserved": 0, "fusion_lat": 0.0}, {"bike_id": "c1cf313271301c608566fada24261614", "fusion_lon": 0.0, "lon": -77.03422916666666, "name": "c1cf313271301c608566fada24261614", "is_disabled": 0, "rental_uris": {"android": "https://dc.lft.to/lastmile_qr_scan", "ios": "https://dc.lft.to/lastmile_qr_scan"}, "type": "electric_scooter", "lat": 38.919205, "is_reserved": 0, "fusion_lat": 0.0}, {"bike_id": "e36d44608cde469766d402eaf14f270c", "fusion_lon": 0.0, "lon": -77.030067, "name": "e36d44608cde469766d402eaf14f270c", "is_disabled": 0, "rental_uris": {"android": "https://dc.lft.to/lastmile_qr_scan", "ios": "https://dc.lft.to/lastmile_qr_scan"}, "type": "electric_scooter", "lat": 38.91708883333333, "is_reserved": 0, "fusion_lat": 0.0}, {"bike_id": "9715a4717e4a51edeacaa973d0a04457", "fusion_lon": 0.0, "lon": -76.99137966666666, "name": "9715a4717e4a51edeacaa973d0a04457", "is_disabled": 0, "rental_uris": {"android": "https://dc.lft.to/lastmile_qr_scan", "ios": "https://dc.lft.to/lastmile_qr_scan"}, "type": "electric_scooter", "lat": 38.879082833333335, "is_reserved": 0, "fusion_lat": 0.0}, {"bike_id": "98142e411a389f70b14f6f4beb362fe5", "fusion_lon": 0.0, "lon": -77.00059083333333, "name": "98142e411a389f70b14f6f4beb362fe5", "is_disabled": 0, "rental_uris": {"android": "https://dc.lft.to/lastmile_qr_scan", "ios": "https://dc.lft.to/lastmile_qr_scan"}, "type": "electric_scooter", "lat": 38.900140666666665, "is_reserved": 0, "fusion_lat": 0.0}, {"bike_id": "aa0a1987ff6fa5bc022f9c4a084ce050", "fusion_lon": 0.0, "lon": -77.04682066666666, "name": "aa0a1987ff6fa5bc022f9c4a084ce050", "is_disabled": 0, "rental_uris": {"android": "https://dc.lft.to/lastmile_qr_scan", "ios": "https://dc.lft.to/lastmile_qr_scan"}, "type": "electric_scooter", "lat": 38.897282, "is_reserved": 0, "fusion_lat": 0.0}, {"bike_id": "7c44111040c51dedac9aa60e8690bbbe", "fusion_lon": 0.0, "lon": -77.0158965, "name": "7c44111040c51dedac9aa60e8690bbbe", "is_disabled": 0, "rental_uris": {"android": "https://dc.lft.to/lastmile_qr_scan", "ios": "https://dc.lft.to/lastmile_qr_scan"}, "type": "electric_scooter", "lat": 38.950139, "is_reserved": 0, "fusion_lat": 0.0}, {"bike_id": "587ee41593d0c961cb1313b54f9a48e5", "fusion_lon": 0.0, "lon": -77.02290033333334, "name": "587ee41593d0c961cb1313b54f9a48e5", "is_disabled": 0, "rental_uris": {"android": "https://dc.lft.to/lastmile_qr_scan", "ios": "https://dc.lft.to/lastmile_qr_scan"}, "type": "electric_scooter", "lat": 38.89059533333333, "is_reserved": 0, "fusion_lat": 0.0}, {"bike_id": "c9d7af5e1fac1ef5ed70842cf7f87fb1", "fusion_lon": 0.0, "lon": -77.0298025, "name": "c9d7af5e1fac1ef5ed70842cf7f87fb1", "is_disabled": 0, "rental_uris": {"android": "https://dc.lft.to/lastmile_qr_scan", "ios": "https://dc.lft.to/lastmile_qr_scan"}, "type": "electric_scooter", "lat": 38.9459575, "is_reserved": 0, "fusion_lat": 0.0}, {"bike_id": "3647e0591a336a0c8cda5b017cee9c96", "fusion_lon": 0.0, "lon": -77.02854333333333, "name": "3647e0591a336a0c8cda5b017cee9c96", "is_disabled": 0, "rental_uris": {"android": "https://dc.lft.to/lastmile_qr_scan", "ios": "https://dc.lft.to/lastmile_qr_scan"}, "type": "electric_scooter", "lat": 38.925718833333335, "is_reserved": 0, "fusion_lat": 0.0}, {"bike_id": "7231fd2a6ba0f808a4d746ab0bc05e3c", "fusion_lon": 0.0, "lon": -76.99758366666667, "name": "7231fd2a6ba0f808a4d746ab0bc05e3c", "is_disabled": 0, "rental_uris": {"android": "https://dc.lft.to/lastmile_qr_scan", "ios": "https://dc.lft.to/lastmile_qr_scan"}, "type": "electric_scooter", "lat": 38.887643, "is_reserved": 0, "fusion_lat": 0.0}, {"bike_id": "ba74fe91a85791a1c273a6e48f89dcce", "fusion_lon": 0.0, "lon": -77.0059245, "name": "ba74fe91a85791a1c273a6e48f89dcce", "is_disabled": 0, "rental_uris": {"android": "https://dc.lft.to/lastmile_qr_scan", "ios": "https://dc.lft.to/lastmile_qr_scan"}, "type": "electric_scooter", "lat": 38.905808666666665, "is_reserved": 0, "fusion_lat": 0.0}, {"bike_id": "f036d59bf75a803f295495fc3b500dfd", "fusion_lon": 0.0, "lon": -77.0372215, "name": "f036d59bf75a803f295495fc3b500dfd", "is_disabled": 0, "rental_uris": {"android": "https://dc.lft.to/lastmile_qr_scan", "ios": "https://dc.lft.to/lastmile_qr_scan"}, "type": "electric_scooter", "lat": 38.918076666666664, "is_reserved": 0, "fusion_lat": 0.0}, {"bike_id": "c5d63abeda74719243a042db4879a755", "fusion_lon": 0.0, "lon": -76.99872633333334, "name": "c5d63abeda74719243a042db4879a755", "is_disabled": 0, "rental_uris": {"android": "https://dc.lft.to/lastmile_qr_scan", "ios": "https://dc.lft.to/lastmile_qr_scan"}, "type": "electric_scooter", "lat": 38.90028916666667, "is_reserved": 0, "fusion_lat": 0.0}, {"bike_id": "2b2c113502743af03c7fa9b552d3b86d", "fusion_lon": 0.0, "lon": -77.02769866666667, "name": "2b2c113502743af03c7fa9b552d3b86d", "is_disabled": 0, "rental_uris": {"android": "https://dc.lft.to/lastmile_qr_scan", "ios": "https://dc.lft.to/lastmile_qr_scan"}, "type": "electric_scooter", "lat": 38.90728416666666, "is_reserved": 0, "fusion_lat": 0.0}, {"bike_id": "fd6c0f4aed2de5becd58567eb97b1b93", "fusion_lon": 0.0, "lon": -76.9871415, "name": "fd6c0f4aed2de5becd58567eb97b1b93", "is_disabled": 0, "rental_uris": {"android": "https://dc.lft.to/lastmile_qr_scan", "ios": "https://dc.lft.to/lastmile_qr_scan"}, "type": "electric_scooter", "lat": 38.8670075, "is_reserved": 0, "fusion_lat": 0.0}, {"bike_id": "5305287cf6035dbf40b0b75527458618", "fusion_lon": 0.0, "lon": -77.118487, "name": "5305287cf6035dbf40b0b75527458618", "is_disabled": 0, "rental_uris": {"android": "https://dc.lft.to/lastmile_qr_scan", "ios": "https://dc.lft.to/lastmile_qr_scan"}, "type": "electric_bike", "lat": 38.877300166666664, "is_reserved": 0, "fusion_lat": 0.0}, {"bike_id": "188f95af22ef6dea5a8f9541563b4c2f", "fusion_lon": 0.0, "lon": -77.027648, "name": "188f95af22ef6dea5a8f9541563b4c2f", "is_disabled": 0, "rental_uris": {"android": "https://dc.lft.to/lastmile_qr_scan", "ios": "https://dc.lft.to/lastmile_qr_scan"}, "type": "electric_scooter", "lat": 38.90730683333334, "is_reserved": 0, "fusion_lat": 0.0}, {"bike_id": "144fb847607f6039a5bd9ea161c51380", "fusion_lon": 0.0, "lon": -77.02206116666666, "name": "144fb847607f6039a5bd9ea161c51380", "is_disabled": 0, "rental_uris": {"android": "https://dc.lft.to/lastmile_qr_scan", "ios": "https://dc.lft.to/lastmile_qr_scan"}, "type": "electric_scooter", "lat": 38.87886366666667, "is_reserved": 0, "fusion_lat": 0.0}, {"bike_id": "3147687e3907c1c32e3fd747be1c1fca", "fusion_lon": 0.0, "lon": -76.93545416666667, "name": "3147687e3907c1c32e3fd747be1c1fca", "is_disabled": 0, "rental_uris": {"android": "https://dc.lft.to/lastmile_qr_scan", "ios": "https://dc.lft.to/lastmile_qr_scan"}, "type": "electric_bike", "lat": 38.95187816666667, "is_reserved": 0, "fusion_lat": 0.0}, {"bike_id": "84ffadeed5e1a732976e3a1c9dade0bb", "fusion_lon": 0.0, "lon": -77.03423266666667, "name": "84ffadeed5e1a732976e3a1c9dade0bb", "is_disabled": 0, "rental_uris": {"android": "https://dc.lft.to/lastmile_qr_scan", "ios": "https://dc.lft.to/lastmile_qr_scan"}, "type": "electric_scooter", "lat": 38.930699, "is_reserved": 0, "fusion_lat": 0.0}, {"bike_id": "add2edf94eefed92ea57b754d3093e15", "fusion_lon": 0.0, "lon": -77.0314005, "name": "add2edf94eefed92ea57b754d3093e15", "is_disabled": 0, "rental_uris": {"android": "https://dc.lft.to/lastmile_qr_scan", "ios": "https://dc.lft.to/lastmile_qr_scan"}, "type": "electric_scooter", "lat": 38.9181585, "is_reserved": 0, "fusion_lat": 0.0}, {"bike_id": "39b37029134ce9dee625a5e5d02d3b05", "fusion_lon": 0.0, "lon": -76.99355433333334, "name": "39b37029134ce9dee625a5e5d02d3b05", "is_disabled": 0, "rental_uris": {"android": "https://dc.lft.to/lastmile_qr_scan", "ios": "https://dc.lft.to/lastmile_qr_scan"}, "type": "electric_bike", "lat": 38.8450595, "is_reserved": 0, "fusion_lat": 0.0}, {"bike_id": "6388ed3b4beac3ab71f60483345e4a32", "fusion_lon": 0.0, "lon": -77.01758883333333, "name": "6388ed3b4beac3ab71f60483345e4a32", "is_disabled": 0, "rental_uris": {"android": "https://dc.lft.to/lastmile_qr_scan", "ios": "https://dc.lft.to/lastmile_qr_scan"}, "type": "electric_scooter", "lat": 38.883258, "is_reserved": 0, "fusion_lat": 0.0}, {"bike_id": "b456b24b48115bdbbe0e78c37958f2b6", "fusion_lon": 0.0, "lon": -77.02713233333333, "name": "b456b24b48115bdbbe0e78c37958f2b6", "is_disabled": 0, "rental_uris": {"android": "https://dc.lft.to/lastmile_qr_scan", "ios": "https://dc.lft.to/lastmile_qr_scan"}, "type": "electric_scooter", "lat": 38.90683716666667, "is_reserved": 0, "fusion_lat": 0.0}, {"bike_id": "5e0beb5f63e366db9b8ddb70366250af", "fusion_lon": 0.0, "lon": -77.035762, "name": "5e0beb5f63e366db9b8ddb70366250af", "is_disabled": 0, "rental_uris": {"android": "https://dc.lft.to/lastmile_qr_scan", "ios": "https://dc.lft.to/lastmile_qr_scan"}, "type": "electric_scooter", "lat": 38.923306833333335, "is_reserved": 0, "fusion_lat": 0.0}, {"bike_id": "3868c6313e688ee55ed2c5add908eae9", "fusion_lon": 0.0, "lon": -77.00725833333334, "name": "3868c6313e688ee55ed2c5add908eae9", "is_disabled": 0, "rental_uris": {"android": "https://dc.lft.to/lastmile_qr_scan", "ios": "https://dc.lft.to/lastmile_qr_scan"}, "type": "electric_scooter", "lat": 38.88492466666667, "is_reserved": 0, "fusion_lat": 0.0}, {"bike_id": "e9656272364f9ea52a69e33f652281ed", "fusion_lon": 0.0, "lon": -77.02715633333334, "name": "e9656272364f9ea52a69e33f652281ed", "is_disabled": 0, "rental_uris": {"android": "https://dc.lft.to/lastmile_qr_scan", "ios": "https://dc.lft.to/lastmile_qr_scan"}, "type": "electric_scooter", "lat": 38.906683666666666, "is_reserved": 0, "fusion_lat": 0.0}, {"bike_id": "75648df948cf713bd9e3ce913916bb00", "fusion_lon": 0.0, "lon": -77.05275183333333, "name": "75648df948cf713bd9e3ce913916bb00", "is_disabled": 0, "rental_uris": {"android": "https://dc.lft.to/lastmile_qr_scan", "ios": "https://dc.lft.to/lastmile_qr_scan"}, "type": "electric_scooter", "lat": 38.925417333333336, "is_reserved": 0, "fusion_lat": 0.0}, {"bike_id": "ab341735d93ee3700c5ecc6aa60bc87d", "fusion_lon": 0.0, "lon": -77.01758566666666, "name": "ab341735d93ee3700c5ecc6aa60bc87d", "is_disabled": 0, "rental_uris": {"android": "https://dc.lft.to/lastmile_qr_scan", "ios": "https://dc.lft.to/lastmile_qr_scan"}, "type": "electric_scooter", "lat": 38.8771395, "is_reserved": 0, "fusion_lat": 0.0}, {"bike_id": "3822c5a0a3183a3e7f6d741989597ef0", "fusion_lon": 0.0, "lon": -76.99821616666667, "name": "3822c5a0a3183a3e7f6d741989597ef0", "is_disabled": 0, "rental_uris": {"android": "https://dc.lft.to/lastmile_qr_scan", "ios": "https://dc.lft.to/lastmile_qr_scan"}, "type": "electric_scooter", "lat": 38.908229, "is_reserved": 0, "fusion_lat": 0.0}, {"bike_id": "c2ff016bbd6b68a5c09d2e6556ec7870", "fusion_lon": 0.0, "lon": -77.02772633333333, "name": "c2ff016bbd6b68a5c09d2e6556ec7870", "is_disabled": 0, "rental_uris": {"android": "https://dc.lft.to/lastmile_qr_scan", "ios": "https://dc.lft.to/lastmile_qr_scan"}, "type": "electric_scooter", "lat": 38.939607, "is_reserved": 0, "fusion_lat": 0.0}, {"bike_id": "f3346339539a694e693aa5040025ea93", "fusion_lon": 0.0, "lon": -77.01848633333333, "name": "f3346339539a694e693aa5040025ea93", "is_disabled": 0, "rental_uris": {"android": "https://dc.lft.to/lastmile_qr_scan", "ios": "https://dc.lft.to/lastmile_qr_scan"}, "type": "electric_scooter", "lat": 38.90029033333333, "is_reserved": 0, "fusion_lat": 0.0}, {"bike_id": "6ff7bcecb58318d5ec99ac074a0b5246", "fusion_lon": 0.0, "lon": -77.00525116666667, "name": "6ff7bcecb58318d5ec99ac074a0b5246", "is_disabled": 0, "rental_uris": {"android": "https://dc.lft.to/lastmile_qr_scan", "ios": "https://dc.lft.to/lastmile_qr_scan"}, "type": "electric_scooter", "lat": 38.880363833333334, "is_reserved": 0, "fusion_lat": 0.0}, {"bike_id": "58efaa7094de12d3e1ee29fde94dc682", "fusion_lon": 0.0, "lon": -76.99809983333333, "name": "58efaa7094de12d3e1ee29fde94dc682", "is_disabled": 0, "rental_uris": {"android": "https://dc.lft.to/lastmile_qr_scan", "ios": "https://dc.lft.to/lastmile_qr_scan"}, "type": "electric_bike", "lat": 38.910657666666665, "is_reserved": 0, "fusion_lat": 0.0}, {"bike_id": "6dcc6ef3c306d981b8a5a828110cc587", "fusion_lon": 0.0, "lon": -77.02555533333333, "name": "6dcc6ef3c306d981b8a5a828110cc587", "is_disabled": 0, "rental_uris": {"android": "https://dc.lft.to/lastmile_qr_scan", "ios": "https://dc.lft.to/lastmile_qr_scan"}, "type": "electric_scooter", "lat": 38.9154885, "is_reserved": 0, "fusion_lat": 0.0}, {"bike_id": "199e6e03b0dcb2178b5d6bda8f1db456", "fusion_lon": 0.0, "lon": -77.02578, "name": "199e6e03b0dcb2178b5d6bda8f1db456", "is_disabled": 0, "rental_uris": {"android": "https://dc.lft.to/lastmile_qr_scan", "ios": "https://dc.lft.to/lastmile_qr_scan"}, "type": "electric_scooter", "lat": 38.916030666666664, "is_reserved": 0, "fusion_lat": 0.0}, {"bike_id": "f09a4f0fe3498d0105afd6c768bba1b5", "fusion_lon": 0.0, "lon": -77.03171833333333, "name": "f09a4f0fe3498d0105afd6c768bba1b5", "is_disabled": 0, "rental_uris": {"android": "https://dc.lft.to/lastmile_qr_scan", "ios": "https://dc.lft.to/lastmile_qr_scan"}, "type": "electric_scooter", "lat": 38.903378333333336, "is_reserved": 0, "fusion_lat": 0.0}, {"bike_id": "700237b8ba90f8e8523325561377937b", "fusion_lon": 0.0, "lon": -77.01180433333333, "name": "700237b8ba90f8e8523325561377937b", "is_disabled": 0, "rental_uris": {"android": "https://dc.lft.to/lastmile_qr_scan", "ios": "https://dc.lft.to/lastmile_qr_scan"}, "type": "electric_scooter", "lat": 38.909604333333334, "is_reserved": 0, "fusion_lat": 0.0}, {"bike_id": "d7ab5843434d6e20a327e27e97bceeec", "fusion_lon": 0.0, "lon": -77.01158116666667, "name": "d7ab5843434d6e20a327e27e97bceeec", "is_disabled": 0, "rental_uris": {"android": "https://dc.lft.to/lastmile_qr_scan", "ios": "https://dc.lft.to/lastmile_qr_scan"}, "type": "electric_scooter", "lat": 38.9118295, "is_reserved": 0, "fusion_lat": 0.0}, {"bike_id": "77327e1bf512deb7f22671ffda7702e1", "fusion_lon": 0.0, "lon": -77.05275666666667, "name": "77327e1bf512deb7f22671ffda7702e1", "is_disabled": 0, "rental_uris": {"android": "https://dc.lft.to/lastmile_qr_scan", "ios": "https://dc.lft.to/lastmile_qr_scan"}, "type": "electric_scooter", "lat": 38.92543516666667, "is_reserved": 0, "fusion_lat": 0.0}, {"bike_id": "24aebf6c17b89361a00d28efa106202a", "fusion_lon": 0.0, "lon": -77.00122433333334, "name": "24aebf6c17b89361a00d28efa106202a", "is_disabled": 0, "rental_uris": {"android": "https://dc.lft.to/lastmile_qr_scan", "ios": "https://dc.lft.to/lastmile_qr_scan"}, "type": "electric_scooter", "lat": 38.90559283333333, "is_reserved": 0, "fusion_lat": 0.0}, {"bike_id": "7fa4d15e6b4aa22fb9798c8dbc11c662", "fusion_lon": 0.0, "lon": -76.99970616666667, "name": "7fa4d15e6b4aa22fb9798c8dbc11c662", "is_disabled": 0, "rental_uris": {"android": "https://dc.lft.to/lastmile_qr_scan", "ios": "https://dc.lft.to/lastmile_qr_scan"}, "type": "electric_scooter", "lat": 38.9244835, "is_reserved": 0, "fusion_lat": 0.0}, {"bike_id": "c2bfb5349eed1b04d2ec307c7bad6a79", "fusion_lon": 0.0, "lon": -77.04879216666667, "name": "c2bfb5349eed1b04d2ec307c7bad6a79", "is_disabled": 0, "rental_uris": {"android": "https://dc.lft.to/lastmile_qr_scan", "ios": "https://dc.lft.to/lastmile_qr_scan"}, "type": "electric_scooter", "lat": 38.898883, "is_reserved": 0, "fusion_lat": 0.0}, {"bike_id": "76a2e2d14559a6dab8f9f8d42d6e89a6", "fusion_lon": 0.0, "lon": -77.02211533333333, "name": "76a2e2d14559a6dab8f9f8d42d6e89a6", "is_disabled": 0, "rental_uris": {"android": "https://dc.lft.to/lastmile_qr_scan", "ios": "https://dc.lft.to/lastmile_qr_scan"}, "type": "electric_scooter", "lat": 38.878878, "is_reserved": 0, "fusion_lat": 0.0}, {"bike_id": "9015bf92267648bc0ad4677a29a0e769", "fusion_lon": 0.0, "lon": -77.04866366666667, "name": "9015bf92267648bc0ad4677a29a0e769", "is_disabled": 0, "rental_uris": {"android": "https://dc.lft.to/lastmile_qr_scan", "ios": "https://dc.lft.to/lastmile_qr_scan"}, "type": "electric_scooter", "lat": 38.90569833333333, "is_reserved": 0, "fusion_lat": 0.0}, {"bike_id": "9c41932a112f9f7595fabf317117929d", "fusion_lon": 0.0, "lon": -76.99534133333333, "name": "9c41932a112f9f7595fabf317117929d", "is_disabled": 0, "rental_uris": {"android": "https://dc.lft.to/lastmile_qr_scan", "ios": "https://dc.lft.to/lastmile_qr_scan"}, "type": "electric_bike", "lat": 38.90027366666666, "is_reserved": 0, "fusion_lat": 0.0}, {"bike_id": "60eff36550ad619df66e215a48402cb0", "fusion_lon": 0.0, "lon": -77.03300416666667, "name": "60eff36550ad619df66e215a48402cb0", "is_disabled": 0, "rental_uris": {"android": "https://dc.lft.to/lastmile_qr_scan", "ios": "https://dc.lft.to/lastmile_qr_scan"}, "type": "electric_scooter", "lat": 38.920606666666664, "is_reserved": 0, "fusion_lat": 0.0}, {"bike_id": "9fa94826777341de42da4db4dfaa49b7", "fusion_lon": 0.0, "lon": -77.04367583333334, "name": "9fa94826777341de42da4db4dfaa49b7", "is_disabled": 0, "rental_uris": {"android": "https://dc.lft.to/lastmile_qr_scan", "ios": "https://dc.lft.to/lastmile_qr_scan"}, "type": "electric_scooter", "lat": 38.9214325, "is_reserved": 0, "fusion_lat": 0.0}, {"bike_id": "571609b0c0f5e9d61e1e8b6f69656c31", "fusion_lon": 0.0, "lon": -77.0462955, "name": "571609b0c0f5e9d61e1e8b6f69656c31", "is_disabled": 0, "rental_uris": {"android": "https://dc.lft.to/lastmile_qr_scan", "ios": "https://dc.lft.to/lastmile_qr_scan"}, "type": "electric_scooter", "lat": 38.919252166666666, "is_reserved": 0, "fusion_lat": 0.0}, {"bike_id": "b9763a14ebab736e8ed203f2c066c03a", "fusion_lon": 0.0, "lon": -77.01603983333334, "name": "b9763a14ebab736e8ed203f2c066c03a", "is_disabled": 0, "rental_uris": {"android": "https://dc.lft.to/lastmile_qr_scan", "ios": "https://dc.lft.to/lastmile_qr_scan"}, "type": "electric_scooter", "lat": 38.899631166666666, "is_reserved": 0, "fusion_lat": 0.0}, {"bike_id": "03c873112305e14be2e46ce48f34bc52", "fusion_lon": 0.0, "lon": -76.98605783333333, "name": "03c873112305e14be2e46ce48f34bc52", "is_disabled": 0, "rental_uris": {"android": "https://dc.lft.to/lastmile_qr_scan", "ios": "https://dc.lft.to/lastmile_qr_scan"}, "type": "electric_scooter", "lat": 38.878450666666666, "is_reserved": 0, "fusion_lat": 0.0}, {"bike_id": "35876a28640abc5a1f3278c98d80e6d4", "fusion_lon": 0.0, "lon": -77.02014116666666, "name": "35876a28640abc5a1f3278c98d80e6d4", "is_disabled": 0, "rental_uris": {"android": "https://dc.lft.to/lastmile_qr_scan", "ios": "https://dc.lft.to/lastmile_qr_scan"}, "type": "electric_scooter", "lat": 38.901647, "is_reserved": 0, "fusion_lat": 0.0}, {"bike_id": "4810d82ab5d120994f84ca31b558444d", "fusion_lon": 0.0, "lon": -77.05584433333334, "name": "4810d82ab5d120994f84ca31b558444d", "is_disabled": 0, "rental_uris": {"android": "https://dc.lft.to/lastmile_qr_scan", "ios": "https://dc.lft.to/lastmile_qr_scan"}, "type": "electric_scooter", "lat": 38.89327383333333, "is_reserved": 0, "fusion_lat": 0.0}, {"bike_id": "249584027cdc0e8ccd14606dfbcfa16e", "fusion_lon": 0.0, "lon": -76.98027033333334, "name": "249584027cdc0e8ccd14606dfbcfa16e", "is_disabled": 0, "rental_uris": {"android": "https://dc.lft.to/lastmile_qr_scan", "ios": "https://dc.lft.to/lastmile_qr_scan"}, "type": "electric_scooter", "lat": 38.903786, "is_reserved": 0, "fusion_lat": 0.0}, {"bike_id": "5aa740d41854cd639bd575799f702717", "fusion_lon": 0.0, "lon": -77.04652566666667, "name": "5aa740d41854cd639bd575799f702717", "is_disabled": 0, "rental_uris": {"android": "https://dc.lft.to/lastmile_qr_scan", "ios": "https://dc.lft.to/lastmile_qr_scan"}, "type": "electric_scooter", "lat": 38.905480833333336, "is_reserved": 0, "fusion_lat": 0.0}, {"bike_id": "4859e5a04af24148335f94ba90ff8c2a", "fusion_lon": 0.0, "lon": -77.041544, "name": "4859e5a04af24148335f94ba90ff8c2a", "is_disabled": 0, "rental_uris": {"android": "https://dc.lft.to/lastmile_qr_scan", "ios": "https://dc.lft.to/lastmile_qr_scan"}, "type": "electric_scooter", "lat": 38.91588483333334, "is_reserved": 0, "fusion_lat": 0.0}, {"bike_id": "892d378be04b17240c5ecb77e1ca31b8", "fusion_lon": 0.0, "lon": -76.99613733333334, "name": "892d378be04b17240c5ecb77e1ca31b8", "is_disabled": 0, "rental_uris": {"android": "https://dc.lft.to/lastmile_qr_scan", "ios": "https://dc.lft.to/lastmile_qr_scan"}, "type": "electric_scooter", "lat": 38.90064533333333, "is_reserved": 0, "fusion_lat": 0.0}, {"bike_id": "f0b32b977582f82808f2bc90c7f3dfe4", "fusion_lon": 0.0, "lon": -76.9746155, "name": "f0b32b977582f82808f2bc90c7f3dfe4", "is_disabled": 0, "rental_uris": {"android": "https://dc.lft.to/lastmile_qr_scan", "ios": "https://dc.lft.to/lastmile_qr_scan"}, "type": "electric_scooter", "lat": 38.86551033333333, "is_reserved": 0, "fusion_lat": 0.0}, {"bike_id": "0b3f54a8af0533ea11ac27c34c25c3af", "fusion_lon": 0.0, "lon": -76.99869816666667, "name": "0b3f54a8af0533ea11ac27c34c25c3af", "is_disabled": 0, "rental_uris": {"android": "https://dc.lft.to/lastmile_qr_scan", "ios": "https://dc.lft.to/lastmile_qr_scan"}, "type": "electric_scooter", "lat": 38.90028916666667, "is_reserved": 0, "fusion_lat": 0.0}, {"bike_id": "d3b83f964e1ed27a24f1bc1e716b3664", "fusion_lon": 0.0, "lon": -77.028102, "name": "d3b83f964e1ed27a24f1bc1e716b3664", "is_disabled": 0, "rental_uris": {"android": "https://dc.lft.to/lastmile_qr_scan", "ios": "https://dc.lft.to/lastmile_qr_scan"}, "type": "electric_scooter", "lat": 38.9308315, "is_reserved": 0, "fusion_lat": 0.0}, {"bike_id": "dfbddaa0949d47677896c78b3ef67079", "fusion_lon": 0.0, "lon": -77.05210566666666, "name": "dfbddaa0949d47677896c78b3ef67079", "is_disabled": 0, "rental_uris": {"android": "https://dc.lft.to/lastmile_qr_scan", "ios": "https://dc.lft.to/lastmile_qr_scan"}, "type": "electric_scooter", "lat": 38.9243345, "is_reserved": 0, "fusion_lat": 0.0}, {"bike_id": "79b7258d625f5a5eb2dd1b82852c1311", "fusion_lon": 0.0, "lon": -77.0461775, "name": "79b7258d625f5a5eb2dd1b82852c1311", "is_disabled": 0, "rental_uris": {"android": "https://dc.lft.to/lastmile_qr_scan", "ios": "https://dc.lft.to/lastmile_qr_scan"}, "type": "electric_scooter", "lat": 38.90961883333333, "is_reserved": 0, "fusion_lat": 0.0}, {"bike_id": "6d3f3287e7713c5844b0ee09e93f9cbd", "fusion_lon": 0.0, "lon": -77.00380266666667, "name": "6d3f3287e7713c5844b0ee09e93f9cbd", "is_disabled": 0, "rental_uris": {"android": "https://dc.lft.to/lastmile_qr_scan", "ios": "https://dc.lft.to/lastmile_qr_scan"}, "type": "electric_scooter", "lat": 38.875558, "is_reserved": 0, "fusion_lat": 0.0}, {"bike_id": "4188e5b346392c0c036aeaa337aef762", "fusion_lon": 0.0, "lon": -76.9909065, "name": "4188e5b346392c0c036aeaa337aef762", "is_disabled": 0, "rental_uris": {"android": "https://dc.lft.to/lastmile_qr_scan", "ios": "https://dc.lft.to/lastmile_qr_scan"}, "type": "electric_scooter", "lat": 38.88230683333333, "is_reserved": 0, "fusion_lat": 0.0}, {"bike_id": "c72e9a644be8208fc4bdc2a3b94b9e3a", "fusion_lon": 0.0, "lon": -77.05118333333333, "name": "c72e9a644be8208fc4bdc2a3b94b9e3a", "is_disabled": 0, "rental_uris": {"android": "https://dc.lft.to/lastmile_qr_scan", "ios": "https://dc.lft.to/lastmile_qr_scan"}, "type": "electric_scooter", "lat": 38.90526033333333, "is_reserved": 0, "fusion_lat": 0.0}, {"bike_id": "cf7ff0c3ed9c9c05a9d79e85b5d0bdda", "fusion_lon": 0.0, "lon": -77.02832983333333, "name": "cf7ff0c3ed9c9c05a9d79e85b5d0bdda", "is_disabled": 0, "rental_uris": {"android": "https://dc.lft.to/lastmile_qr_scan", "ios": "https://dc.lft.to/lastmile_qr_scan"}, "type": "electric_scooter", "lat": 38.932329, "is_reserved": 0, "fusion_lat": 0.0}, {"bike_id": "b964743c6c2fa017d0b45c696c7f6887", "fusion_lon": 0.0, "lon": -77.02208683333333, "name": "b964743c6c2fa017d0b45c696c7f6887", "is_disabled": 0, "rental_uris": {"android": "https://dc.lft.to/lastmile_qr_scan", "ios": "https://dc.lft.to/lastmile_qr_scan"}, "type": "electric_scooter", "lat": 38.878960166666666, "is_reserved": 0, "fusion_lat": 0.0}, {"bike_id": "7565162ec8ee1616f18710f1f9ae4544", "fusion_lon": 0.0, "lon": -76.9996235, "name": "7565162ec8ee1616f18710f1f9ae4544", "is_disabled": 0, "rental_uris": {"android": "https://dc.lft.to/lastmile_qr_scan", "ios": "https://dc.lft.to/lastmile_qr_scan"}, "type": "electric_bike", "lat": 38.92150916666667, "is_reserved": 0, "fusion_lat": 0.0}, {"bike_id": "02360b48acc4f6fd5db2df80b43199ff", "fusion_lon": 0.0, "lon": -77.027385, "name": "02360b48acc4f6fd5db2df80b43199ff", "is_disabled": 0, "rental_uris": {"android": "https://dc.lft.to/lastmile_qr_scan", "ios": "https://dc.lft.to/lastmile_qr_scan"}, "type": "electric_scooter", "lat": 38.928284166666664, "is_reserved": 0, "fusion_lat": 0.0}, {"bike_id": "f64039eea43f8c4167827239b5489150", "fusion_lon": 0.0, "lon": -76.98888983333333, "name": "f64039eea43f8c4167827239b5489150", "is_disabled": 0, "rental_uris": {"android": "https://dc.lft.to/lastmile_qr_scan", "ios": "https://dc.lft.to/lastmile_qr_scan"}, "type": "electric_scooter", "lat": 38.866518, "is_reserved": 0, "fusion_lat": 0.0}, {"bike_id": "c160a4d1c9325648fd0088d6a4dd3841", "fusion_lon": 0.0, "lon": -77.04147166666667, "name": "c160a4d1c9325648fd0088d6a4dd3841", "is_disabled": 0, "rental_uris": {"android": "https://dc.lft.to/lastmile_qr_scan", "ios": "https://dc.lft.to/lastmile_qr_scan"}, "type": "electric_scooter", "lat": 38.915516833333335, "is_reserved": 0, "fusion_lat": 0.0}, {"bike_id": "da6bc60c96bd97d3f9a5480ea56aafe8", "fusion_lon": 0.0, "lon": -77.02185533333333, "name": "da6bc60c96bd97d3f9a5480ea56aafe8", "is_disabled": 0, "rental_uris": {"android": "https://dc.lft.to/lastmile_qr_scan", "ios": "https://dc.lft.to/lastmile_qr_scan"}, "type": "electric_scooter", "lat": 38.914773833333335, "is_reserved": 0, "fusion_lat": 0.0}, {"bike_id": "02a5116b15ccffbe98adb1c59750fdf7", "fusion_lon": 0.0, "lon": -77.04182333333334, "name": "02a5116b15ccffbe98adb1c59750fdf7", "is_disabled": 0, "rental_uris": {"android": "https://dc.lft.to/lastmile_qr_scan", "ios": "https://dc.lft.to/lastmile_qr_scan"}, "type": "electric_scooter", "lat": 38.893013333333336, "is_reserved": 0, "fusion_lat": 0.0}, {"bike_id": "76f6d617d9f467c86cd88564be166f38", "fusion_lon": 0.0, "lon": -77.12731866666667, "name": "76f6d617d9f467c86cd88564be166f38", "is_disabled": 0, "rental_uris": {"android": "https://dc.lft.to/lastmile_qr_scan", "ios": "https://dc.lft.to/lastmile_qr_scan"}, "type": "electric_bike", "lat": 38.895624, "is_reserved": 0, "fusion_lat": 0.0}, {"bike_id": "05b1cf9cd6197485d498fba490a9e1c4", "fusion_lon": 0.0, "lon": -77.01136833333334, "name": "05b1cf9cd6197485d498fba490a9e1c4", "is_disabled": 0, "rental_uris": {"android": "https://dc.lft.to/lastmile_qr_scan", "ios": "https://dc.lft.to/lastmile_qr_scan"}, "type": "electric_scooter", "lat": 38.907281166666664, "is_reserved": 0, "fusion_lat": 0.0}, {"bike_id": "902fd06c2d6b21d31f4facf2a254613f", "fusion_lon": 0.0, "lon": -77.024171, "name": "902fd06c2d6b21d31f4facf2a254613f", "is_disabled": 0, "rental_uris": {"android": "https://dc.lft.to/lastmile_qr_scan", "ios": "https://dc.lft.to/lastmile_qr_scan"}, "type": "electric_scooter", "lat": 38.9573545, "is_reserved": 0, "fusion_lat": 0.0}, {"bike_id": "678f83b5f2addfa63043376faacffafd", "fusion_lon": 0.0, "lon": -77.02180233333333, "name": "678f83b5f2addfa63043376faacffafd", "is_disabled": 0, "rental_uris": {"android": "https://dc.lft.to/lastmile_qr_scan", "ios": "https://dc.lft.to/lastmile_qr_scan"}, "type": "electric_scooter", "lat": 38.905877, "is_reserved": 0, "fusion_lat": 0.0}, {"bike_id": "93f42ea5572dce7a2f43c26a64406224", "fusion_lon": 0.0, "lon": -77.0239785, "name": "93f42ea5572dce7a2f43c26a64406224", "is_disabled": 0, "rental_uris": {"android": "https://dc.lft.to/lastmile_qr_scan", "ios": "https://dc.lft.to/lastmile_qr_scan"}, "type": "electric_scooter", "lat": 38.919786, "is_reserved": 0, "fusion_lat": 0.0}, {"bike_id": "6e168cb445ce8d9a063044cd49d934b2", "fusion_lon": 0.0, "lon": -77.02606383333334, "name": "6e168cb445ce8d9a063044cd49d934b2", "is_disabled": 0, "rental_uris": {"android": "https://dc.lft.to/lastmile_qr_scan", "ios": "https://dc.lft.to/lastmile_qr_scan"}, "type": "electric_scooter", "lat": 38.9050495, "is_reserved": 0, "fusion_lat": 0.0}, {"bike_id": "93cce1f65bf62facae4b87cdf3fa25d4", "fusion_lon": 0.0, "lon": -77.02691266666666, "name": "93cce1f65bf62facae4b87cdf3fa25d4", "is_disabled": 0, "rental_uris": {"android": "https://dc.lft.to/lastmile_qr_scan", "ios": "https://dc.lft.to/lastmile_qr_scan"}, "type": "electric_scooter", "lat": 38.91124333333333, "is_reserved": 0, "fusion_lat": 0.0}, {"bike_id": "3d793c857d55b492b431c089486c7253", "fusion_lon": 0.0, "lon": -77.05271783333333, "name": "3d793c857d55b492b431c089486c7253", "is_disabled": 0, "rental_uris": {"android": "https://dc.lft.to/lastmile_qr_scan", "ios": "https://dc.lft.to/lastmile_qr_scan"}, "type": "electric_scooter", "lat": 38.925390666666665, "is_reserved": 0, "fusion_lat": 0.0}, {"bike_id": "61aced2f51db46f038d66761855e1987", "fusion_lon": 0.0, "lon": -77.03942416666666, "name": "61aced2f51db46f038d66761855e1987", "is_disabled": 0, "rental_uris": {"android": "https://dc.lft.to/lastmile_qr_scan", "ios": "https://dc.lft.to/lastmile_qr_scan"}, "type": "electric_scooter", "lat": 38.915682833333335, "is_reserved": 0, "fusion_lat": 0.0}, {"bike_id": "d985205c20e566e2ea34507f54eb03fb", "fusion_lon": 0.0, "lon": -77.05032866666667, "name": "d985205c20e566e2ea34507f54eb03fb", "is_disabled": 0, "rental_uris": {"android": "https://dc.lft.to/lastmile_qr_scan", "ios": "https://dc.lft.to/lastmile_qr_scan"}, "type": "electric_scooter", "lat": 38.900921, "is_reserved": 0, "fusion_lat": 0.0}, {"bike_id": "8b6d4c26aa62e8b76dd27f6cc0e84390", "fusion_lon": 0.0, "lon": -77.0270955, "name": "8b6d4c26aa62e8b76dd27f6cc0e84390", "is_disabled": 0, "rental_uris": {"android": "https://dc.lft.to/lastmile_qr_scan", "ios": "https://dc.lft.to/lastmile_qr_scan"}, "type": "electric_scooter", "lat": 38.9288275, "is_reserved": 0, "fusion_lat": 0.0}, {"bike_id": "6d17d1a7dd94aa18187da01da827359b", "fusion_lon": 0.0, "lon": -76.9977605, "name": "6d17d1a7dd94aa18187da01da827359b", "is_disabled": 0, "rental_uris": {"android": "https://dc.lft.to/lastmile_qr_scan", "ios": "https://dc.lft.to/lastmile_qr_scan"}, "type": "electric_scooter", "lat": 38.8442625, "is_reserved": 0, "fusion_lat": 0.0}, {"bike_id": "8fe8468b999ed1e6fba71062c86816f2", "fusion_lon": 0.0, "lon": -77.0346015, "name": "8fe8468b999ed1e6fba71062c86816f2", "is_disabled": 0, "rental_uris": {"android": "https://dc.lft.to/lastmile_qr_scan", "ios": "https://dc.lft.to/lastmile_qr_scan"}, "type": "electric_scooter", "lat": 38.90762433333333, "is_reserved": 0, "fusion_lat": 0.0}, {"bike_id": "0870c62aa06313eef510a9df168b770f", "fusion_lon": 0.0, "lon": -76.9463665, "name": "0870c62aa06313eef510a9df168b770f", "is_disabled": 0, "rental_uris": {"android": "https://dc.lft.to/lastmile_qr_scan", "ios": "https://dc.lft.to/lastmile_qr_scan"}, "type": "electric_scooter", "lat": 38.898445, "is_reserved": 0, "fusion_lat": 0.0}, {"bike_id": "1592f1279170c70beb5935364fbc4a34", "fusion_lon": 0.0, "lon": -76.95756816666666, "name": "1592f1279170c70beb5935364fbc4a34", "is_disabled": 0, "rental_uris": {"android": "https://dc.lft.to/lastmile_qr_scan", "ios": "https://dc.lft.to/lastmile_qr_scan"}, "type": "electric_scooter", "lat": 38.88425266666667, "is_reserved": 0, "fusion_lat": 0.0}, {"bike_id": "f3295dce4e72cca404ce68a1c4d8f66d", "fusion_lon": 0.0, "lon": -77.00333, "name": "f3295dce4e72cca404ce68a1c4d8f66d", "is_disabled": 0, "rental_uris": {"android": "https://dc.lft.to/lastmile_qr_scan", "ios": "https://dc.lft.to/lastmile_qr_scan"}, "type": "electric_scooter", "lat": 38.895240666666666, "is_reserved": 0, "fusion_lat": 0.0}, {"bike_id": "1964d8382e1413daa3076e91117d50ff", "fusion_lon": 0.0, "lon": -76.99777216666666, "name": "1964d8382e1413daa3076e91117d50ff", "is_disabled": 0, "rental_uris": {"android": "https://dc.lft.to/lastmile_qr_scan", "ios": "https://dc.lft.to/lastmile_qr_scan"}, "type": "electric_scooter", "lat": 38.84430316666667, "is_reserved": 0, "fusion_lat": 0.0}, {"bike_id": "f4a21593511bfe2beebbf85d09f28d85", "fusion_lon": 0.0, "lon": -77.020387, "name": "f4a21593511bfe2beebbf85d09f28d85", "is_disabled": 0, "rental_uris": {"android": "https://dc.lft.to/lastmile_qr_scan", "ios": "https://dc.lft.to/lastmile_qr_scan"}, "type": "electric_scooter", "lat": 38.92420516666667, "is_reserved": 0, "fusion_lat": 0.0}, {"bike_id": "5c69dd848a33213fcebec594c92256f8", "fusion_lon": 0.0, "lon": -76.97140666666667, "name": "5c69dd848a33213fcebec594c92256f8", "is_disabled": 0, "rental_uris": {"android": "https://dc.lft.to/lastmile_qr_scan", "ios": "https://dc.lft.to/lastmile_qr_scan"}, "type": "electric_bike", "lat": 38.85736416666667, "is_reserved": 0, "fusion_lat": 0.0}, {"bike_id": "7d152d11c443785caae8907a8c9ee961", "fusion_lon": 0.0, "lon": -76.937523, "name": "7d152d11c443785caae8907a8c9ee961", "is_disabled": 0, "rental_uris": {"android": "https://dc.lft.to/lastmile_qr_scan", "ios": "https://dc.lft.to/lastmile_qr_scan"}, "type": "electric_scooter", "lat": 38.89047516666667, "is_reserved": 0, "fusion_lat": 0.0}, {"bike_id": "27d51dab9da05b035dc7916baeffb1ab", "fusion_lon": 0.0, "lon": -77.125225, "name": "27d51dab9da05b035dc7916baeffb1ab", "is_disabled": 0, "rental_uris": {"android": "https://dc.lft.to/lastmile_qr_scan", "ios": "https://dc.lft.to/lastmile_qr_scan"}, "type": "electric_bike", "lat": 39.056312166666665, "is_reserved": 0, "fusion_lat": 0.0}, {"bike_id": "d32d6f836c5ec0b00eb1885e948e4cf8", "fusion_lon": 0.0, "lon": -76.98487216666666, "name": "d32d6f836c5ec0b00eb1885e948e4cf8", "is_disabled": 0, "rental_uris": {"android": "https://dc.lft.to/lastmile_qr_scan", "ios": "https://dc.lft.to/lastmile_qr_scan"}, "type": "electric_scooter", "lat": 38.866845833333336, "is_reserved": 0, "fusion_lat": 0.0}, {"bike_id": "b45b45dfa907f17809a3f9c5e272da59", "fusion_lon": 0.0, "lon": -77.0346485, "name": "b45b45dfa907f17809a3f9c5e272da59", "is_disabled": 0, "rental_uris": {"android": "https://dc.lft.to/lastmile_qr_scan", "ios": "https://dc.lft.to/lastmile_qr_scan"}, "type": "electric_scooter", "lat": 38.902731, "is_reserved": 0, "fusion_lat": 0.0}, {"bike_id": "1785d5b143b2f9cab034a082d49a6691", "fusion_lon": 0.0, "lon": -77.017814, "name": "1785d5b143b2f9cab034a082d49a6691", "is_disabled": 0, "rental_uris": {"android": "https://dc.lft.to/lastmile_qr_scan", "ios": "https://dc.lft.to/lastmile_qr_scan"}, "type": "electric_scooter", "lat": 38.94421216666667, "is_reserved": 0, "fusion_lat": 0.0}, {"bike_id": "b190f3d9b3302b53a3d7a31834d7036d", "fusion_lon": 0.0, "lon": -77.0238565, "name": "b190f3d9b3302b53a3d7a31834d7036d", "is_disabled": 0, "rental_uris": {"android": "https://dc.lft.to/lastmile_qr_scan", "ios": "https://dc.lft.to/lastmile_qr_scan"}, "type": "electric_scooter", "lat": 38.90214366666667, "is_reserved": 0, "fusion_lat": 0.0}, {"bike_id": "ecdaedc141aa044bbb34fcfa402f4507", "fusion_lon": 0.0, "lon": -77.038643, "name": "ecdaedc141aa044bbb34fcfa402f4507", "is_disabled": 0, "rental_uris": {"android": "https://dc.lft.to/lastmile_qr_scan", "ios": "https://dc.lft.to/lastmile_qr_scan"}, "type": "electric_scooter", "lat": 38.921512166666666, "is_reserved": 0, "fusion_lat": 0.0}, {"bike_id": "87840c741e52c600feb3ed7719439b6d", "fusion_lon": 0.0, "lon": -76.99502516666666, "name": "87840c741e52c600feb3ed7719439b6d", "is_disabled": 0, "rental_uris": {"android": "https://dc.lft.to/lastmile_qr_scan", "ios": "https://dc.lft.to/lastmile_qr_scan"}, "type": "electric_scooter", "lat": 38.89906633333333, "is_reserved": 0, "fusion_lat": 0.0}, {"bike_id": "4f3391ce629c6f93bccc30d625dfce80", "fusion_lon": 0.0, "lon": -76.99732383333334, "name": "4f3391ce629c6f93bccc30d625dfce80", "is_disabled": 0, "rental_uris": {"android": "https://dc.lft.to/lastmile_qr_scan", "ios": "https://dc.lft.to/lastmile_qr_scan"},