{"data": {"bikes": [{"lat": 38.8134745, "is_disabled": 0, "type": "electric_bike", "lon": -77.04924233333334, "bike_id": "3b39c1a631cbde51c28a70c21471507f", "fusion_lat": 0.0, "name": "3b39c1a631cbde51c28a70c21471507f", "is_reserved": 0, "rental_uris": {"android": "https://dc.lft.to/lastmile_qr_scan", "ios": "https://dc.lft.to/lastmile_qr_scan"}, "fusion_lon": 0.0}, {"lat": 38.911226166666665, "is_disabled": 0, "type": "electric_scooter", "lon": -77.038207, "bike_id": "93b6eb815ebbcb8ac0a32444136ab6d7", "fusion_lat": 0.0, "name": "93b6eb815ebbcb8ac0a32444136ab6d7", "is_reserved": 0, "rental_uris": {"android": "https://dc.lft.to/lastmile_qr_scan", "ios": "https://dc.lft.to/lastmile_qr_scan"}, "fusion_lon": 0.0}, {"lat": 38.94112166666667, "is_disabled": 0, "type": "electric_scooter", "lon": -77.00047633333334, "bike_id": "07931551ec41d1bcd924cb1646d7b8e1", "fusion_lat": 0.0, "name": "07931551ec41d1bcd924cb1646d7b8e1", "is_reserved": 0, "rental_uris": {"android": "https://dc.lft.to/lastmile_qr_scan", "ios": "https://dc.lft.to/lastmile_qr_scan"}, "fusion_lon": 0.0}, {"lat": 38.87168583333333, "is_disabled": 0, "type": "electric_scooter", "lon": -77.0136085, "bike_id": "1db144d6dd098aeba5ff63dd519cd006", "fusion_lat": 0.0, "name": "1db144d6dd098aeba5ff63dd519cd006", "is_reserved": 0, "rental_uris": {"android": "https://dc.lft.to/lastmile_qr_scan", "ios": "https://dc.lft.to/lastmile_qr_scan"}, "fusion_lon": 0.0}, {"lat": 38.9251595, "is_disabled": 0, "type": "electric_scooter", "lon": -77.02365766666667, "bike_id": "48953ef0d9254b971b7ca3cff2c6a516", "fusion_lat": 0.0, "name": "48953ef0d9254b971b7ca3cff2c6a516", "is_reserved": 0, "rental_uris": {"android": "https://dc.lft.to/lastmile_qr_scan", "ios": "https://dc.lft.to/lastmile_qr_scan"}, "fusion_lon": 0.0}, {"lat": 38.92573266666667, "is_disabled": 0, "type": "electric_scooter", "lon": -77.04014083333334, "bike_id": "3c6b240d121dacb852d248f4833e26c5", "fusion_lat": 0.0, "name": "3c6b240d121dacb852d248f4833e26c5", "is_reserved": 0, "rental_uris": {"android": "https://dc.lft.to/lastmile_qr_scan", "ios": "https://dc.lft.to/lastmile_qr_scan"}, "fusion_lon": 0.0}, {"lat": 38.900241666666666, "is_disabled": 0, "type": "electric_scooter", "lon": -77.03318133333333, "bike_id": "3bd07b16ef7478f1009c952347ac7f5b", "fusion_lat": 0.0, "name": "3bd07b16ef7478f1009c952347ac7f5b", "is_reserved": 0, "rental_uris": {"android": "https://dc.lft.to/lastmile_qr_scan", "ios": "https://dc.lft.to/lastmile_qr_scan"}, "fusion_lon": 0.0}, {"lat": 38.912888333333335, "is_disabled": 0, "type": "electric_scooter", "lon": -77.0384535, "bike_id": "4b239592a1e5bd520c53ec09f413bb51", "fusion_lat": 0.0, "name": "4b239592a1e5bd520c53ec09f413bb51", "is_reserved": 0, "rental_uris": {"android": "https://dc.lft.to/lastmile_qr_scan", "ios": "https://dc.lft.to/lastmile_qr_scan"}, "fusion_lon": 0.0}, {"lat": 38.910507833333334, "is_disabled": 0, "type": "electric_scooter", "lon": -77.0151965, "bike_id": "f1704a1c0d9358669cace67265d5f95f", "fusion_lat": 0.0, "name": "f1704a1c0d9358669cace67265d5f95f", "is_reserved": 0, "rental_uris": {"android": "https://dc.lft.to/lastmile_qr_scan", "ios": "https://dc.lft.to/lastmile_qr_scan"}, "fusion_lon": 0.0}, {"lat": 38.89608283333333, "is_disabled": 0, "type": "electric_scooter", "lon": -76.95661566666666, "bike_id": "70e0a394fa9ced84f9d61e5b4377a52f", "fusion_lat": 0.0, "name": "70e0a394fa9ced84f9d61e5b4377a52f", "is_reserved": 0, "rental_uris": {"android": "https://dc.lft.to/lastmile_qr_scan", "ios": "https://dc.lft.to/lastmile_qr_scan"}, "fusion_lon": 0.0}, {"lat": 38.877216, "is_disabled": 0, "type": "electric_scooter", "lon": -77.00286683333333, "bike_id": "8fc3013d8d85bad5d2ac3cda89ecc76a", "fusion_lat": 0.0, "name": "8fc3013d8d85bad5d2ac3cda89ecc76a", "is_reserved": 0, "rental_uris": {"android": "https://dc.lft.to/lastmile_qr_scan", "ios": "https://dc.lft.to/lastmile_qr_scan"}, "fusion_lon": 0.0}, {"lat": 38.907500666666664, "is_disabled": 0, "type": "electric_scooter", "lon": -76.9989235, "bike_id": "d11aa17aa84cd3edaf4362e648c5a63c", "fusion_lat": 0.0, "name": "d11aa17aa84cd3edaf4362e648c5a63c", "is_reserved": 0, "rental_uris": {"android": "https://dc.lft.to/lastmile_qr_scan", "ios": "https://dc.lft.to/lastmile_qr_scan"}, "fusion_lon": 0.0}, {"lat": 38.89553683333333, "is_disabled": 0, "type": "electric_scooter", "lon": -77.00368316666666, "bike_id": "28450446eb293f9ef71bcf15b5627928", "fusion_lat": 0.0, "name": "28450446eb293f9ef71bcf15b5627928", "is_reserved": 0, "rental_uris": {"android": "https://dc.lft.to/lastmile_qr_scan", "ios": "https://dc.lft.to/lastmile_qr_scan"}, "fusion_lon": 0.0}, {"lat": 38.90793716666667, "is_disabled": 0, "type": "electric_scooter", "lon": -77.01105416666667, "bike_id": "abdcbeb86ee51e28bcee032341a1663c", "fusion_lat": 0.0, "name": "abdcbeb86ee51e28bcee032341a1663c", "is_reserved": 0, "rental_uris": {"android": "https://dc.lft.to/lastmile_qr_scan", "ios": "https://dc.lft.to/lastmile_qr_scan"}, "fusion_lon": 0.0}, {"lat": 38.8531695, "is_disabled": 0, "type": "electric_scooter", "lon": -76.9801935, "bike_id": "7d5c1005667473e61b3125a009deb378", "fusion_lat": 0.0, "name": "7d5c1005667473e61b3125a009deb378", "is_reserved": 0, "rental_uris": {"android": "https://dc.lft.to/lastmile_qr_scan", "ios": "https://dc.lft.to/lastmile_qr_scan"}, "fusion_lon": 0.0}, {"lat": 38.93861616666667, "is_disabled": 0, "type": "electric_scooter", "lon": -77.03204016666666, "bike_id": "efb7ee76171d87a56bc59e0e35c1b53d", "fusion_lat": 0.0, "name": "efb7ee76171d87a56bc59e0e35c1b53d", "is_reserved": 0, "rental_uris": {"android": "https://dc.lft.to/lastmile_qr_scan", "ios": "https://dc.lft.to/lastmile_qr_scan"}, "fusion_lon": 0.0}, {"lat": 38.962064833333336, "is_disabled": 0, "type": "electric_bike", "lon": -77.03515633333333, "bike_id": "fc5b6f924304158a4e162e2432ebfb73", "fusion_lat": 0.0, "name": "fc5b6f924304158a4e162e2432ebfb73", "is_reserved": 0, "rental_uris": {"android": "https://dc.lft.to/lastmile_qr_scan", "ios": "https://dc.lft.to/lastmile_qr_scan"}, "fusion_lon": 0.0}, {"lat": 38.8922405, "is_disabled": 0, "type": "electric_scooter", "lon": -77.04868533333334, "bike_id": "41332c928737f5516f85c286f98d6035", "fusion_lat": 0.0, "name": "41332c928737f5516f85c286f98d6035", "is_reserved": 0, "rental_uris": {"android": "https://dc.lft.to/lastmile_qr_scan", "ios": "https://dc.lft.to/lastmile_qr_scan"}, "fusion_lon": 0.0}, {"lat": 38.949157166666666, "is_disabled": 0, "type": "electric_scooter", "lon": -77.06617783333333, "bike_id": "8457e048e62115f787ebd95c97a591a4", "fusion_lat": 0.0, "name": "8457e048e62115f787ebd95c97a591a4", "is_reserved": 0, "rental_uris": {"android": "https://dc.lft.to/lastmile_qr_scan", "ios": "https://dc.lft.to/lastmile_qr_scan"}, "fusion_lon": 0.0}, {"lat": 38.914192166666666, "is_disabled": 0, "type": "electric_scooter", "lon": -77.03811966666666, "bike_id": "c071d85796d79135283111c95e96f5d5", "fusion_lat": 0.0, "name": "c071d85796d79135283111c95e96f5d5", "is_reserved": 0, "rental_uris": {"android": "https://dc.lft.to/lastmile_qr_scan", "ios": "https://dc.lft.to/lastmile_qr_scan"}, "fusion_lon": 0.0}, {"lat": 38.895945166666664, "is_disabled": 0, "type": "electric_bike", "lon": -77.12694033333334, "bike_id": "58c968bb1b34bf73da1628496a474bca", "fusion_lat": 0.0, "name": "58c968bb1b34bf73da1628496a474bca", "is_reserved": 0, "rental_uris": {"android": "https://dc.lft.to/lastmile_qr_scan", "ios": "https://dc.lft.to/lastmile_qr_scan"}, "fusion_lon": 0.0}, {"lat": 38.914248, "is_disabled": 0, "type": "electric_scooter", "lon": -77.03188416666667, "bike_id": "217fc429278a74e5b77fa0d9d2becbd7", "fusion_lat": 0.0, "name": "217fc429278a74e5b77fa0d9d2becbd7", "is_reserved": 0, "rental_uris": {"android": "https://dc.lft.to/lastmile_qr_scan", "ios": "https://dc.lft.to/lastmile_qr_scan"}, "fusion_lon": 0.0}, {"lat": 38.9136585, "is_disabled": 0, "type": "electric_scooter", "lon": -77.06842383333333, "bike_id": "50516f6c491985a7f679f76a6e0fb24b", "fusion_lat": 0.0, "name": "50516f6c491985a7f679f76a6e0fb24b", "is_reserved": 0, "rental_uris": {"android": "https://dc.lft.to/lastmile_qr_scan", "ios": "https://dc.lft.to/lastmile_qr_scan"}, "fusion_lon": 0.0}, {"lat": 38.927734, "is_disabled": 0, "type": "electric_scooter", "lon": -77.0278645, "bike_id": "c6def1b607b13303fb2720872a38906e", "fusion_lat": 0.0, "name": "c6def1b607b13303fb2720872a38906e", "is_reserved": 0, "rental_uris": {"android": "https://dc.lft.to/lastmile_qr_scan", "ios": "https://dc.lft.to/lastmile_qr_scan"}, "fusion_lon": 0.0}, {"lat": 38.91006333333333, "is_disabled": 0, "type": "electric_scooter", "lon": -77.04424916666666, "bike_id": "b33a0448ce0c1b162a7ffac8d3b7e5a6", "fusion_lat": 0.0, "name": "b33a0448ce0c1b162a7ffac8d3b7e5a6", "is_reserved": 0, "rental_uris": {"android": "https://dc.lft.to/lastmile_qr_scan", "ios": "https://dc.lft.to/lastmile_qr_scan"}, "fusion_lon": 0.0}, {"lat": 38.910146, "is_disabled": 0, "type": "electric_scooter", "lon": -77.0444345, "bike_id": "e309b59ea6e85af29c45a668d1924a87", "fusion_lat": 0.0, "name": "e309b59ea6e85af29c45a668d1924a87", "is_reserved": 0, "rental_uris": {"android": "https://dc.lft.to/lastmile_qr_scan", "ios": "https://dc.lft.to/lastmile_qr_scan"}, "fusion_lon": 0.0}, {"lat": 38.906643333333335, "is_disabled": 0, "type": "electric_scooter", "lon": -77.038622, "bike_id": "d705751e55e944c8419572bf1138f7a5", "fusion_lat": 0.0, "name": "d705751e55e944c8419572bf1138f7a5", "is_reserved": 0, "rental_uris": {"android": "https://dc.lft.to/lastmile_qr_scan", "ios": "https://dc.lft.to/lastmile_qr_scan"}, "fusion_lon": 0.0}, {"lat": 38.90765233333333, "is_disabled": 0, "type": "electric_scooter", "lon": -77.060711, "bike_id": "9869b2abea224c4f022352cd32b26746", "fusion_lat": 0.0, "name": "9869b2abea224c4f022352cd32b26746", "is_reserved": 0, "rental_uris": {"android": "https://dc.lft.to/lastmile_qr_scan", "ios": "https://dc.lft.to/lastmile_qr_scan"}, "fusion_lon": 0.0}, {"lat": 38.93358683333334, "is_disabled": 0, "type": "electric_bike", "lon": -77.099621, "bike_id": "80999d54c18b5b5e20f7641962bfa664", "fusion_lat": 0.0, "name": "80999d54c18b5b5e20f7641962bfa664", "is_reserved": 0, "rental_uris": {"android": "https://dc.lft.to/lastmile_qr_scan", "ios": "https://dc.lft.to/lastmile_qr_scan"}, "fusion_lon": 0.0}, {"lat": 38.9320975, "is_disabled": 0, "type": "electric_scooter", "lon": -76.9777045, "bike_id": "30cbdb4893e681a2b379f35496a8229a", "fusion_lat": 0.0, "name": "30cbdb4893e681a2b379f35496a8229a", "is_reserved": 0, "rental_uris": {"android": "https://dc.lft.to/lastmile_qr_scan", "ios": "https://dc.lft.to/lastmile_qr_scan"}, "fusion_lon": 0.0}, {"lat": 38.865227833333336, "is_disabled": 0, "type": "electric_scooter", "lon": -76.99031116666667, "bike_id": "4b6ef7f7cdf38760ec02f357880a4980", "fusion_lat": 0.0, "name": "4b6ef7f7cdf38760ec02f357880a4980", "is_reserved": 0, "rental_uris": {"android": "https://dc.lft.to/lastmile_qr_scan", "ios": "https://dc.lft.to/lastmile_qr_scan"}, "fusion_lon": 0.0}, {"lat": 38.8990125, "is_disabled": 0, "type": "electric_scooter", "lon": -76.93356333333334, "bike_id": "eac704387b8d18acd7fd52558e6b2eeb", "fusion_lat": 0.0, "name": "eac704387b8d18acd7fd52558e6b2eeb", "is_reserved": 0, "rental_uris": {"android": "https://dc.lft.to/lastmile_qr_scan", "ios": "https://dc.lft.to/lastmile_qr_scan"}, "fusion_lon": 0.0}, {"lat": 38.9305915, "is_disabled": 0, "type": "electric_scooter", "lon": -77.04183066666667, "bike_id": "bedd200c827bf1385e57f6a1d325bf7f", "fusion_lat": 0.0, "name": "bedd200c827bf1385e57f6a1d325bf7f", "is_reserved": 0, "rental_uris": {"android": "https://dc.lft.to/lastmile_qr_scan", "ios": "https://dc.lft.to/lastmile_qr_scan"}, "fusion_lon": 0.0}, {"lat": 38.908578, "is_disabled": 0, "type": "electric_scooter", "lon": -76.99161133333334, "bike_id": "541fb02d62c8296ee46fe5a3ce9abf69", "fusion_lat": 0.0, "name": "541fb02d62c8296ee46fe5a3ce9abf69", "is_reserved": 0, "rental_uris": {"android": "https://dc.lft.to/lastmile_qr_scan", "ios": "https://dc.lft.to/lastmile_qr_scan"}, "fusion_lon": 0.0}, {"lat": 38.901186, "is_disabled": 0, "type": "electric_scooter", "lon": -77.04991833333334, "bike_id": "175b51369c786753bd4d4d1634ee1a82", "fusion_lat": 0.0, "name": "175b51369c786753bd4d4d1634ee1a82", "is_reserved": 0, "rental_uris": {"android": "https://dc.lft.to/lastmile_qr_scan", "ios": "https://dc.lft.to/lastmile_qr_scan"}, "fusion_lon": 0.0}, {"lat": 38.900438333333334, "is_disabled": 0, "type": "electric_scooter", "lon": -76.99376533333333, "bike_id": "d53dd1da2c40ea79268d7befcb3720d9", "fusion_lat": 0.0, "name": "d53dd1da2c40ea79268d7befcb3720d9", "is_reserved": 0, "rental_uris": {"android": "https://dc.lft.to/lastmile_qr_scan", "ios": "https://dc.lft.to/lastmile_qr_scan"}, "fusion_lon": 0.0}, {"lat": 38.906202666666665, "is_disabled": 0, "type": "electric_scooter", "lon": -76.98985683333333, "bike_id": "1d768446f31887b584f269cfafb39699", "fusion_lat": 0.0, "name": "1d768446f31887b584f269cfafb39699", "is_reserved": 0, "rental_uris": {"android": "https://dc.lft.to/lastmile_qr_scan", "ios": "https://dc.lft.to/lastmile_qr_scan"}, "fusion_lon": 0.0}, {"lat": 38.92746833333333, "is_disabled": 0, "type": "electric_scooter", "lon": -77.02536133333334, "bike_id": "ac0dfde7af1d69bc63644cf968e3eb10", "fusion_lat": 0.0, "name": "ac0dfde7af1d69bc63644cf968e3eb10", "is_reserved": 0, "rental_uris": {"android": "https://dc.lft.to/lastmile_qr_scan", "ios": "https://dc.lft.to/lastmile_qr_scan"}, "fusion_lon": 0.0}, {"lat": 38.96175383333333, "is_disabled": 0, "type": "electric_bike", "lon": -77.0738345, "bike_id": "db478705b205127981e0ce55660e30db", "fusion_lat": 0.0, "name": "db478705b205127981e0ce55660e30db", "is_reserved": 0, "rental_uris": {"android": "https://dc.lft.to/lastmile_qr_scan", "ios": "https://dc.lft.to/lastmile_qr_scan"}, "fusion_lon": 0.0}, {"lat": 38.85906116666666, "is_disabled": 0, "type": "electric_scooter", "lon": -76.99151316666666, "bike_id": "ed06d3901498a94029d4ddee156cbef6", "fusion_lat": 0.0, "name": "ed06d3901498a94029d4ddee156cbef6", "is_reserved": 0, "rental_uris": {"android": "https://dc.lft.to/lastmile_qr_scan", "ios": "https://dc.lft.to/lastmile_qr_scan"}, "fusion_lon": 0.0}, {"lat": 38.8914125, "is_disabled": 0, "type": "electric_scooter", "lon": -76.94385066666666, "bike_id": "ead284c5018d93c282b9802c5dd45045", "fusion_lat": 0.0, "name": "ead284c5018d93c282b9802c5dd45045", "is_reserved": 0, "rental_uris": {"android": "https://dc.lft.to/lastmile_qr_scan", "ios": "https://dc.lft.to/lastmile_qr_scan"}, "fusion_lon": 0.0}, {"lat": 38.89520183333333, "is_disabled": 0, "type": "electric_scooter", "lon": -77.0281975, "bike_id": "dcbc0ce983a4a43afe532f5b1ac9c1b8", "fusion_lat": 0.0, "name": "dcbc0ce983a4a43afe532f5b1ac9c1b8", "is_reserved": 0, "rental_uris": {"android": "https://dc.lft.to/lastmile_qr_scan", "ios": "https://dc.lft.to/lastmile_qr_scan"}, "fusion_lon": 0.0}, {"lat": 38.91103616666667, "is_disabled": 0, "type": "electric_scooter", "lon": -77.042246, "bike_id": "914f4818c88b85be6695b4a8035529e9", "fusion_lat": 0.0, "name": "914f4818c88b85be6695b4a8035529e9", "is_reserved": 0, "rental_uris": {"android": "https://dc.lft.to/lastmile_qr_scan", "ios": "https://dc.lft.to/lastmile_qr_scan"}, "fusion_lon": 0.0}, {"lat": 38.947408333333335, "is_disabled": 0, "type": "electric_scooter", "lon": -77.06531766666667, "bike_id": "b7a749c9afbe01a67befd1c978901036", "fusion_lat": 0.0, "name": "b7a749c9afbe01a67befd1c978901036", "is_reserved": 0, "rental_uris": {"android": "https://dc.lft.to/lastmile_qr_scan", "ios": "https://dc.lft.to/lastmile_qr_scan"}, "fusion_lon": 0.0}, {"lat": 38.866518666666664, "is_disabled": 0, "type": "electric_scooter", "lon": -76.9888575, "bike_id": "2368bc672800ea115f0af1c932dd3050", "fusion_lat": 0.0, "name": "2368bc672800ea115f0af1c932dd3050", "is_reserved": 0, "rental_uris": {"android": "https://dc.lft.to/lastmile_qr_scan", "ios": "https://dc.lft.to/lastmile_qr_scan"}, "fusion_lon": 0.0}, {"lat": 38.90050016666667, "is_disabled": 0, "type": "electric_scooter", "lon": -76.99729983333333, "bike_id": "fc20ab04774ce88c71113d9a41ebc84e", "fusion_lat": 0.0, "name": "fc20ab04774ce88c71113d9a41ebc84e", "is_reserved": 0, "rental_uris": {"android": "https://dc.lft.to/lastmile_qr_scan", "ios": "https://dc.lft.to/lastmile_qr_scan"}, "fusion_lon": 0.0}, {"lat": 38.933175, "is_disabled": 0, "type": "electric_scooter", "lon": -77.04527733333333, "bike_id": "c7706db07b79a4510b7e833c68be9bcc", "fusion_lat": 0.0, "name": "c7706db07b79a4510b7e833c68be9bcc", "is_reserved": 0, "rental_uris": {"android": "https://dc.lft.to/lastmile_qr_scan", "ios": "https://dc.lft.to/lastmile_qr_scan"}, "fusion_lon": 0.0}, {"lat": 38.948927166666664, "is_disabled": 0, "type": "electric_scooter", "lon": -77.03047616666667, "bike_id": "be2e3a92fa708abd1fd8ff7a201db6f0", "fusion_lat": 0.0, "name": "be2e3a92fa708abd1fd8ff7a201db6f0", "is_reserved": 0, "rental_uris": {"android": "https://dc.lft.to/lastmile_qr_scan", "ios": "https://dc.lft.to/lastmile_qr_scan"}, "fusion_lon": 0.0}, {"lat": 38.972348333333336, "is_disabled": 0, "type": "electric_bike", "lon": -76.99342866666667, "bike_id": "66812c94997aa79e06f1b60f59e04802", "fusion_lat": 0.0, "name": "66812c94997aa79e06f1b60f59e04802", "is_reserved": 0, "rental_uris": {"android": "https://dc.lft.to/lastmile_qr_scan", "ios": "https://dc.lft.to/lastmile_qr_scan"}, "fusion_lon": 0.0}, {"lat": 38.90180633333333, "is_disabled": 0, "type": "electric_scooter", "lon": -77.02018966666667, "bike_id": "14327b67b6c15256ef8cd944da71ddf1", "fusion_lat": 0.0, "name": "14327b67b6c15256ef8cd944da71ddf1", "is_reserved": 0, "rental_uris": {"android": "https://dc.lft.to/lastmile_qr_scan", "ios": "https://dc.lft.to/lastmile_qr_scan"}, "fusion_lon": 0.0}, {"lat": 38.92240016666667, "is_disabled": 0, "type": "electric_scooter", "lon": -77.04575066666666, "bike_id": "a703c706e82e047149edaeed5f6c8798", "fusion_lat": 0.0, "name": "a703c706e82e047149edaeed5f6c8798", "is_reserved": 0, "rental_uris": {"android": "https://dc.lft.to/lastmile_qr_scan", "ios": "https://dc.lft.to/lastmile_qr_scan"}, "fusion_lon": 0.0}, {"lat": 38.903266, "is_disabled": 0, "type": "electric_scooter", "lon": -77.03780866666666, "bike_id": "3274241a389a3ebce0dfc749f55c295e", "fusion_lat": 0.0, "name": "3274241a389a3ebce0dfc749f55c295e", "is_reserved": 0, "rental_uris": {"android": "https://dc.lft.to/lastmile_qr_scan", "ios": "https://dc.lft.to/lastmile_qr_scan"}, "fusion_lon": 0.0}, {"lat": 38.90262466666667, "is_disabled": 0, "type": "electric_scooter", "lon": -77.01858583333333, "bike_id": "fa0d8548671dbd626c816b878aff7b6e", "fusion_lat": 0.0, "name": "fa0d8548671dbd626c816b878aff7b6e", "is_reserved": 0, "rental_uris": {"android": "https://dc.lft.to/lastmile_qr_scan", "ios": "https://dc.lft.to/lastmile_qr_scan"}, "fusion_lon": 0.0}, {"lat": 38.89549983333333, "is_disabled": 0, "type": "electric_scooter", "lon": -77.00441183333334, "bike_id": "6fe18766409fb369d772984ed382c2c0", "fusion_lat": 0.0, "name": "6fe18766409fb369d772984ed382c2c0", "is_reserved": 0, "rental_uris": {"android": "https://dc.lft.to/lastmile_qr_scan", "ios": "https://dc.lft.to/lastmile_qr_scan"}, "fusion_lon": 0.0}, {"lat": 38.856798833333336, "is_disabled": 0, "type": "electric_scooter", "lon": -76.981799, "bike_id": "321e9b564e5c05a94c0e0a0a0ab19e7f", "fusion_lat": 0.0, "name": "321e9b564e5c05a94c0e0a0a0ab19e7f", "is_reserved": 0, "rental_uris": {"android": "https://dc.lft.to/lastmile_qr_scan", "ios": "https://dc.lft.to/lastmile_qr_scan"}, "fusion_lon": 0.0}, {"lat": 38.90153083333333, "is_disabled": 0, "type": "electric_scooter", "lon": -77.02936716666666, "bike_id": "0af7f8a8d9b3a520d72b22b602b943e3", "fusion_lat": 0.0, "name": "0af7f8a8d9b3a520d72b22b602b943e3", "is_reserved": 0, "rental_uris": {"android": "https://dc.lft.to/lastmile_qr_scan", "ios": "https://dc.lft.to/lastmile_qr_scan"}, "fusion_lon": 0.0}, {"lat": 38.89615883333333, "is_disabled": 0, "type": "electric_scooter", "lon": -77.02144083333333, "bike_id": "c51f180f2cd5abba44405483b99cf9a3", "fusion_lat": 0.0, "name": "c51f180f2cd5abba44405483b99cf9a3", "is_reserved": 0, "rental_uris": {"android": "https://dc.lft.to/lastmile_qr_scan", "ios": "https://dc.lft.to/lastmile_qr_scan"}, "fusion_lon": 0.0}, {"lat": 38.86511933333333, "is_disabled": 0, "type": "electric_scooter", "lon": -76.9900765, "bike_id": "4f0ebc34492fde4d5781345e947e2af5", "fusion_lat": 0.0, "name": "4f0ebc34492fde4d5781345e947e2af5", "is_reserved": 0, "rental_uris": {"android": "https://dc.lft.to/lastmile_qr_scan", "ios": "https://dc.lft.to/lastmile_qr_scan"}, "fusion_lon": 0.0}, {"lat": 38.917868166666665, "is_disabled": 0, "type": "electric_scooter", "lon": -77.02315466666667, "bike_id": "dc8ee96dabdf0f961036e7beb5bfcb6c", "fusion_lat": 0.0, "name": "dc8ee96dabdf0f961036e7beb5bfcb6c", "is_reserved": 0, "rental_uris": {"android": "https://dc.lft.to/lastmile_qr_scan", "ios": "https://dc.lft.to/lastmile_qr_scan"}, "fusion_lon": 0.0}, {"lat": 38.90313316666666, "is_disabled": 0, "type": "electric_scooter", "lon": -77.02888616666667, "bike_id": "bbdd68d8a8df560c708708c06445e8b2", "fusion_lat": 0.0, "name": "bbdd68d8a8df560c708708c06445e8b2", "is_reserved": 0, "rental_uris": {"android": "https://dc.lft.to/lastmile_qr_scan", "ios": "https://dc.lft.to/lastmile_qr_scan"}, "fusion_lon": 0.0}, {"lat": 38.8427365, "is_disabled": 0, "type": "electric_bike", "lon": -76.988441, "bike_id": "e832b28254414208ba6c12c6896ef70a", "fusion_lat": 0.0, "name": "e832b28254414208ba6c12c6896ef70a", "is_reserved": 0, "rental_uris": {"android": "https://dc.lft.to/lastmile_qr_scan", "ios": "https://dc.lft.to/lastmile_qr_scan"}, "fusion_lon": 0.0}, {"lat": 38.92656683333333, "is_disabled": 0, "type": "electric_scooter", "lon": -76.99752416666666, "bike_id": "373f5341e7aa98c23620e8c3e07e048b", "fusion_lat": 0.0, "name": "373f5341e7aa98c23620e8c3e07e048b", "is_reserved": 0, "rental_uris": {"android": "https://dc.lft.to/lastmile_qr_scan", "ios": "https://dc.lft.to/lastmile_qr_scan"}, "fusion_lon": 0.0}, {"lat": 38.8849025, "is_disabled": 0, "type": "electric_scooter", "lon": -77.03478116666666, "bike_id": "4698eb8cfe87ff5d4421c03e71397587", "fusion_lat": 0.0, "name": "4698eb8cfe87ff5d4421c03e71397587", "is_reserved": 0, "rental_uris": {"android": "https://dc.lft.to/lastmile_qr_scan", "ios": "https://dc.lft.to/lastmile_qr_scan"}, "fusion_lon": 0.0}, {"lat": 38.9341035, "is_disabled": 0, "type": "electric_scooter", "lon": -77.02462666666666, "bike_id": "a814a90c2b8fb77ad22b8d7f75d6e726", "fusion_lat": 0.0, "name": "a814a90c2b8fb77ad22b8d7f75d6e726", "is_reserved": 0, "rental_uris": {"android": "https://dc.lft.to/lastmile_qr_scan", "ios": "https://dc.lft.to/lastmile_qr_scan"}, "fusion_lon": 0.0}, {"lat": 38.83730083333333, "is_disabled": 0, "type": "electric_bike", "lon": -76.9976785, "bike_id": "2d013ac7637874294bca1ac5ed6b59f9", "fusion_lat": 0.0, "name": "2d013ac7637874294bca1ac5ed6b59f9", "is_reserved": 0, "rental_uris": {"android": "https://dc.lft.to/lastmile_qr_scan", "ios": "https://dc.lft.to/lastmile_qr_scan"}, "fusion_lon": 0.0}, {"lat": 38.92507033333333, "is_disabled": 0, "type": "electric_scooter", "lon": -77.07648116666667, "bike_id": "5695692ee5d09f240b90cb99a71f3169", "fusion_lat": 0.0, "name": "5695692ee5d09f240b90cb99a71f3169", "is_reserved": 0, "rental_uris": {"android": "https://dc.lft.to/lastmile_qr_scan", "ios": "https://dc.lft.to/lastmile_qr_scan"}, "fusion_lon": 0.0}, {"lat": 38.936183, "is_disabled": 0, "type": "electric_scooter", "lon": -77.05750533333334, "bike_id": "7bf50205986fbff68366deec9da817ed", "fusion_lat": 0.0, "name": "7bf50205986fbff68366deec9da817ed", "is_reserved": 0, "rental_uris": {"android": "https://dc.lft.to/lastmile_qr_scan", "ios": "https://dc.lft.to/lastmile_qr_scan"}, "fusion_lon": 0.0}, {"lat": 38.90246233333333, "is_disabled": 0, "type": "electric_scooter", "lon": -77.01753116666667, "bike_id": "d8322d73d0d8e806eb8b99a2de3049d0", "fusion_lat": 0.0, "name": "d8322d73d0d8e806eb8b99a2de3049d0", "is_reserved": 0, "rental_uris": {"android": "https://dc.lft.to/lastmile_qr_scan", "ios": "https://dc.lft.to/lastmile_qr_scan"}, "fusion_lon": 0.0}, {"lat": 38.8670165, "is_disabled": 0, "type": "electric_scooter", "lon": -76.9871035, "bike_id": "5d412ca0fb0a35c854e2036c61068345", "fusion_lat": 0.0, "name": "5d412ca0fb0a35c854e2036c61068345", "is_reserved": 0, "rental_uris": {"android": "https://dc.lft.to/lastmile_qr_scan", "ios": "https://dc.lft.to/lastmile_qr_scan"}, "fusion_lon": 0.0}, {"lat": 38.906117333333334, "is_disabled": 0, "type": "electric_bike", "lon": -77.0638295, "bike_id": "2883d726e6bfafc45c235c2afcf5f12d", "fusion_lat": 0.0, "name": "2883d726e6bfafc45c235c2afcf5f12d", "is_reserved": 0, "rental_uris": {"android": "https://dc.lft.to/lastmile_qr_scan", "ios": "https://dc.lft.to/lastmile_qr_scan"}, "fusion_lon": 0.0}, {"lat": 38.90265566666667, "is_disabled": 0, "type": "electric_scooter", "lon": -77.01853316666667, "bike_id": "f544832caa83aeb275fcaeb81138f805", "fusion_lat": 0.0, "name": "f544832caa83aeb275fcaeb81138f805", "is_reserved": 0, "rental_uris": {"android": "https://dc.lft.to/lastmile_qr_scan", "ios": "https://dc.lft.to/lastmile_qr_scan"}, "fusion_lon": 0.0}, {"lat": 38.90264483333333, "is_disabled": 0, "type": "electric_scooter", "lon": -77.002114, "bike_id": "643a1cc6b8f3a53e2f1142186453232a", "fusion_lat": 0.0, "name": "643a1cc6b8f3a53e2f1142186453232a", "is_reserved": 0, "rental_uris": {"android": "https://dc.lft.to/lastmile_qr_scan", "ios": "https://dc.lft.to/lastmile_qr_scan"}, "fusion_lon": 0.0}, {"lat": 38.93250583333333, "is_disabled": 0, "type": "electric_scooter", "lon": -77.06654533333334, "bike_id": "8c848163989745710dd3d93f3c2bec36", "fusion_lat": 0.0, "name": "8c848163989745710dd3d93f3c2bec36", "is_reserved": 0, "rental_uris": {"android": "https://dc.lft.to/lastmile_qr_scan", "ios": "https://dc.lft.to/lastmile_qr_scan"}, "fusion_lon": 0.0}, {"lat": 38.87991133333333, "is_disabled": 0, "type": "electric_scooter", "lon": -76.98679283333334, "bike_id": "6a3ce1c5213005c728eb17793f5d2325", "fusion_lat": 0.0, "name": "6a3ce1c5213005c728eb17793f5d2325", "is_reserved": 0, "rental_uris": {"android": "https://dc.lft.to/lastmile_qr_scan", "ios": "https://dc.lft.to/lastmile_qr_scan"}, "fusion_lon": 0.0}, {"lat": 38.89844683333333, "is_disabled": 0, "type": "electric_scooter", "lon": -76.94464666666667, "bike_id": "966a141d01906b02069e3a58b1da751f", "fusion_lat": 0.0, "name": "966a141d01906b02069e3a58b1da751f", "is_reserved": 0, "rental_uris": {"android": "https://dc.lft.to/lastmile_qr_scan", "ios": "https://dc.lft.to/lastmile_qr_scan"}, "fusion_lon": 0.0}, {"lat": 38.915843333333335, "is_disabled": 0, "type": "electric_scooter", "lon": -77.04685416666666, "bike_id": "48c4879e91f089dd2bc6a9fa03a80429", "fusion_lat": 0.0, "name": "48c4879e91f089dd2bc6a9fa03a80429", "is_reserved": 0, "rental_uris": {"android": "https://dc.lft.to/lastmile_qr_scan", "ios": "https://dc.lft.to/lastmile_qr_scan"}, "fusion_lon": 0.0}, {"lat": 38.92455433333333, "is_disabled": 0, "type": "electric_scooter", "lon": -77.03971116666666, "bike_id": "4d52f7883fcd9880455838843046be26", "fusion_lat": 0.0, "name": "4d52f7883fcd9880455838843046be26", "is_reserved": 0, "rental_uris": {"android": "https://dc.lft.to/lastmile_qr_scan", "ios": "https://dc.lft.to/lastmile_qr_scan"}, "fusion_lon": 0.0}, {"lat": 38.914618833333336, "is_disabled": 0, "type": "electric_scooter", "lon": -77.00213383333333, "bike_id": "7e7cf53de1168c3db6c92828d0e62d38", "fusion_lat": 0.0, "name": "7e7cf53de1168c3db6c92828d0e62d38", "is_reserved": 0, "rental_uris": {"android": "https://dc.lft.to/lastmile_qr_scan", "ios": "https://dc.lft.to/lastmile_qr_scan"}, "fusion_lon": 0.0}, {"lat": 38.92116, "is_disabled": 0, "type": "electric_bike", "lon": -77.048316, "bike_id": "03bffe0d8ff4f36bd43420b9d0531a2e", "fusion_lat": 0.0, "name": "03bffe0d8ff4f36bd43420b9d0531a2e", "is_reserved": 0, "rental_uris": {"android": "https://dc.lft.to/lastmile_qr_scan", "ios": "https://dc.lft.to/lastmile_qr_scan"}, "fusion_lon": 0.0}, {"lat": 39.075044, "is_disabled": 0, "type": "electric_bike", "lon": -77.118981, "bike_id": "2c7506dfa513a778c0fabd9d0b07ef16", "fusion_lat": 0.0, "name": "2c7506dfa513a778c0fabd9d0b07ef16", "is_reserved": 0, "rental_uris": {"android": "https://dc.lft.to/lastmile_qr_scan", "ios": "https://dc.lft.to/lastmile_qr_scan"}, "fusion_lon": 0.0}, {"lat": 38.92109133333334, "is_disabled": 0, "type": "electric_scooter", "lon": -77.045696, "bike_id": "4b7ba5c538938df731e91ae20e10057c", "fusion_lat": 0.0, "name": "4b7ba5c538938df731e91ae20e10057c", "is_reserved": 0, "rental_uris": {"android": "https://dc.lft.to/lastmile_qr_scan", "ios": "https://dc.lft.to/lastmile_qr_scan"}, "fusion_lon": 0.0}, {"lat": 38.876759666666665, "is_disabled": 0, "type": "electric_scooter", "lon": -77.00014166666666, "bike_id": "dad83f1980345c2a74a1aa626a6e7951", "fusion_lat": 0.0, "name": "dad83f1980345c2a74a1aa626a6e7951", "is_reserved": 0, "rental_uris": {"android": "https://dc.lft.to/lastmile_qr_scan", "ios": "https://dc.lft.to/lastmile_qr_scan"}, "fusion_lon": 0.0}, {"lat": 38.915678666666665, "is_disabled": 0, "type": "electric_scooter", "lon": -77.03845233333334, "bike_id": "115d5710cb443d9307a141f6985128d4", "fusion_lat": 0.0, "name": "115d5710cb443d9307a141f6985128d4", "is_reserved": 0, "rental_uris": {"android": "https://dc.lft.to/lastmile_qr_scan", "ios": "https://dc.lft.to/lastmile_qr_scan"}, "fusion_lon": 0.0}, {"lat": 38.91200766666667, "is_disabled": 0, "type": "electric_scooter", "lon": -77.0146415, "bike_id": "249e73266a01f95b1d391c9166281f16", "fusion_lat": 0.0, "name": "249e73266a01f95b1d391c9166281f16", "is_reserved": 0, "rental_uris": {"android": "https://dc.lft.to/lastmile_qr_scan", "ios": "https://dc.lft.to/lastmile_qr_scan"}, "fusion_lon": 0.0}, {"lat": 38.9097545, "is_disabled": 0, "type": "electric_scooter", "lon": -77.03864883333334, "bike_id": "9cfa1f2d824e0a8ce1f579e25d9fe75f", "fusion_lat": 0.0, "name": "9cfa1f2d824e0a8ce1f579e25d9fe75f", "is_reserved": 0, "rental_uris": {"android": "https://dc.lft.to/lastmile_qr_scan", "ios": "https://dc.lft.to/lastmile_qr_scan"}, "fusion_lon": 0.0}, {"lat": 38.911940666666666, "is_disabled": 0, "type": "electric_scooter", "lon": -77.034283, "bike_id": "8f95ce4565d03b20b9f2951a28b28701", "fusion_lat": 0.0, "name": "8f95ce4565d03b20b9f2951a28b28701", "is_reserved": 0, "rental_uris": {"android": "https://dc.lft.to/lastmile_qr_scan", "ios": "https://dc.lft.to/lastmile_qr_scan"}, "fusion_lon": 0.0}, {"lat": 38.95486533333333, "is_disabled": 0, "type": "electric_scooter", "lon": -77.065548, "bike_id": "b75c363fc37a1671f858cebf73548fa9", "fusion_lat": 0.0, "name": "b75c363fc37a1671f858cebf73548fa9", "is_reserved": 0, "rental_uris": {"android": "https://dc.lft.to/lastmile_qr_scan", "ios": "https://dc.lft.to/lastmile_qr_scan"}, "fusion_lon": 0.0}, {"lat": 38.9287435, "is_disabled": 0, "type": "electric_scooter", "lon": -77.03456266666667, "bike_id": "6ef78a9e92b6d019283b02031e3b6f81", "fusion_lat": 0.0, "name": "6ef78a9e92b6d019283b02031e3b6f81", "is_reserved": 0, "rental_uris": {"android": "https://dc.lft.to/lastmile_qr_scan", "ios": "https://dc.lft.to/lastmile_qr_scan"}, "fusion_lon": 0.0}, {"lat": 38.903831, "is_disabled": 0, "type": "electric_scooter", "lon": -77.0383435, "bike_id": "9a788542b90774c324cbed7a562c9f90", "fusion_lat": 0.0, "name": "9a788542b90774c324cbed7a562c9f90", "is_reserved": 0, "rental_uris": {"android": "https://dc.lft.to/lastmile_qr_scan", "ios": "https://dc.lft.to/lastmile_qr_scan"}, "fusion_lon": 0.0}, {"lat": 38.91690233333333, "is_disabled": 0, "type": "electric_scooter", "lon": -77.02958083333333, "bike_id": "148b3683febda300ab2fc6dd044e3c50", "fusion_lat": 0.0, "name": "148b3683febda300ab2fc6dd044e3c50", "is_reserved": 0, "rental_uris": {"android": "https://dc.lft.to/lastmile_qr_scan", "ios": "https://dc.lft.to/lastmile_qr_scan"}, "fusion_lon": 0.0}, {"lat": 38.91614166666667, "is_disabled": 0, "type": "electric_scooter", "lon": -77.03644216666666, "bike_id": "94724540e338f7d1d9a5938a7a1711bc", "fusion_lat": 0.0, "name": "94724540e338f7d1d9a5938a7a1711bc", "is_reserved": 0, "rental_uris": {"android": "https://dc.lft.to/lastmile_qr_scan", "ios": "https://dc.lft.to/lastmile_qr_scan"}, "fusion_lon": 0.0}, {"lat": 38.9071265, "is_disabled": 0, "type": "electric_scooter", "lon": -77.02394266666667, "bike_id": "febecf1de81f5fe5f30ed45d9123e0cc", "fusion_lat": 0.0, "name": "febecf1de81f5fe5f30ed45d9123e0cc", "is_reserved": 0, "rental_uris": {"android": "https://dc.lft.to/lastmile_qr_scan", "ios": "https://dc.lft.to/lastmile_qr_scan"}, "fusion_lon": 0.0}, {"lat": 38.91267283333333, "is_disabled": 0, "type": "electric_scooter", "lon": -77.0225365, "bike_id": "a461568773af5c8a336dc298d5819861", "fusion_lat": 0.0, "name": "a461568773af5c8a336dc298d5819861", "is_reserved": 0, "rental_uris": {"android": "https://dc.lft.to/lastmile_qr_scan", "ios": "https://dc.lft.to/lastmile_qr_scan"}, "fusion_lon": 0.0}, {"lat": 38.90522766666667, "is_disabled": 0, "type": "electric_scooter", "lon": -77.04869433333333, "bike_id": "22c5de3e54bd27083b49ca639ed721f4", "fusion_lat": 0.0, "name": "22c5de3e54bd27083b49ca639ed721f4", "is_reserved": 0, "rental_uris": {"android": "https://dc.lft.to/lastmile_qr_scan", "ios": "https://dc.lft.to/lastmile_qr_scan"}, "fusion_lon": 0.0}, {"lat": 38.900131333333334, "is_disabled": 0, "type": "electric_scooter", "lon": -77.01203066666666, "bike_id": "91fab679662c589bb06e1bc4ff31d1e1", "fusion_lat": 0.0, "name": "91fab679662c589bb06e1bc4ff31d1e1", "is_reserved": 0, "rental_uris": {"android": "https://dc.lft.to/lastmile_qr_scan", "ios": "https://dc.lft.to/lastmile_qr_scan"}, "fusion_lon": 0.0}, {"lat": 38.88475916666667, "is_disabled": 0, "type": "electric_scooter", "lon": -77.02402416666666, "bike_id": "38af971eb42ef0015156e66addccfc12", "fusion_lat": 0.0, "name": "38af971eb42ef0015156e66addccfc12", "is_reserved": 0, "rental_uris": {"android": "https://dc.lft.to/lastmile_qr_scan", "ios": "https://dc.lft.to/lastmile_qr_scan"}, "fusion_lon": 0.0}, {"lat": 38.865106, "is_disabled": 0, "type": "electric_scooter", "lon": -76.99007733333333, "bike_id": "eab9064374171b6fafcb96a1c91e54f0", "fusion_lat": 0.0, "name": "eab9064374171b6fafcb96a1c91e54f0", "is_reserved": 0, "rental_uris": {"android": "https://dc.lft.to/lastmile_qr_scan", "ios": "https://dc.lft.to/lastmile_qr_scan"}, "fusion_lon": 0.0}, {"lat": 38.90566716666667, "is_disabled": 0, "type": "electric_bike", "lon": -77.01311166666666, "bike_id": "08f7d9d479d51f89c43099f31fcaeeff", "fusion_lat": 0.0, "name": "08f7d9d479d51f89c43099f31fcaeeff", "is_reserved": 0, "rental_uris": {"android": "https://dc.lft.to/lastmile_qr_scan", "ios": "https://dc.lft.to/lastmile_qr_scan"}, "fusion_lon": 0.0}, {"lat": 38.867134166666666, "is_disabled": 0, "type": "electric_scooter", "lon": -76.98727833333334, "bike_id": "caf90d073f895d43fe90d45cd8f62b55", "fusion_lat": 0.0, "name": "caf90d073f895d43fe90d45cd8f62b55", "is_reserved": 0, "rental_uris": {"android": "https://dc.lft.to/lastmile_qr_scan", "ios": "https://dc.lft.to/lastmile_qr_scan"}, "fusion_lon": 0.0}, {"lat": 38.881191333333334, "is_disabled": 0, "type": "electric_scooter", "lon": -77.01646716666667, "bike_id": "752867049c1f01febd4563492e9b1336", "fusion_lat": 0.0, "name": "752867049c1f01febd4563492e9b1336", "is_reserved": 0, "rental_uris": {"android": "https://dc.lft.to/lastmile_qr_scan", "ios": "https://dc.lft.to/lastmile_qr_scan"}, "fusion_lon": 0.0}, {"lat": 38.93637866666667, "is_disabled": 0, "type": "electric_scooter", "lon": -77.02494583333333, "bike_id": "c140bd4979413f11869fbfcd57615b95", "fusion_lat": 0.0, "name": "c140bd4979413f11869fbfcd57615b95", "is_reserved": 0, "rental_uris": {"android": "https://dc.lft.to/lastmile_qr_scan", "ios": "https://dc.lft.to/lastmile_qr_scan"}, "fusion_lon": 0.0}, {"lat": 38.908038, "is_disabled": 0, "type": "electric_scooter", "lon": -77.0635735, "bike_id": "986866aae76a092c730753ea590b5bc5", "fusion_lat": 0.0, "name": "986866aae76a092c730753ea590b5bc5", "is_reserved": 0, "rental_uris": {"android": "https://dc.lft.to/lastmile_qr_scan", "ios": "https://dc.lft.to/lastmile_qr_scan"}, "fusion_lon": 0.0}, {"lat": 38.929551833333335, "is_disabled": 0, "type": "electric_scooter", "lon": -77.036212, "bike_id": "1af3006964cfb6d579f1fd1db81b19b6", "fusion_lat": 0.0, "name": "1af3006964cfb6d579f1fd1db81b19b6", "is_reserved": 0, "rental_uris": {"android": "https://dc.lft.to/lastmile_qr_scan", "ios": "https://dc.lft.to/lastmile_qr_scan"}, "fusion_lon": 0.0}, {"lat": 38.884883333333335, "is_disabled": 0, "type": "electric_scooter", "lon": -77.034774, "bike_id": "61ca3dfcafa5395386ffe98ee7df51b8", "fusion_lat": 0.0, "name": "61ca3dfcafa5395386ffe98ee7df51b8", "is_reserved": 0, "rental_uris": {"android": "https://dc.lft.to/lastmile_qr_scan", "ios": "https://dc.lft.to/lastmile_qr_scan"}, "fusion_lon": 0.0}, {"lat": 38.91488066666667, "is_disabled": 0, "type": "electric_scooter", "lon": -77.03263016666666, "bike_id": "ebf73dc8cea6b584c9521438e73d3c99", "fusion_lat": 0.0, "name": "ebf73dc8cea6b584c9521438e73d3c99", "is_reserved": 0, "rental_uris": {"android": "https://dc.lft.to/lastmile_qr_scan", "ios": "https://dc.lft.to/lastmile_qr_scan"}, "fusion_lon": 0.0}, {"lat": 38.92532633333333, "is_disabled": 0, "type": "electric_scooter", "lon": -77.04429683333333, "bike_id": "cb9cfda0e86e656fb20cbd7ca0c84d03", "fusion_lat": 0.0, "name": "cb9cfda0e86e656fb20cbd7ca0c84d03", "is_reserved": 0, "rental_uris": {"android": "https://dc.lft.to/lastmile_qr_scan", "ios": "https://dc.lft.to/lastmile_qr_scan"}, "fusion_lon": 0.0}, {"lat": 38.900397, "is_disabled": 0, "type": "electric_scooter", "lon": -76.99379916666666, "bike_id": "cf37e0c3ad74450fd2502896667433c4", "fusion_lat": 0.0, "name": "cf37e0c3ad74450fd2502896667433c4", "is_reserved": 0, "rental_uris": {"android": "https://dc.lft.to/lastmile_qr_scan", "ios": "https://dc.lft.to/lastmile_qr_scan"}, "fusion_lon": 0.0}, {"lat": 38.92259283333333, "is_disabled": 0, "type": "electric_scooter", "lon": -77.04300433333333, "bike_id": "70887e1b563b420cef3a1eb726ef5471", "fusion_lat": 0.0, "name": "70887e1b563b420cef3a1eb726ef5471", "is_reserved": 0, "rental_uris": {"android": "https://dc.lft.to/lastmile_qr_scan", "ios": "https://dc.lft.to/lastmile_qr_scan"}, "fusion_lon": 0.0}, {"lat": 38.903877, "is_disabled": 0, "type": "electric_scooter", "lon": -77.03830733333334, "bike_id": "a9b2f270255f9d6c7910a7d9cb6855d6", "fusion_lat": 0.0, "name": "a9b2f270255f9d6c7910a7d9cb6855d6", "is_reserved": 0, "rental_uris": {"android": "https://dc.lft.to/lastmile_qr_scan", "ios": "https://dc.lft.to/lastmile_qr_scan"}, "fusion_lon": 0.0}, {"lat": 38.928548, "is_disabled": 0, "type": "electric_bike", "lon": -77.10678333333334, "bike_id": "c753f87d97591267d2e8ab17aabf467a", "fusion_lat": 0.0, "name": "c753f87d97591267d2e8ab17aabf467a", "is_reserved": 0, "rental_uris": {"android": "https://dc.lft.to/lastmile_qr_scan", "ios": "https://dc.lft.to/lastmile_qr_scan"}, "fusion_lon": 0.0}, {"lat": 38.921878666666665, "is_disabled": 0, "type": "electric_scooter", "lon": -77.04132, "bike_id": "d601542182f28689c01e1babbe5d6e5b", "fusion_lat": 0.0, "name": "d601542182f28689c01e1babbe5d6e5b", "is_reserved": 0, "rental_uris": {"android": "https://dc.lft.to/lastmile_qr_scan", "ios": "https://dc.lft.to/lastmile_qr_scan"}, "fusion_lon": 0.0}, {"lat": 38.90268583333334, "is_disabled": 0, "type": "electric_scooter", "lon": -77.0021125, "bike_id": "d71162a8e5473e5e7c55c5cb7404de99", "fusion_lat": 0.0, "name": "d71162a8e5473e5e7c55c5cb7404de99", "is_reserved": 0, "rental_uris": {"android": "https://dc.lft.to/lastmile_qr_scan", "ios": "https://dc.lft.to/lastmile_qr_scan"}, "fusion_lon": 0.0}, {"lat": 38.88599116666666, "is_disabled": 0, "type": "electric_scooter", "lon": -77.02204816666666, "bike_id": "a1db26857ae1f7d2c31731dea2cece3c", "fusion_lat": 0.0, "name": "a1db26857ae1f7d2c31731dea2cece3c", "is_reserved": 0, "rental_uris": {"android": "https://dc.lft.to/lastmile_qr_scan", "ios": "https://dc.lft.to/lastmile_qr_scan"}, "fusion_lon": 0.0}, {"lat": 38.931702, "is_disabled": 0, "type": "electric_scooter", "lon": -77.0281815, "bike_id": "48cf88b0ac9703a48443ae3e3242ae1a", "fusion_lat": 0.0, "name": "48cf88b0ac9703a48443ae3e3242ae1a", "is_reserved": 0, "rental_uris": {"android": "https://dc.lft.to/lastmile_qr_scan", "ios": "https://dc.lft.to/lastmile_qr_scan"}, "fusion_lon": 0.0}, {"lat": 38.89043383333333, "is_disabled": 0, "type": "electric_scooter", "lon": -76.95140533333333, "bike_id": "3aa205b417cba069b023fc7b36aa758c", "fusion_lat": 0.0, "name": "3aa205b417cba069b023fc7b36aa758c", "is_reserved": 0, "rental_uris": {"android": "https://dc.lft.to/lastmile_qr_scan", "ios": "https://dc.lft.to/lastmile_qr_scan"}, "fusion_lon": 0.0}, {"lat": 38.90654283333333, "is_disabled": 0, "type": "electric_scooter", "lon": -77.02588983333334, "bike_id": "d2fdde45c617e60704ac0e3563aef8b8", "fusion_lat": 0.0, "name": "d2fdde45c617e60704ac0e3563aef8b8", "is_reserved": 0, "rental_uris": {"android": "https://dc.lft.to/lastmile_qr_scan", "ios": "https://dc.lft.to/lastmile_qr_scan"}, "fusion_lon": 0.0}, {"lat": 38.91611616666667, "is_disabled": 0, "type": "electric_scooter", "lon": -77.021312, "bike_id": "886cbd576f6cc32e40b01e645ff71240", "fusion_lat": 0.0, "name": "886cbd576f6cc32e40b01e645ff71240", "is_reserved": 0, "rental_uris": {"android": "https://dc.lft.to/lastmile_qr_scan", "ios": "https://dc.lft.to/lastmile_qr_scan"}, "fusion_lon": 0.0}, {"lat": 38.9178285, "is_disabled": 0, "type": "electric_scooter", "lon": -77.02314766666667, "bike_id": "09654830571a55b3924fdf58bad4da61", "fusion_lat": 0.0, "name": "09654830571a55b3924fdf58bad4da61", "is_reserved": 0, "rental_uris": {"android": "https://dc.lft.to/lastmile_qr_scan", "ios": "https://dc.lft.to/lastmile_qr_scan"}, "fusion_lon": 0.0}, {"lat": 38.840359, "is_disabled": 0, "type": "electric_bike", "lon": -76.97622666666666, "bike_id": "ee8f2a5f83bbdb3300f9e2a02a5904f6", "fusion_lat": 0.0, "name": "ee8f2a5f83bbdb3300f9e2a02a5904f6", "is_reserved": 0, "rental_uris": {"android": "https://dc.lft.to/lastmile_qr_scan", "ios": "https://dc.lft.to/lastmile_qr_scan"}, "fusion_lon": 0.0}, {"lat": 38.920078333333336, "is_disabled": 0, "type": "electric_scooter", "lon": -77.02059016666666, "bike_id": "2c70b6219ce38050c329853115584147", "fusion_lat": 0.0, "name": "2c70b6219ce38050c329853115584147", "is_reserved": 0, "rental_uris": {"android": "https://dc.lft.to/lastmile_qr_scan", "ios": "https://dc.lft.to/lastmile_qr_scan"}, "fusion_lon": 0.0}, {"lat": 38.90773933333333, "is_disabled": 0, "type": "electric_scooter", "lon": -77.04255983333333, "bike_id": "5e5629f34dc068babba72344295eea39", "fusion_lat": 0.0, "name": "5e5629f34dc068babba72344295eea39", "is_reserved": 0, "rental_uris": {"android": "https://dc.lft.to/lastmile_qr_scan", "ios": "https://dc.lft.to/lastmile_qr_scan"}, "fusion_lon": 0.0}, {"lat": 38.89719683333333, "is_disabled": 0, "type": "electric_scooter", "lon": -77.00800416666667, "bike_id": "6504b9d48b0cd65cf499664e1951ebb1", "fusion_lat": 0.0, "name": "6504b9d48b0cd65cf499664e1951ebb1", "is_reserved": 0, "rental_uris": {"android": "https://dc.lft.to/lastmile_qr_scan", "ios": "https://dc.lft.to/lastmile_qr_scan"}, "fusion_lon": 0.0}, {"lat": 38.930995, "is_disabled": 0, "type": "electric_bike", "lon": -77.0312655, "bike_id": "ee6f222dc10d5e163cf55c4cfa886eda", "fusion_lat": 0.0, "name": "ee6f222dc10d5e163cf55c4cfa886eda", "is_reserved": 0, "rental_uris": {"android": "https://dc.lft.to/lastmile_qr_scan", "ios": "https://dc.lft.to/lastmile_qr_scan"}, "fusion_lon": 0.0}, {"lat": 38.94586666666667, "is_disabled": 0, "type": "electric_scooter", "lon": -77.06450683333334, "bike_id": "bb91c106697ca4cc242608c95d20dc0f", "fusion_lat": 0.0, "name": "bb91c106697ca4cc242608c95d20dc0f", "is_reserved": 0, "rental_uris": {"android": "https://dc.lft.to/lastmile_qr_scan", "ios": "https://dc.lft.to/lastmile_qr_scan"}, "fusion_lon": 0.0}, {"lat": 38.905789, "is_disabled": 0, "type": "electric_scooter", "lon": -77.02945283333334, "bike_id": "a85e5a78ded0052cb23e44726f6cb838", "fusion_lat": 0.0, "name": "a85e5a78ded0052cb23e44726f6cb838", "is_reserved": 0, "rental_uris": {"android": "https://dc.lft.to/lastmile_qr_scan", "ios": "https://dc.lft.to/lastmile_qr_scan"}, "fusion_lon": 0.0}, {"lat": 38.910525, "is_disabled": 0, "type": "electric_scooter", "lon": -77.01510816666666, "bike_id": "711bc9affd18d1a54e13990ddc304c64", "fusion_lat": 0.0, "name": "711bc9affd18d1a54e13990ddc304c64", "is_reserved": 0, "rental_uris": {"android": "https://dc.lft.to/lastmile_qr_scan", "ios": "https://dc.lft.to/lastmile_qr_scan"}, "fusion_lon": 0.0}, {"lat": 38.954004166666664, "is_disabled": 0, "type": "electric_scooter", "lon": -77.03628433333333, "bike_id": "90198605a541db8b59b63bfba2cfab11", "fusion_lat": 0.0, "name": "90198605a541db8b59b63bfba2cfab11", "is_reserved": 0, "rental_uris": {"android": "https://dc.lft.to/lastmile_qr_scan", "ios": "https://dc.lft.to/lastmile_qr_scan"}, "fusion_lon": 0.0}, {"lat": 38.90555716666667, "is_disabled": 0, "type": "electric_scooter", "lon": -77.03401733333334, "bike_id": "800266cd4410ac55ea44b86723095176", "fusion_lat": 0.0, "name": "800266cd4410ac55ea44b86723095176", "is_reserved": 0, "rental_uris": {"android": "https://dc.lft.to/lastmile_qr_scan", "ios": "https://dc.lft.to/lastmile_qr_scan"}, "fusion_lon": 0.0}, {"lat": 38.92201433333334, "is_disabled": 0, "type": "electric_scooter", "lon": -77.04018716666667, "bike_id": "1e13a655aab97358c0f42989be8cb868", "fusion_lat": 0.0, "name": "1e13a655aab97358c0f42989be8cb868", "is_reserved": 0, "rental_uris": {"android": "https://dc.lft.to/lastmile_qr_scan", "ios": "https://dc.lft.to/lastmile_qr_scan"}, "fusion_lon": 0.0}, {"lat": 38.9037285, "is_disabled": 0, "type": "electric_scooter", "lon": -77.04346016666666, "bike_id": "52d46d5d5c8ae2d2353fd31823dc5a1c", "fusion_lat": 0.0, "name": "52d46d5d5c8ae2d2353fd31823dc5a1c", "is_reserved": 0, "rental_uris": {"android": "https://dc.lft.to/lastmile_qr_scan", "ios": "https://dc.lft.to/lastmile_qr_scan"}, "fusion_lon": 0.0}, {"lat": 38.869090166666666, "is_disabled": 0, "type": "electric_bike", "lon": -77.13180083333333, "bike_id": "98da707e1394a18e3b6938b3bc88d961", "fusion_lat": 0.0, "name": "98da707e1394a18e3b6938b3bc88d961", "is_reserved": 0, "rental_uris": {"android": "https://dc.lft.to/lastmile_qr_scan", "ios": "https://dc.lft.to/lastmile_qr_scan"}, "fusion_lon": 0.0}, {"lat": 38.914830333333335, "is_disabled": 0, "type": "electric_scooter", "lon": -77.03248, "bike_id": "e72b3824a9722a5e899c76233f6658f4", "fusion_lat": 0.0, "name": "e72b3824a9722a5e899c76233f6658f4", "is_reserved": 0, "rental_uris": {"android": "https://dc.lft.to/lastmile_qr_scan", "ios": "https://dc.lft.to/lastmile_qr_scan"}, "fusion_lon": 0.0}, {"lat": 38.88115366666667, "is_disabled": 0, "type": "electric_scooter", "lon": -76.98338783333334, "bike_id": "09d60573742acc1d1287c71c0c14207b", "fusion_lat": 0.0, "name": "09d60573742acc1d1287c71c0c14207b", "is_reserved": 0, "rental_uris": {"android": "https://dc.lft.to/lastmile_qr_scan", "ios": "https://dc.lft.to/lastmile_qr_scan"}, "fusion_lon": 0.0}, {"lat": 38.86713733333333, "is_disabled": 0, "type": "electric_scooter", "lon": -76.98726516666666, "bike_id": "12734bdfc0dac080e29f7f4d6f36b445", "fusion_lat": 0.0, "name": "12734bdfc0dac080e29f7f4d6f36b445", "is_reserved": 0, "rental_uris": {"android": "https://dc.lft.to/lastmile_qr_scan", "ios": "https://dc.lft.to/lastmile_qr_scan"}, "fusion_lon": 0.0}, {"lat": 38.93668566666667, "is_disabled": 0, "type": "electric_scooter", "lon": -77.05932683333333, "bike_id": "af3dbbb0359990dad29e4ad054d18364", "fusion_lat": 0.0, "name": "af3dbbb0359990dad29e4ad054d18364", "is_reserved": 0, "rental_uris": {"android": "https://dc.lft.to/lastmile_qr_scan", "ios": "https://dc.lft.to/lastmile_qr_scan"}, "fusion_lon": 0.0}, {"lat": 38.92707933333333, "is_disabled": 0, "type": "electric_scooter", "lon": -77.02095616666666, "bike_id": "e4e56fd91051dcf01c1d3d9bc2be6938", "fusion_lat": 0.0, "name": "e4e56fd91051dcf01c1d3d9bc2be6938", "is_reserved": 0, "rental_uris": {"android": "https://dc.lft.to/lastmile_qr_scan", "ios": "https://dc.lft.to/lastmile_qr_scan"}, "fusion_lon": 0.0}, {"lat": 38.87142716666666, "is_disabled": 0, "type": "electric_bike", "lon": -76.9370675, "bike_id": "72c95434eb41a16ae486c1e4b453240a", "fusion_lat": 0.0, "name": "72c95434eb41a16ae486c1e4b453240a", "is_reserved": 0, "rental_uris": {"android": "https://dc.lft.to/lastmile_qr_scan", "ios": "https://dc.lft.to/lastmile_qr_scan"}, "fusion_lon": 0.0}, {"lat": 38.84570316666667, "is_disabled": 0, "type": "electric_bike", "lon": -77.0962435, "bike_id": "440cf531357d7dbd93005667ed5d1d5a", "fusion_lat": 0.0, "name": "440cf531357d7dbd93005667ed5d1d5a", "is_reserved": 0, "rental_uris": {"android": "https://dc.lft.to/lastmile_qr_scan", "ios": "https://dc.lft.to/lastmile_qr_scan"}, "fusion_lon": 0.0}, {"lat": 38.9009715, "is_disabled": 0, "type": "electric_scooter", "lon": -77.0506805, "bike_id": "7e4006b6f522698796e5f8ffac1b3e39", "fusion_lat": 0.0, "name": "7e4006b6f522698796e5f8ffac1b3e39", "is_reserved": 0, "rental_uris": {"android": "https://dc.lft.to/lastmile_qr_scan", "ios": "https://dc.lft.to/lastmile_qr_scan"}, "fusion_lon": 0.0}, {"lat": 38.83695516666667, "is_disabled": 0, "type": "electric_scooter", "lon": -77.10305016666666, "bike_id": "17c74db135660ab0f407308977ca7ae0", "fusion_lat": 0.0, "name": "17c74db135660ab0f407308977ca7ae0", "is_reserved": 0, "rental_uris": {"android": "https://dc.lft.to/lastmile_qr_scan", "ios": "https://dc.lft.to/lastmile_qr_scan"}, "fusion_lon": 0.0}, {"lat": 38.91610933333333, "is_disabled": 0, "type": "electric_scooter", "lon": -77.032678, "bike_id": "e1cf135636e812fd5e8562ed06cc718d", "fusion_lat": 0.0, "name": "e1cf135636e812fd5e8562ed06cc718d", "is_reserved": 0, "rental_uris": {"android": "https://dc.lft.to/lastmile_qr_scan", "ios": "https://dc.lft.to/lastmile_qr_scan"}, "fusion_lon": 0.0}, {"lat": 38.88495733333333, "is_disabled": 0, "type": "electric_scooter", "lon": -77.00726833333333, "bike_id": "a178bcca7e999caab54baa83753d557a", "fusion_lat": 0.0, "name": "a178bcca7e999caab54baa83753d557a", "is_reserved": 0, "rental_uris": {"android": "https://dc.lft.to/lastmile_qr_scan", "ios": "https://dc.lft.to/lastmile_qr_scan"}, "fusion_lon": 0.0}, {"lat": 38.914871833333336, "is_disabled": 0, "type": "electric_bike", "lon": -77.03219783333333, "bike_id": "81caf3cd9da983eec8e3efc452609f2a", "fusion_lat": 0.0, "name": "81caf3cd9da983eec8e3efc452609f2a", "is_reserved": 0, "rental_uris": {"android": "https://dc.lft.to/lastmile_qr_scan", "ios": "https://dc.lft.to/lastmile_qr_scan"}, "fusion_lon": 0.0}, {"lat": 38.9334175, "is_disabled": 0, "type": "electric_scooter", "lon": -76.993119, "bike_id": "bbc09b1803c6969e58b4e5ff82438ae9", "fusion_lat": 0.0, "name": "bbc09b1803c6969e58b4e5ff82438ae9", "is_reserved": 0, "rental_uris": {"android": "https://dc.lft.to/lastmile_qr_scan", "ios": "https://dc.lft.to/lastmile_qr_scan"}, "fusion_lon": 0.0}, {"lat": 38.90007216666667, "is_disabled": 0, "type": "electric_scooter", "lon": -76.9224015, "bike_id": "43d477891e86ece0bfa4b7f969af2f21", "fusion_lat": 0.0, "name": "43d477891e86ece0bfa4b7f969af2f21", "is_reserved": 0, "rental_uris": {"android": "https://dc.lft.to/lastmile_qr_scan", "ios": "https://dc.lft.to/lastmile_qr_scan"}, "fusion_lon": 0.0}, {"lat": 38.93141933333333, "is_disabled": 0, "type": "electric_scooter", "lon": -77.02148016666666, "bike_id": "aaed7ad923552c0435d850fa87f422fe", "fusion_lat": 0.0, "name": "aaed7ad923552c0435d850fa87f422fe", "is_reserved": 0, "rental_uris": {"android": "https://dc.lft.to/lastmile_qr_scan", "ios": "https://dc.lft.to/lastmile_qr_scan"}, "fusion_lon": 0.0}, {"lat": 38.900763166666664, "is_disabled": 0, "type": "electric_scooter", "lon": -77.0259005, "bike_id": "058db07123855bc76811ebc9a08ef485", "fusion_lat": 0.0, "name": "058db07123855bc76811ebc9a08ef485", "is_reserved": 0, "rental_uris": {"android": "https://dc.lft.to/lastmile_qr_scan", "ios": "https://dc.lft.to/lastmile_qr_scan"}, "fusion_lon": 0.0}, {"lat": 38.9011875, "is_disabled": 0, "type": "electric_scooter", "lon": -76.98630433333334, "bike_id": "4dcade8b3ef9affc157ad23f05c25e00", "fusion_lat": 0.0, "name": "4dcade8b3ef9affc157ad23f05c25e00", "is_reserved": 0, "rental_uris": {"android": "https://dc.lft.to/lastmile_qr_scan", "ios": "https://dc.lft.to/lastmile_qr_scan"}, "fusion_lon": 0.0}, {"lat": 38.91557383333333, "is_disabled": 0, "type": "electric_scooter", "lon": -77.02427116666667, "bike_id": "99758583f4d6f862d03e0ad12e438d27", "fusion_lat": 0.0, "name": "99758583f4d6f862d03e0ad12e438d27", "is_reserved": 0, "rental_uris": {"android": "https://dc.lft.to/lastmile_qr_scan", "ios": "https://dc.lft.to/lastmile_qr_scan"}, "fusion_lon": 0.0}, {"lat": 38.914496666666665, "is_disabled": 0, "type": "electric_scooter", "lon": -77.0296885, "bike_id": "13452b9559e01120c8c150d0e4b32b36", "fusion_lat": 0.0, "name": "13452b9559e01120c8c150d0e4b32b36", "is_reserved": 0, "rental_uris": {"android": "https://dc.lft.to/lastmile_qr_scan", "ios": "https://dc.lft.to/lastmile_qr_scan"}, "fusion_lon": 0.0}, {"lat": 38.87630016666667, "is_disabled": 0, "type": "electric_scooter", "lon": -76.965235, "bike_id": "3d4f03d4679aafeaf5d1a6fed834c532", "fusion_lat": 0.0, "name": "3d4f03d4679aafeaf5d1a6fed834c532", "is_reserved": 0, "rental_uris": {"android": "https://dc.lft.to/lastmile_qr_scan", "ios": "https://dc.lft.to/lastmile_qr_scan"}, "fusion_lon": 0.0}, {"lat": 38.916561333333334, "is_disabled": 0, "type": "electric_scooter", "lon": -77.03850333333334, "bike_id": "9a1e01ed5687a73ef4c0510524c664f2", "fusion_lat": 0.0, "name": "9a1e01ed5687a73ef4c0510524c664f2", "is_reserved": 0, "rental_uris": {"android": "https://dc.lft.to/lastmile_qr_scan", "ios": "https://dc.lft.to/lastmile_qr_scan"}, "fusion_lon": 0.0}, {"lat": 38.919549, "is_disabled": 0, "type": "electric_scooter", "lon": -77.04891666666667, "bike_id": "8f1545800a0f6dd29c7c6252a1e63471", "fusion_lat": 0.0, "name": "8f1545800a0f6dd29c7c6252a1e63471", "is_reserved": 0, "rental_uris": {"android": "https://dc.lft.to/lastmile_qr_scan", "ios": "https://dc.lft.to/lastmile_qr_scan"}, "fusion_lon": 0.0}, {"lat": 38.930848833333336, "is_disabled": 0, "type": "electric_scooter", "lon": -77.02621683333334, "bike_id": "9bb9fd1e218ae6b1e566b08a2accd766", "fusion_lat": 0.0, "name": "9bb9fd1e218ae6b1e566b08a2accd766", "is_reserved": 0, "rental_uris": {"android": "https://dc.lft.to/lastmile_qr_scan", "ios": "https://dc.lft.to/lastmile_qr_scan"}, "fusion_lon": 0.0}, {"lat": 38.90138666666667, "is_disabled": 0, "type": "electric_scooter", "lon": -77.03305716666667, "bike_id": "5d3dd246dac4fe67b050dd59dfe7326e", "fusion_lat": 0.0, "name": "5d3dd246dac4fe67b050dd59dfe7326e", "is_reserved": 0, "rental_uris": {"android": "https://dc.lft.to/lastmile_qr_scan", "ios": "https://dc.lft.to/lastmile_qr_scan"}, "fusion_lon": 0.0}, {"lat": 38.91333783333333, "is_disabled": 0, "type": "electric_scooter", "lon": -77.03183816666666, "bike_id": "797aa44227674be41ee51aa6e35ef412", "fusion_lat": 0.0, "name": "797aa44227674be41ee51aa6e35ef412", "is_reserved": 0, "rental_uris": {"android": "https://dc.lft.to/lastmile_qr_scan", "ios": "https://dc.lft.to/lastmile_qr_scan"}, "fusion_lon": 0.0}, {"lat": 38.87344266666667, "is_disabled": 0, "type": "electric_scooter", "lon": -76.99165733333334, "bike_id": "00f56628ac058058957b9078d8ba77d5", "fusion_lat": 0.0, "name": "00f56628ac058058957b9078d8ba77d5", "is_reserved": 0, "rental_uris": {"android": "https://dc.lft.to/lastmile_qr_scan", "ios": "https://dc.lft.to/lastmile_qr_scan"}, "fusion_lon": 0.0}, {"lat": 38.900374166666666, "is_disabled": 0, "type": "electric_scooter", "lon": -77.0441685, "bike_id": "567cefd6e8c11424d0d2eb714f8cedc1", "fusion_lat": 0.0, "name": "567cefd6e8c11424d0d2eb714f8cedc1", "is_reserved": 0, "rental_uris": {"android": "https://dc.lft.to/lastmile_qr_scan", "ios": "https://dc.lft.to/lastmile_qr_scan"}, "fusion_lon": 0.0}, {"lat": 38.91561866666667, "is_disabled": 0, "type": "electric_scooter", "lon": -77.0104155, "bike_id": "8c2d0bfcac7e3347d5e5d525d8006499", "fusion_lat": 0.0, "name": "8c2d0bfcac7e3347d5e5d525d8006499", "is_reserved": 0, "rental_uris": {"android": "https://dc.lft.to/lastmile_qr_scan", "ios": "https://dc.lft.to/lastmile_qr_scan"}, "fusion_lon": 0.0}, {"lat": 38.93296016666667, "is_disabled": 0, "type": "electric_scooter", "lon": -77.0453545, "bike_id": "188d4628f0b2be72063851cb139ad9c7", "fusion_lat": 0.0, "name": "188d4628f0b2be72063851cb139ad9c7", "is_reserved": 0, "rental_uris": {"android": "https://dc.lft.to/lastmile_qr_scan", "ios": "https://dc.lft.to/lastmile_qr_scan"}, "fusion_lon": 0.0}, {"lat": 38.8278985, "is_disabled": 0, "type": "electric_bike", "lon": -77.00915383333333, "bike_id": "ae40d7c8dbc09e3e7d4de5381f516c2d", "fusion_lat": 0.0, "name": "ae40d7c8dbc09e3e7d4de5381f516c2d", "is_reserved": 0, "rental_uris": {"android": "https://dc.lft.to/lastmile_qr_scan", "ios": "https://dc.lft.to/lastmile_qr_scan"}, "fusion_lon": 0.0}, {"lat": 38.9146595, "is_disabled": 0, "type": "electric_scooter", "lon": -77.01427916666667, "bike_id": "5190c717e5bd522b3e6d35e579b1a669", "fusion_lat": 0.0, "name": "5190c717e5bd522b3e6d35e579b1a669", "is_reserved": 0, "rental_uris": {"android": "https://dc.lft.to/lastmile_qr_scan", "ios": "https://dc.lft.to/lastmile_qr_scan"}, "fusion_lon": 0.0}, {"lat": 38.877238, "is_disabled": 0, "type": "electric_scooter", "lon": -77.003174, "bike_id": "51ad66825746e6e3ca8cad7c0e257d6e", "fusion_lat": 0.0, "name": "51ad66825746e6e3ca8cad7c0e257d6e", "is_reserved": 0, "rental_uris": {"android": "https://dc.lft.to/lastmile_qr_scan", "ios": "https://dc.lft.to/lastmile_qr_scan"}, "fusion_lon": 0.0}, {"lat": 38.88799133333333, "is_disabled": 0, "type": "electric_scooter", "lon": -76.933627, "bike_id": "21fc56560c7433beb6df64632e940f57", "fusion_lat": 0.0, "name": "21fc56560c7433beb6df64632e940f57", "is_reserved": 0, "rental_uris": {"android": "https://dc.lft.to/lastmile_qr_scan", "ios": "https://dc.lft.to/lastmile_qr_scan"}, "fusion_lon": 0.0}, {"lat": 38.87075316666667, "is_disabled": 0, "type": "electric_bike", "lon": -76.97844, "bike_id": "0aebe6c5ee861ba129c1b77cd01f21f4", "fusion_lat": 0.0, "name": "0aebe6c5ee861ba129c1b77cd01f21f4", "is_reserved": 0, "rental_uris": {"android": "https://dc.lft.to/lastmile_qr_scan", "ios": "https://dc.lft.to/lastmile_qr_scan"}, "fusion_lon": 0.0}, {"lat": 38.92354433333333, "is_disabled": 0, "type": "electric_scooter", "lon": -77.054253, "bike_id": "6b3a5ab6e193dfc7f0c4c67dcf8af680", "fusion_lat": 0.0, "name": "6b3a5ab6e193dfc7f0c4c67dcf8af680", "is_reserved": 0, "rental_uris": {"android": "https://dc.lft.to/lastmile_qr_scan", "ios": "https://dc.lft.to/lastmile_qr_scan"}, "fusion_lon": 0.0}, {"lat": 38.916974333333336, "is_disabled": 0, "type": "electric_scooter", "lon": -77.042747, "bike_id": "debd4e36fb799e3c809ab32919bbb5e2", "fusion_lat": 0.0, "name": "debd4e36fb799e3c809ab32919bbb5e2", "is_reserved": 0, "rental_uris": {"android": "https://dc.lft.to/lastmile_qr_scan", "ios": "https://dc.lft.to/lastmile_qr_scan"}, "fusion_lon": 0.0}, {"lat": 38.91112966666667, "is_disabled": 0, "type": "electric_scooter", "lon": -77.03832716666666, "bike_id": "efd67cec54a6fb088080a66316a4b004", "fusion_lat": 0.0, "name": "efd67cec54a6fb088080a66316a4b004", "is_reserved": 0, "rental_uris": {"android": "https://dc.lft.to/lastmile_qr_scan", "ios": "https://dc.lft.to/lastmile_qr_scan"}, "fusion_lon": 0.0}, {"lat": 38.92388866666667, "is_disabled": 0, "type": "electric_scooter", "lon": -77.03658516666667, "bike_id": "4c203f9fafd956e2be9fd3d6eb080095", "fusion_lat": 0.0, "name": "4c203f9fafd956e2be9fd3d6eb080095", "is_reserved": 0, "rental_uris": {"android": "https://dc.lft.to/lastmile_qr_scan", "ios": "https://dc.lft.to/lastmile_qr_scan"}, "fusion_lon": 0.0}, {"lat": 38.90692816666667, "is_disabled": 0, "type": "electric_scooter", "lon": -77.023855, "bike_id": "f1c85d35f6f216ea32ec5b993629e953", "fusion_lat": 0.0, "name": "f1c85d35f6f216ea32ec5b993629e953", "is_reserved": 0, "rental_uris": {"android": "https://dc.lft.to/lastmile_qr_scan", "ios": "https://dc.lft.to/lastmile_qr_scan"}, "fusion_lon": 0.0}, {"lat": 38.9004355, "is_disabled": 0, "type": "electric_scooter", "lon": -77.005897, "bike_id": "9d32b72793749b55657bf7ecf4081fcf", "fusion_lat": 0.0, "name": "9d32b72793749b55657bf7ecf4081fcf", "is_reserved": 0, "rental_uris": {"android": "https://dc.lft.to/lastmile_qr_scan", "ios": "https://dc.lft.to/lastmile_qr_scan"}, "fusion_lon": 0.0}, {"lat": 38.9246965, "is_disabled": 0, "type": "electric_bike", "lon": -77.208374, "bike_id": "2325814dae6f3e2d3247a5d2fd10a829", "fusion_lat": 0.0, "name": "2325814dae6f3e2d3247a5d2fd10a829", "is_reserved": 0, "rental_uris": {"android": "https://dc.lft.to/lastmile_qr_scan", "ios": "https://dc.lft.to/lastmile_qr_scan"}, "fusion_lon": 0.0}, {"lat": 38.8974835, "is_disabled": 0, "type": "electric_scooter", "lon": -77.04797183333334, "bike_id": "0669b4d04f2ff8ad0d3ec62fa68713ea", "fusion_lat": 0.0, "name": "0669b4d04f2ff8ad0d3ec62fa68713ea", "is_reserved": 0, "rental_uris": {"android": "https://dc.lft.to/lastmile_qr_scan", "ios": "https://dc.lft.to/lastmile_qr_scan"}, "fusion_lon": 0.0}, {"lat": 38.842552, "is_disabled": 0, "type": "electric_bike", "lon": -77.058318, "bike_id": "98ae26aab4fa7122ea03ab17f1e6e8bd", "fusion_lat": 0.0, "name": "98ae26aab4fa7122ea03ab17f1e6e8bd", "is_reserved": 0, "rental_uris": {"android": "https://dc.lft.to/lastmile_qr_scan", "ios": "https://dc.lft.to/lastmile_qr_scan"}, "fusion_lon": 0.0}, {"lat": 38.8845375, "is_disabled": 0, "type": "electric_bike", "lon": -77.096676, "bike_id": "fdddad9a6aec611a7f584374ff25953d", "fusion_lat": 0.0, "name": "fdddad9a6aec611a7f584374ff25953d", "is_reserved": 0, "rental_uris": {"android": "https://dc.lft.to/lastmile_qr_scan", "ios": "https://dc.lft.to/lastmile_qr_scan"}, "fusion_lon": 0.0}, {"lat": 38.936058833333334, "is_disabled": 0, "type": "electric_scooter", "lon": -77.0353485, "bike_id": "42ee3ee6a6aad74626264f668f378188", "fusion_lat": 0.0, "name": "42ee3ee6a6aad74626264f668f378188", "is_reserved": 0, "rental_uris": {"android": "https://dc.lft.to/lastmile_qr_scan", "ios": "https://dc.lft.to/lastmile_qr_scan"}, "fusion_lon": 0.0}, {"lat": 38.911268, "is_disabled": 0, "type": "electric_scooter", "lon": -77.0033275, "bike_id": "8743b45d5a8d746b374e98e1dd900452", "fusion_lat": 0.0, "name": "8743b45d5a8d746b374e98e1dd900452", "is_reserved": 0, "rental_uris": {"android": "https://dc.lft.to/lastmile_qr_scan", "ios": "https://dc.lft.to/lastmile_qr_scan"}, "fusion_lon": 0.0}, {"lat": 38.91767633333333, "is_disabled": 0, "type": "electric_scooter", "lon": -77.00358966666667, "bike_id": "a2ef9262182738a82b0fdbc6757d8929", "fusion_lat": 0.0, "name": "a2ef9262182738a82b0fdbc6757d8929", "is_reserved": 0, "rental_uris": {"android": "https://dc.lft.to/lastmile_qr_scan", "ios": "https://dc.lft.to/lastmile_qr_scan"}, "fusion_lon": 0.0}, {"lat": 38.91711516666667, "is_disabled": 0, "type": "electric_scooter", "lon": -77.0386415, "bike_id": "a5ceb451c87574349556d0bec2b01703", "fusion_lat": 0.0, "name": "a5ceb451c87574349556d0bec2b01703", "is_reserved": 0, "rental_uris": {"android": "https://dc.lft.to/lastmile_qr_scan", "ios": "https://dc.lft.to/lastmile_qr_scan"}, "fusion_lon": 0.0}, {"lat": 38.90982866666667, "is_disabled": 0, "type": "electric_scooter", "lon": -77.03445883333333, "bike_id": "cf551f31708a1c3db86a3d059819bae5", "fusion_lat": 0.0, "name": "cf551f31708a1c3db86a3d059819bae5", "is_reserved": 0, "rental_uris": {"android": "https://dc.lft.to/lastmile_qr_scan", "ios": "https://dc.lft.to/lastmile_qr_scan"}, "fusion_lon": 0.0}, {"lat": 38.961402, "is_disabled": 0, "type": "electric_scooter", "lon": -77.022317, "bike_id": "52558cd4e483ebc891ee5f08367da82c", "fusion_lat": 0.0, "name": "52558cd4e483ebc891ee5f08367da82c", "is_reserved": 0, "rental_uris": {"android": "https://dc.lft.to/lastmile_qr_scan", "ios": "https://dc.lft.to/lastmile_qr_scan"}, "fusion_lon": 0.0}, {"lat": 38.923563, "is_disabled": 0, "type": "electric_bike", "lon": -76.97138983333333, "bike_id": "43cc2bcd453a56e5a624dd2d47296385", "fusion_lat": 0.0, "name": "43cc2bcd453a56e5a624dd2d47296385", "is_reserved": 0, "rental_uris": {"android": "https://dc.lft.to/lastmile_qr_scan", "ios": "https://dc.lft.to/lastmile_qr_scan"}, "fusion_lon": 0.0}, {"lat": 38.9129075, "is_disabled": 0, "type": "electric_scooter", "lon": -77.038526, "bike_id": "79df9d92a395682ac33047906394429f", "fusion_lat": 0.0, "name": "79df9d92a395682ac33047906394429f", "is_reserved": 0, "rental_uris": {"android": "https://dc.lft.to/lastmile_qr_scan", "ios": "https://dc.lft.to/lastmile_qr_scan"}, "fusion_lon": 0.0}, {"lat": 38.929770833333336, "is_disabled": 0, "type": "electric_scooter", "lon": -77.01300866666666, "bike_id": "0aa54a749ca25c39d45fc43c9e576c7f", "fusion_lat": 0.0, "name": "0aa54a749ca25c39d45fc43c9e576c7f", "is_reserved": 0, "rental_uris": {"android": "https://dc.lft.to/lastmile_qr_scan", "ios": "https://dc.lft.to/lastmile_qr_scan"}, "fusion_lon": 0.0}, {"lat": 38.90670883333333, "is_disabled": 0, "type": "electric_scooter", "lon": -77.03863, "bike_id": "e8d5a0328fbf3e321e23fedf7ec2c8f6", "fusion_lat": 0.0, "name": "e8d5a0328fbf3e321e23fedf7ec2c8f6", "is_reserved": 0, "rental_uris": {"android": "https://dc.lft.to/lastmile_qr_scan", "ios": "https://dc.lft.to/lastmile_qr_scan"}, "fusion_lon": 0.0}, {"lat": 38.9181345, "is_disabled": 0, "type": "electric_scooter", "lon": -77.03863583333333, "bike_id": "d0da8b5aa3a29ecf2374aebfc5fa4327", "fusion_lat": 0.0, "name": "d0da8b5aa3a29ecf2374aebfc5fa4327", "is_reserved": 0, "rental_uris": {"android": "https://dc.lft.to/lastmile_qr_scan", "ios": "https://dc.lft.to/lastmile_qr_scan"}, "fusion_lon": 0.0}, {"lat": 38.910228333333336, "is_disabled": 0, "type": "electric_scooter", "lon": -77.04883966666667, "bike_id": "156859041ccea529ef347c09f412bc5b", "fusion_lat": 0.0, "name": "156859041ccea529ef347c09f412bc5b", "is_reserved": 0, "rental_uris": {"android": "https://dc.lft.to/lastmile_qr_scan", "ios": "https://dc.lft.to/lastmile_qr_scan"}, "fusion_lon": 0.0}, {"lat": 38.87146333333333, "is_disabled": 0, "type": "electric_bike", "lon": -76.93704316666667, "bike_id": "3b41d1d0f66cfa3b67c55c96441d51aa", "fusion_lat": 0.0, "name": "3b41d1d0f66cfa3b67c55c96441d51aa", "is_reserved": 0, "rental_uris": {"android": "https://dc.lft.to/lastmile_qr_scan", "ios": "https://dc.lft.to/lastmile_qr_scan"}, "fusion_lon": 0.0}, {"lat": 38.85716516666667, "is_disabled": 0, "type": "electric_bike", "lon": -76.97087116666667, "bike_id": "24e37bcdf625786c7ea1d4ed7f1c0610", "fusion_lat": 0.0, "name": "24e37bcdf625786c7ea1d4ed7f1c0610", "is_reserved": 0, "rental_uris": {"android": "https://dc.lft.to/lastmile_qr_scan", "ios": "https://dc.lft.to/lastmile_qr_scan"}, "fusion_lon": 0.0}, {"lat": 38.9055875, "is_disabled": 0, "type": "electric_scooter", "lon": -77.04659266666667, "bike_id": "8d3a919c9fe0818d7477c38de7a0633d", "fusion_lat": 0.0, "name": "8d3a919c9fe0818d7477c38de7a0633d", "is_reserved": 0, "rental_uris": {"android": "https://dc.lft.to/lastmile_qr_scan", "ios": "https://dc.lft.to/lastmile_qr_scan"}, "fusion_lon": 0.0}, {"lat": 38.923675333333335, "is_disabled": 0, "type": "electric_scooter", "lon": -77.03167583333334, "bike_id": "f0995abf57042a7aad281b15ffb5f1ea", "fusion_lat": 0.0, "name": "f0995abf57042a7aad281b15ffb5f1ea", "is_reserved": 0, "rental_uris": {"android": "https://dc.lft.to/lastmile_qr_scan", "ios": "https://dc.lft.to/lastmile_qr_scan"}, "fusion_lon": 0.0}, {"lat": 38.92484566666667, "is_disabled": 0, "type": "electric_scooter", "lon": -77.02842966666667, "bike_id": "6da4694b64b0f9b96facd0ccbe9580f4", "fusion_lat": 0.0, "name": "6da4694b64b0f9b96facd0ccbe9580f4", "is_reserved": 0, "rental_uris": {"android": "https://dc.lft.to/lastmile_qr_scan", "ios": "https://dc.lft.to/lastmile_qr_scan"}, "fusion_lon": 0.0}, {"lat": 38.8981745, "is_disabled": 0, "type": "electric_scooter", "lon": -76.99693033333334, "bike_id": "dcf442394da027c6e1f235121b073d5c", "fusion_lat": 0.0, "name": "dcf442394da027c6e1f235121b073d5c", "is_reserved": 0, "rental_uris": {"android": "https://dc.lft.to/lastmile_qr_scan", "ios": "https://dc.lft.to/lastmile_qr_scan"}, "fusion_lon": 0.0}, {"lat": 38.908323, "is_disabled": 0, "type": "electric_scooter", "lon": -77.002168, "bike_id": "57003ad45cdc2fb845bb06128bae121a", "fusion_lat": 0.0, "name": "57003ad45cdc2fb845bb06128bae121a", "is_reserved": 0, "rental_uris": {"android": "https://dc.lft.to/lastmile_qr_scan", "ios": "https://dc.lft.to/lastmile_qr_scan"}, "fusion_lon": 0.0}, {"lat": 38.91565583333333, "is_disabled": 0, "type": "electric_scooter", "lon": -77.03211166666667, "bike_id": "8c69760abc90a1b1446fb91fc9288101", "fusion_lat": 0.0, "name": "8c69760abc90a1b1446fb91fc9288101", "is_reserved": 0, "rental_uris": {"android": "https://dc.lft.to/lastmile_qr_scan", "ios": "https://dc.lft.to/lastmile_qr_scan"}, "fusion_lon": 0.0}, {"lat": 39.056361833333334, "is_disabled": 0, "type": "electric_bike", "lon": -77.12526316666667, "bike_id": "9ddb0837dd75e7bc8759a156d814dd0f", "fusion_lat": 0.0, "name": "9ddb0837dd75e7bc8759a156d814dd0f", "is_reserved": 0, "rental_uris": {"android": "https://dc.lft.to/lastmile_qr_scan", "ios": "https://dc.lft.to/lastmile_qr_scan"}, "fusion_lon": 0.0}, {"lat": 38.88741133333333, "is_disabled": 0, "type": "electric_scooter", "lon": -77.015298, "bike_id": "08ede047e6f584048b450173c4cdac8e", "fusion_lat": 0.0, "name": "08ede047e6f584048b450173c4cdac8e", "is_reserved": 0, "rental_uris": {"android": "https://dc.lft.to/lastmile_qr_scan", "ios": "https://dc.lft.to/lastmile_qr_scan"}, "fusion_lon": 0.0}, {"lat": 38.88407133333333, "is_disabled": 0, "type": "electric_bike", "lon": -76.95420083333333, "bike_id": "570f982e839980080e6a8fdeef89dbd2", "fusion_lat": 0.0, "name": "570f982e839980080e6a8fdeef89dbd2", "is_reserved": 0, "rental_uris": {"android": "https://dc.lft.to/lastmile_qr_scan", "ios": "https://dc.lft.to/lastmile_qr_scan"}, "fusion_lon": 0.0}, {"lat": 38.93211766666667, "is_disabled": 0, "type": "electric_scooter", "lon": -77.02244266666666, "bike_id": "3da16e5e4f72a7a8ffd0cc64791cf81a", "fusion_lat": 0.0, "name": "3da16e5e4f72a7a8ffd0cc64791cf81a", "is_reserved": 0, "rental_uris": {"android": "https://dc.lft.to/lastmile_qr_scan", "ios": "https://dc.lft.to/lastmile_qr_scan"}, "fusion_lon": 0.0}, {"lat": 38.9100925, "is_disabled": 0, "type": "electric_scooter", "lon": -77.0442525, "bike_id": "51a6885b2d65737e7d5083fae35af998", "fusion_lat": 0.0, "name": "51a6885b2d65737e7d5083fae35af998", "is_reserved": 0, "rental_uris": {"android": "https://dc.lft.to/lastmile_qr_scan", "ios": "https://dc.lft.to/lastmile_qr_scan"}, "fusion_lon": 0.0}, {"lat": 38.888897166666666, "is_disabled": 0, "type": "electric_scooter", "lon": -76.93151916666666, "bike_id": "5ed54b35f57b6ac4014eef644e90b079", "fusion_lat": 0.0, "name": "5ed54b35f57b6ac4014eef644e90b079", "is_reserved": 0, "rental_uris": {"android": "https://dc.lft.to/lastmile_qr_scan", "ios": "https://dc.lft.to/lastmile_qr_scan"}, "fusion_lon": 0.0}, {"lat": 38.907256833333335, "is_disabled": 0, "type": "electric_scooter", "lon": -77.04645916666666, "bike_id": "f461366b4550eced5ebb909281420341", "fusion_lat": 0.0, "name": "f461366b4550eced5ebb909281420341", "is_reserved": 0, "rental_uris": {"android": "https://dc.lft.to/lastmile_qr_scan", "ios": "https://dc.lft.to/lastmile_qr_scan"}, "fusion_lon": 0.0}, {"lat": 38.92550333333333, "is_disabled": 0, "type": "electric_scooter", "lon": -77.03349916666667, "bike_id": "cb6e707eb58121194c58e789ef271c22", "fusion_lat": 0.0, "name": "cb6e707eb58121194c58e789ef271c22", "is_reserved": 0, "rental_uris": {"android": "https://dc.lft.to/lastmile_qr_scan", "ios": "https://dc.lft.to/lastmile_qr_scan"}, "fusion_lon": 0.0}, {"lat": 38.961519, "is_disabled": 0, "type": "electric_scooter", "lon": -77.02795833333333, "bike_id": "254ed072e7f8d0abcf7eedff4557d9a1", "fusion_lat": 0.0, "name": "254ed072e7f8d0abcf7eedff4557d9a1", "is_reserved": 0, "rental_uris": {"android": "https://dc.lft.to/lastmile_qr_scan", "ios": "https://dc.lft.to/lastmile_qr_scan"}, "fusion_lon": 0.0}, {"lat": 38.91186866666666, "is_disabled": 0, "type": "electric_scooter", "lon": -77.04294383333334, "bike_id": "01d5af3264220afdefdf5156260d8850", "fusion_lat": 0.0, "name": "01d5af3264220afdefdf5156260d8850", "is_reserved": 0, "rental_uris": {"android": "https://dc.lft.to/lastmile_qr_scan", "ios": "https://dc.lft.to/lastmile_qr_scan"}, "fusion_lon": 0.0}, {"lat": 38.8904215, "is_disabled": 0, "type": "electric_scooter", "lon": -76.952475, "bike_id": "1accb937460f79f6f962ecb349cf36a0", "fusion_lat": 0.0, "name": "1accb937460f79f6f962ecb349cf36a0", "is_reserved": 0, "rental_uris": {"android": "https://dc.lft.to/lastmile_qr_scan", "ios": "https://dc.lft.to/lastmile_qr_scan"}, "fusion_lon": 0.0}, {"lat": 38.902797, "is_disabled": 0, "type": "electric_scooter", "lon": -77.043844, "bike_id": "a316013cfcd7c5bb1d369539423da1f0", "fusion_lat": 0.0, "name": "a316013cfcd7c5bb1d369539423da1f0", "is_reserved": 0, "rental_uris": {"android": "https://dc.lft.to/lastmile_qr_scan", "ios": "https://dc.lft.to/lastmile_qr_scan"}, "fusion_lon": 0.0}, {"lat": 38.908663833333335, "is_disabled": 0, "type": "electric_scooter", "lon": -77.04589733333333, "bike_id": "9320a3f74f686709f9ccbc14d7305e49", "fusion_lat": 0.0, "name": "9320a3f74f686709f9ccbc14d7305e49", "is_reserved": 0, "rental_uris": {"android": "https://dc.lft.to/lastmile_qr_scan", "ios": "https://dc.lft.to/lastmile_qr_scan"}, "fusion_lon": 0.0}, {"lat": 38.836774166666665, "is_disabled": 0, "type": "electric_scooter", "lon": -77.005739, "bike_id": "a8858360b2fabbf72b7342f186097ecb", "fusion_lat": 0.0, "name": "a8858360b2fabbf72b7342f186097ecb", "is_reserved": 0, "rental_uris": {"android": "https://dc.lft.to/lastmile_qr_scan", "ios": "https://dc.lft.to/lastmile_qr_scan"}, "fusion_lon": 0.0}, {"lat": 38.900541833333335, "is_disabled": 0, "type": "electric_scooter", "lon": -77.00221816666667, "bike_id": "0cff70082cf1459a4c9f77ed3459e2c9", "fusion_lat": 0.0, "name": "0cff70082cf1459a4c9f77ed3459e2c9", "is_reserved": 0, "rental_uris": {"android": "https://dc.lft.to/lastmile_qr_scan", "ios": "https://dc.lft.to/lastmile_qr_scan"}, "fusion_lon": 0.0}, {"lat": 38.87013066666667, "is_disabled": 0, "type": "electric_bike", "lon": -76.96024483333333, "bike_id": "117da70a5aa08eb95aea42f0a3ecd1dd", "fusion_lat": 0.0, "name": "117da70a5aa08eb95aea42f0a3ecd1dd", "is_reserved": 0, "rental_uris": {"android": "https://dc.lft.to/lastmile_qr_scan", "ios": "https://dc.lft.to/lastmile_qr_scan"}, "fusion_lon": 0.0}, {"lat": 38.90273833333333, "is_disabled": 0, "type": "electric_scooter", "lon": -77.02486516666667, "bike_id": "3312ca4c7b575929b8555fd79b2d48be", "fusion_lat": 0.0, "name": "3312ca4c7b575929b8555fd79b2d48be", "is_reserved": 0, "rental_uris": {"android": "https://dc.lft.to/lastmile_qr_scan", "ios": "https://dc.lft.to/lastmile_qr_scan"}, "fusion_lon": 0.0}, {"lat": 38.90853, "is_disabled": 0, "type": "electric_scooter", "lon": -77.04766416666666, "bike_id": "59a2fcac367ef0873b93b7c2d3c37071", "fusion_lat": 0.0, "name": "59a2fcac367ef0873b93b7c2d3c37071", "is_reserved": 0, "rental_uris": {"android": "https://dc.lft.to/lastmile_qr_scan", "ios": "https://dc.lft.to/lastmile_qr_scan"}, "fusion_lon": 0.0}, {"lat": 38.91185316666667, "is_disabled": 0, "type": "electric_scooter", "lon": -77.00268433333333, "bike_id": "5220205a4555e9d2852ea4d1b76737ce", "fusion_lat": 0.0, "name": "5220205a4555e9d2852ea4d1b76737ce", "is_reserved": 0, "rental_uris": {"android": "https://dc.lft.to/lastmile_qr_scan", "ios": "https://dc.lft.to/lastmile_qr_scan"}, "fusion_lon": 0.0}, {"lat": 38.902881666666666, "is_disabled": 0, "type": "electric_scooter", "lon": -77.002139, "bike_id": "8423830bc5bed13db46e663d027faeec", "fusion_lat": 0.0, "name": "8423830bc5bed13db46e663d027faeec", "is_reserved": 0, "rental_uris": {"android": "https://dc.lft.to/lastmile_qr_scan", "ios": "https://dc.lft.to/lastmile_qr_scan"}, "fusion_lon": 0.0}, {"lat": 38.90977433333333, "is_disabled": 0, "type": "electric_scooter", "lon": -77.031902, "bike_id": "8767cdd5dec2cdf5193d7b917adf5f1d", "fusion_lat": 0.0, "name": "8767cdd5dec2cdf5193d7b917adf5f1d", "is_reserved": 0, "rental_uris": {"android": "https://dc.lft.to/lastmile_qr_scan", "ios": "https://dc.lft.to/lastmile_qr_scan"}, "fusion_lon": 0.0}, {"lat": 38.961984, "is_disabled": 0, "type": "electric_bike", "lon": -77.018883, "bike_id": "2721235464a4bd20be29f2c3273e6287", "fusion_lat": 0.0, "name": "2721235464a4bd20be29f2c3273e6287", "is_reserved": 0, "rental_uris": {"android": "https://dc.lft.to/lastmile_qr_scan", "ios": "https://dc.lft.to/lastmile_qr_scan"}, "fusion_lon": 0.0}, {"lat": 38.9077875, "is_disabled": 0, "type": "electric_scooter", "lon": -77.03859716666666, "bike_id": "eb75195cf41b3506bba11627f876c978", "fusion_lat": 0.0, "name": "eb75195cf41b3506bba11627f876c978", "is_reserved": 0, "rental_uris": {"android": "https://dc.lft.to/lastmile_qr_scan", "ios": "https://dc.lft.to/lastmile_qr_scan"}, "fusion_lon": 0.0}, {"lat": 38.86893516666667, "is_disabled": 0, "type": "electric_scooter", "lon": -76.983142, "bike_id": "318727cff615af979e586aa021e5ee89", "fusion_lat": 0.0, "name": "318727cff615af979e586aa021e5ee89", "is_reserved": 0, "rental_uris": {"android": "https://dc.lft.to/lastmile_qr_scan", "ios": "https://dc.lft.to/lastmile_qr_scan"}, "fusion_lon": 0.0}, {"lat": 38.900119, "is_disabled": 0, "type": "electric_scooter", "lon": -77.04039533333334, "bike_id": "f01388cef1f1669e4809390dfc8eff45", "fusion_lat": 0.0, "name": "f01388cef1f1669e4809390dfc8eff45", "is_reserved": 0, "rental_uris": {"android": "https://dc.lft.to/lastmile_qr_scan", "ios": "https://dc.lft.to/lastmile_qr_scan"}, "fusion_lon": 0.0}, {"lat": 38.882636166666664, "is_disabled": 0, "type": "electric_scooter", "lon": -77.0043215, "bike_id": "d4e41ba66903b17fd0ee3ce120d1222a", "fusion_lat": 0.0, "name": "d4e41ba66903b17fd0ee3ce120d1222a", "is_reserved": 0, "rental_uris": {"android": "https://dc.lft.to/lastmile_qr_scan", "ios": "https://dc.lft.to/lastmile_qr_scan"}, "fusion_lon": 0.0}, {"lat": 38.898940833333334, "is_disabled": 0, "type": "electric_scooter", "lon": -76.99728833333333, "bike_id": "6d72949fe6aea519c98351dbffb947fa", "fusion_lat": 0.0, "name": "6d72949fe6aea519c98351dbffb947fa", "is_reserved": 0, "rental_uris": {"android": "https://dc.lft.to/lastmile_qr_scan", "ios": "https://dc.lft.to/lastmile_qr_scan"}, "fusion_lon": 0.0}, {"lat": 38.90568616666667, "is_disabled": 0, "type": "electric_scooter", "lon": -77.00834816666666, "bike_id": "61be1352ac4047a79aceb6d81dea3445", "fusion_lat": 0.0, "name": "61be1352ac4047a79aceb6d81dea3445", "is_reserved": 0, "rental_uris": {"android": "https://dc.lft.to/lastmile_qr_scan", "ios": "https://dc.lft.to/lastmile_qr_scan"}, "fusion_lon": 0.0}, {"lat": 38.89731616666667, "is_disabled": 0, "type": "electric_scooter", "lon": -77.02327383333333, "bike_id": "cd076c2a06027ccc5e08d61e277e98cc", "fusion_lat": 0.0, "name": "cd076c2a06027ccc5e08d61e277e98cc", "is_reserved": 0, "rental_uris": {"android": "https://dc.lft.to/lastmile_qr_scan", "ios": "https://dc.lft.to/lastmile_qr_scan"}, "fusion_lon": 0.0}, {"lat": 38.90042783333333, "is_disabled": 0, "type": "electric_scooter", "lon": -77.01315, "bike_id": "436e04b9c9c11603d3535ac1df78239c", "fusion_lat": 0.0, "name": "436e04b9c9c11603d3535ac1df78239c", "is_reserved": 0, "rental_uris": {"android": "https://dc.lft.to/lastmile_qr_scan", "ios": "https://dc.lft.to/lastmile_qr_scan"}, "fusion_lon": 0.0}, {"lat": 38.903910833333335, "is_disabled": 0, "type": "electric_scooter", "lon": -76.9848845, "bike_id": "387f96d2a0bd9d8cd0a3bedd909a9b6c", "fusion_lat": 0.0, "name": "387f96d2a0bd9d8cd0a3bedd909a9b6c", "is_reserved": 0, "rental_uris": {"android": "https://dc.lft.to/lastmile_qr_scan", "ios": "https://dc.lft.to/lastmile_qr_scan"}, "fusion_lon": 0.0}, {"lat": 38.93866883333333, "is_disabled": 0, "type": "electric_scooter", "lon": -77.02594216666667, "bike_id": "6a72cfe4474d54933b875ee7230a11f0", "fusion_lat": 0.0, "name": "6a72cfe4474d54933b875ee7230a11f0", "is_reserved": 0, "rental_uris": {"android": "https://dc.lft.to/lastmile_qr_scan", "ios": "https://dc.lft.to/lastmile_qr_scan"}, "fusion_lon": 0.0}, {"lat": 38.91263283333333, "is_disabled": 0, "type": "electric_scooter", "lon": -77.03032416666667, "bike_id": "e5f7f02e40311d8e4eb2922f25c94bb6", "fusion_lat": 0.0, "name": "e5f7f02e40311d8e4eb2922f25c94bb6", "is_reserved": 0, "rental_uris": {"android": "https://dc.lft.to/lastmile_qr_scan", "ios": "https://dc.lft.to/lastmile_qr_scan"}, "fusion_lon": 0.0}, {"lat": 38.9211065, "is_disabled": 0, "type": "electric_scooter", "lon": -77.04210883333333, "bike_id": "83fc2c31ae8516c26cd568da4a58afaa", "fusion_lat": 0.0, "name": "83fc2c31ae8516c26cd568da4a58afaa", "is_reserved": 0, "rental_uris": {"android": "https://dc.lft.to/lastmile_qr_scan", "ios": "https://dc.lft.to/lastmile_qr_scan"}, "fusion_lon": 0.0}, {"lat": 38.902676666666665, "is_disabled": 0, "type": "electric_scooter", "lon": -77.03939583333333, "bike_id": "148de0a1927f5553099e2f4cc91ded7c", "fusion_lat": 0.0, "name": "148de0a1927f5553099e2f4cc91ded7c", "is_reserved": 0, "rental_uris": {"android": "https://dc.lft.to/lastmile_qr_scan", "ios": "https://dc.lft.to/lastmile_qr_scan"}, "fusion_lon": 0.0}, {"lat": 38.934277, "is_disabled": 0, "type": "electric_scooter", "lon": -77.02847483333333, "bike_id": "c0530aef32cfa176f62b944174b1f404", "fusion_lat": 0.0, "name": "c0530aef32cfa176f62b944174b1f404", "is_reserved": 0, "rental_uris": {"android": "https://dc.lft.to/lastmile_qr_scan", "ios": "https://dc.lft.to/lastmile_qr_scan"}, "fusion_lon": 0.0}, {"lat": 38.946033166666666, "is_disabled": 0, "type": "electric_scooter", "lon": -77.07037666666666, "bike_id": "7ac30703122e77646b13ed90c4a67170", "fusion_lat": 0.0, "name": "7ac30703122e77646b13ed90c4a67170", "is_reserved": 0, "rental_uris": {"android": "https://dc.lft.to/lastmile_qr_scan", "ios": "https://dc.lft.to/lastmile_qr_scan"}, "fusion_lon": 0.0}, {"lat": 38.81051566666667, "is_disabled": 0, "type": "electric_bike", "lon": -77.08512633333333, "bike_id": "fffd8f37e9b82608e7c2893eabdd27a0", "fusion_lat": 0.0, "name": "fffd8f37e9b82608e7c2893eabdd27a0", "is_reserved": 0, "rental_uris": {"android": "https://dc.lft.to/lastmile_qr_scan", "ios": "https://dc.lft.to/lastmile_qr_scan"}, "fusion_lon": 0.0}, {"lat": 38.93421583333333, "is_disabled": 0, "type": "electric_scooter", "lon": -77.0284195, "bike_id": "598f838fa877df9582f594a04da959d2", "fusion_lat": 0.0, "name": "598f838fa877df9582f594a04da959d2", "is_reserved": 0, "rental_uris": {"android": "https://dc.lft.to/lastmile_qr_scan", "ios": "https://dc.lft.to/lastmile_qr_scan"}, "fusion_lon": 0.0}, {"lat": 38.923848, "is_disabled": 0, "type": "electric_scooter", "lon": -77.02765316666667, "bike_id": "1227b1e1c8a86270a1df18e35e0afc6c", "fusion_lat": 0.0, "name": "1227b1e1c8a86270a1df18e35e0afc6c", "is_reserved": 0, "rental_uris": {"android": "https://dc.lft.to/lastmile_qr_scan", "ios": "https://dc.lft.to/lastmile_qr_scan"}, "fusion_lon": 0.0}, {"lat": 38.84430366666667, "is_disabled": 0, "type": "electric_scooter", "lon": -76.99815233333334, "bike_id": "5402041256d1c3e3121a310d18e419f4", "fusion_lat": 0.0, "name": "5402041256d1c3e3121a310d18e419f4", "is_reserved": 0, "rental_uris": {"android": "https://dc.lft.to/lastmile_qr_scan", "ios": "https://dc.lft.to/lastmile_qr_scan"}, "fusion_lon": 0.0}, {"lat": 38.8543405, "is_disabled": 0, "type": "electric_bike", "lon": -76.90967183333333, "bike_id": "21ddc716a2353a5f8d57658122ba760e", "fusion_lat": 0.0, "name": "21ddc716a2353a5f8d57658122ba760e", "is_reserved": 0, "rental_uris": {"android": "https://dc.lft.to/lastmile_qr_scan", "ios": "https://dc.lft.to/lastmile_qr_scan"}, "fusion_lon": 0.0}, {"lat": 38.931889166666664, "is_disabled": 0, "type": "electric_scooter", "lon": -77.03867733333334, "bike_id": "c5fb11326921ac8d50c388bbaea32c94", "fusion_lat": 0.0, "name": "c5fb11326921ac8d50c388bbaea32c94", "is_reserved": 0, "rental_uris": {"android": "https://dc.lft.to/lastmile_qr_scan", "ios": "https://dc.lft.to/lastmile_qr_scan"}, "fusion_lon": 0.0}, {"lat": 38.92242366666667, "is_disabled": 0, "type": "electric_scooter", "lon": -77.0298775, "bike_id": "22a7a802e143c7e3d2d2f67335bd02b5", "fusion_lat": 0.0, "name": "22a7a802e143c7e3d2d2f67335bd02b5", "is_reserved": 0, "rental_uris": {"android": "https://dc.lft.to/lastmile_qr_scan", "ios": "https://dc.lft.to/lastmile_qr_scan"}, "fusion_lon": 0.0}, {"lat": 38.92917166666667, "is_disabled": 0, "type": "electric_scooter", "lon": -77.03631433333334, "bike_id": "accbfa4d729c0cc9f6291c6123c5a2ea", "fusion_lat": 0.0, "name": "accbfa4d729c0cc9f6291c6123c5a2ea", "is_reserved": 0, "rental_uris": {"android": "https://dc.lft.to/lastmile_qr_scan", "ios": "https://dc.lft.to/lastmile_qr_scan"}, "fusion_lon": 0.0}, {"lat": 38.92403783333334, "is_disabled": 0, "type": "electric_scooter", "lon": -77.05264433333333, "bike_id": "743d51fd9c8c63cab20088f79d4701f0", "fusion_lat": 0.0, "name": "743d51fd9c8c63cab20088f79d4701f0", "is_reserved": 0, "rental_uris": {"android": "https://dc.lft.to/lastmile_qr_scan", "ios": "https://dc.lft.to/lastmile_qr_scan"}, "fusion_lon": 0.0}, {"lat": 38.91258166666667, "is_disabled": 0, "type": "electric_scooter", "lon": -77.03862283333333, "bike_id": "6497ca79f08b7d91e962443fe9762074", "fusion_lat": 0.0, "name": "6497ca79f08b7d91e962443fe9762074", "is_reserved": 0, "rental_uris": {"android": "https://dc.lft.to/lastmile_qr_scan", "ios": "https://dc.lft.to/lastmile_qr_scan"}, "fusion_lon": 0.0}, {"lat": 38.90045166666667, "is_disabled": 0, "type": "electric_scooter", "lon": -76.995008, "bike_id": "faad95f78724f8a7966e78fa8b484dbd", "fusion_lat": 0.0, "name": "faad95f78724f8a7966e78fa8b484dbd", "is_reserved": 0, "rental_uris": {"android": "https://dc.lft.to/lastmile_qr_scan", "ios": "https://dc.lft.to/lastmile_qr_scan"}, "fusion_lon": 0.0}, {"lat": 38.929605, "is_disabled": 0, "type": "electric_scooter", "lon": -77.03165733333333, "bike_id": "c660fabd6ec7265c7dbc112baea054e0", "fusion_lat": 0.0, "name": "c660fabd6ec7265c7dbc112baea054e0", "is_reserved": 0, "rental_uris": {"android": "https://dc.lft.to/lastmile_qr_scan", "ios": "https://dc.lft.to/lastmile_qr_scan"}, "fusion_lon": 0.0}, {"lat": 38.880115, "is_disabled": 0, "type": "electric_scooter", "lon": -77.02479033333333, "bike_id": "b78891e9786a27172b9c48838959924d", "fusion_lat": 0.0, "name": "b78891e9786a27172b9c48838959924d", "is_reserved": 0, "rental_uris": {"android": "https://dc.lft.to/lastmile_qr_scan", "ios": "https://dc.lft.to/lastmile_qr_scan"}, "fusion_lon": 0.0}, {"lat": 38.90984133333333, "is_disabled": 0, "type": "electric_scooter", "lon": -76.9846685, "bike_id": "ba9c03f20f31e17db3a8975592f82726", "fusion_lat": 0.0, "name": "ba9c03f20f31e17db3a8975592f82726", "is_reserved": 0, "rental_uris": {"android": "https://dc.lft.to/lastmile_qr_scan", "ios": "https://dc.lft.to/lastmile_qr_scan"}, "fusion_lon": 0.0}, {"lat": 38.924058333333335, "is_disabled": 0, "type": "electric_scooter", "lon": -77.02557883333333, "bike_id": "55bb0c98bc819f55df2da630cd36f505", "fusion_lat": 0.0, "name": "55bb0c98bc819f55df2da630cd36f505", "is_reserved": 0, "rental_uris": {"android": "https://dc.lft.to/lastmile_qr_scan", "ios": "https://dc.lft.to/lastmile_qr_scan"}, "fusion_lon": 0.0}, {"lat": 38.936391666666665, "is_disabled": 0, "type": "electric_scooter", "lon": -77.03644316666667, "bike_id": "fd627043521ad0ac0f4b8a7c1dd3a1d5", "fusion_lat": 0.0, "name": "fd627043521ad0ac0f4b8a7c1dd3a1d5", "is_reserved": 0, "rental_uris": {"android": "https://dc.lft.to/lastmile_qr_scan", "ios": "https://dc.lft.to/lastmile_qr_scan"}, "fusion_lon": 0.0}, {"lat": 38.8398715, "is_disabled": 0, "type": "electric_bike", "lon": -77.00568166666666, "bike_id": "aecf0be0d952f1c99cebea42fc3a3635", "fusion_lat": 0.0, "name": "aecf0be0d952f1c99cebea42fc3a3635", "is_reserved": 0, "rental_uris": {"android": "https://dc.lft.to/lastmile_qr_scan", "ios": "https://dc.lft.to/lastmile_qr_scan"}, "fusion_lon": 0.0}, {"lat": 38.90989866666666, "is_disabled": 0, "type": "electric_scooter", "lon": -77.03189833333333, "bike_id": "1cab9bccf516bf9b3a97bff7cae21c04", "fusion_lat": 0.0, "name": "1cab9bccf516bf9b3a97bff7cae21c04", "is_reserved": 0, "rental_uris": {"android": "https://dc.lft.to/lastmile_qr_scan", "ios": "https://dc.lft.to/lastmile_qr_scan"}, "fusion_lon": 0.0}, {"lat": 38.909864166666665, "is_disabled": 0, "type": "electric_scooter", "lon": -77.0318635, "bike_id": "ad3eedd153cebb4bfccacb5af4b5d82b", "fusion_lat": 0.0, "name": "ad3eedd153cebb4bfccacb5af4b5d82b", "is_reserved": 0, "rental_uris": {"android": "https://dc.lft.to/lastmile_qr_scan", "ios": "https://dc.lft.to/lastmile_qr_scan"}, "fusion_lon": 0.0}, {"lat": 38.92170733333333, "is_disabled": 0, "type": "electric_scooter", "lon": -77.05136666666667, "bike_id": "460af47168e4a8b0a4bb66374dd60eab", "fusion_lat": 0.0, "name": "460af47168e4a8b0a4bb66374dd60eab", "is_reserved": 0, "rental_uris": {"android": "https://dc.lft.to/lastmile_qr_scan", "ios": "https://dc.lft.to/lastmile_qr_scan"}, "fusion_lon": 0.0}, {"lat": 38.91816166666667, "is_disabled": 0, "type": "electric_scooter", "lon": -76.9997115, "bike_id": "c809c2911440b53207649f2129f3c346", "fusion_lat": 0.0, "name": "c809c2911440b53207649f2129f3c346", "is_reserved": 0, "rental_uris": {"android": "https://dc.lft.to/lastmile_qr_scan", "ios": "https://dc.lft.to/lastmile_qr_scan"}, "fusion_lon": 0.0}, {"lat": 38.852231333333336, "is_disabled": 0, "type": "electric_bike", "lon": -77.12951083333333, "bike_id": "4f7625c5636c9cb2b74e0991132274fa", "fusion_lat": 0.0, "name": "4f7625c5636c9cb2b74e0991132274fa", "is_reserved": 0, "rental_uris": {"android": "https://dc.lft.to/lastmile_qr_scan", "ios": "https://dc.lft.to/lastmile_qr_scan"}, "fusion_lon": 0.0}, {"lat": 38.80058733333333, "is_disabled": 0, "type": "electric_bike", "lon": -77.071188, "bike_id": "73ff86625f1395487d24c9a5c454a1d7", "fusion_lat": 0.0, "name": "73ff86625f1395487d24c9a5c454a1d7", "is_reserved": 0, "rental_uris": {"android": "https://dc.lft.to/lastmile_qr_scan", "ios": "https://dc.lft.to/lastmile_qr_scan"}, "fusion_lon": 0.0}, {"lat": 38.934582166666665, "is_disabled": 0, "type": "electric_scooter", "lon": -77.032326, "bike_id": "66f838b366cdf715764f9f71c137c990", "fusion_lat": 0.0, "name": "66f838b366cdf715764f9f71c137c990", "is_reserved": 0, "rental_uris": {"android": "https://dc.lft.to/lastmile_qr_scan", "ios": "https://dc.lft.to/lastmile_qr_scan"}, "fusion_lon": 0.0}, {"lat": 38.91003033333333, "is_disabled": 0, "type": "electric_scooter", "lon": -77.04009033333334, "bike_id": "657531bf0918a905684318a727239e5a", "fusion_lat": 0.0, "name": "657531bf0918a905684318a727239e5a", "is_reserved": 0, "rental_uris": {"android": "https://dc.lft.to/lastmile_qr_scan", "ios": "https://dc.lft.to/lastmile_qr_scan"}, "fusion_lon": 0.0}, {"lat": 38.9322755, "is_disabled": 0, "type": "electric_scooter", "lon": -77.0441065, "bike_id": "552bfe59f25e6a919eae63ead943563c", "fusion_lat": 0.0, "name": "552bfe59f25e6a919eae63ead943563c", "is_reserved": 0, "rental_uris": {"android": "https://dc.lft.to/lastmile_qr_scan", "ios": "https://dc.lft.to/lastmile_qr_scan"}, "fusion_lon": 0.0}, {"lat": 38.88528616666667, "is_disabled": 0, "type": "electric_scooter", "lon": -77.015178, "bike_id": "931880107b50bf58e7773f95d810c0ae", "fusion_lat": 0.0, "name": "931880107b50bf58e7773f95d810c0ae", "is_reserved": 0, "rental_uris": {"android": "https://dc.lft.to/lastmile_qr_scan", "ios": "https://dc.lft.to/lastmile_qr_scan"}, "fusion_lon": 0.0}, {"lat": 38.92168366666667, "is_disabled": 0, "type": "electric_scooter", "lon": -77.0402015, "bike_id": "2e9efa39e4544cb7d91c3f9428adf6ae", "fusion_lat": 0.0, "name": "2e9efa39e4544cb7d91c3f9428adf6ae", "is_reserved": 0, "rental_uris": {"android": "https://dc.lft.to/lastmile_qr_scan", "ios": "https://dc.lft.to/lastmile_qr_scan"}, "fusion_lon": 0.0}, {"lat": 38.91761233333333, "is_disabled": 0, "type": "electric_scooter", "lon": -77.00454283333333, "bike_id": "80d854cd3e01600a72edfaffd81171a2", "fusion_lat": 0.0, "name": "80d854cd3e01600a72edfaffd81171a2", "is_reserved": 0, "rental_uris": {"android": "https://dc.lft.to/lastmile_qr_scan", "ios": "https://dc.lft.to/lastmile_qr_scan"}, "fusion_lon": 0.0}, {"lat": 38.86524166666667, "is_disabled": 0, "type": "electric_scooter", "lon": -76.99029183333333, "bike_id": "ef955dd76971cf0b438e316f3fa0b2e2", "fusion_lat": 0.0, "name": "ef955dd76971cf0b438e316f3fa0b2e2", "is_reserved": 0, "rental_uris": {"android": "https://dc.lft.to/lastmile_qr_scan", "ios": "https://dc.lft.to/lastmile_qr_scan"}, "fusion_lon": 0.0}, {"lat": 38.86596433333333, "is_disabled": 0, "type": "electric_bike", "lon": -76.9322895, "bike_id": "aff59e06db6c80ff3767c6ca7d34aced", "fusion_lat": 0.0, "name": "aff59e06db6c80ff3767c6ca7d34aced", "is_reserved": 0, "rental_uris": {"android": "https://dc.lft.to/lastmile_qr_scan", "ios": "https://dc.lft.to/lastmile_qr_scan"}, "fusion_lon": 0.0}, {"lat": 38.90064316666667, "is_disabled": 0, "type": "electric_scooter", "lon": -77.007593, "bike_id": "a7af3c19851339c3fb16e32f8d57199c", "fusion_lat": 0.0, "name": "a7af3c19851339c3fb16e32f8d57199c", "is_reserved": 0, "rental_uris": {"android": "https://dc.lft.to/lastmile_qr_scan", "ios": "https://dc.lft.to/lastmile_qr_scan"}, "fusion_lon": 0.0}, {"lat": 38.89223483333333, "is_disabled": 0, "type": "electric_scooter", "lon": -77.0486885, "bike_id": "861a1eea33c673c7c5f14ca1597f045a", "fusion_lat": 0.0, "name": "861a1eea33c673c7c5f14ca1597f045a", "is_reserved": 0, "rental_uris": {"android": "https://dc.lft.to/lastmile_qr_scan", "ios": "https://dc.lft.to/lastmile_qr_scan"}, "fusion_lon": 0.0}, {"lat": 38.9622, "is_disabled": 0, "type": "electric_bike", "lon": -77.02783116666667, "bike_id": "27f8c209ae8526e4e3043e45da5f7bcc", "fusion_lat": 0.0, "name": "27f8c209ae8526e4e3043e45da5f7bcc", "is_reserved": 0, "rental_uris": {"android": "https://dc.lft.to/lastmile_qr_scan", "ios": "https://dc.lft.to/lastmile_qr_scan"}, "fusion_lon": 0.0}, {"lat": 38.91744833333333, "is_disabled": 0, "type": "electric_scooter", "lon": -77.03194783333333, "bike_id": "8cccbcbfda8aea4524ac24822ddcbcf1", "fusion_lat": 0.0, "name": "8cccbcbfda8aea4524ac24822ddcbcf1", "is_reserved": 0, "rental_uris": {"android": "https://dc.lft.to/lastmile_qr_scan", "ios": "https://dc.lft.to/lastmile_qr_scan"}, "fusion_lon": 0.0}, {"lat": 38.94465266666667, "is_disabled": 0, "type": "electric_scooter", "lon": -77.0603225, "bike_id": "e7542065078fa3946390dd33f7fe8540", "fusion_lat": 0.0, "name": "e7542065078fa3946390dd33f7fe8540", "is_reserved": 0, "rental_uris": {"android": "https://dc.lft.to/lastmile_qr_scan", "ios": "https://dc.lft.to/lastmile_qr_scan"}, "fusion_lon": 0.0}, {"lat": 38.90265933333333, "is_disabled": 0, "type": "electric_scooter", "lon": -77.039511, "bike_id": "5661265ca5e27dc1824c5b498e274ef7", "fusion_lat": 0.0, "name": "5661265ca5e27dc1824c5b498e274ef7", "is_reserved": 0, "rental_uris": {"android": "https://dc.lft.to/lastmile_qr_scan", "ios": "https://dc.lft.to/lastmile_qr_scan"}, "fusion_lon": 0.0}, {"lat": 38.9881875, "is_disabled": 0, "type": "electric_bike", "lon": -77.02655116666666, "bike_id": "cdbc0337ff1c2b19f1bf65e6ec6c1044", "fusion_lat": 0.0, "name": "cdbc0337ff1c2b19f1bf65e6ec6c1044", "is_reserved": 0, "rental_uris": {"android": "https://dc.lft.to/lastmile_qr_scan", "ios": "https://dc.lft.to/lastmile_qr_scan"}, "fusion_lon": 0.0}, {"lat": 38.9245175, "is_disabled": 0, "type": "electric_scooter", "lon": -77.04203766666667, "bike_id": "feed8107ea75bab9e786b35993942efb", "fusion_lat": 0.0, "name": "feed8107ea75bab9e786b35993942efb", "is_reserved": 0, "rental_uris": {"android": "https://dc.lft.to/lastmile_qr_scan", "ios": "https://dc.lft.to/lastmile_qr_scan"}, "fusion_lon": 0.0}, {"lat": 38.8968275, "is_disabled": 0, "type": "electric_scooter", "lon": -76.9360885, "bike_id": "c855e68ef81dd68ea0b36a3574fe4d5b", "fusion_lat": 0.0, "name": "c855e68ef81dd68ea0b36a3574fe4d5b", "is_reserved": 0, "rental_uris": {"android": "https://dc.lft.to/lastmile_qr_scan", "ios": "https://dc.lft.to/lastmile_qr_scan"}, "fusion_lon": 0.0}, {"lat": 38.901249166666666, "is_disabled": 0, "type": "electric_scooter", "lon": -77.0177265, "bike_id": "72c577c995d06f30aad901f9e0ab7ed9", "fusion_lat": 0.0, "name": "72c577c995d06f30aad901f9e0ab7ed9", "is_reserved": 0, "rental_uris": {"android": "https://dc.lft.to/lastmile_qr_scan", "ios": "https://dc.lft.to/lastmile_qr_scan"}, "fusion_lon": 0.0}, {"lat": 38.93096366666666, "is_disabled": 0, "type": "electric_scooter", "lon": -77.03401633333333, "bike_id": "1ba51f9e7d690c45126135fda7de18b5", "fusion_lat": 0.0, "name": "1ba51f9e7d690c45126135fda7de18b5", "is_reserved": 0, "rental_uris": {"android": "https://dc.lft.to/lastmile_qr_scan", "ios": "https://dc.lft.to/lastmile_qr_scan"}, "fusion_lon": 0.0}, {"lat": 38.884494, "is_disabled": 0, "type": "electric_scooter", "lon": -76.9509485, "bike_id": "20d9864c3490cfdf951483f2badb03cc", "fusion_lat": 0.0, "name": "20d9864c3490cfdf951483f2badb03cc", "is_reserved": 0, "rental_uris": {"android": "https://dc.lft.to/lastmile_qr_scan", "ios": "https://dc.lft.to/lastmile_qr_scan"}, "fusion_lon": 0.0}, {"lat": 38.948244, "is_disabled": 0, "type": "electric_scooter", "lon": -76.99903516666667, "bike_id": "e81703f4537043b5423e68d7e0ad619e", "fusion_lat": 0.0, "name": "e81703f4537043b5423e68d7e0ad619e", "is_reserved": 0, "rental_uris": {"android": "https://dc.lft.to/lastmile_qr_scan", "ios": "https://dc.lft.to/lastmile_qr_scan"}, "fusion_lon": 0.0}, {"lat": 38.921238333333335, "is_disabled": 0, "type": "electric_scooter", "lon": -77.04176, "bike_id": "e4537f0df6028bc5d8dc833916aab7c2", "fusion_lat": 0.0, "name": "e4537f0df6028bc5d8dc833916aab7c2", "is_reserved": 0, "rental_uris": {"android": "https://dc.lft.to/lastmile_qr_scan", "ios": "https://dc.lft.to/lastmile_qr_scan"}, "fusion_lon": 0.0}, {"lat": 38.903566166666664, "is_disabled": 0, "type": "electric_scooter", "lon": -77.05326983333333, "bike_id": "cc8dbfede6971ba0d818e5976c0d5ae9", "fusion_lat": 0.0, "name": "cc8dbfede6971ba0d818e5976c0d5ae9", "is_reserved": 0, "rental_uris": {"android": "https://dc.lft.to/lastmile_qr_scan", "ios": "https://dc.lft.to/lastmile_qr_scan"}, "fusion_lon": 0.0}, {"lat": 38.89761016666667, "is_disabled": 0, "type": "electric_scooter", "lon": -77.04664216666667, "bike_id": "3c4605ae60f4b85460e5941f27e156e8", "fusion_lat": 0.0, "name": "3c4605ae60f4b85460e5941f27e156e8", "is_reserved": 0, "rental_uris": {"android": "https://dc.lft.to/lastmile_qr_scan", "ios": "https://dc.lft.to/lastmile_qr_scan"}, "fusion_lon": 0.0}, {"lat": 38.9014475, "is_disabled": 0, "type": "electric_scooter", "lon": -77.00068916666666, "bike_id": "a754f899c249fa98e26c0abb48c697e2", "fusion_lat": 0.0, "name": "a754f899c249fa98e26c0abb48c697e2", "is_reserved": 0, "rental_uris": {"android": "https://dc.lft.to/lastmile_qr_scan", "ios": "https://dc.lft.to/lastmile_qr_scan"}, "fusion_lon": 0.0}, {"lat": 38.911883, "is_disabled": 0, "type": "electric_scooter", "lon": -77.04484816666667, "bike_id": "520400fbe892af7f6e7e6ed59f02c600", "fusion_lat": 0.0, "name": "520400fbe892af7f6e7e6ed59f02c600", "is_reserved": 0, "rental_uris": {"android": "https://dc.lft.to/lastmile_qr_scan", "ios": "https://dc.lft.to/lastmile_qr_scan"}, "fusion_lon": 0.0}, {"lat": 38.94633016666667, "is_disabled": 0, "type": "electric_scooter", "lon": -77.02522716666667, "bike_id": "86b1f877e7f5d06365a6d3010f203dc6", "fusion_lat": 0.0, "name": "86b1f877e7f5d06365a6d3010f203dc6", "is_reserved": 0, "rental_uris": {"android": "https://dc.lft.to/lastmile_qr_scan", "ios": "https://dc.lft.to/lastmile_qr_scan"}, "fusion_lon": 0.0},