{"data": {"bikes": [{"rental_uris": {"ios": "https://dc.lft.to/lastmile_qr_scan", "android": "https://dc.lft.to/lastmile_qr_scan"}, "type": "electric_bike", "name": "524700176040149909c76ca55a6c6279", "is_reserved": 0, "lon": -76.98771566666667, "is_disabled": 0, "fusion_lat": 0.0, "lat": 38.84472933333333, "bike_id": "524700176040149909c76ca55a6c6279", "fusion_lon": 0.0}, {"rental_uris": {"ios": "https://dc.lft.to/lastmile_qr_scan", "android": "https://dc.lft.to/lastmile_qr_scan"}, "type": "electric_scooter", "name": "8427b216762056661ba06a19310360af", "is_reserved": 0, "lon": -77.01209866666666, "is_disabled": 0, "fusion_lat": 0.0, "lat": 38.92120966666667, "bike_id": "8427b216762056661ba06a19310360af", "fusion_lon": 0.0}, {"rental_uris": {"ios": "https://dc.lft.to/lastmile_qr_scan", "android": "https://dc.lft.to/lastmile_qr_scan"}, "type": "electric_scooter", "name": "80713aec471b3c45d464cad69928efa5", "is_reserved": 0, "lon": -77.020764, "is_disabled": 0, "fusion_lat": 0.0, "lat": 38.92700883333333, "bike_id": "80713aec471b3c45d464cad69928efa5", "fusion_lon": 0.0}, {"rental_uris": {"ios": "https://dc.lft.to/lastmile_qr_scan", "android": "https://dc.lft.to/lastmile_qr_scan"}, "type": "electric_scooter", "name": "d7f01da6d6b1628860106459dea69b32", "is_reserved": 0, "lon": -77.0395745, "is_disabled": 0, "fusion_lat": 0.0, "lat": 38.903730333333336, "bike_id": "d7f01da6d6b1628860106459dea69b32", "fusion_lon": 0.0}, {"rental_uris": {"ios": "https://dc.lft.to/lastmile_qr_scan", "android": "https://dc.lft.to/lastmile_qr_scan"}, "type": "electric_scooter", "name": "8ae1fe916a6ff7b8c00d73f98bbb4144", "is_reserved": 0, "lon": -77.05786, "is_disabled": 0, "fusion_lat": 0.0, "lat": 38.90100316666667, "bike_id": "8ae1fe916a6ff7b8c00d73f98bbb4144", "fusion_lon": 0.0}, {"rental_uris": {"ios": "https://dc.lft.to/lastmile_qr_scan", "android": "https://dc.lft.to/lastmile_qr_scan"}, "type": "electric_scooter", "name": "56553247bfd995ee21ad81f79f6086dd", "is_reserved": 0, "lon": -77.02092983333333, "is_disabled": 0, "fusion_lat": 0.0, "lat": 38.8818775, "bike_id": "56553247bfd995ee21ad81f79f6086dd", "fusion_lon": 0.0}, {"rental_uris": {"ios": "https://dc.lft.to/lastmile_qr_scan", "android": "https://dc.lft.to/lastmile_qr_scan"}, "type": "electric_scooter", "name": "9bb69415d3a91f1175db6349cdc57b40", "is_reserved": 0, "lon": -77.00329666666667, "is_disabled": 0, "fusion_lat": 0.0, "lat": 38.91340016666667, "bike_id": "9bb69415d3a91f1175db6349cdc57b40", "fusion_lon": 0.0}, {"rental_uris": {"ios": "https://dc.lft.to/lastmile_qr_scan", "android": "https://dc.lft.to/lastmile_qr_scan"}, "type": "electric_scooter", "name": "500c1dbc7887109a7553f6250c9840dd", "is_reserved": 0, "lon": -77.00913166666666, "is_disabled": 0, "fusion_lat": 0.0, "lat": 38.881925833333334, "bike_id": "500c1dbc7887109a7553f6250c9840dd", "fusion_lon": 0.0}, {"rental_uris": {"ios": "https://dc.lft.to/lastmile_qr_scan", "android": "https://dc.lft.to/lastmile_qr_scan"}, "type": "electric_scooter", "name": "800bb001d936a22b797d031acdee332b", "is_reserved": 0, "lon": -77.02255683333334, "is_disabled": 0, "fusion_lat": 0.0, "lat": 38.9282665, "bike_id": "800bb001d936a22b797d031acdee332b", "fusion_lon": 0.0}, {"rental_uris": {"ios": "https://dc.lft.to/lastmile_qr_scan", "android": "https://dc.lft.to/lastmile_qr_scan"}, "type": "electric_scooter", "name": "c46e0e0c3244326c625a5d93217b07a5", "is_reserved": 0, "lon": -76.98183883333333, "is_disabled": 0, "fusion_lat": 0.0, "lat": 38.9058475, "bike_id": "c46e0e0c3244326c625a5d93217b07a5", "fusion_lon": 0.0}, {"rental_uris": {"ios": "https://dc.lft.to/lastmile_qr_scan", "android": "https://dc.lft.to/lastmile_qr_scan"}, "type": "electric_bike", "name": "f1998eeb6ae97ae4e2d3fe6a3d933797", "is_reserved": 0, "lon": -77.11319516666667, "is_disabled": 0, "fusion_lat": 0.0, "lat": 38.85586766666667, "bike_id": "f1998eeb6ae97ae4e2d3fe6a3d933797", "fusion_lon": 0.0}, {"rental_uris": {"ios": "https://dc.lft.to/lastmile_qr_scan", "android": "https://dc.lft.to/lastmile_qr_scan"}, "type": "electric_scooter", "name": "bb33b9521371ba024f0c26fdcee01904", "is_reserved": 0, "lon": -76.99623833333334, "is_disabled": 0, "fusion_lat": 0.0, "lat": 38.904532, "bike_id": "bb33b9521371ba024f0c26fdcee01904", "fusion_lon": 0.0}, {"rental_uris": {"ios": "https://dc.lft.to/lastmile_qr_scan", "android": "https://dc.lft.to/lastmile_qr_scan"}, "type": "electric_scooter", "name": "4a557205c925e6f199a0714f301b0c02", "is_reserved": 0, "lon": -77.05014966666667, "is_disabled": 0, "fusion_lat": 0.0, "lat": 38.89793516666667, "bike_id": "4a557205c925e6f199a0714f301b0c02", "fusion_lon": 0.0}, {"rental_uris": {"ios": "https://dc.lft.to/lastmile_qr_scan", "android": "https://dc.lft.to/lastmile_qr_scan"}, "type": "electric_scooter", "name": "01d923d19aeb9814313ad907c1bacf7c", "is_reserved": 0, "lon": -77.039586, "is_disabled": 0, "fusion_lat": 0.0, "lat": 38.913552333333335, "bike_id": "01d923d19aeb9814313ad907c1bacf7c", "fusion_lon": 0.0}, {"rental_uris": {"ios": "https://dc.lft.to/lastmile_qr_scan", "android": "https://dc.lft.to/lastmile_qr_scan"}, "type": "electric_scooter", "name": "fcaf707b848a7b34fde7b09852ed68a3", "is_reserved": 0, "lon": -77.0326335, "is_disabled": 0, "fusion_lat": 0.0, "lat": 38.938857666666664, "bike_id": "fcaf707b848a7b34fde7b09852ed68a3", "fusion_lon": 0.0}, {"rental_uris": {"ios": "https://dc.lft.to/lastmile_qr_scan", "android": "https://dc.lft.to/lastmile_qr_scan"}, "type": "electric_scooter", "name": "580349288febc00dfae35539e656e934", "is_reserved": 0, "lon": -77.0199605, "is_disabled": 0, "fusion_lat": 0.0, "lat": 38.93055583333334, "bike_id": "580349288febc00dfae35539e656e934", "fusion_lon": 0.0}, {"rental_uris": {"ios": "https://dc.lft.to/lastmile_qr_scan", "android": "https://dc.lft.to/lastmile_qr_scan"}, "type": "electric_scooter", "name": "63e215051d824b5a862ba3b23a0e16cb", "is_reserved": 0, "lon": -77.03998216666666, "is_disabled": 0, "fusion_lat": 0.0, "lat": 38.91415216666667, "bike_id": "63e215051d824b5a862ba3b23a0e16cb", "fusion_lon": 0.0}, {"rental_uris": {"ios": "https://dc.lft.to/lastmile_qr_scan", "android": "https://dc.lft.to/lastmile_qr_scan"}, "type": "electric_scooter", "name": "5719256fcc8b84b5df674c2237f038a8", "is_reserved": 0, "lon": -77.02180133333333, "is_disabled": 0, "fusion_lat": 0.0, "lat": 38.91807466666667, "bike_id": "5719256fcc8b84b5df674c2237f038a8", "fusion_lon": 0.0}, {"rental_uris": {"ios": "https://dc.lft.to/lastmile_qr_scan", "android": "https://dc.lft.to/lastmile_qr_scan"}, "type": "electric_scooter", "name": "31e9dcc7692c842c009c54057ca0a508", "is_reserved": 0, "lon": -77.02355083333333, "is_disabled": 0, "fusion_lat": 0.0, "lat": 38.94523483333333, "bike_id": "31e9dcc7692c842c009c54057ca0a508", "fusion_lon": 0.0}, {"rental_uris": {"ios": "https://dc.lft.to/lastmile_qr_scan", "android": "https://dc.lft.to/lastmile_qr_scan"}, "type": "electric_scooter", "name": "8733c47a9ca1889368c3450e1939ecb1", "is_reserved": 0, "lon": -77.04345266666667, "is_disabled": 0, "fusion_lat": 0.0, "lat": 38.8965655, "bike_id": "8733c47a9ca1889368c3450e1939ecb1", "fusion_lon": 0.0}, {"rental_uris": {"ios": "https://dc.lft.to/lastmile_qr_scan", "android": "https://dc.lft.to/lastmile_qr_scan"}, "type": "electric_scooter", "name": "9bb6183e31feecd656d0ff71573a6632", "is_reserved": 0, "lon": -77.02406266666667, "is_disabled": 0, "fusion_lat": 0.0, "lat": 38.92759383333333, "bike_id": "9bb6183e31feecd656d0ff71573a6632", "fusion_lon": 0.0}, {"rental_uris": {"ios": "https://dc.lft.to/lastmile_qr_scan", "android": "https://dc.lft.to/lastmile_qr_scan"}, "type": "electric_scooter", "name": "e4313200dd6d05d26d0c47441b42115b", "is_reserved": 0, "lon": -77.0312395, "is_disabled": 0, "fusion_lat": 0.0, "lat": 38.92380716666667, "bike_id": "e4313200dd6d05d26d0c47441b42115b", "fusion_lon": 0.0}, {"rental_uris": {"ios": "https://dc.lft.to/lastmile_qr_scan", "android": "https://dc.lft.to/lastmile_qr_scan"}, "type": "electric_scooter", "name": "d238ee60c819ebba6132bdf26ef0f6e6", "is_reserved": 0, "lon": -77.07401216666666, "is_disabled": 0, "fusion_lat": 0.0, "lat": 38.9374845, "bike_id": "d238ee60c819ebba6132bdf26ef0f6e6", "fusion_lon": 0.0}, {"rental_uris": {"ios": "https://dc.lft.to/lastmile_qr_scan", "android": "https://dc.lft.to/lastmile_qr_scan"}, "type": "electric_bike", "name": "ae0baed9388cfe8ffbac7635751ce376", "is_reserved": 0, "lon": -76.95062466666667, "is_disabled": 0, "fusion_lat": 0.0, "lat": 39.08512833333333, "bike_id": "ae0baed9388cfe8ffbac7635751ce376", "fusion_lon": 0.0}, {"rental_uris": {"ios": "https://dc.lft.to/lastmile_qr_scan", "android": "https://dc.lft.to/lastmile_qr_scan"}, "type": "electric_scooter", "name": "169c80b4eee76377ab33abfd4b0ec306", "is_reserved": 0, "lon": -76.99388, "is_disabled": 0, "fusion_lat": 0.0, "lat": 38.910141333333335, "bike_id": "169c80b4eee76377ab33abfd4b0ec306", "fusion_lon": 0.0}, {"rental_uris": {"ios": "https://dc.lft.to/lastmile_qr_scan", "android": "https://dc.lft.to/lastmile_qr_scan"}, "type": "electric_scooter", "name": "6e9819519c0747b426394720e8b12f56", "is_reserved": 0, "lon": -77.01646116666667, "is_disabled": 0, "fusion_lat": 0.0, "lat": 38.90382133333333, "bike_id": "6e9819519c0747b426394720e8b12f56", "fusion_lon": 0.0}, {"rental_uris": {"ios": "https://dc.lft.to/lastmile_qr_scan", "android": "https://dc.lft.to/lastmile_qr_scan"}, "type": "electric_scooter", "name": "cc0ae79f13370fde33401bd8fbd51904", "is_reserved": 0, "lon": -77.03564583333333, "is_disabled": 0, "fusion_lat": 0.0, "lat": 38.90471633333333, "bike_id": "cc0ae79f13370fde33401bd8fbd51904", "fusion_lon": 0.0}, {"rental_uris": {"ios": "https://dc.lft.to/lastmile_qr_scan", "android": "https://dc.lft.to/lastmile_qr_scan"}, "type": "electric_scooter", "name": "2e6f1e5c03fa32d10dca75199e00336a", "is_reserved": 0, "lon": -77.035194, "is_disabled": 0, "fusion_lat": 0.0, "lat": 38.922376666666665, "bike_id": "2e6f1e5c03fa32d10dca75199e00336a", "fusion_lon": 0.0}, {"rental_uris": {"ios": "https://dc.lft.to/lastmile_qr_scan", "android": "https://dc.lft.to/lastmile_qr_scan"}, "type": "electric_bike", "name": "b3ca8ee33d72abef7516c76c7ecdb110", "is_reserved": 0, "lon": -77.08971366666667, "is_disabled": 0, "fusion_lat": 0.0, "lat": 38.91164766666667, "bike_id": "b3ca8ee33d72abef7516c76c7ecdb110", "fusion_lon": 0.0}, {"rental_uris": {"ios": "https://dc.lft.to/lastmile_qr_scan", "android": "https://dc.lft.to/lastmile_qr_scan"}, "type": "electric_scooter", "name": "49202c60c969624106827e73d9b87a1b", "is_reserved": 0, "lon": -77.03623433333334, "is_disabled": 0, "fusion_lat": 0.0, "lat": 38.90345833333333, "bike_id": "49202c60c969624106827e73d9b87a1b", "fusion_lon": 0.0}, {"rental_uris": {"ios": "https://dc.lft.to/lastmile_qr_scan", "android": "https://dc.lft.to/lastmile_qr_scan"}, "type": "electric_scooter", "name": "9e32af72a6984714f9bb698b20b9ce97", "is_reserved": 0, "lon": -77.01085883333333, "is_disabled": 0, "fusion_lat": 0.0, "lat": 38.903327833333336, "bike_id": "9e32af72a6984714f9bb698b20b9ce97", "fusion_lon": 0.0}, {"rental_uris": {"ios": "https://dc.lft.to/lastmile_qr_scan", "android": "https://dc.lft.to/lastmile_qr_scan"}, "type": "electric_scooter", "name": "2419f5f5b0359bdda34f149c722f0521", "is_reserved": 0, "lon": -77.04318983333333, "is_disabled": 0, "fusion_lat": 0.0, "lat": 38.91779966666667, "bike_id": "2419f5f5b0359bdda34f149c722f0521", "fusion_lon": 0.0}, {"rental_uris": {"ios": "https://dc.lft.to/lastmile_qr_scan", "android": "https://dc.lft.to/lastmile_qr_scan"}, "type": "electric_scooter", "name": "7ea8a8d92f9c243880116b801f966f7d", "is_reserved": 0, "lon": -77.02454, "is_disabled": 0, "fusion_lat": 0.0, "lat": 38.9205325, "bike_id": "7ea8a8d92f9c243880116b801f966f7d", "fusion_lon": 0.0}, {"rental_uris": {"ios": "https://dc.lft.to/lastmile_qr_scan", "android": "https://dc.lft.to/lastmile_qr_scan"}, "type": "electric_scooter", "name": "034248a0dd4d2326293db076d2affc29", "is_reserved": 0, "lon": -77.04493716666667, "is_disabled": 0, "fusion_lat": 0.0, "lat": 38.897343, "bike_id": "034248a0dd4d2326293db076d2affc29", "fusion_lon": 0.0}, {"rental_uris": {"ios": "https://dc.lft.to/lastmile_qr_scan", "android": "https://dc.lft.to/lastmile_qr_scan"}, "type": "electric_scooter", "name": "e70b9601e5dcebb817225527bf419000", "is_reserved": 0, "lon": -77.0170495, "is_disabled": 0, "fusion_lat": 0.0, "lat": 38.9047315, "bike_id": "e70b9601e5dcebb817225527bf419000", "fusion_lon": 0.0}, {"rental_uris": {"ios": "https://dc.lft.to/lastmile_qr_scan", "android": "https://dc.lft.to/lastmile_qr_scan"}, "type": "electric_scooter", "name": "bda9664c4f9a1f18a7d6f24e12aa802e", "is_reserved": 0, "lon": -77.02590966666666, "is_disabled": 0, "fusion_lat": 0.0, "lat": 38.91402983333333, "bike_id": "bda9664c4f9a1f18a7d6f24e12aa802e", "fusion_lon": 0.0}, {"rental_uris": {"ios": "https://dc.lft.to/lastmile_qr_scan", "android": "https://dc.lft.to/lastmile_qr_scan"}, "type": "electric_scooter", "name": "65d5f703f890b65321263818efb14a39", "is_reserved": 0, "lon": -77.017673, "is_disabled": 0, "fusion_lat": 0.0, "lat": 38.8862495, "bike_id": "65d5f703f890b65321263818efb14a39", "fusion_lon": 0.0}, {"rental_uris": {"ios": "https://dc.lft.to/lastmile_qr_scan", "android": "https://dc.lft.to/lastmile_qr_scan"}, "type": "electric_bike", "name": "09a03c158ccd12b70f978128e9cef92e", "is_reserved": 0, "lon": -76.98826083333333, "is_disabled": 0, "fusion_lat": 0.0, "lat": 38.84270383333333, "bike_id": "09a03c158ccd12b70f978128e9cef92e", "fusion_lon": 0.0}, {"rental_uris": {"ios": "https://dc.lft.to/lastmile_qr_scan", "android": "https://dc.lft.to/lastmile_qr_scan"}, "type": "electric_scooter", "name": "884ca25ec416b957a71be6ef92ca7526", "is_reserved": 0, "lon": -77.03402066666666, "is_disabled": 0, "fusion_lat": 0.0, "lat": 38.90729183333333, "bike_id": "884ca25ec416b957a71be6ef92ca7526", "fusion_lon": 0.0}, {"rental_uris": {"ios": "https://dc.lft.to/lastmile_qr_scan", "android": "https://dc.lft.to/lastmile_qr_scan"}, "type": "electric_scooter", "name": "9b96328ea151113438567a751f1f03d1", "is_reserved": 0, "lon": -76.9833785, "is_disabled": 0, "fusion_lat": 0.0, "lat": 38.900945, "bike_id": "9b96328ea151113438567a751f1f03d1", "fusion_lon": 0.0}, {"rental_uris": {"ios": "https://dc.lft.to/lastmile_qr_scan", "android": "https://dc.lft.to/lastmile_qr_scan"}, "type": "electric_scooter", "name": "67e82eb8bc8b93dc16cd771ae1c26785", "is_reserved": 0, "lon": -77.04645166666667, "is_disabled": 0, "fusion_lat": 0.0, "lat": 38.89742616666667, "bike_id": "67e82eb8bc8b93dc16cd771ae1c26785", "fusion_lon": 0.0}, {"rental_uris": {"ios": "https://dc.lft.to/lastmile_qr_scan", "android": "https://dc.lft.to/lastmile_qr_scan"}, "type": "electric_scooter", "name": "980870f0d327497995b9cc749dfd3d7d", "is_reserved": 0, "lon": -77.02815516666666, "is_disabled": 0, "fusion_lat": 0.0, "lat": 38.923738166666666, "bike_id": "980870f0d327497995b9cc749dfd3d7d", "fusion_lon": 0.0}, {"rental_uris": {"ios": "https://dc.lft.to/lastmile_qr_scan", "android": "https://dc.lft.to/lastmile_qr_scan"}, "type": "electric_scooter", "name": "ac289b3ebb2a17279b0f3631e6f1c59f", "is_reserved": 0, "lon": -77.04032633333334, "is_disabled": 0, "fusion_lat": 0.0, "lat": 38.9057775, "bike_id": "ac289b3ebb2a17279b0f3631e6f1c59f", "fusion_lon": 0.0}, {"rental_uris": {"ios": "https://dc.lft.to/lastmile_qr_scan", "android": "https://dc.lft.to/lastmile_qr_scan"}, "type": "electric_scooter", "name": "0bfcfcacf1fe2545c154c5792aabb47b", "is_reserved": 0, "lon": -76.98699066666667, "is_disabled": 0, "fusion_lat": 0.0, "lat": 38.912919, "bike_id": "0bfcfcacf1fe2545c154c5792aabb47b", "fusion_lon": 0.0}, {"rental_uris": {"ios": "https://dc.lft.to/lastmile_qr_scan", "android": "https://dc.lft.to/lastmile_qr_scan"}, "type": "electric_scooter", "name": "12adbd22d8b9d5ae6f806b7501c38644", "is_reserved": 0, "lon": -77.02306566666667, "is_disabled": 0, "fusion_lat": 0.0, "lat": 38.917058833333336, "bike_id": "12adbd22d8b9d5ae6f806b7501c38644", "fusion_lon": 0.0}, {"rental_uris": {"ios": "https://dc.lft.to/lastmile_qr_scan", "android": "https://dc.lft.to/lastmile_qr_scan"}, "type": "electric_scooter", "name": "8c607df3c83298a7808dd8535c24e4db", "is_reserved": 0, "lon": -77.00280533333333, "is_disabled": 0, "fusion_lat": 0.0, "lat": 38.901294166666666, "bike_id": "8c607df3c83298a7808dd8535c24e4db", "fusion_lon": 0.0}, {"rental_uris": {"ios": "https://dc.lft.to/lastmile_qr_scan", "android": "https://dc.lft.to/lastmile_qr_scan"}, "type": "electric_scooter", "name": "970cd950518e4b703695e7189005ea55", "is_reserved": 0, "lon": -77.03644166666666, "is_disabled": 0, "fusion_lat": 0.0, "lat": 38.90065333333333, "bike_id": "970cd950518e4b703695e7189005ea55", "fusion_lon": 0.0}, {"rental_uris": {"ios": "https://dc.lft.to/lastmile_qr_scan", "android": "https://dc.lft.to/lastmile_qr_scan"}, "type": "electric_scooter", "name": "9e3500f42f791fea739705d7bed8d3a9", "is_reserved": 0, "lon": -77.00161083333333, "is_disabled": 0, "fusion_lat": 0.0, "lat": 38.873876, "bike_id": "9e3500f42f791fea739705d7bed8d3a9", "fusion_lon": 0.0}, {"rental_uris": {"ios": "https://dc.lft.to/lastmile_qr_scan", "android": "https://dc.lft.to/lastmile_qr_scan"}, "type": "electric_scooter", "name": "b2424444f6d6d5b1b674d3af648c0ada", "is_reserved": 0, "lon": -77.016438, "is_disabled": 0, "fusion_lat": 0.0, "lat": 38.92942633333333, "bike_id": "b2424444f6d6d5b1b674d3af648c0ada", "fusion_lon": 0.0}, {"rental_uris": {"ios": "https://dc.lft.to/lastmile_qr_scan", "android": "https://dc.lft.to/lastmile_qr_scan"}, "type": "electric_scooter", "name": "fd34decb34283e652206d70d890b97a8", "is_reserved": 0, "lon": -77.0291745, "is_disabled": 0, "fusion_lat": 0.0, "lat": 38.93455083333333, "bike_id": "fd34decb34283e652206d70d890b97a8", "fusion_lon": 0.0}, {"rental_uris": {"ios": "https://dc.lft.to/lastmile_qr_scan", "android": "https://dc.lft.to/lastmile_qr_scan"}, "type": "electric_scooter", "name": "072a08a0ea04ad92e3ffab8cd9ef8b4c", "is_reserved": 0, "lon": -77.03648983333333, "is_disabled": 0, "fusion_lat": 0.0, "lat": 38.906353, "bike_id": "072a08a0ea04ad92e3ffab8cd9ef8b4c", "fusion_lon": 0.0}, {"rental_uris": {"ios": "https://dc.lft.to/lastmile_qr_scan", "android": "https://dc.lft.to/lastmile_qr_scan"}, "type": "electric_scooter", "name": "019d99cc7e0b833b2e449c3691c03645", "is_reserved": 0, "lon": -76.999085, "is_disabled": 0, "fusion_lat": 0.0, "lat": 38.9005835, "bike_id": "019d99cc7e0b833b2e449c3691c03645", "fusion_lon": 0.0}, {"rental_uris": {"ios": "https://dc.lft.to/lastmile_qr_scan", "android": "https://dc.lft.to/lastmile_qr_scan"}, "type": "electric_scooter", "name": "9ad6b105d554d6ac671075b37136942c", "is_reserved": 0, "lon": -77.0382905, "is_disabled": 0, "fusion_lat": 0.0, "lat": 38.962666166666665, "bike_id": "9ad6b105d554d6ac671075b37136942c", "fusion_lon": 0.0}, {"rental_uris": {"ios": "https://dc.lft.to/lastmile_qr_scan", "android": "https://dc.lft.to/lastmile_qr_scan"}, "type": "electric_scooter", "name": "b9bd30ee24b3002f77590a7d58a27dc1", "is_reserved": 0, "lon": -77.06991183333334, "is_disabled": 0, "fusion_lat": 0.0, "lat": 38.89363983333333, "bike_id": "b9bd30ee24b3002f77590a7d58a27dc1", "fusion_lon": 0.0}, {"rental_uris": {"ios": "https://dc.lft.to/lastmile_qr_scan", "android": "https://dc.lft.to/lastmile_qr_scan"}, "type": "electric_scooter", "name": "cae404f979c4b13f835a142c472788a8", "is_reserved": 0, "lon": -77.058163, "is_disabled": 0, "fusion_lat": 0.0, "lat": 38.9351825, "bike_id": "cae404f979c4b13f835a142c472788a8", "fusion_lon": 0.0}, {"rental_uris": {"ios": "https://dc.lft.to/lastmile_qr_scan", "android": "https://dc.lft.to/lastmile_qr_scan"}, "type": "electric_scooter", "name": "86cc41f323920b5ce8a56d22dd2a66c6", "is_reserved": 0, "lon": -76.93187933333333, "is_disabled": 0, "fusion_lat": 0.0, "lat": 38.898772, "bike_id": "86cc41f323920b5ce8a56d22dd2a66c6", "fusion_lon": 0.0}, {"rental_uris": {"ios": "https://dc.lft.to/lastmile_qr_scan", "android": "https://dc.lft.to/lastmile_qr_scan"}, "type": "electric_scooter", "name": "63adc067f002b3d2aceda1caa1e3c6de", "is_reserved": 0, "lon": -77.00952766666667, "is_disabled": 0, "fusion_lat": 0.0, "lat": 38.919184, "bike_id": "63adc067f002b3d2aceda1caa1e3c6de", "fusion_lon": 0.0}, {"rental_uris": {"ios": "https://dc.lft.to/lastmile_qr_scan", "android": "https://dc.lft.to/lastmile_qr_scan"}, "type": "electric_scooter", "name": "69621f5e78261d3a43dd6b51aaa324b1", "is_reserved": 0, "lon": -77.0006065, "is_disabled": 0, "fusion_lat": 0.0, "lat": 38.8743525, "bike_id": "69621f5e78261d3a43dd6b51aaa324b1", "fusion_lon": 0.0}, {"rental_uris": {"ios": "https://dc.lft.to/lastmile_qr_scan", "android": "https://dc.lft.to/lastmile_qr_scan"}, "type": "electric_scooter", "name": "c845409d4d7846b1d18a8c39cf270849", "is_reserved": 0, "lon": -77.03637833333333, "is_disabled": 0, "fusion_lat": 0.0, "lat": 38.91899433333333, "bike_id": "c845409d4d7846b1d18a8c39cf270849", "fusion_lon": 0.0}, {"rental_uris": {"ios": "https://dc.lft.to/lastmile_qr_scan", "android": "https://dc.lft.to/lastmile_qr_scan"}, "type": "electric_bike", "name": "2cac6dad633894f45f405467ecc94ebb", "is_reserved": 0, "lon": -76.94150183333333, "is_disabled": 0, "fusion_lat": 0.0, "lat": 38.890208, "bike_id": "2cac6dad633894f45f405467ecc94ebb", "fusion_lon": 0.0}, {"rental_uris": {"ios": "https://dc.lft.to/lastmile_qr_scan", "android": "https://dc.lft.to/lastmile_qr_scan"}, "type": "electric_scooter", "name": "eeb6497b3e3fc65f9ec75da0b4ee1765", "is_reserved": 0, "lon": -77.04581633333333, "is_disabled": 0, "fusion_lat": 0.0, "lat": 38.90953, "bike_id": "eeb6497b3e3fc65f9ec75da0b4ee1765", "fusion_lon": 0.0}, {"rental_uris": {"ios": "https://dc.lft.to/lastmile_qr_scan", "android": "https://dc.lft.to/lastmile_qr_scan"}, "type": "electric_scooter", "name": "1a5c28de64e22a2ee120363dc7208eb2", "is_reserved": 0, "lon": -77.0553245, "is_disabled": 0, "fusion_lat": 0.0, "lat": 38.910043333333334, "bike_id": "1a5c28de64e22a2ee120363dc7208eb2", "fusion_lon": 0.0}, {"rental_uris": {"ios": "https://dc.lft.to/lastmile_qr_scan", "android": "https://dc.lft.to/lastmile_qr_scan"}, "type": "electric_scooter", "name": "5125f79b77aa133716ff25fc2a6e52be", "is_reserved": 0, "lon": -77.02502733333333, "is_disabled": 0, "fusion_lat": 0.0, "lat": 38.93284366666666, "bike_id": "5125f79b77aa133716ff25fc2a6e52be", "fusion_lon": 0.0}, {"rental_uris": {"ios": "https://dc.lft.to/lastmile_qr_scan", "android": "https://dc.lft.to/lastmile_qr_scan"}, "type": "electric_scooter", "name": "e5328624d77f29f4f076957105f45f5c", "is_reserved": 0, "lon": -77.00194916666666, "is_disabled": 0, "fusion_lat": 0.0, "lat": 38.91196083333333, "bike_id": "e5328624d77f29f4f076957105f45f5c", "fusion_lon": 0.0}, {"rental_uris": {"ios": "https://dc.lft.to/lastmile_qr_scan", "android": "https://dc.lft.to/lastmile_qr_scan"}, "type": "electric_scooter", "name": "9e03b148b6d089db678115baebc4d820", "is_reserved": 0, "lon": -76.98988583333333, "is_disabled": 0, "fusion_lat": 0.0, "lat": 38.8642485, "bike_id": "9e03b148b6d089db678115baebc4d820", "fusion_lon": 0.0}, {"rental_uris": {"ios": "https://dc.lft.to/lastmile_qr_scan", "android": "https://dc.lft.to/lastmile_qr_scan"}, "type": "electric_scooter", "name": "a9852dfe0a9559204119e472c14f1098", "is_reserved": 0, "lon": -77.02159816666666, "is_disabled": 0, "fusion_lat": 0.0, "lat": 38.924993, "bike_id": "a9852dfe0a9559204119e472c14f1098", "fusion_lon": 0.0}, {"rental_uris": {"ios": "https://dc.lft.to/lastmile_qr_scan", "android": "https://dc.lft.to/lastmile_qr_scan"}, "type": "electric_bike", "name": "bde67a422ba44b5ac9736398c5ab3a5b", "is_reserved": 0, "lon": -77.12931116666667, "is_disabled": 0, "fusion_lat": 0.0, "lat": 38.86581916666667, "bike_id": "bde67a422ba44b5ac9736398c5ab3a5b", "fusion_lon": 0.0}, {"rental_uris": {"ios": "https://dc.lft.to/lastmile_qr_scan", "android": "https://dc.lft.to/lastmile_qr_scan"}, "type": "electric_scooter", "name": "913892389c5a4796a4a7091be0bdf38f", "is_reserved": 0, "lon": -77.03860633333333, "is_disabled": 0, "fusion_lat": 0.0, "lat": 38.91712966666667, "bike_id": "913892389c5a4796a4a7091be0bdf38f", "fusion_lon": 0.0}, {"rental_uris": {"ios": "https://dc.lft.to/lastmile_qr_scan", "android": "https://dc.lft.to/lastmile_qr_scan"}, "type": "electric_scooter", "name": "a2008e1d6a42f242d91e50e9e3062a8b", "is_reserved": 0, "lon": -77.0350245, "is_disabled": 0, "fusion_lat": 0.0, "lat": 38.9155125, "bike_id": "a2008e1d6a42f242d91e50e9e3062a8b", "fusion_lon": 0.0}, {"rental_uris": {"ios": "https://dc.lft.to/lastmile_qr_scan", "android": "https://dc.lft.to/lastmile_qr_scan"}, "type": "electric_scooter", "name": "3f0a835b7f16d091d84e78c700175c03", "is_reserved": 0, "lon": -77.07171233333334, "is_disabled": 0, "fusion_lat": 0.0, "lat": 38.9077925, "bike_id": "3f0a835b7f16d091d84e78c700175c03", "fusion_lon": 0.0}, {"rental_uris": {"ios": "https://dc.lft.to/lastmile_qr_scan", "android": "https://dc.lft.to/lastmile_qr_scan"}, "type": "electric_scooter", "name": "1164999a9e8ee0120f685012bf9b60e4", "is_reserved": 0, "lon": -77.01765133333333, "is_disabled": 0, "fusion_lat": 0.0, "lat": 38.92048716666667, "bike_id": "1164999a9e8ee0120f685012bf9b60e4", "fusion_lon": 0.0}, {"rental_uris": {"ios": "https://dc.lft.to/lastmile_qr_scan", "android": "https://dc.lft.to/lastmile_qr_scan"}, "type": "electric_scooter", "name": "5efe37b15dfbb30738c603fb2fcf08b1", "is_reserved": 0, "lon": -76.9996445, "is_disabled": 0, "fusion_lat": 0.0, "lat": 38.891988166666664, "bike_id": "5efe37b15dfbb30738c603fb2fcf08b1", "fusion_lon": 0.0}, {"rental_uris": {"ios": "https://dc.lft.to/lastmile_qr_scan", "android": "https://dc.lft.to/lastmile_qr_scan"}, "type": "electric_scooter", "name": "b8313bf393a3696aa33da893947ec73c", "is_reserved": 0, "lon": -77.04120666666667, "is_disabled": 0, "fusion_lat": 0.0, "lat": 38.92876716666667, "bike_id": "b8313bf393a3696aa33da893947ec73c", "fusion_lon": 0.0}, {"rental_uris": {"ios": "https://dc.lft.to/lastmile_qr_scan", "android": "https://dc.lft.to/lastmile_qr_scan"}, "type": "electric_scooter", "name": "9241107ea29121bd718f16e10d8dcf76", "is_reserved": 0, "lon": -77.055034, "is_disabled": 0, "fusion_lat": 0.0, "lat": 38.92843883333333, "bike_id": "9241107ea29121bd718f16e10d8dcf76", "fusion_lon": 0.0}, {"rental_uris": {"ios": "https://dc.lft.to/lastmile_qr_scan", "android": "https://dc.lft.to/lastmile_qr_scan"}, "type": "electric_scooter", "name": "02333bfd80998dca87ba74c4bcd6c67c", "is_reserved": 0, "lon": -77.04702133333333, "is_disabled": 0, "fusion_lat": 0.0, "lat": 38.92065566666667, "bike_id": "02333bfd80998dca87ba74c4bcd6c67c", "fusion_lon": 0.0}, {"rental_uris": {"ios": "https://dc.lft.to/lastmile_qr_scan", "android": "https://dc.lft.to/lastmile_qr_scan"}, "type": "electric_scooter", "name": "e6b00a7f645718c2a2e80a90c4d709d6", "is_reserved": 0, "lon": -77.02832116666667, "is_disabled": 0, "fusion_lat": 0.0, "lat": 38.93235966666667, "bike_id": "e6b00a7f645718c2a2e80a90c4d709d6", "fusion_lon": 0.0}, {"rental_uris": {"ios": "https://dc.lft.to/lastmile_qr_scan", "android": "https://dc.lft.to/lastmile_qr_scan"}, "type": "electric_scooter", "name": "52e41b34723cf33fd1eeeb272cc5efa4", "is_reserved": 0, "lon": -77.050601, "is_disabled": 0, "fusion_lat": 0.0, "lat": 38.923595666666664, "bike_id": "52e41b34723cf33fd1eeeb272cc5efa4", "fusion_lon": 0.0}, {"rental_uris": {"ios": "https://dc.lft.to/lastmile_qr_scan", "android": "https://dc.lft.to/lastmile_qr_scan"}, "type": "electric_scooter", "name": "9d5f712128f5e22df36252fa7e639ec1", "is_reserved": 0, "lon": -76.94326116666667, "is_disabled": 0, "fusion_lat": 0.0, "lat": 38.879171, "bike_id": "9d5f712128f5e22df36252fa7e639ec1", "fusion_lon": 0.0}, {"rental_uris": {"ios": "https://dc.lft.to/lastmile_qr_scan", "android": "https://dc.lft.to/lastmile_qr_scan"}, "type": "electric_bike", "name": "7c9fbb7519fa62834051a6eea3a479dc", "is_reserved": 0, "lon": -77.07245033333334, "is_disabled": 0, "fusion_lat": 0.0, "lat": 38.813664333333335, "bike_id": "7c9fbb7519fa62834051a6eea3a479dc", "fusion_lon": 0.0}, {"rental_uris": {"ios": "https://dc.lft.to/lastmile_qr_scan", "android": "https://dc.lft.to/lastmile_qr_scan"}, "type": "electric_scooter", "name": "5d7163d39be79b212943123ae7876da2", "is_reserved": 0, "lon": -77.01807283333333, "is_disabled": 0, "fusion_lat": 0.0, "lat": 38.92133466666667, "bike_id": "5d7163d39be79b212943123ae7876da2", "fusion_lon": 0.0}, {"rental_uris": {"ios": "https://dc.lft.to/lastmile_qr_scan", "android": "https://dc.lft.to/lastmile_qr_scan"}, "type": "electric_scooter", "name": "38518ed8a0cb7793872b2652b2f53b01", "is_reserved": 0, "lon": -77.0236055, "is_disabled": 0, "fusion_lat": 0.0, "lat": 38.93292433333333, "bike_id": "38518ed8a0cb7793872b2652b2f53b01", "fusion_lon": 0.0}, {"rental_uris": {"ios": "https://dc.lft.to/lastmile_qr_scan", "android": "https://dc.lft.to/lastmile_qr_scan"}, "type": "electric_scooter", "name": "c2a111a5b8276036866ec9dd3d8553ba", "is_reserved": 0, "lon": -77.05358683333333, "is_disabled": 0, "fusion_lat": 0.0, "lat": 38.8988255, "bike_id": "c2a111a5b8276036866ec9dd3d8553ba", "fusion_lon": 0.0}, {"rental_uris": {"ios": "https://dc.lft.to/lastmile_qr_scan", "android": "https://dc.lft.to/lastmile_qr_scan"}, "type": "electric_scooter", "name": "814b7e51c10a3577a7c6e57d30bef53f", "is_reserved": 0, "lon": -77.03506933333334, "is_disabled": 0, "fusion_lat": 0.0, "lat": 38.918739333333335, "bike_id": "814b7e51c10a3577a7c6e57d30bef53f", "fusion_lon": 0.0}, {"rental_uris": {"ios": "https://dc.lft.to/lastmile_qr_scan", "android": "https://dc.lft.to/lastmile_qr_scan"}, "type": "electric_scooter", "name": "d398ba60ca0b891579d3c61c4220860b", "is_reserved": 0, "lon": -77.04264683333334, "is_disabled": 0, "fusion_lat": 0.0, "lat": 38.9221645, "bike_id": "d398ba60ca0b891579d3c61c4220860b", "fusion_lon": 0.0}, {"rental_uris": {"ios": "https://dc.lft.to/lastmile_qr_scan", "android": "https://dc.lft.to/lastmile_qr_scan"}, "type": "electric_scooter", "name": "489d0a22d9b3cdacec2932371365568d", "is_reserved": 0, "lon": -77.006949, "is_disabled": 0, "fusion_lat": 0.0, "lat": 38.90600116666667, "bike_id": "489d0a22d9b3cdacec2932371365568d", "fusion_lon": 0.0}, {"rental_uris": {"ios": "https://dc.lft.to/lastmile_qr_scan", "android": "https://dc.lft.to/lastmile_qr_scan"}, "type": "electric_scooter", "name": "d247bdfd78b22f9f1513fdbbe127cd27", "is_reserved": 0, "lon": -77.01506183333333, "is_disabled": 0, "fusion_lat": 0.0, "lat": 38.901459333333335, "bike_id": "d247bdfd78b22f9f1513fdbbe127cd27", "fusion_lon": 0.0}, {"rental_uris": {"ios": "https://dc.lft.to/lastmile_qr_scan", "android": "https://dc.lft.to/lastmile_qr_scan"}, "type": "electric_scooter", "name": "f99694c7fc74c52c904e4f9f0c1cbb31", "is_reserved": 0, "lon": -77.04394083333334, "is_disabled": 0, "fusion_lat": 0.0, "lat": 38.925988833333335, "bike_id": "f99694c7fc74c52c904e4f9f0c1cbb31", "fusion_lon": 0.0}, {"rental_uris": {"ios": "https://dc.lft.to/lastmile_qr_scan", "android": "https://dc.lft.to/lastmile_qr_scan"}, "type": "electric_scooter", "name": "e9c20a8ff0e4c383c6812e8df9ad88bc", "is_reserved": 0, "lon": -77.03773033333333, "is_disabled": 0, "fusion_lat": 0.0, "lat": 38.92564766666667, "bike_id": "e9c20a8ff0e4c383c6812e8df9ad88bc", "fusion_lon": 0.0}, {"rental_uris": {"ios": "https://dc.lft.to/lastmile_qr_scan", "android": "https://dc.lft.to/lastmile_qr_scan"}, "type": "electric_scooter", "name": "ed2efba476d476a60a36fc1d7b3f57cf", "is_reserved": 0, "lon": -77.01925683333333, "is_disabled": 0, "fusion_lat": 0.0, "lat": 38.902489833333334, "bike_id": "ed2efba476d476a60a36fc1d7b3f57cf", "fusion_lon": 0.0}, {"rental_uris": {"ios": "https://dc.lft.to/lastmile_qr_scan", "android": "https://dc.lft.to/lastmile_qr_scan"}, "type": "electric_scooter", "name": "d5e32257ce09128e8314d3abe2f8cca9", "is_reserved": 0, "lon": -76.990111, "is_disabled": 0, "fusion_lat": 0.0, "lat": 38.903987, "bike_id": "d5e32257ce09128e8314d3abe2f8cca9", "fusion_lon": 0.0}, {"rental_uris": {"ios": "https://dc.lft.to/lastmile_qr_scan", "android": "https://dc.lft.to/lastmile_qr_scan"}, "type": "electric_scooter", "name": "71e918e0a5d9b5235d0dca967b09bbe4", "is_reserved": 0, "lon": -77.037207, "is_disabled": 0, "fusion_lat": 0.0, "lat": 38.926468166666666, "bike_id": "71e918e0a5d9b5235d0dca967b09bbe4", "fusion_lon": 0.0}, {"rental_uris": {"ios": "https://dc.lft.to/lastmile_qr_scan", "android": "https://dc.lft.to/lastmile_qr_scan"}, "type": "electric_scooter", "name": "2e4c076439924de46b3e531e46b2e559", "is_reserved": 0, "lon": -77.0006195, "is_disabled": 0, "fusion_lat": 0.0, "lat": 38.876929, "bike_id": "2e4c076439924de46b3e531e46b2e559", "fusion_lon": 0.0}, {"rental_uris": {"ios": "https://dc.lft.to/lastmile_qr_scan", "android": "https://dc.lft.to/lastmile_qr_scan"}, "type": "electric_scooter", "name": "fb3213b60feffbf16547f402b073e552", "is_reserved": 0, "lon": -77.036592, "is_disabled": 0, "fusion_lat": 0.0, "lat": 38.922845333333335, "bike_id": "fb3213b60feffbf16547f402b073e552", "fusion_lon": 0.0}, {"rental_uris": {"ios": "https://dc.lft.to/lastmile_qr_scan", "android": "https://dc.lft.to/lastmile_qr_scan"}, "type": "electric_bike", "name": "9ca3c0bb0a4be334db8d6f9b8b4833a7", "is_reserved": 0, "lon": -77.0527005, "is_disabled": 0, "fusion_lat": 0.0, "lat": 38.940931, "bike_id": "9ca3c0bb0a4be334db8d6f9b8b4833a7", "fusion_lon": 0.0}, {"rental_uris": {"ios": "https://dc.lft.to/lastmile_qr_scan", "android": "https://dc.lft.to/lastmile_qr_scan"}, "type": "electric_scooter", "name": "3fcd8766dd7faad837976efcb2c0071b", "is_reserved": 0, "lon": -77.03279966666666, "is_disabled": 0, "fusion_lat": 0.0, "lat": 38.932526333333335, "bike_id": "3fcd8766dd7faad837976efcb2c0071b", "fusion_lon": 0.0}, {"rental_uris": {"ios": "https://dc.lft.to/lastmile_qr_scan", "android": "https://dc.lft.to/lastmile_qr_scan"}, "type": "electric_scooter", "name": "edf464d2268ca61826488625a4a4aa01", "is_reserved": 0, "lon": -77.0391235, "is_disabled": 0, "fusion_lat": 0.0, "lat": 38.924733333333336, "bike_id": "edf464d2268ca61826488625a4a4aa01", "fusion_lon": 0.0}, {"rental_uris": {"ios": "https://dc.lft.to/lastmile_qr_scan", "android": "https://dc.lft.to/lastmile_qr_scan"}, "type": "electric_bike", "name": "775896221be47a7a5e0cf9ce270955af", "is_reserved": 0, "lon": -77.01688733333333, "is_disabled": 0, "fusion_lat": 0.0, "lat": 38.975175, "bike_id": "775896221be47a7a5e0cf9ce270955af", "fusion_lon": 0.0}, {"rental_uris": {"ios": "https://dc.lft.to/lastmile_qr_scan", "android": "https://dc.lft.to/lastmile_qr_scan"}, "type": "electric_scooter", "name": "a16f16b144ff4389a0463f0f7a324e4d", "is_reserved": 0, "lon": -77.04680183333333, "is_disabled": 0, "fusion_lat": 0.0, "lat": 38.90028683333333, "bike_id": "a16f16b144ff4389a0463f0f7a324e4d", "fusion_lon": 0.0}, {"rental_uris": {"ios": "https://dc.lft.to/lastmile_qr_scan", "android": "https://dc.lft.to/lastmile_qr_scan"}, "type": "electric_scooter", "name": "d6c94682b6559a781e9807dec7c6241f", "is_reserved": 0, "lon": -77.03135933333333, "is_disabled": 0, "fusion_lat": 0.0, "lat": 38.923731833333335, "bike_id": "d6c94682b6559a781e9807dec7c6241f", "fusion_lon": 0.0}, {"rental_uris": {"ios": "https://dc.lft.to/lastmile_qr_scan", "android": "https://dc.lft.to/lastmile_qr_scan"}, "type": "electric_scooter", "name": "f6e925e69edb0b8afa776c849be31c57", "is_reserved": 0, "lon": -77.01463533333333, "is_disabled": 0, "fusion_lat": 0.0, "lat": 38.87935383333333, "bike_id": "f6e925e69edb0b8afa776c849be31c57", "fusion_lon": 0.0}, {"rental_uris": {"ios": "https://dc.lft.to/lastmile_qr_scan", "android": "https://dc.lft.to/lastmile_qr_scan"}, "type": "electric_scooter", "name": "db4bd99e1cf5fc093c09d1f3b7d4a1f6", "is_reserved": 0, "lon": -77.04469983333334, "is_disabled": 0, "fusion_lat": 0.0, "lat": 38.914468, "bike_id": "db4bd99e1cf5fc093c09d1f3b7d4a1f6", "fusion_lon": 0.0}, {"rental_uris": {"ios": "https://dc.lft.to/lastmile_qr_scan", "android": "https://dc.lft.to/lastmile_qr_scan"}, "type": "electric_scooter", "name": "423bef73d6b0ee5c44af51617b9bf87b", "is_reserved": 0, "lon": -77.02835983333334, "is_disabled": 0, "fusion_lat": 0.0, "lat": 38.887362833333334, "bike_id": "423bef73d6b0ee5c44af51617b9bf87b", "fusion_lon": 0.0}, {"rental_uris": {"ios": "https://dc.lft.to/lastmile_qr_scan", "android": "https://dc.lft.to/lastmile_qr_scan"}, "type": "electric_scooter", "name": "9e893d67505d801afc2a96d5f511f7ab", "is_reserved": 0, "lon": -77.04473533333334, "is_disabled": 0, "fusion_lat": 0.0, "lat": 38.90056166666667, "bike_id": "9e893d67505d801afc2a96d5f511f7ab", "fusion_lon": 0.0}, {"rental_uris": {"ios": "https://dc.lft.to/lastmile_qr_scan", "android": "https://dc.lft.to/lastmile_qr_scan"}, "type": "electric_scooter", "name": "9becce6aef94ebed6091e101aebe0a20", "is_reserved": 0, "lon": -77.03368866666666, "is_disabled": 0, "fusion_lat": 0.0, "lat": 38.9386585, "bike_id": "9becce6aef94ebed6091e101aebe0a20", "fusion_lon": 0.0}, {"rental_uris": {"ios": "https://dc.lft.to/lastmile_qr_scan", "android": "https://dc.lft.to/lastmile_qr_scan"}, "type": "electric_scooter", "name": "018c71cb33e8d0098b0185932b2ce83b", "is_reserved": 0, "lon": -77.044996, "is_disabled": 0, "fusion_lat": 0.0, "lat": 38.9161125, "bike_id": "018c71cb33e8d0098b0185932b2ce83b", "fusion_lon": 0.0}, {"rental_uris": {"ios": "https://dc.lft.to/lastmile_qr_scan", "android": "https://dc.lft.to/lastmile_qr_scan"}, "type": "electric_bike", "name": "8174541b7df496848daa57bba89381f7", "is_reserved": 0, "lon": -77.100762, "is_disabled": 0, "fusion_lat": 0.0, "lat": 38.857394, "bike_id": "8174541b7df496848daa57bba89381f7", "fusion_lon": 0.0}, {"rental_uris": {"ios": "https://dc.lft.to/lastmile_qr_scan", "android": "https://dc.lft.to/lastmile_qr_scan"}, "type": "electric_scooter", "name": "852e155b29fbd128cbf18b05d62b0c85", "is_reserved": 0, "lon": -77.03151266666667, "is_disabled": 0, "fusion_lat": 0.0, "lat": 38.905912, "bike_id": "852e155b29fbd128cbf18b05d62b0c85", "fusion_lon": 0.0}, {"rental_uris": {"ios": "https://dc.lft.to/lastmile_qr_scan", "android": "https://dc.lft.to/lastmile_qr_scan"}, "type": "electric_scooter", "name": "8fbd6fd3064916180eeff1c82be61ca4", "is_reserved": 0, "lon": -76.9853525, "is_disabled": 0, "fusion_lat": 0.0, "lat": 38.858554833333336, "bike_id": "8fbd6fd3064916180eeff1c82be61ca4", "fusion_lon": 0.0}, {"rental_uris": {"ios": "https://dc.lft.to/lastmile_qr_scan", "android": "https://dc.lft.to/lastmile_qr_scan"}, "type": "electric_scooter", "name": "635db0f296cfaff95b75c3d13ff95e0d", "is_reserved": 0, "lon": -77.02294516666667, "is_disabled": 0, "fusion_lat": 0.0, "lat": 38.898442, "bike_id": "635db0f296cfaff95b75c3d13ff95e0d", "fusion_lon": 0.0}, {"rental_uris": {"ios": "https://dc.lft.to/lastmile_qr_scan", "android": "https://dc.lft.to/lastmile_qr_scan"}, "type": "electric_scooter", "name": "d6c516c9865517841717f39941861149", "is_reserved": 0, "lon": -77.002751, "is_disabled": 0, "fusion_lat": 0.0, "lat": 38.88768316666667, "bike_id": "d6c516c9865517841717f39941861149", "fusion_lon": 0.0}, {"rental_uris": {"ios": "https://dc.lft.to/lastmile_qr_scan", "android": "https://dc.lft.to/lastmile_qr_scan"}, "type": "electric_scooter", "name": "0c554694d494e2e6f8a3465d02190e17", "is_reserved": 0, "lon": -77.00219566666667, "is_disabled": 0, "fusion_lat": 0.0, "lat": 38.894528666666666, "bike_id": "0c554694d494e2e6f8a3465d02190e17", "fusion_lon": 0.0}, {"rental_uris": {"ios": "https://dc.lft.to/lastmile_qr_scan", "android": "https://dc.lft.to/lastmile_qr_scan"}, "type": "electric_scooter", "name": "0410ad8b69773898ddfa5341639fe5d0", "is_reserved": 0, "lon": -77.0318015, "is_disabled": 0, "fusion_lat": 0.0, "lat": 38.92918983333333, "bike_id": "0410ad8b69773898ddfa5341639fe5d0", "fusion_lon": 0.0}, {"rental_uris": {"ios": "https://dc.lft.to/lastmile_qr_scan", "android": "https://dc.lft.to/lastmile_qr_scan"}, "type": "electric_scooter", "name": "09021adb46000f095551ad83726fff3e", "is_reserved": 0, "lon": -77.01114366666667, "is_disabled": 0, "fusion_lat": 0.0, "lat": 38.900271833333335, "bike_id": "09021adb46000f095551ad83726fff3e", "fusion_lon": 0.0}, {"rental_uris": {"ios": "https://dc.lft.to/lastmile_qr_scan", "android": "https://dc.lft.to/lastmile_qr_scan"}, "type": "electric_scooter", "name": "ec53db3a6a715abbf687b85c39d60d5b", "is_reserved": 0, "lon": -77.02813866666666, "is_disabled": 0, "fusion_lat": 0.0, "lat": 38.90938416666667, "bike_id": "ec53db3a6a715abbf687b85c39d60d5b", "fusion_lon": 0.0}, {"rental_uris": {"ios": "https://dc.lft.to/lastmile_qr_scan", "android": "https://dc.lft.to/lastmile_qr_scan"}, "type": "electric_bike", "name": "813eb3f9e18c066749c439e91fb9daeb", "is_reserved": 0, "lon": -77.08981433333334, "is_disabled": 0, "fusion_lat": 0.0, "lat": 38.9117335, "bike_id": "813eb3f9e18c066749c439e91fb9daeb", "fusion_lon": 0.0}, {"rental_uris": {"ios": "https://dc.lft.to/lastmile_qr_scan", "android": "https://dc.lft.to/lastmile_qr_scan"}, "type": "electric_scooter", "name": "92937b407affbf8a0dab179712b30153", "is_reserved": 0, "lon": -77.03638133333334, "is_disabled": 0, "fusion_lat": 0.0, "lat": 38.919017333333336, "bike_id": "92937b407affbf8a0dab179712b30153", "fusion_lon": 0.0}, {"rental_uris": {"ios": "https://dc.lft.to/lastmile_qr_scan", "android": "https://dc.lft.to/lastmile_qr_scan"}, "type": "electric_scooter", "name": "1c43e62af791e881311bc29435d8d946", "is_reserved": 0, "lon": -77.07827916666666, "is_disabled": 0, "fusion_lat": 0.0, "lat": 38.92261533333333, "bike_id": "1c43e62af791e881311bc29435d8d946", "fusion_lon": 0.0}, {"rental_uris": {"ios": "https://dc.lft.to/lastmile_qr_scan", "android": "https://dc.lft.to/lastmile_qr_scan"}, "type": "electric_scooter", "name": "9d1119c1307e6ce7287fb4d6d0a5080d", "is_reserved": 0, "lon": -77.0270015, "is_disabled": 0, "fusion_lat": 0.0, "lat": 38.9007215, "bike_id": "9d1119c1307e6ce7287fb4d6d0a5080d", "fusion_lon": 0.0}, {"rental_uris": {"ios": "https://dc.lft.to/lastmile_qr_scan", "android": "https://dc.lft.to/lastmile_qr_scan"}, "type": "electric_scooter", "name": "7e07d9c794a291fcb0541dd07a64c2b1", "is_reserved": 0, "lon": -77.011577, "is_disabled": 0, "fusion_lat": 0.0, "lat": 38.911081, "bike_id": "7e07d9c794a291fcb0541dd07a64c2b1", "fusion_lon": 0.0}, {"rental_uris": {"ios": "https://dc.lft.to/lastmile_qr_scan", "android": "https://dc.lft.to/lastmile_qr_scan"}, "type": "electric_scooter", "name": "7c02102889579f68ce50005942a87089", "is_reserved": 0, "lon": -77.00148366666667, "is_disabled": 0, "fusion_lat": 0.0, "lat": 38.87495933333334, "bike_id": "7c02102889579f68ce50005942a87089", "fusion_lon": 0.0}, {"rental_uris": {"ios": "https://dc.lft.to/lastmile_qr_scan", "android": "https://dc.lft.to/lastmile_qr_scan"}, "type": "electric_scooter", "name": "6f749f92eed5a8f367d1c241cb444540", "is_reserved": 0, "lon": -77.02764316666666, "is_disabled": 0, "fusion_lat": 0.0, "lat": 38.90477283333333, "bike_id": "6f749f92eed5a8f367d1c241cb444540", "fusion_lon": 0.0}, {"rental_uris": {"ios": "https://dc.lft.to/lastmile_qr_scan", "android": "https://dc.lft.to/lastmile_qr_scan"}, "type": "electric_scooter", "name": "64f063b4991a596b7d53a97c66651a16", "is_reserved": 0, "lon": -77.0221785, "is_disabled": 0, "fusion_lat": 0.0, "lat": 38.92472266666667, "bike_id": "64f063b4991a596b7d53a97c66651a16", "fusion_lon": 0.0}, {"rental_uris": {"ios": "https://dc.lft.to/lastmile_qr_scan", "android": "https://dc.lft.to/lastmile_qr_scan"}, "type": "electric_scooter", "name": "11335b9b7d115bd2c6363ae86151c3c0", "is_reserved": 0, "lon": -77.00687266666667, "is_disabled": 0, "fusion_lat": 0.0, "lat": 38.90027366666666, "bike_id": "11335b9b7d115bd2c6363ae86151c3c0", "fusion_lon": 0.0}, {"rental_uris": {"ios": "https://dc.lft.to/lastmile_qr_scan", "android": "https://dc.lft.to/lastmile_qr_scan"}, "type": "electric_scooter", "name": "0b6e5fb3c944b7800025178da0cf940d", "is_reserved": 0, "lon": -77.04802433333333, "is_disabled": 0, "fusion_lat": 0.0, "lat": 38.892248333333335, "bike_id": "0b6e5fb3c944b7800025178da0cf940d", "fusion_lon": 0.0}, {"rental_uris": {"ios": "https://dc.lft.to/lastmile_qr_scan", "android": "https://dc.lft.to/lastmile_qr_scan"}, "type": "electric_scooter", "name": "8d263bcfcc70487b090d670689ded3a2", "is_reserved": 0, "lon": -77.01758183333334, "is_disabled": 0, "fusion_lat": 0.0, "lat": 38.90273466666667, "bike_id": "8d263bcfcc70487b090d670689ded3a2", "fusion_lon": 0.0}, {"rental_uris": {"ios": "https://dc.lft.to/lastmile_qr_scan", "android": "https://dc.lft.to/lastmile_qr_scan"}, "type": "electric_scooter", "name": "7fdd9e8f9a44cdd7cce8aa0fbf8c61d5", "is_reserved": 0, "lon": -77.02390633333333, "is_disabled": 0, "fusion_lat": 0.0, "lat": 38.925995666666665, "bike_id": "7fdd9e8f9a44cdd7cce8aa0fbf8c61d5", "fusion_lon": 0.0}, {"rental_uris": {"ios": "https://dc.lft.to/lastmile_qr_scan", "android": "https://dc.lft.to/lastmile_qr_scan"}, "type": "electric_scooter", "name": "bb6727f9a763dfef0ec2e6e4ec1ee33f", "is_reserved": 0, "lon": -77.0143105, "is_disabled": 0, "fusion_lat": 0.0, "lat": 38.88746066666667, "bike_id": "bb6727f9a763dfef0ec2e6e4ec1ee33f", "fusion_lon": 0.0}, {"rental_uris": {"ios": "https://dc.lft.to/lastmile_qr_scan", "android": "https://dc.lft.to/lastmile_qr_scan"}, "type": "electric_scooter", "name": "39e6f0c95785dd075f8be1818eef4e4a", "is_reserved": 0, "lon": -77.00686133333333, "is_disabled": 0, "fusion_lat": 0.0, "lat": 38.8842725, "bike_id": "39e6f0c95785dd075f8be1818eef4e4a", "fusion_lon": 0.0}, {"rental_uris": {"ios": "https://dc.lft.to/lastmile_qr_scan", "android": "https://dc.lft.to/lastmile_qr_scan"}, "type": "electric_scooter", "name": "7660d8bdd26cc23d960ea86052bb52fc", "is_reserved": 0, "lon": -77.06644883333334, "is_disabled": 0, "fusion_lat": 0.0, "lat": 38.9373075, "bike_id": "7660d8bdd26cc23d960ea86052bb52fc", "fusion_lon": 0.0}, {"rental_uris": {"ios": "https://dc.lft.to/lastmile_qr_scan", "android": "https://dc.lft.to/lastmile_qr_scan"}, "type": "electric_scooter", "name": "d5a27258e426a62bdb7161526e93cd42", "is_reserved": 0, "lon": -77.02816566666667, "is_disabled": 0, "fusion_lat": 0.0, "lat": 38.89228633333333, "bike_id": "d5a27258e426a62bdb7161526e93cd42", "fusion_lon": 0.0}, {"rental_uris": {"ios": "https://dc.lft.to/lastmile_qr_scan", "android": "https://dc.lft.to/lastmile_qr_scan"}, "type": "electric_scooter", "name": "e74e9f8d96ac0a502b70f004a94e5651", "is_reserved": 0, "lon": -77.03270433333333, "is_disabled": 0, "fusion_lat": 0.0, "lat": 38.91988466666667, "bike_id": "e74e9f8d96ac0a502b70f004a94e5651", "fusion_lon": 0.0}, {"rental_uris": {"ios": "https://dc.lft.to/lastmile_qr_scan", "android": "https://dc.lft.to/lastmile_qr_scan"}, "type": "electric_scooter", "name": "6a7387ceb5454e53c945b51a1ae6e005", "is_reserved": 0, "lon": -77.03265716666667, "is_disabled": 0, "fusion_lat": 0.0, "lat": 38.910526833333336, "bike_id": "6a7387ceb5454e53c945b51a1ae6e005", "fusion_lon": 0.0}, {"rental_uris": {"ios": "https://dc.lft.to/lastmile_qr_scan", "android": "https://dc.lft.to/lastmile_qr_scan"}, "type": "electric_scooter", "name": "61715ac0be75c31c50ef77a725f2fc56", "is_reserved": 0, "lon": -77.03907166666667, "is_disabled": 0, "fusion_lat": 0.0, "lat": 38.91419116666667, "bike_id": "61715ac0be75c31c50ef77a725f2fc56", "fusion_lon": 0.0}, {"rental_uris": {"ios": "https://dc.lft.to/lastmile_qr_scan", "android": "https://dc.lft.to/lastmile_qr_scan"}, "type": "electric_scooter", "name": "2e5f432cd660ea9c9d1b64bdaa5f68c8", "is_reserved": 0, "lon": -77.03186466666666, "is_disabled": 0, "fusion_lat": 0.0, "lat": 38.918142, "bike_id": "2e5f432cd660ea9c9d1b64bdaa5f68c8", "fusion_lon": 0.0}, {"rental_uris": {"ios": "https://dc.lft.to/lastmile_qr_scan", "android": "https://dc.lft.to/lastmile_qr_scan"}, "type": "electric_scooter", "name": "42304eee16086efd1db0a1290255818d", "is_reserved": 0, "lon": -77.04367916666666, "is_disabled": 0, "fusion_lat": 0.0, "lat": 38.931483166666666, "bike_id": "42304eee16086efd1db0a1290255818d", "fusion_lon": 0.0}, {"rental_uris": {"ios": "https://dc.lft.to/lastmile_qr_scan", "android": "https://dc.lft.to/lastmile_qr_scan"}, "type": "electric_scooter", "name": "534d4329cbc13e780c2e68ff7fc9f674", "is_reserved": 0, "lon": -77.03629983333333, "is_disabled": 0, "fusion_lat": 0.0, "lat": 38.92597683333334, "bike_id": "534d4329cbc13e780c2e68ff7fc9f674", "fusion_lon": 0.0}, {"rental_uris": {"ios": "https://dc.lft.to/lastmile_qr_scan", "android": "https://dc.lft.to/lastmile_qr_scan"}, "type": "electric_scooter", "name": "dd92d7eeb6d5c17ad991815b7ebc4b8b", "is_reserved": 0, "lon": -77.05636633333333, "is_disabled": 0, "fusion_lat": 0.0, "lat": 38.9360135, "bike_id": "dd92d7eeb6d5c17ad991815b7ebc4b8b", "fusion_lon": 0.0}, {"rental_uris": {"ios": "https://dc.lft.to/lastmile_qr_scan", "android": "https://dc.lft.to/lastmile_qr_scan"}, "type": "electric_bike", "name": "bed83eb10dce2f184db20412ea66e99e", "is_reserved": 0, "lon": -76.96305233333334, "is_disabled": 0, "fusion_lat": 0.0, "lat": 38.89699266666667, "bike_id": "bed83eb10dce2f184db20412ea66e99e", "fusion_lon": 0.0}, {"rental_uris": {"ios": "https://dc.lft.to/lastmile_qr_scan", "android": "https://dc.lft.to/lastmile_qr_scan"}, "type": "electric_scooter", "name": "fdec8806dfebbc8665e62a824c099708", "is_reserved": 0, "lon": -77.03451783333334, "is_disabled": 0, "fusion_lat": 0.0, "lat": 38.90840433333334, "bike_id": "fdec8806dfebbc8665e62a824c099708", "fusion_lon": 0.0}, {"rental_uris": {"ios": "https://dc.lft.to/lastmile_qr_scan", "android": "https://dc.lft.to/lastmile_qr_scan"}, "type": "electric_scooter", "name": "59020d7ebebe68dbe0fa7519d362300d", "is_reserved": 0, "lon": -77.0402745, "is_disabled": 0, "fusion_lat": 0.0, "lat": 38.92252716666667, "bike_id": "59020d7ebebe68dbe0fa7519d362300d", "fusion_lon": 0.0}, {"rental_uris": {"ios": "https://dc.lft.to/lastmile_qr_scan", "android": "https://dc.lft.to/lastmile_qr_scan"}, "type": "electric_scooter", "name": "ef0a1de007ac21ce4a9e590bb5e75bcb", "is_reserved": 0, "lon": -77.02817983333334, "is_disabled": 0, "fusion_lat": 0.0, "lat": 38.892342666666664, "bike_id": "ef0a1de007ac21ce4a9e590bb5e75bcb", "fusion_lon": 0.0}, {"rental_uris": {"ios": "https://dc.lft.to/lastmile_qr_scan", "android": "https://dc.lft.to/lastmile_qr_scan"}, "type": "electric_scooter", "name": "f6db24e5d95373d2989a5605f4d71b2b", "is_reserved": 0, "lon": -77.07170083333334, "is_disabled": 0, "fusion_lat": 0.0, "lat": 38.907609666666666, "bike_id": "f6db24e5d95373d2989a5605f4d71b2b", "fusion_lon": 0.0}, {"rental_uris": {"ios": "https://dc.lft.to/lastmile_qr_scan", "android": "https://dc.lft.to/lastmile_qr_scan"}, "type": "electric_scooter", "name": "ebb4cc7de526a7a00a70c5ce151e949c", "is_reserved": 0, "lon": -77.00611133333334, "is_disabled": 0, "fusion_lat": 0.0, "lat": 38.878518666666665, "bike_id": "ebb4cc7de526a7a00a70c5ce151e949c", "fusion_lon": 0.0}, {"rental_uris": {"ios": "https://dc.lft.to/lastmile_qr_scan", "android": "https://dc.lft.to/lastmile_qr_scan"}, "type": "electric_scooter", "name": "6199fe049c32726ef994753a4411a352", "is_reserved": 0, "lon": -77.02481383333334, "is_disabled": 0, "fusion_lat": 0.0, "lat": 38.92392483333333, "bike_id": "6199fe049c32726ef994753a4411a352", "fusion_lon": 0.0}, {"rental_uris": {"ios": "https://dc.lft.to/lastmile_qr_scan", "android": "https://dc.lft.to/lastmile_qr_scan"}, "type": "electric_scooter", "name": "b8fca2a5b29f27a182fe641a133c2432", "is_reserved": 0, "lon": -77.0158655, "is_disabled": 0, "fusion_lat": 0.0, "lat": 38.8722515, "bike_id": "b8fca2a5b29f27a182fe641a133c2432", "fusion_lon": 0.0}, {"rental_uris": {"ios": "https://dc.lft.to/lastmile_qr_scan", "android": "https://dc.lft.to/lastmile_qr_scan"}, "type": "electric_bike", "name": "6871c0d8cf4db0cbce0232a922275988", "is_reserved": 0, "lon": -76.99860583333333, "is_disabled": 0, "fusion_lat": 0.0, "lat": 38.90898133333334, "bike_id": "6871c0d8cf4db0cbce0232a922275988", "fusion_lon": 0.0}, {"rental_uris": {"ios": "https://dc.lft.to/lastmile_qr_scan", "android": "https://dc.lft.to/lastmile_qr_scan"}, "type": "electric_scooter", "name": "498dbdd2b6d362e568b14a4237422432", "is_reserved": 0, "lon": -76.92948433333333, "is_disabled": 0, "fusion_lat": 0.0, "lat": 38.90337316666667, "bike_id": "498dbdd2b6d362e568b14a4237422432", "fusion_lon": 0.0}, {"rental_uris": {"ios": "https://dc.lft.to/lastmile_qr_scan", "android": "https://dc.lft.to/lastmile_qr_scan"}, "type": "electric_scooter", "name": "1f510d90fdd2354ccc6943850aad10cf", "is_reserved": 0, "lon": -77.05069333333333, "is_disabled": 0, "fusion_lat": 0.0, "lat": 38.90366383333333, "bike_id": "1f510d90fdd2354ccc6943850aad10cf", "fusion_lon": 0.0}, {"rental_uris": {"ios": "https://dc.lft.to/lastmile_qr_scan", "android": "https://dc.lft.to/lastmile_qr_scan"}, "type": "electric_scooter", "name": "b35b47934795b7068d13efeeae3aceec", "is_reserved": 0, "lon": -77.0269405, "is_disabled": 0, "fusion_lat": 0.0, "lat": 38.91908083333333, "bike_id": "b35b47934795b7068d13efeeae3aceec", "fusion_lon": 0.0}, {"rental_uris": {"ios": "https://dc.lft.to/lastmile_qr_scan", "android": "https://dc.lft.to/lastmile_qr_scan"}, "type": "electric_scooter", "name": "b00b60000567bb4a1c9b44840f3f8049", "is_reserved": 0, "lon": -77.01903333333334, "is_disabled": 0, "fusion_lat": 0.0, "lat": 38.903689166666666, "bike_id": "b00b60000567bb4a1c9b44840f3f8049", "fusion_lon": 0.0}, {"rental_uris": {"ios": "https://dc.lft.to/lastmile_qr_scan", "android": "https://dc.lft.to/lastmile_qr_scan"}, "type": "electric_scooter", "name": "bb96010c076199c1c1a53a737c992326", "is_reserved": 0, "lon": -77.04338066666666, "is_disabled": 0, "fusion_lat": 0.0, "lat": 38.913770166666666, "bike_id": "bb96010c076199c1c1a53a737c992326", "fusion_lon": 0.0}, {"rental_uris": {"ios": "https://dc.lft.to/lastmile_qr_scan", "android": "https://dc.lft.to/lastmile_qr_scan"}, "type": "electric_scooter", "name": "f7e325a2a589f40247f652acd24e5369", "is_reserved": 0, "lon": -77.02573733333334, "is_disabled": 0, "fusion_lat": 0.0, "lat": 38.88483633333333, "bike_id": "f7e325a2a589f40247f652acd24e5369", "fusion_lon": 0.0}, {"rental_uris": {"ios": "https://dc.lft.to/lastmile_qr_scan", "android": "https://dc.lft.to/lastmile_qr_scan"}, "type": "electric_scooter", "name": "c49fd6a9b7e8d8fa1efe06076304ce33", "is_reserved": 0, "lon": -76.99772016666667, "is_disabled": 0, "fusion_lat": 0.0, "lat": 38.9229435, "bike_id": "c49fd6a9b7e8d8fa1efe06076304ce33", "fusion_lon": 0.0}, {"rental_uris": {"ios": "https://dc.lft.to/lastmile_qr_scan", "android": "https://dc.lft.to/lastmile_qr_scan"}, "type": "electric_scooter", "name": "f6f2879d264fed5e642b38e9f3f296be", "is_reserved": 0, "lon": -77.03286366666667, "is_disabled": 0, "fusion_lat": 0.0, "lat": 38.902761, "bike_id": "f6f2879d264fed5e642b38e9f3f296be", "fusion_lon": 0.0}, {"rental_uris": {"ios": "https://dc.lft.to/lastmile_qr_scan", "android": "https://dc.lft.to/lastmile_qr_scan"}, "type": "electric_scooter", "name": "f0ca1b327de808f6036e29e73ffebff6", "is_reserved": 0, "lon": -77.0245825, "is_disabled": 0, "fusion_lat": 0.0, "lat": 38.92039166666667, "bike_id": "f0ca1b327de808f6036e29e73ffebff6", "fusion_lon": 0.0}, {"rental_uris": {"ios": "https://dc.lft.to/lastmile_qr_scan", "android": "https://dc.lft.to/lastmile_qr_scan"}, "type": "electric_scooter", "name": "3f706a54bd402e91bd0d770863cc65df", "is_reserved": 0, "lon": -77.083401, "is_disabled": 0, "fusion_lat": 0.0, "lat": 38.8941985, "bike_id": "3f706a54bd402e91bd0d770863cc65df", "fusion_lon": 0.0}, {"rental_uris": {"ios": "https://dc.lft.to/lastmile_qr_scan", "android": "https://dc.lft.to/lastmile_qr_scan"}, "type": "electric_scooter", "name": "f019859c094acf4120912638b471072e", "is_reserved": 0, "lon": -77.0136215, "is_disabled": 0, "fusion_lat": 0.0, "lat": 38.91932666666666, "bike_id": "f019859c094acf4120912638b471072e", "fusion_lon": 0.0}, {"rental_uris": {"ios": "https://dc.lft.to/lastmile_qr_scan", "android": "https://dc.lft.to/lastmile_qr_scan"}, "type": "electric_scooter", "name": "39828f23fc6b1006ffbfa4f705db7dd3", "is_reserved": 0, "lon": -77.01574766666667, "is_disabled": 0, "fusion_lat": 0.0, "lat": 38.87652633333333, "bike_id": "39828f23fc6b1006ffbfa4f705db7dd3", "fusion_lon": 0.0}, {"rental_uris": {"ios": "https://dc.lft.to/lastmile_qr_scan", "android": "https://dc.lft.to/lastmile_qr_scan"}, "type": "electric_scooter", "name": "244f546145e54e015e762c8c4d137806", "is_reserved": 0, "lon": -77.050459, "is_disabled": 0, "fusion_lat": 0.0, "lat": 38.89678883333333, "bike_id": "244f546145e54e015e762c8c4d137806", "fusion_lon": 0.0}, {"rental_uris": {"ios": "https://dc.lft.to/lastmile_qr_scan", "android": "https://dc.lft.to/lastmile_qr_scan"}, "type": "electric_scooter", "name": "570447bb71852d867b37bf0336f76c45", "is_reserved": 0, "lon": -77.05756433333333, "is_disabled": 0, "fusion_lat": 0.0, "lat": 38.924964333333335, "bike_id": "570447bb71852d867b37bf0336f76c45", "fusion_lon": 0.0}, {"rental_uris": {"ios": "https://dc.lft.to/lastmile_qr_scan", "android": "https://dc.lft.to/lastmile_qr_scan"}, "type": "electric_scooter", "name": "9c973eccb1bccb1747f328fe1d1d84ca", "is_reserved": 0, "lon": -77.02180566666667, "is_disabled": 0, "fusion_lat": 0.0, "lat": 38.91123016666667, "bike_id": "9c973eccb1bccb1747f328fe1d1d84ca", "fusion_lon": 0.0}, {"rental_uris": {"ios": "https://dc.lft.to/lastmile_qr_scan", "android": "https://dc.lft.to/lastmile_qr_scan"}, "type": "electric_scooter", "name": "bb9ca4291b4503c6418e0ba04fd83f51", "is_reserved": 0, "lon": -77.0201175, "is_disabled": 0, "fusion_lat": 0.0, "lat": 38.91107733333333, "bike_id": "bb9ca4291b4503c6418e0ba04fd83f51", "fusion_lon": 0.0}, {"rental_uris": {"ios": "https://dc.lft.to/lastmile_qr_scan", "android": "https://dc.lft.to/lastmile_qr_scan"}, "type": "electric_scooter", "name": "3987c1a1b60a10cfbe65a010a268a9e9", "is_reserved": 0, "lon": -77.050212, "is_disabled": 0, "fusion_lat": 0.0, "lat": 38.8965535, "bike_id": "3987c1a1b60a10cfbe65a010a268a9e9", "fusion_lon": 0.0}, {"rental_uris": {"ios": "https://dc.lft.to/lastmile_qr_scan", "android": "https://dc.lft.to/lastmile_qr_scan"}, "type": "electric_scooter", "name": "c6be2c3940f4995556a63e44336ba515", "is_reserved": 0, "lon": -77.00746583333333, "is_disabled": 0, "fusion_lat": 0.0, "lat": 38.8784845, "bike_id": "c6be2c3940f4995556a63e44336ba515", "fusion_lon": 0.0}, {"rental_uris": {"ios": "https://dc.lft.to/lastmile_qr_scan", "android": "https://dc.lft.to/lastmile_qr_scan"}, "type": "electric_scooter", "name": "35b2585c487f7deac50c344beb2809ae", "is_reserved": 0, "lon": -77.03022316666667, "is_disabled": 0, "fusion_lat": 0.0, "lat": 38.878474833333335, "bike_id": "35b2585c487f7deac50c344beb2809ae", "fusion_lon": 0.0}, {"rental_uris": {"ios": "https://dc.lft.to/lastmile_qr_scan", "android": "https://dc.lft.to/lastmile_qr_scan"}, "type": "electric_bike", "name": "b07956dd6801d3da47136510833a1b51", "is_reserved": 0, "lon": -76.99553316666666, "is_disabled": 0, "fusion_lat": 0.0, "lat": 38.8621675, "bike_id": "b07956dd6801d3da47136510833a1b51", "fusion_lon": 0.0}, {"rental_uris": {"ios": "https://dc.lft.to/lastmile_qr_scan", "android": "https://dc.lft.to/lastmile_qr_scan"}, "type": "electric_scooter", "name": "e0c81f4907106c34d4653a18e8fb5996", "is_reserved": 0, "lon": -77.00747483333333, "is_disabled": 0, "fusion_lat": 0.0, "lat": 38.89897583333333, "bike_id": "e0c81f4907106c34d4653a18e8fb5996", "fusion_lon": 0.0}, {"rental_uris": {"ios": "https://dc.lft.to/lastmile_qr_scan", "android": "https://dc.lft.to/lastmile_qr_scan"}, "type": "electric_bike", "name": "65fa811edd728008a105ed5849248e95", "is_reserved": 0, "lon": -76.90741633333333, "is_disabled": 0, "fusion_lat": 0.0, "lat": 38.8962105, "bike_id": "65fa811edd728008a105ed5849248e95", "fusion_lon": 0.0}, {"rental_uris": {"ios": "https://dc.lft.to/lastmile_qr_scan", "android": "https://dc.lft.to/lastmile_qr_scan"}, "type": "electric_scooter", "name": "fc829d4707c4ea3c8b9447014f2b0a83", "is_reserved": 0, "lon": -77.0348825, "is_disabled": 0, "fusion_lat": 0.0, "lat": 38.935376833333336, "bike_id": "fc829d4707c4ea3c8b9447014f2b0a83", "fusion_lon": 0.0}, {"rental_uris": {"ios": "https://dc.lft.to/lastmile_qr_scan", "android": "https://dc.lft.to/lastmile_qr_scan"}, "type": "electric_scooter", "name": "6f10c400bf68a73c08026530f1f7ff9f", "is_reserved": 0, "lon": -77.011803, "is_disabled": 0, "fusion_lat": 0.0, "lat": 38.951561, "bike_id": "6f10c400bf68a73c08026530f1f7ff9f", "fusion_lon": 0.0}, {"rental_uris": {"ios": "https://dc.lft.to/lastmile_qr_scan", "android": "https://dc.lft.to/lastmile_qr_scan"}, "type": "electric_scooter", "name": "3f849c8c553c566162166e9f0b01cff6", "is_reserved": 0, "lon": -77.0323735, "is_disabled": 0, "fusion_lat": 0.0, "lat": 38.92857633333333, "bike_id": "3f849c8c553c566162166e9f0b01cff6", "fusion_lon": 0.0}, {"rental_uris": {"ios": "https://dc.lft.to/lastmile_qr_scan", "android": "https://dc.lft.to/lastmile_qr_scan"}, "type": "electric_scooter", "name": "8b4c3aceb9f67f207e5d434d11ab9ce7", "is_reserved": 0, "lon": -77.032697, "is_disabled": 0, "fusion_lat": 0.0, "lat": 38.9324825, "bike_id": "8b4c3aceb9f67f207e5d434d11ab9ce7", "fusion_lon": 0.0}, {"rental_uris": {"ios": "https://dc.lft.to/lastmile_qr_scan", "android": "https://dc.lft.to/lastmile_qr_scan"}, "type": "electric_bike", "name": "89b2877dfe9ea271d75637b1efddbe21", "is_reserved": 0, "lon": -76.9515885, "is_disabled": 0, "fusion_lat": 0.0, "lat": 39.084400333333335, "bike_id": "89b2877dfe9ea271d75637b1efddbe21", "fusion_lon": 0.0}, {"rental_uris": {"ios": "https://dc.lft.to/lastmile_qr_scan", "android": "https://dc.lft.to/lastmile_qr_scan"}, "type": "electric_scooter", "name": "c6e39552393830566feeeb0aa356ca96", "is_reserved": 0, "lon": -77.02042116666667, "is_disabled": 0, "fusion_lat": 0.0, "lat": 38.89437916666667, "bike_id": "c6e39552393830566feeeb0aa356ca96", "fusion_lon": 0.0}, {"rental_uris": {"ios": "https://dc.lft.to/lastmile_qr_scan", "android": "https://dc.lft.to/lastmile_qr_scan"}, "type": "electric_scooter", "name": "00c9811ed55d781f09e084067f5e1a65", "is_reserved": 0, "lon": -77.0015605, "is_disabled": 0, "fusion_lat": 0.0, "lat": 38.821334, "bike_id": "00c9811ed55d781f09e084067f5e1a65", "fusion_lon": 0.0}, {"rental_uris": {"ios": "https://dc.lft.to/lastmile_qr_scan", "android": "https://dc.lft.to/lastmile_qr_scan"}, "type": "electric_scooter", "name": "8afbf9aa672cb793aa72c571bd139f2c", "is_reserved": 0, "lon": -77.07558983333334, "is_disabled": 0, "fusion_lat": 0.0, "lat": 38.9065175, "bike_id": "8afbf9aa672cb793aa72c571bd139f2c", "fusion_lon": 0.0}, {"rental_uris": {"ios": "https://dc.lft.to/lastmile_qr_scan", "android": "https://dc.lft.to/lastmile_qr_scan"}, "type": "electric_scooter", "name": "82b96875c499f7663266e524bb387f59", "is_reserved": 0, "lon": -77.01341766666667, "is_disabled": 0, "fusion_lat": 0.0, "lat": 38.919127, "bike_id": "82b96875c499f7663266e524bb387f59", "fusion_lon": 0.0}, {"rental_uris": {"ios": "https://dc.lft.to/lastmile_qr_scan", "android": "https://dc.lft.to/lastmile_qr_scan"}, "type": "electric_scooter", "name": "84a21a5d49ec388305a78e17c7f5e250", "is_reserved": 0, "lon": -77.01946333333333, "is_disabled": 0, "fusion_lat": 0.0, "lat": 38.950471, "bike_id": "84a21a5d49ec388305a78e17c7f5e250", "fusion_lon": 0.0}, {"rental_uris": {"ios": "https://dc.lft.to/lastmile_qr_scan", "android": "https://dc.lft.to/lastmile_qr_scan"}, "type": "electric_scooter", "name": "249dc43ad2d1ae9beec865f91a1f8d9d", "is_reserved": 0, "lon": -77.02358166666667, "is_disabled": 0, "fusion_lat": 0.0, "lat": 38.909724, "bike_id": "249dc43ad2d1ae9beec865f91a1f8d9d", "fusion_lon": 0.0}, {"rental_uris": {"ios": "https://dc.lft.to/lastmile_qr_scan", "android": "https://dc.lft.to/lastmile_qr_scan"}, "type": "electric_bike", "name": "658f99b2c567134c1d5b4bcd9deda12e", "is_reserved": 0, "lon": -76.975394, "is_disabled": 0, "fusion_lat": 0.0, "lat": 38.9042775, "bike_id": "658f99b2c567134c1d5b4bcd9deda12e", "fusion_lon": 0.0}, {"rental_uris": {"ios": "https://dc.lft.to/lastmile_qr_scan", "android": "https://dc.lft.to/lastmile_qr_scan"}, "type": "electric_bike", "name": "4179dd51ac4b99feb3164d88a360801a", "is_reserved": 0, "lon": -77.0185115, "is_disabled": 0, "fusion_lat": 0.0, "lat": 38.93108516666667, "bike_id": "4179dd51ac4b99feb3164d88a360801a", "fusion_lon": 0.0}, {"rental_uris": {"ios": "https://dc.lft.to/lastmile_qr_scan", "android": "https://dc.lft.to/lastmile_qr_scan"}, "type": "electric_scooter", "name": "2ec4ebcf8c84c122bf01904fe1e5aefa", "is_reserved": 0, "lon": -77.0470035, "is_disabled": 0, "fusion_lat": 0.0, "lat": 38.92056083333333, "bike_id": "2ec4ebcf8c84c122bf01904fe1e5aefa", "fusion_lon": 0.0}, {"rental_uris": {"ios": "https://dc.lft.to/lastmile_qr_scan", "android": "https://dc.lft.to/lastmile_qr_scan"}, "type": "electric_scooter", "name": "38d77b0357f5efcd85e6122ca57b2564", "is_reserved": 0, "lon": -77.04218933333334, "is_disabled": 0, "fusion_lat": 0.0, "lat": 38.922963833333334, "bike_id": "38d77b0357f5efcd85e6122ca57b2564", "fusion_lon": 0.0}, {"rental_uris": {"ios": "https://dc.lft.to/lastmile_qr_scan", "android": "https://dc.lft.to/lastmile_qr_scan"}, "type": "electric_scooter", "name": "6dc2b51feac0bb6b52d7d11446c48fc6", "is_reserved": 0, "lon": -77.02230233333333, "is_disabled": 0, "fusion_lat": 0.0, "lat": 38.89193783333333, "bike_id": "6dc2b51feac0bb6b52d7d11446c48fc6", "fusion_lon": 0.0}, {"rental_uris": {"ios": "https://dc.lft.to/lastmile_qr_scan", "android": "https://dc.lft.to/lastmile_qr_scan"}, "type": "electric_scooter", "name": "78b6943264a2d76136e6a5e3b0e97858", "is_reserved": 0, "lon": -77.07448566666666, "is_disabled": 0, "fusion_lat": 0.0, "lat": 38.937849, "bike_id": "78b6943264a2d76136e6a5e3b0e97858", "fusion_lon": 0.0}, {"rental_uris": {"ios": "https://dc.lft.to/lastmile_qr_scan", "android": "https://dc.lft.to/lastmile_qr_scan"}, "type": "electric_scooter", "name": "03682e0250e110aabd8077f37764e7d8", "is_reserved": 0, "lon": -76.98109583333333, "is_disabled": 0, "fusion_lat": 0.0, "lat": 38.90248616666667, "bike_id": "03682e0250e110aabd8077f37764e7d8", "fusion_lon": 0.0}, {"rental_uris": {"ios": "https://dc.lft.to/lastmile_qr_scan", "android": "https://dc.lft.to/lastmile_qr_scan"}, "type": "electric_scooter", "name": "22a2fa655c10d4c9e295af0578c6efdd", "is_reserved": 0, "lon": -77.017779, "is_disabled": 0, "fusion_lat": 0.0, "lat": 38.900393666666666, "bike_id": "22a2fa655c10d4c9e295af0578c6efdd", "fusion_lon": 0.0}, {"rental_uris": {"ios": "https://dc.lft.to/lastmile_qr_scan", "android": "https://dc.lft.to/lastmile_qr_scan"}, "type": "electric_scooter", "name": "45ce4820b892c91ff2ddc113005df4f3", "is_reserved": 0, "lon": -77.01004, "is_disabled": 0, "fusion_lat": 0.0, "lat": 38.90625133333333, "bike_id": "45ce4820b892c91ff2ddc113005df4f3", "fusion_lon": 0.0}, {"rental_uris": {"ios": "https://dc.lft.to/lastmile_qr_scan", "android": "https://dc.lft.to/lastmile_qr_scan"}, "type": "electric_scooter", "name": "5b0cc7f1ae1256a9de9caac88a95e5df", "is_reserved": 0, "lon": -76.99347683333333, "is_disabled": 0, "fusion_lat": 0.0, "lat": 38.876921833333334, "bike_id": "5b0cc7f1ae1256a9de9caac88a95e5df", "fusion_lon": 0.0}, {"rental_uris": {"ios": "https://dc.lft.to/lastmile_qr_scan", "android": "https://dc.lft.to/lastmile_qr_scan"}, "type": "electric_bike", "name": "1988218d80ddcde31517151eba91feea", "is_reserved": 0, "lon": -77.113582, "is_disabled": 0, "fusion_lat": 0.0, "lat": 38.84195116666667, "bike_id": "1988218d80ddcde31517151eba91feea", "fusion_lon": 0.0}, {"rental_uris": {"ios": "https://dc.lft.to/lastmile_qr_scan", "android": "https://dc.lft.to/lastmile_qr_scan"}, "type": "electric_scooter", "name": "35f53191db50e491b61e1e818f439c71", "is_reserved": 0, "lon": -77.04252716666667, "is_disabled": 0, "fusion_lat": 0.0, "lat": 38.922923833333336, "bike_id": "35f53191db50e491b61e1e818f439c71", "fusion_lon": 0.0}, {"rental_uris": {"ios": "https://dc.lft.to/lastmile_qr_scan", "android": "https://dc.lft.to/lastmile_qr_scan"}, "type": "electric_scooter", "name": "3009f9a2f1e50b32edc9fc2da66e5bac", "is_reserved": 0, "lon": -77.0320835, "is_disabled": 0, "fusion_lat": 0.0, "lat": 38.90731483333333, "bike_id": "3009f9a2f1e50b32edc9fc2da66e5bac", "fusion_lon": 0.0}, {"rental_uris": {"ios": "https://dc.lft.to/lastmile_qr_scan", "android": "https://dc.lft.to/lastmile_qr_scan"}, "type": "electric_scooter", "name": "fb1d918dc9244c62996f10a07eb00a84", "is_reserved": 0, "lon": -76.93129316666666, "is_disabled": 0, "fusion_lat": 0.0, "lat": 38.876433, "bike_id": "fb1d918dc9244c62996f10a07eb00a84", "fusion_lon": 0.0}, {"rental_uris": {"ios": "https://dc.lft.to/lastmile_qr_scan", "android": "https://dc.lft.to/lastmile_qr_scan"}, "type": "electric_scooter", "name": "43baf56e17cc6a08f0e5f3a52171db83", "is_reserved": 0, "lon": -77.00103466666667, "is_disabled": 0, "fusion_lat": 0.0, "lat": 38.90842283333333, "bike_id": "43baf56e17cc6a08f0e5f3a52171db83", "fusion_lon": 0.0}, {"rental_uris": {"ios": "https://dc.lft.to/lastmile_qr_scan", "android": "https://dc.lft.to/lastmile_qr_scan"}, "type": "electric_scooter", "name": "ec3d229a523b03e9ba048c35dd5001a5", "is_reserved": 0, "lon": -77.02194466666667, "is_disabled": 0, "fusion_lat": 0.0, "lat": 38.90972133333333, "bike_id": "ec3d229a523b03e9ba048c35dd5001a5", "fusion_lon": 0.0}, {"rental_uris": {"ios": "https://dc.lft.to/lastmile_qr_scan", "android": "https://dc.lft.to/lastmile_qr_scan"}, "type": "electric_scooter", "name": "74144d7f33d025eeb27421844d13b5dd", "is_reserved": 0, "lon": -77.004977, "is_disabled": 0, "fusion_lat": 0.0, "lat": 38.879431, "bike_id": "74144d7f33d025eeb27421844d13b5dd", "fusion_lon": 0.0}, {"rental_uris": {"ios": "https://dc.lft.to/lastmile_qr_scan", "android": "https://dc.lft.to/lastmile_qr_scan"}, "type": "electric_bike", "name": "0cd6ce0aad01ab24a60c9364d2d709ce", "is_reserved": 0, "lon": -77.0429035, "is_disabled": 0, "fusion_lat": 0.0, "lat": 39.034284166666666, "bike_id": "0cd6ce0aad01ab24a60c9364d2d709ce", "fusion_lon": 0.0}, {"rental_uris": {"ios": "https://dc.lft.to/lastmile_qr_scan", "android": "https://dc.lft.to/lastmile_qr_scan"}, "type": "electric_scooter", "name": "c50b2d097004736445efb0213fe2ecc9", "is_reserved": 0, "lon": -76.97376883333334, "is_disabled": 0, "fusion_lat": 0.0, "lat": 38.85000733333333, "bike_id": "c50b2d097004736445efb0213fe2ecc9", "fusion_lon": 0.0}, {"rental_uris": {"ios": "https://dc.lft.to/lastmile_qr_scan", "android": "https://dc.lft.to/lastmile_qr_scan"}, "type": "electric_scooter", "name": "f657ee5a91b90c4d8042ccee7109fc09", "is_reserved": 0, "lon": -77.0330265, "is_disabled": 0, "fusion_lat": 0.0, "lat": 38.9264505, "bike_id": "f657ee5a91b90c4d8042ccee7109fc09", "fusion_lon": 0.0}, {"rental_uris": {"ios": "https://dc.lft.to/lastmile_qr_scan", "android": "https://dc.lft.to/lastmile_qr_scan"}, "type": "electric_scooter", "name": "e81fbee4598cb470750eafce7bbcab5c", "is_reserved": 0, "lon": -77.04496283333333, "is_disabled": 0, "fusion_lat": 0.0, "lat": 38.90794666666667, "bike_id": "e81fbee4598cb470750eafce7bbcab5c", "fusion_lon": 0.0}, {"rental_uris": {"ios": "https://dc.lft.to/lastmile_qr_scan", "android": "https://dc.lft.to/lastmile_qr_scan"}, "type": "electric_scooter", "name": "1cd66a5bea42dc0e81beb270a9a23f36", "is_reserved": 0, "lon": -77.03635533333333, "is_disabled": 0, "fusion_lat": 0.0, "lat": 38.918296, "bike_id": "1cd66a5bea42dc0e81beb270a9a23f36", "fusion_lon": 0.0}, {"rental_uris": {"ios": "https://dc.lft.to/lastmile_qr_scan", "android": "https://dc.lft.to/lastmile_qr_scan"}, "type": "electric_scooter", "name": "2b2544f67ab3e012c827bb4c8dffb936", "is_reserved": 0, "lon": -77.03151916666667, "is_disabled": 0, "fusion_lat": 0.0, "lat": 38.887421833333335, "bike_id": "2b2544f67ab3e012c827bb4c8dffb936", "fusion_lon": 0.0}, {"rental_uris": {"ios": "https://dc.lft.to/lastmile_qr_scan", "android": "https://dc.lft.to/lastmile_qr_scan"}, "type": "electric_scooter", "name": "b0a30b476685190ef5bdcc93cd5a0163", "is_reserved": 0, "lon": -77.01760633333333, "is_disabled": 0, "fusion_lat": 0.0, "lat": 38.902734, "bike_id": "b0a30b476685190ef5bdcc93cd5a0163", "fusion_lon": 0.0}, {"rental_uris": {"ios": "https://dc.lft.to/lastmile_qr_scan", "android": "https://dc.lft.to/lastmile_qr_scan"}, "type": "electric_scooter", "name": "8a11ecbc5e50a1b12156284ee40a0006", "is_reserved": 0, "lon": -77.03463266666667, "is_disabled": 0, "fusion_lat": 0.0, "lat": 38.90839583333333, "bike_id": "8a11ecbc5e50a1b12156284ee40a0006", "fusion_lon": 0.0}, {"rental_uris": {"ios": "https://dc.lft.to/lastmile_qr_scan", "android": "https://dc.lft.to/lastmile_qr_scan"}, "type": "electric_scooter", "name": "5ebbccdbd701d1bfa8b19bbfd12cb9c3", "is_reserved": 0, "lon": -77.01596566666667, "is_disabled": 0, "fusion_lat": 0.0, "lat": 38.910743, "bike_id": "5ebbccdbd701d1bfa8b19bbfd12cb9c3", "fusion_lon": 0.0}, {"rental_uris": {"ios": "https://dc.lft.to/lastmile_qr_scan", "android": "https://dc.lft.to/lastmile_qr_scan"}, "type": "electric_scooter", "name": "096cc7ccbe8c3bcb037a8b663b9d79fa", "is_reserved": 0, "lon": -77.03861733333333, "is_disabled": 0, "fusion_lat": 0.0, "lat": 38.911907666666664, "bike_id": "096cc7ccbe8c3bcb037a8b663b9d79fa", "fusion_lon": 0.0}, {"rental_uris": {"ios": "https://dc.lft.to/lastmile_qr_scan", "android": "https://dc.lft.to/lastmile_qr_scan"}, "type": "electric_scooter", "name": "b5dddf987aea54e47a0598782f400e2a", "is_reserved": 0, "lon": -77.04645116666667, "is_disabled": 0, "fusion_lat": 0.0, "lat": 38.9006465, "bike_id": "b5dddf987aea54e47a0598782f400e2a", "fusion_lon": 0.0}, {"rental_uris": {"ios": "https://dc.lft.to/lastmile_qr_scan", "android": "https://dc.lft.to/lastmile_qr_scan"}, "type": "electric_scooter", "name": "585e7f2693ef117bb887e68f075bafe1", "is_reserved": 0, "lon": -77.00202516666667, "is_disabled": 0, "fusion_lat": 0.0, "lat": 38.901648, "bike_id": "585e7f2693ef117bb887e68f075bafe1", "fusion_lon": 0.0}, {"rental_uris": {"ios": "https://dc.lft.to/lastmile_qr_scan", "android": "https://dc.lft.to/lastmile_qr_scan"}, "type": "electric_scooter", "name": "db63de27baccba7c52bd4e3b42c4a514", "is_reserved": 0, "lon": -77.0398095, "is_disabled": 0, "fusion_lat": 0.0, "lat": 38.90972466666667, "bike_id": "db63de27baccba7c52bd4e3b42c4a514", "fusion_lon": 0.0}, {"rental_uris": {"ios": "https://dc.lft.to/lastmile_qr_scan", "android": "https://dc.lft.to/lastmile_qr_scan"}, "type": "electric_scooter", "name": "621aae8d506f56e86c99452293ed7fea", "is_reserved": 0, "lon": -77.06806983333334, "is_disabled": 0, "fusion_lat": 0.0, "lat": 38.95224116666667, "bike_id": "621aae8d506f56e86c99452293ed7fea", "fusion_lon": 0.0}, {"rental_uris": {"ios": "https://dc.lft.to/lastmile_qr_scan", "android": "https://dc.lft.to/lastmile_qr_scan"}, "type": "electric_scooter", "name": "419f26d5ce9c5337c99fc27a4e84c680", "is_reserved": 0, "lon": -77.03505816666667, "is_disabled": 0, "fusion_lat": 0.0, "lat": 38.91876033333333, "bike_id": "419f26d5ce9c5337c99fc27a4e84c680", "fusion_lon": 0.0}, {"rental_uris": {"ios": "https://dc.lft.to/lastmile_qr_scan", "android": "https://dc.lft.to/lastmile_qr_scan"}, "type": "electric_scooter", "name": "75d6237aaefade60035ff451d3abba67", "is_reserved": 0, "lon": -77.020743, "is_disabled": 0, "fusion_lat": 0.0, "lat": 38.91248933333333, "bike_id": "75d6237aaefade60035ff451d3abba67", "fusion_lon": 0.0}, {"rental_uris": {"ios": "https://dc.lft.to/lastmile_qr_scan", "android": "https://dc.lft.to/lastmile_qr_scan"}, "type": "electric_scooter", "name": "e45d66b151b99dbf2868d2db97b77764", "is_reserved": 0, "lon": -77.0075465, "is_disabled": 0, "fusion_lat": 0.0, "lat": 38.8783985, "bike_id": "e45d66b151b99dbf2868d2db97b77764", "fusion_lon": 0.0}, {"rental_uris": {"ios": "https://dc.lft.to/lastmile_qr_scan", "android": "https://dc.lft.to/lastmile_qr_scan"}, "type": "electric_scooter", "name": "70a42594d9324f8ab3d9d975a044bac1", "is_reserved": 0, "lon": -77.0110375, "is_disabled": 0, "fusion_lat": 0.0, "lat": 38.885417, "bike_id": "70a42594d9324f8ab3d9d975a044bac1", "fusion_lon": 0.0}, {"rental_uris": {"ios": "https://dc.lft.to/lastmile_qr_scan", "android": "https://dc.lft.to/lastmile_qr_scan"}, "type": "electric_scooter", "name": "e207765010b19d5f4beb4eb3987a8c95", "is_reserved": 0, "lon": -77.05867233333333, "is_disabled": 0, "fusion_lat": 0.0, "lat": 38.9043365, "bike_id": "e207765010b19d5f4beb4eb3987a8c95", "fusion_lon": 0.0}, {"rental_uris": {"ios": "https://dc.lft.to/lastmile_qr_scan", "android": "https://dc.lft.to/lastmile_qr_scan"}, "type": "electric_scooter", "name": "8b83cc8871558ed1d490aeeab1915af9", "is_reserved": 0, "lon": -76.99038483333334, "is_disabled": 0, "fusion_lat": 0.0, "lat": 38.902778166666664, "bike_id": "8b83cc8871558ed1d490aeeab1915af9", "fusion_lon": 0.0}, {"rental_uris": {"ios": "https://dc.lft.to/lastmile_qr_scan", "android": "https://dc.lft.to/lastmile_qr_scan"}, "type": "electric_bike", "name": "13d9c82fafeaed6cf688ae022ee9f8a2", "is_reserved": 0, "lon": -76.9609415, "is_disabled": 0, "fusion_lat": 0.0, "lat": 38.94966216666667, "bike_id": "13d9c82fafeaed6cf688ae022ee9f8a2", "fusion_lon": 0.0}, {"rental_uris": {"ios": "https://dc.lft.to/lastmile_qr_scan", "android": "https://dc.lft.to/lastmile_qr_scan"}, "type": "electric_scooter", "name": "09e537ab2d21b14ab3456957dba0ec4b", "is_reserved": 0, "lon": -77.0204995, "is_disabled": 0, "fusion_lat": 0.0, "lat": 38.929259, "bike_id": "09e537ab2d21b14ab3456957dba0ec4b", "fusion_lon": 0.0}, {"rental_uris": {"ios": "https://dc.lft.to/lastmile_qr_scan", "android": "https://dc.lft.to/lastmile_qr_scan"}, "type": "electric_scooter", "name": "498a360b6a4e664167c87e8829120612", "is_reserved": 0, "lon": -77.048598, "is_disabled": 0, "fusion_lat": 0.0, "lat": 38.912695166666666, "bike_id": "498a360b6a4e664167c87e8829120612", "fusion_lon": 0.0}, {"rental_uris": {"ios": "https://dc.lft.to/lastmile_qr_scan", "android": "https://dc.lft.to/lastmile_qr_scan"}, "type": "electric_scooter", "name": "2f4a41f5fb3cb59470ec3f19d4c0b7e4", "is_reserved": 0, "lon": -77.03660533333333, "is_disabled": 0, "fusion_lat": 0.0, "lat": 38.92125566666667, "bike_id": "2f4a41f5fb3cb59470ec3f19d4c0b7e4", "fusion_lon": 0.0}, {"rental_uris": {"ios": "https://dc.lft.to/lastmile_qr_scan", "android": "https://dc.lft.to/lastmile_qr_scan"}, "type": "electric_bike", "name": "362432358c21b5e960c54e5bd7b343e8", "is_reserved": 0, "lon": -76.99442833333333, "is_disabled": 0, "fusion_lat": 0.0, "lat": 38.8310875, "bike_id": "362432358c21b5e960c54e5bd7b343e8", "fusion_lon": 0.0}, {"rental_uris": {"ios": "https://dc.lft.to/lastmile_qr_scan", "android": "https://dc.lft.to/lastmile_qr_scan"}, "type": "electric_scooter", "name": "0b739166fc14a1d47129e11d5feda5a2", "is_reserved": 0, "lon": -77.04393233333333, "is_disabled": 0, "fusion_lat": 0.0, "lat": 38.92040166666666, "bike_id": "0b739166fc14a1d47129e11d5feda5a2", "fusion_lon": 0.0}, {"rental_uris": {"ios": "https://dc.lft.to/lastmile_qr_scan", "android": "https://dc.lft.to/lastmile_qr_scan"}, "type": "electric_scooter", "name": "2fa319ff7a8ee1b2c358e8ddc152dd14", "is_reserved": 0, "lon": -77.0253095, "is_disabled": 0, "fusion_lat": 0.0, "lat": 38.945332666666665, "bike_id": "2fa319ff7a8ee1b2c358e8ddc152dd14", "fusion_lon": 0.0}, {"rental_uris": {"ios": "https://dc.lft.to/lastmile_qr_scan", "android": "https://dc.lft.to/lastmile_qr_scan"}, "type": "electric_scooter", "name": "e5b3ea9d592e3494a0dd7bb0e735b0e9", "is_reserved": 0, "lon": -77.02153666666666, "is_disabled": 0, "fusion_lat": 0.0, "lat": 38.88744533333333, "bike_id": "e5b3ea9d592e3494a0dd7bb0e735b0e9", "fusion_lon": 0.0}, {"rental_uris": {"ios": "https://dc.lft.to/lastmile_qr_scan", "android": "https://dc.lft.to/lastmile_qr_scan"}, "type": "electric_scooter", "name": "f363aae147efeffaa8dfdcad3d3422bf", "is_reserved": 0, "lon": -76.93374566666667, "is_disabled": 0, "fusion_lat": 0.0, "lat": 38.89873633333333, "bike_id": "f363aae147efeffaa8dfdcad3d3422bf", "fusion_lon": 0.0}, {"rental_uris": {"ios": "https://dc.lft.to/lastmile_qr_scan", "android": "https://dc.lft.to/lastmile_qr_scan"}, "type": "electric_scooter", "name": "bb548548a4504433df33dddd5039d30c", "is_reserved": 0, "lon": -77.03848033333334, "is_disabled": 0, "fusion_lat": 0.0, "lat": 38.9165245, "bike_id": "bb548548a4504433df33dddd5039d30c", "fusion_lon": 0.0}, {"rental_uris": {"ios": "https://dc.lft.to/lastmile_qr_scan", "android": "https://dc.lft.to/lastmile_qr_scan"}, "type": "electric_scooter", "name": "a00609bb4f197346c85d3eeedb45a7d0", "is_reserved": 0, "lon": -77.03178133333333, "is_disabled": 0, "fusion_lat": 0.0, "lat": 38.91828266666667, "bike_id": "a00609bb4f197346c85d3eeedb45a7d0", "fusion_lon": 0.0}, {"rental_uris": {"ios": "https://dc.lft.to/lastmile_qr_scan", "android": "https://dc.lft.to/lastmile_qr_scan"}, "type": "electric_scooter", "name": "a4de4be5b9e94689cb84b4f909beae58", "is_reserved": 0, "lon": -77.03639116666666, "is_disabled": 0, "fusion_lat": 0.0, "lat": 38.92413666666667, "bike_id": "a4de4be5b9e94689cb84b4f909beae58", "fusion_lon": 0.0}, {"rental_uris": {"ios": "https://dc.lft.to/lastmile_qr_scan", "android": "https://dc.lft.to/lastmile_qr_scan"}, "type": "electric_scooter", "name": "7a695228bc1d00996b81e52efb03efb3", "is_reserved": 0, "lon": -77.02342483333334, "is_disabled": 0, "fusion_lat": 0.0, "lat": 38.931775, "bike_id": "7a695228bc1d00996b81e52efb03efb3", "fusion_lon": 0.0}, {"rental_uris": {"ios": "https://dc.lft.to/lastmile_qr_scan", "android": "https://dc.lft.to/lastmile_qr_scan"}, "type": "electric_scooter", "name": "c1e2a84ef06ea1660544f7e2edf9ee37", "is_reserved": 0, "lon": -77.04253466666667, "is_disabled": 0, "fusion_lat": 0.0, "lat": 38.922504333333336, "bike_id": "c1e2a84ef06ea1660544f7e2edf9ee37", "fusion_lon": 0.0}, {"rental_uris": {"ios": "https://dc.lft.to/lastmile_qr_scan", "android": "https://dc.lft.to/lastmile_qr_scan"}, "type": "electric_scooter", "name": "25e81ffc7d78b82e080137cd5dd3c9ac", "is_reserved": 0, "lon": -76.98891366666666, "is_disabled": 0, "fusion_lat": 0.0, "lat": 38.90651283333333, "bike_id": "25e81ffc7d78b82e080137cd5dd3c9ac", "fusion_lon": 0.0}, {"rental_uris": {"ios": "https://dc.lft.to/lastmile_qr_scan", "android": "https://dc.lft.to/lastmile_qr_scan"}, "type": "electric_scooter", "name": "c3685c92a166594677221da01dcd85d5", "is_reserved": 0, "lon": -77.00237666666666, "is_disabled": 0, "fusion_lat": 0.0, "lat": 38.90044983333333, "bike_id": "c3685c92a166594677221da01dcd85d5", "fusion_lon": 0.0}, {"rental_uris": {"ios": "https://dc.lft.to/lastmile_qr_scan", "android": "https://dc.lft.to/lastmile_qr_scan"}, "type": "electric_scooter", "name": "1af725754b8f3069f26a83d1acf1590f", "is_reserved": 0, "lon": -77.05501966666667, "is_disabled": 0, "fusion_lat": 0.0, "lat": 38.928412333333334, "bike_id": "1af725754b8f3069f26a83d1acf1590f", "fusion_lon": 0.0}, {"rental_uris": {"ios": "https://dc.lft.to/lastmile_qr_scan", "android": "https://dc.lft.to/lastmile_qr_scan"}, "type": "electric_bike", "name": "f63f43146cadf698a71b0e86d20f4a14", "is_reserved": 0, "lon": -76.99244983333334, "is_disabled": 0, "fusion_lat": 0.0, "lat": 38.9607685, "bike_id": "f63f43146cadf698a71b0e86d20f4a14", "fusion_lon": 0.0}, {"rental_uris": {"ios": "https://dc.lft.to/lastmile_qr_scan", "android": "https://dc.lft.to/lastmile_qr_scan"}, "type": "electric_scooter", "name": "7616f6897681be96be56e9999047deaf", "is_reserved": 0, "lon": -76.99792566666666, "is_disabled": 0, "fusion_lat": 0.0, "lat": 38.876349833333336, "bike_id": "7616f6897681be96be56e9999047deaf", "fusion_lon": 0.0}, {"rental_uris": {"ios": "https://dc.lft.to/lastmile_qr_scan", "android": "https://dc.lft.to/lastmile_qr_scan"}, "type": "electric_bike", "name": "04f4a83d872f360ee175b7206962a1d8", "is_reserved": 0, "lon": -77.00135116666667, "is_disabled": 0, "fusion_lat": 0.0, "lat": 38.99499616666667, "bike_id": "04f4a83d872f360ee175b7206962a1d8", "fusion_lon": 0.0}, {"rental_uris": {"ios": "https://dc.lft.to/lastmile_qr_scan", "android": "https://dc.lft.to/lastmile_qr_scan"}, "type": "electric_scooter", "name": "42da1d4f5ecc57803549674b20416de1", "is_reserved": 0, "lon": -77.0608795, "is_disabled": 0, "fusion_lat": 0.0, "lat": 38.93995983333333, "bike_id": "42da1d4f5ecc57803549674b20416de1", "fusion_lon": 0.0}, {"rental_uris": {"ios": "https://dc.lft.to/lastmile_qr_scan", "android": "https://dc.lft.to/lastmile_qr_scan"}, "type": "electric_bike", "name": "441f6e622582327368ab7e454ae8ab72", "is_reserved": 0, "lon": -76.95796683333333, "is_disabled": 0, "fusion_lat": 0.0, "lat": 38.980458666666664, "bike_id": "441f6e622582327368ab7e454ae8ab72", "fusion_lon": 0.0}, {"rental_uris": {"ios": "https://dc.lft.to/lastmile_qr_scan", "android": "https://dc.lft.to/lastmile_qr_scan"}, "type": "electric_scooter", "name": "29d4c6f4805e2c266ab61e43c9c7fa81", "is_reserved": 0, "lon": -77.05669966666666, "is_disabled": 0, "fusion_lat": 0.0, "lat": 38.90609966666667, "bike_id": "29d4c6f4805e2c266ab61e43c9c7fa81", "fusion_lon": 0.0}, {"rental_uris": {"ios": "https://dc.lft.to/lastmile_qr_scan", "android": "https://dc.lft.to/lastmile_qr_scan"}, "type": "electric_scooter", "name": "9488692161e1a6ee67e5b3bd64a80d9d", "is_reserved": 0, "lon": -77.073354, "is_disabled": 0, "fusion_lat": 0.0, "lat": 38.960912, "bike_id": "9488692161e1a6ee67e5b3bd64a80d9d", "fusion_lon": 0.0}, {"rental_uris": {"ios": "https://dc.lft.to/lastmile_qr_scan", "android": "https://dc.lft.to/lastmile_qr_scan"}, "type": "electric_scooter", "name": "65f4204f0e5b86a4ad1dbd9136fb54ba", "is_reserved": 0, "lon": -77.02381366666667, "is_disabled": 0, "fusion_lat": 0.0, "lat": 38.93534566666666, "bike_id": "65f4204f0e5b86a4ad1dbd9136fb54ba", "fusion_lon": 0.0}, {"rental_uris": {"ios": "https://dc.lft.to/lastmile_qr_scan", "android": "https://dc.lft.to/lastmile_qr_scan"}, "type": "electric_scooter", "name": "94819f004359c845f61c1ab640d4626b", "is_reserved": 0, "lon": -76.97566333333333, "is_disabled": 0, "fusion_lat": 0.0, "lat": 38.944204166666665, "bike_id": "94819f004359c845f61c1ab640d4626b", "fusion_lon": 0.0}, {"rental_uris": {"ios": "https://dc.lft.to/lastmile_qr_scan", "android": "https://dc.lft.to/lastmile_qr_scan"}, "type": "electric_scooter", "name": "7964247a4c087f703a0dcc7e0dc8147a", "is_reserved": 0, "lon": -77.03560133333333, "is_disabled": 0, "fusion_lat": 0.0, "lat": 38.92738466666667, "bike_id": "7964247a4c087f703a0dcc7e0dc8147a", "fusion_lon": 0.0}, {"rental_uris": {"ios": "https://dc.lft.to/lastmile_qr_scan", "android": "https://dc.lft.to/lastmile_qr_scan"}, "type": "electric_scooter", "name": "1a02743aed1aad3851e4ebd152556ae7", "is_reserved": 0, "lon": -76.98543483333333, "is_disabled": 0, "fusion_lat": 0.0, "lat": 38.8796885, "bike_id": "1a02743aed1aad3851e4ebd152556ae7", "fusion_lon": 0.0}, {"rental_uris": {"ios": "https://dc.lft.to/lastmile_qr_scan", "android": "https://dc.lft.to/lastmile_qr_scan"}, "type": "electric_scooter", "name": "d7bafd8dbff82da430c78fb7baa9392d", "is_reserved": 0, "lon": -77.02381783333334, "is_disabled": 0, "fusion_lat": 0.0, "lat": 38.903259, "bike_id": "d7bafd8dbff82da430c78fb7baa9392d", "fusion_lon": 0.0}, {"rental_uris": {"ios": "https://dc.lft.to/lastmile_qr_scan", "android": "https://dc.lft.to/lastmile_qr_scan"}, "type": "electric_scooter", "name": "6c03bea3f75742c13484084aaf40680c", "is_reserved": 0, "lon": -77.01888833333334, "is_disabled": 0, "fusion_lat": 0.0, "lat": 38.874713, "bike_id": "6c03bea3f75742c13484084aaf40680c", "fusion_lon": 0.0}, {"rental_uris": {"ios": "https://dc.lft.to/lastmile_qr_scan", "android": "https://dc.lft.to/lastmile_qr_scan"}, "type": "electric_scooter", "name": "6b7dc391a7b0fdfad402ce87c18ed210", "is_reserved": 0, "lon": -77.04003066666667, "is_disabled": 0, "fusion_lat": 0.0, "lat": 38.934277, "bike_id": "6b7dc391a7b0fdfad402ce87c18ed210", "fusion_lon": 0.0}, {"rental_uris": {"ios": "https://dc.lft.to/lastmile_qr_scan", "android": "https://dc.lft.to/lastmile_qr_scan"}, "type": "electric_scooter", "name": "09f731c77f4a9d17e0debe86485fdf18", "is_reserved": 0, "lon": -77.05313816666667, "is_disabled": 0, "fusion_lat": 0.0, "lat": 38.94098433333333, "bike_id": "09f731c77f4a9d17e0debe86485fdf18", "fusion_lon": 0.0}, {"rental_uris": {"ios": "https://dc.lft.to/lastmile_qr_scan", "android": "https://dc.lft.to/lastmile_qr_scan"}, "type": "electric_bike", "name": "b02ade256b883ed92b7a346b9a54dd8d", "is_reserved": 0, "lon": -76.9688575, "is_disabled": 0, "fusion_lat": 0.0, "lat": 38.86985833333333, "bike_id": "b02ade256b883ed92b7a346b9a54dd8d", "fusion_lon": 0.0}, {"rental_uris": {"ios": "https://dc.lft.to/lastmile_qr_scan", "android": "https://dc.lft.to/lastmile_qr_scan"}, "type": "electric_scooter", "name": "4dfc281fdb059a9edfaff0016c55f518", "is_reserved": 0, "lon": -77.0671305, "is_disabled": 0, "fusion_lat": 0.0, "lat": 38.91463133333333, "bike_id": "4dfc281fdb059a9edfaff0016c55f518", "fusion_lon": 0.0}, {"rental_uris": {"ios": "https://dc.lft.to/lastmile_qr_scan", "android": "https://dc.lft.to/lastmile_qr_scan"}, "type": "electric_bike", "name": "c2ae3a52e04ed213f40f52ae977e65fc", "is_reserved": 0, "lon": -77.12883583333333, "is_disabled": 0, "fusion_lat": 0.0, "lat": 38.9060975, "bike_id": "c2ae3a52e04ed213f40f52ae977e65fc", "fusion_lon": 0.0}, {"rental_uris": {"ios": "https://dc.lft.to/lastmile_qr_scan", "android": "https://dc.lft.to/lastmile_qr_scan"}, "type": "electric_scooter", "name": "677557a40f85d2535d6e08eb6e21dd9d", "is_reserved": 0, "lon": -77.02078016666667, "is_disabled": 0, "fusion_lat": 0.0, "lat": 38.912521166666664, "bike_id": "677557a40f85d2535d6e08eb6e21dd9d", "fusion_lon": 0.0}, {"rental_uris": {"ios": "https://dc.lft.to/lastmile_qr_scan", "android": "https://dc.lft.to/lastmile_qr_scan"}, "type": "electric_scooter", "name": "ce75da1ed3ee65bedf2437dc897a5fbf", "is_reserved": 0, "lon": -76.99145033333333, "is_disabled": 0, "fusion_lat": 0.0, "lat": 38.873385666666664, "bike_id": "ce75da1ed3ee65bedf2437dc897a5fbf", "fusion_lon": 0.0}, {"rental_uris": {"ios": "https://dc.lft.to/lastmile_qr_scan", "android": "https://dc.lft.to/lastmile_qr_scan"}, "type": "electric_scooter", "name": "d24f8d8cdaac32334c46bfca721e33aa", "is_reserved": 0, "lon": -77.024578, "is_disabled": 0, "fusion_lat": 0.0, "lat": 38.903412, "bike_id": "d24f8d8cdaac32334c46bfca721e33aa", "fusion_lon": 0.0}, {"rental_uris": {"ios": "https://dc.lft.to/lastmile_qr_scan", "android": "https://dc.lft.to/lastmile_qr_scan"}, "type": "electric_scooter", "name": "56a89b13185e4045a8713d1ee8a6ca99", "is_reserved": 0, "lon": -77.063933, "is_disabled": 0, "fusion_lat": 0.0, "lat": 38.908629833333336, "bike_id": "56a89b13185e4045a8713d1ee8a6ca99", "fusion_lon": 0.0}, {"rental_uris": {"ios": "https://dc.lft.to/lastmile_qr_scan", "android": "https://dc.lft.to/lastmile_qr_scan"}, "type": "electric_scooter", "name": "cbafcd123fd73dcd48cae0a51a05e51e", "is_reserved": 0, "lon": -77.02175916666667, "is_disabled": 0, "fusion_lat": 0.0, "lat": 38.928344833333334, "bike_id": "cbafcd123fd73dcd48cae0a51a05e51e", "fusion_lon": 0.0}, {"rental_uris": {"ios": "https://dc.lft.to/lastmile_qr_scan", "android": "https://dc.lft.to/lastmile_qr_scan"}, "type": "electric_scooter", "name": "059d78d4b5137f29a4efd15896f05788", "is_reserved": 0, "lon": -76.9854205, "is_disabled": 0, "fusion_lat": 0.0, "lat": 38.91290883333333, "bike_id": "059d78d4b5137f29a4efd15896f05788", "fusion_lon": 0.0}, {"rental_uris": {"ios": "https://dc.lft.to/lastmile_qr_scan", "android": "https://dc.lft.to/lastmile_qr_scan"}, "type": "electric_bike", "name": "ef812d7004420d895843dfc1113466be", "is_reserved": 0, "lon": -77.05175983333334, "is_disabled": 0, "fusion_lat": 0.0, "lat": 38.8447345, "bike_id": "ef812d7004420d895843dfc1113466be", "fusion_lon": 0.0}, {"rental_uris": {"ios": "https://dc.lft.to/lastmile_qr_scan", "android": "https://dc.lft.to/lastmile_qr_scan"}, "type": "electric_scooter", "name": "9aa5bd136e72c47d994797a7b6bbaada", "is_reserved": 0, "lon": -77.029577, "is_disabled": 0, "fusion_lat": 0.0, "lat": 38.904177, "bike_id": "9aa5bd136e72c47d994797a7b6bbaada", "fusion_lon": 0.0}, {"rental_uris": {"ios": "https://dc.lft.to/lastmile_qr_scan", "android": "https://dc.lft.to/lastmile_qr_scan"}, "type": "electric_scooter", "name": "0cbd5e4588f9d01343cfb4e1e72ea80d", "is_reserved": 0, "lon": -77.03439383333334, "is_disabled": 0, "fusion_lat": 0.0, "lat": 38.91798383333333, "bike_id": "0cbd5e4588f9d01343cfb4e1e72ea80d", "fusion_lon": 0.0}, {"rental_uris": {"ios": "https://dc.lft.to/lastmile_qr_scan", "android": "https://dc.lft.to/lastmile_qr_scan"}, "type": "electric_scooter", "name": "ee4f7aeed24ba622b2a294ed4d122a58", "is_reserved": 0, "lon": -77.03361833333334, "is_disabled": 0, "fusion_lat": 0.0, "lat": 38.9111565, "bike_id": "ee4f7aeed24ba622b2a294ed4d122a58", "fusion_lon": 0.0}, {"rental_uris": {"ios": "https://dc.lft.to/lastmile_qr_scan", "android": "https://dc.lft.to/lastmile_qr_scan"}, "type": "electric_scooter", "name": "f01cf236c17af30b5a8666e1a47c119d", "is_reserved": 0, "lon": -76.9816235, "is_disabled": 0, "fusion_lat": 0.0, "lat": 38.861767666666665, "bike_id": "f01cf236c17af30b5a8666e1a47c119d", "fusion_lon": 0.0}, {"rental_uris": {"ios": "https://dc.lft.to/lastmile_qr_scan", "android": "https://dc.lft.to/lastmile_qr_scan"}, "type": "electric_scooter", "name": "0935efa6ef6d748eb191cfecf8869fc3", "is_reserved": 0, "lon": -77.03334733333334, "is_disabled": 0, "fusion_lat": 0.0, "lat": 38.91917733333333, "bike_id": "0935efa6ef6d748eb191cfecf8869fc3", "fusion_lon": 0.0}, {"rental_uris": {"ios": "https://dc.lft.to/lastmile_qr_scan", "android": "https://dc.lft.to/lastmile_qr_scan"}, "type": "electric_scooter", "name": "3eb5f4b04f1fe35c0670767947093c5a", "is_reserved": 0, "lon": -77.02729083333334, "is_disabled": 0, "fusion_lat": 0.0, "lat": 38.91913183333333, "bike_id": "3eb5f4b04f1fe35c0670767947093c5a", "fusion_lon": 0.0}, {"rental_uris": {"ios": "https://dc.lft.to/lastmile_qr_scan", "android": "https://dc.lft.to/lastmile_qr_scan"}, "type": "electric_scooter", "name": "8fbe861c2727ea1216968e40c32774ed", "is_reserved": 0, "lon": -77.045196, "is_disabled": 0, "fusion_lat": 0.0, "lat": 38.9232015, "bike_id": "8fbe861c2727ea1216968e40c32774ed", "fusion_lon": 0.0}, {"rental_uris": {"ios": "https://dc.lft.to/lastmile_qr_scan", "android": "https://dc.lft.to/lastmile_qr_scan"}, "type": "electric_scooter", "name": "111062862817cb4dea9687c724de0ba8", "is_reserved": 0, "lon": -77.028255, "is_disabled": 0, "fusion_lat": 0.0, "lat": 38.899187, "bike_id": "111062862817cb4dea9687c724de0ba8", "fusion_lon": 0.0}, {"rental_uris": {"ios": "https://dc.lft.to/lastmile_qr_scan", "android": "https://dc.lft.to/lastmile_qr_scan"}, "type": "electric_scooter", "name": "333a2c81e8bb5815ea8d1a28bd72e65a", "is_reserved": 0, "lon": -77.02109183333333, "is_disabled": 0, "fusion_lat": 0.0, "lat": 38.926912, "bike_id": "333a2c81e8bb5815ea8d1a28bd72e65a", "fusion_lon": 0.0}, {"rental_uris": {"ios": "https://dc.lft.to/lastmile_qr_scan", "android": "https://dc.lft.to/lastmile_qr_scan"}, "type": "electric_scooter", "name": "d7a044a2a1ada3685151ff857323c042", "is_reserved": 0, "lon": -77.0387105, "is_disabled": 0, "fusion_lat": 0.0, "lat": 38.92152433333333, "bike_id": "d7a044a2a1ada3685151ff857323c042", "fusion_lon": 0.0}, {"rental_uris": {"ios": "https://dc.lft.to/lastmile_qr_scan", "android": "https://dc.lft.to/lastmile_qr_scan"}, "type": "electric_scooter", "name": "c0f64321bae385738afe62bf75397de7", "is_reserved": 0, "lon": -77.06282733333333, "is_disabled": 0, "fusion_lat": 0.0, "lat": 38.91241616666667, "bike_id": "c0f64321bae385738afe62bf75397de7", "fusion_lon": 0.0}, {"rental_uris": {"ios": "https://dc.lft.to/lastmile_qr_scan", "android": "https://dc.lft.to/lastmile_qr_scan"}, "type": "electric_scooter", "name": "1d835c401650ab07f5e8bd971b1a5bee", "is_reserved": 0, "lon": -77.01550416666667, "is_disabled": 0, "fusion_lat": 0.0, "lat": 38.94330866666667, "bike_id": "1d835c401650ab07f5e8bd971b1a5bee", "fusion_lon": 0.0}, {"rental_uris": {"ios": "https://dc.lft.to/lastmile_qr_scan", "android": "https://dc.lft.to/lastmile_qr_scan"}, "type": "electric_scooter", "name": "97d77a7a0e59c2a72cfb986edbf68f1c", "is_reserved": 0, "lon": -77.02021283333333, "is_disabled": 0, "fusion_lat": 0.0, "lat": 38.92328366666667, "bike_id": "97d77a7a0e59c2a72cfb986edbf68f1c", "fusion_lon": 0.0}, {"rental_uris": {"ios": "https://dc.lft.to/lastmile_qr_scan", "android": "https://dc.lft.to/lastmile_qr_scan"}, "type": "electric_scooter", "name": "55e36f59ed900143c6f27e94692c6fef", "is_reserved": 0, "lon": -77.03641716666667, "is_disabled": 0, "fusion_lat": 0.0, "lat": 38.924828833333336, "bike_id": "55e36f59ed900143c6f27e94692c6fef", "fusion_lon": 0.0}, {"rental_uris": {"ios": "https://dc.lft.to/lastmile_qr_scan", "android": "https://dc.lft.to/lastmile_qr_scan"}, "type": "electric_scooter", "name": "f35f72e9543f5279453aa1c4bad71b79", "is_reserved": 0, "lon": -77.002909, "is_disabled": 0, "fusion_lat": 0.0, "lat": 38.909050666666666, "bike_id": "f35f72e9543f5279453aa1c4bad71b79", "fusion_lon": 0.0}, {"rental_uris": {"ios": "https://dc.lft.to/lastmile_qr_scan", "android": "https://dc.lft.to/lastmile_qr_scan"}, "type": "electric_scooter", "name": "1c71a8fd86166b04f512084fec6bd5d3", "is_reserved": 0, "lon": -77.0055495, "is_disabled": 0, "fusion_lat": 0.0, "lat": 38.9117955, "bike_id": "1c71a8fd86166b04f512084fec6bd5d3", "fusion_lon": 0.0}, {"rental_uris": {"ios": "https://dc.lft.to/lastmile_qr_scan", "android": "https://dc.lft.to/lastmile_qr_scan"}, "type": "electric_scooter", "name": "eaf6f9beea8fdb719f9c8a1c0b42e818", "is_reserved": 0, "lon": -77.03341666666667, "is_disabled": 0, "fusion_lat": 0.0, "lat": 38.928716666666666, "bike_id": "eaf6f9beea8fdb719f9c8a1c0b42e818", "fusion_lon": 0.0}, {"rental_uris": {"ios": "https://dc.lft.to/lastmile_qr_scan", "android": "https://dc.lft.to/lastmile_qr_scan"}, "type": "electric_scooter", "name": "494e61266016fe7dda5814cf9ee5d650", "is_reserved": 0, "lon": -77.01060483333333, "is_disabled": 0, "fusion_lat": 0.0, "lat": 38.91188983333333, "bike_id": "494e61266016fe7dda5814cf9ee5d650", "fusion_lon": 0.0}, {"rental_uris": {"ios": "https://dc.lft.to/lastmile_qr_scan", "android": "https://dc.lft.to/lastmile_qr_scan"}, "type": "electric_scooter", "name": "b777131b86dbb19c99b1eea2fb454d9d", "is_reserved": 0, "lon": -77.011824, "is_disabled": 0, "fusion_lat": 0.0, "lat": 38.911107666666666, "bike_id": "b777131b86dbb19c99b1eea2fb454d9d", "fusion_lon": 0.0}, {"rental_uris": {"ios": "https://dc.lft.to/lastmile_qr_scan", "android": "https://dc.lft.to/lastmile_qr_scan"}, "type": "electric_scooter", "name": "3bf7ab22d5271c4b8845938a15428d40", "is_reserved": 0, "lon": -77.02387066666667, "is_disabled": 0, "fusion_lat": 0.0, "lat": 38.920769166666666, "bike_id": "3bf7ab22d5271c4b8845938a15428d40", "fusion_lon": 0.0}, {"rental_uris": {"ios": "https://dc.lft.to/lastmile_qr_scan", "android": "https://dc.lft.to/lastmile_qr_scan"}, "type": "electric_scooter", "name": "61c94fa41189089ef83d00c769b08aa1", "is_reserved": 0, "lon": -77.03440533333334, "is_disabled": 0, "fusion_lat": 0.0, "lat": 38.918035, "bike_id": "61c94fa41189089ef83d00c769b08aa1", "fusion_lon": 0.0}, {"rental_uris": {"ios": "https://dc.lft.to/lastmile_qr_scan", "android": "https://dc.lft.to/lastmile_qr_scan"}, "type": "electric_scooter", "name": "91e8384b9acd8086ebdf28a7875da5c5", "is_reserved": 0, "lon": -76.993641, "is_disabled": 0, "fusion_lat": 0.0, "lat": 38.900432, "bike_id": "91e8384b9acd8086ebdf28a7875da5c5", "fusion_lon": 0.0}, {"rental_uris": {"ios": "https://dc.lft.to/lastmile_qr_scan", "android": "https://dc.lft.to/lastmile_qr_scan"}, "type": "electric_scooter", "name": "c5b2363c53ad84064393abfb48789583", "is_reserved": 0, "lon": -77.0569665, "is_disabled": 0, "fusion_lat": 0.0, "lat": 38.937174666666664, "bike_id": "c5b2363c53ad84064393abfb48789583", "fusion_lon": 0.0}, {"rental_uris": {"ios": "https://dc.lft.to/lastmile_qr_scan", "android": "https://dc.lft.to/lastmile_qr_scan"}, "type": "electric_scooter", "name": "53444f7f8debfd39fbc0def9877427bd", "is_reserved": 0, "lon": -77.0195525, "is_disabled": 0, "fusion_lat": 0.0, "lat": 38.931302333333335, "bike_id": "53444f7f8debfd39fbc0def9877427bd", "fusion_lon": 0.0}, {"rental_uris": {"ios": "https://dc.lft.to/lastmile_qr_scan", "android": "https://dc.lft.to/lastmile_qr_scan"},