{"data": {"bikes": [{"lat": 38.899930499999996, "lon": -77.02214316666667, "is_disabled": 0, "fusion_lon": 0.0, "is_reserved": 0, "name": "f2cf992d8de1943caba5006398751b59", "type": "electric_scooter", "bike_id": "f2cf992d8de1943caba5006398751b59", "rental_uris": {"ios": "https://dc.lft.to/lastmile_qr_scan", "android": "https://dc.lft.to/lastmile_qr_scan"}, "fusion_lat": 0.0}, {"lat": 38.92504816666667, "lon": -77.02126316666667, "is_disabled": 0, "fusion_lon": 0.0, "is_reserved": 0, "name": "65e5e1e49913cbf8fadf6fdb3cb35ef7", "type": "electric_bike", "bike_id": "65e5e1e49913cbf8fadf6fdb3cb35ef7", "rental_uris": {"ios": "https://dc.lft.to/lastmile_qr_scan", "android": "https://dc.lft.to/lastmile_qr_scan"}, "fusion_lat": 0.0}, {"lat": 38.9109875, "lon": -77.044798, "is_disabled": 0, "fusion_lon": 0.0, "is_reserved": 0, "name": "2942584758a0ed3cd6c34340d227c6dc", "type": "electric_scooter", "bike_id": "2942584758a0ed3cd6c34340d227c6dc", "rental_uris": {"ios": "https://dc.lft.to/lastmile_qr_scan", "android": "https://dc.lft.to/lastmile_qr_scan"}, "fusion_lat": 0.0}, {"lat": 38.901534166666664, "lon": -76.93065133333333, "is_disabled": 0, "fusion_lon": 0.0, "is_reserved": 0, "name": "8be29d60373c994632112d26ec4ddffc", "type": "electric_scooter", "bike_id": "8be29d60373c994632112d26ec4ddffc", "rental_uris": {"ios": "https://dc.lft.to/lastmile_qr_scan", "android": "https://dc.lft.to/lastmile_qr_scan"}, "fusion_lat": 0.0}, {"lat": 38.90201716666667, "lon": -77.02374483333334, "is_disabled": 0, "fusion_lon": 0.0, "is_reserved": 0, "name": "52c34a08ddcbbc8b930bf790f6f098d7", "type": "electric_scooter", "bike_id": "52c34a08ddcbbc8b930bf790f6f098d7", "rental_uris": {"ios": "https://dc.lft.to/lastmile_qr_scan", "android": "https://dc.lft.to/lastmile_qr_scan"}, "fusion_lat": 0.0}, {"lat": 38.919966333333335, "lon": -77.01773766666666, "is_disabled": 0, "fusion_lon": 0.0, "is_reserved": 0, "name": "7426fc00fa82a760eeb82cae8609cba5", "type": "electric_scooter", "bike_id": "7426fc00fa82a760eeb82cae8609cba5", "rental_uris": {"ios": "https://dc.lft.to/lastmile_qr_scan", "android": "https://dc.lft.to/lastmile_qr_scan"}, "fusion_lat": 0.0}, {"lat": 38.950600666666666, "lon": -77.080233, "is_disabled": 0, "fusion_lon": 0.0, "is_reserved": 0, "name": "3d5cb163d7a1208dc7d19ce16ef449a2", "type": "electric_scooter", "bike_id": "3d5cb163d7a1208dc7d19ce16ef449a2", "rental_uris": {"ios": "https://dc.lft.to/lastmile_qr_scan", "android": "https://dc.lft.to/lastmile_qr_scan"}, "fusion_lat": 0.0}, {"lat": 38.924309666666666, "lon": -77.05173616666667, "is_disabled": 0, "fusion_lon": 0.0, "is_reserved": 0, "name": "767b273af76021dcc62c22b6d6a8ef6e", "type": "electric_scooter", "bike_id": "767b273af76021dcc62c22b6d6a8ef6e", "rental_uris": {"ios": "https://dc.lft.to/lastmile_qr_scan", "android": "https://dc.lft.to/lastmile_qr_scan"}, "fusion_lat": 0.0}, {"lat": 38.87556883333333, "lon": -77.005978, "is_disabled": 0, "fusion_lon": 0.0, "is_reserved": 0, "name": "2cec35594fac980fec3ce39a03ebd19b", "type": "electric_scooter", "bike_id": "2cec35594fac980fec3ce39a03ebd19b", "rental_uris": {"ios": "https://dc.lft.to/lastmile_qr_scan", "android": "https://dc.lft.to/lastmile_qr_scan"}, "fusion_lat": 0.0}, {"lat": 38.934792, "lon": -77.0362215, "is_disabled": 0, "fusion_lon": 0.0, "is_reserved": 0, "name": "d374b2550dbcd8c26f0b464353045bf7", "type": "electric_scooter", "bike_id": "d374b2550dbcd8c26f0b464353045bf7", "rental_uris": {"ios": "https://dc.lft.to/lastmile_qr_scan", "android": "https://dc.lft.to/lastmile_qr_scan"}, "fusion_lat": 0.0}, {"lat": 38.920378666666664, "lon": -77.02588583333333, "is_disabled": 0, "fusion_lon": 0.0, "is_reserved": 0, "name": "1498ab62033f75604f7af4f28a1efe4a", "type": "electric_scooter", "bike_id": "1498ab62033f75604f7af4f28a1efe4a", "rental_uris": {"ios": "https://dc.lft.to/lastmile_qr_scan", "android": "https://dc.lft.to/lastmile_qr_scan"}, "fusion_lat": 0.0}, {"lat": 38.8808365, "lon": -76.9853335, "is_disabled": 0, "fusion_lon": 0.0, "is_reserved": 0, "name": "e10cd7de3d1aafd2484f94b3c4527a74", "type": "electric_bike", "bike_id": "e10cd7de3d1aafd2484f94b3c4527a74", "rental_uris": {"ios": "https://dc.lft.to/lastmile_qr_scan", "android": "https://dc.lft.to/lastmile_qr_scan"}, "fusion_lat": 0.0}, {"lat": 38.93038833333333, "lon": -77.02336983333333, "is_disabled": 0, "fusion_lon": 0.0, "is_reserved": 0, "name": "ec2be505b94db23ad21351207370b3e8", "type": "electric_scooter", "bike_id": "ec2be505b94db23ad21351207370b3e8", "rental_uris": {"ios": "https://dc.lft.to/lastmile_qr_scan", "android": "https://dc.lft.to/lastmile_qr_scan"}, "fusion_lat": 0.0}, {"lat": 38.9270995, "lon": -77.020793, "is_disabled": 0, "fusion_lon": 0.0, "is_reserved": 0, "name": "3e4dbd812f4b406cf09e0ce00bb6888c", "type": "electric_scooter", "bike_id": "3e4dbd812f4b406cf09e0ce00bb6888c", "rental_uris": {"ios": "https://dc.lft.to/lastmile_qr_scan", "android": "https://dc.lft.to/lastmile_qr_scan"}, "fusion_lat": 0.0}, {"lat": 38.887500833333334, "lon": -76.99372966666667, "is_disabled": 0, "fusion_lon": 0.0, "is_reserved": 0, "name": "90a61ffa1a42496e94ac3b88c118f810", "type": "electric_scooter", "bike_id": "90a61ffa1a42496e94ac3b88c118f810", "rental_uris": {"ios": "https://dc.lft.to/lastmile_qr_scan", "android": "https://dc.lft.to/lastmile_qr_scan"}, "fusion_lat": 0.0}, {"lat": 38.89713166666667, "lon": -77.07890583333334, "is_disabled": 0, "fusion_lon": 0.0, "is_reserved": 0, "name": "96ddfd672ada41b3bc0ef9d95bfaf0b8", "type": "electric_scooter", "bike_id": "96ddfd672ada41b3bc0ef9d95bfaf0b8", "rental_uris": {"ios": "https://dc.lft.to/lastmile_qr_scan", "android": "https://dc.lft.to/lastmile_qr_scan"}, "fusion_lat": 0.0}, {"lat": 38.90798866666667, "lon": -77.02166066666666, "is_disabled": 0, "fusion_lon": 0.0, "is_reserved": 0, "name": "2d36d17c22b89a94b0da57834c3b90c5", "type": "electric_scooter", "bike_id": "2d36d17c22b89a94b0da57834c3b90c5", "rental_uris": {"ios": "https://dc.lft.to/lastmile_qr_scan", "android": "https://dc.lft.to/lastmile_qr_scan"}, "fusion_lat": 0.0}, {"lat": 38.899261833333334, "lon": -77.01981233333333, "is_disabled": 0, "fusion_lon": 0.0, "is_reserved": 0, "name": "edf4be4d9c3bbe4662161321ce029285", "type": "electric_scooter", "bike_id": "edf4be4d9c3bbe4662161321ce029285", "rental_uris": {"ios": "https://dc.lft.to/lastmile_qr_scan", "android": "https://dc.lft.to/lastmile_qr_scan"}, "fusion_lat": 0.0}, {"lat": 38.961462833333336, "lon": -77.02779716666667, "is_disabled": 0, "fusion_lon": 0.0, "is_reserved": 0, "name": "58cfc659c4c7a39796f26ca50ec77ecf", "type": "electric_scooter", "bike_id": "58cfc659c4c7a39796f26ca50ec77ecf", "rental_uris": {"ios": "https://dc.lft.to/lastmile_qr_scan", "android": "https://dc.lft.to/lastmile_qr_scan"}, "fusion_lat": 0.0}, {"lat": 38.89993533333333, "lon": -76.99488583333333, "is_disabled": 0, "fusion_lon": 0.0, "is_reserved": 0, "name": "57bed5181f071d9e1df2a059871ccd74", "type": "electric_scooter", "bike_id": "57bed5181f071d9e1df2a059871ccd74", "rental_uris": {"ios": "https://dc.lft.to/lastmile_qr_scan", "android": "https://dc.lft.to/lastmile_qr_scan"}, "fusion_lat": 0.0}, {"lat": 38.89226133333333, "lon": -77.032197, "is_disabled": 0, "fusion_lon": 0.0, "is_reserved": 0, "name": "71253adb3d8d0b220d511418664da212", "type": "electric_scooter", "bike_id": "71253adb3d8d0b220d511418664da212", "rental_uris": {"ios": "https://dc.lft.to/lastmile_qr_scan", "android": "https://dc.lft.to/lastmile_qr_scan"}, "fusion_lat": 0.0}, {"lat": 38.89223833333333, "lon": -77.0319355, "is_disabled": 0, "fusion_lon": 0.0, "is_reserved": 0, "name": "4155f9ccb60d95d66351557d0e5bd5fe", "type": "electric_scooter", "bike_id": "4155f9ccb60d95d66351557d0e5bd5fe", "rental_uris": {"ios": "https://dc.lft.to/lastmile_qr_scan", "android": "https://dc.lft.to/lastmile_qr_scan"}, "fusion_lat": 0.0}, {"lat": 38.924851, "lon": -77.03003083333333, "is_disabled": 0, "fusion_lon": 0.0, "is_reserved": 0, "name": "ce909e7ddf09e10d236c1b55a182f960", "type": "electric_scooter", "bike_id": "ce909e7ddf09e10d236c1b55a182f960", "rental_uris": {"ios": "https://dc.lft.to/lastmile_qr_scan", "android": "https://dc.lft.to/lastmile_qr_scan"}, "fusion_lat": 0.0}, {"lat": 38.924914333333334, "lon": -77.02599, "is_disabled": 0, "fusion_lon": 0.0, "is_reserved": 0, "name": "f015488e36ddd2d44390562bd26c0fde", "type": "electric_scooter", "bike_id": "f015488e36ddd2d44390562bd26c0fde", "rental_uris": {"ios": "https://dc.lft.to/lastmile_qr_scan", "android": "https://dc.lft.to/lastmile_qr_scan"}, "fusion_lat": 0.0}, {"lat": 38.9037965, "lon": -77.05035816666667, "is_disabled": 0, "fusion_lon": 0.0, "is_reserved": 0, "name": "ee136681fcfc465a5f9e2a3beee7de2d", "type": "electric_scooter", "bike_id": "ee136681fcfc465a5f9e2a3beee7de2d", "rental_uris": {"ios": "https://dc.lft.to/lastmile_qr_scan", "android": "https://dc.lft.to/lastmile_qr_scan"}, "fusion_lat": 0.0}, {"lat": 38.88973333333333, "lon": -76.99464666666667, "is_disabled": 0, "fusion_lon": 0.0, "is_reserved": 0, "name": "8a7401903876c9caf09dbddf6187af19", "type": "electric_scooter", "bike_id": "8a7401903876c9caf09dbddf6187af19", "rental_uris": {"ios": "https://dc.lft.to/lastmile_qr_scan", "android": "https://dc.lft.to/lastmile_qr_scan"}, "fusion_lat": 0.0}, {"lat": 38.924786, "lon": -77.026563, "is_disabled": 0, "fusion_lon": 0.0, "is_reserved": 0, "name": "395720f163ebe1b71cbf66a527221d74", "type": "electric_scooter", "bike_id": "395720f163ebe1b71cbf66a527221d74", "rental_uris": {"ios": "https://dc.lft.to/lastmile_qr_scan", "android": "https://dc.lft.to/lastmile_qr_scan"}, "fusion_lat": 0.0}, {"lat": 38.934795, "lon": -77.0726705, "is_disabled": 0, "fusion_lon": 0.0, "is_reserved": 0, "name": "d1c18e41682ecab2f65e96a7eb259cc2", "type": "electric_scooter", "bike_id": "d1c18e41682ecab2f65e96a7eb259cc2", "rental_uris": {"ios": "https://dc.lft.to/lastmile_qr_scan", "android": "https://dc.lft.to/lastmile_qr_scan"}, "fusion_lat": 0.0}, {"lat": 38.92482416666667, "lon": -77.02836566666667, "is_disabled": 0, "fusion_lon": 0.0, "is_reserved": 0, "name": "4edf816b83cb43e92e2408a0ef598f6f", "type": "electric_scooter", "bike_id": "4edf816b83cb43e92e2408a0ef598f6f", "rental_uris": {"ios": "https://dc.lft.to/lastmile_qr_scan", "android": "https://dc.lft.to/lastmile_qr_scan"}, "fusion_lat": 0.0}, {"lat": 38.90259483333333, "lon": -77.01772733333334, "is_disabled": 0, "fusion_lon": 0.0, "is_reserved": 0, "name": "e354e729205ad23fb4948b92ab668306", "type": "electric_scooter", "bike_id": "e354e729205ad23fb4948b92ab668306", "rental_uris": {"ios": "https://dc.lft.to/lastmile_qr_scan", "android": "https://dc.lft.to/lastmile_qr_scan"}, "fusion_lat": 0.0}, {"lat": 38.911189, "lon": -77.04464583333333, "is_disabled": 0, "fusion_lon": 0.0, "is_reserved": 0, "name": "a2eab3d5aa7477b649313ff2cb4f472d", "type": "electric_scooter", "bike_id": "a2eab3d5aa7477b649313ff2cb4f472d", "rental_uris": {"ios": "https://dc.lft.to/lastmile_qr_scan", "android": "https://dc.lft.to/lastmile_qr_scan"}, "fusion_lat": 0.0}, {"lat": 38.912282833333336, "lon": -77.03184633333333, "is_disabled": 0, "fusion_lon": 0.0, "is_reserved": 0, "name": "d9caf237673739fe43b39cdd305fc8cb", "type": "electric_scooter", "bike_id": "d9caf237673739fe43b39cdd305fc8cb", "rental_uris": {"ios": "https://dc.lft.to/lastmile_qr_scan", "android": "https://dc.lft.to/lastmile_qr_scan"}, "fusion_lat": 0.0}, {"lat": 38.914042, "lon": -77.0394905, "is_disabled": 0, "fusion_lon": 0.0, "is_reserved": 0, "name": "a755520b9fa42758e2e704ff28577e04", "type": "electric_scooter", "bike_id": "a755520b9fa42758e2e704ff28577e04", "rental_uris": {"ios": "https://dc.lft.to/lastmile_qr_scan", "android": "https://dc.lft.to/lastmile_qr_scan"}, "fusion_lat": 0.0}, {"lat": 38.8848665, "lon": -77.029796, "is_disabled": 0, "fusion_lon": 0.0, "is_reserved": 0, "name": "d598f9e4533b58fd6c27e3db91bbfe99", "type": "electric_scooter", "bike_id": "d598f9e4533b58fd6c27e3db91bbfe99", "rental_uris": {"ios": "https://dc.lft.to/lastmile_qr_scan", "android": "https://dc.lft.to/lastmile_qr_scan"}, "fusion_lat": 0.0}, {"lat": 38.91117533333333, "lon": -76.9975125, "is_disabled": 0, "fusion_lon": 0.0, "is_reserved": 0, "name": "d6ad925548eb569ebe180a44505e7b77", "type": "electric_scooter", "bike_id": "d6ad925548eb569ebe180a44505e7b77", "rental_uris": {"ios": "https://dc.lft.to/lastmile_qr_scan", "android": "https://dc.lft.to/lastmile_qr_scan"}, "fusion_lat": 0.0}, {"lat": 38.927862833333336, "lon": -77.015616, "is_disabled": 0, "fusion_lon": 0.0, "is_reserved": 0, "name": "5e6fc93e03531bbfe8cebeb9578a7307", "type": "electric_scooter", "bike_id": "5e6fc93e03531bbfe8cebeb9578a7307", "rental_uris": {"ios": "https://dc.lft.to/lastmile_qr_scan", "android": "https://dc.lft.to/lastmile_qr_scan"}, "fusion_lat": 0.0}, {"lat": 38.90535066666666, "lon": -77.06478133333333, "is_disabled": 0, "fusion_lon": 0.0, "is_reserved": 0, "name": "3a71e91efa086d6812a827ff4660614c", "type": "electric_scooter", "bike_id": "3a71e91efa086d6812a827ff4660614c", "rental_uris": {"ios": "https://dc.lft.to/lastmile_qr_scan", "android": "https://dc.lft.to/lastmile_qr_scan"}, "fusion_lat": 0.0}, {"lat": 38.956309833333336, "lon": -76.93899766666667, "is_disabled": 0, "fusion_lon": 0.0, "is_reserved": 0, "name": "2e9401a99bf25a7488ea44bbec551691", "type": "electric_bike", "bike_id": "2e9401a99bf25a7488ea44bbec551691", "rental_uris": {"ios": "https://dc.lft.to/lastmile_qr_scan", "android": "https://dc.lft.to/lastmile_qr_scan"}, "fusion_lat": 0.0}, {"lat": 38.908269, "lon": -77.02601733333333, "is_disabled": 0, "fusion_lon": 0.0, "is_reserved": 0, "name": "3c57bafef9e599f0f48fab0143d6b1ec", "type": "electric_scooter", "bike_id": "3c57bafef9e599f0f48fab0143d6b1ec", "rental_uris": {"ios": "https://dc.lft.to/lastmile_qr_scan", "android": "https://dc.lft.to/lastmile_qr_scan"}, "fusion_lat": 0.0}, {"lat": 38.902808666666665, "lon": -77.03568216666666, "is_disabled": 0, "fusion_lon": 0.0, "is_reserved": 0, "name": "8acb052ffd3840ed1db4c319b8794101", "type": "electric_scooter", "bike_id": "8acb052ffd3840ed1db4c319b8794101", "rental_uris": {"ios": "https://dc.lft.to/lastmile_qr_scan", "android": "https://dc.lft.to/lastmile_qr_scan"}, "fusion_lat": 0.0}, {"lat": 38.89823166666667, "lon": -77.0259505, "is_disabled": 0, "fusion_lon": 0.0, "is_reserved": 0, "name": "a44b8dfe6fc030cc8cd2a29e1eb14c9c", "type": "electric_scooter", "bike_id": "a44b8dfe6fc030cc8cd2a29e1eb14c9c", "rental_uris": {"ios": "https://dc.lft.to/lastmile_qr_scan", "android": "https://dc.lft.to/lastmile_qr_scan"}, "fusion_lat": 0.0}, {"lat": 38.90721333333333, "lon": -77.03448216666666, "is_disabled": 0, "fusion_lon": 0.0, "is_reserved": 0, "name": "259c1bad4cebc5efef179e2b33f4f3ba", "type": "electric_scooter", "bike_id": "259c1bad4cebc5efef179e2b33f4f3ba", "rental_uris": {"ios": "https://dc.lft.to/lastmile_qr_scan", "android": "https://dc.lft.to/lastmile_qr_scan"}, "fusion_lat": 0.0}, {"lat": 38.943216666666665, "lon": -77.01475166666667, "is_disabled": 0, "fusion_lon": 0.0, "is_reserved": 0, "name": "59b38d556113509f4aaa24d757803aa5", "type": "electric_scooter", "bike_id": "59b38d556113509f4aaa24d757803aa5", "rental_uris": {"ios": "https://dc.lft.to/lastmile_qr_scan", "android": "https://dc.lft.to/lastmile_qr_scan"}, "fusion_lat": 0.0}, {"lat": 38.90186883333333, "lon": -76.93477383333334, "is_disabled": 0, "fusion_lon": 0.0, "is_reserved": 0, "name": "06fb04acbd11c5eaae3462ac28998ed1", "type": "electric_scooter", "bike_id": "06fb04acbd11c5eaae3462ac28998ed1", "rental_uris": {"ios": "https://dc.lft.to/lastmile_qr_scan", "android": "https://dc.lft.to/lastmile_qr_scan"}, "fusion_lat": 0.0}, {"lat": 38.9337215, "lon": -77.05724666666667, "is_disabled": 0, "fusion_lon": 0.0, "is_reserved": 0, "name": "371abc5cc624121b27b2ccc559e072d3", "type": "electric_scooter", "bike_id": "371abc5cc624121b27b2ccc559e072d3", "rental_uris": {"ios": "https://dc.lft.to/lastmile_qr_scan", "android": "https://dc.lft.to/lastmile_qr_scan"}, "fusion_lat": 0.0}, {"lat": 38.90031883333333, "lon": -77.01189783333334, "is_disabled": 0, "fusion_lon": 0.0, "is_reserved": 0, "name": "1ed9bccf22ac57aac448e7d18d466430", "type": "electric_scooter", "bike_id": "1ed9bccf22ac57aac448e7d18d466430", "rental_uris": {"ios": "https://dc.lft.to/lastmile_qr_scan", "android": "https://dc.lft.to/lastmile_qr_scan"}, "fusion_lat": 0.0}, {"lat": 38.9012195, "lon": -77.00216516666667, "is_disabled": 0, "fusion_lon": 0.0, "is_reserved": 0, "name": "042e75c4e25b7dc1b887ca5a2197b568", "type": "electric_scooter", "bike_id": "042e75c4e25b7dc1b887ca5a2197b568", "rental_uris": {"ios": "https://dc.lft.to/lastmile_qr_scan", "android": "https://dc.lft.to/lastmile_qr_scan"}, "fusion_lat": 0.0}, {"lat": 38.906967333333334, "lon": -77.036027, "is_disabled": 0, "fusion_lon": 0.0, "is_reserved": 0, "name": "993b5177ec9b7d268dec83ed1e0acedd", "type": "electric_scooter", "bike_id": "993b5177ec9b7d268dec83ed1e0acedd", "rental_uris": {"ios": "https://dc.lft.to/lastmile_qr_scan", "android": "https://dc.lft.to/lastmile_qr_scan"}, "fusion_lat": 0.0}, {"lat": 38.915979, "lon": -77.01208266666667, "is_disabled": 0, "fusion_lon": 0.0, "is_reserved": 0, "name": "1ae70bdb758bb6d18ac25c512c9fb135", "type": "electric_scooter", "bike_id": "1ae70bdb758bb6d18ac25c512c9fb135", "rental_uris": {"ios": "https://dc.lft.to/lastmile_qr_scan", "android": "https://dc.lft.to/lastmile_qr_scan"}, "fusion_lat": 0.0}, {"lat": 38.918223833333336, "lon": -77.0365565, "is_disabled": 0, "fusion_lon": 0.0, "is_reserved": 0, "name": "6f37801cd800428c286d5392462eea78", "type": "electric_scooter", "bike_id": "6f37801cd800428c286d5392462eea78", "rental_uris": {"ios": "https://dc.lft.to/lastmile_qr_scan", "android": "https://dc.lft.to/lastmile_qr_scan"}, "fusion_lat": 0.0}, {"lat": 38.92484833333334, "lon": -77.05214533333333, "is_disabled": 0, "fusion_lon": 0.0, "is_reserved": 0, "name": "aebec7332e9fcbe6f7b8ea3f5a5a2fdf", "type": "electric_scooter", "bike_id": "aebec7332e9fcbe6f7b8ea3f5a5a2fdf", "rental_uris": {"ios": "https://dc.lft.to/lastmile_qr_scan", "android": "https://dc.lft.to/lastmile_qr_scan"}, "fusion_lat": 0.0}, {"lat": 38.92102516666667, "lon": -77.02511066666666, "is_disabled": 0, "fusion_lon": 0.0, "is_reserved": 0, "name": "50a66dc048024bcfe0fb907f868c617f", "type": "electric_scooter", "bike_id": "50a66dc048024bcfe0fb907f868c617f", "rental_uris": {"ios": "https://dc.lft.to/lastmile_qr_scan", "android": "https://dc.lft.to/lastmile_qr_scan"}, "fusion_lat": 0.0}, {"lat": 38.91680983333333, "lon": -77.02272583333334, "is_disabled": 0, "fusion_lon": 0.0, "is_reserved": 0, "name": "9412795178e19bc64803b3c4fdb888e9", "type": "electric_scooter", "bike_id": "9412795178e19bc64803b3c4fdb888e9", "rental_uris": {"ios": "https://dc.lft.to/lastmile_qr_scan", "android": "https://dc.lft.to/lastmile_qr_scan"}, "fusion_lat": 0.0}, {"lat": 38.903817, "lon": -77.05150283333333, "is_disabled": 0, "fusion_lon": 0.0, "is_reserved": 0, "name": "b40ef9a0b3d8afbc891fda57e4f1b17d", "type": "electric_scooter", "bike_id": "b40ef9a0b3d8afbc891fda57e4f1b17d", "rental_uris": {"ios": "https://dc.lft.to/lastmile_qr_scan", "android": "https://dc.lft.to/lastmile_qr_scan"}, "fusion_lat": 0.0}, {"lat": 38.910002666666664, "lon": -77.03184133333333, "is_disabled": 0, "fusion_lon": 0.0, "is_reserved": 0, "name": "82a2900bb986877936240e250aa66a97", "type": "electric_scooter", "bike_id": "82a2900bb986877936240e250aa66a97", "rental_uris": {"ios": "https://dc.lft.to/lastmile_qr_scan", "android": "https://dc.lft.to/lastmile_qr_scan"}, "fusion_lat": 0.0}, {"lat": 38.9310175, "lon": -77.02478566666667, "is_disabled": 0, "fusion_lon": 0.0, "is_reserved": 0, "name": "8d2fb2131a2a3dff63758212a2c8dd86", "type": "electric_scooter", "bike_id": "8d2fb2131a2a3dff63758212a2c8dd86", "rental_uris": {"ios": "https://dc.lft.to/lastmile_qr_scan", "android": "https://dc.lft.to/lastmile_qr_scan"}, "fusion_lat": 0.0}, {"lat": 38.89978716666667, "lon": -77.01642616666666, "is_disabled": 0, "fusion_lon": 0.0, "is_reserved": 0, "name": "abc5f57ecdf315d04add20197dc0748b", "type": "electric_scooter", "bike_id": "abc5f57ecdf315d04add20197dc0748b", "rental_uris": {"ios": "https://dc.lft.to/lastmile_qr_scan", "android": "https://dc.lft.to/lastmile_qr_scan"}, "fusion_lat": 0.0}, {"lat": 38.87651366666667, "lon": -77.01585283333333, "is_disabled": 0, "fusion_lon": 0.0, "is_reserved": 0, "name": "622ab5d251eb3bb98d789dcf6f000402", "type": "electric_scooter", "bike_id": "622ab5d251eb3bb98d789dcf6f000402", "rental_uris": {"ios": "https://dc.lft.to/lastmile_qr_scan", "android": "https://dc.lft.to/lastmile_qr_scan"}, "fusion_lat": 0.0}, {"lat": 38.906522, "lon": -77.03445066666667, "is_disabled": 0, "fusion_lon": 0.0, "is_reserved": 0, "name": "0ebb9bec4187034f586a8a4c7a9981b0", "type": "electric_scooter", "bike_id": "0ebb9bec4187034f586a8a4c7a9981b0", "rental_uris": {"ios": "https://dc.lft.to/lastmile_qr_scan", "android": "https://dc.lft.to/lastmile_qr_scan"}, "fusion_lat": 0.0}, {"lat": 38.9056025, "lon": -77.00188983333334, "is_disabled": 0, "fusion_lon": 0.0, "is_reserved": 0, "name": "293078fe89eeda3630d61cd2d5e6495f", "type": "electric_scooter", "bike_id": "293078fe89eeda3630d61cd2d5e6495f", "rental_uris": {"ios": "https://dc.lft.to/lastmile_qr_scan", "android": "https://dc.lft.to/lastmile_qr_scan"}, "fusion_lat": 0.0}, {"lat": 38.890657166666664, "lon": -76.9445755, "is_disabled": 0, "fusion_lon": 0.0, "is_reserved": 0, "name": "d9251b3d30e2229ae8e31c54c13f0e67", "type": "electric_scooter", "bike_id": "d9251b3d30e2229ae8e31c54c13f0e67", "rental_uris": {"ios": "https://dc.lft.to/lastmile_qr_scan", "android": "https://dc.lft.to/lastmile_qr_scan"}, "fusion_lat": 0.0}, {"lat": 38.91813616666666, "lon": -77.03197833333333, "is_disabled": 0, "fusion_lon": 0.0, "is_reserved": 0, "name": "c90ff0d034c80ced36d2f2b12937d214", "type": "electric_scooter", "bike_id": "c90ff0d034c80ced36d2f2b12937d214", "rental_uris": {"ios": "https://dc.lft.to/lastmile_qr_scan", "android": "https://dc.lft.to/lastmile_qr_scan"}, "fusion_lat": 0.0}, {"lat": 38.90758533333333, "lon": -77.0358325, "is_disabled": 0, "fusion_lon": 0.0, "is_reserved": 0, "name": "210a50669b1fe634cd04c022c5ec2c56", "type": "electric_scooter", "bike_id": "210a50669b1fe634cd04c022c5ec2c56", "rental_uris": {"ios": "https://dc.lft.to/lastmile_qr_scan", "android": "https://dc.lft.to/lastmile_qr_scan"}, "fusion_lat": 0.0}, {"lat": 38.92739533333334, "lon": -77.02251233333334, "is_disabled": 0, "fusion_lon": 0.0, "is_reserved": 0, "name": "026198e34c6a0390a972ef691b744a9e", "type": "electric_scooter", "bike_id": "026198e34c6a0390a972ef691b744a9e", "rental_uris": {"ios": "https://dc.lft.to/lastmile_qr_scan", "android": "https://dc.lft.to/lastmile_qr_scan"}, "fusion_lat": 0.0}, {"lat": 38.940859, "lon": -77.02637266666666, "is_disabled": 0, "fusion_lon": 0.0, "is_reserved": 0, "name": "0d221a90a0060fb4df740c331579478c", "type": "electric_scooter", "bike_id": "0d221a90a0060fb4df740c331579478c", "rental_uris": {"ios": "https://dc.lft.to/lastmile_qr_scan", "android": "https://dc.lft.to/lastmile_qr_scan"}, "fusion_lat": 0.0}, {"lat": 38.9429405, "lon": -77.021725, "is_disabled": 0, "fusion_lon": 0.0, "is_reserved": 0, "name": "b178239e4d320f5d532a557c06123b01", "type": "electric_scooter", "bike_id": "b178239e4d320f5d532a557c06123b01", "rental_uris": {"ios": "https://dc.lft.to/lastmile_qr_scan", "android": "https://dc.lft.to/lastmile_qr_scan"}, "fusion_lat": 0.0}, {"lat": 38.917187166666665, "lon": -77.03054366666667, "is_disabled": 0, "fusion_lon": 0.0, "is_reserved": 0, "name": "6e29bfa9fb2ec1c2cdc9e0dd90f79f68", "type": "electric_scooter", "bike_id": "6e29bfa9fb2ec1c2cdc9e0dd90f79f68", "rental_uris": {"ios": "https://dc.lft.to/lastmile_qr_scan", "android": "https://dc.lft.to/lastmile_qr_scan"}, "fusion_lat": 0.0}, {"lat": 38.915443833333335, "lon": -77.03791033333333, "is_disabled": 0, "fusion_lon": 0.0, "is_reserved": 0, "name": "a8261664d94b604fb5cb3c4b61867e9d", "type": "electric_scooter", "bike_id": "a8261664d94b604fb5cb3c4b61867e9d", "rental_uris": {"ios": "https://dc.lft.to/lastmile_qr_scan", "android": "https://dc.lft.to/lastmile_qr_scan"}, "fusion_lat": 0.0}, {"lat": 38.924763666666664, "lon": -77.02198133333333, "is_disabled": 0, "fusion_lon": 0.0, "is_reserved": 0, "name": "b8ca858c78399680ce5af03a7303ff4f", "type": "electric_scooter", "bike_id": "b8ca858c78399680ce5af03a7303ff4f", "rental_uris": {"ios": "https://dc.lft.to/lastmile_qr_scan", "android": "https://dc.lft.to/lastmile_qr_scan"}, "fusion_lat": 0.0}, {"lat": 38.8393315, "lon": -77.07903533333334, "is_disabled": 0, "fusion_lon": 0.0, "is_reserved": 0, "name": "d9d6deaacd41339c17fc05e3550913f8", "type": "electric_bike", "bike_id": "d9d6deaacd41339c17fc05e3550913f8", "rental_uris": {"ios": "https://dc.lft.to/lastmile_qr_scan", "android": "https://dc.lft.to/lastmile_qr_scan"}, "fusion_lat": 0.0}, {"lat": 38.9007105, "lon": -77.0271095, "is_disabled": 0, "fusion_lon": 0.0, "is_reserved": 0, "name": "16ba98ff82496796ad7bab881ecfbab7", "type": "electric_scooter", "bike_id": "16ba98ff82496796ad7bab881ecfbab7", "rental_uris": {"ios": "https://dc.lft.to/lastmile_qr_scan", "android": "https://dc.lft.to/lastmile_qr_scan"}, "fusion_lat": 0.0}, {"lat": 38.903343, "lon": -76.97596316666667, "is_disabled": 0, "fusion_lon": 0.0, "is_reserved": 0, "name": "8ec8c107495c6a8c33f8e0e9f67c9614", "type": "electric_scooter", "bike_id": "8ec8c107495c6a8c33f8e0e9f67c9614", "rental_uris": {"ios": "https://dc.lft.to/lastmile_qr_scan", "android": "https://dc.lft.to/lastmile_qr_scan"}, "fusion_lat": 0.0}, {"lat": 38.916570166666666, "lon": -77.02219116666667, "is_disabled": 0, "fusion_lon": 0.0, "is_reserved": 0, "name": "36679860f70828d44f9eb6f911eb4b53", "type": "electric_scooter", "bike_id": "36679860f70828d44f9eb6f911eb4b53", "rental_uris": {"ios": "https://dc.lft.to/lastmile_qr_scan", "android": "https://dc.lft.to/lastmile_qr_scan"}, "fusion_lat": 0.0}, {"lat": 38.90573283333333, "lon": -77.034682, "is_disabled": 0, "fusion_lon": 0.0, "is_reserved": 0, "name": "cb62fc67ec57c5c870248a6442d715d8", "type": "electric_scooter", "bike_id": "cb62fc67ec57c5c870248a6442d715d8", "rental_uris": {"ios": "https://dc.lft.to/lastmile_qr_scan", "android": "https://dc.lft.to/lastmile_qr_scan"}, "fusion_lat": 0.0}, {"lat": 38.90649716666667, "lon": -77.02470016666666, "is_disabled": 0, "fusion_lon": 0.0, "is_reserved": 0, "name": "0df5029d303ce9a99be75c6500c8ddee", "type": "electric_scooter", "bike_id": "0df5029d303ce9a99be75c6500c8ddee", "rental_uris": {"ios": "https://dc.lft.to/lastmile_qr_scan", "android": "https://dc.lft.to/lastmile_qr_scan"}, "fusion_lat": 0.0}, {"lat": 38.915994166666664, "lon": -77.02295916666667, "is_disabled": 0, "fusion_lon": 0.0, "is_reserved": 0, "name": "f7da7912e5efd1faef5ba160cc687d69", "type": "electric_scooter", "bike_id": "f7da7912e5efd1faef5ba160cc687d69", "rental_uris": {"ios": "https://dc.lft.to/lastmile_qr_scan", "android": "https://dc.lft.to/lastmile_qr_scan"}, "fusion_lat": 0.0}, {"lat": 38.8932185, "lon": -77.0860735, "is_disabled": 0, "fusion_lon": 0.0, "is_reserved": 0, "name": "8ecc709a02ab20b4c1cceb21a9c8ce7e", "type": "electric_bike", "bike_id": "8ecc709a02ab20b4c1cceb21a9c8ce7e", "rental_uris": {"ios": "https://dc.lft.to/lastmile_qr_scan", "android": "https://dc.lft.to/lastmile_qr_scan"}, "fusion_lat": 0.0}, {"lat": 38.923473, "lon": -77.051831, "is_disabled": 0, "fusion_lon": 0.0, "is_reserved": 0, "name": "d71d9bb1051536a2039b7f0a629c00bc", "type": "electric_scooter", "bike_id": "d71d9bb1051536a2039b7f0a629c00bc", "rental_uris": {"ios": "https://dc.lft.to/lastmile_qr_scan", "android": "https://dc.lft.to/lastmile_qr_scan"}, "fusion_lat": 0.0}, {"lat": 38.92648233333333, "lon": -77.00756983333333, "is_disabled": 0, "fusion_lon": 0.0, "is_reserved": 0, "name": "858c0d4af8e5f41e2b98dc21205b7fbb", "type": "electric_scooter", "bike_id": "858c0d4af8e5f41e2b98dc21205b7fbb", "rental_uris": {"ios": "https://dc.lft.to/lastmile_qr_scan", "android": "https://dc.lft.to/lastmile_qr_scan"}, "fusion_lat": 0.0}, {"lat": 38.907447833333336, "lon": -77.00759183333334, "is_disabled": 0, "fusion_lon": 0.0, "is_reserved": 0, "name": "10d64159511d24a4408fe0738b77f774", "type": "electric_scooter", "bike_id": "10d64159511d24a4408fe0738b77f774", "rental_uris": {"ios": "https://dc.lft.to/lastmile_qr_scan", "android": "https://dc.lft.to/lastmile_qr_scan"}, "fusion_lat": 0.0}, {"lat": 38.8844645, "lon": -77.01746616666667, "is_disabled": 0, "fusion_lon": 0.0, "is_reserved": 0, "name": "3a7cc31aa8595d845574e1dac5a0bf22", "type": "electric_scooter", "bike_id": "3a7cc31aa8595d845574e1dac5a0bf22", "rental_uris": {"ios": "https://dc.lft.to/lastmile_qr_scan", "android": "https://dc.lft.to/lastmile_qr_scan"}, "fusion_lat": 0.0}, {"lat": 38.872877, "lon": -77.0098475, "is_disabled": 0, "fusion_lon": 0.0, "is_reserved": 0, "name": "ded50d63d5bb04f0eed2976d38a66e92", "type": "electric_scooter", "bike_id": "ded50d63d5bb04f0eed2976d38a66e92", "rental_uris": {"ios": "https://dc.lft.to/lastmile_qr_scan", "android": "https://dc.lft.to/lastmile_qr_scan"}, "fusion_lat": 0.0}, {"lat": 38.9041105, "lon": -77.06266133333334, "is_disabled": 0, "fusion_lon": 0.0, "is_reserved": 0, "name": "55669e61b2a74106b886f7cc6342ca4d", "type": "electric_scooter", "bike_id": "55669e61b2a74106b886f7cc6342ca4d", "rental_uris": {"ios": "https://dc.lft.to/lastmile_qr_scan", "android": "https://dc.lft.to/lastmile_qr_scan"}, "fusion_lat": 0.0}, {"lat": 38.93636016666667, "lon": -77.0662545, "is_disabled": 0, "fusion_lon": 0.0, "is_reserved": 0, "name": "2b1d4682b675ea779108acfac910d36c", "type": "electric_scooter", "bike_id": "2b1d4682b675ea779108acfac910d36c", "rental_uris": {"ios": "https://dc.lft.to/lastmile_qr_scan", "android": "https://dc.lft.to/lastmile_qr_scan"}, "fusion_lat": 0.0}, {"lat": 38.88636966666667, "lon": -76.92588633333334, "is_disabled": 0, "fusion_lon": 0.0, "is_reserved": 0, "name": "1a0492822c24501bc2754770469c0b79", "type": "electric_scooter", "bike_id": "1a0492822c24501bc2754770469c0b79", "rental_uris": {"ios": "https://dc.lft.to/lastmile_qr_scan", "android": "https://dc.lft.to/lastmile_qr_scan"}, "fusion_lat": 0.0}, {"lat": 38.8786775, "lon": -76.96259966666666, "is_disabled": 0, "fusion_lon": 0.0, "is_reserved": 0, "name": "18c8cf315705a533a269dd96f79e8808", "type": "electric_scooter", "bike_id": "18c8cf315705a533a269dd96f79e8808", "rental_uris": {"ios": "https://dc.lft.to/lastmile_qr_scan", "android": "https://dc.lft.to/lastmile_qr_scan"}, "fusion_lat": 0.0}, {"lat": 38.8992245, "lon": -77.0499915, "is_disabled": 0, "fusion_lon": 0.0, "is_reserved": 0, "name": "e5efe4cee39ed3cf150dab19c47d9e16", "type": "electric_scooter", "bike_id": "e5efe4cee39ed3cf150dab19c47d9e16", "rental_uris": {"ios": "https://dc.lft.to/lastmile_qr_scan", "android": "https://dc.lft.to/lastmile_qr_scan"}, "fusion_lat": 0.0}, {"lat": 38.9026945, "lon": -77.00327283333333, "is_disabled": 0, "fusion_lon": 0.0, "is_reserved": 0, "name": "e44ec31de0e5749dce2daa276cbed987", "type": "electric_scooter", "bike_id": "e44ec31de0e5749dce2daa276cbed987", "rental_uris": {"ios": "https://dc.lft.to/lastmile_qr_scan", "android": "https://dc.lft.to/lastmile_qr_scan"}, "fusion_lat": 0.0}, {"lat": 38.91279266666667, "lon": -77.04508366666667, "is_disabled": 0, "fusion_lon": 0.0, "is_reserved": 0, "name": "73118c1abfbea04a15ddaccc94b7e12a", "type": "electric_scooter", "bike_id": "73118c1abfbea04a15ddaccc94b7e12a", "rental_uris": {"ios": "https://dc.lft.to/lastmile_qr_scan", "android": "https://dc.lft.to/lastmile_qr_scan"}, "fusion_lat": 0.0}, {"lat": 38.887153, "lon": -77.02829216666666, "is_disabled": 0, "fusion_lon": 0.0, "is_reserved": 0, "name": "82bf0c124ce8af46da69f6f376043be2", "type": "electric_scooter", "bike_id": "82bf0c124ce8af46da69f6f376043be2", "rental_uris": {"ios": "https://dc.lft.to/lastmile_qr_scan", "android": "https://dc.lft.to/lastmile_qr_scan"}, "fusion_lat": 0.0}, {"lat": 38.9053275, "lon": -77.0416975, "is_disabled": 0, "fusion_lon": 0.0, "is_reserved": 0, "name": "c596dd5297e8b1b0cb462fbfed84604e", "type": "electric_scooter", "bike_id": "c596dd5297e8b1b0cb462fbfed84604e", "rental_uris": {"ios": "https://dc.lft.to/lastmile_qr_scan", "android": "https://dc.lft.to/lastmile_qr_scan"}, "fusion_lat": 0.0}, {"lat": 38.916258666666664, "lon": -77.02391616666667, "is_disabled": 0, "fusion_lon": 0.0, "is_reserved": 0, "name": "2dbb4c19121673b20cec437e58c89cce", "type": "electric_scooter", "bike_id": "2dbb4c19121673b20cec437e58c89cce", "rental_uris": {"ios": "https://dc.lft.to/lastmile_qr_scan", "android": "https://dc.lft.to/lastmile_qr_scan"}, "fusion_lat": 0.0}, {"lat": 38.91824283333333, "lon": -77.01209583333333, "is_disabled": 0, "fusion_lon": 0.0, "is_reserved": 0, "name": "b8d920bc6b85aed445d42dcc888bf951", "type": "electric_scooter", "bike_id": "b8d920bc6b85aed445d42dcc888bf951", "rental_uris": {"ios": "https://dc.lft.to/lastmile_qr_scan", "android": "https://dc.lft.to/lastmile_qr_scan"}, "fusion_lat": 0.0}, {"lat": 38.9219815, "lon": -77.0399885, "is_disabled": 0, "fusion_lon": 0.0, "is_reserved": 0, "name": "9c9fdd1e118cbe5ede143e4edb7d2de9", "type": "electric_scooter", "bike_id": "9c9fdd1e118cbe5ede143e4edb7d2de9", "rental_uris": {"ios": "https://dc.lft.to/lastmile_qr_scan", "android": "https://dc.lft.to/lastmile_qr_scan"}, "fusion_lat": 0.0}, {"lat": 38.9164605, "lon": -77.042409, "is_disabled": 0, "fusion_lon": 0.0, "is_reserved": 0, "name": "86475fa63f0ae67c9f1cf0d22078186b", "type": "electric_scooter", "bike_id": "86475fa63f0ae67c9f1cf0d22078186b", "rental_uris": {"ios": "https://dc.lft.to/lastmile_qr_scan", "android": "https://dc.lft.to/lastmile_qr_scan"}, "fusion_lat": 0.0}, {"lat": 38.902693166666666, "lon": -77.05313516666666, "is_disabled": 0, "fusion_lon": 0.0, "is_reserved": 0, "name": "2119953898f717456a84672150145e8e", "type": "electric_scooter", "bike_id": "2119953898f717456a84672150145e8e", "rental_uris": {"ios": "https://dc.lft.to/lastmile_qr_scan", "android": "https://dc.lft.to/lastmile_qr_scan"}, "fusion_lat": 0.0}, {"lat": 38.917668, "lon": -77.039941, "is_disabled": 0, "fusion_lon": 0.0, "is_reserved": 0, "name": "c399d8f77cb55edecea2be1eaeeb9778", "type": "electric_scooter", "bike_id": "c399d8f77cb55edecea2be1eaeeb9778", "rental_uris": {"ios": "https://dc.lft.to/lastmile_qr_scan", "android": "https://dc.lft.to/lastmile_qr_scan"}, "fusion_lat": 0.0}, {"lat": 38.93898516666667, "lon": -76.98609516666667, "is_disabled": 0, "fusion_lon": 0.0, "is_reserved": 0, "name": "efc8e8550699ddec2154c7d0a95ca5b5", "type": "electric_scooter", "bike_id": "efc8e8550699ddec2154c7d0a95ca5b5", "rental_uris": {"ios": "https://dc.lft.to/lastmile_qr_scan", "android": "https://dc.lft.to/lastmile_qr_scan"}, "fusion_lat": 0.0}, {"lat": 38.897426833333334, "lon": -77.04968266666667, "is_disabled": 0, "fusion_lon": 0.0, "is_reserved": 0, "name": "812bc6dfe904f8c87fdd6401b005cb08", "type": "electric_scooter", "bike_id": "812bc6dfe904f8c87fdd6401b005cb08", "rental_uris": {"ios": "https://dc.lft.to/lastmile_qr_scan", "android": "https://dc.lft.to/lastmile_qr_scan"}, "fusion_lat": 0.0}, {"lat": 38.91719166666667, "lon": -77.03049533333333, "is_disabled": 0, "fusion_lon": 0.0, "is_reserved": 0, "name": "e914bdd7979b79ae847a1c300d74897b", "type": "electric_scooter", "bike_id": "e914bdd7979b79ae847a1c300d74897b", "rental_uris": {"ios": "https://dc.lft.to/lastmile_qr_scan", "android": "https://dc.lft.to/lastmile_qr_scan"}, "fusion_lat": 0.0}, {"lat": 38.905135, "lon": -77.0590935, "is_disabled": 0, "fusion_lon": 0.0, "is_reserved": 0, "name": "7d802590b9565ef7605718b68b450166", "type": "electric_scooter", "bike_id": "7d802590b9565ef7605718b68b450166", "rental_uris": {"ios": "https://dc.lft.to/lastmile_qr_scan", "android": "https://dc.lft.to/lastmile_qr_scan"}, "fusion_lat": 0.0}, {"lat": 38.942621333333335, "lon": -76.990762, "is_disabled": 0, "fusion_lon": 0.0, "is_reserved": 0, "name": "714ead3cf7cb7a0feea9dd9ac483dc2b", "type": "electric_bike", "bike_id": "714ead3cf7cb7a0feea9dd9ac483dc2b", "rental_uris": {"ios": "https://dc.lft.to/lastmile_qr_scan", "android": "https://dc.lft.to/lastmile_qr_scan"}, "fusion_lat": 0.0}, {"lat": 38.9216475, "lon": -77.03367783333333, "is_disabled": 0, "fusion_lon": 0.0, "is_reserved": 0, "name": "7e3d84343c116a955ee960bdcb9b9bc3", "type": "electric_scooter", "bike_id": "7e3d84343c116a955ee960bdcb9b9bc3", "rental_uris": {"ios": "https://dc.lft.to/lastmile_qr_scan", "android": "https://dc.lft.to/lastmile_qr_scan"}, "fusion_lat": 0.0}, {"lat": 38.89849566666667, "lon": -76.942578, "is_disabled": 0, "fusion_lon": 0.0, "is_reserved": 0, "name": "c35d695134143bb503e345fa062ef4ad", "type": "electric_scooter", "bike_id": "c35d695134143bb503e345fa062ef4ad", "rental_uris": {"ios": "https://dc.lft.to/lastmile_qr_scan", "android": "https://dc.lft.to/lastmile_qr_scan"}, "fusion_lat": 0.0}, {"lat": 38.9162915, "lon": -77.026942, "is_disabled": 0, "fusion_lon": 0.0, "is_reserved": 0, "name": "e6acac48872ae9890e660a567fa4c86e", "type": "electric_scooter", "bike_id": "e6acac48872ae9890e660a567fa4c86e", "rental_uris": {"ios": "https://dc.lft.to/lastmile_qr_scan", "android": "https://dc.lft.to/lastmile_qr_scan"}, "fusion_lat": 0.0}, {"lat": 38.92297216666667, "lon": -76.997758, "is_disabled": 0, "fusion_lon": 0.0, "is_reserved": 0, "name": "a79043617188e1ca6f175778404f3150", "type": "electric_scooter", "bike_id": "a79043617188e1ca6f175778404f3150", "rental_uris": {"ios": "https://dc.lft.to/lastmile_qr_scan", "android": "https://dc.lft.to/lastmile_qr_scan"}, "fusion_lat": 0.0}, {"lat": 38.8745845, "lon": -77.005402, "is_disabled": 0, "fusion_lon": 0.0, "is_reserved": 0, "name": "8554a5e41194fc694c311fa15c9873b9", "type": "electric_scooter", "bike_id": "8554a5e41194fc694c311fa15c9873b9", "rental_uris": {"ios": "https://dc.lft.to/lastmile_qr_scan", "android": "https://dc.lft.to/lastmile_qr_scan"}, "fusion_lat": 0.0}, {"lat": 38.9237725, "lon": -77.03533216666666, "is_disabled": 0, "fusion_lon": 0.0, "is_reserved": 0, "name": "4319f0fa88dec5022ac90c3816751ab1", "type": "electric_scooter", "bike_id": "4319f0fa88dec5022ac90c3816751ab1", "rental_uris": {"ios": "https://dc.lft.to/lastmile_qr_scan", "android": "https://dc.lft.to/lastmile_qr_scan"}, "fusion_lat": 0.0}, {"lat": 38.881186666666665, "lon": -77.01653433333334, "is_disabled": 0, "fusion_lon": 0.0, "is_reserved": 0, "name": "ea91342ed1278abb0034d92bbf2e2499", "type": "electric_scooter", "bike_id": "ea91342ed1278abb0034d92bbf2e2499", "rental_uris": {"ios": "https://dc.lft.to/lastmile_qr_scan", "android": "https://dc.lft.to/lastmile_qr_scan"}, "fusion_lat": 0.0}, {"lat": 38.962278, "lon": -77.02627866666667, "is_disabled": 0, "fusion_lon": 0.0, "is_reserved": 0, "name": "b0de875d2dafa6fba8367ac2ad782fe4", "type": "electric_bike", "bike_id": "b0de875d2dafa6fba8367ac2ad782fe4", "rental_uris": {"ios": "https://dc.lft.to/lastmile_qr_scan", "android": "https://dc.lft.to/lastmile_qr_scan"}, "fusion_lat": 0.0}, {"lat": 38.880207, "lon": -76.980714, "is_disabled": 0, "fusion_lon": 0.0, "is_reserved": 0, "name": "2024d796f81bc60f70120869d9f927f3", "type": "electric_scooter", "bike_id": "2024d796f81bc60f70120869d9f927f3", "rental_uris": {"ios": "https://dc.lft.to/lastmile_qr_scan", "android": "https://dc.lft.to/lastmile_qr_scan"}, "fusion_lat": 0.0}, {"lat": 38.887372666666664, "lon": -77.03178483333333, "is_disabled": 0, "fusion_lon": 0.0, "is_reserved": 0, "name": "86eb1330bddfb243a0e55439f52fb76a", "type": "electric_scooter", "bike_id": "86eb1330bddfb243a0e55439f52fb76a", "rental_uris": {"ios": "https://dc.lft.to/lastmile_qr_scan", "android": "https://dc.lft.to/lastmile_qr_scan"}, "fusion_lat": 0.0}, {"lat": 38.91807883333333, "lon": -77.036331, "is_disabled": 0, "fusion_lon": 0.0, "is_reserved": 0, "name": "264f010abfbfaf969f7ea15273309b5c", "type": "electric_scooter", "bike_id": "264f010abfbfaf969f7ea15273309b5c", "rental_uris": {"ios": "https://dc.lft.to/lastmile_qr_scan", "android": "https://dc.lft.to/lastmile_qr_scan"}, "fusion_lat": 0.0}, {"lat": 38.93146433333333, "lon": -77.03829783333333, "is_disabled": 0, "fusion_lon": 0.0, "is_reserved": 0, "name": "b0720fec567419d4c2480c0e8989f525", "type": "electric_scooter", "bike_id": "b0720fec567419d4c2480c0e8989f525", "rental_uris": {"ios": "https://dc.lft.to/lastmile_qr_scan", "android": "https://dc.lft.to/lastmile_qr_scan"}, "fusion_lat": 0.0}, {"lat": 38.80749183333333, "lon": -77.0942925, "is_disabled": 0, "fusion_lon": 0.0, "is_reserved": 0, "name": "9835f863c5a73d489898e3492953e8bf", "type": "electric_bike", "bike_id": "9835f863c5a73d489898e3492953e8bf", "rental_uris": {"ios": "https://dc.lft.to/lastmile_qr_scan", "android": "https://dc.lft.to/lastmile_qr_scan"}, "fusion_lat": 0.0}, {"lat": 38.88744116666667, "lon": -77.0140715, "is_disabled": 0, "fusion_lon": 0.0, "is_reserved": 0, "name": "d13e8194b24cb63799f2c54b53a68c5b", "type": "electric_scooter", "bike_id": "d13e8194b24cb63799f2c54b53a68c5b", "rental_uris": {"ios": "https://dc.lft.to/lastmile_qr_scan", "android": "https://dc.lft.to/lastmile_qr_scan"}, "fusion_lat": 0.0}, {"lat": 38.90002666666667, "lon": -77.01789316666667, "is_disabled": 0, "fusion_lon": 0.0, "is_reserved": 0, "name": "1d8167bfc0817bfc3007990944d30aa5", "type": "electric_scooter", "bike_id": "1d8167bfc0817bfc3007990944d30aa5", "rental_uris": {"ios": "https://dc.lft.to/lastmile_qr_scan", "android": "https://dc.lft.to/lastmile_qr_scan"}, "fusion_lat": 0.0}, {"lat": 38.903862333333336, "lon": -77.02484866666667, "is_disabled": 0, "fusion_lon": 0.0, "is_reserved": 0, "name": "dce29e4c7a57d9dbe20ad50d2f10616c", "type": "electric_scooter", "bike_id": "dce29e4c7a57d9dbe20ad50d2f10616c", "rental_uris": {"ios": "https://dc.lft.to/lastmile_qr_scan", "android": "https://dc.lft.to/lastmile_qr_scan"}, "fusion_lat": 0.0}, {"lat": 38.9096935, "lon": -77.01716583333334, "is_disabled": 0, "fusion_lon": 0.0, "is_reserved": 0, "name": "24fbf5231f3016abc4edb5954c6b39ff", "type": "electric_scooter", "bike_id": "24fbf5231f3016abc4edb5954c6b39ff", "rental_uris": {"ios": "https://dc.lft.to/lastmile_qr_scan", "android": "https://dc.lft.to/lastmile_qr_scan"}, "fusion_lat": 0.0}, {"lat": 38.887433, "lon": -77.00320533333333, "is_disabled": 0, "fusion_lon": 0.0, "is_reserved": 0, "name": "14f3e81b6d87e793bcb1773873467bd6", "type": "electric_scooter", "bike_id": "14f3e81b6d87e793bcb1773873467bd6", "rental_uris": {"ios": "https://dc.lft.to/lastmile_qr_scan", "android": "https://dc.lft.to/lastmile_qr_scan"}, "fusion_lat": 0.0}, {"lat": 38.899951333333334, "lon": -77.02210533333333, "is_disabled": 0, "fusion_lon": 0.0, "is_reserved": 0, "name": "694b7331beb9075660e5e7e57b64895b", "type": "electric_scooter", "bike_id": "694b7331beb9075660e5e7e57b64895b", "rental_uris": {"ios": "https://dc.lft.to/lastmile_qr_scan", "android": "https://dc.lft.to/lastmile_qr_scan"}, "fusion_lat": 0.0}, {"lat": 38.86043683333333, "lon": -77.00346533333334, "is_disabled": 0, "fusion_lon": 0.0, "is_reserved": 0, "name": "9f5efc7aa514b3955c5f7dd680caa639", "type": "electric_scooter", "bike_id": "9f5efc7aa514b3955c5f7dd680caa639", "rental_uris": {"ios": "https://dc.lft.to/lastmile_qr_scan", "android": "https://dc.lft.to/lastmile_qr_scan"}, "fusion_lat": 0.0}, {"lat": 38.90950433333333, "lon": -77.03206416666667, "is_disabled": 0, "fusion_lon": 0.0, "is_reserved": 0, "name": "84ca3309cc632e831ef7bb00d06d9c1d", "type": "electric_scooter", "bike_id": "84ca3309cc632e831ef7bb00d06d9c1d", "rental_uris": {"ios": "https://dc.lft.to/lastmile_qr_scan", "android": "https://dc.lft.to/lastmile_qr_scan"}, "fusion_lat": 0.0}, {"lat": 38.91798283333333, "lon": -77.0344665, "is_disabled": 0, "fusion_lon": 0.0, "is_reserved": 0, "name": "c4898819d75724c96da7f213b9901141", "type": "electric_scooter", "bike_id": "c4898819d75724c96da7f213b9901141", "rental_uris": {"ios": "https://dc.lft.to/lastmile_qr_scan", "android": "https://dc.lft.to/lastmile_qr_scan"}, "fusion_lat": 0.0}, {"lat": 38.896329333333334, "lon": -77.04014033333333, "is_disabled": 0, "fusion_lon": 0.0, "is_reserved": 0, "name": "cd19f945685beb6d2ebd0af699582410", "type": "electric_scooter", "bike_id": "cd19f945685beb6d2ebd0af699582410", "rental_uris": {"ios": "https://dc.lft.to/lastmile_qr_scan", "android": "https://dc.lft.to/lastmile_qr_scan"}, "fusion_lat": 0.0}, {"lat": 38.97507733333333, "lon": -77.01669, "is_disabled": 0, "fusion_lon": 0.0, "is_reserved": 0, "name": "3b9373223179146550dfc966f22baaa5", "type": "electric_scooter", "bike_id": "3b9373223179146550dfc966f22baaa5", "rental_uris": {"ios": "https://dc.lft.to/lastmile_qr_scan", "android": "https://dc.lft.to/lastmile_qr_scan"}, "fusion_lat": 0.0}, {"lat": 38.90521866666667, "lon": -77.048306, "is_disabled": 0, "fusion_lon": 0.0, "is_reserved": 0, "name": "c143edaf25a7cb4cba6115d74411d617", "type": "electric_scooter", "bike_id": "c143edaf25a7cb4cba6115d74411d617", "rental_uris": {"ios": "https://dc.lft.to/lastmile_qr_scan", "android": "https://dc.lft.to/lastmile_qr_scan"}, "fusion_lat": 0.0}, {"lat": 38.9217155, "lon": -77.0178925, "is_disabled": 0, "fusion_lon": 0.0, "is_reserved": 0, "name": "efe7f64da6f635e0e54f3e9d14bfd7e7", "type": "electric_scooter", "bike_id": "efe7f64da6f635e0e54f3e9d14bfd7e7", "rental_uris": {"ios": "https://dc.lft.to/lastmile_qr_scan", "android": "https://dc.lft.to/lastmile_qr_scan"}, "fusion_lat": 0.0}, {"lat": 38.909294333333335, "lon": -77.0397285, "is_disabled": 0, "fusion_lon": 0.0, "is_reserved": 0, "name": "ecf440e945e9595cb7b207f3485aef41", "type": "electric_scooter", "bike_id": "ecf440e945e9595cb7b207f3485aef41", "rental_uris": {"ios": "https://dc.lft.to/lastmile_qr_scan", "android": "https://dc.lft.to/lastmile_qr_scan"}, "fusion_lat": 0.0}, {"lat": 38.9279165, "lon": -77.032321, "is_disabled": 0, "fusion_lon": 0.0, "is_reserved": 0, "name": "0f87a0f91bfd9fcb1dbbddb0d8e1193e", "type": "electric_scooter", "bike_id": "0f87a0f91bfd9fcb1dbbddb0d8e1193e", "rental_uris": {"ios": "https://dc.lft.to/lastmile_qr_scan", "android": "https://dc.lft.to/lastmile_qr_scan"}, "fusion_lat": 0.0}, {"lat": 38.9952125, "lon": -76.99967066666666, "is_disabled": 0, "fusion_lon": 0.0, "is_reserved": 0, "name": "61fe058d153d0bbbee3e212228bef6fc", "type": "electric_bike", "bike_id": "61fe058d153d0bbbee3e212228bef6fc", "rental_uris": {"ios": "https://dc.lft.to/lastmile_qr_scan", "android": "https://dc.lft.to/lastmile_qr_scan"}, "fusion_lat": 0.0}, {"lat": 38.9252175, "lon": -77.057503, "is_disabled": 0, "fusion_lon": 0.0, "is_reserved": 0, "name": "2a14ac2deb36f5a07fed605440031c55", "type": "electric_bike", "bike_id": "2a14ac2deb36f5a07fed605440031c55", "rental_uris": {"ios": "https://dc.lft.to/lastmile_qr_scan", "android": "https://dc.lft.to/lastmile_qr_scan"}, "fusion_lat": 0.0}, {"lat": 38.88537083333333, "lon": -76.97890583333333, "is_disabled": 0, "fusion_lon": 0.0, "is_reserved": 0, "name": "b6398ea12a6b7f8ce161d72093281f62", "type": "electric_scooter", "bike_id": "b6398ea12a6b7f8ce161d72093281f62", "rental_uris": {"ios": "https://dc.lft.to/lastmile_qr_scan", "android": "https://dc.lft.to/lastmile_qr_scan"}, "fusion_lat": 0.0}, {"lat": 38.90251933333333, "lon": -76.98478866666666, "is_disabled": 0, "fusion_lon": 0.0, "is_reserved": 0, "name": "debae48730600529d9582180feae530f", "type": "electric_scooter", "bike_id": "debae48730600529d9582180feae530f", "rental_uris": {"ios": "https://dc.lft.to/lastmile_qr_scan", "android": "https://dc.lft.to/lastmile_qr_scan"}, "fusion_lat": 0.0}, {"lat": 38.8779105, "lon": -76.99942883333334, "is_disabled": 0, "fusion_lon": 0.0, "is_reserved": 0, "name": "5b6677b1ffe942dafc39fde1d1508200", "type": "electric_scooter", "bike_id": "5b6677b1ffe942dafc39fde1d1508200", "rental_uris": {"ios": "https://dc.lft.to/lastmile_qr_scan", "android": "https://dc.lft.to/lastmile_qr_scan"}, "fusion_lat": 0.0}, {"lat": 38.9192305, "lon": -77.03428916666667, "is_disabled": 0, "fusion_lon": 0.0, "is_reserved": 0, "name": "08983f384a5e49d5ecdd68973139c8fb", "type": "electric_scooter", "bike_id": "08983f384a5e49d5ecdd68973139c8fb", "rental_uris": {"ios": "https://dc.lft.to/lastmile_qr_scan", "android": "https://dc.lft.to/lastmile_qr_scan"}, "fusion_lat": 0.0}, {"lat": 38.901962166666664, "lon": -77.050648, "is_disabled": 0, "fusion_lon": 0.0, "is_reserved": 0, "name": "57585fe09e8c83e1c5df0efab4d2bf3b", "type": "electric_scooter", "bike_id": "57585fe09e8c83e1c5df0efab4d2bf3b", "rental_uris": {"ios": "https://dc.lft.to/lastmile_qr_scan", "android": "https://dc.lft.to/lastmile_qr_scan"}, "fusion_lat": 0.0}, {"lat": 38.9308365, "lon": -77.02789916666667, "is_disabled": 0, "fusion_lon": 0.0, "is_reserved": 0, "name": "85b5fc8cf2fb8bae59b4044e8730d4ad", "type": "electric_scooter", "bike_id": "85b5fc8cf2fb8bae59b4044e8730d4ad", "rental_uris": {"ios": "https://dc.lft.to/lastmile_qr_scan", "android": "https://dc.lft.to/lastmile_qr_scan"}, "fusion_lat": 0.0}, {"lat": 38.83756433333333, "lon": -77.09296116666667, "is_disabled": 0, "fusion_lon": 0.0, "is_reserved": 0, "name": "5eb4c4850cc62d8fef7f8807905bec48", "type": "electric_bike", "bike_id": "5eb4c4850cc62d8fef7f8807905bec48", "rental_uris": {"ios": "https://dc.lft.to/lastmile_qr_scan", "android": "https://dc.lft.to/lastmile_qr_scan"}, "fusion_lat": 0.0}, {"lat": 38.97883383333333, "lon": -77.06032866666666, "is_disabled": 0, "fusion_lon": 0.0, "is_reserved": 0, "name": "c316d0bddeb0ef21b92a9672fb3d02f5", "type": "electric_bike", "bike_id": "c316d0bddeb0ef21b92a9672fb3d02f5", "rental_uris": {"ios": "https://dc.lft.to/lastmile_qr_scan", "android": "https://dc.lft.to/lastmile_qr_scan"}, "fusion_lat": 0.0}, {"lat": 38.92347083333333, "lon": -77.05171183333333, "is_disabled": 0, "fusion_lon": 0.0, "is_reserved": 0, "name": "2c561f0197127459c1a6cbb87be044b6", "type": "electric_scooter", "bike_id": "2c561f0197127459c1a6cbb87be044b6", "rental_uris": {"ios": "https://dc.lft.to/lastmile_qr_scan", "android": "https://dc.lft.to/lastmile_qr_scan"}, "fusion_lat": 0.0}, {"lat": 38.92046666666667, "lon": -77.02576116666667, "is_disabled": 0, "fusion_lon": 0.0, "is_reserved": 0, "name": "76c3f9dcca6a52f91bb711b77ec39d35", "type": "electric_scooter", "bike_id": "76c3f9dcca6a52f91bb711b77ec39d35", "rental_uris": {"ios": "https://dc.lft.to/lastmile_qr_scan", "android": "https://dc.lft.to/lastmile_qr_scan"}, "fusion_lat": 0.0}, {"lat": 38.91696316666667, "lon": -77.02868983333333, "is_disabled": 0, "fusion_lon": 0.0, "is_reserved": 0, "name": "df66b0ef398f4b6301e8d7a163384445", "type": "electric_scooter", "bike_id": "df66b0ef398f4b6301e8d7a163384445", "rental_uris": {"ios": "https://dc.lft.to/lastmile_qr_scan", "android": "https://dc.lft.to/lastmile_qr_scan"}, "fusion_lat": 0.0}, {"lat": 38.913366, "lon": -77.039811, "is_disabled": 0, "fusion_lon": 0.0, "is_reserved": 0, "name": "b8b2a4a36b30213302fd9e37b91f5824", "type": "electric_scooter", "bike_id": "b8b2a4a36b30213302fd9e37b91f5824", "rental_uris": {"ios": "https://dc.lft.to/lastmile_qr_scan", "android": "https://dc.lft.to/lastmile_qr_scan"}, "fusion_lat": 0.0}, {"lat": 38.9238255, "lon": -77.02656366666666, "is_disabled": 0, "fusion_lon": 0.0, "is_reserved": 0, "name": "bab0caa5194e4465b70c21749d78691f", "type": "electric_scooter", "bike_id": "bab0caa5194e4465b70c21749d78691f", "rental_uris": {"ios": "https://dc.lft.to/lastmile_qr_scan", "android": "https://dc.lft.to/lastmile_qr_scan"}, "fusion_lat": 0.0}, {"lat": 38.92588766666667, "lon": -77.0322085, "is_disabled": 0, "fusion_lon": 0.0, "is_reserved": 0, "name": "862e91b74dde608be4bbdf75912da017", "type": "electric_scooter", "bike_id": "862e91b74dde608be4bbdf75912da017", "rental_uris": {"ios": "https://dc.lft.to/lastmile_qr_scan", "android": "https://dc.lft.to/lastmile_qr_scan"}, "fusion_lat": 0.0}, {"lat": 38.912327166666664, "lon": -77.03844133333334, "is_disabled": 0, "fusion_lon": 0.0, "is_reserved": 0, "name": "be664aa06c090f6377bc1ccf78346d5d", "type": "electric_scooter", "bike_id": "be664aa06c090f6377bc1ccf78346d5d", "rental_uris": {"ios": "https://dc.lft.to/lastmile_qr_scan", "android": "https://dc.lft.to/lastmile_qr_scan"}, "fusion_lat": 0.0}, {"lat": 38.91266316666667, "lon": -77.0470635, "is_disabled": 0, "fusion_lon": 0.0, "is_reserved": 0, "name": "ceaaf7069d07ff543a050ed0d0ebf641", "type": "electric_scooter", "bike_id": "ceaaf7069d07ff543a050ed0d0ebf641", "rental_uris": {"ios": "https://dc.lft.to/lastmile_qr_scan", "android": "https://dc.lft.to/lastmile_qr_scan"}, "fusion_lat": 0.0}, {"lat": 38.904718833333334, "lon": -77.0188505, "is_disabled": 0, "fusion_lon": 0.0, "is_reserved": 0, "name": "e2aed7206464776223eca7d86b1ad084", "type": "electric_scooter", "bike_id": "e2aed7206464776223eca7d86b1ad084", "rental_uris": {"ios": "https://dc.lft.to/lastmile_qr_scan", "android": "https://dc.lft.to/lastmile_qr_scan"}, "fusion_lat": 0.0}, {"lat": 38.906781333333335, "lon": -77.0364985, "is_disabled": 0, "fusion_lon": 0.0, "is_reserved": 0, "name": "e118ef9d699cdfbbedf1285a84249292", "type": "electric_scooter", "bike_id": "e118ef9d699cdfbbedf1285a84249292", "rental_uris": {"ios": "https://dc.lft.to/lastmile_qr_scan", "android": "https://dc.lft.to/lastmile_qr_scan"}, "fusion_lat": 0.0}, {"lat": 38.88375166666667, "lon": -77.019676, "is_disabled": 0, "fusion_lon": 0.0, "is_reserved": 0, "name": "c525789ff4efab51e56c71f687c9f0fe", "type": "electric_scooter", "bike_id": "c525789ff4efab51e56c71f687c9f0fe", "rental_uris": {"ios": "https://dc.lft.to/lastmile_qr_scan", "android": "https://dc.lft.to/lastmile_qr_scan"}, "fusion_lat": 0.0}, {"lat": 38.87769016666667, "lon": -77.01050266666667, "is_disabled": 0, "fusion_lon": 0.0, "is_reserved": 0, "name": "523cdae05cbe149d2e71769bfee598d0", "type": "electric_bike", "bike_id": "523cdae05cbe149d2e71769bfee598d0", "rental_uris": {"ios": "https://dc.lft.to/lastmile_qr_scan", "android": "https://dc.lft.to/lastmile_qr_scan"}, "fusion_lat": 0.0}, {"lat": 38.91704383333333, "lon": -77.04025333333334, "is_disabled": 0, "fusion_lon": 0.0, "is_reserved": 0, "name": "8270be63c451044d408410c82b45518a", "type": "electric_scooter", "bike_id": "8270be63c451044d408410c82b45518a", "rental_uris": {"ios": "https://dc.lft.to/lastmile_qr_scan", "android": "https://dc.lft.to/lastmile_qr_scan"}, "fusion_lat": 0.0}, {"lat": 38.90775716666667, "lon": -77.04507966666667, "is_disabled": 0, "fusion_lon": 0.0, "is_reserved": 0, "name": "88321b1d66f93043dfe018dc92dfc447", "type": "electric_scooter", "bike_id": "88321b1d66f93043dfe018dc92dfc447", "rental_uris": {"ios": "https://dc.lft.to/lastmile_qr_scan", "android": "https://dc.lft.to/lastmile_qr_scan"}, "fusion_lat": 0.0}, {"lat": 38.91415633333333, "lon": -77.02093033333334, "is_disabled": 0, "fusion_lon": 0.0, "is_reserved": 0, "name": "0bde301813e2b41beec9b0130146d81d", "type": "electric_scooter", "bike_id": "0bde301813e2b41beec9b0130146d81d", "rental_uris": {"ios": "https://dc.lft.to/lastmile_qr_scan", "android": "https://dc.lft.to/lastmile_qr_scan"}, "fusion_lat": 0.0}, {"lat": 38.919511666666665, "lon": -77.0453575, "is_disabled": 0, "fusion_lon": 0.0, "is_reserved": 0, "name": "90f84495f69e5021c217ba6ebdd963bc", "type": "electric_scooter", "bike_id": "90f84495f69e5021c217ba6ebdd963bc", "rental_uris": {"ios": "https://dc.lft.to/lastmile_qr_scan", "android": "https://dc.lft.to/lastmile_qr_scan"}, "fusion_lat": 0.0}, {"lat": 38.9027385, "lon": -77.02796266666667, "is_disabled": 0, "fusion_lon": 0.0, "is_reserved": 0, "name": "a90bb7f4745519ea9c7a4790fd7e277d", "type": "electric_scooter", "bike_id": "a90bb7f4745519ea9c7a4790fd7e277d", "rental_uris": {"ios": "https://dc.lft.to/lastmile_qr_scan", "android": "https://dc.lft.to/lastmile_qr_scan"}, "fusion_lat": 0.0}, {"lat": 38.9274045, "lon": -77.02705383333333, "is_disabled": 0, "fusion_lon": 0.0, "is_reserved": 0, "name": "b75327c529fbc7e40b6741aad2e35cac", "type": "electric_scooter", "bike_id": "b75327c529fbc7e40b6741aad2e35cac", "rental_uris": {"ios": "https://dc.lft.to/lastmile_qr_scan", "android": "https://dc.lft.to/lastmile_qr_scan"}, "fusion_lat": 0.0}, {"lat": 38.91066166666667, "lon": -77.004611, "is_disabled": 0, "fusion_lon": 0.0, "is_reserved": 0, "name": "b565555eae725b0c3b13b4f35224b6d1", "type": "electric_scooter", "bike_id": "b565555eae725b0c3b13b4f35224b6d1", "rental_uris": {"ios": "https://dc.lft.to/lastmile_qr_scan", "android": "https://dc.lft.to/lastmile_qr_scan"}, "fusion_lat": 0.0}, {"lat": 38.909573333333334, "lon": -77.04839033333333, "is_disabled": 0, "fusion_lon": 0.0, "is_reserved": 0, "name": "d78c8a7cc13b1ef59603b7093e2d8140", "type": "electric_scooter", "bike_id": "d78c8a7cc13b1ef59603b7093e2d8140", "rental_uris": {"ios": "https://dc.lft.to/lastmile_qr_scan", "android": "https://dc.lft.to/lastmile_qr_scan"}, "fusion_lat": 0.0}, {"lat": 38.8812945, "lon": -76.998681, "is_disabled": 0, "fusion_lon": 0.0, "is_reserved": 0, "name": "fa879668608c73242ef1233dc5424e0f", "type": "electric_scooter", "bike_id": "fa879668608c73242ef1233dc5424e0f", "rental_uris": {"ios": "https://dc.lft.to/lastmile_qr_scan", "android": "https://dc.lft.to/lastmile_qr_scan"}, "fusion_lat": 0.0}, {"lat": 38.9155595, "lon": -77.00585833333334, "is_disabled": 0, "fusion_lon": 0.0, "is_reserved": 0, "name": "21d19a9a8b100d2f80cf73e0141e6deb", "type": "electric_scooter", "bike_id": "21d19a9a8b100d2f80cf73e0141e6deb", "rental_uris": {"ios": "https://dc.lft.to/lastmile_qr_scan", "android": "https://dc.lft.to/lastmile_qr_scan"}, "fusion_lat": 0.0}, {"lat": 38.920815166666664, "lon": -76.99485366666667, "is_disabled": 0, "fusion_lon": 0.0, "is_reserved": 0, "name": "820b33cfe02f1ead8681003c66dc7f6d", "type": "electric_scooter", "bike_id": "820b33cfe02f1ead8681003c66dc7f6d", "rental_uris": {"ios": "https://dc.lft.to/lastmile_qr_scan", "android": "https://dc.lft.to/lastmile_qr_scan"}, "fusion_lat": 0.0}, {"lat": 38.924191666666665, "lon": -76.9974035, "is_disabled": 0, "fusion_lon": 0.0, "is_reserved": 0, "name": "42c1d016ff239e191fb93870e19ca548", "type": "electric_scooter", "bike_id": "42c1d016ff239e191fb93870e19ca548", "rental_uris": {"ios": "https://dc.lft.to/lastmile_qr_scan", "android": "https://dc.lft.to/lastmile_qr_scan"}, "fusion_lat": 0.0}, {"lat": 38.973569833333336, "lon": -77.027865, "is_disabled": 0, "fusion_lon": 0.0, "is_reserved": 0, "name": "9459acea7be2d3a1749fa5f36b84d8c4", "type": "electric_scooter", "bike_id": "9459acea7be2d3a1749fa5f36b84d8c4", "rental_uris": {"ios": "https://dc.lft.to/lastmile_qr_scan", "android": "https://dc.lft.to/lastmile_qr_scan"}, "fusion_lat": 0.0}, {"lat": 38.86394966666667, "lon": -77.20110516666666, "is_disabled": 0, "fusion_lon": 0.0, "is_reserved": 0, "name": "43b61492b10562916b452c118937a4b5", "type": "electric_bike", "bike_id": "43b61492b10562916b452c118937a4b5", "rental_uris": {"ios": "https://dc.lft.to/lastmile_qr_scan", "android": "https://dc.lft.to/lastmile_qr_scan"}, "fusion_lat": 0.0}, {"lat": 38.909693833333336, "lon": -77.05189083333333, "is_disabled": 0, "fusion_lon": 0.0, "is_reserved": 0, "name": "b5d49557856b96bc033daa0698a3d0bf", "type": "electric_scooter", "bike_id": "b5d49557856b96bc033daa0698a3d0bf", "rental_uris": {"ios": "https://dc.lft.to/lastmile_qr_scan", "android": "https://dc.lft.to/lastmile_qr_scan"}, "fusion_lat": 0.0}, {"lat": 38.88744333333333, "lon": -77.021271, "is_disabled": 0, "fusion_lon": 0.0, "is_reserved": 0, "name": "1125e8ff9924c56606048857a264390c", "type": "electric_scooter", "bike_id": "1125e8ff9924c56606048857a264390c", "rental_uris": {"ios": "https://dc.lft.to/lastmile_qr_scan", "android": "https://dc.lft.to/lastmile_qr_scan"}, "fusion_lat": 0.0}, {"lat": 38.84192433333333, "lon": -77.0675575, "is_disabled": 0, "fusion_lon": 0.0, "is_reserved": 0, "name": "cbca3be82ab67a60b5eed67f9d437787", "type": "electric_bike", "bike_id": "cbca3be82ab67a60b5eed67f9d437787", "rental_uris": {"ios": "https://dc.lft.to/lastmile_qr_scan", "android": "https://dc.lft.to/lastmile_qr_scan"}, "fusion_lat": 0.0}, {"lat": 38.91803066666667, "lon": -77.02487133333334, "is_disabled": 0, "fusion_lon": 0.0, "is_reserved": 0, "name": "083e3973477ac623b86d8de4078ac43e", "type": "electric_scooter", "bike_id": "083e3973477ac623b86d8de4078ac43e", "rental_uris": {"ios": "https://dc.lft.to/lastmile_qr_scan", "android": "https://dc.lft.to/lastmile_qr_scan"}, "fusion_lat": 0.0}, {"lat": 38.8935825, "lon": -77.00337433333333, "is_disabled": 0, "fusion_lon": 0.0, "is_reserved": 0, "name": "361d684ed550bb54c63cdbf06c6847a8", "type": "electric_scooter", "bike_id": "361d684ed550bb54c63cdbf06c6847a8", "rental_uris": {"ios": "https://dc.lft.to/lastmile_qr_scan", "android": "https://dc.lft.to/lastmile_qr_scan"}, "fusion_lat": 0.0}, {"lat": 38.9364, "lon": -77.03683183333334, "is_disabled": 0, "fusion_lon": 0.0, "is_reserved": 0, "name": "9e662b7ff9eb437949c1c6ecbb3a0a93", "type": "electric_bike", "bike_id": "9e662b7ff9eb437949c1c6ecbb3a0a93", "rental_uris": {"ios": "https://dc.lft.to/lastmile_qr_scan", "android": "https://dc.lft.to/lastmile_qr_scan"}, "fusion_lat": 0.0}, {"lat": 38.96592416666667, "lon": -77.01597433333333, "is_disabled": 0, "fusion_lon": 0.0, "is_reserved": 0, "name": "78c1ce6a536b0d94bd53ca98c860ce9d", "type": "electric_scooter", "bike_id": "78c1ce6a536b0d94bd53ca98c860ce9d", "rental_uris": {"ios": "https://dc.lft.to/lastmile_qr_scan", "android": "https://dc.lft.to/lastmile_qr_scan"}, "fusion_lat": 0.0}, {"lat": 38.9073585, "lon": -77.05707516666666, "is_disabled": 0, "fusion_lon": 0.0, "is_reserved": 0, "name": "c27497cfb7d4435e5924efc5ab787710", "type": "electric_scooter", "bike_id": "c27497cfb7d4435e5924efc5ab787710", "rental_uris": {"ios": "https://dc.lft.to/lastmile_qr_scan", "android": "https://dc.lft.to/lastmile_qr_scan"}, "fusion_lat": 0.0}, {"lat": 38.91714233333333, "lon": -77.03492916666667, "is_disabled": 0, "fusion_lon": 0.0, "is_reserved": 0, "name": "cd73b46f705dfe09f4f7a9161ee03f23", "type": "electric_scooter", "bike_id": "cd73b46f705dfe09f4f7a9161ee03f23", "rental_uris": {"ios": "https://dc.lft.to/lastmile_qr_scan", "android": "https://dc.lft.to/lastmile_qr_scan"}, "fusion_lat": 0.0}, {"lat": 38.902337333333335, "lon": -77.026081, "is_disabled": 0, "fusion_lon": 0.0, "is_reserved": 0, "name": "8100724d295a6dca808fdfa27d07de8c", "type": "electric_scooter", "bike_id": "8100724d295a6dca808fdfa27d07de8c", "rental_uris": {"ios": "https://dc.lft.to/lastmile_qr_scan", "android": "https://dc.lft.to/lastmile_qr_scan"}, "fusion_lat": 0.0}, {"lat": 38.91389133333333, "lon": -76.98404783333334, "is_disabled": 0, "fusion_lon": 0.0, "is_reserved": 0, "name": "7d2341203bc108b7bc423c9d0af5623d", "type": "electric_scooter", "bike_id": "7d2341203bc108b7bc423c9d0af5623d", "rental_uris": {"ios": "https://dc.lft.to/lastmile_qr_scan", "android": "https://dc.lft.to/lastmile_qr_scan"}, "fusion_lat": 0.0}, {"lat": 38.881308, "lon": -77.01648783333333, "is_disabled": 0, "fusion_lon": 0.0, "is_reserved": 0, "name": "3eaa6fe40c773e92c13de900d77469eb", "type": "electric_scooter", "bike_id": "3eaa6fe40c773e92c13de900d77469eb", "rental_uris": {"ios": "https://dc.lft.to/lastmile_qr_scan", "android": "https://dc.lft.to/lastmile_qr_scan"}, "fusion_lat": 0.0}, {"lat": 38.91129266666667, "lon": -77.03752766666666, "is_disabled": 0, "fusion_lon": 0.0, "is_reserved": 0, "name": "33d7fa4b7cdf30c9eb8803d14b53820c", "type": "electric_scooter", "bike_id": "33d7fa4b7cdf30c9eb8803d14b53820c", "rental_uris": {"ios": "https://dc.lft.to/lastmile_qr_scan", "android": "https://dc.lft.to/lastmile_qr_scan"}, "fusion_lat": 0.0}, {"lat": 38.92297083333333, "lon": -77.02326133333334, "is_disabled": 0, "fusion_lon": 0.0, "is_reserved": 0, "name": "056a729f3e575c3e804a53018481dace", "type": "electric_scooter", "bike_id": "056a729f3e575c3e804a53018481dace", "rental_uris": {"ios": "https://dc.lft.to/lastmile_qr_scan", "android": "https://dc.lft.to/lastmile_qr_scan"}, "fusion_lat": 0.0}, {"lat": 38.9026655, "lon": -77.03453383333333, "is_disabled": 0, "fusion_lon": 0.0, "is_reserved": 0, "name": "b9ce16a142d556c99d1377b92d76f186", "type": "electric_scooter", "bike_id": "b9ce16a142d556c99d1377b92d76f186", "rental_uris": {"ios": "https://dc.lft.to/lastmile_qr_scan", "android": "https://dc.lft.to/lastmile_qr_scan"}, "fusion_lat": 0.0}, {"lat": 38.899124666666665, "lon": -77.0237095, "is_disabled": 0, "fusion_lon": 0.0, "is_reserved": 0, "name": "da339d2f5955fbfc28f6d8802262c06d", "type": "electric_scooter", "bike_id": "da339d2f5955fbfc28f6d8802262c06d", "rental_uris": {"ios": "https://dc.lft.to/lastmile_qr_scan", "android": "https://dc.lft.to/lastmile_qr_scan"}, "fusion_lat": 0.0}, {"lat": 38.926821833333335, "lon": -77.02266816666666, "is_disabled": 0, "fusion_lon": 0.0, "is_reserved": 0, "name": "19d832af432557fe57cc39a131963d2d", "type": "electric_scooter", "bike_id": "19d832af432557fe57cc39a131963d2d", "rental_uris": {"ios": "https://dc.lft.to/lastmile_qr_scan", "android": "https://dc.lft.to/lastmile_qr_scan"}, "fusion_lat": 0.0}, {"lat": 38.908140833333334, "lon": -77.0345055, "is_disabled": 0, "fusion_lon": 0.0, "is_reserved": 0, "name": "dbcda3896bf6d4309b53b339d0961900", "type": "electric_scooter", "bike_id": "dbcda3896bf6d4309b53b339d0961900", "rental_uris": {"ios": "https://dc.lft.to/lastmile_qr_scan", "android": "https://dc.lft.to/lastmile_qr_scan"}, "fusion_lat": 0.0}, {"lat": 38.91935466666666, "lon": -77.031995, "is_disabled": 0, "fusion_lon": 0.0, "is_reserved": 0, "name": "0c436a40ec916c9bc2a8cd356703f185", "type": "electric_scooter", "bike_id": "0c436a40ec916c9bc2a8cd356703f185", "rental_uris": {"ios": "https://dc.lft.to/lastmile_qr_scan", "android": "https://dc.lft.to/lastmile_qr_scan"}, "fusion_lat": 0.0}, {"lat": 38.900267, "lon": -76.97401316666667, "is_disabled": 0, "fusion_lon": 0.0, "is_reserved": 0, "name": "f94b06190b46c0d243c4757f35152a30", "type": "electric_scooter", "bike_id": "f94b06190b46c0d243c4757f35152a30", "rental_uris": {"ios": "https://dc.lft.to/lastmile_qr_scan", "android": "https://dc.lft.to/lastmile_qr_scan"}, "fusion_lat": 0.0}, {"lat": 38.91785933333333, "lon": -77.0230215, "is_disabled": 0, "fusion_lon": 0.0, "is_reserved": 0, "name": "1371b57f3a73254bdf8499ae00af88db", "type": "electric_scooter", "bike_id": "1371b57f3a73254bdf8499ae00af88db", "rental_uris": {"ios": "https://dc.lft.to/lastmile_qr_scan", "android": "https://dc.lft.to/lastmile_qr_scan"}, "fusion_lat": 0.0}, {"lat": 38.897303666666666, "lon": -77.025696, "is_disabled": 0, "fusion_lon": 0.0, "is_reserved": 0, "name": "e099fadf18ade9d951d2f9dd64e992e6", "type": "electric_scooter", "bike_id": "e099fadf18ade9d951d2f9dd64e992e6", "rental_uris": {"ios": "https://dc.lft.to/lastmile_qr_scan", "android": "https://dc.lft.to/lastmile_qr_scan"}, "fusion_lat": 0.0}, {"lat": 38.90381283333333, "lon": -77.02906366666667, "is_disabled": 0, "fusion_lon": 0.0, "is_reserved": 0, "name": "91f13528b4eafc1bcb1e01d272b51b6b", "type": "electric_scooter", "bike_id": "91f13528b4eafc1bcb1e01d272b51b6b", "rental_uris": {"ios": "https://dc.lft.to/lastmile_qr_scan", "android": "https://dc.lft.to/lastmile_qr_scan"}, "fusion_lat": 0.0}, {"lat": 38.92299533333333, "lon": -77.04301083333333, "is_disabled": 0, "fusion_lon": 0.0, "is_reserved": 0, "name": "24cb551f00cdc22c365e45f352487f44", "type": "electric_scooter", "bike_id": "24cb551f00cdc22c365e45f352487f44", "rental_uris": {"ios": "https://dc.lft.to/lastmile_qr_scan", "android": "https://dc.lft.to/lastmile_qr_scan"}, "fusion_lat": 0.0}, {"lat": 38.903815, "lon": -77.05146466666666, "is_disabled": 0, "fusion_lon": 0.0, "is_reserved": 0, "name": "9188cb03923a7ac0a2b579ceb9f3104b", "type": "electric_scooter", "bike_id": "9188cb03923a7ac0a2b579ceb9f3104b", "rental_uris": {"ios": "https://dc.lft.to/lastmile_qr_scan", "android": "https://dc.lft.to/lastmile_qr_scan"}, "fusion_lat": 0.0}, {"lat": 38.912177166666666, "lon": -77.038445, "is_disabled": 0, "fusion_lon": 0.0, "is_reserved": 0, "name": "8856f3b13789e7ea200820a0bd752845", "type": "electric_scooter", "bike_id": "8856f3b13789e7ea200820a0bd752845", "rental_uris": {"ios": "https://dc.lft.to/lastmile_qr_scan", "android": "https://dc.lft.to/lastmile_qr_scan"}, "fusion_lat": 0.0}, {"lat": 38.910501833333335, "lon": -77.02191133333334, "is_disabled": 0, "fusion_lon": 0.0, "is_reserved": 0, "name": "1773416204c9f7fad25979c08b9e2f88", "type": "electric_scooter", "bike_id": "1773416204c9f7fad25979c08b9e2f88", "rental_uris": {"ios": "https://dc.lft.to/lastmile_qr_scan", "android": "https://dc.lft.to/lastmile_qr_scan"}, "fusion_lat": 0.0}, {"lat": 38.926177833333334, "lon": -77.0321645, "is_disabled": 0, "fusion_lon": 0.0, "is_reserved": 0, "name": "d4d62f79654ea549a43cb37a32cd94d7", "type": "electric_scooter", "bike_id": "d4d62f79654ea549a43cb37a32cd94d7", "rental_uris": {"ios": "https://dc.lft.to/lastmile_qr_scan", "android": "https://dc.lft.to/lastmile_qr_scan"}, "fusion_lat": 0.0}, {"lat": 38.9119535, "lon": -77.01189866666667, "is_disabled": 0, "fusion_lon": 0.0, "is_reserved": 0, "name": "e92b6051df8936bf3064f9a2970a1997", "type": "electric_scooter", "bike_id": "e92b6051df8936bf3064f9a2970a1997", "rental_uris": {"ios": "https://dc.lft.to/lastmile_qr_scan", "android": "https://dc.lft.to/lastmile_qr_scan"}, "fusion_lat": 0.0}, {"lat": 38.918247, "lon": -77.02419066666667, "is_disabled": 0, "fusion_lon": 0.0, "is_reserved": 0, "name": "ed4993ee393bfe675459e659c1ea142c", "type": "electric_scooter", "bike_id": "ed4993ee393bfe675459e659c1ea142c", "rental_uris": {"ios": "https://dc.lft.to/lastmile_qr_scan", "android": "https://dc.lft.to/lastmile_qr_scan"}, "fusion_lat": 0.0}, {"lat": 38.8998635, "lon": -77.01639483333334, "is_disabled": 0, "fusion_lon": 0.0, "is_reserved": 0, "name": "8d28cb5018f1196fee4b398f9e153835", "type": "electric_scooter", "bike_id": "8d28cb5018f1196fee4b398f9e153835", "rental_uris": {"ios": "https://dc.lft.to/lastmile_qr_scan", "android": "https://dc.lft.to/lastmile_qr_scan"}, "fusion_lat": 0.0}, {"lat": 38.911299666666665, "lon": -77.0220065, "is_disabled": 0, "fusion_lon": 0.0, "is_reserved": 0, "name": "7fb57349e72461a6f3a734f8e5eb2157", "type": "electric_scooter", "bike_id": "7fb57349e72461a6f3a734f8e5eb2157", "rental_uris": {"ios": "https://dc.lft.to/lastmile_qr_scan", "android": "https://dc.lft.to/lastmile_qr_scan"}, "fusion_lat": 0.0}, {"lat": 38.90824883333333, "lon": -77.033956, "is_disabled": 0, "fusion_lon": 0.0, "is_reserved": 0, "name": "5ac473ead49cf026b417a236084622a1", "type": "electric_scooter", "bike_id": "5ac473ead49cf026b417a236084622a1", "rental_uris": {"ios": "https://dc.lft.to/lastmile_qr_scan", "android": "https://dc.lft.to/lastmile_qr_scan"}, "fusion_lat": 0.0}, {"lat": 38.90850066666667, "lon": -77.0224875, "is_disabled": 0, "fusion_lon": 0.0, "is_reserved": 0, "name": "5c6a7643bd26aee8d6155469503e1c2f", "type": "electric_scooter", "bike_id": "5c6a7643bd26aee8d6155469503e1c2f", "rental_uris": {"ios": "https://dc.lft.to/lastmile_qr_scan", "android": "https://dc.lft.to/lastmile_qr_scan"}, "fusion_lat": 0.0}, {"lat": 38.9165965, "lon": -77.03170466666667, "is_disabled": 0, "fusion_lon": 0.0, "is_reserved": 0, "name": "ef34197c37ff54ec27fa13a1f9a9ee36", "type": "electric_scooter", "bike_id": "ef34197c37ff54ec27fa13a1f9a9ee36", "rental_uris": {"ios": "https://dc.lft.to/lastmile_qr_scan", "android": "https://dc.lft.to/lastmile_qr_scan"}, "fusion_lat": 0.0}, {"lat": 38.901091, "lon": -76.930397, "is_disabled": 0, "fusion_lon": 0.0, "is_reserved": 0, "name": "e3573c8c451b1214fbdd3ef6dd614907", "type": "electric_scooter", "bike_id": "e3573c8c451b1214fbdd3ef6dd614907", "rental_uris": {"ios": "https://dc.lft.to/lastmile_qr_scan", "android": "https://dc.lft.to/lastmile_qr_scan"}, "fusion_lat": 0.0}, {"lat": 38.86013533333333, "lon": -76.9670605, "is_disabled": 0, "fusion_lon": 0.0, "is_reserved": 0, "name": "b3d8c9b7b89f350db090028cf0066ee5", "type": "electric_scooter", "bike_id": "b3d8c9b7b89f350db090028cf0066ee5", "rental_uris": {"ios": "https://dc.lft.to/lastmile_qr_scan", "android": "https://dc.lft.to/lastmile_qr_scan"}, "fusion_lat": 0.0}, {"lat": 38.92734466666667, "lon": -77.022808, "is_disabled": 0, "fusion_lon": 0.0, "is_reserved": 0, "name": "e5197a42dab2710a67e053c1f6ddbcd1", "type": "electric_scooter", "bike_id": "e5197a42dab2710a67e053c1f6ddbcd1", "rental_uris": {"ios": "https://dc.lft.to/lastmile_qr_scan", "android": "https://dc.lft.to/lastmile_qr_scan"}, "fusion_lat": 0.0}, {"lat": 38.90663216666667, "lon": -77.02712633333333, "is_disabled": 0, "fusion_lon": 0.0, "is_reserved": 0, "name": "c161733a5d89417321e7aa85342b8ef8", "type": "electric_scooter", "bike_id": "c161733a5d89417321e7aa85342b8ef8", "rental_uris": {"ios": "https://dc.lft.to/lastmile_qr_scan", "android": "https://dc.lft.to/lastmile_qr_scan"}, "fusion_lat": 0.0}, {"lat": 38.896766666666664, "lon": -77.05052633333334, "is_disabled": 0, "fusion_lon": 0.0, "is_reserved": 0, "name": "2e51a02f4196021ba28bb3b9a4363fbf", "type": "electric_scooter", "bike_id": "2e51a02f4196021ba28bb3b9a4363fbf", "rental_uris": {"ios": "https://dc.lft.to/lastmile_qr_scan", "android": "https://dc.lft.to/lastmile_qr_scan"}, "fusion_lat": 0.0}, {"lat": 38.915270166666666, "lon": -77.02189483333333, "is_disabled": 0, "fusion_lon": 0.0, "is_reserved": 0, "name": "2a520410cb8784950446209a99a142cd", "type": "electric_scooter", "bike_id": "2a520410cb8784950446209a99a142cd", "rental_uris": {"ios": "https://dc.lft.to/lastmile_qr_scan", "android": "https://dc.lft.to/lastmile_qr_scan"}, "fusion_lat": 0.0}, {"lat": 38.90238166666666, "lon": -77.01908666666667, "is_disabled": 0, "fusion_lon": 0.0, "is_reserved": 0, "name": "f5a8767371b9b77e50c3ea236854d762", "type": "electric_scooter", "bike_id": "f5a8767371b9b77e50c3ea236854d762", "rental_uris": {"ios": "https://dc.lft.to/lastmile_qr_scan", "android": "https://dc.lft.to/lastmile_qr_scan"}, "fusion_lat": 0.0}, {"lat": 38.910100666666665, "lon": -77.02094283333334, "is_disabled": 0, "fusion_lon": 0.0, "is_reserved": 0, "name": "99e6b75f80be0a696d9e8d1e9648a86c", "type": "electric_scooter", "bike_id": "99e6b75f80be0a696d9e8d1e9648a86c", "rental_uris": {"ios": "https://dc.lft.to/lastmile_qr_scan", "android": "https://dc.lft.to/lastmile_qr_scan"}, "fusion_lat": 0.0}, {"lat": 38.918100833333334, "lon": -77.02668416666667, "is_disabled": 0, "fusion_lon": 0.0, "is_reserved": 0, "name": "d0e2e6c6a3581bb63fda70157e2bfd65", "type": "electric_scooter", "bike_id": "d0e2e6c6a3581bb63fda70157e2bfd65", "rental_uris": {"ios": "https://dc.lft.to/lastmile_qr_scan", "android": "https://dc.lft.to/lastmile_qr_scan"}, "fusion_lat": 0.0}, {"lat": 38.91843216666667, "lon": -77.04831583333333, "is_disabled": 0, "fusion_lon": 0.0, "is_reserved": 0, "name": "63c5f380c6e599d89aa07a2c98c885cd", "type": "electric_scooter", "bike_id": "63c5f380c6e599d89aa07a2c98c885cd", "rental_uris": {"ios": "https://dc.lft.to/lastmile_qr_scan", "android": "https://dc.lft.to/lastmile_qr_scan"}, "fusion_lat": 0.0}, {"lat": 38.923398166666665, "lon": -77.0361455, "is_disabled": 0, "fusion_lon": 0.0, "is_reserved": 0, "name": "9a51d103dbc95d5b4d575c68cbb52b31", "type": "electric_scooter", "bike_id": "9a51d103dbc95d5b4d575c68cbb52b31", "rental_uris": {"ios": "https://dc.lft.to/lastmile_qr_scan", "android": "https://dc.lft.to/lastmile_qr_scan"}, "fusion_lat": 0.0}, {"lat": 38.90579783333333, "lon": -77.04725166666667, "is_disabled": 0, "fusion_lon": 0.0, "is_reserved": 0, "name": "c5a5b3b8b8c252471e3bcd7eb981f2fd", "type": "electric_bike", "bike_id": "c5a5b3b8b8c252471e3bcd7eb981f2fd", "rental_uris": {"ios": "https://dc.lft.to/lastmile_qr_scan", "android": "https://dc.lft.to/lastmile_qr_scan"}, "fusion_lat": 0.0}, {"lat": 38.90681516666667, "lon": -77.0320195, "is_disabled": 0, "fusion_lon": 0.0, "is_reserved": 0, "name": "c5255335a656f3f44ace1fd13a946299", "type": "electric_scooter", "bike_id": "c5255335a656f3f44ace1fd13a946299", "rental_uris": {"ios": "https://dc.lft.to/lastmile_qr_scan", "android": "https://dc.lft.to/lastmile_qr_scan"}, "fusion_lat": 0.0}, {"lat": 38.87648166666666, "lon": -77.00109966666666, "is_disabled": 0, "fusion_lon": 0.0, "is_reserved": 0, "name": "329214c61d93079dbee9d57c69c525a2", "type": "electric_scooter", "bike_id": "329214c61d93079dbee9d57c69c525a2", "rental_uris": {"ios": "https://dc.lft.to/lastmile_qr_scan", "android": "https://dc.lft.to/lastmile_qr_scan"}, "fusion_lat": 0.0}, {"lat": 38.90690133333333, "lon": -76.98503833333334, "is_disabled": 0, "fusion_lon": 0.0, "is_reserved": 0, "name": "ebde6a8b5f1b38bd578f9b7088e91eae", "type": "electric_scooter", "bike_id": "ebde6a8b5f1b38bd578f9b7088e91eae", "rental_uris": {"ios": "https://dc.lft.to/lastmile_qr_scan", "android": "https://dc.lft.to/lastmile_qr_scan"}, "fusion_lat": 0.0}, {"lat": 38.92972183333333, "lon": -77.0279605, "is_disabled": 0, "fusion_lon": 0.0, "is_reserved": 0, "name": "a74fc959c368ab45fdbad7aa4c621c49", "type": "electric_scooter", "bike_id": "a74fc959c368ab45fdbad7aa4c621c49", "rental_uris": {"ios": "https://dc.lft.to/lastmile_qr_scan", "android": "https://dc.lft.to/lastmile_qr_scan"}, "fusion_lat": 0.0}, {"lat": 38.911913, "lon": -77.03212016666667, "is_disabled": 0, "fusion_lon": 0.0, "is_reserved": 0, "name": "b4b11861de2170d14a24bb5433f7ca0b", "type": "electric_scooter", "bike_id": "b4b11861de2170d14a24bb5433f7ca0b", "rental_uris": {"ios": "https://dc.lft.to/lastmile_qr_scan", "android": "https://dc.lft.to/lastmile_qr_scan"}, "fusion_lat": 0.0}, {"lat": 38.9118615, "lon": -77.04824483333333, "is_disabled": 0, "fusion_lon": 0.0, "is_reserved": 0, "name": "99e469567af20da0e539bc9989b6ccb3", "type": "electric_scooter", "bike_id": "99e469567af20da0e539bc9989b6ccb3", "rental_uris": {"ios": "https://dc.lft.to/lastmile_qr_scan", "android": "https://dc.lft.to/lastmile_qr_scan"}, "fusion_lat": 0.0}, {"lat": 38.92122883333333, "lon": -77.0121245, "is_disabled": 0, "fusion_lon": 0.0, "is_reserved": 0, "name": "520c19a419974202743e1dbad9d2312a", "type": "electric_scooter", "bike_id": "520c19a419974202743e1dbad9d2312a", "rental_uris": {"ios": "https://dc.lft.to/lastmile_qr_scan", "android": "https://dc.lft.to/lastmile_qr_scan"}, "fusion_lat": 0.0}, {"lat": 38.83227633333333, "lon": -76.94615366666666, "is_disabled": 0, "fusion_lon": 0.0, "is_reserved": 0, "name": "0376aff1e41043b86c15a71080f0bc86", "type": "electric_bike", "bike_id": "0376aff1e41043b86c15a71080f0bc86", "rental_uris": {"ios": "https://dc.lft.to/lastmile_qr_scan", "android": "https://dc.lft.to/lastmile_qr_scan"}, "fusion_lat": 0.0}, {"lat": 38.908548833333334, "lon": -77.01970616666667, "is_disabled": 0, "fusion_lon": 0.0, "is_reserved": 0, "name": "907a3d8c8ae0e723f9cd311e6b47c9e5", "type": "electric_scooter", "bike_id": "907a3d8c8ae0e723f9cd311e6b47c9e5", "rental_uris": {"ios": "https://dc.lft.to/lastmile_qr_scan", "android": "https://dc.lft.to/lastmile_qr_scan"}, "fusion_lat": 0.0}, {"lat": 38.901663666666664, "lon": -76.98041316666666, "is_disabled": 0, "fusion_lon": 0.0, "is_reserved": 0, "name": "79bc001a8439aace18327666fc17e1d8", "type": "electric_scooter", "bike_id": "79bc001a8439aace18327666fc17e1d8", "rental_uris": {"ios": "https://dc.lft.to/lastmile_qr_scan", "android": "https://dc.lft.to/lastmile_qr_scan"}, "fusion_lat": 0.0}, {"lat": 38.87479733333333, "lon": -77.0060985, "is_disabled": 0, "fusion_lon": 0.0, "is_reserved": 0, "name": "d226c6a22f10c0a5396e2fd0ec056679", "type": "electric_scooter", "bike_id": "d226c6a22f10c0a5396e2fd0ec056679", "rental_uris": {"ios": "https://dc.lft.to/lastmile_qr_scan", "android": "https://dc.lft.to/lastmile_qr_scan"}, "fusion_lat": 0.0}, {"lat": 38.902684666666666, "lon": -77.032538, "is_disabled": 0, "fusion_lon": 0.0, "is_reserved": 0, "name": "a218774efbb2a79a7d278d03f1375c66", "type": "electric_scooter", "bike_id": "a218774efbb2a79a7d278d03f1375c66", "rental_uris": {"ios": "https://dc.lft.to/lastmile_qr_scan", "android": "https://dc.lft.to/lastmile_qr_scan"}, "fusion_lat": 0.0}, {"lat": 38.8977415, "lon": -76.984636, "is_disabled": 0, "fusion_lon": 0.0, "is_reserved": 0, "name": "1fa81ea5948266a83eed658c5315788f", "type": "electric_scooter", "bike_id": "1fa81ea5948266a83eed658c5315788f", "rental_uris": {"ios": "https://dc.lft.to/lastmile_qr_scan", "android": "https://dc.lft.to/lastmile_qr_scan"}, "fusion_lat": 0.0}, {"lat": 38.89801, "lon": -77.015353, "is_disabled": 0, "fusion_lon": 0.0, "is_reserved": 0, "name": "4460ee64f5d39a8637284e3cdad4fa93", "type": "electric_scooter", "bike_id": "4460ee64f5d39a8637284e3cdad4fa93", "rental_uris": {"ios": "https://dc.lft.to/lastmile_qr_scan", "android": "https://dc.lft.to/lastmile_qr_scan"}, "fusion_lat": 0.0}, {"lat": 38.92102366666667, "lon": -77.0250025, "is_disabled": 0, "fusion_lon": 0.0, "is_reserved": 0, "name": "00112bb7af40da58bc2353601b364f8f", "type": "electric_scooter", "bike_id": "00112bb7af40da58bc2353601b364f8f", "rental_uris": {"ios": "https://dc.lft.to/lastmile_qr_scan", "android": "https://dc.lft.to/lastmile_qr_scan"}, "fusion_lat": 0.0}, {"lat": 38.87658583333333, "lon": -76.994596, "is_disabled": 0, "fusion_lon": 0.0, "is_reserved": 0, "name": "308eff98afa35a4d65e8059a1220994b", "type": "electric_scooter", "bike_id": "308eff98afa35a4d65e8059a1220994b", "rental_uris": {"ios": "https://dc.lft.to/lastmile_qr_scan", "android": "https://dc.lft.to/lastmile_qr_scan"}, "fusion_lat": 0.0}, {"lat": 39.03429533333333, "lon": -77.04303616666667, "is_disabled": 0, "fusion_lon": 0.0, "is_reserved": 0, "name": "bf0c3a411e043b0dfdf15b2837eea8d6", "type": "electric_bike", "bike_id": "bf0c3a411e043b0dfdf15b2837eea8d6", "rental_uris": {"ios": "https://dc.lft.to/lastmile_qr_scan", "android": "https://dc.lft.to/lastmile_qr_scan"}, "fusion_lat": 0.0}, {"lat": 38.904258666666664, "lon": -77.02774466666666, "is_disabled": 0, "fusion_lon": 0.0, "is_reserved": 0, "name": "fe5e6406c8feace665188327d85b5310", "type": "electric_scooter", "bike_id": "fe5e6406c8feace665188327d85b5310", "rental_uris": {"ios": "https://dc.lft.to/lastmile_qr_scan", "android": "https://dc.lft.to/lastmile_qr_scan"}, "fusion_lat": 0.0}, {"lat": 38.91403616666667, "lon": -77.03219066666666, "is_disabled": 0, "fusion_lon": 0.0, "is_reserved": 0, "name": "88deb5ddbf67127b9dccaccad08ee9d3", "type": "electric_scooter", "bike_id": "88deb5ddbf67127b9dccaccad08ee9d3", "rental_uris": {"ios": "https://dc.lft.to/lastmile_qr_scan", "android": "https://dc.lft.to/lastmile_qr_scan"}, "fusion_lat": 0.0}, {"lat": 38.9276955, "lon": -77.02782883333333, "is_disabled": 0, "fusion_lon": 0.0, "is_reserved": 0, "name": "b79c3ba992548431ca48e34f69e40d30", "type": "electric_scooter", "bike_id": "b79c3ba992548431ca48e34f69e40d30", "rental_uris": {"ios": "https://dc.lft.to/lastmile_qr_scan", "android": "https://dc.lft.to/lastmile_qr_scan"}, "fusion_lat": 0.0}, {"lat": 38.923919, "lon": -77.03050516666667, "is_disabled": 0, "fusion_lon": 0.0, "is_reserved": 0, "name": "99e7a396dfca44d2d15b2dd484e204d9", "type": "electric_scooter", "bike_id": "99e7a396dfca44d2d15b2dd484e204d9", "rental_uris": {"ios": "https://dc.lft.to/lastmile_qr_scan", "android": "https://dc.lft.to/lastmile_qr_scan"}, "fusion_lat": 0.0}, {"lat": 38.923905500000004, "lon": -77.02740383333334, "is_disabled": 0, "fusion_lon": 0.0, "is_reserved": 0, "name": "43e78b78a7967640a144e4cafe0f93dc", "type": "electric_scooter", "bike_id": "43e78b78a7967640a144e4cafe0f93dc", "rental_uris": {"ios": "https://dc.lft.to/lastmile_qr_scan", "android": "https://dc.lft.to/lastmile_qr_scan"}, "fusion_lat": 0.0}, {"lat": 38.922838166666665, "lon": -77.03660066666667, "is_disabled": 0, "fusion_lon": 0.0, "is_reserved": 0, "name": "22c6acae066189b7dc405d387114542d", "type": "electric_scooter", "bike_id": "22c6acae066189b7dc405d387114542d", "rental_uris": {"ios": "https://dc.lft.to/lastmile_qr_scan", "android": "https://dc.lft.to/lastmile_qr_scan"}, "fusion_lat": 0.0}, {"lat": 38.920652833333335, "lon": -77.04222933333334, "is_disabled": 0, "fusion_lon": 0.0, "is_reserved": 0, "name": "7fe10bb7803268ca5b8d11ea1814f125", "type": "electric_scooter", "bike_id": "7fe10bb7803268ca5b8d11ea1814f125", "rental_uris": {"ios": "https://dc.lft.to/lastmile_qr_scan", "android": "https://dc.lft.to/lastmile_qr_scan"}, "fusion_lat": 0.0}, {"lat": 38.853348833333335, "lon": -77.1150525, "is_disabled": 0, "fusion_lon": 0.0, "is_reserved": 0, "name": "9facad55e52f863e53c96f7172ab71a6", "type": "electric_bike", "bike_id": "9facad55e52f863e53c96f7172ab71a6", "rental_uris": {"ios": "https://dc.lft.to/lastmile_qr_scan", "android": "https://dc.lft.to/lastmile_qr_scan"}, "fusion_lat": 0.0}, {"lat": 38.92288466666667, "lon": -77.03659383333333, "is_disabled": 0, "fusion_lon": 0.0, "is_reserved": 0, "name": "8ccc2385bab67bfdc9fafb51ea5a47b3", "type": "electric_scooter", "bike_id": "8ccc2385bab67bfdc9fafb51ea5a47b3", "rental_uris": {"ios": "https://dc.lft.to/lastmile_qr_scan", "android": "https://dc.lft.to/lastmile_qr_scan"}, "fusion_lat": 0.0}, {"lat": 38.94321583333333, "lon": -77.06137283333334, "is_disabled": 0, "fusion_lon": 0.0, "is_reserved": 0, "name": "abfae7d8812622cd7151a86174304756", "type": "electric_scooter", "bike_id": "abfae7d8812622cd7151a86174304756", "rental_uris": {"ios": "https://dc.lft.to/lastmile_qr_scan", "android": "https://dc.lft.to/lastmile_qr_scan"}, "fusion_lat": 0.0}, {"lat": 38.92126533333333, "lon": -77.04578116666667, "is_disabled": 0, "fusion_lon": 0.0, "is_reserved": 0, "name": "0bef89477b2443148fdc58dc2d7f9496", "type": "electric_scooter", "bike_id": "0bef89477b2443148fdc58dc2d7f9496", "rental_uris": {"ios": "https://dc.lft.to/lastmile_qr_scan", "android": "https://dc.lft.to/lastmile_qr_scan"}, "fusion_lat": 0.0}, {"lat": 38.923324, "lon": -77.022877, "is_disabled": 0, "fusion_lon": 0.0, "is_reserved": 0, "name": "034ab710124553760e8bb239a55177df", "type": "electric_scooter", "bike_id": "034ab710124553760e8bb239a55177df", "rental_uris": {"ios": "https://dc.lft.to/lastmile_qr_scan", "android": "https://dc.lft.to/lastmile_qr_scan"}, "fusion_lat": 0.0}, {"lat": 38.860606833333335, "lon": -76.9671495, "is_disabled": 0, "fusion_lon": 0.0, "is_reserved": 0, "name": "58a949c9e9f68af2d49a19d1d98d7685", "type": "electric_scooter", "bike_id": "58a949c9e9f68af2d49a19d1d98d7685", "rental_uris": {"ios": "https://dc.lft.to/lastmile_qr_scan", "android": "https://dc.lft.to/lastmile_qr_scan"}, "fusion_lat": 0.0}, {"lat": 38.9098495, "lon": -77.022154, "is_disabled": 0, "fusion_lon": 0.0, "is_reserved": 0, "name": "97c8701500ec03c7036ad0d45122b96b", "type": "electric_scooter", "bike_id": "97c8701500ec03c7036ad0d45122b96b", "rental_uris": {"ios": "https://dc.lft.to/lastmile_qr_scan", "android": "https://dc.lft.to/lastmile_qr_scan"}, "fusion_lat": 0.0}, {"lat": 38.91408333333333, "lon": -77.0321795, "is_disabled": 0, "fusion_lon": 0.0, "is_reserved": 0, "name": "7bd214605dc5b10ff56d198b5c8a60fe", "type": "electric_scooter", "bike_id": "7bd214605dc5b10ff56d198b5c8a60fe", "rental_uris": {"ios": "https://dc.lft.to/lastmile_qr_scan", "android": "https://dc.lft.to/lastmile_qr_scan"}, "fusion_lat": 0.0}, {"lat": 38.9191465, "lon": -77.02732283333333, "is_disabled": 0, "fusion_lon": 0.0, "is_reserved": 0, "name": "2667ce3d23440161b6f417309af60ceb", "type": "electric_scooter", "bike_id": "2667ce3d23440161b6f417309af60ceb", "rental_uris": {"ios": "https://dc.lft.to/lastmile_qr_scan", "android": "https://dc.lft.to/lastmile_qr_scan"}, "fusion_lat": 0.0}, {"lat": 38.8689285, "lon": -76.9900495, "is_disabled": 0, "fusion_lon": 0.0, "is_reserved": 0, "name": "2ab0967b3c887e62457b5a775b55c00c", "type": "electric_scooter", "bike_id": "2ab0967b3c887e62457b5a775b55c00c", "rental_uris": {"ios": "https://dc.lft.to/lastmile_qr_scan", "android": "https://dc.lft.to/lastmile_qr_scan"}, "fusion_lat": 0.0}, {"lat": 38.899899833333336, "lon": -77.055607, "is_disabled": 0, "fusion_lon": 0.0, "is_reserved": 0, "name": "af6b793a65283149a20d0f67bd8d4606", "type": "electric_scooter", "bike_id": "af6b793a65283149a20d0f67bd8d4606", "rental_uris": {"ios": "https://dc.lft.to/lastmile_qr_scan", "android": "https://dc.lft.to/lastmile_qr_scan"}, "fusion_lat": 0.0}, {"lat": 38.95057283333333, "lon": -77.080313, "is_disabled": 0, "fusion_lon": 0.0, "is_reserved": 0, "name": "1c285c7998548249e25c507d8c580dce", "type": "electric_scooter", "bike_id": "1c285c7998548249e25c507d8c580dce", "rental_uris": {"ios": "https://dc.lft.to/lastmile_qr_scan", "android": "https://dc.lft.to/lastmile_qr_scan"}, "fusion_lat": 0.0}, {"lat": 38.91730166666667, "lon": -77.02584733333333, "is_disabled": 0, "fusion_lon": 0.0, "is_reserved": 0, "name": "c0aa86b6981d081e0a5adf0add9fd2a0", "type": "electric_scooter", "bike_id": "c0aa86b6981d081e0a5adf0add9fd2a0", "rental_uris": {"ios": "https://dc.lft.to/lastmile_qr_scan", "android": "https://dc.lft.to/lastmile_qr_scan"}, "fusion_lat": 0.0}, {"lat": 38.9344575, "lon": -77.09058733333333, "is_disabled": 0, "fusion_lon": 0.0, "is_reserved": 0, "name": "ac8fcbcb793c9ec00b75c365e33a133b", "type": "electric_scooter", "bike_id": "ac8fcbcb793c9ec00b75c365e33a133b", "rental_uris": {"ios": "https://dc.lft.to/lastmile_qr_scan", "android": "https://dc.lft.to/lastmile_qr_scan"}, "fusion_lat": 0.0}, {"lat": 38.8757695, "lon": -77.234135, "is_disabled": 0, "fusion_lon": 0.0, "is_reserved": 0, "name": "0f4a1fb45472f759d5dd45ede66e6b6f", "type": "electric_bike", "bike_id": "0f4a1fb45472f759d5dd45ede66e6b6f", "rental_uris": {"ios": "https://dc.lft.to/lastmile_qr_scan", "android": "https://dc.lft.to/lastmile_qr_scan"}, "fusion_lat": 0.0}, {"lat": 38.914184, "lon": -77.00871983333333, "is_disabled": 0, "fusion_lon": 0.0, "is_reserved": 0, "name": "2b23dcee9323f77dcbf917ff444f1b18", "type": "electric_scooter", "bike_id": "2b23dcee9323f77dcbf917ff444f1b18", "rental_uris": {"ios": "https://dc.lft.to/lastmile_qr_scan", "android": "https://dc.lft.to/lastmile_qr_scan"}, "fusion_lat": 0.0}, {"lat": 38.907213, "lon": -77.02675766666667, "is_disabled": 0, "fusion_lon": 0.0, "is_reserved": 0, "name": "04d148e3b9cee7ee937c40723cc9c3dd", "type": "electric_scooter", "bike_id": "04d148e3b9cee7ee937c40723cc9c3dd", "rental_uris": {"ios": "https://dc.lft.to/lastmile_qr_scan", "android": "https://dc.lft.to/lastmile_qr_scan"}, "fusion_lat": 0.0}, {"lat": 38.905875333333334, "lon": -77.00880033333334, "is_disabled": 0, "fusion_lon": 0.0, "is_reserved": 0, "name": "22235bff72f1e5924d6554b2882630d9", "type": "electric_scooter", "bike_id": "22235bff72f1e5924d6554b2882630d9", "rental_uris": {"ios": "https://dc.lft.to/lastmile_qr_scan", "android": "https://dc.lft.to/lastmile_qr_scan"}, "fusion_lat": 0.0}, {"lat": 38.899814166666665, "lon": -77.02710266666666, "is_disabled": 0, "fusion_lon": 0.0, "is_reserved": 0, "name": "cbe9370fbd0bd6bd5298f2c14e186bb4", "type": "electric_scooter", "bike_id": "cbe9370fbd0bd6bd5298f2c14e186bb4", "rental_uris": {"ios": "https://dc.lft.to/lastmile_qr_scan", "android": "https://dc.lft.to/lastmile_qr_scan"}, "fusion_lat": 0.0}, {"lat": 38.91802166666667, "lon": -77.02488316666667, "is_disabled": 0, "fusion_lon": 0.0, "is_reserved": 0, "name": "743ed4d152cc47ec8e661247e752854b", "type": "electric_scooter", "bike_id": "743ed4d152cc47ec8e661247e752854b", "rental_uris": {"ios": "https://dc.lft.to/lastmile_qr_scan", "android": "https://dc.lft.to/lastmile_qr_scan"}, "fusion_lat": 0.0}, {"lat": 38.90039266666667, "lon": -76.99831666666667, "is_disabled": 0, "fusion_lon": 0.0, "is_reserved": 0, "name": "2e4921d70ad8e28272ec309b9521b35a", "type": "electric_scooter", "bike_id": "2e4921d70ad8e28272ec309b9521b35a", "rental_uris": {"ios": "https://dc.lft.to/lastmile_qr_scan", "android": "https://dc.lft.to/lastmile_qr_scan"}, "fusion_lat": 0.0}, {"lat": 38.911826166666664, "lon": -77.034979, "is_disabled": 0, "fusion_lon": 0.0, "is_reserved": 0, "name": "98d8ea5dc387b780ec11a5a1894347c9", "type": "electric_scooter", "bike_id": "98d8ea5dc387b780ec11a5a1894347c9", "rental_uris": {"ios": "https://dc.lft.to/lastmile_qr_scan", "android": "https://dc.lft.to/lastmile_qr_scan"}, "fusion_lat": 0.0}, {"lat": 38.928746333333336, "lon": -77.03461483333334, "is_disabled": 0, "fusion_lon": 0.0, "is_reserved": 0, "name": "f3547a84b471d3f755c49b974beb070e", "type": "electric_scooter", "bike_id": "f3547a84b471d3f755c49b974beb070e", "rental_uris": {"ios": "https://dc.lft.to/lastmile_qr_scan", "android": "https://dc.lft.to/lastmile_qr_scan"}, "fusion_lat": 0.0}, {"lat": 38.89915966666667, "lon": -76.94557283333333, "is_disabled": 0, "fusion_lon": 0.0, "is_reserved": 0, "name": "cb97c75440b2340ad3e309cb144c66fe", "type": "electric_scooter", "bike_id": "cb97c75440b2340ad3e309cb144c66fe", "rental_uris": {"ios": "https://dc.lft.to/lastmile_qr_scan", "android": "https://dc.lft.to/lastmile_qr_scan"}, "fusion_lat": 0.0}, {"lat": 38.91518333333333, "lon": -77.048679, "is_disabled": 0, "fusion_lon": 0.0, "is_reserved": 0, "name": "2e0cfc5a918bebdded68191adccfd3b2", "type": "electric_scooter", "bike_id": "2e0cfc5a918bebdded68191adccfd3b2", "rental_uris": {"ios": "https://dc.lft.to/lastmile_qr_scan", "android": "https://dc.lft.to/lastmile_qr_scan"}, "fusion_lat": 0.0}, {"lat": 38.899028, "lon": -76.99958683333334, "is_disabled": 0, "fusion_lon": 0.0, "is_reserved": 0, "name": "e545ed736579a02c470cfaf2d3bf3100", "type": "electric_scooter", "bike_id": "e545ed736579a02c470cfaf2d3bf3100", "rental_uris": {"ios": "https://dc.lft.to/lastmile_qr_scan", "android": "https://dc.lft.to/lastmile_qr_scan"}, "fusion_lat": 0.0}, {"lat": 38.92589616666667, "lon": -77.09690166666667, "is_disabled": 0, "fusion_lon": 0.0, "is_reserved": 0, "name": "46cfa79a815fb525ce4e098473f9cbc0", "type": "electric_scooter", "bike_id": "46cfa79a815fb525ce4e098473f9cbc0", "rental_uris": {"ios": "https://dc.lft.to/lastmile_qr_scan", "android": "https://dc.lft.to/lastmile_qr_scan"}, "fusion_lat": 0.0}, {"lat": 38.89689883333333, "lon": -76.937162, "is_disabled": 0, "fusion_lon": 0.0, "is_reserved": 0, "name": "d81b763c3d2df853af24b3f296b903be", "type": "electric_scooter", "bike_id": "d81b763c3d2df853af24b3f296b903be", "rental_uris": {"ios": "https://dc.lft.to/lastmile_qr_scan", "android": "https://dc.lft.to/lastmile_qr_scan"}, "fusion_lat": 0.0}, {"lat": 38.90572516666667, "lon": -77.03459016666666, "is_disabled": 0, "fusion_lon": 0.0, "is_reserved": 0, "name": "201dcb4aecb27a3f197e0ddcc8ea5bee", "type": "electric_scooter", "bike_id": "201dcb4aecb27a3f197e0ddcc8ea5bee", "rental_uris": {"ios": "https://dc.lft.to/lastmile_qr_scan", "android": "https://dc.lft.to/lastmile_qr_scan"}, "fusion_lat": 0.0}, {"lat": 38.9247805, "lon": -77.03557666666667, "is_disabled": 0, "fusion_lon": 0.0, "is_reserved": 0, "name": "b3b2eb23b426363cf444f476946200db", "type": "electric_scooter", "bike_id": "b3b2eb23b426363cf444f476946200db", "rental_uris": {"ios": "https://dc.lft.to/lastmile_qr_scan", "android": "https://dc.lft.to/lastmile_qr_scan"}, "fusion_lat": 0.0}, {"lat": 38.89868716666667, "lon": -77.02186066666667, "is_disabled": 0, "fusion_lon": 0.0, "is_reserved": 0, "name": "7d10cd4a8ebb77868ca28c94268186a9", "type": "electric_scooter", "bike_id": "7d10cd4a8ebb77868ca28c94268186a9", "rental_uris": {"ios": "https://dc.lft.to/lastmile_qr_scan", "android": "https://dc.lft.to/lastmile_qr_scan"}, "fusion_lat": 0.0}, {"lat": 38.926020666666666, "lon": -77.03540766666667, "is_disabled": 0, "fusion_lon": 0.0, "is_reserved": 0, "name": "edef31e9d79ee7af3a243a53b76e1d0b", "type": "electric_scooter", "bike_id": "edef31e9d79ee7af3a243a53b76e1d0b", "rental_uris": {"ios": "https://dc.lft.to/lastmile_qr_scan", "android": "https://dc.lft.to/lastmile_qr_scan"}, "fusion_lat": 0.0}, {"lat": 38.900171666666665, "lon": -76.99746766666667, "is_disabled": 0, "fusion_lon": 0.0, "is_reserved": 0, "name": "4d137a4186eb1926a7119c92c7245227", "type": "electric_scooter", "bike_id": "4d137a4186eb1926a7119c92c7245227", "rental_uris": {"ios": "https://dc.lft.to/lastmile_qr_scan", "android": "https://dc.lft.to/lastmile_qr_scan"}, "fusion_lat": 0.0}, {"lat": 38.9171755, "lon": -77.01223116666667, "is_disabled": 0, "fusion_lon": 0.0, "is_reserved": 0, "name": "dd06c2cca4d5cb53fb72c9e4a75b7ac7", "type": "electric_scooter", "bike_id": "dd06c2cca4d5cb53fb72c9e4a75b7ac7", "rental_uris": {"ios": "https://dc.lft.to/lastmile_qr_scan", "android": "https://dc.lft.to/lastmile_qr_scan"}, "fusion_lat": 0.0}, {"lat": 38.914191, "lon": -77.02096816666666, "is_disabled": 0, "fusion_lon": 0.0, "is_reserved": 0, "name": "8f058785f11000e35cd725bdaf5c7eda", "type": "electric_scooter", "bike_id": "8f058785f11000e35cd725bdaf5c7eda", "rental_uris": {"ios": "https://dc.lft.to/lastmile_qr_scan", "android": "https://dc.lft.to/lastmile_qr_scan"}, "fusion_lat": 0.0}, {"lat": 38.91485083333333, "lon": -77.04606133333333, "is_disabled": 0, "fusion_lon": 0.0, "is_reserved": 0, "name": "8ac8a697d856c15b06a2f48998a68292", "type": "electric_scooter", "bike_id": "8ac8a697d856c15b06a2f48998a68292", "rental_uris": {"ios": "https://dc.lft.to/lastmile_qr_scan", "android": "https://dc.lft.to/lastmile_qr_scan"}, "fusion_lat": 0.0}, {"lat": 38.926727666666665, "lon": -77.02124766666667, "is_disabled": 0, "fusion_lon": 0.0, "is_reserved": 0, "name": "53af752174bc1ab1d99de0bf106f968e", "type": "electric_scooter", "bike_id": "53af752174bc1ab1d99de0bf106f968e", "rental_uris": {"ios": "https://dc.lft.to/lastmile_qr_scan", "android": "https://dc.lft.to/lastmile_qr_scan"}, "fusion_lat": 0.0}, {"lat": 38.91541266666667, "lon": -77.03848583333334, "is_disabled": 0, "fusion_lon": 0.0, "is_reserved": 0, "name": "e1140f006d2931d7d46aa8ca9411f325", "type": "electric_scooter", "bike_id": "e1140f006d2931d7d46aa8ca9411f325", "rental_uris": {"ios": "https://dc.lft.to/lastmile_qr_scan", "android": "https://dc.lft.to/lastmile_qr_scan"}, "fusion_lat": 0.0}, {"lat": 38.93084966666667, "lon": -77.028059, "is_disabled": 0, "fusion_lon": 0.0, "is_reserved": 0, "name": "eae6afab44edf709567a5b94a0d648c5", "type": "electric_scooter", "bike_id": "eae6afab44edf709567a5b94a0d648c5", "rental_uris": {"ios": "https://dc.lft.to/lastmile_qr_scan", "android": "https://dc.lft.to/lastmile_qr_scan"}, "fusion_lat": 0.0}, {"lat": 38.92210816666667, "lon": -77.0418885, "is_disabled": 0, "fusion_lon": 0.0, "is_reserved": 0, "name": "7f4f207401258b562f678027e975e713", "type": "electric_scooter", "bike_id": "7f4f207401258b562f678027e975e713", "rental_uris": {"ios": "https://dc.lft.to/lastmile_qr_scan", "android": "https://dc.lft.to/lastmile_qr_scan"}, "fusion_lat": 0.0}, {"lat": 38.891645, "lon": -76.99489416666667, "is_disabled": 0, "fusion_lon": 0.0, "is_reserved": 0, "name": "b281e2025241d82ebbdbe02be8241633", "type": "electric_scooter", "bike_id": "b281e2025241d82ebbdbe02be8241633", "rental_uris": {"ios": "https://dc.lft.to/lastmile_qr_scan", "android": "https://dc.lft.to/lastmile_qr_scan"}, "fusion_lat": 0.0}, {"lat": 38.87306516666666, "lon": -77.00147033333333, "is_disabled": 0, "fusion_lon": 0.0, "is_reserved": 0, "name": "e9cdb204c900c53fb84d1eec15974434", "type": "electric_scooter", "bike_id": "e9cdb204c900c53fb84d1eec15974434", "rental_uris": {"ios": "https://dc.lft.to/lastmile_qr_scan", "android": "https://dc.lft.to/lastmile_qr_scan"}, "fusion_lat": 0.0}, {"lat": 38.936098666666666, "lon": -77.03548233333333, "is_disabled": 0, "fusion_lon": 0.0, "is_reserved": 0, "name": "1ad2356cdb65a6c53b67bc30bd4e3c49", "type": "electric_bike", "bike_id": "1ad2356cdb65a6c53b67bc30bd4e3c49", "rental_uris": {"ios": "https://dc.lft.to/lastmile_qr_scan", "android": "https://dc.lft.to/lastmile_qr_scan"}, "fusion_lat": 0.0}, {"lat": 38.921477833333334, "lon": -77.01816266666667, "is_disabled": 0, "fusion_lon": 0.0, "is_reserved": 0, "name": "4b3cf21a9823e02001bba833830d1fe4", "type": "electric_scooter", "bike_id": "4b3cf21a9823e02001bba833830d1fe4", "rental_uris": {"ios": "https://dc.lft.to/lastmile_qr_scan", "android": "https://dc.lft.to/lastmile_qr_scan"}, "fusion_lat": 0.0}, {"lat": 38.910464166666664, "lon": -77.03440483333334, "is_disabled": 0, "fusion_lon": 0.0, "is_reserved": 0, "name": "424367a3e31c444f038dfc8603c67ba4", "type": "electric_scooter", "bike_id": "424367a3e31c444f038dfc8603c67ba4", "rental_uris": {"ios": "https://dc.lft.to/lastmile_qr_scan", "android": "https://dc.lft.to/lastmile_qr_scan"}, "fusion_lat": 0.0},