{"data": {"bikes": [{"fusion_lat": 0.0, "lon": -77.01664616666666, "is_reserved": 0, "bike_id": "29c3b5246c6296bcd74a36164cf79bd2", "fusion_lon": 0.0, "rental_uris": {"android": "https://dc.lft.to/lastmile_qr_scan", "ios": "https://dc.lft.to/lastmile_qr_scan"}, "name": "29c3b5246c6296bcd74a36164cf79bd2", "type": "electric_scooter", "lat": 38.881308, "is_disabled": 0}, {"fusion_lat": 0.0, "lon": -77.027222, "is_reserved": 0, "bike_id": "c6f40ba306ef6ddd950a59ca4d97ede3", "fusion_lon": 0.0, "rental_uris": {"android": "https://dc.lft.to/lastmile_qr_scan", "ios": "https://dc.lft.to/lastmile_qr_scan"}, "name": "c6f40ba306ef6ddd950a59ca4d97ede3", "type": "electric_scooter", "lat": 38.897369, "is_disabled": 0}, {"fusion_lat": 0.0, "lon": -76.99934633333334, "is_reserved": 0, "bike_id": "884b9e5e9e982a12e5317856b8779e46", "fusion_lon": 0.0, "rental_uris": {"android": "https://dc.lft.to/lastmile_qr_scan", "ios": "https://dc.lft.to/lastmile_qr_scan"}, "name": "884b9e5e9e982a12e5317856b8779e46", "type": "electric_scooter", "lat": 38.84300916666667, "is_disabled": 0}, {"fusion_lat": 0.0, "lon": -76.97205633333333, "is_reserved": 0, "bike_id": "72095fdbfe96c58f47e5632ac4d7d51e", "fusion_lon": 0.0, "rental_uris": {"android": "https://dc.lft.to/lastmile_qr_scan", "ios": "https://dc.lft.to/lastmile_qr_scan"}, "name": "72095fdbfe96c58f47e5632ac4d7d51e", "type": "electric_bike", "lat": 38.89293283333333, "is_disabled": 0}, {"fusion_lat": 0.0, "lon": -76.99902983333334, "is_reserved": 0, "bike_id": "439e93482338019afcb738ffea7e5746", "fusion_lon": 0.0, "rental_uris": {"android": "https://dc.lft.to/lastmile_qr_scan", "ios": "https://dc.lft.to/lastmile_qr_scan"}, "name": "439e93482338019afcb738ffea7e5746", "type": "electric_scooter", "lat": 38.9481885, "is_disabled": 0}, {"fusion_lat": 0.0, "lon": -77.139276, "is_reserved": 0, "bike_id": "33105bcde5ef70de391e959f382fbd02", "fusion_lon": 0.0, "rental_uris": {"android": "https://dc.lft.to/lastmile_qr_scan", "ios": "https://dc.lft.to/lastmile_qr_scan"}, "name": "33105bcde5ef70de391e959f382fbd02", "type": "electric_bike", "lat": 38.8730055, "is_disabled": 0}, {"fusion_lat": 0.0, "lon": -77.0422255, "is_reserved": 0, "bike_id": "3f4a3a67580a49de683fcae284e41fb8", "fusion_lon": 0.0, "rental_uris": {"android": "https://dc.lft.to/lastmile_qr_scan", "ios": "https://dc.lft.to/lastmile_qr_scan"}, "name": "3f4a3a67580a49de683fcae284e41fb8", "type": "electric_scooter", "lat": 38.92276183333333, "is_disabled": 0}, {"fusion_lat": 0.0, "lon": -77.03455016666666, "is_reserved": 0, "bike_id": "e61f2b30f74cf68636281e85148c4935", "fusion_lon": 0.0, "rental_uris": {"android": "https://dc.lft.to/lastmile_qr_scan", "ios": "https://dc.lft.to/lastmile_qr_scan"}, "name": "e61f2b30f74cf68636281e85148c4935", "type": "electric_scooter", "lat": 38.90563383333333, "is_disabled": 0}, {"fusion_lat": 0.0, "lon": -76.93076766666667, "is_reserved": 0, "bike_id": "fad75626bb3df410007ca425d6826522", "fusion_lon": 0.0, "rental_uris": {"android": "https://dc.lft.to/lastmile_qr_scan", "ios": "https://dc.lft.to/lastmile_qr_scan"}, "name": "fad75626bb3df410007ca425d6826522", "type": "electric_scooter", "lat": 38.90167733333333, "is_disabled": 0}, {"fusion_lat": 0.0, "lon": -77.02160966666666, "is_reserved": 0, "bike_id": "e4feac730b5b143d91362945506ed1d3", "fusion_lon": 0.0, "rental_uris": {"android": "https://dc.lft.to/lastmile_qr_scan", "ios": "https://dc.lft.to/lastmile_qr_scan"}, "name": "e4feac730b5b143d91362945506ed1d3", "type": "electric_scooter", "lat": 38.9261645, "is_disabled": 0}, {"fusion_lat": 0.0, "lon": -77.036945, "is_reserved": 0, "bike_id": "f95168184d423d70f60d09248eeb1dcc", "fusion_lon": 0.0, "rental_uris": {"android": "https://dc.lft.to/lastmile_qr_scan", "ios": "https://dc.lft.to/lastmile_qr_scan"}, "name": "f95168184d423d70f60d09248eeb1dcc", "type": "electric_scooter", "lat": 38.92618266666667, "is_disabled": 0}, {"fusion_lat": 0.0, "lon": -77.02129683333334, "is_reserved": 0, "bike_id": "29c9b6017e86657e14b6771b83241bf1", "fusion_lon": 0.0, "rental_uris": {"android": "https://dc.lft.to/lastmile_qr_scan", "ios": "https://dc.lft.to/lastmile_qr_scan"}, "name": "29c9b6017e86657e14b6771b83241bf1", "type": "electric_scooter", "lat": 38.89641483333333, "is_disabled": 0}, {"fusion_lat": 0.0, "lon": -77.12734, "is_reserved": 0, "bike_id": "e9d383c7a53594a0a245a718ed033039", "fusion_lon": 0.0, "rental_uris": {"android": "https://dc.lft.to/lastmile_qr_scan", "ios": "https://dc.lft.to/lastmile_qr_scan"}, "name": "e9d383c7a53594a0a245a718ed033039", "type": "electric_bike", "lat": 38.8956525, "is_disabled": 0}, {"fusion_lat": 0.0, "lon": -77.0424265, "is_reserved": 0, "bike_id": "4069014fae02a070b16d05469481c30b", "fusion_lon": 0.0, "rental_uris": {"android": "https://dc.lft.to/lastmile_qr_scan", "ios": "https://dc.lft.to/lastmile_qr_scan"}, "name": "4069014fae02a070b16d05469481c30b", "type": "electric_scooter", "lat": 38.92186683333333, "is_disabled": 0}, {"fusion_lat": 0.0, "lon": -76.99478866666666, "is_reserved": 0, "bike_id": "da6122104ac170d8be102d532b113db2", "fusion_lon": 0.0, "rental_uris": {"android": "https://dc.lft.to/lastmile_qr_scan", "ios": "https://dc.lft.to/lastmile_qr_scan"}, "name": "da6122104ac170d8be102d532b113db2", "type": "electric_scooter", "lat": 38.86217116666667, "is_disabled": 0}, {"fusion_lat": 0.0, "lon": -77.04403616666667, "is_reserved": 0, "bike_id": "fe0cf900f663d8e28cb2f655a5f82bb4", "fusion_lon": 0.0, "rental_uris": {"android": "https://dc.lft.to/lastmile_qr_scan", "ios": "https://dc.lft.to/lastmile_qr_scan"}, "name": "fe0cf900f663d8e28cb2f655a5f82bb4", "type": "electric_scooter", "lat": 38.9022305, "is_disabled": 0}, {"fusion_lat": 0.0, "lon": -76.98530683333334, "is_reserved": 0, "bike_id": "b0316afded6e4a8d66bd2eb74844ea71", "fusion_lon": 0.0, "rental_uris": {"android": "https://dc.lft.to/lastmile_qr_scan", "ios": "https://dc.lft.to/lastmile_qr_scan"}, "name": "b0316afded6e4a8d66bd2eb74844ea71", "type": "electric_scooter", "lat": 38.85363316666667, "is_disabled": 0}, {"fusion_lat": 0.0, "lon": -77.04309616666667, "is_reserved": 0, "bike_id": "851e464c954bddcccb614185a36e688a", "fusion_lon": 0.0, "rental_uris": {"android": "https://dc.lft.to/lastmile_qr_scan", "ios": "https://dc.lft.to/lastmile_qr_scan"}, "name": "851e464c954bddcccb614185a36e688a", "type": "electric_scooter", "lat": 38.9188225, "is_disabled": 0}, {"fusion_lat": 0.0, "lon": -77.00891266666666, "is_reserved": 0, "bike_id": "ef37d845d113ab7bf3f8cd32f064b7c0", "fusion_lon": 0.0, "rental_uris": {"android": "https://dc.lft.to/lastmile_qr_scan", "ios": "https://dc.lft.to/lastmile_qr_scan"}, "name": "ef37d845d113ab7bf3f8cd32f064b7c0", "type": "electric_scooter", "lat": 38.92278616666667, "is_disabled": 0}, {"fusion_lat": 0.0, "lon": -76.93758233333334, "is_reserved": 0, "bike_id": "169016971cc4892734a68bd078934b5b", "fusion_lon": 0.0, "rental_uris": {"android": "https://dc.lft.to/lastmile_qr_scan", "ios": "https://dc.lft.to/lastmile_qr_scan"}, "name": "169016971cc4892734a68bd078934b5b", "type": "electric_scooter", "lat": 38.89045516666667, "is_disabled": 0}, {"fusion_lat": 0.0, "lon": -77.04619683333334, "is_reserved": 0, "bike_id": "3ce08376d1be02ce700918a44dfbcf65", "fusion_lon": 0.0, "rental_uris": {"android": "https://dc.lft.to/lastmile_qr_scan", "ios": "https://dc.lft.to/lastmile_qr_scan"}, "name": "3ce08376d1be02ce700918a44dfbcf65", "type": "electric_scooter", "lat": 38.9231485, "is_disabled": 0}, {"fusion_lat": 0.0, "lon": -76.9730115, "is_reserved": 0, "bike_id": "f696af4dfa8c7500353e3014bc06eb67", "fusion_lon": 0.0, "rental_uris": {"android": "https://dc.lft.to/lastmile_qr_scan", "ios": "https://dc.lft.to/lastmile_qr_scan"}, "name": "f696af4dfa8c7500353e3014bc06eb67", "type": "electric_bike", "lat": 38.9164915, "is_disabled": 0}, {"fusion_lat": 0.0, "lon": -77.02890516666666, "is_reserved": 0, "bike_id": "5ba77f194c5ffa2249f3bdb630b03795", "fusion_lon": 0.0, "rental_uris": {"android": "https://dc.lft.to/lastmile_qr_scan", "ios": "https://dc.lft.to/lastmile_qr_scan"}, "name": "5ba77f194c5ffa2249f3bdb630b03795", "type": "electric_scooter", "lat": 38.9048385, "is_disabled": 0}, {"fusion_lat": 0.0, "lon": -77.23329933333333, "is_reserved": 0, "bike_id": "d38e2e4c526041c979681f61c9aafca9", "fusion_lon": 0.0, "rental_uris": {"android": "https://dc.lft.to/lastmile_qr_scan", "ios": "https://dc.lft.to/lastmile_qr_scan"}, "name": "d38e2e4c526041c979681f61c9aafca9", "type": "electric_bike", "lat": 38.872764833333335, "is_disabled": 0}, {"fusion_lat": 0.0, "lon": -77.04872666666667, "is_reserved": 0, "bike_id": "5b27a516f7814712d4a9b7941a53b274", "fusion_lon": 0.0, "rental_uris": {"android": "https://dc.lft.to/lastmile_qr_scan", "ios": "https://dc.lft.to/lastmile_qr_scan"}, "name": "5b27a516f7814712d4a9b7941a53b274", "type": "electric_scooter", "lat": 38.9056695, "is_disabled": 0}, {"fusion_lat": 0.0, "lon": -77.044776, "is_reserved": 0, "bike_id": "52807762df064bf055d4cd2ad69613e2", "fusion_lon": 0.0, "rental_uris": {"android": "https://dc.lft.to/lastmile_qr_scan", "ios": "https://dc.lft.to/lastmile_qr_scan"}, "name": "52807762df064bf055d4cd2ad69613e2", "type": "electric_scooter", "lat": 38.924267666666665, "is_disabled": 0}, {"fusion_lat": 0.0, "lon": -77.06242466666667, "is_reserved": 0, "bike_id": "52d87a07f962ad7a96b93b43229f249c", "fusion_lon": 0.0, "rental_uris": {"android": "https://dc.lft.to/lastmile_qr_scan", "ios": "https://dc.lft.to/lastmile_qr_scan"}, "name": "52d87a07f962ad7a96b93b43229f249c", "type": "electric_bike", "lat": 38.94378733333333, "is_disabled": 0}, {"fusion_lat": 0.0, "lon": -77.02207216666666, "is_reserved": 0, "bike_id": "53b5d795bd419b37e06f53e3eb50a2fe", "fusion_lon": 0.0, "rental_uris": {"android": "https://dc.lft.to/lastmile_qr_scan", "ios": "https://dc.lft.to/lastmile_qr_scan"}, "name": "53b5d795bd419b37e06f53e3eb50a2fe", "type": "electric_scooter", "lat": 38.90973816666666, "is_disabled": 0}, {"fusion_lat": 0.0, "lon": -77.02134633333333, "is_reserved": 0, "bike_id": "ce0d70a775bb04ec7f535f45c086ee8f", "fusion_lon": 0.0, "rental_uris": {"android": "https://dc.lft.to/lastmile_qr_scan", "ios": "https://dc.lft.to/lastmile_qr_scan"}, "name": "ce0d70a775bb04ec7f535f45c086ee8f", "type": "electric_scooter", "lat": 38.92420333333333, "is_disabled": 0}, {"fusion_lat": 0.0, "lon": -77.0074725, "is_reserved": 0, "bike_id": "c26e3f08f35c70fdffc4344e6a6c9e6c", "fusion_lon": 0.0, "rental_uris": {"android": "https://dc.lft.to/lastmile_qr_scan", "ios": "https://dc.lft.to/lastmile_qr_scan"}, "name": "c26e3f08f35c70fdffc4344e6a6c9e6c", "type": "electric_scooter", "lat": 38.897772333333336, "is_disabled": 0}, {"fusion_lat": 0.0, "lon": -77.00598983333333, "is_reserved": 0, "bike_id": "75dea9b78f6f0a70c4fa752185dfa0ea", "fusion_lon": 0.0, "rental_uris": {"android": "https://dc.lft.to/lastmile_qr_scan", "ios": "https://dc.lft.to/lastmile_qr_scan"}, "name": "75dea9b78f6f0a70c4fa752185dfa0ea", "type": "electric_scooter", "lat": 38.88519633333333, "is_disabled": 0}, {"fusion_lat": 0.0, "lon": -77.04469416666667, "is_reserved": 0, "bike_id": "754b5f0d86092faf8714325e5693eff5", "fusion_lon": 0.0, "rental_uris": {"android": "https://dc.lft.to/lastmile_qr_scan", "ios": "https://dc.lft.to/lastmile_qr_scan"}, "name": "754b5f0d86092faf8714325e5693eff5", "type": "electric_scooter", "lat": 38.90961716666666, "is_disabled": 0}, {"fusion_lat": 0.0, "lon": -77.0228415, "is_reserved": 0, "bike_id": "2d466c261e6dd8b633d828b173c3a307", "fusion_lon": 0.0, "rental_uris": {"android": "https://dc.lft.to/lastmile_qr_scan", "ios": "https://dc.lft.to/lastmile_qr_scan"}, "name": "2d466c261e6dd8b633d828b173c3a307", "type": "electric_scooter", "lat": 38.91427383333333, "is_disabled": 0}, {"fusion_lat": 0.0, "lon": -77.07480166666667, "is_reserved": 0, "bike_id": "cb408de8d301cb1b59842ceced5889b8", "fusion_lon": 0.0, "rental_uris": {"android": "https://dc.lft.to/lastmile_qr_scan", "ios": "https://dc.lft.to/lastmile_qr_scan"}, "name": "cb408de8d301cb1b59842ceced5889b8", "type": "electric_scooter", "lat": 38.96325316666667, "is_disabled": 0}, {"fusion_lat": 0.0, "lon": -76.89540816666667, "is_reserved": 0, "bike_id": "2d32e72453fcbb0775b42ccfcf0a702f", "fusion_lon": 0.0, "rental_uris": {"android": "https://dc.lft.to/lastmile_qr_scan", "ios": "https://dc.lft.to/lastmile_qr_scan"}, "name": "2d32e72453fcbb0775b42ccfcf0a702f", "type": "electric_bike", "lat": 38.94553716666667, "is_disabled": 0}, {"fusion_lat": 0.0, "lon": -77.02729, "is_reserved": 0, "bike_id": "499dbb28ac9d6df5bd1358c5b93d92ea", "fusion_lon": 0.0, "rental_uris": {"android": "https://dc.lft.to/lastmile_qr_scan", "ios": "https://dc.lft.to/lastmile_qr_scan"}, "name": "499dbb28ac9d6df5bd1358c5b93d92ea", "type": "electric_scooter", "lat": 38.940916333333334, "is_disabled": 0}, {"fusion_lat": 0.0, "lon": -77.06864966666667, "is_reserved": 0, "bike_id": "d481307b7327a96c0fe4d999f007fbd4", "fusion_lon": 0.0, "rental_uris": {"android": "https://dc.lft.to/lastmile_qr_scan", "ios": "https://dc.lft.to/lastmile_qr_scan"}, "name": "d481307b7327a96c0fe4d999f007fbd4", "type": "electric_bike", "lat": 38.80579133333333, "is_disabled": 0}, {"fusion_lat": 0.0, "lon": -76.974359, "is_reserved": 0, "bike_id": "ef1fa9b700e785a505fa61dac685da80", "fusion_lon": 0.0, "rental_uris": {"android": "https://dc.lft.to/lastmile_qr_scan", "ios": "https://dc.lft.to/lastmile_qr_scan"}, "name": "ef1fa9b700e785a505fa61dac685da80", "type": "electric_bike", "lat": 38.864044, "is_disabled": 0}, {"fusion_lat": 0.0, "lon": -77.04665683333333, "is_reserved": 0, "bike_id": "82b7da431bcafe59fd112217ef73ac3b", "fusion_lon": 0.0, "rental_uris": {"android": "https://dc.lft.to/lastmile_qr_scan", "ios": "https://dc.lft.to/lastmile_qr_scan"}, "name": "82b7da431bcafe59fd112217ef73ac3b", "type": "electric_scooter", "lat": 38.9033475, "is_disabled": 0}, {"fusion_lat": 0.0, "lon": -77.0136005, "is_reserved": 0, "bike_id": "1caa756856c579538c6819cc70caa3e7", "fusion_lon": 0.0, "rental_uris": {"android": "https://dc.lft.to/lastmile_qr_scan", "ios": "https://dc.lft.to/lastmile_qr_scan"}, "name": "1caa756856c579538c6819cc70caa3e7", "type": "electric_scooter", "lat": 38.92887966666667, "is_disabled": 0}, {"fusion_lat": 0.0, "lon": -77.00622116666666, "is_reserved": 0, "bike_id": "5e369d0df407e1851eb1b71516d797ec", "fusion_lon": 0.0, "rental_uris": {"android": "https://dc.lft.to/lastmile_qr_scan", "ios": "https://dc.lft.to/lastmile_qr_scan"}, "name": "5e369d0df407e1851eb1b71516d797ec", "type": "electric_scooter", "lat": 38.871759, "is_disabled": 0}, {"fusion_lat": 0.0, "lon": -77.02328666666666, "is_reserved": 0, "bike_id": "bb46b024aeb7eff21ad3819a436e6d11", "fusion_lon": 0.0, "rental_uris": {"android": "https://dc.lft.to/lastmile_qr_scan", "ios": "https://dc.lft.to/lastmile_qr_scan"}, "name": "bb46b024aeb7eff21ad3819a436e6d11", "type": "electric_scooter", "lat": 38.92706116666667, "is_disabled": 0}, {"fusion_lat": 0.0, "lon": -77.02808916666666, "is_reserved": 0, "bike_id": "6fa535806e358f16b094f6fd7f29335c", "fusion_lon": 0.0, "rental_uris": {"android": "https://dc.lft.to/lastmile_qr_scan", "ios": "https://dc.lft.to/lastmile_qr_scan"}, "name": "6fa535806e358f16b094f6fd7f29335c", "type": "electric_scooter", "lat": 38.89970483333333, "is_disabled": 0}, {"fusion_lat": 0.0, "lon": -76.93731266666667, "is_reserved": 0, "bike_id": "7fef20e467a4028646f3d3060752d1a1", "fusion_lon": 0.0, "rental_uris": {"android": "https://dc.lft.to/lastmile_qr_scan", "ios": "https://dc.lft.to/lastmile_qr_scan"}, "name": "7fef20e467a4028646f3d3060752d1a1", "type": "electric_scooter", "lat": 38.8901455, "is_disabled": 0}, {"fusion_lat": 0.0, "lon": -77.0151345, "is_reserved": 0, "bike_id": "e87209b75c83c86f7c59ae378eb5ef24", "fusion_lon": 0.0, "rental_uris": {"android": "https://dc.lft.to/lastmile_qr_scan", "ios": "https://dc.lft.to/lastmile_qr_scan"}, "name": "e87209b75c83c86f7c59ae378eb5ef24", "type": "electric_scooter", "lat": 38.89250216666667, "is_disabled": 0}, {"fusion_lat": 0.0, "lon": -77.02686833333334, "is_reserved": 0, "bike_id": "af4db36704f619ceb56e35f9ab742cb2", "fusion_lon": 0.0, "rental_uris": {"android": "https://dc.lft.to/lastmile_qr_scan", "ios": "https://dc.lft.to/lastmile_qr_scan"}, "name": "af4db36704f619ceb56e35f9ab742cb2", "type": "electric_scooter", "lat": 38.902521166666666, "is_disabled": 0}, {"fusion_lat": 0.0, "lon": -77.00547616666667, "is_reserved": 0, "bike_id": "ef4888c61749628d069cd3e41135031a", "fusion_lon": 0.0, "rental_uris": {"android": "https://dc.lft.to/lastmile_qr_scan", "ios": "https://dc.lft.to/lastmile_qr_scan"}, "name": "ef4888c61749628d069cd3e41135031a", "type": "electric_scooter", "lat": 38.900407, "is_disabled": 0}, {"fusion_lat": 0.0, "lon": -77.01764733333333, "is_reserved": 0, "bike_id": "250faa9992d92ddf0476a7b767d7ada2", "fusion_lon": 0.0, "rental_uris": {"android": "https://dc.lft.to/lastmile_qr_scan", "ios": "https://dc.lft.to/lastmile_qr_scan"}, "name": "250faa9992d92ddf0476a7b767d7ada2", "type": "electric_scooter", "lat": 38.8770585, "is_disabled": 0}, {"fusion_lat": 0.0, "lon": -77.01996066666666, "is_reserved": 0, "bike_id": "56e82db95298599bdc32d451162d3101", "fusion_lon": 0.0, "rental_uris": {"android": "https://dc.lft.to/lastmile_qr_scan", "ios": "https://dc.lft.to/lastmile_qr_scan"}, "name": "56e82db95298599bdc32d451162d3101", "type": "electric_scooter", "lat": 38.9662925, "is_disabled": 0}, {"fusion_lat": 0.0, "lon": -76.99369366666667, "is_reserved": 0, "bike_id": "ecbeec913c2a938d40e690b479061d10", "fusion_lon": 0.0, "rental_uris": {"android": "https://dc.lft.to/lastmile_qr_scan", "ios": "https://dc.lft.to/lastmile_qr_scan"}, "name": "ecbeec913c2a938d40e690b479061d10", "type": "electric_scooter", "lat": 38.883069166666665, "is_disabled": 0}, {"fusion_lat": 0.0, "lon": -77.0395685, "is_reserved": 0, "bike_id": "9a4a16b6be1ce8ce4c484a1e383f6e77", "fusion_lon": 0.0, "rental_uris": {"android": "https://dc.lft.to/lastmile_qr_scan", "ios": "https://dc.lft.to/lastmile_qr_scan"}, "name": "9a4a16b6be1ce8ce4c484a1e383f6e77", "type": "electric_scooter", "lat": 38.89245016666667, "is_disabled": 0}, {"fusion_lat": 0.0, "lon": -76.9790605, "is_reserved": 0, "bike_id": "f126b6695df45599e2658832092022b0", "fusion_lon": 0.0, "rental_uris": {"android": "https://dc.lft.to/lastmile_qr_scan", "ios": "https://dc.lft.to/lastmile_qr_scan"}, "name": "f126b6695df45599e2658832092022b0", "type": "electric_scooter", "lat": 38.863481166666666, "is_disabled": 0}, {"fusion_lat": 0.0, "lon": -77.0328215, "is_reserved": 0, "bike_id": "1e1b4f5b2ae71b1fac9bd0816ffa1a27", "fusion_lon": 0.0, "rental_uris": {"android": "https://dc.lft.to/lastmile_qr_scan", "ios": "https://dc.lft.to/lastmile_qr_scan"}, "name": "1e1b4f5b2ae71b1fac9bd0816ffa1a27", "type": "electric_scooter", "lat": 38.92854966666667, "is_disabled": 0}, {"fusion_lat": 0.0, "lon": -77.04198766666667, "is_reserved": 0, "bike_id": "42eea6bc104018263980b89686704710", "fusion_lon": 0.0, "rental_uris": {"android": "https://dc.lft.to/lastmile_qr_scan", "ios": "https://dc.lft.to/lastmile_qr_scan"}, "name": "42eea6bc104018263980b89686704710", "type": "electric_scooter", "lat": 38.903785, "is_disabled": 0}, {"fusion_lat": 0.0, "lon": -76.99603216666667, "is_reserved": 0, "bike_id": "ab5b440c52872f4c841ef673ba4a33f5", "fusion_lon": 0.0, "rental_uris": {"android": "https://dc.lft.to/lastmile_qr_scan", "ios": "https://dc.lft.to/lastmile_qr_scan"}, "name": "ab5b440c52872f4c841ef673ba4a33f5", "type": "electric_scooter", "lat": 38.89222383333333, "is_disabled": 0}, {"fusion_lat": 0.0, "lon": -77.02768116666667, "is_reserved": 0, "bike_id": "ef1f28179d67b97c6cb58152e00ceccb", "fusion_lon": 0.0, "rental_uris": {"android": "https://dc.lft.to/lastmile_qr_scan", "ios": "https://dc.lft.to/lastmile_qr_scan"}, "name": "ef1f28179d67b97c6cb58152e00ceccb", "type": "electric_scooter", "lat": 38.954270333333334, "is_disabled": 0}, {"fusion_lat": 0.0, "lon": -76.99456233333333, "is_reserved": 0, "bike_id": "02e2e09a588cd27714499835f33b3dc5", "fusion_lon": 0.0, "rental_uris": {"android": "https://dc.lft.to/lastmile_qr_scan", "ios": "https://dc.lft.to/lastmile_qr_scan"}, "name": "02e2e09a588cd27714499835f33b3dc5", "type": "electric_scooter", "lat": 38.86218566666667, "is_disabled": 0}, {"fusion_lat": 0.0, "lon": -77.01532066666667, "is_reserved": 0, "bike_id": "f470abe88303a4004deecc630a1bae2b", "fusion_lon": 0.0, "rental_uris": {"android": "https://dc.lft.to/lastmile_qr_scan", "ios": "https://dc.lft.to/lastmile_qr_scan"}, "name": "f470abe88303a4004deecc630a1bae2b", "type": "electric_scooter", "lat": 38.926652, "is_disabled": 0}, {"fusion_lat": 0.0, "lon": -77.02486966666666, "is_reserved": 0, "bike_id": "18256a291c3f8b41ee08faa620857356", "fusion_lon": 0.0, "rental_uris": {"android": "https://dc.lft.to/lastmile_qr_scan", "ios": "https://dc.lft.to/lastmile_qr_scan"}, "name": "18256a291c3f8b41ee08faa620857356", "type": "electric_scooter", "lat": 38.9387345, "is_disabled": 0}, {"fusion_lat": 0.0, "lon": -76.99511316666667, "is_reserved": 0, "bike_id": "61091263c4840a441a1790697f5c1b0f", "fusion_lon": 0.0, "rental_uris": {"android": "https://dc.lft.to/lastmile_qr_scan", "ios": "https://dc.lft.to/lastmile_qr_scan"}, "name": "61091263c4840a441a1790697f5c1b0f", "type": "electric_scooter", "lat": 38.88286033333333, "is_disabled": 0}, {"fusion_lat": 0.0, "lon": -77.02211516666667, "is_reserved": 0, "bike_id": "e4f505b54fb769db76f0200c604919d2", "fusion_lon": 0.0, "rental_uris": {"android": "https://dc.lft.to/lastmile_qr_scan", "ios": "https://dc.lft.to/lastmile_qr_scan"}, "name": "e4f505b54fb769db76f0200c604919d2", "type": "electric_scooter", "lat": 38.91417533333333, "is_disabled": 0}, {"fusion_lat": 0.0, "lon": -77.01937116666667, "is_reserved": 0, "bike_id": "c65c851a282e5dde951daf95d21fd34a", "fusion_lon": 0.0, "rental_uris": {"android": "https://dc.lft.to/lastmile_qr_scan", "ios": "https://dc.lft.to/lastmile_qr_scan"}, "name": "c65c851a282e5dde951daf95d21fd34a", "type": "electric_scooter", "lat": 38.94707566666666, "is_disabled": 0}, {"fusion_lat": 0.0, "lon": -76.92737383333333, "is_reserved": 0, "bike_id": "5955d26d29bb8feb58cba9e0af687c7b", "fusion_lon": 0.0, "rental_uris": {"android": "https://dc.lft.to/lastmile_qr_scan", "ios": "https://dc.lft.to/lastmile_qr_scan"}, "name": "5955d26d29bb8feb58cba9e0af687c7b", "type": "electric_scooter", "lat": 38.889670833333334, "is_disabled": 0}, {"fusion_lat": 0.0, "lon": -77.05854, "is_reserved": 0, "bike_id": "ee8ecde47b9e5570f1cab3f55bb6e397", "fusion_lon": 0.0, "rental_uris": {"android": "https://dc.lft.to/lastmile_qr_scan", "ios": "https://dc.lft.to/lastmile_qr_scan"}, "name": "ee8ecde47b9e5570f1cab3f55bb6e397", "type": "electric_scooter", "lat": 38.9358815, "is_disabled": 0}, {"fusion_lat": 0.0, "lon": -76.93353633333334, "is_reserved": 0, "bike_id": "f3c9b493ed182dcca2320680e22a716e", "fusion_lon": 0.0, "rental_uris": {"android": "https://dc.lft.to/lastmile_qr_scan", "ios": "https://dc.lft.to/lastmile_qr_scan"}, "name": "f3c9b493ed182dcca2320680e22a716e", "type": "electric_scooter", "lat": 38.89905866666667, "is_disabled": 0}, {"fusion_lat": 0.0, "lon": -77.0424975, "is_reserved": 0, "bike_id": "2c392ac90064b0f7ecadd6a7e3f356ea", "fusion_lon": 0.0, "rental_uris": {"android": "https://dc.lft.to/lastmile_qr_scan", "ios": "https://dc.lft.to/lastmile_qr_scan"}, "name": "2c392ac90064b0f7ecadd6a7e3f356ea", "type": "electric_scooter", "lat": 38.9254575, "is_disabled": 0}, {"fusion_lat": 0.0, "lon": -77.03669966666666, "is_reserved": 0, "bike_id": "ac3b3ec2e4583c8c9aceb30c06d727d4", "fusion_lon": 0.0, "rental_uris": {"android": "https://dc.lft.to/lastmile_qr_scan", "ios": "https://dc.lft.to/lastmile_qr_scan"}, "name": "ac3b3ec2e4583c8c9aceb30c06d727d4", "type": "electric_scooter", "lat": 38.9069665, "is_disabled": 0}, {"fusion_lat": 0.0, "lon": -76.982881, "is_reserved": 0, "bike_id": "146ea41303a7fb9e0e4b0846c00f3c85", "fusion_lon": 0.0, "rental_uris": {"android": "https://dc.lft.to/lastmile_qr_scan", "ios": "https://dc.lft.to/lastmile_qr_scan"}, "name": "146ea41303a7fb9e0e4b0846c00f3c85", "type": "electric_scooter", "lat": 38.90049116666667, "is_disabled": 0}, {"fusion_lat": 0.0, "lon": -77.03957133333333, "is_reserved": 0, "bike_id": "67bb89129b533f32af9c445e9ab0995e", "fusion_lon": 0.0, "rental_uris": {"android": "https://dc.lft.to/lastmile_qr_scan", "ios": "https://dc.lft.to/lastmile_qr_scan"}, "name": "67bb89129b533f32af9c445e9ab0995e", "type": "electric_scooter", "lat": 38.892433833333335, "is_disabled": 0}, {"fusion_lat": 0.0, "lon": -77.0175065, "is_reserved": 0, "bike_id": "53c76ce7d6dc4f6f95ac45a7053c890d", "fusion_lon": 0.0, "rental_uris": {"android": "https://dc.lft.to/lastmile_qr_scan", "ios": "https://dc.lft.to/lastmile_qr_scan"}, "name": "53c76ce7d6dc4f6f95ac45a7053c890d", "type": "electric_scooter", "lat": 38.902584833333336, "is_disabled": 0}, {"fusion_lat": 0.0, "lon": -77.05153333333334, "is_reserved": 0, "bike_id": "de94034debec1ee4a2f55ed767e98f2d", "fusion_lon": 0.0, "rental_uris": {"android": "https://dc.lft.to/lastmile_qr_scan", "ios": "https://dc.lft.to/lastmile_qr_scan"}, "name": "de94034debec1ee4a2f55ed767e98f2d", "type": "electric_scooter", "lat": 38.89956333333333, "is_disabled": 0}, {"fusion_lat": 0.0, "lon": -77.0364235, "is_reserved": 0, "bike_id": "ea0f512889992263a7eaa4644e0c8761", "fusion_lon": 0.0, "rental_uris": {"android": "https://dc.lft.to/lastmile_qr_scan", "ios": "https://dc.lft.to/lastmile_qr_scan"}, "name": "ea0f512889992263a7eaa4644e0c8761", "type": "electric_scooter", "lat": 38.9226665, "is_disabled": 0}, {"fusion_lat": 0.0, "lon": -77.005266, "is_reserved": 0, "bike_id": "baa6dc90ee7333ab30979e69fbf86048", "fusion_lon": 0.0, "rental_uris": {"android": "https://dc.lft.to/lastmile_qr_scan", "ios": "https://dc.lft.to/lastmile_qr_scan"}, "name": "baa6dc90ee7333ab30979e69fbf86048", "type": "electric_scooter", "lat": 38.89684966666667, "is_disabled": 0}, {"fusion_lat": 0.0, "lon": -77.01949083333334, "is_reserved": 0, "bike_id": "f681eb62ea77920dcd938d6442e30b53", "fusion_lon": 0.0, "rental_uris": {"android": "https://dc.lft.to/lastmile_qr_scan", "ios": "https://dc.lft.to/lastmile_qr_scan"}, "name": "f681eb62ea77920dcd938d6442e30b53", "type": "electric_bike", "lat": 38.924253666666665, "is_disabled": 0}, {"fusion_lat": 0.0, "lon": -77.02276833333333, "is_reserved": 0, "bike_id": "882976d1bb2f183662a260a205a29880", "fusion_lon": 0.0, "rental_uris": {"android": "https://dc.lft.to/lastmile_qr_scan", "ios": "https://dc.lft.to/lastmile_qr_scan"}, "name": "882976d1bb2f183662a260a205a29880", "type": "electric_scooter", "lat": 38.87842766666667, "is_disabled": 0}, {"fusion_lat": 0.0, "lon": -77.079713, "is_reserved": 0, "bike_id": "b59083aa80d05b9707941ca3b4208969", "fusion_lon": 0.0, "rental_uris": {"android": "https://dc.lft.to/lastmile_qr_scan", "ios": "https://dc.lft.to/lastmile_qr_scan"}, "name": "b59083aa80d05b9707941ca3b4208969", "type": "electric_scooter", "lat": 38.925788833333336, "is_disabled": 0}, {"fusion_lat": 0.0, "lon": -77.02094483333333, "is_reserved": 0, "bike_id": "f2553c021e03d7be267bffb95e06e277", "fusion_lon": 0.0, "rental_uris": {"android": "https://dc.lft.to/lastmile_qr_scan", "ios": "https://dc.lft.to/lastmile_qr_scan"}, "name": "f2553c021e03d7be267bffb95e06e277", "type": "electric_scooter", "lat": 38.911247, "is_disabled": 0}, {"fusion_lat": 0.0, "lon": -77.03831866666667, "is_reserved": 0, "bike_id": "d75d2207a3df275ffdac963cb3fad8a7", "fusion_lon": 0.0, "rental_uris": {"android": "https://dc.lft.to/lastmile_qr_scan", "ios": "https://dc.lft.to/lastmile_qr_scan"}, "name": "d75d2207a3df275ffdac963cb3fad8a7", "type": "electric_scooter", "lat": 38.931345, "is_disabled": 0}, {"fusion_lat": 0.0, "lon": -77.032884, "is_reserved": 0, "bike_id": "a0eec99d79c0911191e853b87d50ef4e", "fusion_lon": 0.0, "rental_uris": {"android": "https://dc.lft.to/lastmile_qr_scan", "ios": "https://dc.lft.to/lastmile_qr_scan"}, "name": "a0eec99d79c0911191e853b87d50ef4e", "type": "electric_scooter", "lat": 38.90344183333333, "is_disabled": 0}, {"fusion_lat": 0.0, "lon": -77.0410885, "is_reserved": 0, "bike_id": "0f50e283eb02e7feb82ea29103457d61", "fusion_lon": 0.0, "rental_uris": {"android": "https://dc.lft.to/lastmile_qr_scan", "ios": "https://dc.lft.to/lastmile_qr_scan"}, "name": "0f50e283eb02e7feb82ea29103457d61", "type": "electric_scooter", "lat": 38.927994, "is_disabled": 0}, {"fusion_lat": 0.0, "lon": -77.02224566666666, "is_reserved": 0, "bike_id": "afa7b029b33861397f156c81844d5da9", "fusion_lon": 0.0, "rental_uris": {"android": "https://dc.lft.to/lastmile_qr_scan", "ios": "https://dc.lft.to/lastmile_qr_scan"}, "name": "afa7b029b33861397f156c81844d5da9", "type": "electric_scooter", "lat": 38.935559166666664, "is_disabled": 0}, {"fusion_lat": 0.0, "lon": -77.02128866666666, "is_reserved": 0, "bike_id": "a3e18dc064b669c244994e903f6470d6", "fusion_lon": 0.0, "rental_uris": {"android": "https://dc.lft.to/lastmile_qr_scan", "ios": "https://dc.lft.to/lastmile_qr_scan"}, "name": "a3e18dc064b669c244994e903f6470d6", "type": "electric_scooter", "lat": 38.92421616666667, "is_disabled": 0}, {"fusion_lat": 0.0, "lon": -77.024699, "is_reserved": 0, "bike_id": "4ffd291639f55ce7a8efe620bed863b0", "fusion_lon": 0.0, "rental_uris": {"android": "https://dc.lft.to/lastmile_qr_scan", "ios": "https://dc.lft.to/lastmile_qr_scan"}, "name": "4ffd291639f55ce7a8efe620bed863b0", "type": "electric_scooter", "lat": 38.93298166666667, "is_disabled": 0}, {"fusion_lat": 0.0, "lon": -77.0281615, "is_reserved": 0, "bike_id": "9f17f50042bd7bd2dd5c121ba858903a", "fusion_lon": 0.0, "rental_uris": {"android": "https://dc.lft.to/lastmile_qr_scan", "ios": "https://dc.lft.to/lastmile_qr_scan"}, "name": "9f17f50042bd7bd2dd5c121ba858903a", "type": "electric_scooter", "lat": 38.89837566666667, "is_disabled": 0}, {"fusion_lat": 0.0, "lon": -77.02717683333333, "is_reserved": 0, "bike_id": "2d42aa078be64f7c6a33cd52ddcfda9a", "fusion_lon": 0.0, "rental_uris": {"android": "https://dc.lft.to/lastmile_qr_scan", "ios": "https://dc.lft.to/lastmile_qr_scan"}, "name": "2d42aa078be64f7c6a33cd52ddcfda9a", "type": "electric_scooter", "lat": 38.897391166666665, "is_disabled": 0}, {"fusion_lat": 0.0, "lon": -77.00571616666667, "is_reserved": 0, "bike_id": "b03dd86f20a552029e4b63ca67095cce", "fusion_lon": 0.0, "rental_uris": {"android": "https://dc.lft.to/lastmile_qr_scan", "ios": "https://dc.lft.to/lastmile_qr_scan"}, "name": "b03dd86f20a552029e4b63ca67095cce", "type": "electric_scooter", "lat": 38.905693166666666, "is_disabled": 0}, {"fusion_lat": 0.0, "lon": -77.03245283333334, "is_reserved": 0, "bike_id": "2f6535b97e35adb3b94722b022daa632", "fusion_lon": 0.0, "rental_uris": {"android": "https://dc.lft.to/lastmile_qr_scan", "ios": "https://dc.lft.to/lastmile_qr_scan"}, "name": "2f6535b97e35adb3b94722b022daa632", "type": "electric_scooter", "lat": 38.92638783333334, "is_disabled": 0}, {"fusion_lat": 0.0, "lon": -76.99580583333334, "is_reserved": 0, "bike_id": "c4ca3207e6751b85af8f8c1a17b6e5b5", "fusion_lon": 0.0, "rental_uris": {"android": "https://dc.lft.to/lastmile_qr_scan", "ios": "https://dc.lft.to/lastmile_qr_scan"}, "name": "c4ca3207e6751b85af8f8c1a17b6e5b5", "type": "electric_bike", "lat": 38.852949833333334, "is_disabled": 0}, {"fusion_lat": 0.0, "lon": -77.02414383333333, "is_reserved": 0, "bike_id": "16ba480305446be768b5309a7143e694", "fusion_lon": 0.0, "rental_uris": {"android": "https://dc.lft.to/lastmile_qr_scan", "ios": "https://dc.lft.to/lastmile_qr_scan"}, "name": "16ba480305446be768b5309a7143e694", "type": "electric_scooter", "lat": 38.892602833333335, "is_disabled": 0}, {"fusion_lat": 0.0, "lon": -77.3440895, "is_reserved": 0, "bike_id": "bedb35be1548aa33fa37457207740ac8", "fusion_lon": 0.0, "rental_uris": {"android": "https://dc.lft.to/lastmile_qr_scan", "ios": "https://dc.lft.to/lastmile_qr_scan"}, "name": "bedb35be1548aa33fa37457207740ac8", "type": "electric_bike", "lat": 38.94587333333333, "is_disabled": 0}, {"fusion_lat": 0.0, "lon": -77.03374216666667, "is_reserved": 0, "bike_id": "0f14877dcd5fd1fdeb267185c2e01cf5", "fusion_lon": 0.0, "rental_uris": {"android": "https://dc.lft.to/lastmile_qr_scan", "ios": "https://dc.lft.to/lastmile_qr_scan"}, "name": "0f14877dcd5fd1fdeb267185c2e01cf5", "type": "electric_scooter", "lat": 38.90835916666666, "is_disabled": 0}, {"fusion_lat": 0.0, "lon": -77.00924733333333, "is_reserved": 0, "bike_id": "febe59350a0879856621d00f02b18dc0", "fusion_lon": 0.0, "rental_uris": {"android": "https://dc.lft.to/lastmile_qr_scan", "ios": "https://dc.lft.to/lastmile_qr_scan"}, "name": "febe59350a0879856621d00f02b18dc0", "type": "electric_scooter", "lat": 38.89562883333333, "is_disabled": 0}, {"fusion_lat": 0.0, "lon": -77.04618783333333, "is_reserved": 0, "bike_id": "b76a651efb9e180b63eeed4c1c69e072", "fusion_lon": 0.0, "rental_uris": {"android": "https://dc.lft.to/lastmile_qr_scan", "ios": "https://dc.lft.to/lastmile_qr_scan"}, "name": "b76a651efb9e180b63eeed4c1c69e072", "type": "electric_scooter", "lat": 38.91612883333333, "is_disabled": 0}, {"fusion_lat": 0.0, "lon": -77.01981683333334, "is_reserved": 0, "bike_id": "8185bcf9c467dd60cc14ddcc34d29fe9", "fusion_lon": 0.0, "rental_uris": {"android": "https://dc.lft.to/lastmile_qr_scan", "ios": "https://dc.lft.to/lastmile_qr_scan"}, "name": "8185bcf9c467dd60cc14ddcc34d29fe9", "type": "electric_scooter", "lat": 38.88324216666667, "is_disabled": 0}, {"fusion_lat": 0.0, "lon": -77.050523, "is_reserved": 0, "bike_id": "83d3aa90d8a92fd52f483d3193efb50c", "fusion_lon": 0.0, "rental_uris": {"android": "https://dc.lft.to/lastmile_qr_scan", "ios": "https://dc.lft.to/lastmile_qr_scan"}, "name": "83d3aa90d8a92fd52f483d3193efb50c", "type": "electric_scooter", "lat": 38.9238105, "is_disabled": 0}, {"fusion_lat": 0.0, "lon": -77.04379216666666, "is_reserved": 0, "bike_id": "2c1e487a2f8829d5cf8d55d32ebbf9a8", "fusion_lon": 0.0, "rental_uris": {"android": "https://dc.lft.to/lastmile_qr_scan", "ios": "https://dc.lft.to/lastmile_qr_scan"}, "name": "2c1e487a2f8829d5cf8d55d32ebbf9a8", "type": "electric_scooter", "lat": 38.892244833333336, "is_disabled": 0}, {"fusion_lat": 0.0, "lon": -76.98388249999999, "is_reserved": 0, "bike_id": "029c1c7160467d54287bbd0c46092f98", "fusion_lon": 0.0, "rental_uris": {"android": "https://dc.lft.to/lastmile_qr_scan", "ios": "https://dc.lft.to/lastmile_qr_scan"}, "name": "029c1c7160467d54287bbd0c46092f98", "type": "electric_scooter", "lat": 38.867022166666665, "is_disabled": 0}, {"fusion_lat": 0.0, "lon": -77.0122175, "is_reserved": 0, "bike_id": "bad60e79d999f867bfb02140d88d077f", "fusion_lon": 0.0, "rental_uris": {"android": "https://dc.lft.to/lastmile_qr_scan", "ios": "https://dc.lft.to/lastmile_qr_scan"}, "name": "bad60e79d999f867bfb02140d88d077f", "type": "electric_scooter", "lat": 38.9143705, "is_disabled": 0}, {"fusion_lat": 0.0, "lon": -77.017642, "is_reserved": 0, "bike_id": "66c8073ac1d652df6300415d6c015c20", "fusion_lon": 0.0, "rental_uris": {"android": "https://dc.lft.to/lastmile_qr_scan", "ios": "https://dc.lft.to/lastmile_qr_scan"}, "name": "66c8073ac1d652df6300415d6c015c20", "type": "electric_scooter", "lat": 38.876867833333336, "is_disabled": 0}, {"fusion_lat": 0.0, "lon": -77.0254915, "is_reserved": 0, "bike_id": "6c3c40f0fa88013e803f4e94ef3ec4e3", "fusion_lon": 0.0, "rental_uris": {"android": "https://dc.lft.to/lastmile_qr_scan", "ios": "https://dc.lft.to/lastmile_qr_scan"}, "name": "6c3c40f0fa88013e803f4e94ef3ec4e3", "type": "electric_scooter", "lat": 38.91634066666667, "is_disabled": 0}, {"fusion_lat": 0.0, "lon": -77.0588195, "is_reserved": 0, "bike_id": "aff22b33d7c954166826d9475c7e9aab", "fusion_lon": 0.0, "rental_uris": {"android": "https://dc.lft.to/lastmile_qr_scan", "ios": "https://dc.lft.to/lastmile_qr_scan"}, "name": "aff22b33d7c954166826d9475c7e9aab", "type": "electric_scooter", "lat": 38.91830016666667, "is_disabled": 0}, {"fusion_lat": 0.0, "lon": -77.04650816666667, "is_reserved": 0, "bike_id": "445ddfba6587f1f659ca801f2d3dd7fe", "fusion_lon": 0.0, "rental_uris": {"android": "https://dc.lft.to/lastmile_qr_scan", "ios": "https://dc.lft.to/lastmile_qr_scan"}, "name": "445ddfba6587f1f659ca801f2d3dd7fe", "type": "electric_scooter", "lat": 38.898285, "is_disabled": 0}, {"fusion_lat": 0.0, "lon": -77.00963416666667, "is_reserved": 0, "bike_id": "f1a58783d77be6294a6bf9646b15b101", "fusion_lon": 0.0, "rental_uris": {"android": "https://dc.lft.to/lastmile_qr_scan", "ios": "https://dc.lft.to/lastmile_qr_scan"}, "name": "f1a58783d77be6294a6bf9646b15b101", "type": "electric_scooter", "lat": 38.917089, "is_disabled": 0}, {"fusion_lat": 0.0, "lon": -77.04695883333333, "is_reserved": 0, "bike_id": "191ccc053332925c13200a6788c03a32", "fusion_lon": 0.0, "rental_uris": {"android": "https://dc.lft.to/lastmile_qr_scan", "ios": "https://dc.lft.to/lastmile_qr_scan"}, "name": "191ccc053332925c13200a6788c03a32", "type": "electric_scooter", "lat": 38.921332166666666, "is_disabled": 0}, {"fusion_lat": 0.0, "lon": -77.01718433333333, "is_reserved": 0, "bike_id": "2d88706dbdc5c608f7496939b4c007ab", "fusion_lon": 0.0, "rental_uris": {"android": "https://dc.lft.to/lastmile_qr_scan", "ios": "https://dc.lft.to/lastmile_qr_scan"}, "name": "2d88706dbdc5c608f7496939b4c007ab", "type": "electric_scooter", "lat": 38.97490883333333, "is_disabled": 0}, {"fusion_lat": 0.0, "lon": -76.98110166666666, "is_reserved": 0, "bike_id": "78c6e24bf3f7a0f8d35bca582f04df5c", "fusion_lon": 0.0, "rental_uris": {"android": "https://dc.lft.to/lastmile_qr_scan", "ios": "https://dc.lft.to/lastmile_qr_scan"}, "name": "78c6e24bf3f7a0f8d35bca582f04df5c", "type": "electric_scooter", "lat": 38.90406516666667, "is_disabled": 0}, {"fusion_lat": 0.0, "lon": -77.02814266666667, "is_reserved": 0, "bike_id": "5a136db2ca2a0a77471c7d55ca0ba4a3", "fusion_lon": 0.0, "rental_uris": {"android": "https://dc.lft.to/lastmile_qr_scan", "ios": "https://dc.lft.to/lastmile_qr_scan"}, "name": "5a136db2ca2a0a77471c7d55ca0ba4a3", "type": "electric_scooter", "lat": 38.89973583333333, "is_disabled": 0}, {"fusion_lat": 0.0, "lon": -76.9860085, "is_reserved": 0, "bike_id": "865302745e744eaa3cef7740a12589d2", "fusion_lon": 0.0, "rental_uris": {"android": "https://dc.lft.to/lastmile_qr_scan", "ios": "https://dc.lft.to/lastmile_qr_scan"}, "name": "865302745e744eaa3cef7740a12589d2", "type": "electric_scooter", "lat": 38.900139333333335, "is_disabled": 0}, {"fusion_lat": 0.0, "lon": -77.06343433333333, "is_reserved": 0, "bike_id": "d40b46f3baf680754163aa6cf7166f51", "fusion_lon": 0.0, "rental_uris": {"android": "https://dc.lft.to/lastmile_qr_scan", "ios": "https://dc.lft.to/lastmile_qr_scan"}, "name": "d40b46f3baf680754163aa6cf7166f51", "type": "electric_scooter", "lat": 38.9074, "is_disabled": 0}, {"fusion_lat": 0.0, "lon": -76.93481, "is_reserved": 0, "bike_id": "5982a35c2fb4ad8d63f400672d18ea1b", "fusion_lon": 0.0, "rental_uris": {"android": "https://dc.lft.to/lastmile_qr_scan", "ios": "https://dc.lft.to/lastmile_qr_scan"}, "name": "5982a35c2fb4ad8d63f400672d18ea1b", "type": "electric_scooter", "lat": 38.905865666666664, "is_disabled": 0}, {"fusion_lat": 0.0, "lon": -77.06599733333333, "is_reserved": 0, "bike_id": "21d2e93e5fdd0c1301668e3a41abe081", "fusion_lon": 0.0, "rental_uris": {"android": "https://dc.lft.to/lastmile_qr_scan", "ios": "https://dc.lft.to/lastmile_qr_scan"}, "name": "21d2e93e5fdd0c1301668e3a41abe081", "type": "electric_scooter", "lat": 38.90404566666667, "is_disabled": 0}, {"fusion_lat": 0.0, "lon": -76.98917066666667, "is_reserved": 0, "bike_id": "dd4d41f4c76816e39d8e06462de0c142", "fusion_lon": 0.0, "rental_uris": {"android": "https://dc.lft.to/lastmile_qr_scan", "ios": "https://dc.lft.to/lastmile_qr_scan"}, "name": "dd4d41f4c76816e39d8e06462de0c142", "type": "electric_scooter", "lat": 38.864918, "is_disabled": 0}, {"fusion_lat": 0.0, "lon": -77.02712833333334, "is_reserved": 0, "bike_id": "94a4835156ad7937cf5405c24aabf6ac", "fusion_lon": 0.0, "rental_uris": {"android": "https://dc.lft.to/lastmile_qr_scan", "ios": "https://dc.lft.to/lastmile_qr_scan"}, "name": "94a4835156ad7937cf5405c24aabf6ac", "type": "electric_scooter", "lat": 38.9246895, "is_disabled": 0}, {"fusion_lat": 0.0, "lon": -77.0227225, "is_reserved": 0, "bike_id": "804355f8eb0e34189039b5a2ca954926", "fusion_lon": 0.0, "rental_uris": {"android": "https://dc.lft.to/lastmile_qr_scan", "ios": "https://dc.lft.to/lastmile_qr_scan"}, "name": "804355f8eb0e34189039b5a2ca954926", "type": "electric_scooter", "lat": 38.91849666666667, "is_disabled": 0}, {"fusion_lat": 0.0, "lon": -77.012499, "is_reserved": 0, "bike_id": "72d14645710384780328fd5acf5bef56", "fusion_lon": 0.0, "rental_uris": {"android": "https://dc.lft.to/lastmile_qr_scan", "ios": "https://dc.lft.to/lastmile_qr_scan"}, "name": "72d14645710384780328fd5acf5bef56", "type": "electric_scooter", "lat": 38.91577266666667, "is_disabled": 0}, {"fusion_lat": 0.0, "lon": -77.02440233333333, "is_reserved": 0, "bike_id": "90056699052da79bccfb5febdf5ec74c", "fusion_lon": 0.0, "rental_uris": {"android": "https://dc.lft.to/lastmile_qr_scan", "ios": "https://dc.lft.to/lastmile_qr_scan"}, "name": "90056699052da79bccfb5febdf5ec74c", "type": "electric_scooter", "lat": 38.931142666666666, "is_disabled": 0}, {"fusion_lat": 0.0, "lon": -76.98994733333333, "is_reserved": 0, "bike_id": "45a2f8cf6a27e71976d6c087bbcbb541", "fusion_lon": 0.0, "rental_uris": {"android": "https://dc.lft.to/lastmile_qr_scan", "ios": "https://dc.lft.to/lastmile_qr_scan"}, "name": "45a2f8cf6a27e71976d6c087bbcbb541", "type": "electric_scooter", "lat": 38.864329833333336, "is_disabled": 0}, {"fusion_lat": 0.0, "lon": -76.94594833333333, "is_reserved": 0, "bike_id": "037cee119f377e4c35f2f6c76b3c1668", "fusion_lon": 0.0, "rental_uris": {"android": "https://dc.lft.to/lastmile_qr_scan", "ios": "https://dc.lft.to/lastmile_qr_scan"}, "name": "037cee119f377e4c35f2f6c76b3c1668", "type": "electric_scooter", "lat": 38.9015635, "is_disabled": 0}, {"fusion_lat": 0.0, "lon": -77.0591235, "is_reserved": 0, "bike_id": "9b5bafc8d4fdf692e94772e4b16d7982", "fusion_lon": 0.0, "rental_uris": {"android": "https://dc.lft.to/lastmile_qr_scan", "ios": "https://dc.lft.to/lastmile_qr_scan"}, "name": "9b5bafc8d4fdf692e94772e4b16d7982", "type": "electric_scooter", "lat": 38.901027, "is_disabled": 0}, {"fusion_lat": 0.0, "lon": -76.999583, "is_reserved": 0, "bike_id": "704254e94efd28985c8af183b588a64b", "fusion_lon": 0.0, "rental_uris": {"android": "https://dc.lft.to/lastmile_qr_scan", "ios": "https://dc.lft.to/lastmile_qr_scan"}, "name": "704254e94efd28985c8af183b588a64b", "type": "electric_scooter", "lat": 38.906847166666665, "is_disabled": 0}, {"fusion_lat": 0.0, "lon": -77.039115, "is_reserved": 0, "bike_id": "a5abf1029040343b3eb04a6342b38ab7", "fusion_lon": 0.0, "rental_uris": {"android": "https://dc.lft.to/lastmile_qr_scan", "ios": "https://dc.lft.to/lastmile_qr_scan"}, "name": "a5abf1029040343b3eb04a6342b38ab7", "type": "electric_scooter", "lat": 38.93257366666667, "is_disabled": 0}, {"fusion_lat": 0.0, "lon": -77.09847016666667, "is_reserved": 0, "bike_id": "a68913db6c066d6ebb2cffe56f3a745d", "fusion_lon": 0.0, "rental_uris": {"android": "https://dc.lft.to/lastmile_qr_scan", "ios": "https://dc.lft.to/lastmile_qr_scan"}, "name": "a68913db6c066d6ebb2cffe56f3a745d", "type": "electric_bike", "lat": 38.84852, "is_disabled": 0}, {"fusion_lat": 0.0, "lon": -76.97396533333334, "is_reserved": 0, "bike_id": "eb3b8533bbeb105031d45845acfa2e2d", "fusion_lon": 0.0, "rental_uris": {"android": "https://dc.lft.to/lastmile_qr_scan", "ios": "https://dc.lft.to/lastmile_qr_scan"}, "name": "eb3b8533bbeb105031d45845acfa2e2d", "type": "electric_scooter", "lat": 38.90298033333333, "is_disabled": 0}, {"fusion_lat": 0.0, "lon": -77.000818, "is_reserved": 0, "bike_id": "3a6c913bce59536042bde123a951470f", "fusion_lon": 0.0, "rental_uris": {"android": "https://dc.lft.to/lastmile_qr_scan", "ios": "https://dc.lft.to/lastmile_qr_scan"}, "name": "3a6c913bce59536042bde123a951470f", "type": "electric_scooter", "lat": 38.907059333333336, "is_disabled": 0}, {"fusion_lat": 0.0, "lon": -77.0005605, "is_reserved": 0, "bike_id": "342c47144b6c2571e0c9c4b2d0ee191f", "fusion_lon": 0.0, "rental_uris": {"android": "https://dc.lft.to/lastmile_qr_scan", "ios": "https://dc.lft.to/lastmile_qr_scan"}, "name": "342c47144b6c2571e0c9c4b2d0ee191f", "type": "electric_scooter", "lat": 38.900044666666666, "is_disabled": 0}, {"fusion_lat": 0.0, "lon": -77.01815666666667, "is_reserved": 0, "bike_id": "f48c7f12ab8f445b550e6665e2c1c0da", "fusion_lon": 0.0, "rental_uris": {"android": "https://dc.lft.to/lastmile_qr_scan", "ios": "https://dc.lft.to/lastmile_qr_scan"}, "name": "f48c7f12ab8f445b550e6665e2c1c0da", "type": "electric_scooter", "lat": 38.9304545, "is_disabled": 0}, {"fusion_lat": 0.0, "lon": -77.03896483333334, "is_reserved": 0, "bike_id": "cdd3f7f2bd5909466716bfdd9e7d82fe", "fusion_lon": 0.0, "rental_uris": {"android": "https://dc.lft.to/lastmile_qr_scan", "ios": "https://dc.lft.to/lastmile_qr_scan"}, "name": "cdd3f7f2bd5909466716bfdd9e7d82fe", "type": "electric_scooter", "lat": 38.918741833333335, "is_disabled": 0}, {"fusion_lat": 0.0, "lon": -77.0742005, "is_reserved": 0, "bike_id": "72818db629281abae3685d860f7a1958", "fusion_lon": 0.0, "rental_uris": {"android": "https://dc.lft.to/lastmile_qr_scan", "ios": "https://dc.lft.to/lastmile_qr_scan"}, "name": "72818db629281abae3685d860f7a1958", "type": "electric_scooter", "lat": 38.928882333333334, "is_disabled": 0}, {"fusion_lat": 0.0, "lon": -77.048654, "is_reserved": 0, "bike_id": "40bab55ccce3540a3722aea8e557536e", "fusion_lon": 0.0, "rental_uris": {"android": "https://dc.lft.to/lastmile_qr_scan", "ios": "https://dc.lft.to/lastmile_qr_scan"}, "name": "40bab55ccce3540a3722aea8e557536e", "type": "electric_scooter", "lat": 38.905122, "is_disabled": 0}, {"fusion_lat": 0.0, "lon": -77.052692, "is_reserved": 0, "bike_id": "141935f008b943d638e16ac8cb7ef194", "fusion_lon": 0.0, "rental_uris": {"android": "https://dc.lft.to/lastmile_qr_scan", "ios": "https://dc.lft.to/lastmile_qr_scan"}, "name": "141935f008b943d638e16ac8cb7ef194", "type": "electric_scooter", "lat": 38.927824333333334, "is_disabled": 0}, {"fusion_lat": 0.0, "lon": -76.99836266666667, "is_reserved": 0, "bike_id": "532fd27dfcbeae6b5a2dbc1de4facaa4", "fusion_lon": 0.0, "rental_uris": {"android": "https://dc.lft.to/lastmile_qr_scan", "ios": "https://dc.lft.to/lastmile_qr_scan"}, "name": "532fd27dfcbeae6b5a2dbc1de4facaa4", "type": "electric_scooter", "lat": 38.8832645, "is_disabled": 0}, {"fusion_lat": 0.0, "lon": -77.03843816666667, "is_reserved": 0, "bike_id": "a507f1e0c863a713e46655782d8f9f91", "fusion_lon": 0.0, "rental_uris": {"android": "https://dc.lft.to/lastmile_qr_scan", "ios": "https://dc.lft.to/lastmile_qr_scan"}, "name": "a507f1e0c863a713e46655782d8f9f91", "type": "electric_scooter", "lat": 38.9027725, "is_disabled": 0}, {"fusion_lat": 0.0, "lon": -77.024154, "is_reserved": 0, "bike_id": "faab5d6a9347ad47bce50bf6f7ab9454", "fusion_lon": 0.0, "rental_uris": {"android": "https://dc.lft.to/lastmile_qr_scan", "ios": "https://dc.lft.to/lastmile_qr_scan"}, "name": "faab5d6a9347ad47bce50bf6f7ab9454", "type": "electric_scooter", "lat": 38.931073166666664, "is_disabled": 0}, {"fusion_lat": 0.0, "lon": -76.94404783333333, "is_reserved": 0, "bike_id": "29741c0cedb89eb1997135df7f6602b6", "fusion_lon": 0.0, "rental_uris": {"android": "https://dc.lft.to/lastmile_qr_scan", "ios": "https://dc.lft.to/lastmile_qr_scan"}, "name": "29741c0cedb89eb1997135df7f6602b6", "type": "electric_scooter", "lat": 38.8814335, "is_disabled": 0}, {"fusion_lat": 0.0, "lon": -77.05130633333333, "is_reserved": 0, "bike_id": "605f056d9646d560d30ec7a07268de4a", "fusion_lon": 0.0, "rental_uris": {"android": "https://dc.lft.to/lastmile_qr_scan", "ios": "https://dc.lft.to/lastmile_qr_scan"}, "name": "605f056d9646d560d30ec7a07268de4a", "type": "electric_scooter", "lat": 38.90642016666666, "is_disabled": 0}, {"fusion_lat": 0.0, "lon": -77.0452765, "is_reserved": 0, "bike_id": "14bd8d1a13acf9ed0773a41770b39635", "fusion_lon": 0.0, "rental_uris": {"android": "https://dc.lft.to/lastmile_qr_scan", "ios": "https://dc.lft.to/lastmile_qr_scan"}, "name": "14bd8d1a13acf9ed0773a41770b39635", "type": "electric_bike", "lat": 38.858205166666664, "is_disabled": 0}, {"fusion_lat": 0.0, "lon": -76.99350533333333, "is_reserved": 0, "bike_id": "bdd1cf06086056383ef77a9f7ef671f3", "fusion_lon": 0.0, "rental_uris": {"android": "https://dc.lft.to/lastmile_qr_scan", "ios": "https://dc.lft.to/lastmile_qr_scan"}, "name": "bdd1cf06086056383ef77a9f7ef671f3", "type": "electric_bike", "lat": 38.845099166666664, "is_disabled": 0}, {"fusion_lat": 0.0, "lon": -77.03966016666666, "is_reserved": 0, "bike_id": "ca31bfb22410c1e3be7f798c752cb93b", "fusion_lon": 0.0, "rental_uris": {"android": "https://dc.lft.to/lastmile_qr_scan", "ios": "https://dc.lft.to/lastmile_qr_scan"}, "name": "ca31bfb22410c1e3be7f798c752cb93b", "type": "electric_scooter", "lat": 38.90266416666667, "is_disabled": 0}, {"fusion_lat": 0.0, "lon": -77.00658616666666, "is_reserved": 0, "bike_id": "752e904219fa289bfac2c56bf83b0e0c", "fusion_lon": 0.0, "rental_uris": {"android": "https://dc.lft.to/lastmile_qr_scan", "ios": "https://dc.lft.to/lastmile_qr_scan"}, "name": "752e904219fa289bfac2c56bf83b0e0c", "type": "electric_scooter", "lat": 38.90036833333333, "is_disabled": 0}, {"fusion_lat": 0.0, "lon": -77.04579416666667, "is_reserved": 0, "bike_id": "05d11be8ff82398d618656a7aeb7ee3c", "fusion_lon": 0.0, "rental_uris": {"android": "https://dc.lft.to/lastmile_qr_scan", "ios": "https://dc.lft.to/lastmile_qr_scan"}, "name": "05d11be8ff82398d618656a7aeb7ee3c", "type": "electric_scooter", "lat": 38.92143, "is_disabled": 0}, {"fusion_lat": 0.0, "lon": -77.0295015, "is_reserved": 0, "bike_id": "368daad6240a7651fd9331e7f5b9dc99", "fusion_lon": 0.0, "rental_uris": {"android": "https://dc.lft.to/lastmile_qr_scan", "ios": "https://dc.lft.to/lastmile_qr_scan"}, "name": "368daad6240a7651fd9331e7f5b9dc99", "type": "electric_scooter", "lat": 38.89762783333333, "is_disabled": 0}, {"fusion_lat": 0.0, "lon": -77.02877316666667, "is_reserved": 0, "bike_id": "97d62224deea551dbf4aeb737b6ff0a7", "fusion_lon": 0.0, "rental_uris": {"android": "https://dc.lft.to/lastmile_qr_scan", "ios": "https://dc.lft.to/lastmile_qr_scan"}, "name": "97d62224deea551dbf4aeb737b6ff0a7", "type": "electric_scooter", "lat": 38.928147833333334, "is_disabled": 0}, {"fusion_lat": 0.0, "lon": -77.02488966666667, "is_reserved": 0, "bike_id": "647335e132feb3431029bc0d48fcbc6d", "fusion_lon": 0.0, "rental_uris": {"android": "https://dc.lft.to/lastmile_qr_scan", "ios": "https://dc.lft.to/lastmile_qr_scan"}, "name": "647335e132feb3431029bc0d48fcbc6d", "type": "electric_scooter", "lat": 38.94184883333333, "is_disabled": 0}, {"fusion_lat": 0.0, "lon": -77.0269195, "is_reserved": 0, "bike_id": "9dc4b50e3c2c9024e095bdae1b9feb25", "fusion_lon": 0.0, "rental_uris": {"android": "https://dc.lft.to/lastmile_qr_scan", "ios": "https://dc.lft.to/lastmile_qr_scan"}, "name": "9dc4b50e3c2c9024e095bdae1b9feb25", "type": "electric_scooter", "lat": 38.926661833333334, "is_disabled": 0}, {"fusion_lat": 0.0, "lon": -77.0415095, "is_reserved": 0, "bike_id": "7351e020a2c7fca12b6a842377a6f908", "fusion_lon": 0.0, "rental_uris": {"android": "https://dc.lft.to/lastmile_qr_scan", "ios": "https://dc.lft.to/lastmile_qr_scan"}, "name": "7351e020a2c7fca12b6a842377a6f908", "type": "electric_bike", "lat": 38.90732416666667, "is_disabled": 0}, {"fusion_lat": 0.0, "lon": -77.0092615, "is_reserved": 0, "bike_id": "b756788691a70262ed2a6489d3f60169", "fusion_lon": 0.0, "rental_uris": {"android": "https://dc.lft.to/lastmile_qr_scan", "ios": "https://dc.lft.to/lastmile_qr_scan"}, "name": "b756788691a70262ed2a6489d3f60169", "type": "electric_scooter", "lat": 38.89612016666667, "is_disabled": 0}, {"fusion_lat": 0.0, "lon": -77.00769916666667, "is_reserved": 0, "bike_id": "fbc9fa2dc6ba9db22cffae1556ee21f0", "fusion_lon": 0.0, "rental_uris": {"android": "https://dc.lft.to/lastmile_qr_scan", "ios": "https://dc.lft.to/lastmile_qr_scan"}, "name": "fbc9fa2dc6ba9db22cffae1556ee21f0", "type": "electric_bike", "lat": 38.98391483333333, "is_disabled": 0}, {"fusion_lat": 0.0, "lon": -77.03335416666667, "is_reserved": 0, "bike_id": "f7fff7cf0b7140815fe58d632a6e9cc9", "fusion_lon": 0.0, "rental_uris": {"android": "https://dc.lft.to/lastmile_qr_scan", "ios": "https://dc.lft.to/lastmile_qr_scan"}, "name": "f7fff7cf0b7140815fe58d632a6e9cc9", "type": "electric_scooter", "lat": 38.917006, "is_disabled": 0}, {"fusion_lat": 0.0, "lon": -77.04119583333333, "is_reserved": 0, "bike_id": "73da7a70354493422c4362fa7a657630", "fusion_lon": 0.0, "rental_uris": {"android": "https://dc.lft.to/lastmile_qr_scan", "ios": "https://dc.lft.to/lastmile_qr_scan"}, "name": "73da7a70354493422c4362fa7a657630", "type": "electric_scooter", "lat": 38.90601183333333, "is_disabled": 0}, {"fusion_lat": 0.0, "lon": -77.01065783333334, "is_reserved": 0, "bike_id": "df19f871ddae3ad6a221e630f0f281e4", "fusion_lon": 0.0, "rental_uris": {"android": "https://dc.lft.to/lastmile_qr_scan", "ios": "https://dc.lft.to/lastmile_qr_scan"}, "name": "df19f871ddae3ad6a221e630f0f281e4", "type": "electric_scooter", "lat": 38.91268933333333, "is_disabled": 0}, {"fusion_lat": 0.0, "lon": -77.02275233333333, "is_reserved": 0, "bike_id": "e0d8973041ad533b354455a25974ab45", "fusion_lon": 0.0, "rental_uris": {"android": "https://dc.lft.to/lastmile_qr_scan", "ios": "https://dc.lft.to/lastmile_qr_scan"}, "name": "e0d8973041ad533b354455a25974ab45", "type": "electric_scooter", "lat": 38.90209816666667, "is_disabled": 0}, {"fusion_lat": 0.0, "lon": -76.99455783333333, "is_reserved": 0, "bike_id": "90b78b214b1f940aade9c860c4169c84", "fusion_lon": 0.0, "rental_uris": {"android": "https://dc.lft.to/lastmile_qr_scan", "ios": "https://dc.lft.to/lastmile_qr_scan"}, "name": "90b78b214b1f940aade9c860c4169c84", "type": "electric_scooter", "lat": 38.862180333333335, "is_disabled": 0}, {"fusion_lat": 0.0, "lon": -77.04542916666666, "is_reserved": 0, "bike_id": "38209fc8308f0377b4028906634ed110", "fusion_lon": 0.0, "rental_uris": {"android": "https://dc.lft.to/lastmile_qr_scan", "ios": "https://dc.lft.to/lastmile_qr_scan"}, "name": "38209fc8308f0377b4028906634ed110", "type": "electric_scooter", "lat": 38.8961145, "is_disabled": 0}, {"fusion_lat": 0.0, "lon": -76.9977035, "is_reserved": 0, "bike_id": "e5bd8d99e496de22151e18a45c2383d8", "fusion_lon": 0.0, "rental_uris": {"android": "https://dc.lft.to/lastmile_qr_scan", "ios": "https://dc.lft.to/lastmile_qr_scan"}, "name": "e5bd8d99e496de22151e18a45c2383d8", "type": "electric_scooter", "lat": 38.90888266666666, "is_disabled": 0}, {"fusion_lat": 0.0, "lon": -76.98372916666666, "is_reserved": 0, "bike_id": "ae0a642907104f747027cf0f26a96573", "fusion_lon": 0.0, "rental_uris": {"android": "https://dc.lft.to/lastmile_qr_scan", "ios": "https://dc.lft.to/lastmile_qr_scan"}, "name": "ae0a642907104f747027cf0f26a96573", "type": "electric_scooter", "lat": 38.90648183333333, "is_disabled": 0}, {"fusion_lat": 0.0, "lon": -77.00345466666667, "is_reserved": 0, "bike_id": "6046abff2cb7a40ae4b499bc93eff4a6", "fusion_lon": 0.0, "rental_uris": {"android": "https://dc.lft.to/lastmile_qr_scan", "ios": "https://dc.lft.to/lastmile_qr_scan"}, "name": "6046abff2cb7a40ae4b499bc93eff4a6", "type": "electric_scooter", "lat": 38.88708533333333, "is_disabled": 0}, {"fusion_lat": 0.0, "lon": -77.04376816666667, "is_reserved": 0, "bike_id": "b3ddff6d427afc454ec883daa62dbd7d", "fusion_lon": 0.0, "rental_uris": {"android": "https://dc.lft.to/lastmile_qr_scan", "ios": "https://dc.lft.to/lastmile_qr_scan"}, "name": "b3ddff6d427afc454ec883daa62dbd7d", "type": "electric_scooter", "lat": 38.892207, "is_disabled": 0}, {"fusion_lat": 0.0, "lon": -76.98715516666667, "is_reserved": 0, "bike_id": "19ca6a58f33c701afa6d0e5e77530ee5", "fusion_lon": 0.0, "rental_uris": {"android": "https://dc.lft.to/lastmile_qr_scan", "ios": "https://dc.lft.to/lastmile_qr_scan"}, "name": "19ca6a58f33c701afa6d0e5e77530ee5", "type": "electric_scooter", "lat": 38.8662885, "is_disabled": 0}, {"fusion_lat": 0.0, "lon": -76.98966866666666, "is_reserved": 0, "bike_id": "4e11502f542c5a7dc04a8026ce33c49a", "fusion_lon": 0.0, "rental_uris": {"android": "https://dc.lft.to/lastmile_qr_scan", "ios": "https://dc.lft.to/lastmile_qr_scan"}, "name": "4e11502f542c5a7dc04a8026ce33c49a", "type": "electric_scooter", "lat": 38.856959333333336, "is_disabled": 0}, {"fusion_lat": 0.0, "lon": -77.0294515, "is_reserved": 0, "bike_id": "3ce44e7c839f1f4b2e6686d5ee068e70", "fusion_lon": 0.0, "rental_uris": {"android": "https://dc.lft.to/lastmile_qr_scan", "ios": "https://dc.lft.to/lastmile_qr_scan"}, "name": "3ce44e7c839f1f4b2e6686d5ee068e70", "type": "electric_scooter", "lat": 38.90508533333333, "is_disabled": 0}, {"fusion_lat": 0.0, "lon": -76.95181416666667, "is_reserved": 0, "bike_id": "bebc64692ce6fa23187d001c34ca5352", "fusion_lon": 0.0, "rental_uris": {"android": "https://dc.lft.to/lastmile_qr_scan", "ios": "https://dc.lft.to/lastmile_qr_scan"}, "name": "bebc64692ce6fa23187d001c34ca5352", "type": "electric_scooter", "lat": 38.90741416666667, "is_disabled": 0}, {"fusion_lat": 0.0, "lon": -77.00909233333333, "is_reserved": 0, "bike_id": "1f4c987306e5f1b320c06bb939982fb1", "fusion_lon": 0.0, "rental_uris": {"android": "https://dc.lft.to/lastmile_qr_scan", "ios": "https://dc.lft.to/lastmile_qr_scan"}, "name": "1f4c987306e5f1b320c06bb939982fb1", "type": "electric_scooter", "lat": 38.900455666666666, "is_disabled": 0}, {"fusion_lat": 0.0, "lon": -77.019701, "is_reserved": 0, "bike_id": "a901c4c09047c89ffaca69296646e23e", "fusion_lon": 0.0, "rental_uris": {"android": "https://dc.lft.to/lastmile_qr_scan", "ios": "https://dc.lft.to/lastmile_qr_scan"}, "name": "a901c4c09047c89ffaca69296646e23e", "type": "electric_scooter", "lat": 38.87848416666667, "is_disabled": 0}, {"fusion_lat": 0.0, "lon": -76.996164, "is_reserved": 0, "bike_id": "a36e28bfae43792dd7f5faa49bde56ac", "fusion_lon": 0.0, "rental_uris": {"android": "https://dc.lft.to/lastmile_qr_scan", "ios": "https://dc.lft.to/lastmile_qr_scan"}, "name": "a36e28bfae43792dd7f5faa49bde56ac", "type": "electric_scooter", "lat": 38.886244, "is_disabled": 0}, {"fusion_lat": 0.0, "lon": -76.99814183333334, "is_reserved": 0, "bike_id": "908fbcd9e88433be3ea4a48e4516fed8", "fusion_lon": 0.0, "rental_uris": {"android": "https://dc.lft.to/lastmile_qr_scan", "ios": "https://dc.lft.to/lastmile_qr_scan"}, "name": "908fbcd9e88433be3ea4a48e4516fed8", "type": "electric_scooter", "lat": 38.90003266666667, "is_disabled": 0}, {"fusion_lat": 0.0, "lon": -77.02251583333333, "is_reserved": 0, "bike_id": "09346ec588328e652b83e8cbabb54b6b", "fusion_lon": 0.0, "rental_uris": {"android": "https://dc.lft.to/lastmile_qr_scan", "ios": "https://dc.lft.to/lastmile_qr_scan"}, "name": "09346ec588328e652b83e8cbabb54b6b", "type": "electric_scooter", "lat": 38.893955166666665, "is_disabled": 0}, {"fusion_lat": 0.0, "lon": -77.0432535, "is_reserved": 0, "bike_id": "fe0a2cb575e6c64b06f249232e81b97b", "fusion_lon": 0.0, "rental_uris": {"android": "https://dc.lft.to/lastmile_qr_scan", "ios": "https://dc.lft.to/lastmile_qr_scan"}, "name": "fe0a2cb575e6c64b06f249232e81b97b", "type": "electric_scooter", "lat": 38.89222866666667, "is_disabled": 0}, {"fusion_lat": 0.0, "lon": -76.98692, "is_reserved": 0, "bike_id": "fd538d690bdf80e9fe3a9ac228ad1882", "fusion_lon": 0.0, "rental_uris": {"android": "https://dc.lft.to/lastmile_qr_scan", "ios": "https://dc.lft.to/lastmile_qr_scan"}, "name": "fd538d690bdf80e9fe3a9ac228ad1882", "type": "electric_scooter", "lat": 38.862566, "is_disabled": 0}, {"fusion_lat": 0.0, "lon": -77.0588515, "is_reserved": 0, "bike_id": "a66112a27d70d5bd1ee2c931eb7d8984", "fusion_lon": 0.0, "rental_uris": {"android": "https://dc.lft.to/lastmile_qr_scan", "ios": "https://dc.lft.to/lastmile_qr_scan"}, "name": "a66112a27d70d5bd1ee2c931eb7d8984", "type": "electric_scooter", "lat": 38.936370333333336, "is_disabled": 0}, {"fusion_lat": 0.0, "lon": -77.032724, "is_reserved": 0, "bike_id": "3d04919829f4442980e50cabc74130e8", "fusion_lon": 0.0, "rental_uris": {"android": "https://dc.lft.to/lastmile_qr_scan", "ios": "https://dc.lft.to/lastmile_qr_scan"}, "name": "3d04919829f4442980e50cabc74130e8", "type": "electric_scooter", "lat": 38.90294633333333, "is_disabled": 0}, {"fusion_lat": 0.0, "lon": -77.00292383333333, "is_reserved": 0, "bike_id": "83890caef38c41b007bf27662b8676d2", "fusion_lon": 0.0, "rental_uris": {"android": "https://dc.lft.to/lastmile_qr_scan", "ios": "https://dc.lft.to/lastmile_qr_scan"}, "name": "83890caef38c41b007bf27662b8676d2", "type": "electric_scooter", "lat": 38.8948945, "is_disabled": 0}, {"fusion_lat": 0.0, "lon": -77.000409, "is_reserved": 0, "bike_id": "2fdd1320654b8fb4d26bf3a08912928f", "fusion_lon": 0.0, "rental_uris": {"android": "https://dc.lft.to/lastmile_qr_scan", "ios": "https://dc.lft.to/lastmile_qr_scan"}, "name": "2fdd1320654b8fb4d26bf3a08912928f", "type": "electric_scooter", "lat": 38.900135666666664, "is_disabled": 0}, {"fusion_lat": 0.0, "lon": -76.97331283333334, "is_reserved": 0, "bike_id": "289f563a6891112b9600a2b64f87daf1", "fusion_lon": 0.0, "rental_uris": {"android": "https://dc.lft.to/lastmile_qr_scan", "ios": "https://dc.lft.to/lastmile_qr_scan"}, "name": "289f563a6891112b9600a2b64f87daf1", "type": "electric_scooter", "lat": 38.9041015, "is_disabled": 0}, {"fusion_lat": 0.0, "lon": -77.02304783333334, "is_reserved": 0, "bike_id": "52ee328e0d643a45c803c19000e119b0", "fusion_lon": 0.0, "rental_uris": {"android": "https://dc.lft.to/lastmile_qr_scan", "ios": "https://dc.lft.to/lastmile_qr_scan"}, "name": "52ee328e0d643a45c803c19000e119b0", "type": "electric_scooter", "lat": 38.90161283333333, "is_disabled": 0}, {"fusion_lat": 0.0, "lon": -76.99365566666667, "is_reserved": 0, "bike_id": "f7ca8631082637da2de272e1b79739cc", "fusion_lon": 0.0, "rental_uris": {"android": "https://dc.lft.to/lastmile_qr_scan", "ios": "https://dc.lft.to/lastmile_qr_scan"}, "name": "f7ca8631082637da2de272e1b79739cc", "type": "electric_scooter", "lat": 38.928417, "is_disabled": 0}, {"fusion_lat": 0.0, "lon": -77.0215975, "is_reserved": 0, "bike_id": "bfe654393fb08b1ddb24bc5530de8e15", "fusion_lon": 0.0, "rental_uris": {"android": "https://dc.lft.to/lastmile_qr_scan", "ios": "https://dc.lft.to/lastmile_qr_scan"}, "name": "bfe654393fb08b1ddb24bc5530de8e15", "type": "electric_scooter", "lat": 38.926165833333336, "is_disabled": 0}, {"fusion_lat": 0.0, "lon": -77.00210866666667, "is_reserved": 0, "bike_id": "09ef06d359eaf99b63c2d1a9b3f38974", "fusion_lon": 0.0, "rental_uris": {"android": "https://dc.lft.to/lastmile_qr_scan", "ios": "https://dc.lft.to/lastmile_qr_scan"}, "name": "09ef06d359eaf99b63c2d1a9b3f38974", "type": "electric_scooter", "lat": 38.895463666666664, "is_disabled": 0}, {"fusion_lat": 0.0, "lon": -77.06292383333333, "is_reserved": 0, "bike_id": "f9b415b73fda841bdc3793af62fab1ce", "fusion_lon": 0.0, "rental_uris": {"android": "https://dc.lft.to/lastmile_qr_scan", "ios": "https://dc.lft.to/lastmile_qr_scan"}, "name": "f9b415b73fda841bdc3793af62fab1ce", "type": "electric_scooter", "lat": 38.943467, "is_disabled": 0}, {"fusion_lat": 0.0, "lon": -77.00375316666667, "is_reserved": 0, "bike_id": "3249ed678ef8c67e8c3d36028d3e206a", "fusion_lon": 0.0, "rental_uris": {"android": "https://dc.lft.to/lastmile_qr_scan", "ios": "https://dc.lft.to/lastmile_qr_scan"}, "name": "3249ed678ef8c67e8c3d36028d3e206a", "type": "electric_scooter", "lat": 38.897366166666664, "is_disabled": 0}, {"fusion_lat": 0.0, "lon": -77.043234, "is_reserved": 0, "bike_id": "3d20f7f8bd9a2dfd5674ca37ffb58721", "fusion_lon": 0.0, "rental_uris": {"android": "https://dc.lft.to/lastmile_qr_scan", "ios": "https://dc.lft.to/lastmile_qr_scan"}, "name": "3d20f7f8bd9a2dfd5674ca37ffb58721", "type": "electric_scooter", "lat": 38.90883933333333, "is_disabled": 0}, {"fusion_lat": 0.0, "lon": -77.03162633333334, "is_reserved": 0, "bike_id": "8a88ef9bb84f636426341b26a4873cb5", "fusion_lon": 0.0, "rental_uris": {"android": "https://dc.lft.to/lastmile_qr_scan", "ios": "https://dc.lft.to/lastmile_qr_scan"}, "name": "8a88ef9bb84f636426341b26a4873cb5", "type": "electric_bike", "lat": 38.921023166666664, "is_disabled": 0}, {"fusion_lat": 0.0, "lon": -77.18562883333334, "is_reserved": 0, "bike_id": "e824ea5432426841c3829ee59c3d23ea", "fusion_lon": 0.0, "rental_uris": {"android": "https://dc.lft.to/lastmile_qr_scan", "ios": "https://dc.lft.to/lastmile_qr_scan"}, "name": "e824ea5432426841c3829ee59c3d23ea", "type": "electric_bike", "lat": 39.099781, "is_disabled": 0}, {"fusion_lat": 0.0, "lon": -76.99611416666667, "is_reserved": 0, "bike_id": "2227bb505f1786e3f9a507ba3b5f64e6", "fusion_lon": 0.0, "rental_uris": {"android": "https://dc.lft.to/lastmile_qr_scan", "ios": "https://dc.lft.to/lastmile_qr_scan"}, "name": "2227bb505f1786e3f9a507ba3b5f64e6", "type": "electric_scooter", "lat": 38.88698216666667, "is_disabled": 0}, {"fusion_lat": 0.0, "lon": -76.97943483333333, "is_reserved": 0, "bike_id": "34b5a7a809b7ead96e2d01369ff34850", "fusion_lon": 0.0, "rental_uris": {"android": "https://dc.lft.to/lastmile_qr_scan", "ios": "https://dc.lft.to/lastmile_qr_scan"}, "name": "34b5a7a809b7ead96e2d01369ff34850", "type": "electric_scooter", "lat": 38.90189483333333, "is_disabled": 0}, {"fusion_lat": 0.0, "lon": -77.03209483333333, "is_reserved": 0, "bike_id": "9bce02492f62b3928eac0bbc764f2936", "fusion_lon": 0.0, "rental_uris": {"android": "https://dc.lft.to/lastmile_qr_scan", "ios": "https://dc.lft.to/lastmile_qr_scan"}, "name": "9bce02492f62b3928eac0bbc764f2936", "type": "electric_scooter", "lat": 38.92082033333333, "is_disabled": 0}, {"fusion_lat": 0.0, "lon": -77.04006316666667, "is_reserved": 0, "bike_id": "f62b6f89f5a3bdafcff2d7eff32a7966", "fusion_lon": 0.0, "rental_uris": {"android": "https://dc.lft.to/lastmile_qr_scan", "ios": "https://dc.lft.to/lastmile_qr_scan"}, "name": "f62b6f89f5a3bdafcff2d7eff32a7966", "type": "electric_scooter", "lat": 38.9079135, "is_disabled": 0}, {"fusion_lat": 0.0, "lon": -77.03565866666666, "is_reserved": 0, "bike_id": "891e416ff8093bca41a5202d2a31dedc", "fusion_lon": 0.0, "rental_uris": {"android": "https://dc.lft.to/lastmile_qr_scan", "ios": "https://dc.lft.to/lastmile_qr_scan"}, "name": "891e416ff8093bca41a5202d2a31dedc", "type": "electric_scooter", "lat": 38.909599, "is_disabled": 0}, {"fusion_lat": 0.0, "lon": -77.02389366666667, "is_reserved": 0, "bike_id": "a68a3449e0f97656586d87be396c7fc6", "fusion_lon": 0.0, "rental_uris": {"android": "https://dc.lft.to/lastmile_qr_scan", "ios": "https://dc.lft.to/lastmile_qr_scan"}, "name": "a68a3449e0f97656586d87be396c7fc6", "type": "electric_scooter", "lat": 38.896163666666666, "is_disabled": 0}, {"fusion_lat": 0.0, "lon": -77.0143665, "is_reserved": 0, "bike_id": "8a7d63513ffb47bedc61cdfa8437cfe9", "fusion_lon": 0.0, "rental_uris": {"android": "https://dc.lft.to/lastmile_qr_scan", "ios": "https://dc.lft.to/lastmile_qr_scan"}, "name": "8a7d63513ffb47bedc61cdfa8437cfe9", "type": "electric_scooter", "lat": 38.92993716666667, "is_disabled": 0}, {"fusion_lat": 0.0, "lon": -76.9989695, "is_reserved": 0, "bike_id": "c0b44d1da7a1686c7ea7b216f6363c5f", "fusion_lon": 0.0, "rental_uris": {"android": "https://dc.lft.to/lastmile_qr_scan", "ios": "https://dc.lft.to/lastmile_qr_scan"}, "name": "c0b44d1da7a1686c7ea7b216f6363c5f", "type": "electric_scooter", "lat": 38.9095195, "is_disabled": 0}, {"fusion_lat": 0.0, "lon": -77.069224, "is_reserved": 0, "bike_id": "53acc9df42293090be68cb82f1151507", "fusion_lon": 0.0, "rental_uris": {"android": "https://dc.lft.to/lastmile_qr_scan", "ios": "https://dc.lft.to/lastmile_qr_scan"}, "name": "53acc9df42293090be68cb82f1151507", "type": "electric_bike", "lat": 38.9612115, "is_disabled": 0}, {"fusion_lat": 0.0, "lon": -77.05955833333333, "is_reserved": 0, "bike_id": "d412826420d590f909554d100da21828", "fusion_lon": 0.0, "rental_uris": {"android": "https://dc.lft.to/lastmile_qr_scan", "ios": "https://dc.lft.to/lastmile_qr_scan"}, "name": "d412826420d590f909554d100da21828", "type": "electric_scooter", "lat": 38.90761333333333, "is_disabled": 0}, {"fusion_lat": 0.0, "lon": -77.01376766666667, "is_reserved": 0, "bike_id": "0fc490fdaeae829635da48db595ce78d", "fusion_lon": 0.0, "rental_uris": {"android": "https://dc.lft.to/lastmile_qr_scan", "ios": "https://dc.lft.to/lastmile_qr_scan"}, "name": "0fc490fdaeae829635da48db595ce78d", "type": "electric_scooter", "lat": 38.928647833333336, "is_disabled": 0}, {"fusion_lat": 0.0, "lon": -77.0221465, "is_reserved": 0, "bike_id": "043e9dd52ade0ff9e0d46c24dd4c48df", "fusion_lon": 0.0, "rental_uris": {"android": "https://dc.lft.to/lastmile_qr_scan", "ios": "https://dc.lft.to/lastmile_qr_scan"}, "name": "043e9dd52ade0ff9e0d46c24dd4c48df", "type": "electric_scooter", "lat": 38.905655833333334, "is_disabled": 0}, {"fusion_lat": 0.0, "lon": -76.9361015, "is_reserved": 0, "bike_id": "161e73652b822f9ff045d4e95861086a", "fusion_lon": 0.0, "rental_uris": {"android": "https://dc.lft.to/lastmile_qr_scan", "ios": "https://dc.lft.to/lastmile_qr_scan"}, "name": "161e73652b822f9ff045d4e95861086a", "type": "electric_scooter", "lat": 38.8968345, "is_disabled": 0}, {"fusion_lat": 0.0, "lon": -77.02526516666667, "is_reserved": 0, "bike_id": "1e5a5ae9a91d9b018521752182e50f91", "fusion_lon": 0.0, "rental_uris": {"android": "https://dc.lft.to/lastmile_qr_scan", "ios": "https://dc.lft.to/lastmile_qr_scan"}, "name": "1e5a5ae9a91d9b018521752182e50f91", "type": "electric_scooter", "lat": 38.92985566666667, "is_disabled": 0}, {"fusion_lat": 0.0, "lon": -76.9732955, "is_reserved": 0, "bike_id": "b52d4b0aee931546a1e1c0725cb12119", "fusion_lon": 0.0, "rental_uris": {"android": "https://dc.lft.to/lastmile_qr_scan", "ios": "https://dc.lft.to/lastmile_qr_scan"}, "name": "b52d4b0aee931546a1e1c0725cb12119", "type": "electric_scooter", "lat": 38.90410516666667, "is_disabled": 0}, {"fusion_lat": 0.0, "lon": -77.031685, "is_reserved": 0, "bike_id": "410c66b1090afd503cd44754a6e56031", "fusion_lon": 0.0, "rental_uris": {"android": "https://dc.lft.to/lastmile_qr_scan", "ios": "https://dc.lft.to/lastmile_qr_scan"}, "name": "410c66b1090afd503cd44754a6e56031", "type": "electric_scooter", "lat": 38.8996295, "is_disabled": 0}, {"fusion_lat": 0.0, "lon": -77.03081183333333, "is_reserved": 0, "bike_id": "cd0eed9239e3a39e5806ab973394c4b5", "fusion_lon": 0.0, "rental_uris": {"android": "https://dc.lft.to/lastmile_qr_scan", "ios": "https://dc.lft.to/lastmile_qr_scan"}, "name": "cd0eed9239e3a39e5806ab973394c4b5", "type": "electric_scooter", "lat": 38.9224615, "is_disabled": 0}, {"fusion_lat": 0.0, "lon": -77.02710266666666, "is_reserved": 0, "bike_id": "9a94494ed35fc1cd93125c684e2c908d", "fusion_lon": 0.0, "rental_uris": {"android": "https://dc.lft.to/lastmile_qr_scan", "ios": "https://dc.lft.to/lastmile_qr_scan"}, "name": "9a94494ed35fc1cd93125c684e2c908d", "type": "electric_scooter", "lat": 38.918034166666665, "is_disabled": 0}, {"fusion_lat": 0.0, "lon": -77.00384133333333, "is_reserved": 0, "bike_id": "041daf52f54a32eef1d3b869817c3a4d", "fusion_lon": 0.0, "rental_uris": {"android": "https://dc.lft.to/lastmile_qr_scan", "ios": "https://dc.lft.to/lastmile_qr_scan"}, "name": "041daf52f54a32eef1d3b869817c3a4d", "type": "electric_scooter", "lat": 38.92362133333334, "is_disabled": 0}, {"fusion_lat": 0.0, "lon": -77.02368366666667, "is_reserved": 0, "bike_id": "bac53545754112b637f9942860434fb9", "fusion_lon": 0.0, "rental_uris": {"android": "https://dc.lft.to/lastmile_qr_scan", "ios": "https://dc.lft.to/lastmile_qr_scan"}, "name": "bac53545754112b637f9942860434fb9", "type": "electric_scooter", "lat": 38.89220233333333, "is_disabled": 0}, {"fusion_lat": 0.0, "lon": -77.04041083333334, "is_reserved": 0, "bike_id": "c473d95daef99ad04f8f8cfd9b17aaf6", "fusion_lon": 0.0, "rental_uris": {"android": "https://dc.lft.to/lastmile_qr_scan", "ios": "https://dc.lft.to/lastmile_qr_scan"}, "name": "c473d95daef99ad04f8f8cfd9b17aaf6", "type": "electric_scooter", "lat": 38.908700333333336, "is_disabled": 0}, {"fusion_lat": 0.0, "lon": -77.0272955, "is_reserved": 0, "bike_id": "af86d0ff3df967671eb807428239c8d1", "fusion_lon": 0.0, "rental_uris": {"android": "https://dc.lft.to/lastmile_qr_scan", "ios": "https://dc.lft.to/lastmile_qr_scan"}, "name": "af86d0ff3df967671eb807428239c8d1", "type": "electric_scooter", "lat": 38.950088666666666, "is_disabled": 0}, {"fusion_lat": 0.0, "lon": -77.0503915, "is_reserved": 0, "bike_id": "3465e1c1a08df8e12c0b2d40021b5012", "fusion_lon": 0.0, "rental_uris": {"android": "https://dc.lft.to/lastmile_qr_scan", "ios": "https://dc.lft.to/lastmile_qr_scan"}, "name": "3465e1c1a08df8e12c0b2d40021b5012", "type": "electric_scooter", "lat": 38.923705166666664, "is_disabled": 0}, {"fusion_lat": 0.0, "lon": -77.02378, "is_reserved": 0, "bike_id": "d1820eca148f5d25d92f1afcc14bdf3d", "fusion_lon": 0.0, "rental_uris": {"android": "https://dc.lft.to/lastmile_qr_scan", "ios": "https://dc.lft.to/lastmile_qr_scan"}, "name": "d1820eca148f5d25d92f1afcc14bdf3d", "type": "electric_scooter", "lat": 38.920007166666664, "is_disabled": 0}, {"fusion_lat": 0.0, "lon": -77.035186, "is_reserved": 0, "bike_id": "58006229f5717047291936938ec9ed3f", "fusion_lon": 0.0, "rental_uris": {"android": "https://dc.lft.to/lastmile_qr_scan", "ios": "https://dc.lft.to/lastmile_qr_scan"}, "name": "58006229f5717047291936938ec9ed3f", "type": "electric_scooter", "lat": 38.921994833333336, "is_disabled": 0}, {"fusion_lat": 0.0, "lon": -77.115904, "is_reserved": 0, "bike_id": "9bcf290c1b663b4750a113ecf7b31254", "fusion_lon": 0.0, "rental_uris": {"android": "https://dc.lft.to/lastmile_qr_scan", "ios": "https://dc.lft.to/lastmile_qr_scan"}, "name": "9bcf290c1b663b4750a113ecf7b31254", "type": "electric_bike", "lat": 39.074959, "is_disabled": 0}, {"fusion_lat": 0.0, "lon": -77.029772, "is_reserved": 0, "bike_id": "11e7d426692ee5bb713039c3e001172a", "fusion_lon": 0.0, "rental_uris": {"android": "https://dc.lft.to/lastmile_qr_scan", "ios": "https://dc.lft.to/lastmile_qr_scan"}, "name": "11e7d426692ee5bb713039c3e001172a", "type": "electric_scooter", "lat": 38.92953383333333, "is_disabled": 0}, {"fusion_lat": 0.0, "lon": -77.01637616666666, "is_reserved": 0, "bike_id": "964b3f6ff9f4c93c5480c462a61dd5e4", "fusion_lon": 0.0, "rental_uris": {"android": "https://dc.lft.to/lastmile_qr_scan", "ios": "https://dc.lft.to/lastmile_qr_scan"}, "name": "964b3f6ff9f4c93c5480c462a61dd5e4", "type": "electric_scooter", "lat": 38.89958583333333, "is_disabled": 0}, {"fusion_lat": 0.0, "lon": -77.05068083333333, "is_reserved": 0, "bike_id": "d5eaeae7b70da003c00652925d6cb3b1", "fusion_lon": 0.0, "rental_uris": {"android": "https://dc.lft.to/lastmile_qr_scan", "ios": "https://dc.lft.to/lastmile_qr_scan"}, "name": "d5eaeae7b70da003c00652925d6cb3b1", "type": "electric_scooter", "lat": 38.90189483333333, "is_disabled": 0}, {"fusion_lat": 0.0, "lon": -77.02373366666667, "is_reserved": 0, "bike_id": "04f7b1180b9f91f8dce795c0906a8bb9", "fusion_lon": 0.0, "rental_uris": {"android": "https://dc.lft.to/lastmile_qr_scan", "ios": "https://dc.lft.to/lastmile_qr_scan"}, "name": "04f7b1180b9f91f8dce795c0906a8bb9", "type": "electric_scooter", "lat": 38.89959983333333, "is_disabled": 0}, {"fusion_lat": 0.0, "lon": -77.045631, "is_reserved": 0, "bike_id": "a964695477118949be61d9c8f2c6aa66", "fusion_lon": 0.0, "rental_uris": {"android": "https://dc.lft.to/lastmile_qr_scan", "ios": "https://dc.lft.to/lastmile_qr_scan"}, "name": "a964695477118949be61d9c8f2c6aa66", "type": "electric_scooter", "lat": 38.897352166666664, "is_disabled": 0}, {"fusion_lat": 0.0, "lon": -77.00607983333333, "is_reserved": 0, "bike_id": "d2ab8977ab1c05df832a36e29052bc2b", "fusion_lon": 0.0, "rental_uris": {"android": "https://dc.lft.to/lastmile_qr_scan", "ios": "https://dc.lft.to/lastmile_qr_scan"}, "name": "d2ab8977ab1c05df832a36e29052bc2b", "type": "electric_scooter", "lat": 38.9059075, "is_disabled": 0}, {"fusion_lat": 0.0, "lon": -77.0238785, "is_reserved": 0, "bike_id": "bfaacb4e4cc74edc86b3f25223983f32", "fusion_lon": 0.0, "rental_uris": {"android": "https://dc.lft.to/lastmile_qr_scan", "ios": "https://dc.lft.to/lastmile_qr_scan"}, "name": "bfaacb4e4cc74edc86b3f25223983f32", "type": "electric_scooter", "lat": 38.9199945, "is_disabled": 0}, {"fusion_lat": 0.0, "lon": -77.041076, "is_reserved": 0, "bike_id": "ad693838c7a111af29c8be2be5582d9b", "fusion_lon": 0.0, "rental_uris": {"android": "https://dc.lft.to/lastmile_qr_scan", "ios": "https://dc.lft.to/lastmile_qr_scan"}, "name": "ad693838c7a111af29c8be2be5582d9b", "type": "electric_scooter", "lat": 38.925133333333335, "is_disabled": 0}, {"fusion_lat": 0.0, "lon": -77.02169316666667, "is_reserved": 0, "bike_id": "10cdc8a19e225f47b9d2b27cf2f642a4", "fusion_lon": 0.0, "rental_uris": {"android": "https://dc.lft.to/lastmile_qr_scan", "ios": "https://dc.lft.to/lastmile_qr_scan"}, "name": "10cdc8a19e225f47b9d2b27cf2f642a4", "type": "electric_bike", "lat": 38.893888, "is_disabled": 0}, {"fusion_lat": 0.0, "lon": -77.00339766666667, "is_reserved": 0, "bike_id": "7fcc3bcad34578897abef569957a85f9", "fusion_lon": 0.0, "rental_uris": {"android": "https://dc.lft.to/lastmile_qr_scan", "ios": "https://dc.lft.to/lastmile_qr_scan"}, "name": "7fcc3bcad34578897abef569957a85f9", "type": "electric_scooter", "lat": 38.91612883333333, "is_disabled": 0}, {"fusion_lat": 0.0, "lon": -77.00203883333333, "is_reserved": 0, "bike_id": "fe2f081f9ffbafa32fe9abf83ca28682", "fusion_lon": 0.0, "rental_uris": {"android": "https://dc.lft.to/lastmile_qr_scan", "ios": "https://dc.lft.to/lastmile_qr_scan"}, "name": "fe2f081f9ffbafa32fe9abf83ca28682", "type": "electric_scooter", "lat": 38.90031283333333, "is_disabled": 0}, {"fusion_lat": 0.0, "lon": -77.04406016666667, "is_reserved": 0, "bike_id": "20022a9d61d64620b7e9b499ffae375f", "fusion_lon": 0.0, "rental_uris": {"android": "https://dc.lft.to/lastmile_qr_scan", "ios": "https://dc.lft.to/lastmile_qr_scan"}, "name": "20022a9d61d64620b7e9b499ffae375f", "type": "electric_scooter", "lat": 38.92449666666667, "is_disabled": 0}, {"fusion_lat": 0.0, "lon": -76.990321, "is_reserved": 0, "bike_id": "026f3c03322e9abefadf5fc190575f6e", "fusion_lon": 0.0, "rental_uris": {"android": "https://dc.lft.to/lastmile_qr_scan", "ios": "https://dc.lft.to/lastmile_qr_scan"}, "name": "026f3c03322e9abefadf5fc190575f6e", "type": "electric_scooter", "lat": 38.89856183333333, "is_disabled": 0}, {"fusion_lat": 0.0, "lon": -77.0333245, "is_reserved": 0, "bike_id": "39dfdbd8631010867ca9160fa5979a1d", "fusion_lon": 0.0, "rental_uris": {"android": "https://dc.lft.to/lastmile_qr_scan", "ios": "https://dc.lft.to/lastmile_qr_scan"}, "name": "39dfdbd8631010867ca9160fa5979a1d", "type": "electric_scooter", "lat": 38.92884266666667, "is_disabled": 0}, {"fusion_lat": 0.0, "lon": -77.02228066666666, "is_reserved": 0, "bike_id": "c52755558b13827e8648339ba59d8743", "fusion_lon": 0.0, "rental_uris": {"android": "https://dc.lft.to/lastmile_qr_scan", "ios": "https://dc.lft.to/lastmile_qr_scan"}, "name": "c52755558b13827e8648339ba59d8743", "type": "electric_scooter", "lat": 38.926198, "is_disabled": 0}, {"fusion_lat": 0.0, "lon": -76.98092233333334, "is_reserved": 0, "bike_id": "7f8fb9cd09b55e46303b2c0982d5aa47", "fusion_lon": 0.0, "rental_uris": {"android": "https://dc.lft.to/lastmile_qr_scan", "ios": "https://dc.lft.to/lastmile_qr_scan"}, "name": "7f8fb9cd09b55e46303b2c0982d5aa47", "type": "electric_bike", "lat": 38.95362983333333, "is_disabled": 0}, {"fusion_lat": 0.0, "lon": -77.03839683333334, "is_reserved": 0, "bike_id": "0d18ed8f4fdc598891f5aba55f7e2241", "fusion_lon": 0.0, "rental_uris": {"android": "https://dc.lft.to/lastmile_qr_scan", "ios": "https://dc.lft.to/lastmile_qr_scan"}, "name": "0d18ed8f4fdc598891f5aba55f7e2241", "type": "electric_scooter", "lat": 38.90367466666667, "is_disabled": 0}, {"fusion_lat": 0.0, "lon": -77.02184033333333, "is_reserved": 0, "bike_id": "957a2960af8e39fd3a37f031fa7ba661", "fusion_lon": 0.0, "rental_uris": {"android": "https://dc.lft.to/lastmile_qr_scan", "ios": "https://dc.lft.to/lastmile_qr_scan"}, "name": "957a2960af8e39fd3a37f031fa7ba661", "type": "electric_scooter", "lat": 38.909537, "is_disabled": 0}, {"fusion_lat": 0.0, "lon": -77.01984333333333, "is_reserved": 0, "bike_id": "965cb00b0711f7c262e01893637991a3", "fusion_lon": 0.0, "rental_uris": {"android": "https://dc.lft.to/lastmile_qr_scan", "ios": "https://dc.lft.to/lastmile_qr_scan"}, "name": "965cb00b0711f7c262e01893637991a3", "type": "electric_bike", "lat": 38.9227115, "is_disabled": 0}, {"fusion_lat": 0.0, "lon": -76.989237, "is_reserved": 0, "bike_id": "1630a22c5f94b5dba32ab11e9e25dc67", "fusion_lon": 0.0, "rental_uris": {"android": "https://dc.lft.to/lastmile_qr_scan", "ios": "https://dc.lft.to/lastmile_qr_scan"}, "name": "1630a22c5f94b5dba32ab11e9e25dc67", "type": "electric_scooter", "lat": 38.858146833333336, "is_disabled": 0}, {"fusion_lat": 0.0, "lon": -77.02118483333334, "is_reserved": 0, "bike_id": "9036832521fd90992c1a4c04e885aa93", "fusion_lon": 0.0, "rental_uris": {"android": "https://dc.lft.to/lastmile_qr_scan", "ios": "https://dc.lft.to/lastmile_qr_scan"}, "name": "9036832521fd90992c1a4c04e885aa93", "type": "electric_scooter", "lat": 38.90574483333333, "is_disabled": 0}, {"fusion_lat": 0.0, "lon": -77.06981716666667, "is_reserved": 0, "bike_id": "f629c5eef6642221c9640b81c5c02ddd", "fusion_lon": 0.0, "rental_uris": {"android": "https://dc.lft.to/lastmile_qr_scan", "ios": "https://dc.lft.to/lastmile_qr_scan"}, "name": "f629c5eef6642221c9640b81c5c02ddd", "type": "electric_scooter", "lat": 38.952603333333336, "is_disabled": 0}, {"fusion_lat": 0.0, "lon": -77.01552, "is_reserved": 0, "bike_id": "84d64aa9b505c2fc4ba6dc529a0c92d0", "fusion_lon": 0.0, "rental_uris": {"android": "https://dc.lft.to/lastmile_qr_scan", "ios": "https://dc.lft.to/lastmile_qr_scan"}, "name": "84d64aa9b505c2fc4ba6dc529a0c92d0", "type": "electric_bike", "lat": 38.975045, "is_disabled": 0}, {"fusion_lat": 0.0, "lon": -76.90084933333333, "is_reserved": 0, "bike_id": "515b528fd4a553f7bff6431a5710ded6", "fusion_lon": 0.0, "rental_uris": {"android": "https://dc.lft.to/lastmile_qr_scan", "ios": "https://dc.lft.to/lastmile_qr_scan"}, "name": "515b528fd4a553f7bff6431a5710ded6", "type": "electric_bike", "lat": 38.88753, "is_disabled": 0}, {"fusion_lat": 0.0, "lon": -77.03401133333334, "is_reserved": 0, "bike_id": "e1917cbff27f1b0e30236ea63ededd86", "fusion_lon": 0.0, "rental_uris": {"android": "https://dc.lft.to/lastmile_qr_scan", "ios": "https://dc.lft.to/lastmile_qr_scan"}, "name": "e1917cbff27f1b0e30236ea63ededd86", "type": "electric_scooter", "lat": 38.9096485, "is_disabled": 0}, {"fusion_lat": 0.0, "lon": -77.022769, "is_reserved": 0, "bike_id": "1fb03cb8e1c29d1edefbc51f345fc011", "fusion_lon": 0.0, "rental_uris": {"android": "https://dc.lft.to/lastmile_qr_scan", "ios": "https://dc.lft.to/lastmile_qr_scan"}, "name": "1fb03cb8e1c29d1edefbc51f345fc011", "type": "electric_scooter", "lat": 38.9181705, "is_disabled": 0}, {"fusion_lat": 0.0, "lon": -77.0238905, "is_reserved": 0, "bike_id": "fb1f9f481d035ee272363fd334fc1559", "fusion_lon": 0.0, "rental_uris": {"android": "https://dc.lft.to/lastmile_qr_scan", "ios": "https://dc.lft.to/lastmile_qr_scan"}, "name": "fb1f9f481d035ee272363fd334fc1559", "type": "electric_scooter", "lat": 38.929081833333335, "is_disabled": 0}, {"fusion_lat": 0.0, "lon": -77.01220233333333, "is_reserved": 0, "bike_id": "1c71ef3b270582aec5d92f170f48ca69", "fusion_lon": 0.0, "rental_uris": {"android": "https://dc.lft.to/lastmile_qr_scan", "ios": "https://dc.lft.to/lastmile_qr_scan"}, "name": "1c71ef3b270582aec5d92f170f48ca69", "type": "electric_scooter", "lat": 38.91523766666667, "is_disabled": 0}, {"fusion_lat": 0.0, "lon": -77.045431, "is_reserved": 0, "bike_id": "27c501e17a813b3b1221edb6d912c982", "fusion_lon": 0.0, "rental_uris": {"android": "https://dc.lft.to/lastmile_qr_scan", "ios": "https://dc.lft.to/lastmile_qr_scan"}, "name": "27c501e17a813b3b1221edb6d912c982", "type": "electric_scooter", "lat": 38.9095965, "is_disabled": 0}, {"fusion_lat": 0.0, "lon": -76.98465816666666, "is_reserved": 0, "bike_id": "582a6625ab7a46c4df815a31b6957b78", "fusion_lon": 0.0, "rental_uris": {"android": "https://dc.lft.to/lastmile_qr_scan", "ios": "https://dc.lft.to/lastmile_qr_scan"}, "name": "582a6625ab7a46c4df815a31b6957b78", "type": "electric_scooter", "lat": 38.9004115, "is_disabled": 0}, {"fusion_lat": 0.0, "lon": -77.05128216666667, "is_reserved": 0, "bike_id": "4e3d4bf4f508cfa4272b5cfdf9168409", "fusion_lon": 0.0, "rental_uris": {"android": "https://dc.lft.to/lastmile_qr_scan", "ios": "https://dc.lft.to/lastmile_qr_scan"}, "name": "4e3d4bf4f508cfa4272b5cfdf9168409", "type": "electric_scooter", "lat": 38.89763716666667, "is_disabled": 0}, {"fusion_lat": 0.0, "lon": -77.03172366666666, "is_reserved": 0, "bike_id": "2c1d3724f2b19cac446ad7cef99e36fe", "fusion_lon": 0.0, "rental_uris": {"android": "https://dc.lft.to/lastmile_qr_scan", "ios": "https://dc.lft.to/lastmile_qr_scan"}, "name": "2c1d3724f2b19cac446ad7cef99e36fe", "type": "electric_scooter", "lat": 38.9155225, "is_disabled": 0}, {"fusion_lat": 0.0, "lon": -77.01227816666666, "is_reserved": 0, "bike_id": "f6bd28cce7f117160697a3afcfebb5c7", "fusion_lon": 0.0, "rental_uris": {"android": "https://dc.lft.to/lastmile_qr_scan", "ios": "https://dc.lft.to/lastmile_qr_scan"}, "name": "f6bd28cce7f117160697a3afcfebb5c7", "type": "electric_scooter", "lat": 38.90746166666667, "is_disabled": 0}, {"fusion_lat": 0.0, "lon": -77.03849783333334, "is_reserved": 0, "bike_id": "5e0e1f9e21a9c887213e5769fdd6fb2d", "fusion_lon": 0.0, "rental_uris": {"android": "https://dc.lft.to/lastmile_qr_scan", "ios": "https://dc.lft.to/lastmile_qr_scan"}, "name": "5e0e1f9e21a9c887213e5769fdd6fb2d", "type": "electric_scooter", "lat": 38.911324666666665, "is_disabled": 0}, {"fusion_lat": 0.0, "lon": -77.0379925, "is_reserved": 0, "bike_id": "34a944c58f8d17c983921a860b00e5d5", "fusion_lon": 0.0, "rental_uris": {"android": "https://dc.lft.to/lastmile_qr_scan", "ios": "https://dc.lft.to/lastmile_qr_scan"}, "name": "34a944c58f8d17c983921a860b00e5d5", "type": "electric_scooter", "lat": 38.925073833333336, "is_disabled": 0}, {"fusion_lat": 0.0, "lon": -77.04412016666667, "is_reserved": 0, "bike_id": "9bb2ccfbd9512bd84f63217a13522e11", "fusion_lon": 0.0, "rental_uris": {"android": "https://dc.lft.to/lastmile_qr_scan", "ios": "https://dc.lft.to/lastmile_qr_scan"}, "name": "9bb2ccfbd9512bd84f63217a13522e11", "type": "electric_scooter", "lat": 38.913582, "is_disabled": 0}, {"fusion_lat": 0.0, "lon": -77.00191683333334, "is_reserved": 0, "bike_id": "9955862f908f412937f4e4880055c5ce", "fusion_lon": 0.0, "rental_uris": {"android": "https://dc.lft.to/lastmile_qr_scan", "ios": "https://dc.lft.to/lastmile_qr_scan"}, "name": "9955862f908f412937f4e4880055c5ce", "type": "electric_scooter", "lat": 38.9037935, "is_disabled": 0}, {"fusion_lat": 0.0, "lon": -77.07231633333333, "is_reserved": 0, "bike_id": "21b3caace90d0678277a9782d81ae398", "fusion_lon": 0.0, "rental_uris": {"android": "https://dc.lft.to/lastmile_qr_scan", "ios": "https://dc.lft.to/lastmile_qr_scan"}, "name": "21b3caace90d0678277a9782d81ae398", "type": "electric_scooter", "lat": 38.95967816666667, "is_disabled": 0}, {"fusion_lat": 0.0, "lon": -77.02940716666667, "is_reserved": 0, "bike_id": "81adaa46de3c6ee71f66e9c3f9fe645d", "fusion_lon": 0.0, "rental_uris": {"android": "https://dc.lft.to/lastmile_qr_scan", "ios": "https://dc.lft.to/lastmile_qr_scan"}, "name": "81adaa46de3c6ee71f66e9c3f9fe645d", "type": "electric_scooter", "lat": 38.9326495, "is_disabled": 0}, {"fusion_lat": 0.0, "lon": -77.03925583333333, "is_reserved": 0, "bike_id": "11eb6d78f0b63036c83b17ba18824ccb", "fusion_lon": 0.0, "rental_uris": {"android": "https://dc.lft.to/lastmile_qr_scan", "ios": "https://dc.lft.to/lastmile_qr_scan"}, "name": "11eb6d78f0b63036c83b17ba18824ccb", "type": "electric_bike", "lat": 38.90082016666667, "is_disabled": 0}, {"fusion_lat": 0.0, "lon": -77.07266716666666, "is_reserved": 0, "bike_id": "9abb49cd1379f2b6edd132c55005c552", "fusion_lon": 0.0, "rental_uris": {"android": "https://dc.lft.to/lastmile_qr_scan", "ios": "https://dc.lft.to/lastmile_qr_scan"}, "name": "9abb49cd1379f2b6edd132c55005c552", "type": "electric_scooter", "lat": 38.9348915, "is_disabled": 0}, {"fusion_lat": 0.0, "lon": -77.00567683333334, "is_reserved": 0, "bike_id": "0cfeb83c409d105f0e077b9794b4e5ec", "fusion_lon": 0.0, "rental_uris": {"android": "https://dc.lft.to/lastmile_qr_scan", "ios": "https://dc.lft.to/lastmile_qr_scan"}, "name": "0cfeb83c409d105f0e077b9794b4e5ec", "type": "electric_scooter", "lat": 38.885046833333334, "is_disabled": 0}, {"fusion_lat": 0.0, "lon": -77.00331566666667, "is_reserved": 0, "bike_id": "058d9d3eff1682ecefd4f0a1539f82ec", "fusion_lon": 0.0, "rental_uris": {"android": "https://dc.lft.to/lastmile_qr_scan", "ios": "https://dc.lft.to/lastmile_qr_scan"}, "name": "058d9d3eff1682ecefd4f0a1539f82ec", "type": "electric_scooter", "lat": 38.892171166666664, "is_disabled": 0}, {"fusion_lat": 0.0, "lon": -77.03864583333333, "is_reserved": 0, "bike_id": "554e4c878d5b503d71ac8285b9b8c7db", "fusion_lon": 0.0, "rental_uris": {"android": "https://dc.lft.to/lastmile_qr_scan", "ios": "https://dc.lft.to/lastmile_qr_scan"}, "name": "554e4c878d5b503d71ac8285b9b8c7db", "type": "electric_scooter", "lat": 38.90674466666667, "is_disabled": 0}, {"fusion_lat": 0.0, "lon": -77.018169, "is_reserved": 0, "bike_id": "045adfbd37c46d5459f2c4284a968ffe", "fusion_lon": 0.0, "rental_uris": {"android": "https://dc.lft.to/lastmile_qr_scan", "ios": "https://dc.lft.to/lastmile_qr_scan"}, "name": "045adfbd37c46d5459f2c4284a968ffe", "type": "electric_scooter", "lat": 38.92371683333333, "is_disabled": 0}, {"fusion_lat": 0.0, "lon": -77.032393, "is_reserved": 0, "bike_id": "655724fed925226675d006a7c402440d", "fusion_lon": 0.0, "rental_uris": {"android": "https://dc.lft.to/lastmile_qr_scan", "ios": "https://dc.lft.to/lastmile_qr_scan"}, "name": "655724fed925226675d006a7c402440d", "type": "electric_scooter", "lat": 38.9290265, "is_disabled": 0}, {"fusion_lat": 0.0, "lon": -77.034761, "is_reserved": 0, "bike_id": "2331628ccfe159b86a5c5cc4c323f32b", "fusion_lon": 0.0, "rental_uris": {"android": "https://dc.lft.to/lastmile_qr_scan", "ios": "https://dc.lft.to/lastmile_qr_scan"}, "name": "2331628ccfe159b86a5c5cc4c323f32b", "type": "electric_scooter", "lat": 38.917206666666665, "is_disabled": 0}, {"fusion_lat": 0.0, "lon": -76.88399616666666, "is_reserved": 0, "bike_id": "64b56c6639050b3bb23835197d8ebfe4", "fusion_lon": 0.0, "rental_uris": {"android": "https://dc.lft.to/lastmile_qr_scan", "ios": "https://dc.lft.to/lastmile_qr_scan"}, "name": "64b56c6639050b3bb23835197d8ebfe4", "type": "electric_bike", "lat": 38.931693333333335, "is_disabled": 0}, {"fusion_lat": 0.0, "lon": -77.0399835, "is_reserved": 0, "bike_id": "0dc8275e0a59cd25ba486f285d2f2ad8", "fusion_lon": 0.0, "rental_uris": {"android": "https://dc.lft.to/lastmile_qr_scan", "ios": "https://dc.lft.to/lastmile_qr_scan"}, "name": "0dc8275e0a59cd25ba486f285d2f2ad8", "type": "electric_scooter", "lat": 38.905538166666666, "is_disabled": 0}, {"fusion_lat": 0.0, "lon": -77.02710233333333, "is_reserved": 0, "bike_id": "f755c2152a733d0b4a55e3adca3ee868", "fusion_lon": 0.0, "rental_uris": {"android": "https://dc.lft.to/lastmile_qr_scan", "ios": "https://dc.lft.to/lastmile_qr_scan"}, "name": "f755c2152a733d0b4a55e3adca3ee868", "type": "electric_scooter", "lat": 38.924685, "is_disabled": 0}, {"fusion_lat": 0.0, "lon": -76.98823866666666, "is_reserved": 0, "bike_id": "f59874a5ac4b23d526fb21d720eb2e71", "fusion_lon": 0.0, "rental_uris": {"android": "https://dc.lft.to/lastmile_qr_scan", "ios": "https://dc.lft.to/lastmile_qr_scan"}, "name": "f59874a5ac4b23d526fb21d720eb2e71", "type": "electric_scooter", "lat": 38.89078333333333, "is_disabled": 0}, {"fusion_lat": 0.0, "lon": -76.93162116666667, "is_reserved": 0, "bike_id": "782d9b965212be99c83d6e1c26d7a08b", "fusion_lon": 0.0, "rental_uris": {"android": "https://dc.lft.to/lastmile_qr_scan", "ios": "https://dc.lft.to/lastmile_qr_scan"}, "name": "782d9b965212be99c83d6e1c26d7a08b", "type": "electric_bike", "lat": 38.90867383333333, "is_disabled": 0}, {"fusion_lat": 0.0, "lon": -77.00740433333333, "is_reserved": 0, "bike_id": "23d39a61ca43e771b9ae7433e0a7d3ae", "fusion_lon": 0.0, "rental_uris": {"android": "https://dc.lft.to/lastmile_qr_scan", "ios": "https://dc.lft.to/lastmile_qr_scan"}, "name": "23d39a61ca43e771b9ae7433e0a7d3ae", "type": "electric_scooter", "lat": 38.87634216666667, "is_disabled": 0}, {"fusion_lat": 0.0, "lon": -76.95655583333334, "is_reserved": 0, "bike_id": "ac79a65f07452ceacc34fb995dcf56d2", "fusion_lon": 0.0, "rental_uris": {"android": "https://dc.lft.to/lastmile_qr_scan", "ios": "https://dc.lft.to/lastmile_qr_scan"}, "name": "ac79a65f07452ceacc34fb995dcf56d2", "type": "electric_scooter", "lat": 38.896103333333336, "is_disabled": 0}, {"fusion_lat": 0.0, "lon": -77.046667, "is_reserved": 0, "bike_id": "4eb50f1c0e693b6344f0445fe8523ebc", "fusion_lon": 0.0, "rental_uris": {"android": "https://dc.lft.to/lastmile_qr_scan", "ios": "https://dc.lft.to/lastmile_qr_scan"}, "name": "4eb50f1c0e693b6344f0445fe8523ebc", "type": "electric_scooter", "lat": 38.90381633333333, "is_disabled": 0}, {"fusion_lat": 0.0, "lon": -77.01756333333333, "is_reserved": 0, "bike_id": "57a362d6a916239c0225441e0f1a121a", "fusion_lon": 0.0, "rental_uris": {"android": "https://dc.lft.to/lastmile_qr_scan", "ios": "https://dc.lft.to/lastmile_qr_scan"}, "name": "57a362d6a916239c0225441e0f1a121a", "type": "electric_scooter", "lat": 38.877161, "is_disabled": 0}, {"fusion_lat": 0.0, "lon": -77.01809983333334, "is_reserved": 0, "bike_id": "1a8d3ecc1737f59a2ff0eb08addcc7a5", "fusion_lon": 0.0, "rental_uris": {"android": "https://dc.lft.to/lastmile_qr_scan", "ios": "https://dc.lft.to/lastmile_qr_scan"}, "name": "1a8d3ecc1737f59a2ff0eb08addcc7a5", "type": "electric_scooter", "lat": 38.9648825, "is_disabled": 0}, {"fusion_lat": 0.0, "lon": -77.0464865, "is_reserved": 0, "bike_id": "eea23b434c4a002e3ba4d16a3bcec9da", "fusion_lon": 0.0, "rental_uris": {"android": "https://dc.lft.to/lastmile_qr_scan", "ios": "https://dc.lft.to/lastmile_qr_scan"}, "name": "eea23b434c4a002e3ba4d16a3bcec9da", "type": "electric_bike", "lat": 39.0550135, "is_disabled": 0}, {"fusion_lat": 0.0, "lon": -77.04476, "is_reserved": 0, "bike_id": "db3c3da2b328f625e4da22a6fd0b91a1", "fusion_lon": 0.0, "rental_uris": {"android": "https://dc.lft.to/lastmile_qr_scan", "ios": "https://dc.lft.to/lastmile_qr_scan"}, "name": "db3c3da2b328f625e4da22a6fd0b91a1", "type": "electric_scooter", "lat": 38.91086683333333, "is_disabled": 0}, {"fusion_lat": 0.0, "lon": -76.96838383333333, "is_reserved": 0, "bike_id": "3b0056b2a66dec4c0ba3b6676d1e1a9b", "fusion_lon": 0.0, "rental_uris": {"android": "https://dc.lft.to/lastmile_qr_scan", "ios": "https://dc.lft.to/lastmile_qr_scan"}, "name": "3b0056b2a66dec4c0ba3b6676d1e1a9b", "type": "electric_bike", "lat": 38.9432395, "is_disabled": 0}, {"fusion_lat": 0.0, "lon": -77.045052, "is_reserved": 0, "bike_id": "3bd13c1010e93f7ddd696a9ddd94210f", "fusion_lon": 0.0, "rental_uris": {"android": "https://dc.lft.to/lastmile_qr_scan", "ios": "https://dc.lft.to/lastmile_qr_scan"}, "name": "3bd13c1010e93f7ddd696a9ddd94210f", "type": "electric_scooter", "lat": 38.907851666666666, "is_disabled": 0}, {"fusion_lat": 0.0, "lon": -77.04873416666666, "is_reserved": 0, "bike_id": "d1d1f3f86826536ac91481bf2dce5506", "fusion_lon": 0.0, "rental_uris": {"android": "https://dc.lft.to/lastmile_qr_scan", "ios": "https://dc.lft.to/lastmile_qr_scan"}, "name": "d1d1f3f86826536ac91481bf2dce5506", "type": "electric_scooter", "lat": 38.90592916666667, "is_disabled": 0}, {"fusion_lat": 0.0, "lon": -77.0523265, "is_reserved": 0, "bike_id": "119f4de16faff6df7533335f304fe1ce", "fusion_lon": 0.0, "rental_uris": {"android": "https://dc.lft.to/lastmile_qr_scan", "ios": "https://dc.lft.to/lastmile_qr_scan"}, "name": "119f4de16faff6df7533335f304fe1ce", "type": "electric_scooter", "lat": 38.925127333333336, "is_disabled": 0}, {"fusion_lat": 0.0, "lon": -76.99411316666666, "is_reserved": 0, "bike_id": "004648f32830f1c639b44b76456b922a", "fusion_lon": 0.0, "rental_uris": {"android": "https://dc.lft.to/lastmile_qr_scan", "ios": "https://dc.lft.to/lastmile_qr_scan"}, "name": "004648f32830f1c639b44b76456b922a", "type": "electric_scooter", "lat": 38.877886833333335, "is_disabled": 0}, {"fusion_lat": 0.0, "lon": -77.04989216666667, "is_reserved": 0, "bike_id": "00b65d940802466e3d590bb384d3b647", "fusion_lon": 0.0, "rental_uris": {"android": "https://dc.lft.to/lastmile_qr_scan", "ios": "https://dc.lft.to/lastmile_qr_scan"}, "name": "00b65d940802466e3d590bb384d3b647", "type": "electric_scooter", "lat": 38.89730483333334, "is_disabled": 0}, {"fusion_lat": 0.0, "lon": -77.084007, "is_reserved": 0, "bike_id": "1969a6094707f06f551d9c7ea651f520", "fusion_lon": 0.0, "rental_uris": {"android": "https://dc.lft.to/lastmile_qr_scan", "ios": "https://dc.lft.to/lastmile_qr_scan"}, "name": "1969a6094707f06f551d9c7ea651f520", "type": "electric_scooter", "lat": 38.90809266666667, "is_disabled": 0}, {"fusion_lat": 0.0, "lon": -77.02615916666667, "is_reserved": 0, "bike_id": "bdb06b761950572381b3955c856fbea9", "fusion_lon": 0.0, "rental_uris": {"android": "https://dc.lft.to/lastmile_qr_scan", "ios": "https://dc.lft.to/lastmile_qr_scan"}, "name": "bdb06b761950572381b3955c856fbea9", "type": "electric_scooter", "lat": 38.9298685, "is_disabled": 0}, {"fusion_lat": 0.0, "lon": -77.02870866666666, "is_reserved": 0, "bike_id": "45d0c8725043fb2025ddf6e0abbae19a", "fusion_lon": 0.0, "rental_uris": {"android": "https://dc.lft.to/lastmile_qr_scan", "ios": "https://dc.lft.to/lastmile_qr_scan"}, "name": "45d0c8725043fb2025ddf6e0abbae19a", "type": "electric_scooter", "lat": 38.925708166666666, "is_disabled": 0}, {"fusion_lat": 0.0, "lon": -77.03686783333333, "is_reserved": 0, "bike_id": "b49474ca83428b667e095f55cbe1bfb9", "fusion_lon": 0.0, "rental_uris": {"android": "https://dc.lft.to/lastmile_qr_scan", "ios": "https://dc.lft.to/lastmile_qr_scan"}, "name": "b49474ca83428b667e095f55cbe1bfb9", "type": "electric_scooter", "lat": 38.9167935, "is_disabled": 0}, {"fusion_lat": 0.0, "lon": -77.04355466666667, "is_reserved": 0, "bike_id": "880210928b8487d4f24d5f51d61b46d4", "fusion_lon": 0.0, "rental_uris": {"android": "https://dc.lft.to/lastmile_qr_scan", "ios": "https://dc.lft.to/lastmile_qr_scan"}, "name": "880210928b8487d4f24d5f51d61b46d4", "type": "electric_scooter", "lat": 38.892372333333334, "is_disabled": 0}, {"fusion_lat": 0.0, "lon": -77.0276475, "is_reserved": 0, "bike_id": "e3c86ecf55e716936dc7001e154f1998", "fusion_lon": 0.0, "rental_uris": {"android": "https://dc.lft.to/lastmile_qr_scan", "ios": "https://dc.lft.to/lastmile_qr_scan"}, "name": "e3c86ecf55e716936dc7001e154f1998", "type": "electric_scooter", "lat": 38.954317833333334, "is_disabled": 0}, {"fusion_lat": 0.0, "lon": -77.03432533333333, "is_reserved": 0, "bike_id": "0ce7d567449c7c2a3948244ad564e4ab", "fusion_lon": 0.0, "rental_uris": {"android": "https://dc.lft.to/lastmile_qr_scan", "ios": "https://dc.lft.to/lastmile_qr_scan"}, "name": "0ce7d567449c7c2a3948244ad564e4ab", "type": "electric_scooter", "lat": 38.9072805, "is_disabled": 0}, {"fusion_lat": 0.0, "lon": -77.00434816666667, "is_reserved": 0, "bike_id": "6da5d90f857163808f335420c3a17c63", "fusion_lon": 0.0, "rental_uris": {"android": "https://dc.lft.to/lastmile_qr_scan", "ios": "https://dc.lft.to/lastmile_qr_scan"}, "name": "6da5d90f857163808f335420c3a17c63", "type": "electric_scooter", "lat": 38.90570433333333, "is_disabled": 0}, {"fusion_lat": 0.0, "lon": -77.0330395, "is_reserved": 0, "bike_id": "4bf23d0b0277fbcaa99512fa34c1937d", "fusion_lon": 0.0, "rental_uris": {"android": "https://dc.lft.to/lastmile_qr_scan", "ios": "https://dc.lft.to/lastmile_qr_scan"}, "name": "4bf23d0b0277fbcaa99512fa34c1937d", "type": "electric_scooter", "lat": 38.95634783333333, "is_disabled": 0},