{"data": {"bikes": [{"is_reserved": 0, "type": "electric_scooter", "bike_id": "f5dfb0fa089e570aea3a5676758354ca", "lat": 38.93407083333334, "lon": -77.04222916666667, "rental_uris": {"android": "https://dc.lft.to/lastmile_qr_scan", "ios": "https://dc.lft.to/lastmile_qr_scan"}, "is_disabled": 0, "fusion_lat": 0.0, "name": "f5dfb0fa089e570aea3a5676758354ca", "fusion_lon": 0.0}, {"is_reserved": 0, "type": "electric_bike", "bike_id": "8353e83b86924245e072413d3839ef73", "lat": 38.892905999999996, "lon": -76.97616133333334, "rental_uris": {"android": "https://dc.lft.to/lastmile_qr_scan", "ios": "https://dc.lft.to/lastmile_qr_scan"}, "is_disabled": 0, "fusion_lat": 0.0, "name": "8353e83b86924245e072413d3839ef73", "fusion_lon": 0.0}, {"is_reserved": 0, "type": "electric_scooter", "bike_id": "ab23da207ae23ad41605d977008a8171", "lat": 38.921462, "lon": -77.034072, "rental_uris": {"android": "https://dc.lft.to/lastmile_qr_scan", "ios": "https://dc.lft.to/lastmile_qr_scan"}, "is_disabled": 0, "fusion_lat": 0.0, "name": "ab23da207ae23ad41605d977008a8171", "fusion_lon": 0.0}, {"is_reserved": 0, "type": "electric_scooter", "bike_id": "c0152595e1e1fe59a93939c60937db73", "lat": 38.912697333333334, "lon": -77.03868, "rental_uris": {"android": "https://dc.lft.to/lastmile_qr_scan", "ios": "https://dc.lft.to/lastmile_qr_scan"}, "is_disabled": 0, "fusion_lat": 0.0, "name": "c0152595e1e1fe59a93939c60937db73", "fusion_lon": 0.0}, {"is_reserved": 0, "type": "electric_scooter", "bike_id": "7b882fd2bdba18f8ab21692d9752f2f1", "lat": 38.904621, "lon": -77.00707216666666, "rental_uris": {"android": "https://dc.lft.to/lastmile_qr_scan", "ios": "https://dc.lft.to/lastmile_qr_scan"}, "is_disabled": 0, "fusion_lat": 0.0, "name": "7b882fd2bdba18f8ab21692d9752f2f1", "fusion_lon": 0.0}, {"is_reserved": 0, "type": "electric_scooter", "bike_id": "41c561d4ef9bf0556ce9b3c60bea3106", "lat": 38.882526, "lon": -77.00631583333333, "rental_uris": {"android": "https://dc.lft.to/lastmile_qr_scan", "ios": "https://dc.lft.to/lastmile_qr_scan"}, "is_disabled": 0, "fusion_lat": 0.0, "name": "41c561d4ef9bf0556ce9b3c60bea3106", "fusion_lon": 0.0}, {"is_reserved": 0, "type": "electric_scooter", "bike_id": "0db18aea7d80eb5920122fe79a26f321", "lat": 38.9043715, "lon": -77.03257633333334, "rental_uris": {"android": "https://dc.lft.to/lastmile_qr_scan", "ios": "https://dc.lft.to/lastmile_qr_scan"}, "is_disabled": 0, "fusion_lat": 0.0, "name": "0db18aea7d80eb5920122fe79a26f321", "fusion_lon": 0.0}, {"is_reserved": 0, "type": "electric_bike", "bike_id": "f76de403cb10fe6138060c10bbab72a6", "lat": 39.000287, "lon": -77.04744066666666, "rental_uris": {"android": "https://dc.lft.to/lastmile_qr_scan", "ios": "https://dc.lft.to/lastmile_qr_scan"}, "is_disabled": 0, "fusion_lat": 0.0, "name": "f76de403cb10fe6138060c10bbab72a6", "fusion_lon": 0.0}, {"is_reserved": 0, "type": "electric_scooter", "bike_id": "3b2aefb2438762656b784b4bb3da5dc2", "lat": 38.89224133333333, "lon": -77.04336133333334, "rental_uris": {"android": "https://dc.lft.to/lastmile_qr_scan", "ios": "https://dc.lft.to/lastmile_qr_scan"}, "is_disabled": 0, "fusion_lat": 0.0, "name": "3b2aefb2438762656b784b4bb3da5dc2", "fusion_lon": 0.0}, {"is_reserved": 0, "type": "electric_scooter", "bike_id": "d8fab176495cc703691d2af8e3a80863", "lat": 38.93254483333333, "lon": -77.03230333333333, "rental_uris": {"android": "https://dc.lft.to/lastmile_qr_scan", "ios": "https://dc.lft.to/lastmile_qr_scan"}, "is_disabled": 0, "fusion_lat": 0.0, "name": "d8fab176495cc703691d2af8e3a80863", "fusion_lon": 0.0}, {"is_reserved": 0, "type": "electric_scooter", "bike_id": "658ebe105a6edd8d2f693490a2f385bb", "lat": 38.90853233333333, "lon": -77.010192, "rental_uris": {"android": "https://dc.lft.to/lastmile_qr_scan", "ios": "https://dc.lft.to/lastmile_qr_scan"}, "is_disabled": 0, "fusion_lat": 0.0, "name": "658ebe105a6edd8d2f693490a2f385bb", "fusion_lon": 0.0}, {"is_reserved": 0, "type": "electric_scooter", "bike_id": "8c4fc3cca6cee6634ebf7072bc08a2da", "lat": 38.92150083333333, "lon": -77.03507683333333, "rental_uris": {"android": "https://dc.lft.to/lastmile_qr_scan", "ios": "https://dc.lft.to/lastmile_qr_scan"}, "is_disabled": 0, "fusion_lat": 0.0, "name": "8c4fc3cca6cee6634ebf7072bc08a2da", "fusion_lon": 0.0}, {"is_reserved": 0, "type": "electric_scooter", "bike_id": "fbb283d5500e362de7046de0e324f2bc", "lat": 38.897114, "lon": -77.006496, "rental_uris": {"android": "https://dc.lft.to/lastmile_qr_scan", "ios": "https://dc.lft.to/lastmile_qr_scan"}, "is_disabled": 0, "fusion_lat": 0.0, "name": "fbb283d5500e362de7046de0e324f2bc", "fusion_lon": 0.0}, {"is_reserved": 0, "type": "electric_scooter", "bike_id": "a1fbdff920c35a5f0dea32ccbfcc8a1a", "lat": 38.907283666666665, "lon": -77.011308, "rental_uris": {"android": "https://dc.lft.to/lastmile_qr_scan", "ios": "https://dc.lft.to/lastmile_qr_scan"}, "is_disabled": 0, "fusion_lat": 0.0, "name": "a1fbdff920c35a5f0dea32ccbfcc8a1a", "fusion_lon": 0.0}, {"is_reserved": 0, "type": "electric_scooter", "bike_id": "4e9cdeb766989cad888461bd3192e5d8", "lat": 38.911289833333335, "lon": -76.98466766666667, "rental_uris": {"android": "https://dc.lft.to/lastmile_qr_scan", "ios": "https://dc.lft.to/lastmile_qr_scan"}, "is_disabled": 0, "fusion_lat": 0.0, "name": "4e9cdeb766989cad888461bd3192e5d8", "fusion_lon": 0.0}, {"is_reserved": 0, "type": "electric_scooter", "bike_id": "8cbffa26ae6297d902824efc4407eb7c", "lat": 38.920376166666664, "lon": -77.04180133333334, "rental_uris": {"android": "https://dc.lft.to/lastmile_qr_scan", "ios": "https://dc.lft.to/lastmile_qr_scan"}, "is_disabled": 0, "fusion_lat": 0.0, "name": "8cbffa26ae6297d902824efc4407eb7c", "fusion_lon": 0.0}, {"is_reserved": 0, "type": "electric_scooter", "bike_id": "31f3b10c8e4b06a192cad28a7b933f5f", "lat": 38.90851833333333, "lon": -77.02061533333334, "rental_uris": {"android": "https://dc.lft.to/lastmile_qr_scan", "ios": "https://dc.lft.to/lastmile_qr_scan"}, "is_disabled": 0, "fusion_lat": 0.0, "name": "31f3b10c8e4b06a192cad28a7b933f5f", "fusion_lon": 0.0}, {"is_reserved": 0, "type": "electric_scooter", "bike_id": "d75f52f92971fc2a29fcc4efd0cc455c", "lat": 38.8963545, "lon": -77.02599933333333, "rental_uris": {"android": "https://dc.lft.to/lastmile_qr_scan", "ios": "https://dc.lft.to/lastmile_qr_scan"}, "is_disabled": 0, "fusion_lat": 0.0, "name": "d75f52f92971fc2a29fcc4efd0cc455c", "fusion_lon": 0.0}, {"is_reserved": 0, "type": "electric_bike", "bike_id": "2ebd5613ba2909a1ac1bbf310e171f7d", "lat": 38.93660533333333, "lon": -77.03426283333333, "rental_uris": {"android": "https://dc.lft.to/lastmile_qr_scan", "ios": "https://dc.lft.to/lastmile_qr_scan"}, "is_disabled": 0, "fusion_lat": 0.0, "name": "2ebd5613ba2909a1ac1bbf310e171f7d", "fusion_lon": 0.0}, {"is_reserved": 0, "type": "electric_scooter", "bike_id": "04b2d70ee4e670e5b89d1dd767e25045", "lat": 38.91263633333333, "lon": -77.01768066666666, "rental_uris": {"android": "https://dc.lft.to/lastmile_qr_scan", "ios": "https://dc.lft.to/lastmile_qr_scan"}, "is_disabled": 0, "fusion_lat": 0.0, "name": "04b2d70ee4e670e5b89d1dd767e25045", "fusion_lon": 0.0}, {"is_reserved": 0, "type": "electric_scooter", "bike_id": "1ea4bd95c55cecf82be0a277727007b8", "lat": 38.895016, "lon": -76.93476433333333, "rental_uris": {"android": "https://dc.lft.to/lastmile_qr_scan", "ios": "https://dc.lft.to/lastmile_qr_scan"}, "is_disabled": 0, "fusion_lat": 0.0, "name": "1ea4bd95c55cecf82be0a277727007b8", "fusion_lon": 0.0}, {"is_reserved": 0, "type": "electric_scooter", "bike_id": "a10c11659ba34ab443994c6662d86c70", "lat": 38.930998833333334, "lon": -77.0240315, "rental_uris": {"android": "https://dc.lft.to/lastmile_qr_scan", "ios": "https://dc.lft.to/lastmile_qr_scan"}, "is_disabled": 0, "fusion_lat": 0.0, "name": "a10c11659ba34ab443994c6662d86c70", "fusion_lon": 0.0}, {"is_reserved": 0, "type": "electric_scooter", "bike_id": "dba9fa3e20746ea55bf3bda90bdc9305", "lat": 38.9008085, "lon": -76.9800555, "rental_uris": {"android": "https://dc.lft.to/lastmile_qr_scan", "ios": "https://dc.lft.to/lastmile_qr_scan"}, "is_disabled": 0, "fusion_lat": 0.0, "name": "dba9fa3e20746ea55bf3bda90bdc9305", "fusion_lon": 0.0}, {"is_reserved": 0, "type": "electric_bike", "bike_id": "c636bd7850b86b1ce8cc63b6ffba2575", "lat": 38.973389166666664, "lon": -76.99586333333333, "rental_uris": {"android": "https://dc.lft.to/lastmile_qr_scan", "ios": "https://dc.lft.to/lastmile_qr_scan"}, "is_disabled": 0, "fusion_lat": 0.0, "name": "c636bd7850b86b1ce8cc63b6ffba2575", "fusion_lon": 0.0}, {"is_reserved": 0, "type": "electric_scooter", "bike_id": "e57480ca8b4af2f06ab5e44a8e05cfe3", "lat": 38.923710166666666, "lon": -77.02896983333333, "rental_uris": {"android": "https://dc.lft.to/lastmile_qr_scan", "ios": "https://dc.lft.to/lastmile_qr_scan"}, "is_disabled": 0, "fusion_lat": 0.0, "name": "e57480ca8b4af2f06ab5e44a8e05cfe3", "fusion_lon": 0.0}, {"is_reserved": 0, "type": "electric_bike", "bike_id": "6ee8c922fbabbc4bc7976ce9c2a21627", "lat": 39.0423515, "lon": -76.99735116666666, "rental_uris": {"android": "https://dc.lft.to/lastmile_qr_scan", "ios": "https://dc.lft.to/lastmile_qr_scan"}, "is_disabled": 0, "fusion_lat": 0.0, "name": "6ee8c922fbabbc4bc7976ce9c2a21627", "fusion_lon": 0.0}, {"is_reserved": 0, "type": "electric_scooter", "bike_id": "2608ebb32f39bbaeed14ee1925411e00", "lat": 38.925697, "lon": -76.99511216666667, "rental_uris": {"android": "https://dc.lft.to/lastmile_qr_scan", "ios": "https://dc.lft.to/lastmile_qr_scan"}, "is_disabled": 0, "fusion_lat": 0.0, "name": "2608ebb32f39bbaeed14ee1925411e00", "fusion_lon": 0.0}, {"is_reserved": 0, "type": "electric_scooter", "bike_id": "973292339d78e3da387695336d4e5d23", "lat": 38.90401266666667, "lon": -77.06775033333334, "rental_uris": {"android": "https://dc.lft.to/lastmile_qr_scan", "ios": "https://dc.lft.to/lastmile_qr_scan"}, "is_disabled": 0, "fusion_lat": 0.0, "name": "973292339d78e3da387695336d4e5d23", "fusion_lon": 0.0}, {"is_reserved": 0, "type": "electric_bike", "bike_id": "8e62c5330a652fdfbbf7c3ae4af90c0a", "lat": 38.899578166666664, "lon": -76.9856775, "rental_uris": {"android": "https://dc.lft.to/lastmile_qr_scan", "ios": "https://dc.lft.to/lastmile_qr_scan"}, "is_disabled": 0, "fusion_lat": 0.0, "name": "8e62c5330a652fdfbbf7c3ae4af90c0a", "fusion_lon": 0.0}, {"is_reserved": 0, "type": "electric_scooter", "bike_id": "52b56e13ab54de966668ad7094e5e05b", "lat": 38.916159666666665, "lon": -77.0486895, "rental_uris": {"android": "https://dc.lft.to/lastmile_qr_scan", "ios": "https://dc.lft.to/lastmile_qr_scan"}, "is_disabled": 0, "fusion_lat": 0.0, "name": "52b56e13ab54de966668ad7094e5e05b", "fusion_lon": 0.0}, {"is_reserved": 0, "type": "electric_scooter", "bike_id": "ae8bf8075d4e849a769e6047e6bdbd53", "lat": 38.920859166666666, "lon": -77.01374416666667, "rental_uris": {"android": "https://dc.lft.to/lastmile_qr_scan", "ios": "https://dc.lft.to/lastmile_qr_scan"}, "is_disabled": 0, "fusion_lat": 0.0, "name": "ae8bf8075d4e849a769e6047e6bdbd53", "fusion_lon": 0.0}, {"is_reserved": 0, "type": "electric_scooter", "bike_id": "9bce9e8ee239e14ea31d698f58225ecd", "lat": 38.901694666666664, "lon": -77.02168183333333, "rental_uris": {"android": "https://dc.lft.to/lastmile_qr_scan", "ios": "https://dc.lft.to/lastmile_qr_scan"}, "is_disabled": 0, "fusion_lat": 0.0, "name": "9bce9e8ee239e14ea31d698f58225ecd", "fusion_lon": 0.0}, {"is_reserved": 0, "type": "electric_bike", "bike_id": "c944acf1fa5e5fbb4c74d059fde3c175", "lat": 38.905325500000004, "lon": -76.9980805, "rental_uris": {"android": "https://dc.lft.to/lastmile_qr_scan", "ios": "https://dc.lft.to/lastmile_qr_scan"}, "is_disabled": 0, "fusion_lat": 0.0, "name": "c944acf1fa5e5fbb4c74d059fde3c175", "fusion_lon": 0.0}, {"is_reserved": 0, "type": "electric_scooter", "bike_id": "fbc57ac3729e428b945fc942715a28d7", "lat": 38.92312733333333, "lon": -77.0412905, "rental_uris": {"android": "https://dc.lft.to/lastmile_qr_scan", "ios": "https://dc.lft.to/lastmile_qr_scan"}, "is_disabled": 0, "fusion_lat": 0.0, "name": "fbc57ac3729e428b945fc942715a28d7", "fusion_lon": 0.0}, {"is_reserved": 0, "type": "electric_scooter", "bike_id": "13b3db1af8b8ab17d0de5f64cb3e24c4", "lat": 38.893555666666664, "lon": -77.0283055, "rental_uris": {"android": "https://dc.lft.to/lastmile_qr_scan", "ios": "https://dc.lft.to/lastmile_qr_scan"}, "is_disabled": 0, "fusion_lat": 0.0, "name": "13b3db1af8b8ab17d0de5f64cb3e24c4", "fusion_lon": 0.0}, {"is_reserved": 0, "type": "electric_scooter", "bike_id": "471961e5b1b134b6bea5788588152f5a", "lat": 38.899348333333336, "lon": -77.02180466666667, "rental_uris": {"android": "https://dc.lft.to/lastmile_qr_scan", "ios": "https://dc.lft.to/lastmile_qr_scan"}, "is_disabled": 0, "fusion_lat": 0.0, "name": "471961e5b1b134b6bea5788588152f5a", "fusion_lon": 0.0}, {"is_reserved": 0, "type": "electric_scooter", "bike_id": "82eaf8f117e016b04ac82a3075703072", "lat": 38.8898715, "lon": -77.00075266666667, "rental_uris": {"android": "https://dc.lft.to/lastmile_qr_scan", "ios": "https://dc.lft.to/lastmile_qr_scan"}, "is_disabled": 0, "fusion_lat": 0.0, "name": "82eaf8f117e016b04ac82a3075703072", "fusion_lon": 0.0}, {"is_reserved": 0, "type": "electric_scooter", "bike_id": "da5cb8743cc8986c3c6b6dcd9e9ab9a5", "lat": 38.9053, "lon": -77.06786416666667, "rental_uris": {"android": "https://dc.lft.to/lastmile_qr_scan", "ios": "https://dc.lft.to/lastmile_qr_scan"}, "is_disabled": 0, "fusion_lat": 0.0, "name": "da5cb8743cc8986c3c6b6dcd9e9ab9a5", "fusion_lon": 0.0}, {"is_reserved": 0, "type": "electric_scooter", "bike_id": "dc1e6e81a84ff7d6b686249b1d233f3a", "lat": 38.93661633333333, "lon": -77.03648383333334, "rental_uris": {"android": "https://dc.lft.to/lastmile_qr_scan", "ios": "https://dc.lft.to/lastmile_qr_scan"}, "is_disabled": 0, "fusion_lat": 0.0, "name": "dc1e6e81a84ff7d6b686249b1d233f3a", "fusion_lon": 0.0}, {"is_reserved": 0, "type": "electric_scooter", "bike_id": "dc77656f4740763e24afc8067c3d103e", "lat": 38.927616666666665, "lon": -77.02782333333333, "rental_uris": {"android": "https://dc.lft.to/lastmile_qr_scan", "ios": "https://dc.lft.to/lastmile_qr_scan"}, "is_disabled": 0, "fusion_lat": 0.0, "name": "dc77656f4740763e24afc8067c3d103e", "fusion_lon": 0.0}, {"is_reserved": 0, "type": "electric_scooter", "bike_id": "bd843b9a02a390b43c5ba2e5e535c186", "lat": 38.92446433333333, "lon": -77.02024883333333, "rental_uris": {"android": "https://dc.lft.to/lastmile_qr_scan", "ios": "https://dc.lft.to/lastmile_qr_scan"}, "is_disabled": 0, "fusion_lat": 0.0, "name": "bd843b9a02a390b43c5ba2e5e535c186", "fusion_lon": 0.0}, {"is_reserved": 0, "type": "electric_scooter", "bike_id": "3df86e5b201e449d7e6b48b057503e49", "lat": 38.843254, "lon": -76.99734783333334, "rental_uris": {"android": "https://dc.lft.to/lastmile_qr_scan", "ios": "https://dc.lft.to/lastmile_qr_scan"}, "is_disabled": 0, "fusion_lat": 0.0, "name": "3df86e5b201e449d7e6b48b057503e49", "fusion_lon": 0.0}, {"is_reserved": 0, "type": "electric_scooter", "bike_id": "7ef1944d4cd0ed9681ecde2e4724a14c", "lat": 38.92541966666667, "lon": -77.03366133333333, "rental_uris": {"android": "https://dc.lft.to/lastmile_qr_scan", "ios": "https://dc.lft.to/lastmile_qr_scan"}, "is_disabled": 0, "fusion_lat": 0.0, "name": "7ef1944d4cd0ed9681ecde2e4724a14c", "fusion_lon": 0.0}, {"is_reserved": 0, "type": "electric_scooter", "bike_id": "62f1579800abfbb3dabc2cc45c53008a", "lat": 38.919154166666665, "lon": -77.0343135, "rental_uris": {"android": "https://dc.lft.to/lastmile_qr_scan", "ios": "https://dc.lft.to/lastmile_qr_scan"}, "is_disabled": 0, "fusion_lat": 0.0, "name": "62f1579800abfbb3dabc2cc45c53008a", "fusion_lon": 0.0}, {"is_reserved": 0, "type": "electric_scooter", "bike_id": "153576c10d00327ecfe52df0e68234dd", "lat": 38.911783, "lon": -77.004955, "rental_uris": {"android": "https://dc.lft.to/lastmile_qr_scan", "ios": "https://dc.lft.to/lastmile_qr_scan"}, "is_disabled": 0, "fusion_lat": 0.0, "name": "153576c10d00327ecfe52df0e68234dd", "fusion_lon": 0.0}, {"is_reserved": 0, "type": "electric_scooter", "bike_id": "a9525d7f582944a37a563ceb5c141b40", "lat": 38.899976833333334, "lon": -77.02286666666667, "rental_uris": {"android": "https://dc.lft.to/lastmile_qr_scan", "ios": "https://dc.lft.to/lastmile_qr_scan"}, "is_disabled": 0, "fusion_lat": 0.0, "name": "a9525d7f582944a37a563ceb5c141b40", "fusion_lon": 0.0}, {"is_reserved": 0, "type": "electric_scooter", "bike_id": "4efb53a2e7cc8a0c31c260317d35e84c", "lat": 38.925660666666666, "lon": -76.97005016666667, "rental_uris": {"android": "https://dc.lft.to/lastmile_qr_scan", "ios": "https://dc.lft.to/lastmile_qr_scan"}, "is_disabled": 0, "fusion_lat": 0.0, "name": "4efb53a2e7cc8a0c31c260317d35e84c", "fusion_lon": 0.0}, {"is_reserved": 0, "type": "electric_scooter", "bike_id": "732c1a5764451cd7120d622bf205990b", "lat": 38.900342333333334, "lon": -76.9915765, "rental_uris": {"android": "https://dc.lft.to/lastmile_qr_scan", "ios": "https://dc.lft.to/lastmile_qr_scan"}, "is_disabled": 0, "fusion_lat": 0.0, "name": "732c1a5764451cd7120d622bf205990b", "fusion_lon": 0.0}, {"is_reserved": 0, "type": "electric_scooter", "bike_id": "fce01154711b6975560fb7b4dfac1144", "lat": 38.89222383333333, "lon": -77.023144, "rental_uris": {"android": "https://dc.lft.to/lastmile_qr_scan", "ios": "https://dc.lft.to/lastmile_qr_scan"}, "is_disabled": 0, "fusion_lat": 0.0, "name": "fce01154711b6975560fb7b4dfac1144", "fusion_lon": 0.0}, {"is_reserved": 0, "type": "electric_scooter", "bike_id": "5d45b187e408372bc39f9191a0b240cf", "lat": 38.93089366666667, "lon": -77.03440833333333, "rental_uris": {"android": "https://dc.lft.to/lastmile_qr_scan", "ios": "https://dc.lft.to/lastmile_qr_scan"}, "is_disabled": 0, "fusion_lat": 0.0, "name": "5d45b187e408372bc39f9191a0b240cf", "fusion_lon": 0.0}, {"is_reserved": 0, "type": "electric_bike", "bike_id": "af0dfcc0a88dcabc2c2fe23b3726ff23", "lat": 38.951316166666665, "lon": -76.965896, "rental_uris": {"android": "https://dc.lft.to/lastmile_qr_scan", "ios": "https://dc.lft.to/lastmile_qr_scan"}, "is_disabled": 0, "fusion_lat": 0.0, "name": "af0dfcc0a88dcabc2c2fe23b3726ff23", "fusion_lon": 0.0}, {"is_reserved": 0, "type": "electric_scooter", "bike_id": "63e3c74f872230f568ed9f3301735c29", "lat": 38.899372166666666, "lon": -77.03180266666666, "rental_uris": {"android": "https://dc.lft.to/lastmile_qr_scan", "ios": "https://dc.lft.to/lastmile_qr_scan"}, "is_disabled": 0, "fusion_lat": 0.0, "name": "63e3c74f872230f568ed9f3301735c29", "fusion_lon": 0.0}, {"is_reserved": 0, "type": "electric_scooter", "bike_id": "ce8ad6f4ffe0c47bdcb580ed30149e82", "lat": 38.89361366666667, "lon": -76.94106616666667, "rental_uris": {"android": "https://dc.lft.to/lastmile_qr_scan", "ios": "https://dc.lft.to/lastmile_qr_scan"}, "is_disabled": 0, "fusion_lat": 0.0, "name": "ce8ad6f4ffe0c47bdcb580ed30149e82", "fusion_lon": 0.0}, {"is_reserved": 0, "type": "electric_scooter", "bike_id": "7984042cc917d25377efb31836ccf3b8", "lat": 38.922776666666664, "lon": -76.99765433333333, "rental_uris": {"android": "https://dc.lft.to/lastmile_qr_scan", "ios": "https://dc.lft.to/lastmile_qr_scan"}, "is_disabled": 0, "fusion_lat": 0.0, "name": "7984042cc917d25377efb31836ccf3b8", "fusion_lon": 0.0}, {"is_reserved": 0, "type": "electric_scooter", "bike_id": "36a40cac09b5708e506a8b6ce5560beb", "lat": 38.929653333333334, "lon": -77.02346733333333, "rental_uris": {"android": "https://dc.lft.to/lastmile_qr_scan", "ios": "https://dc.lft.to/lastmile_qr_scan"}, "is_disabled": 0, "fusion_lat": 0.0, "name": "36a40cac09b5708e506a8b6ce5560beb", "fusion_lon": 0.0}, {"is_reserved": 0, "type": "electric_scooter", "bike_id": "3a7c89b1451519e5d1ed2ca9cd663179", "lat": 38.94729516666666, "lon": -77.0246025, "rental_uris": {"android": "https://dc.lft.to/lastmile_qr_scan", "ios": "https://dc.lft.to/lastmile_qr_scan"}, "is_disabled": 0, "fusion_lat": 0.0, "name": "3a7c89b1451519e5d1ed2ca9cd663179", "fusion_lon": 0.0}, {"is_reserved": 0, "type": "electric_scooter", "bike_id": "dd91d414605256eefd000c704d6acc21", "lat": 38.93371416666667, "lon": -77.057341, "rental_uris": {"android": "https://dc.lft.to/lastmile_qr_scan", "ios": "https://dc.lft.to/lastmile_qr_scan"}, "is_disabled": 0, "fusion_lat": 0.0, "name": "dd91d414605256eefd000c704d6acc21", "fusion_lon": 0.0}, {"is_reserved": 0, "type": "electric_scooter", "bike_id": "d69ec86ec674d66cd4b368334d4210c7", "lat": 38.92238716666667, "lon": -77.02126333333334, "rental_uris": {"android": "https://dc.lft.to/lastmile_qr_scan", "ios": "https://dc.lft.to/lastmile_qr_scan"}, "is_disabled": 0, "fusion_lat": 0.0, "name": "d69ec86ec674d66cd4b368334d4210c7", "fusion_lon": 0.0}, {"is_reserved": 0, "type": "electric_scooter", "bike_id": "9f529d0e981d778b47ffc2d8a98b0cec", "lat": 38.93875533333333, "lon": -77.03016116666667, "rental_uris": {"android": "https://dc.lft.to/lastmile_qr_scan", "ios": "https://dc.lft.to/lastmile_qr_scan"}, "is_disabled": 0, "fusion_lat": 0.0, "name": "9f529d0e981d778b47ffc2d8a98b0cec", "fusion_lon": 0.0}, {"is_reserved": 0, "type": "electric_scooter", "bike_id": "0ea66ffb456e055ee74999d72d430ff6", "lat": 38.92547283333333, "lon": -77.03271233333334, "rental_uris": {"android": "https://dc.lft.to/lastmile_qr_scan", "ios": "https://dc.lft.to/lastmile_qr_scan"}, "is_disabled": 0, "fusion_lat": 0.0, "name": "0ea66ffb456e055ee74999d72d430ff6", "fusion_lon": 0.0}, {"is_reserved": 0, "type": "electric_scooter", "bike_id": "85fc6c193494253a98acf9dc7fdb22f0", "lat": 38.92329266666667, "lon": -77.05393866666667, "rental_uris": {"android": "https://dc.lft.to/lastmile_qr_scan", "ios": "https://dc.lft.to/lastmile_qr_scan"}, "is_disabled": 0, "fusion_lat": 0.0, "name": "85fc6c193494253a98acf9dc7fdb22f0", "fusion_lon": 0.0}, {"is_reserved": 0, "type": "electric_bike", "bike_id": "2db6568f9c7c01c1c7c9554abdb23bf7", "lat": 38.9575215, "lon": -76.98021866666667, "rental_uris": {"android": "https://dc.lft.to/lastmile_qr_scan", "ios": "https://dc.lft.to/lastmile_qr_scan"}, "is_disabled": 0, "fusion_lat": 0.0, "name": "2db6568f9c7c01c1c7c9554abdb23bf7", "fusion_lon": 0.0}, {"is_reserved": 0, "type": "electric_scooter", "bike_id": "70a554942cc3942941f7e5a215f7cb1d", "lat": 38.929942833333335, "lon": -77.03802466666667, "rental_uris": {"android": "https://dc.lft.to/lastmile_qr_scan", "ios": "https://dc.lft.to/lastmile_qr_scan"}, "is_disabled": 0, "fusion_lat": 0.0, "name": "70a554942cc3942941f7e5a215f7cb1d", "fusion_lon": 0.0}, {"is_reserved": 0, "type": "electric_scooter", "bike_id": "560656f28d6d70f373d7c214a9655d73", "lat": 38.92605416666667, "lon": -77.036633, "rental_uris": {"android": "https://dc.lft.to/lastmile_qr_scan", "ios": "https://dc.lft.to/lastmile_qr_scan"}, "is_disabled": 0, "fusion_lat": 0.0, "name": "560656f28d6d70f373d7c214a9655d73", "fusion_lon": 0.0}, {"is_reserved": 0, "type": "electric_scooter", "bike_id": "b24fcc9bee36d586c2a683398386596c", "lat": 38.9017505, "lon": -77.024835, "rental_uris": {"android": "https://dc.lft.to/lastmile_qr_scan", "ios": "https://dc.lft.to/lastmile_qr_scan"}, "is_disabled": 0, "fusion_lat": 0.0, "name": "b24fcc9bee36d586c2a683398386596c", "fusion_lon": 0.0}, {"is_reserved": 0, "type": "electric_scooter", "bike_id": "a7b44e99742fdfa6ed03122eee8960c7", "lat": 38.90551166666667, "lon": -77.04740266666667, "rental_uris": {"android": "https://dc.lft.to/lastmile_qr_scan", "ios": "https://dc.lft.to/lastmile_qr_scan"}, "is_disabled": 0, "fusion_lat": 0.0, "name": "a7b44e99742fdfa6ed03122eee8960c7", "fusion_lon": 0.0}, {"is_reserved": 0, "type": "electric_scooter", "bike_id": "4e8e30378345143af044b64bc8fd9242", "lat": 38.91808783333333, "lon": -77.04547116666667, "rental_uris": {"android": "https://dc.lft.to/lastmile_qr_scan", "ios": "https://dc.lft.to/lastmile_qr_scan"}, "is_disabled": 0, "fusion_lat": 0.0, "name": "4e8e30378345143af044b64bc8fd9242", "fusion_lon": 0.0}, {"is_reserved": 0, "type": "electric_scooter", "bike_id": "469d630228c10aa6fe1c8c76bfd59e09", "lat": 38.900391, "lon": -77.0019565, "rental_uris": {"android": "https://dc.lft.to/lastmile_qr_scan", "ios": "https://dc.lft.to/lastmile_qr_scan"}, "is_disabled": 0, "fusion_lat": 0.0, "name": "469d630228c10aa6fe1c8c76bfd59e09", "fusion_lon": 0.0}, {"is_reserved": 0, "type": "electric_scooter", "bike_id": "63d32bc839639ae8a2b6749627bb0572", "lat": 38.91813616666666, "lon": -77.0316915, "rental_uris": {"android": "https://dc.lft.to/lastmile_qr_scan", "ios": "https://dc.lft.to/lastmile_qr_scan"}, "is_disabled": 0, "fusion_lat": 0.0, "name": "63d32bc839639ae8a2b6749627bb0572", "fusion_lon": 0.0}, {"is_reserved": 0, "type": "electric_scooter", "bike_id": "7c44dde3c89e1019838e1c65fff689df", "lat": 38.92296733333333, "lon": -77.054416, "rental_uris": {"android": "https://dc.lft.to/lastmile_qr_scan", "ios": "https://dc.lft.to/lastmile_qr_scan"}, "is_disabled": 0, "fusion_lat": 0.0, "name": "7c44dde3c89e1019838e1c65fff689df", "fusion_lon": 0.0}, {"is_reserved": 0, "type": "electric_scooter", "bike_id": "dfdc9ab2e726d18f19c41cc3833d041b", "lat": 38.899012, "lon": -77.02721416666667, "rental_uris": {"android": "https://dc.lft.to/lastmile_qr_scan", "ios": "https://dc.lft.to/lastmile_qr_scan"}, "is_disabled": 0, "fusion_lat": 0.0, "name": "dfdc9ab2e726d18f19c41cc3833d041b", "fusion_lon": 0.0}, {"is_reserved": 0, "type": "electric_scooter", "bike_id": "ab431c150ae8c27ab95189ce09ce6f31", "lat": 38.920875, "lon": -77.031708, "rental_uris": {"android": "https://dc.lft.to/lastmile_qr_scan", "ios": "https://dc.lft.to/lastmile_qr_scan"}, "is_disabled": 0, "fusion_lat": 0.0, "name": "ab431c150ae8c27ab95189ce09ce6f31", "fusion_lon": 0.0}, {"is_reserved": 0, "type": "electric_scooter", "bike_id": "990dc9a3422cd24c6d02679736d99b1b", "lat": 38.8921805, "lon": -77.0463965, "rental_uris": {"android": "https://dc.lft.to/lastmile_qr_scan", "ios": "https://dc.lft.to/lastmile_qr_scan"}, "is_disabled": 0, "fusion_lat": 0.0, "name": "990dc9a3422cd24c6d02679736d99b1b", "fusion_lon": 0.0}, {"is_reserved": 0, "type": "electric_scooter", "bike_id": "2ad6278f7a673917d79de4b4aaef84cf", "lat": 38.92018216666666, "lon": -77.010642, "rental_uris": {"android": "https://dc.lft.to/lastmile_qr_scan", "ios": "https://dc.lft.to/lastmile_qr_scan"}, "is_disabled": 0, "fusion_lat": 0.0, "name": "2ad6278f7a673917d79de4b4aaef84cf", "fusion_lon": 0.0}, {"is_reserved": 0, "type": "electric_scooter", "bike_id": "82f4d97240faaa3a4121c32cfcba407c", "lat": 38.89732133333333, "lon": -77.02171066666666, "rental_uris": {"android": "https://dc.lft.to/lastmile_qr_scan", "ios": "https://dc.lft.to/lastmile_qr_scan"}, "is_disabled": 0, "fusion_lat": 0.0, "name": "82f4d97240faaa3a4121c32cfcba407c", "fusion_lon": 0.0}, {"is_reserved": 0, "type": "electric_scooter", "bike_id": "73e3105dcdffc38b3b7db30cc2118205", "lat": 38.92702666666667, "lon": -77.02949666666666, "rental_uris": {"android": "https://dc.lft.to/lastmile_qr_scan", "ios": "https://dc.lft.to/lastmile_qr_scan"}, "is_disabled": 0, "fusion_lat": 0.0, "name": "73e3105dcdffc38b3b7db30cc2118205", "fusion_lon": 0.0}, {"is_reserved": 0, "type": "electric_scooter", "bike_id": "c91a49d0a772760fb6328c9b6dfcb08d", "lat": 38.86577783333333, "lon": -76.990284, "rental_uris": {"android": "https://dc.lft.to/lastmile_qr_scan", "ios": "https://dc.lft.to/lastmile_qr_scan"}, "is_disabled": 0, "fusion_lat": 0.0, "name": "c91a49d0a772760fb6328c9b6dfcb08d", "fusion_lon": 0.0}, {"is_reserved": 0, "type": "electric_scooter", "bike_id": "384d3d1e24633d98ace152e81fd06f47", "lat": 38.9023835, "lon": -77.01640883333333, "rental_uris": {"android": "https://dc.lft.to/lastmile_qr_scan", "ios": "https://dc.lft.to/lastmile_qr_scan"}, "is_disabled": 0, "fusion_lat": 0.0, "name": "384d3d1e24633d98ace152e81fd06f47", "fusion_lon": 0.0}, {"is_reserved": 0, "type": "electric_scooter", "bike_id": "3c4a21724c44f40d6d6b56852fdb938d", "lat": 38.907981166666666, "lon": -77.04890466666667, "rental_uris": {"android": "https://dc.lft.to/lastmile_qr_scan", "ios": "https://dc.lft.to/lastmile_qr_scan"}, "is_disabled": 0, "fusion_lat": 0.0, "name": "3c4a21724c44f40d6d6b56852fdb938d", "fusion_lon": 0.0}, {"is_reserved": 0, "type": "electric_scooter", "bike_id": "947fdea6188a757ea468ab3ad7c36822", "lat": 38.91146083333334, "lon": -77.02182683333334, "rental_uris": {"android": "https://dc.lft.to/lastmile_qr_scan", "ios": "https://dc.lft.to/lastmile_qr_scan"}, "is_disabled": 0, "fusion_lat": 0.0, "name": "947fdea6188a757ea468ab3ad7c36822", "fusion_lon": 0.0}, {"is_reserved": 0, "type": "electric_bike", "bike_id": "7b404dc32e69ab7ba4463dd2708ac313", "lat": 38.8918985, "lon": -76.985594, "rental_uris": {"android": "https://dc.lft.to/lastmile_qr_scan", "ios": "https://dc.lft.to/lastmile_qr_scan"}, "is_disabled": 0, "fusion_lat": 0.0, "name": "7b404dc32e69ab7ba4463dd2708ac313", "fusion_lon": 0.0}, {"is_reserved": 0, "type": "electric_scooter", "bike_id": "0e265092fe3d31d4dccdec6ab6bc0ca1", "lat": 38.91765133333333, "lon": -77.004497, "rental_uris": {"android": "https://dc.lft.to/lastmile_qr_scan", "ios": "https://dc.lft.to/lastmile_qr_scan"}, "is_disabled": 0, "fusion_lat": 0.0, "name": "0e265092fe3d31d4dccdec6ab6bc0ca1", "fusion_lon": 0.0}, {"is_reserved": 0, "type": "electric_scooter", "bike_id": "3bec782fa864c1f210ffe12fdaae24dd", "lat": 38.933308, "lon": -77.02913416666667, "rental_uris": {"android": "https://dc.lft.to/lastmile_qr_scan", "ios": "https://dc.lft.to/lastmile_qr_scan"}, "is_disabled": 0, "fusion_lat": 0.0, "name": "3bec782fa864c1f210ffe12fdaae24dd", "fusion_lon": 0.0}, {"is_reserved": 0, "type": "electric_scooter", "bike_id": "6d1835b87e13614cdb0aa4aee27ded18", "lat": 38.916366333333336, "lon": -77.04254116666667, "rental_uris": {"android": "https://dc.lft.to/lastmile_qr_scan", "ios": "https://dc.lft.to/lastmile_qr_scan"}, "is_disabled": 0, "fusion_lat": 0.0, "name": "6d1835b87e13614cdb0aa4aee27ded18", "fusion_lon": 0.0}, {"is_reserved": 0, "type": "electric_scooter", "bike_id": "ea098593a9db8f313b6539dde61c5bf1", "lat": 38.94978783333333, "lon": -77.02444533333333, "rental_uris": {"android": "https://dc.lft.to/lastmile_qr_scan", "ios": "https://dc.lft.to/lastmile_qr_scan"}, "is_disabled": 0, "fusion_lat": 0.0, "name": "ea098593a9db8f313b6539dde61c5bf1", "fusion_lon": 0.0}, {"is_reserved": 0, "type": "electric_scooter", "bike_id": "f51ad1f1523803282bae1fb0ff5da74e", "lat": 38.907874166666666, "lon": -77.00963666666667, "rental_uris": {"android": "https://dc.lft.to/lastmile_qr_scan", "ios": "https://dc.lft.to/lastmile_qr_scan"}, "is_disabled": 0, "fusion_lat": 0.0, "name": "f51ad1f1523803282bae1fb0ff5da74e", "fusion_lon": 0.0}, {"is_reserved": 0, "type": "electric_scooter", "bike_id": "9e168da7362bf52defc7c67026f25a6a", "lat": 38.87974716666667, "lon": -77.0084665, "rental_uris": {"android": "https://dc.lft.to/lastmile_qr_scan", "ios": "https://dc.lft.to/lastmile_qr_scan"}, "is_disabled": 0, "fusion_lat": 0.0, "name": "9e168da7362bf52defc7c67026f25a6a", "fusion_lon": 0.0}, {"is_reserved": 0, "type": "electric_scooter", "bike_id": "b6088adf0b50ce454455bc2844ec15d0", "lat": 38.922040833333334, "lon": -77.02029566666667, "rental_uris": {"android": "https://dc.lft.to/lastmile_qr_scan", "ios": "https://dc.lft.to/lastmile_qr_scan"}, "is_disabled": 0, "fusion_lat": 0.0, "name": "b6088adf0b50ce454455bc2844ec15d0", "fusion_lon": 0.0}, {"is_reserved": 0, "type": "electric_scooter", "bike_id": "4498492ca72bca7154e18f1e72796259", "lat": 38.897749833333336, "lon": -77.04781, "rental_uris": {"android": "https://dc.lft.to/lastmile_qr_scan", "ios": "https://dc.lft.to/lastmile_qr_scan"}, "is_disabled": 0, "fusion_lat": 0.0, "name": "4498492ca72bca7154e18f1e72796259", "fusion_lon": 0.0}, {"is_reserved": 0, "type": "electric_scooter", "bike_id": "27d126d5f48f99b5b681de4fd417173c", "lat": 38.91176016666667, "lon": -77.00259883333334, "rental_uris": {"android": "https://dc.lft.to/lastmile_qr_scan", "ios": "https://dc.lft.to/lastmile_qr_scan"}, "is_disabled": 0, "fusion_lat": 0.0, "name": "27d126d5f48f99b5b681de4fd417173c", "fusion_lon": 0.0}, {"is_reserved": 0, "type": "electric_scooter", "bike_id": "43b7ccf0aa0774244a27db6b9658fe08", "lat": 38.918742, "lon": -77.0431555, "rental_uris": {"android": "https://dc.lft.to/lastmile_qr_scan", "ios": "https://dc.lft.to/lastmile_qr_scan"}, "is_disabled": 0, "fusion_lat": 0.0, "name": "43b7ccf0aa0774244a27db6b9658fe08", "fusion_lon": 0.0}, {"is_reserved": 0, "type": "electric_scooter", "bike_id": "b6a28ead6ff6748ef0777f29031511c9", "lat": 38.910164, "lon": -76.99374983333334, "rental_uris": {"android": "https://dc.lft.to/lastmile_qr_scan", "ios": "https://dc.lft.to/lastmile_qr_scan"}, "is_disabled": 0, "fusion_lat": 0.0, "name": "b6a28ead6ff6748ef0777f29031511c9", "fusion_lon": 0.0}, {"is_reserved": 0, "type": "electric_scooter", "bike_id": "cd796283a4b72341b3fc926bc5447c3d", "lat": 38.918735, "lon": -77.04314483333333, "rental_uris": {"android": "https://dc.lft.to/lastmile_qr_scan", "ios": "https://dc.lft.to/lastmile_qr_scan"}, "is_disabled": 0, "fusion_lat": 0.0, "name": "cd796283a4b72341b3fc926bc5447c3d", "fusion_lon": 0.0}, {"is_reserved": 0, "type": "electric_scooter", "bike_id": "675457eebd2968f2ebb5dc3fd7fd1c14", "lat": 38.90434533333333, "lon": -77.0484135, "rental_uris": {"android": "https://dc.lft.to/lastmile_qr_scan", "ios": "https://dc.lft.to/lastmile_qr_scan"}, "is_disabled": 0, "fusion_lat": 0.0, "name": "675457eebd2968f2ebb5dc3fd7fd1c14", "fusion_lon": 0.0}, {"is_reserved": 0, "type": "electric_scooter", "bike_id": "8e2852285ee7574c7cc5c664537dea37", "lat": 38.8747035, "lon": -77.0033555, "rental_uris": {"android": "https://dc.lft.to/lastmile_qr_scan", "ios": "https://dc.lft.to/lastmile_qr_scan"}, "is_disabled": 0, "fusion_lat": 0.0, "name": "8e2852285ee7574c7cc5c664537dea37", "fusion_lon": 0.0}, {"is_reserved": 0, "type": "electric_scooter", "bike_id": "da684348ba928f7a2ff1fee5e4d01106", "lat": 38.89194533333333, "lon": -77.02231866666666, "rental_uris": {"android": "https://dc.lft.to/lastmile_qr_scan", "ios": "https://dc.lft.to/lastmile_qr_scan"}, "is_disabled": 0, "fusion_lat": 0.0, "name": "da684348ba928f7a2ff1fee5e4d01106", "fusion_lon": 0.0}, {"is_reserved": 0, "type": "electric_scooter", "bike_id": "d17f4ed36ade29e56c24ae0e0dde5618", "lat": 38.89222483333333, "lon": -77.04363966666666, "rental_uris": {"android": "https://dc.lft.to/lastmile_qr_scan", "ios": "https://dc.lft.to/lastmile_qr_scan"}, "is_disabled": 0, "fusion_lat": 0.0, "name": "d17f4ed36ade29e56c24ae0e0dde5618", "fusion_lon": 0.0}, {"is_reserved": 0, "type": "electric_scooter", "bike_id": "bb65412569776a985cc7260f716048de", "lat": 38.91988516666667, "lon": -77.02398333333333, "rental_uris": {"android": "https://dc.lft.to/lastmile_qr_scan", "ios": "https://dc.lft.to/lastmile_qr_scan"}, "is_disabled": 0, "fusion_lat": 0.0, "name": "bb65412569776a985cc7260f716048de", "fusion_lon": 0.0}, {"is_reserved": 0, "type": "electric_scooter", "bike_id": "c292145522e6258d6c0f8bbd90efac93", "lat": 38.933896833333336, "lon": -77.02382266666666, "rental_uris": {"android": "https://dc.lft.to/lastmile_qr_scan", "ios": "https://dc.lft.to/lastmile_qr_scan"}, "is_disabled": 0, "fusion_lat": 0.0, "name": "c292145522e6258d6c0f8bbd90efac93", "fusion_lon": 0.0}, {"is_reserved": 0, "type": "electric_scooter", "bike_id": "6881a6e150ed6a103ad5f5f721600ce9", "lat": 38.956264, "lon": -77.03561583333334, "rental_uris": {"android": "https://dc.lft.to/lastmile_qr_scan", "ios": "https://dc.lft.to/lastmile_qr_scan"}, "is_disabled": 0, "fusion_lat": 0.0, "name": "6881a6e150ed6a103ad5f5f721600ce9", "fusion_lon": 0.0}, {"is_reserved": 0, "type": "electric_scooter", "bike_id": "6282569f03526e2bf352385f5bf1a74b", "lat": 38.912617, "lon": -77.04432016666667, "rental_uris": {"android": "https://dc.lft.to/lastmile_qr_scan", "ios": "https://dc.lft.to/lastmile_qr_scan"}, "is_disabled": 0, "fusion_lat": 0.0, "name": "6282569f03526e2bf352385f5bf1a74b", "fusion_lon": 0.0}, {"is_reserved": 0, "type": "electric_scooter", "bike_id": "bb8f9dba73dbdba16ddc5557deb443a7", "lat": 38.904240333333334, "lon": -77.068981, "rental_uris": {"android": "https://dc.lft.to/lastmile_qr_scan", "ios": "https://dc.lft.to/lastmile_qr_scan"}, "is_disabled": 0, "fusion_lat": 0.0, "name": "bb8f9dba73dbdba16ddc5557deb443a7", "fusion_lon": 0.0}, {"is_reserved": 0, "type": "electric_scooter", "bike_id": "4979630443406203afdd6affe6f67e99", "lat": 38.921016333333334, "lon": -77.0177875, "rental_uris": {"android": "https://dc.lft.to/lastmile_qr_scan", "ios": "https://dc.lft.to/lastmile_qr_scan"}, "is_disabled": 0, "fusion_lat": 0.0, "name": "4979630443406203afdd6affe6f67e99", "fusion_lon": 0.0}, {"is_reserved": 0, "type": "electric_scooter", "bike_id": "e2ffc306c35f2b5236014bcc511495b0", "lat": 38.900069333333334, "lon": -77.02715683333334, "rental_uris": {"android": "https://dc.lft.to/lastmile_qr_scan", "ios": "https://dc.lft.to/lastmile_qr_scan"}, "is_disabled": 0, "fusion_lat": 0.0, "name": "e2ffc306c35f2b5236014bcc511495b0", "fusion_lon": 0.0}, {"is_reserved": 0, "type": "electric_scooter", "bike_id": "ded374e96b8c6c16d037c4b5168b425c", "lat": 38.9141515, "lon": -77.02211683333333, "rental_uris": {"android": "https://dc.lft.to/lastmile_qr_scan", "ios": "https://dc.lft.to/lastmile_qr_scan"}, "is_disabled": 0, "fusion_lat": 0.0, "name": "ded374e96b8c6c16d037c4b5168b425c", "fusion_lon": 0.0}, {"is_reserved": 0, "type": "electric_scooter", "bike_id": "4b2dc7bc79bafdb9d4e00c995b2177ed", "lat": 38.9160505, "lon": -77.03726583333334, "rental_uris": {"android": "https://dc.lft.to/lastmile_qr_scan", "ios": "https://dc.lft.to/lastmile_qr_scan"}, "is_disabled": 0, "fusion_lat": 0.0, "name": "4b2dc7bc79bafdb9d4e00c995b2177ed", "fusion_lon": 0.0}, {"is_reserved": 0, "type": "electric_scooter", "bike_id": "1ff19a00fd3f5ae4b99e5bcd4c06b54a", "lat": 38.93500183333333, "lon": -77.04455666666667, "rental_uris": {"android": "https://dc.lft.to/lastmile_qr_scan", "ios": "https://dc.lft.to/lastmile_qr_scan"}, "is_disabled": 0, "fusion_lat": 0.0, "name": "1ff19a00fd3f5ae4b99e5bcd4c06b54a", "fusion_lon": 0.0}, {"is_reserved": 0, "type": "electric_scooter", "bike_id": "d5aaaabeaea16dabd08cdeb32f351dd2", "lat": 38.9141405, "lon": -77.022099, "rental_uris": {"android": "https://dc.lft.to/lastmile_qr_scan", "ios": "https://dc.lft.to/lastmile_qr_scan"}, "is_disabled": 0, "fusion_lat": 0.0, "name": "d5aaaabeaea16dabd08cdeb32f351dd2", "fusion_lon": 0.0}, {"is_reserved": 0, "type": "electric_scooter", "bike_id": "8e92a0611ee25bc64e6ea3841e3a4aa0", "lat": 38.90609883333333, "lon": -77.00914283333333, "rental_uris": {"android": "https://dc.lft.to/lastmile_qr_scan", "ios": "https://dc.lft.to/lastmile_qr_scan"}, "is_disabled": 0, "fusion_lat": 0.0, "name": "8e92a0611ee25bc64e6ea3841e3a4aa0", "fusion_lon": 0.0}, {"is_reserved": 0, "type": "electric_scooter", "bike_id": "023a1be215b36633ee0445cf09545a44", "lat": 38.904637, "lon": -77.007298, "rental_uris": {"android": "https://dc.lft.to/lastmile_qr_scan", "ios": "https://dc.lft.to/lastmile_qr_scan"}, "is_disabled": 0, "fusion_lat": 0.0, "name": "023a1be215b36633ee0445cf09545a44", "fusion_lon": 0.0}, {"is_reserved": 0, "type": "electric_scooter", "bike_id": "469942f99e0c6b60fc936cf28a973e9c", "lat": 38.893619666666666, "lon": -76.98681083333334, "rental_uris": {"android": "https://dc.lft.to/lastmile_qr_scan", "ios": "https://dc.lft.to/lastmile_qr_scan"}, "is_disabled": 0, "fusion_lat": 0.0, "name": "469942f99e0c6b60fc936cf28a973e9c", "fusion_lon": 0.0}, {"is_reserved": 0, "type": "electric_scooter", "bike_id": "6aeb36eebce65755ee8df8e3c56014f1", "lat": 38.907268333333334, "lon": -77.0070335, "rental_uris": {"android": "https://dc.lft.to/lastmile_qr_scan", "ios": "https://dc.lft.to/lastmile_qr_scan"}, "is_disabled": 0, "fusion_lat": 0.0, "name": "6aeb36eebce65755ee8df8e3c56014f1", "fusion_lon": 0.0}, {"is_reserved": 0, "type": "electric_scooter", "bike_id": "c68729412052f856c59994c3facc5421", "lat": 38.922855, "lon": -77.036616, "rental_uris": {"android": "https://dc.lft.to/lastmile_qr_scan", "ios": "https://dc.lft.to/lastmile_qr_scan"}, "is_disabled": 0, "fusion_lat": 0.0, "name": "c68729412052f856c59994c3facc5421", "fusion_lon": 0.0}, {"is_reserved": 0, "type": "electric_scooter", "bike_id": "abf3ac582067fb48d01db49a43397f4d", "lat": 38.989878166666664, "lon": -77.03362166666666, "rental_uris": {"android": "https://dc.lft.to/lastmile_qr_scan", "ios": "https://dc.lft.to/lastmile_qr_scan"}, "is_disabled": 0, "fusion_lat": 0.0, "name": "abf3ac582067fb48d01db49a43397f4d", "fusion_lon": 0.0}, {"is_reserved": 0, "type": "electric_scooter", "bike_id": "7e1b98d2a42952243f5b39d22022cdae", "lat": 38.894874333333334, "lon": -76.9279275, "rental_uris": {"android": "https://dc.lft.to/lastmile_qr_scan", "ios": "https://dc.lft.to/lastmile_qr_scan"}, "is_disabled": 0, "fusion_lat": 0.0, "name": "7e1b98d2a42952243f5b39d22022cdae", "fusion_lon": 0.0}, {"is_reserved": 0, "type": "electric_scooter", "bike_id": "4c065dd9e206c99e9bb778d585817a5c", "lat": 38.94714833333333, "lon": -77.02707266666667, "rental_uris": {"android": "https://dc.lft.to/lastmile_qr_scan", "ios": "https://dc.lft.to/lastmile_qr_scan"}, "is_disabled": 0, "fusion_lat": 0.0, "name": "4c065dd9e206c99e9bb778d585817a5c", "fusion_lon": 0.0}, {"is_reserved": 0, "type": "electric_scooter", "bike_id": "6ae20808007228716f331224a91b6c7c", "lat": 38.92628766666667, "lon": -77.03506183333333, "rental_uris": {"android": "https://dc.lft.to/lastmile_qr_scan", "ios": "https://dc.lft.to/lastmile_qr_scan"}, "is_disabled": 0, "fusion_lat": 0.0, "name": "6ae20808007228716f331224a91b6c7c", "fusion_lon": 0.0}, {"is_reserved": 0, "type": "electric_bike", "bike_id": "d70252c8db8a5449f4b210583d041a4e", "lat": 38.90536916666667, "lon": -77.04180316666667, "rental_uris": {"android": "https://dc.lft.to/lastmile_qr_scan", "ios": "https://dc.lft.to/lastmile_qr_scan"}, "is_disabled": 0, "fusion_lat": 0.0, "name": "d70252c8db8a5449f4b210583d041a4e", "fusion_lon": 0.0}, {"is_reserved": 0, "type": "electric_scooter", "bike_id": "f0337bcb103b7bf828125a4b6102102d", "lat": 38.89877, "lon": -76.93183666666667, "rental_uris": {"android": "https://dc.lft.to/lastmile_qr_scan", "ios": "https://dc.lft.to/lastmile_qr_scan"}, "is_disabled": 0, "fusion_lat": 0.0, "name": "f0337bcb103b7bf828125a4b6102102d", "fusion_lon": 0.0}, {"is_reserved": 0, "type": "electric_scooter", "bike_id": "e178a6ee832cd567b26d754e3e062a53", "lat": 38.887381, "lon": -77.013528, "rental_uris": {"android": "https://dc.lft.to/lastmile_qr_scan", "ios": "https://dc.lft.to/lastmile_qr_scan"}, "is_disabled": 0, "fusion_lat": 0.0, "name": "e178a6ee832cd567b26d754e3e062a53", "fusion_lon": 0.0}, {"is_reserved": 0, "type": "electric_bike", "bike_id": "b07b4aa9a90a67e98b8a20477471de83", "lat": 38.9317675, "lon": -77.0285275, "rental_uris": {"android": "https://dc.lft.to/lastmile_qr_scan", "ios": "https://dc.lft.to/lastmile_qr_scan"}, "is_disabled": 0, "fusion_lat": 0.0, "name": "b07b4aa9a90a67e98b8a20477471de83", "fusion_lon": 0.0}, {"is_reserved": 0, "type": "electric_scooter", "bike_id": "ea71073fa3d02bca7151d4220328b0dd", "lat": 38.91690716666667, "lon": -77.02600066666666, "rental_uris": {"android": "https://dc.lft.to/lastmile_qr_scan", "ios": "https://dc.lft.to/lastmile_qr_scan"}, "is_disabled": 0, "fusion_lat": 0.0, "name": "ea71073fa3d02bca7151d4220328b0dd", "fusion_lon": 0.0}, {"is_reserved": 0, "type": "electric_scooter", "bike_id": "3ed44a97227a4c571d5c63a4368131e2", "lat": 38.89528883333333, "lon": -76.978929, "rental_uris": {"android": "https://dc.lft.to/lastmile_qr_scan", "ios": "https://dc.lft.to/lastmile_qr_scan"}, "is_disabled": 0, "fusion_lat": 0.0, "name": "3ed44a97227a4c571d5c63a4368131e2", "fusion_lon": 0.0}, {"is_reserved": 0, "type": "electric_scooter", "bike_id": "ed4d58d9c8462c68c731a1d9a91dc59e", "lat": 38.911817166666665, "lon": -77.0375825, "rental_uris": {"android": "https://dc.lft.to/lastmile_qr_scan", "ios": "https://dc.lft.to/lastmile_qr_scan"}, "is_disabled": 0, "fusion_lat": 0.0, "name": "ed4d58d9c8462c68c731a1d9a91dc59e", "fusion_lon": 0.0}, {"is_reserved": 0, "type": "electric_scooter", "bike_id": "966b711597c5551a6a4f38204b0f394d", "lat": 38.88379183333333, "lon": -77.01948616666667, "rental_uris": {"android": "https://dc.lft.to/lastmile_qr_scan", "ios": "https://dc.lft.to/lastmile_qr_scan"}, "is_disabled": 0, "fusion_lat": 0.0, "name": "966b711597c5551a6a4f38204b0f394d", "fusion_lon": 0.0}, {"is_reserved": 0, "type": "electric_scooter", "bike_id": "f7a2e71ae143bd4c324e1666ba6b4cf9", "lat": 38.9242765, "lon": -77.0341825, "rental_uris": {"android": "https://dc.lft.to/lastmile_qr_scan", "ios": "https://dc.lft.to/lastmile_qr_scan"}, "is_disabled": 0, "fusion_lat": 0.0, "name": "f7a2e71ae143bd4c324e1666ba6b4cf9", "fusion_lon": 0.0}, {"is_reserved": 0, "type": "electric_scooter", "bike_id": "52c3f539329acf018acce00d7502093a", "lat": 38.92632233333333, "lon": -77.042572, "rental_uris": {"android": "https://dc.lft.to/lastmile_qr_scan", "ios": "https://dc.lft.to/lastmile_qr_scan"}, "is_disabled": 0, "fusion_lat": 0.0, "name": "52c3f539329acf018acce00d7502093a", "fusion_lon": 0.0}, {"is_reserved": 0, "type": "electric_scooter", "bike_id": "565cec8393ead76d8a4c2800751deeda", "lat": 38.93040416666667, "lon": -77.05540616666667, "rental_uris": {"android": "https://dc.lft.to/lastmile_qr_scan", "ios": "https://dc.lft.to/lastmile_qr_scan"}, "is_disabled": 0, "fusion_lat": 0.0, "name": "565cec8393ead76d8a4c2800751deeda", "fusion_lon": 0.0}, {"is_reserved": 0, "type": "electric_scooter", "bike_id": "34c1ab7af9a891684e28adf702c9eeb2", "lat": 38.920932666666666, "lon": -77.04701583333333, "rental_uris": {"android": "https://dc.lft.to/lastmile_qr_scan", "ios": "https://dc.lft.to/lastmile_qr_scan"}, "is_disabled": 0, "fusion_lat": 0.0, "name": "34c1ab7af9a891684e28adf702c9eeb2", "fusion_lon": 0.0}, {"is_reserved": 0, "type": "electric_scooter", "bike_id": "38ab4424bcd02bef6bef183448c7ac06", "lat": 38.94326316666667, "lon": -77.01259533333334, "rental_uris": {"android": "https://dc.lft.to/lastmile_qr_scan", "ios": "https://dc.lft.to/lastmile_qr_scan"}, "is_disabled": 0, "fusion_lat": 0.0, "name": "38ab4424bcd02bef6bef183448c7ac06", "fusion_lon": 0.0}, {"is_reserved": 0, "type": "electric_scooter", "bike_id": "031d4467fc07310fd822f939714aee8f", "lat": 38.909043833333335, "lon": -76.996181, "rental_uris": {"android": "https://dc.lft.to/lastmile_qr_scan", "ios": "https://dc.lft.to/lastmile_qr_scan"}, "is_disabled": 0, "fusion_lat": 0.0, "name": "031d4467fc07310fd822f939714aee8f", "fusion_lon": 0.0}, {"is_reserved": 0, "type": "electric_scooter", "bike_id": "109ec68c6f307d977677cc58fae03e57", "lat": 38.915805666666664, "lon": -77.01231833333334, "rental_uris": {"android": "https://dc.lft.to/lastmile_qr_scan", "ios": "https://dc.lft.to/lastmile_qr_scan"}, "is_disabled": 0, "fusion_lat": 0.0, "name": "109ec68c6f307d977677cc58fae03e57", "fusion_lon": 0.0}, {"is_reserved": 0, "type": "electric_scooter", "bike_id": "1b38ce3f0eef05c345875feaf7ca251d", "lat": 38.90064566666667, "lon": -76.92742466666667, "rental_uris": {"android": "https://dc.lft.to/lastmile_qr_scan", "ios": "https://dc.lft.to/lastmile_qr_scan"}, "is_disabled": 0, "fusion_lat": 0.0, "name": "1b38ce3f0eef05c345875feaf7ca251d", "fusion_lon": 0.0}, {"is_reserved": 0, "type": "electric_scooter", "bike_id": "c22d6c6c3267cc1540189f038c461b1f", "lat": 38.91987616666667, "lon": -77.02888983333334, "rental_uris": {"android": "https://dc.lft.to/lastmile_qr_scan", "ios": "https://dc.lft.to/lastmile_qr_scan"}, "is_disabled": 0, "fusion_lat": 0.0, "name": "c22d6c6c3267cc1540189f038c461b1f", "fusion_lon": 0.0}, {"is_reserved": 0, "type": "electric_scooter", "bike_id": "dac55c00cbc1ff2764619b4ac403f90e", "lat": 38.91414916666667, "lon": -77.03813833333334, "rental_uris": {"android": "https://dc.lft.to/lastmile_qr_scan", "ios": "https://dc.lft.to/lastmile_qr_scan"}, "is_disabled": 0, "fusion_lat": 0.0, "name": "dac55c00cbc1ff2764619b4ac403f90e", "fusion_lon": 0.0}, {"is_reserved": 0, "type": "electric_scooter", "bike_id": "30d8e64290e06e50c0e671da569b5c72", "lat": 38.940735333333336, "lon": -77.0333315, "rental_uris": {"android": "https://dc.lft.to/lastmile_qr_scan", "ios": "https://dc.lft.to/lastmile_qr_scan"}, "is_disabled": 0, "fusion_lat": 0.0, "name": "30d8e64290e06e50c0e671da569b5c72", "fusion_lon": 0.0}, {"is_reserved": 0, "type": "electric_scooter", "bike_id": "a786f31758cd275897ce64d83c1bcf5a", "lat": 38.88394566666667, "lon": -76.989839, "rental_uris": {"android": "https://dc.lft.to/lastmile_qr_scan", "ios": "https://dc.lft.to/lastmile_qr_scan"}, "is_disabled": 0, "fusion_lat": 0.0, "name": "a786f31758cd275897ce64d83c1bcf5a", "fusion_lon": 0.0}, {"is_reserved": 0, "type": "electric_scooter", "bike_id": "3d71a4d5aab4d560803dc7c85973a5c3", "lat": 38.918063333333336, "lon": -77.040303, "rental_uris": {"android": "https://dc.lft.to/lastmile_qr_scan", "ios": "https://dc.lft.to/lastmile_qr_scan"}, "is_disabled": 0, "fusion_lat": 0.0, "name": "3d71a4d5aab4d560803dc7c85973a5c3", "fusion_lon": 0.0}, {"is_reserved": 0, "type": "electric_bike", "bike_id": "5f91f93e9eb40e32d04aaf0384460c84", "lat": 38.88118733333334, "lon": -77.01668133333334, "rental_uris": {"android": "https://dc.lft.to/lastmile_qr_scan", "ios": "https://dc.lft.to/lastmile_qr_scan"}, "is_disabled": 0, "fusion_lat": 0.0, "name": "5f91f93e9eb40e32d04aaf0384460c84", "fusion_lon": 0.0}, {"is_reserved": 0, "type": "electric_scooter", "bike_id": "6dc717c35934924bbdbfd7e31208d501", "lat": 38.92118766666667, "lon": -77.01764466666667, "rental_uris": {"android": "https://dc.lft.to/lastmile_qr_scan", "ios": "https://dc.lft.to/lastmile_qr_scan"}, "is_disabled": 0, "fusion_lat": 0.0, "name": "6dc717c35934924bbdbfd7e31208d501", "fusion_lon": 0.0}, {"is_reserved": 0, "type": "electric_scooter", "bike_id": "fad4045d3c35e824098ca571c34ef232", "lat": 38.94238, "lon": -77.03585833333334, "rental_uris": {"android": "https://dc.lft.to/lastmile_qr_scan", "ios": "https://dc.lft.to/lastmile_qr_scan"}, "is_disabled": 0, "fusion_lat": 0.0, "name": "fad4045d3c35e824098ca571c34ef232", "fusion_lon": 0.0}, {"is_reserved": 0, "type": "electric_scooter", "bike_id": "260930706ef4d7f5af21612eca5ed39b", "lat": 38.877583333333334, "lon": -76.9942365, "rental_uris": {"android": "https://dc.lft.to/lastmile_qr_scan", "ios": "https://dc.lft.to/lastmile_qr_scan"}, "is_disabled": 0, "fusion_lat": 0.0, "name": "260930706ef4d7f5af21612eca5ed39b", "fusion_lon": 0.0}, {"is_reserved": 0, "type": "electric_scooter", "bike_id": "4b6b8ed50d97a88ce0feb5258b9dab16", "lat": 38.89881666666667, "lon": -76.93178766666666, "rental_uris": {"android": "https://dc.lft.to/lastmile_qr_scan", "ios": "https://dc.lft.to/lastmile_qr_scan"}, "is_disabled": 0, "fusion_lat": 0.0, "name": "4b6b8ed50d97a88ce0feb5258b9dab16", "fusion_lon": 0.0}, {"is_reserved": 0, "type": "electric_scooter", "bike_id": "1006e51c0bcb91dc90807585cbb05e36", "lat": 38.895978, "lon": -77.02588616666667, "rental_uris": {"android": "https://dc.lft.to/lastmile_qr_scan", "ios": "https://dc.lft.to/lastmile_qr_scan"}, "is_disabled": 0, "fusion_lat": 0.0, "name": "1006e51c0bcb91dc90807585cbb05e36", "fusion_lon": 0.0}, {"is_reserved": 0, "type": "electric_scooter", "bike_id": "8a76b5d8c975aac9c7cd31bbac67e06f", "lat": 38.89273, "lon": -76.95258866666667, "rental_uris": {"android": "https://dc.lft.to/lastmile_qr_scan", "ios": "https://dc.lft.to/lastmile_qr_scan"}, "is_disabled": 0, "fusion_lat": 0.0, "name": "8a76b5d8c975aac9c7cd31bbac67e06f", "fusion_lon": 0.0}, {"is_reserved": 0, "type": "electric_scooter", "bike_id": "21c76422b9a948740cc10da0128635ef", "lat": 38.92015266666667, "lon": -77.02957383333333, "rental_uris": {"android": "https://dc.lft.to/lastmile_qr_scan", "ios": "https://dc.lft.to/lastmile_qr_scan"}, "is_disabled": 0, "fusion_lat": 0.0, "name": "21c76422b9a948740cc10da0128635ef", "fusion_lon": 0.0}, {"is_reserved": 0, "type": "electric_scooter", "bike_id": "fe4dc02db9f1b166eec5fa9678d2d49c", "lat": 38.896054, "lon": -77.047085, "rental_uris": {"android": "https://dc.lft.to/lastmile_qr_scan", "ios": "https://dc.lft.to/lastmile_qr_scan"}, "is_disabled": 0, "fusion_lat": 0.0, "name": "fe4dc02db9f1b166eec5fa9678d2d49c", "fusion_lon": 0.0}, {"is_reserved": 0, "type": "electric_scooter", "bike_id": "821066a07b3dd3f9351f9c02d28ed712", "lat": 38.91989016666667, "lon": -77.03322466666667, "rental_uris": {"android": "https://dc.lft.to/lastmile_qr_scan", "ios": "https://dc.lft.to/lastmile_qr_scan"}, "is_disabled": 0, "fusion_lat": 0.0, "name": "821066a07b3dd3f9351f9c02d28ed712", "fusion_lon": 0.0}, {"is_reserved": 0, "type": "electric_scooter", "bike_id": "6ada9d4c0766fa53cfbb18e1450c8352", "lat": 38.85453433333333, "lon": -76.97229883333333, "rental_uris": {"android": "https://dc.lft.to/lastmile_qr_scan", "ios": "https://dc.lft.to/lastmile_qr_scan"}, "is_disabled": 0, "fusion_lat": 0.0, "name": "6ada9d4c0766fa53cfbb18e1450c8352", "fusion_lon": 0.0}, {"is_reserved": 0, "type": "electric_bike", "bike_id": "44fbae7a671acbdc154bfb0d84455094", "lat": 38.88928933333333, "lon": -76.913292, "rental_uris": {"android": "https://dc.lft.to/lastmile_qr_scan", "ios": "https://dc.lft.to/lastmile_qr_scan"}, "is_disabled": 0, "fusion_lat": 0.0, "name": "44fbae7a671acbdc154bfb0d84455094", "fusion_lon": 0.0}, {"is_reserved": 0, "type": "electric_scooter", "bike_id": "ea82df78edf6bbc4c90658eb18bdbfc1", "lat": 38.907219833333336, "lon": -77.02551283333334, "rental_uris": {"android": "https://dc.lft.to/lastmile_qr_scan", "ios": "https://dc.lft.to/lastmile_qr_scan"}, "is_disabled": 0, "fusion_lat": 0.0, "name": "ea82df78edf6bbc4c90658eb18bdbfc1", "fusion_lon": 0.0}, {"is_reserved": 0, "type": "electric_scooter", "bike_id": "856494dde0a90c412eb24860546c96ca", "lat": 38.901501333333336, "lon": -77.05118633333333, "rental_uris": {"android": "https://dc.lft.to/lastmile_qr_scan", "ios": "https://dc.lft.to/lastmile_qr_scan"}, "is_disabled": 0, "fusion_lat": 0.0, "name": "856494dde0a90c412eb24860546c96ca", "fusion_lon": 0.0}, {"is_reserved": 0, "type": "electric_scooter", "bike_id": "07ff3eb31e0c6565bae86e4f8038f6ad", "lat": 38.92754466666667, "lon": -77.02302633333333, "rental_uris": {"android": "https://dc.lft.to/lastmile_qr_scan", "ios": "https://dc.lft.to/lastmile_qr_scan"}, "is_disabled": 0, "fusion_lat": 0.0, "name": "07ff3eb31e0c6565bae86e4f8038f6ad", "fusion_lon": 0.0}, {"is_reserved": 0, "type": "electric_scooter", "bike_id": "d62c43ce09b5ba158c7a70d25455369b", "lat": 38.903941833333334, "lon": -77.027437, "rental_uris": {"android": "https://dc.lft.to/lastmile_qr_scan", "ios": "https://dc.lft.to/lastmile_qr_scan"}, "is_disabled": 0, "fusion_lat": 0.0, "name": "d62c43ce09b5ba158c7a70d25455369b", "fusion_lon": 0.0}, {"is_reserved": 0, "type": "electric_scooter", "bike_id": "820a8659cbe55a951c0eb020e451d3ce", "lat": 38.92022566666667, "lon": -77.0397915, "rental_uris": {"android": "https://dc.lft.to/lastmile_qr_scan", "ios": "https://dc.lft.to/lastmile_qr_scan"}, "is_disabled": 0, "fusion_lat": 0.0, "name": "820a8659cbe55a951c0eb020e451d3ce", "fusion_lon": 0.0}, {"is_reserved": 0, "type": "electric_scooter", "bike_id": "f9ac71ee85ac78a321ce7a655997bbdd", "lat": 38.908229166666665, "lon": -77.000854, "rental_uris": {"android": "https://dc.lft.to/lastmile_qr_scan", "ios": "https://dc.lft.to/lastmile_qr_scan"}, "is_disabled": 0, "fusion_lat": 0.0, "name": "f9ac71ee85ac78a321ce7a655997bbdd", "fusion_lon": 0.0}, {"is_reserved": 0, "type": "electric_scooter", "bike_id": "a891610b164f1b27b175754b0aadd8f7", "lat": 38.921463333333335, "lon": -77.0339235, "rental_uris": {"android": "https://dc.lft.to/lastmile_qr_scan", "ios": "https://dc.lft.to/lastmile_qr_scan"}, "is_disabled": 0, "fusion_lat": 0.0, "name": "a891610b164f1b27b175754b0aadd8f7", "fusion_lon": 0.0}, {"is_reserved": 0, "type": "electric_scooter", "bike_id": "0314b59151d6b993adae2cd3717e4181", "lat": 38.9071305, "lon": -77.0461395, "rental_uris": {"android": "https://dc.lft.to/lastmile_qr_scan", "ios": "https://dc.lft.to/lastmile_qr_scan"}, "is_disabled": 0, "fusion_lat": 0.0, "name": "0314b59151d6b993adae2cd3717e4181", "fusion_lon": 0.0}, {"is_reserved": 0, "type": "electric_scooter", "bike_id": "469aa42ff03215783c4048f90b60e9ad", "lat": 38.933994166666665, "lon": -77.04128983333334, "rental_uris": {"android": "https://dc.lft.to/lastmile_qr_scan", "ios": "https://dc.lft.to/lastmile_qr_scan"}, "is_disabled": 0, "fusion_lat": 0.0, "name": "469aa42ff03215783c4048f90b60e9ad", "fusion_lon": 0.0}, {"is_reserved": 0, "type": "electric_scooter", "bike_id": "f916fa4ce7dbeba6caf77accffecefd4", "lat": 38.905523333333335, "lon": -77.03519433333334, "rental_uris": {"android": "https://dc.lft.to/lastmile_qr_scan", "ios": "https://dc.lft.to/lastmile_qr_scan"}, "is_disabled": 0, "fusion_lat": 0.0, "name": "f916fa4ce7dbeba6caf77accffecefd4", "fusion_lon": 0.0}, {"is_reserved": 0, "type": "electric_scooter", "bike_id": "734c2500f819366b36762ec8eb3f6bb1", "lat": 38.946921833333334, "lon": -77.02247633333333, "rental_uris": {"android": "https://dc.lft.to/lastmile_qr_scan", "ios": "https://dc.lft.to/lastmile_qr_scan"}, "is_disabled": 0, "fusion_lat": 0.0, "name": "734c2500f819366b36762ec8eb3f6bb1", "fusion_lon": 0.0}, {"is_reserved": 0, "type": "electric_scooter", "bike_id": "31728d29387e6f703327ed00ff676517", "lat": 38.90393133333333, "lon": -76.98942, "rental_uris": {"android": "https://dc.lft.to/lastmile_qr_scan", "ios": "https://dc.lft.to/lastmile_qr_scan"}, "is_disabled": 0, "fusion_lat": 0.0, "name": "31728d29387e6f703327ed00ff676517", "fusion_lon": 0.0}, {"is_reserved": 0, "type": "electric_scooter", "bike_id": "6fa5fda89cc91c9e4eccd5863caf39c5", "lat": 38.900115, "lon": -77.01878416666666, "rental_uris": {"android": "https://dc.lft.to/lastmile_qr_scan", "ios": "https://dc.lft.to/lastmile_qr_scan"}, "is_disabled": 0, "fusion_lat": 0.0, "name": "6fa5fda89cc91c9e4eccd5863caf39c5", "fusion_lon": 0.0}, {"is_reserved": 0, "type": "electric_scooter", "bike_id": "e249225a796df744c0fb101ca8c6b72e", "lat": 38.8853245, "lon": -76.99829116666666, "rental_uris": {"android": "https://dc.lft.to/lastmile_qr_scan", "ios": "https://dc.lft.to/lastmile_qr_scan"}, "is_disabled": 0, "fusion_lat": 0.0, "name": "e249225a796df744c0fb101ca8c6b72e", "fusion_lon": 0.0}, {"is_reserved": 0, "type": "electric_bike", "bike_id": "ce17e2ee8bad3ecc417d5a1929978766", "lat": 38.943157666666664, "lon": -76.990116, "rental_uris": {"android": "https://dc.lft.to/lastmile_qr_scan", "ios": "https://dc.lft.to/lastmile_qr_scan"}, "is_disabled": 0, "fusion_lat": 0.0, "name": "ce17e2ee8bad3ecc417d5a1929978766", "fusion_lon": 0.0}, {"is_reserved": 0, "type": "electric_scooter", "bike_id": "a0d85ca2f97ace3013c9097c6d88bb1f", "lat": 38.918067666666666, "lon": -77.04029283333334, "rental_uris": {"android": "https://dc.lft.to/lastmile_qr_scan", "ios": "https://dc.lft.to/lastmile_qr_scan"}, "is_disabled": 0, "fusion_lat": 0.0, "name": "a0d85ca2f97ace3013c9097c6d88bb1f", "fusion_lon": 0.0}, {"is_reserved": 0, "type": "electric_bike", "bike_id": "63e52d9a8a15321d3a89b23748b1fb7f", "lat": 38.872109, "lon": -77.11738316666667, "rental_uris": {"android": "https://dc.lft.to/lastmile_qr_scan", "ios": "https://dc.lft.to/lastmile_qr_scan"}, "is_disabled": 0, "fusion_lat": 0.0, "name": "63e52d9a8a15321d3a89b23748b1fb7f", "fusion_lon": 0.0}, {"is_reserved": 0, "type": "electric_scooter", "bike_id": "15daafe4e5d63746364f9a3bb3e7b759", "lat": 38.8849995, "lon": -77.017544, "rental_uris": {"android": "https://dc.lft.to/lastmile_qr_scan", "ios": "https://dc.lft.to/lastmile_qr_scan"}, "is_disabled": 0, "fusion_lat": 0.0, "name": "15daafe4e5d63746364f9a3bb3e7b759", "fusion_lon": 0.0}, {"is_reserved": 0, "type": "electric_bike", "bike_id": "23613c9626f2814d783c77eb901f8004", "lat": 38.857861666666665, "lon": -76.9875505, "rental_uris": {"android": "https://dc.lft.to/lastmile_qr_scan", "ios": "https://dc.lft.to/lastmile_qr_scan"}, "is_disabled": 0, "fusion_lat": 0.0, "name": "23613c9626f2814d783c77eb901f8004", "fusion_lon": 0.0}, {"is_reserved": 0, "type": "electric_bike", "bike_id": "ae103a92586b3f628a6cc3dccc42e1b4", "lat": 38.86454416666667, "lon": -76.9775655, "rental_uris": {"android": "https://dc.lft.to/lastmile_qr_scan", "ios": "https://dc.lft.to/lastmile_qr_scan"}, "is_disabled": 0, "fusion_lat": 0.0, "name": "ae103a92586b3f628a6cc3dccc42e1b4", "fusion_lon": 0.0}, {"is_reserved": 0, "type": "electric_scooter", "bike_id": "4c3e6d768b74fd1751a477dd5acb8728", "lat": 38.898595666666665, "lon": -76.9776165, "rental_uris": {"android": "https://dc.lft.to/lastmile_qr_scan", "ios": "https://dc.lft.to/lastmile_qr_scan"}, "is_disabled": 0, "fusion_lat": 0.0, "name": "4c3e6d768b74fd1751a477dd5acb8728", "fusion_lon": 0.0}, {"is_reserved": 0, "type": "electric_scooter", "bike_id": "22601bc381aa407f552fa4083b9a6dc6", "lat": 38.899499, "lon": -77.02641783333333, "rental_uris": {"android": "https://dc.lft.to/lastmile_qr_scan", "ios": "https://dc.lft.to/lastmile_qr_scan"}, "is_disabled": 0, "fusion_lat": 0.0, "name": "22601bc381aa407f552fa4083b9a6dc6", "fusion_lon": 0.0}, {"is_reserved": 0, "type": "electric_bike", "bike_id": "3dc80795e6cbf385f659ea14e7920fa8", "lat": 38.9166685, "lon": -77.04699616666667, "rental_uris": {"android": "https://dc.lft.to/lastmile_qr_scan", "ios": "https://dc.lft.to/lastmile_qr_scan"}, "is_disabled": 0, "fusion_lat": 0.0, "name": "3dc80795e6cbf385f659ea14e7920fa8", "fusion_lon": 0.0}, {"is_reserved": 0, "type": "electric_scooter", "bike_id": "f7cf4fcd488aeeeff883f6dc7adbe261", "lat": 38.91416316666667, "lon": -77.01874666666667, "rental_uris": {"android": "https://dc.lft.to/lastmile_qr_scan", "ios": "https://dc.lft.to/lastmile_qr_scan"}, "is_disabled": 0, "fusion_lat": 0.0, "name": "f7cf4fcd488aeeeff883f6dc7adbe261", "fusion_lon": 0.0}, {"is_reserved": 0, "type": "electric_scooter", "bike_id": "ff69c328352e085012b3a3aa498ca05b", "lat": 38.915125, "lon": -77.00341, "rental_uris": {"android": "https://dc.lft.to/lastmile_qr_scan", "ios": "https://dc.lft.to/lastmile_qr_scan"}, "is_disabled": 0, "fusion_lat": 0.0, "name": "ff69c328352e085012b3a3aa498ca05b", "fusion_lon": 0.0}, {"is_reserved": 0, "type": "electric_scooter", "bike_id": "4071dc6f071f107e0f0af0ed5477e487", "lat": 38.9250525, "lon": -77.02168066666667, "rental_uris": {"android": "https://dc.lft.to/lastmile_qr_scan", "ios": "https://dc.lft.to/lastmile_qr_scan"}, "is_disabled": 0, "fusion_lat": 0.0, "name": "4071dc6f071f107e0f0af0ed5477e487", "fusion_lon": 0.0}, {"is_reserved": 0, "type": "electric_scooter", "bike_id": "13c884833c9ca45022d54db58e05f354", "lat": 38.895962833333336, "lon": -76.92984566666667, "rental_uris": {"android": "https://dc.lft.to/lastmile_qr_scan", "ios": "https://dc.lft.to/lastmile_qr_scan"}, "is_disabled": 0, "fusion_lat": 0.0, "name": "13c884833c9ca45022d54db58e05f354", "fusion_lon": 0.0}, {"is_reserved": 0, "type": "electric_scooter", "bike_id": "f22009ed4827a2f8b1abd1bdfc85f9db", "lat": 38.918185, "lon": -77.0452365, "rental_uris": {"android": "https://dc.lft.to/lastmile_qr_scan", "ios": "https://dc.lft.to/lastmile_qr_scan"}, "is_disabled": 0, "fusion_lat": 0.0, "name": "f22009ed4827a2f8b1abd1bdfc85f9db", "fusion_lon": 0.0}, {"is_reserved": 0, "type": "electric_scooter", "bike_id": "8e242676ea4596edd584881426270b2e", "lat": 38.90531883333333, "lon": -76.988315, "rental_uris": {"android": "https://dc.lft.to/lastmile_qr_scan", "ios": "https://dc.lft.to/lastmile_qr_scan"}, "is_disabled": 0, "fusion_lat": 0.0, "name": "8e242676ea4596edd584881426270b2e", "fusion_lon": 0.0}, {"is_reserved": 0, "type": "electric_scooter", "bike_id": "cfc6c477a4e1319bbe4653f0c66b2604", "lat": 38.902560333333334, "lon": -77.01735283333333, "rental_uris": {"android": "https://dc.lft.to/lastmile_qr_scan", "ios": "https://dc.lft.to/lastmile_qr_scan"}, "is_disabled": 0, "fusion_lat": 0.0, "name": "cfc6c477a4e1319bbe4653f0c66b2604", "fusion_lon": 0.0}, {"is_reserved": 0, "type": "electric_bike", "bike_id": "656c6a6471cbd38216949d20abf44c8f", "lat": 38.90979933333333, "lon": -76.985173, "rental_uris": {"android": "https://dc.lft.to/lastmile_qr_scan", "ios": "https://dc.lft.to/lastmile_qr_scan"}, "is_disabled": 0, "fusion_lat": 0.0, "name": "656c6a6471cbd38216949d20abf44c8f", "fusion_lon": 0.0}, {"is_reserved": 0, "type": "electric_scooter", "bike_id": "a952c1d7ac6b2849ef4bbc00b6fbd73d", "lat": 38.93355966666667, "lon": -77.02729833333333, "rental_uris": {"android": "https://dc.lft.to/lastmile_qr_scan", "ios": "https://dc.lft.to/lastmile_qr_scan"}, "is_disabled": 0, "fusion_lat": 0.0, "name": "a952c1d7ac6b2849ef4bbc00b6fbd73d", "fusion_lon": 0.0}, {"is_reserved": 0, "type": "electric_scooter", "bike_id": "a70ef1f3b47c5a675396a6fdefc34e71", "lat": 38.9324325, "lon": -77.038531, "rental_uris": {"android": "https://dc.lft.to/lastmile_qr_scan", "ios": "https://dc.lft.to/lastmile_qr_scan"}, "is_disabled": 0, "fusion_lat": 0.0, "name": "a70ef1f3b47c5a675396a6fdefc34e71", "fusion_lon": 0.0}, {"is_reserved": 0, "type": "electric_scooter", "bike_id": "ecb12e2ca4a893727d486afd4da0692b", "lat": 38.9239095, "lon": -77.02962, "rental_uris": {"android": "https://dc.lft.to/lastmile_qr_scan", "ios": "https://dc.lft.to/lastmile_qr_scan"}, "is_disabled": 0, "fusion_lat": 0.0, "name": "ecb12e2ca4a893727d486afd4da0692b", "fusion_lon": 0.0}, {"is_reserved": 0, "type": "electric_scooter", "bike_id": "462a1899460686cca04d489c1ac24f7b", "lat": 38.89741166666667, "lon": -77.02967016666666, "rental_uris": {"android": "https://dc.lft.to/lastmile_qr_scan", "ios": "https://dc.lft.to/lastmile_qr_scan"}, "is_disabled": 0, "fusion_lat": 0.0, "name": "462a1899460686cca04d489c1ac24f7b", "fusion_lon": 0.0}, {"is_reserved": 0, "type": "electric_bike", "bike_id": "d07be6d6b7bafbff66b521a13a90c38f", "lat": 38.92446983333333, "lon": -77.01921483333334, "rental_uris": {"android": "https://dc.lft.to/lastmile_qr_scan", "ios": "https://dc.lft.to/lastmile_qr_scan"}, "is_disabled": 0, "fusion_lat": 0.0, "name": "d07be6d6b7bafbff66b521a13a90c38f", "fusion_lon": 0.0}, {"is_reserved": 0, "type": "electric_scooter", "bike_id": "e3dc74b5e6b3f4bddce8e474fb42cf46", "lat": 38.914106833333335, "lon": -77.02216816666666, "rental_uris": {"android": "https://dc.lft.to/lastmile_qr_scan", "ios": "https://dc.lft.to/lastmile_qr_scan"}, "is_disabled": 0, "fusion_lat": 0.0, "name": "e3dc74b5e6b3f4bddce8e474fb42cf46", "fusion_lon": 0.0}, {"is_reserved": 0, "type": "electric_bike", "bike_id": "78dc130fb06d596df936e9cd22a00f17", "lat": 38.820433333333334, "lon": -77.05365616666667, "rental_uris": {"android": "https://dc.lft.to/lastmile_qr_scan", "ios": "https://dc.lft.to/lastmile_qr_scan"}, "is_disabled": 0, "fusion_lat": 0.0, "name": "78dc130fb06d596df936e9cd22a00f17", "fusion_lon": 0.0}, {"is_reserved": 0, "type": "electric_scooter", "bike_id": "417af06d35df106c4b92b97c108cb986", "lat": 38.896042, "lon": -77.02213333333333, "rental_uris": {"android": "https://dc.lft.to/lastmile_qr_scan", "ios": "https://dc.lft.to/lastmile_qr_scan"}, "is_disabled": 0, "fusion_lat": 0.0, "name": "417af06d35df106c4b92b97c108cb986", "fusion_lon": 0.0}, {"is_reserved": 0, "type": "electric_scooter", "bike_id": "465b51161c23c31a1c891a190b78d182", "lat": 38.92028066666666, "lon": -77.03729683333333, "rental_uris": {"android": "https://dc.lft.to/lastmile_qr_scan", "ios": "https://dc.lft.to/lastmile_qr_scan"}, "is_disabled": 0, "fusion_lat": 0.0, "name": "465b51161c23c31a1c891a190b78d182", "fusion_lon": 0.0}, {"is_reserved": 0, "type": "electric_scooter", "bike_id": "788367841202aec64194c47cb4d1f2c9", "lat": 38.919526, "lon": -77.044601, "rental_uris": {"android": "https://dc.lft.to/lastmile_qr_scan", "ios": "https://dc.lft.to/lastmile_qr_scan"}, "is_disabled": 0, "fusion_lat": 0.0, "name": "788367841202aec64194c47cb4d1f2c9", "fusion_lon": 0.0}, {"is_reserved": 0, "type": "electric_scooter", "bike_id": "0daa114a9c49fa760aa8f3067411b79c", "lat": 38.89675583333333, "lon": -77.01203983333333, "rental_uris": {"android": "https://dc.lft.to/lastmile_qr_scan", "ios": "https://dc.lft.to/lastmile_qr_scan"}, "is_disabled": 0, "fusion_lat": 0.0, "name": "0daa114a9c49fa760aa8f3067411b79c", "fusion_lon": 0.0}, {"is_reserved": 0, "type": "electric_scooter", "bike_id": "a47f88c396728aa0344bdb52269162d7", "lat": 38.903704833333336, "lon": -77.03142366666667, "rental_uris": {"android": "https://dc.lft.to/lastmile_qr_scan", "ios": "https://dc.lft.to/lastmile_qr_scan"}, "is_disabled": 0, "fusion_lat": 0.0, "name": "a47f88c396728aa0344bdb52269162d7", "fusion_lon": 0.0}, {"is_reserved": 0, "type": "electric_scooter", "bike_id": "cdf13980901016c8b8f43fbab03c1bf3", "lat": 38.925486666666664, "lon": -76.99959433333333, "rental_uris": {"android": "https://dc.lft.to/lastmile_qr_scan", "ios": "https://dc.lft.to/lastmile_qr_scan"}, "is_disabled": 0, "fusion_lat": 0.0, "name": "cdf13980901016c8b8f43fbab03c1bf3", "fusion_lon": 0.0}, {"is_reserved": 0, "type": "electric_scooter", "bike_id": "4baaefc50b585163e5c15c24d4c7672e", "lat": 38.917993333333335, "lon": -77.02708116666666, "rental_uris": {"android": "https://dc.lft.to/lastmile_qr_scan", "ios": "https://dc.lft.to/lastmile_qr_scan"}, "is_disabled": 0, "fusion_lat": 0.0, "name": "4baaefc50b585163e5c15c24d4c7672e", "fusion_lon": 0.0}, {"is_reserved": 0, "type": "electric_scooter", "bike_id": "e4c570c79a39da9919e23811dda281aa", "lat": 38.9200285, "lon": -77.03188266666666, "rental_uris": {"android": "https://dc.lft.to/lastmile_qr_scan", "ios": "https://dc.lft.to/lastmile_qr_scan"}, "is_disabled": 0, "fusion_lat": 0.0, "name": "e4c570c79a39da9919e23811dda281aa", "fusion_lon": 0.0}, {"is_reserved": 0, "type": "electric_scooter", "bike_id": "7efb36acde593d7dda0b6430ab4bc3ff", "lat": 38.8921535, "lon": -77.03149683333334, "rental_uris": {"android": "https://dc.lft.to/lastmile_qr_scan", "ios": "https://dc.lft.to/lastmile_qr_scan"}, "is_disabled": 0, "fusion_lat": 0.0, "name": "7efb36acde593d7dda0b6430ab4bc3ff", "fusion_lon": 0.0}, {"is_reserved": 0, "type": "electric_scooter", "bike_id": "ce31a102b9b4d5aa1c836b9230e00c5a", "lat": 38.90079566666667, "lon": -77.01631266666666, "rental_uris": {"android": "https://dc.lft.to/lastmile_qr_scan", "ios": "https://dc.lft.to/lastmile_qr_scan"}, "is_disabled": 0, "fusion_lat": 0.0, "name": "ce31a102b9b4d5aa1c836b9230e00c5a", "fusion_lon": 0.0}, {"is_reserved": 0, "type": "electric_scooter", "bike_id": "945d8cb47c782ec3e548900cbb44be47", "lat": 38.89714433333333, "lon": -77.05362366666667, "rental_uris": {"android": "https://dc.lft.to/lastmile_qr_scan", "ios": "https://dc.lft.to/lastmile_qr_scan"}, "is_disabled": 0, "fusion_lat": 0.0, "name": "945d8cb47c782ec3e548900cbb44be47", "fusion_lon": 0.0}, {"is_reserved": 0, "type": "electric_scooter", "bike_id": "6c1dc9c6ba636db41d91482bbb9030ee", "lat": 38.91632966666667, "lon": -77.04814333333333, "rental_uris": {"android": "https://dc.lft.to/lastmile_qr_scan", "ios": "https://dc.lft.to/lastmile_qr_scan"}, "is_disabled": 0, "fusion_lat": 0.0, "name": "6c1dc9c6ba636db41d91482bbb9030ee", "fusion_lon": 0.0}, {"is_reserved": 0, "type": "electric_scooter", "bike_id": "b7d5b6d2c5d7928593ba8aa661f5e719", "lat": 38.901763833333334, "lon": -76.9289385, "rental_uris": {"android": "https://dc.lft.to/lastmile_qr_scan", "ios": "https://dc.lft.to/lastmile_qr_scan"}, "is_disabled": 0, "fusion_lat": 0.0, "name": "b7d5b6d2c5d7928593ba8aa661f5e719", "fusion_lon": 0.0}, {"is_reserved": 0, "type": "electric_scooter", "bike_id": "7fbe9d0e5e652b35a5fde933c446ff34", "lat": 38.89892433333333, "lon": -77.00357666666666, "rental_uris": {"android": "https://dc.lft.to/lastmile_qr_scan", "ios": "https://dc.lft.to/lastmile_qr_scan"}, "is_disabled": 0, "fusion_lat": 0.0, "name": "7fbe9d0e5e652b35a5fde933c446ff34", "fusion_lon": 0.0}, {"is_reserved": 0, "type": "electric_bike", "bike_id": "0fe3486dc0e23bd11f17c66a8e2c15b1", "lat": 38.807314, "lon": -76.99257583333333, "rental_uris": {"android": "https://dc.lft.to/lastmile_qr_scan", "ios": "https://dc.lft.to/lastmile_qr_scan"}, "is_disabled": 0, "fusion_lat": 0.0, "name": "0fe3486dc0e23bd11f17c66a8e2c15b1", "fusion_lon": 0.0}, {"is_reserved": 0, "type": "electric_scooter", "bike_id": "2c93cb45d9611f09faae48dcd7452dc7", "lat": 38.922475, "lon": -77.02883783333333, "rental_uris": {"android": "https://dc.lft.to/lastmile_qr_scan", "ios": "https://dc.lft.to/lastmile_qr_scan"}, "is_disabled": 0, "fusion_lat": 0.0, "name": "2c93cb45d9611f09faae48dcd7452dc7", "fusion_lon": 0.0}, {"is_reserved": 0, "type": "electric_scooter", "bike_id": "bdcf99a5a6c0f62b10eaa3f10e483976", "lat": 38.92108533333333, "lon": -77.02196716666667, "rental_uris": {"android": "https://dc.lft.to/lastmile_qr_scan", "ios": "https://dc.lft.to/lastmile_qr_scan"}, "is_disabled": 0, "fusion_lat": 0.0, "name": "bdcf99a5a6c0f62b10eaa3f10e483976", "fusion_lon": 0.0}, {"is_reserved": 0, "type": "electric_scooter", "bike_id": "01fa5cd00e9e0d5c78a95abf34932505", "lat": 38.90162566666667, "lon": -77.02790783333333, "rental_uris": {"android": "https://dc.lft.to/lastmile_qr_scan", "ios": "https://dc.lft.to/lastmile_qr_scan"}, "is_disabled": 0, "fusion_lat": 0.0, "name": "01fa5cd00e9e0d5c78a95abf34932505", "fusion_lon": 0.0}, {"is_reserved": 0, "type": "electric_scooter", "bike_id": "39ebbd73edbf8fa756ec5b9c22859340", "lat": 38.905461833333334, "lon": -77.0569945, "rental_uris": {"android": "https://dc.lft.to/lastmile_qr_scan", "ios": "https://dc.lft.to/lastmile_qr_scan"}, "is_disabled": 0, "fusion_lat": 0.0, "name": "39ebbd73edbf8fa756ec5b9c22859340", "fusion_lon": 0.0}, {"is_reserved": 0, "type": "electric_scooter", "bike_id": "3490091723ab952bcd8441b158194d0b", "lat": 38.872098333333334, "lon": -77.01546, "rental_uris": {"android": "https://dc.lft.to/lastmile_qr_scan", "ios": "https://dc.lft.to/lastmile_qr_scan"}, "is_disabled": 0, "fusion_lat": 0.0, "name": "3490091723ab952bcd8441b158194d0b", "fusion_lon": 0.0}, {"is_reserved": 0, "type": "electric_scooter", "bike_id": "37fb9e6f8c3eb1f626042a55f1f9e807", "lat": 38.916987166666665, "lon": -77.040335, "rental_uris": {"android": "https://dc.lft.to/lastmile_qr_scan", "ios": "https://dc.lft.to/lastmile_qr_scan"}, "is_disabled": 0, "fusion_lat": 0.0, "name": "37fb9e6f8c3eb1f626042a55f1f9e807", "fusion_lon": 0.0}, {"is_reserved": 0, "type": "electric_bike", "bike_id": "6218401297559a6642bb3b26b935d403", "lat": 38.973136833333335, "lon": -76.99472333333334, "rental_uris": {"android": "https://dc.lft.to/lastmile_qr_scan", "ios": "https://dc.lft.to/lastmile_qr_scan"}, "is_disabled": 0, "fusion_lat": 0.0, "name": "6218401297559a6642bb3b26b935d403", "fusion_lon": 0.0}, {"is_reserved": 0, "type": "electric_scooter", "bike_id": "4d0e386229abd89d862ce27bfa4e45dc", "lat": 38.9172135, "lon": -77.0238405, "rental_uris": {"android": "https://dc.lft.to/lastmile_qr_scan", "ios": "https://dc.lft.to/lastmile_qr_scan"}, "is_disabled": 0, "fusion_lat": 0.0, "name": "4d0e386229abd89d862ce27bfa4e45dc", "fusion_lon": 0.0}, {"is_reserved": 0, "type": "electric_scooter", "bike_id": "c17a576e2e94e363c8e543eb545136b0", "lat": 38.874733166666665, "lon": -77.00337716666667, "rental_uris": {"android": "https://dc.lft.to/lastmile_qr_scan", "ios": "https://dc.lft.to/lastmile_qr_scan"}, "is_disabled": 0, "fusion_lat": 0.0, "name": "c17a576e2e94e363c8e543eb545136b0", "fusion_lon": 0.0}, {"is_reserved": 0, "type": "electric_scooter", "bike_id": "f04bf6a158b6bfbd2edbcba73daa6211", "lat": 38.898876666666666, "lon": -76.98002266666667, "rental_uris": {"android": "https://dc.lft.to/lastmile_qr_scan", "ios": "https://dc.lft.to/lastmile_qr_scan"}, "is_disabled": 0, "fusion_lat": 0.0, "name": "f04bf6a158b6bfbd2edbcba73daa6211", "fusion_lon": 0.0}, {"is_reserved": 0, "type": "electric_scooter", "bike_id": "038cf401283226d7b91a6614c8c1fa85", "lat": 38.90304916666667, "lon": -76.97651033333334, "rental_uris": {"android": "https://dc.lft.to/lastmile_qr_scan", "ios": "https://dc.lft.to/lastmile_qr_scan"}, "is_disabled": 0, "fusion_lat": 0.0, "name": "038cf401283226d7b91a6614c8c1fa85", "fusion_lon": 0.0}, {"is_reserved": 0, "type": "electric_scooter", "bike_id": "52fbe4c2a5c602584b71e92641aa3719", "lat": 38.935902666666664, "lon": -77.033692, "rental_uris": {"android": "https://dc.lft.to/lastmile_qr_scan", "ios": "https://dc.lft.to/lastmile_qr_scan"}, "is_disabled": 0, "fusion_lat": 0.0, "name": "52fbe4c2a5c602584b71e92641aa3719", "fusion_lon": 0.0}, {"is_reserved": 0, "type": "electric_scooter", "bike_id": "1748e7526cbb26a9ab7ca60065d765c9", "lat": 38.91416133333333, "lon": -77.022481, "rental_uris": {"android": "https://dc.lft.to/lastmile_qr_scan", "ios": "https://dc.lft.to/lastmile_qr_scan"}, "is_disabled": 0, "fusion_lat": 0.0, "name": "1748e7526cbb26a9ab7ca60065d765c9", "fusion_lon": 0.0}, {"is_reserved": 0, "type": "electric_scooter", "bike_id": "0dbe7ef3a8c18d680d6ffcf9a46a3bb1", "lat": 38.9133095, "lon": -77.05004216666667, "rental_uris": {"android": "https://dc.lft.to/lastmile_qr_scan", "ios": "https://dc.lft.to/lastmile_qr_scan"}, "is_disabled": 0, "fusion_lat": 0.0, "name": "0dbe7ef3a8c18d680d6ffcf9a46a3bb1", "fusion_lon": 0.0}, {"is_reserved": 0, "type": "electric_scooter", "bike_id": "5692b798c883067a78c1a729a98872e9", "lat": 38.920741666666665, "lon": -77.0746165, "rental_uris": {"android": "https://dc.lft.to/lastmile_qr_scan", "ios": "https://dc.lft.to/lastmile_qr_scan"}, "is_disabled": 0, "fusion_lat": 0.0, "name": "5692b798c883067a78c1a729a98872e9", "fusion_lon": 0.0}, {"is_reserved": 0, "type": "electric_scooter", "bike_id": "bf5a559edd9b9b70d97e12aa984ea124", "lat": 38.9208795, "lon": -77.03722066666667, "rental_uris": {"android": "https://dc.lft.to/lastmile_qr_scan", "ios": "https://dc.lft.to/lastmile_qr_scan"}, "is_disabled": 0, "fusion_lat": 0.0, "name": "bf5a559edd9b9b70d97e12aa984ea124", "fusion_lon": 0.0}, {"is_reserved": 0, "type": "electric_scooter", "bike_id": "e434a989c9249ce9c83e12452e57871e", "lat": 38.904053166666664, "lon": -77.025209, "rental_uris": {"android": "https://dc.lft.to/lastmile_qr_scan", "ios": "https://dc.lft.to/lastmile_qr_scan"}, "is_disabled": 0, "fusion_lat": 0.0, "name": "e434a989c9249ce9c83e12452e57871e", "fusion_lon": 0.0}, {"is_reserved": 0, "type": "electric_scooter", "bike_id": "e20e74841136d064663e7f56024b342b", "lat": 38.912572833333336, "lon": -77.0302925, "rental_uris": {"android": "https://dc.lft.to/lastmile_qr_scan", "ios": "https://dc.lft.to/lastmile_qr_scan"}, "is_disabled": 0, "fusion_lat": 0.0, "name": "e20e74841136d064663e7f56024b342b", "fusion_lon": 0.0}, {"is_reserved": 0, "type": "electric_scooter", "bike_id": "ae3230ba1df5abd2804cd7cf432de742", "lat": 38.900378333333336, "lon": -77.00199916666666, "rental_uris": {"android": "https://dc.lft.to/lastmile_qr_scan", "ios": "https://dc.lft.to/lastmile_qr_scan"}, "is_disabled": 0, "fusion_lat": 0.0, "name": "ae3230ba1df5abd2804cd7cf432de742", "fusion_lon": 0.0}, {"is_reserved": 0, "type": "electric_scooter", "bike_id": "cca02c977ef7f0baa02a316b2df15318", "lat": 38.89914866666667, "lon": -77.0269275, "rental_uris": {"android": "https://dc.lft.to/lastmile_qr_scan", "ios": "https://dc.lft.to/lastmile_qr_scan"}, "is_disabled": 0, "fusion_lat": 0.0, "name": "cca02c977ef7f0baa02a316b2df15318", "fusion_lon": 0.0}, {"is_reserved": 0, "type": "electric_scooter", "bike_id": "a95840422a42fcc00f5e37a57d684053", "lat": 38.924049, "lon": -77.029758, "rental_uris": {"android": "https://dc.lft.to/lastmile_qr_scan", "ios": "https://dc.lft.to/lastmile_qr_scan"}, "is_disabled": 0, "fusion_lat": 0.0, "name": "a95840422a42fcc00f5e37a57d684053", "fusion_lon": 0.0}, {"is_reserved": 0, "type": "electric_scooter", "bike_id": "662d6ed6f198226a0783f4da9e7ca5af", "lat": 38.94976483333333, "lon": -77.02439683333333, "rental_uris": {"android": "https://dc.lft.to/lastmile_qr_scan", "ios": "https://dc.lft.to/lastmile_qr_scan"}, "is_disabled": 0, "fusion_lat": 0.0, "name": "662d6ed6f198226a0783f4da9e7ca5af", "fusion_lon": 0.0}, {"is_reserved": 0, "type": "electric_scooter", "bike_id": "1d51f893b3e9b38e7e7de75861df7292", "lat": 38.895271666666666, "lon": -77.0111075, "rental_uris": {"android": "https://dc.lft.to/lastmile_qr_scan", "ios": "https://dc.lft.to/lastmile_qr_scan"}, "is_disabled": 0, "fusion_lat": 0.0, "name": "1d51f893b3e9b38e7e7de75861df7292", "fusion_lon": 0.0}, {"is_reserved": 0, "type": "electric_scooter", "bike_id": "732a505efb3bc90d9308615a7850cbb8", "lat": 38.889062, "lon": -76.97730833333334, "rental_uris": {"android": "https://dc.lft.to/lastmile_qr_scan", "ios": "https://dc.lft.to/lastmile_qr_scan"}, "is_disabled": 0, "fusion_lat": 0.0, "name": "732a505efb3bc90d9308615a7850cbb8", "fusion_lon": 0.0}, {"is_reserved": 0, "type": "electric_scooter", "bike_id": "7cf48d7dc3656b20f6681a68b0feff70", "lat": 38.9068745, "lon": -77.01013516666667, "rental_uris": {"android": "https://dc.lft.to/lastmile_qr_scan", "ios": "https://dc.lft.to/lastmile_qr_scan"}, "is_disabled": 0, "fusion_lat": 0.0, "name": "7cf48d7dc3656b20f6681a68b0feff70", "fusion_lon": 0.0}, {"is_reserved": 0, "type": "electric_scooter", "bike_id": "9ba444866575c4454cd68815039ccdfe", "lat": 38.920299, "lon": -77.01031733333333, "rental_uris": {"android": "https://dc.lft.to/lastmile_qr_scan", "ios": "https://dc.lft.to/lastmile_qr_scan"}, "is_disabled": 0, "fusion_lat": 0.0, "name": "9ba444866575c4454cd68815039ccdfe", "fusion_lon": 0.0}, {"is_reserved": 0, "type": "electric_scooter", "bike_id": "b5eccff4a69958b78e2fb3131f326182", "lat": 38.90057733333333, "lon": -77.04846833333333, "rental_uris": {"android": "https://dc.lft.to/lastmile_qr_scan", "ios": "https://dc.lft.to/lastmile_qr_scan"}, "is_disabled": 0, "fusion_lat": 0.0, "name": "b5eccff4a69958b78e2fb3131f326182", "fusion_lon": 0.0}, {"is_reserved": 0, "type": "electric_scooter", "bike_id": "21e45275261bd7581f5d902d8cc016fd", "lat": 38.881768666666666, "lon": -77.0175795, "rental_uris": {"android": "https://dc.lft.to/lastmile_qr_scan", "ios": "https://dc.lft.to/lastmile_qr_scan"}, "is_disabled": 0, "fusion_lat": 0.0, "name": "21e45275261bd7581f5d902d8cc016fd", "fusion_lon": 0.0}, {"is_reserved": 0, "type": "electric_scooter", "bike_id": "1a31e80ad0042855ac29cc0863a11111", "lat": 38.926756166666664, "lon": -77.007317, "rental_uris": {"android": "https://dc.lft.to/lastmile_qr_scan", "ios": "https://dc.lft.to/lastmile_qr_scan"}, "is_disabled": 0, "fusion_lat": 0.0, "name": "1a31e80ad0042855ac29cc0863a11111", "fusion_lon": 0.0}, {"is_reserved": 0, "type": "electric_scooter", "bike_id": "e990d8d90f5fe0d63b55e3703aee9684", "lat": 38.89542316666667, "lon": -76.98338883333334, "rental_uris": {"android": "https://dc.lft.to/lastmile_qr_scan", "ios": "https://dc.lft.to/lastmile_qr_scan"}, "is_disabled": 0, "fusion_lat": 0.0, "name": "e990d8d90f5fe0d63b55e3703aee9684", "fusion_lon": 0.0}, {"is_reserved": 0, "type": "electric_scooter", "bike_id": "51ac281f6f23d03c76f29f537fecc187", "lat": 38.927006, "lon": -77.02072183333334, "rental_uris": {"android": "https://dc.lft.to/lastmile_qr_scan", "ios": "https://dc.lft.to/lastmile_qr_scan"}, "is_disabled": 0, "fusion_lat": 0.0, "name": "51ac281f6f23d03c76f29f537fecc187", "fusion_lon": 0.0}, {"is_reserved": 0, "type": "electric_scooter", "bike_id": "d9311bf2c13c98dd438cc2ef141a7bbc", "lat": 38.91563583333333, "lon": -77.03669416666666, "rental_uris": {"android": "https://dc.lft.to/lastmile_qr_scan", "ios": "https://dc.lft.to/lastmile_qr_scan"}, "is_disabled": 0, "fusion_lat": 0.0, "name": "d9311bf2c13c98dd438cc2ef141a7bbc", "fusion_lon": 0.0}, {"is_reserved": 0, "type": "electric_scooter", "bike_id": "1ed981d019eb3eaccacc4e7fa03a6d16", "lat": 38.90503833333333, "lon": -77.00690916666667, "rental_uris": {"android": "https://dc.lft.to/lastmile_qr_scan", "ios": "https://dc.lft.to/lastmile_qr_scan"}, "is_disabled": 0, "fusion_lat": 0.0, "name": "1ed981d019eb3eaccacc4e7fa03a6d16", "fusion_lon": 0.0}, {"is_reserved": 0, "type": "electric_scooter", "bike_id": "7471defc259ecd6077536ede706bdb70", "lat": 38.90863383333333, "lon": -77.04655666666666, "rental_uris": {"android": "https://dc.lft.to/lastmile_qr_scan", "ios": "https://dc.lft.to/lastmile_qr_scan"}, "is_disabled": 0, "fusion_lat": 0.0, "name": "7471defc259ecd6077536ede706bdb70", "fusion_lon": 0.0}, {"is_reserved": 0, "type": "electric_scooter", "bike_id": "5a171d100b167a86fa3f9ae36171b8f7", "lat": 38.94007033333333, "lon": -77.0190365, "rental_uris": {"android": "https://dc.lft.to/lastmile_qr_scan", "ios": "https://dc.lft.to/lastmile_qr_scan"}, "is_disabled": 0, "fusion_lat": 0.0, "name": "5a171d100b167a86fa3f9ae36171b8f7", "fusion_lon": 0.0}, {"is_reserved": 0, "type": "electric_scooter", "bike_id": "1ac7c3087d55626ccc18e7e93546cd3f", "lat": 38.91779233333333, "lon": -77.0231405, "rental_uris": {"android": "https://dc.lft.to/lastmile_qr_scan", "ios": "https://dc.lft.to/lastmile_qr_scan"}, "is_disabled": 0, "fusion_lat": 0.0, "name": "1ac7c3087d55626ccc18e7e93546cd3f", "fusion_lon": 0.0}, {"is_reserved": 0, "type": "electric_scooter", "bike_id": "7cef37806531f820d13cb94fea991f48", "lat": 38.921506666666666, "lon": -77.0336105, "rental_uris": {"android": "https://dc.lft.to/lastmile_qr_scan", "ios": "https://dc.lft.to/lastmile_qr_scan"}, "is_disabled": 0, "fusion_lat": 0.0, "name": "7cef37806531f820d13cb94fea991f48", "fusion_lon": 0.0}, {"is_reserved": 0, "type": "electric_scooter", "bike_id": "84c6ad82fcc7e7f3c94ca4f50cb4e8c9", "lat": 38.922394833333335, "lon": -77.03518483333333, "rental_uris": {"android": "https://dc.lft.to/lastmile_qr_scan", "ios": "https://dc.lft.to/lastmile_qr_scan"}, "is_disabled": 0, "fusion_lat": 0.0, "name": "84c6ad82fcc7e7f3c94ca4f50cb4e8c9", "fusion_lon": 0.0}, {"is_reserved": 0, "type": "electric_scooter", "bike_id": "731b77251a97ede817350bdd3c50dada", "lat": 38.923211, "lon": -77.03719683333334, "rental_uris": {"android": "https://dc.lft.to/lastmile_qr_scan", "ios": "https://dc.lft.to/lastmile_qr_scan"}, "is_disabled": 0, "fusion_lat": 0.0, "name": "731b77251a97ede817350bdd3c50dada", "fusion_lon": 0.0}, {"is_reserved": 0, "type": "electric_scooter", "bike_id": "25e4e349c50d99a3175c45ea823008b6", "lat": 38.90721466666667, "lon": -77.04754583333333, "rental_uris": {"android": "https://dc.lft.to/lastmile_qr_scan", "ios": "https://dc.lft.to/lastmile_qr_scan"}, "is_disabled": 0, "fusion_lat": 0.0, "name": "25e4e349c50d99a3175c45ea823008b6", "fusion_lon": 0.0}, {"is_reserved": 0, "type": "electric_scooter", "bike_id": "ea93fef3de32c76726830b50505a4989", "lat": 38.88987066666667, "lon": -77.00154966666666, "rental_uris": {"android": "https://dc.lft.to/lastmile_qr_scan", "ios": "https://dc.lft.to/lastmile_qr_scan"}, "is_disabled": 0, "fusion_lat": 0.0, "name": "ea93fef3de32c76726830b50505a4989", "fusion_lon": 0.0}, {"is_reserved": 0, "type": "electric_scooter", "bike_id": "6a78eeb8cad01975606c54fc1807e1d0", "lat": 38.9291055, "lon": -77.0218865, "rental_uris": {"android": "https://dc.lft.to/lastmile_qr_scan", "ios": "https://dc.lft.to/lastmile_qr_scan"}, "is_disabled": 0, "fusion_lat": 0.0, "name": "6a78eeb8cad01975606c54fc1807e1d0", "fusion_lon": 0.0}, {"is_reserved": 0, "type": "electric_scooter", "bike_id": "d599ca95505fef83e6effab10c398fea", "lat": 38.924440833333335, "lon": -77.04031916666666, "rental_uris": {"android": "https://dc.lft.to/lastmile_qr_scan", "ios": "https://dc.lft.to/lastmile_qr_scan"}, "is_disabled": 0, "fusion_lat": 0.0, "name": "d599ca95505fef83e6effab10c398fea", "fusion_lon": 0.0}, {"is_reserved": 0, "type": "electric_bike", "bike_id": "e21de90ea748534fa221bcceecc35bc0", "lat": 38.912228, "lon": -77.06600833333333, "rental_uris": {"android": "https://dc.lft.to/lastmile_qr_scan", "ios": "https://dc.lft.to/lastmile_qr_scan"}, "is_disabled": 0, "fusion_lat": 0.0, "name": "e21de90ea748534fa221bcceecc35bc0", "fusion_lon": 0.0}, {"is_reserved": 0, "type": "electric_scooter", "bike_id": "9f3c015de5545e033149c51a20e3c02b", "lat": 38.914631, "lon": -77.002104, "rental_uris": {"android": "https://dc.lft.to/lastmile_qr_scan", "ios": "https://dc.lft.to/lastmile_qr_scan"}, "is_disabled": 0, "fusion_lat": 0.0, "name": "9f3c015de5545e033149c51a20e3c02b", "fusion_lon": 0.0}, {"is_reserved": 0, "type": "electric_scooter", "bike_id": "6dff91435d6ffef1e763f1e9621a2313", "lat": 38.91923416666667, "lon": -77.0357945, "rental_uris": {"android": "https://dc.lft.to/lastmile_qr_scan", "ios": "https://dc.lft.to/lastmile_qr_scan"}, "is_disabled": 0, "fusion_lat": 0.0, "name": "6dff91435d6ffef1e763f1e9621a2313", "fusion_lon": 0.0}, {"is_reserved": 0, "type": "electric_scooter", "bike_id": "df676583674c7ca5268b49b5c5f2fc0d", "lat": 38.899031, "lon": -77.03340516666667, "rental_uris": {"android": "https://dc.lft.to/lastmile_qr_scan", "ios": "https://dc.lft.to/lastmile_qr_scan"}, "is_disabled": 0, "fusion_lat": 0.0, "name": "df676583674c7ca5268b49b5c5f2fc0d", "fusion_lon": 0.0}, {"is_reserved": 0, "type": "electric_scooter", "bike_id": "b23c2a4123c93bba94be91b5449f51df", "lat": 38.90723216666667, "lon": -77.04490616666666, "rental_uris": {"android": "https://dc.lft.to/lastmile_qr_scan", "ios": "https://dc.lft.to/lastmile_qr_scan"}, "is_disabled": 0, "fusion_lat": 0.0, "name": "b23c2a4123c93bba94be91b5449f51df", "fusion_lon": 0.0}, {"is_reserved": 0, "type": "electric_scooter", "bike_id": "e1191fa9b46a0d0b9c70a1b67280cc04", "lat": 38.8985425, "lon": -77.019825, "rental_uris": {"android": "https://dc.lft.to/lastmile_qr_scan", "ios": "https://dc.lft.to/lastmile_qr_scan"}, "is_disabled": 0, "fusion_lat": 0.0, "name": "e1191fa9b46a0d0b9c70a1b67280cc04", "fusion_lon": 0.0}, {"is_reserved": 0, "type": "electric_scooter", "bike_id": "872dbe336023ee3468fa6481441a9a03", "lat": 38.899479166666666, "lon": -76.979137, "rental_uris": {"android": "https://dc.lft.to/lastmile_qr_scan", "ios": "https://dc.lft.to/lastmile_qr_scan"}, "is_disabled": 0, "fusion_lat": 0.0, "name": "872dbe336023ee3468fa6481441a9a03", "fusion_lon": 0.0}, {"is_reserved": 0, "type": "electric_scooter", "bike_id": "9400388833f11201fab39aafed38a21d", "lat": 38.87208116666667, "lon": -77.01353883333333, "rental_uris": {"android": "https://dc.lft.to/lastmile_qr_scan", "ios": "https://dc.lft.to/lastmile_qr_scan"}, "is_disabled": 0, "fusion_lat": 0.0, "name": "9400388833f11201fab39aafed38a21d", "fusion_lon": 0.0}, {"is_reserved": 0, "type": "electric_scooter", "bike_id": "0dc2046d83042e0f8856824272567a6b", "lat": 38.915547, "lon": -77.03833666666667, "rental_uris": {"android": "https://dc.lft.to/lastmile_qr_scan", "ios": "https://dc.lft.to/lastmile_qr_scan"}, "is_disabled": 0, "fusion_lat": 0.0, "name": "0dc2046d83042e0f8856824272567a6b", "fusion_lon": 0.0}, {"is_reserved": 0, "type": "electric_scooter", "bike_id": "27cacab1d48954ab2c1c23f02871dc83", "lat": 38.907265, "lon": -77.0142965, "rental_uris": {"android": "https://dc.lft.to/lastmile_qr_scan", "ios": "https://dc.lft.to/lastmile_qr_scan"}, "is_disabled": 0, "fusion_lat": 0.0, "name": "27cacab1d48954ab2c1c23f02871dc83", "fusion_lon": 0.0}, {"is_reserved": 0, "type": "electric_scooter", "bike_id": "2b7cfc89d981d3f18b2ffbeb2eae5954", "lat": 38.90930133333333, "lon": -76.9962975, "rental_uris": {"android": "https://dc.lft.to/lastmile_qr_scan", "ios": "https://dc.lft.to/lastmile_qr_scan"}, "is_disabled": 0, "fusion_lat": 0.0, "name": "2b7cfc89d981d3f18b2ffbeb2eae5954", "fusion_lon": 0.0}, {"is_reserved": 0, "type": "electric_scooter", "bike_id": "23e59bf0d14d6e0c9f0950a5ddcb444e", "lat": 38.935244, "lon": -77.01939916666667, "rental_uris": {"android": "https://dc.lft.to/lastmile_qr_scan", "ios": "https://dc.lft.to/lastmile_qr_scan"}, "is_disabled": 0, "fusion_lat": 0.0, "name": "23e59bf0d14d6e0c9f0950a5ddcb444e", "fusion_lon": 0.0}, {"is_reserved": 0, "type": "electric_scooter", "bike_id": "585d6a407433780ab6848da03411df6d", "lat": 38.906477333333335, "lon": -76.98376733333333, "rental_uris": {"android": "https://dc.lft.to/lastmile_qr_scan", "ios": "https://dc.lft.to/lastmile_qr_scan"}, "is_disabled": 0, "fusion_lat": 0.0, "name": "585d6a407433780ab6848da03411df6d", "fusion_lon": 0.0}, {"is_reserved": 0, "type": "electric_scooter", "bike_id": "f50626dd18d8553b7667605575dbff89", "lat": 38.91628433333333, "lon": -77.03897616666667, "rental_uris": {"android": "https://dc.lft.to/lastmile_qr_scan", "ios": "https://dc.lft.to/lastmile_qr_scan"}, "is_disabled": 0, "fusion_lat": 0.0, "name": "f50626dd18d8553b7667605575dbff89", "fusion_lon": 0.0}, {"is_reserved": 0, "type": "electric_scooter", "bike_id": "46f101807f121d5054c53bf6d4822990", "lat": 38.905448, "lon": -77.0569755, "rental_uris": {"android": "https://dc.lft.to/lastmile_qr_scan", "ios": "https://dc.lft.to/lastmile_qr_scan"}, "is_disabled": 0, "fusion_lat": 0.0, "name": "46f101807f121d5054c53bf6d4822990", "fusion_lon": 0.0}, {"is_reserved": 0, "type": "electric_bike", "bike_id": "b7e7561c4f246a48db273cdb2f698f28", "lat": 38.972618, "lon": -77.14974316666667, "rental_uris": {"android": "https://dc.lft.to/lastmile_qr_scan", "ios": "https://dc.lft.to/lastmile_qr_scan"}, "is_disabled": 0, "fusion_lat": 0.0, "name": "b7e7561c4f246a48db273cdb2f698f28", "fusion_lon": 0.0}, {"is_reserved": 0, "type": "electric_scooter", "bike_id": "a08ece22148024a9b2b0f988df65f786", "lat": 38.8973755, "lon": -77.04421283333333, "rental_uris": {"android": "https://dc.lft.to/lastmile_qr_scan", "ios": "https://dc.lft.to/lastmile_qr_scan"}, "is_disabled": 0, "fusion_lat": 0.0, "name": "a08ece22148024a9b2b0f988df65f786", "fusion_lon": 0.0}, {"is_reserved": 0, "type": "electric_scooter", "bike_id": "952b2228a8d6e288fa0dac9de0966c7e", "lat": 38.915782166666666, "lon": -77.012316, "rental_uris": {"android": "https://dc.lft.to/lastmile_qr_scan", "ios": "https://dc.lft.to/lastmile_qr_scan"}, "is_disabled": 0, "fusion_lat": 0.0, "name": "952b2228a8d6e288fa0dac9de0966c7e", "fusion_lon": 0.0}, {"is_reserved": 0, "type": "electric_scooter", "bike_id": "dbcfc3ae7be1d0d61614678a51732cd1", "lat": 38.905440666666664, "lon": -77.056987, "rental_uris": {"android": "https://dc.lft.to/lastmile_qr_scan", "ios": "https://dc.lft.to/lastmile_qr_scan"}, "is_disabled": 0, "fusion_lat": 0.0, "name": "dbcfc3ae7be1d0d61614678a51732cd1", "fusion_lon": 0.0}, {"is_reserved": 0, "type": "electric_scooter", "bike_id": "e6dd68c44136b1461127c201141e01a8", "lat": 38.90747416666667, "lon": -77.03461566666667, "rental_uris": {"android": "https://dc.lft.to/lastmile_qr_scan", "ios": "https://dc.lft.to/lastmile_qr_scan"}, "is_disabled": 0, "fusion_lat": 0.0, "name": "e6dd68c44136b1461127c201141e01a8", "fusion_lon": 0.0}, {"is_reserved": 0, "type": "electric_scooter", "bike_id": "3d36fe341805e41095520184dcf757e1", "lat": 38.90037383333333, "lon": -76.9916005, "rental_uris": {"android": "https://dc.lft.to/lastmile_qr_scan", "ios": "https://dc.lft.to/lastmile_qr_scan"}, "is_disabled": 0, "fusion_lat": 0.0, "name": "3d36fe341805e41095520184dcf757e1", "fusion_lon": 0.0}, {"is_reserved": 0, "type": "electric_bike", "bike_id": "fcda80801a64f9a3bf78706d40bc191b", "lat": 38.99934916666667, "lon": -77.051349, "rental_uris": {"android": "https://dc.lft.to/lastmile_qr_scan", "ios": "https://dc.lft.to/lastmile_qr_scan"}, "is_disabled": 0, "fusion_lat": 0.0, "name": "fcda80801a64f9a3bf78706d40bc191b", "fusion_lon": 0.0}, {"is_reserved": 0, "type": "electric_scooter", "bike_id": "97dafdbec4289b029b85a3292d2e9878", "lat": 38.923447333333336, "lon": -77.01898183333333, "rental_uris": {"android": "https://dc.lft.to/lastmile_qr_scan", "ios": "https://dc.lft.to/lastmile_qr_scan"}, "is_disabled": 0, "fusion_lat": 0.0, "name": "97dafdbec4289b029b85a3292d2e9878", "fusion_lon": 0.0}, {"is_reserved": 0, "type": "electric_scooter", "bike_id": "99e3afea3e8f4f4a433b58338289eddd", "lat": 38.89836416666667, "lon": -77.0130055, "rental_uris": {"android": "https://dc.lft.to/lastmile_qr_scan", "ios": "https://dc.lft.to/lastmile_qr_scan"}, "is_disabled": 0, "fusion_lat": 0.0, "name": "99e3afea3e8f4f4a433b58338289eddd", "fusion_lon": 0.0}, {"is_reserved": 0, "type": "electric_scooter", "bike_id": "307e7d4f942add03c9e6cc8d5e441fc7", "lat": 38.906285833333335, "lon": -77.03147533333333, "rental_uris": {"android": "https://dc.lft.to/lastmile_qr_scan", "ios": "https://dc.lft.to/lastmile_qr_scan"}, "is_disabled": 0, "fusion_lat": 0.0, "name": "307e7d4f942add03c9e6cc8d5e441fc7", "fusion_lon": 0.0}, {"is_reserved": 0, "type": "electric_scooter", "bike_id": "a04d81db9d9baffcce98792737451f9a", "lat": 38.91891783333333, "lon": -77.0345615, "rental_uris": {"android": "https://dc.lft.to/lastmile_qr_scan", "ios": "https://dc.lft.to/lastmile_qr_scan"}, "is_disabled": 0, "fusion_lat": 0.0, "name": "a04d81db9d9baffcce98792737451f9a", "fusion_lon": 0.0}, {"is_reserved": 0, "type": "electric_scooter", "bike_id": "872896631fca3d433bbc2974609459ca", "lat": 38.87470716666667, "lon": -77.003326, "rental_uris": {"android": "https://dc.lft.to/lastmile_qr_scan", "ios": "https://dc.lft.to/lastmile_qr_scan"}, "is_disabled": 0, "fusion_lat": 0.0, "name": "872896631fca3d433bbc2974609459ca", "fusion_lon": 0.0}, {"is_reserved": 0, "type": "electric_scooter", "bike_id": "7d456a69a1b4601857b67ef7cddf3b9a", "lat": 38.91106816666667, "lon": -77.04974266666666, "rental_uris": {"android": "https://dc.lft.to/lastmile_qr_scan", "ios": "https://dc.lft.to/lastmile_qr_scan"}, "is_disabled": 0, "fusion_lat": 0.0, "name": "7d456a69a1b4601857b67ef7cddf3b9a", "fusion_lon": 0.0}, {"is_reserved": 0, "type": "electric_scooter", "bike_id": "68694f87dd68feaf2e4872b435b9a449", "lat": 38.8922095, "lon": -77.04364633333333, "rental_uris": {"android": "https://dc.lft.to/lastmile_qr_scan", "ios": "https://dc.lft.to/lastmile_qr_scan"}, "is_disabled": 0, "fusion_lat": 0.0, "name": "68694f87dd68feaf2e4872b435b9a449", "fusion_lon": 0.0}, {"is_reserved": 0, "type": "electric_scooter", "bike_id": "09bf76fb58a3247ddc9e99fd75f56e7b", "lat": 38.905442, "lon": -77.04167566666666, "rental_uris": {"android": "https://dc.lft.to/lastmile_qr_scan", "ios": "https://dc.lft.to/lastmile_qr_scan"}, "is_disabled": 0, "fusion_lat": 0.0, "name": "09bf76fb58a3247ddc9e99fd75f56e7b", "fusion_lon": 0.0}, {"is_reserved": 0, "type": "electric_scooter", "bike_id": "767a5940e06e51d72f04dfb6189bd409", "lat": 38.967916333333335, "lon": -77.02434166666667, "rental_uris": {"android": "https://dc.lft.to/lastmile_qr_scan", "ios": "https://dc.lft.to/lastmile_qr_scan"}, "is_disabled": 0, "fusion_lat": 0.0, "name": "767a5940e06e51d72f04dfb6189bd409", "fusion_lon": 0.0}, {"is_reserved": 0, "type": "electric_scooter", "bike_id": "4ffd5923384a08135a9c2c78b63888a9", "lat": 38.92762116666667, "lon": -77.02779166666667, "rental_uris": {"android": "https://dc.lft.to/lastmile_qr_scan", "ios": "https://dc.lft.to/lastmile_qr_scan"}, "is_disabled": 0, "fusion_lat": 0.0, "name": "4ffd5923384a08135a9c2c78b63888a9", "fusion_lon": 0.0}, {"is_reserved": 0, "type": "electric_scooter", "bike_id": "8a55a37decf7d7590cc5c89877da445d", "lat": 38.923158, "lon": -77.02907133333333, "rental_uris": {"android": "https://dc.lft.to/lastmile_qr_scan", "ios": "https://dc.lft.to/lastmile_qr_scan"}, "is_disabled": 0, "fusion_lat": 0.0, "name": "8a55a37decf7d7590cc5c89877da445d", "fusion_lon": 0.0}, {"is_reserved": 0, "type": "electric_scooter", "bike_id": "96d8953f4d9fec7e26944b4ac0c77d82", "lat": 38.934073166666664, "lon": -77.0326385, "rental_uris": {"android": "https://dc.lft.to/lastmile_qr_scan", "ios": "https://dc.lft.to/lastmile_qr_scan"}, "is_disabled": 0, "fusion_lat": 0.0, "name": "96d8953f4d9fec7e26944b4ac0c77d82", "fusion_lon": 0.0}, {"is_reserved": 0, "type": "electric_scooter", "bike_id": "ba7f75971d7b81bfeccbceb34cda882a", "lat": 38.91095216666667, "lon": -77.0506645, "rental_uris": {"android": "https://dc.lft.to/lastmile_qr_scan", "ios": "https://dc.lft.to/lastmile_qr_scan"}, "is_disabled": 0, "fusion_lat": 0.0, "name": "ba7f75971d7b81bfeccbceb34cda882a", "fusion_lon": 0.0}, {"is_reserved": 0, "type": "electric_scooter", "bike_id": "3ce31229e5a99fe7ba6e3689c3b218f5", "lat": 38.926423666666665, "lon": -77.0532225, "rental_uris": {"android": "https://dc.lft.to/lastmile_qr_scan", "ios": "https://dc.lft.to/lastmile_qr_scan"}, "is_disabled": 0, "fusion_lat": 0.0, "name": "3ce31229e5a99fe7ba6e3689c3b218f5", "fusion_lon": 0.0},