{"data": {"bikes": [{"type": "electric_scooter", "name": "a8a086fc6983914a90c2ab14ea8984fe", "lat": 38.935840666666664, "fusion_lat": 0.0, "bike_id": "a8a086fc6983914a90c2ab14ea8984fe", "is_reserved": 0, "lon": -77.03813116666667, "is_disabled": 0, "fusion_lon": 0.0, "rental_uris": {"android": "https://dc.lft.to/lastmile_qr_scan", "ios": "https://dc.lft.to/lastmile_qr_scan"}}, {"type": "electric_scooter", "name": "237830dac5b36fd17e2f3c07145f3b62", "lat": 38.90447016666667, "fusion_lat": 0.0, "bike_id": "237830dac5b36fd17e2f3c07145f3b62", "is_reserved": 0, "lon": -77.04354616666667, "is_disabled": 0, "fusion_lon": 0.0, "rental_uris": {"android": "https://dc.lft.to/lastmile_qr_scan", "ios": "https://dc.lft.to/lastmile_qr_scan"}}, {"type": "electric_scooter", "name": "e48cf20ba048da7c7df4386572558240", "lat": 38.90003216666667, "fusion_lat": 0.0, "bike_id": "e48cf20ba048da7c7df4386572558240", "is_reserved": 0, "lon": -76.99353, "is_disabled": 0, "fusion_lon": 0.0, "rental_uris": {"android": "https://dc.lft.to/lastmile_qr_scan", "ios": "https://dc.lft.to/lastmile_qr_scan"}}, {"type": "electric_scooter", "name": "bf6ae9b1e0b7955f500c5bc96507820c", "lat": 38.92614366666667, "fusion_lat": 0.0, "bike_id": "bf6ae9b1e0b7955f500c5bc96507820c", "is_reserved": 0, "lon": -77.021606, "is_disabled": 0, "fusion_lon": 0.0, "rental_uris": {"android": "https://dc.lft.to/lastmile_qr_scan", "ios": "https://dc.lft.to/lastmile_qr_scan"}}, {"type": "electric_scooter", "name": "7405bc4957f2e5104f72c16eabea9521", "lat": 38.901313333333334, "fusion_lat": 0.0, "bike_id": "7405bc4957f2e5104f72c16eabea9521", "is_reserved": 0, "lon": -76.99805416666666, "is_disabled": 0, "fusion_lon": 0.0, "rental_uris": {"android": "https://dc.lft.to/lastmile_qr_scan", "ios": "https://dc.lft.to/lastmile_qr_scan"}}, {"type": "electric_scooter", "name": "3a2b48d6316b7b2198894d56a559d2ad", "lat": 38.886044166666665, "fusion_lat": 0.0, "bike_id": "3a2b48d6316b7b2198894d56a559d2ad", "is_reserved": 0, "lon": -76.9558735, "is_disabled": 0, "fusion_lon": 0.0, "rental_uris": {"android": "https://dc.lft.to/lastmile_qr_scan", "ios": "https://dc.lft.to/lastmile_qr_scan"}}, {"type": "electric_scooter", "name": "e72ea7a46e1386b3e015dbf2892a6c87", "lat": 38.902828, "fusion_lat": 0.0, "bike_id": "e72ea7a46e1386b3e015dbf2892a6c87", "is_reserved": 0, "lon": -77.02275183333333, "is_disabled": 0, "fusion_lon": 0.0, "rental_uris": {"android": "https://dc.lft.to/lastmile_qr_scan", "ios": "https://dc.lft.to/lastmile_qr_scan"}}, {"type": "electric_scooter", "name": "3a98d0b45c72171aef467f616890e7f5", "lat": 38.89222066666667, "fusion_lat": 0.0, "bike_id": "3a98d0b45c72171aef467f616890e7f5", "is_reserved": 0, "lon": -77.04691633333333, "is_disabled": 0, "fusion_lon": 0.0, "rental_uris": {"android": "https://dc.lft.to/lastmile_qr_scan", "ios": "https://dc.lft.to/lastmile_qr_scan"}}, {"type": "electric_scooter", "name": "853d6e3285d3a9c9d684f1f2d1fa9e4a", "lat": 38.92148516666666, "fusion_lat": 0.0, "bike_id": "853d6e3285d3a9c9d684f1f2d1fa9e4a", "is_reserved": 0, "lon": -77.01915316666667, "is_disabled": 0, "fusion_lon": 0.0, "rental_uris": {"android": "https://dc.lft.to/lastmile_qr_scan", "ios": "https://dc.lft.to/lastmile_qr_scan"}}, {"type": "electric_scooter", "name": "ea61f23559d6d61691c8c41c9d4ebfbd", "lat": 38.93866466666667, "fusion_lat": 0.0, "bike_id": "ea61f23559d6d61691c8c41c9d4ebfbd", "is_reserved": 0, "lon": -77.02489283333334, "is_disabled": 0, "fusion_lon": 0.0, "rental_uris": {"android": "https://dc.lft.to/lastmile_qr_scan", "ios": "https://dc.lft.to/lastmile_qr_scan"}}, {"type": "electric_scooter", "name": "6f78a374153b97dd4f1354943082079d", "lat": 38.88185683333333, "fusion_lat": 0.0, "bike_id": "6f78a374153b97dd4f1354943082079d", "is_reserved": 0, "lon": -76.95892333333333, "is_disabled": 0, "fusion_lon": 0.0, "rental_uris": {"android": "https://dc.lft.to/lastmile_qr_scan", "ios": "https://dc.lft.to/lastmile_qr_scan"}}, {"type": "electric_scooter", "name": "6225b382a0746205f94d7edee2bf12f0", "lat": 38.89726683333333, "fusion_lat": 0.0, "bike_id": "6225b382a0746205f94d7edee2bf12f0", "is_reserved": 0, "lon": -77.02672016666666, "is_disabled": 0, "fusion_lon": 0.0, "rental_uris": {"android": "https://dc.lft.to/lastmile_qr_scan", "ios": "https://dc.lft.to/lastmile_qr_scan"}}, {"type": "electric_scooter", "name": "628f550916c5586e36ec1326403f5d64", "lat": 38.931854333333334, "fusion_lat": 0.0, "bike_id": "628f550916c5586e36ec1326403f5d64", "is_reserved": 0, "lon": -77.04300966666666, "is_disabled": 0, "fusion_lon": 0.0, "rental_uris": {"android": "https://dc.lft.to/lastmile_qr_scan", "ios": "https://dc.lft.to/lastmile_qr_scan"}}, {"type": "electric_scooter", "name": "be916725332e2c02031b4b4925ba9dd7", "lat": 38.86257966666667, "fusion_lat": 0.0, "bike_id": "be916725332e2c02031b4b4925ba9dd7", "is_reserved": 0, "lon": -76.99257716666666, "is_disabled": 0, "fusion_lon": 0.0, "rental_uris": {"android": "https://dc.lft.to/lastmile_qr_scan", "ios": "https://dc.lft.to/lastmile_qr_scan"}}, {"type": "electric_scooter", "name": "0f938d46754eb2af748cd28bf0b3a345", "lat": 38.89524616666667, "fusion_lat": 0.0, "bike_id": "0f938d46754eb2af748cd28bf0b3a345", "is_reserved": 0, "lon": -77.04484316666667, "is_disabled": 0, "fusion_lon": 0.0, "rental_uris": {"android": "https://dc.lft.to/lastmile_qr_scan", "ios": "https://dc.lft.to/lastmile_qr_scan"}}, {"type": "electric_scooter", "name": "c64fa5874a652186040fc6d07a857180", "lat": 38.892338333333335, "fusion_lat": 0.0, "bike_id": "c64fa5874a652186040fc6d07a857180", "is_reserved": 0, "lon": -77.04997583333333, "is_disabled": 0, "fusion_lon": 0.0, "rental_uris": {"android": "https://dc.lft.to/lastmile_qr_scan", "ios": "https://dc.lft.to/lastmile_qr_scan"}}, {"type": "electric_scooter", "name": "4210c3ccd8486941fb0752162a20a310", "lat": 38.905127, "fusion_lat": 0.0, "bike_id": "4210c3ccd8486941fb0752162a20a310", "is_reserved": 0, "lon": -77.0447535, "is_disabled": 0, "fusion_lon": 0.0, "rental_uris": {"android": "https://dc.lft.to/lastmile_qr_scan", "ios": "https://dc.lft.to/lastmile_qr_scan"}}, {"type": "electric_scooter", "name": "4de1400ffbfbc721245481e9994e2193", "lat": 38.898300166666665, "fusion_lat": 0.0, "bike_id": "4de1400ffbfbc721245481e9994e2193", "is_reserved": 0, "lon": -76.94650833333333, "is_disabled": 0, "fusion_lon": 0.0, "rental_uris": {"android": "https://dc.lft.to/lastmile_qr_scan", "ios": "https://dc.lft.to/lastmile_qr_scan"}}, {"type": "electric_scooter", "name": "c61288ef93b01c1211a9414956e834ef", "lat": 38.898339, "fusion_lat": 0.0, "bike_id": "c61288ef93b01c1211a9414956e834ef", "is_reserved": 0, "lon": -77.02910983333334, "is_disabled": 0, "fusion_lon": 0.0, "rental_uris": {"android": "https://dc.lft.to/lastmile_qr_scan", "ios": "https://dc.lft.to/lastmile_qr_scan"}}, {"type": "electric_scooter", "name": "97192de3c0626c0007c8400620043c7d", "lat": 38.92031716666666, "fusion_lat": 0.0, "bike_id": "97192de3c0626c0007c8400620043c7d", "is_reserved": 0, "lon": -77.0176855, "is_disabled": 0, "fusion_lon": 0.0, "rental_uris": {"android": "https://dc.lft.to/lastmile_qr_scan", "ios": "https://dc.lft.to/lastmile_qr_scan"}}, {"type": "electric_scooter", "name": "302857d440033eca391623402ef5da83", "lat": 38.895262333333335, "fusion_lat": 0.0, "bike_id": "302857d440033eca391623402ef5da83", "is_reserved": 0, "lon": -77.00204533333333, "is_disabled": 0, "fusion_lon": 0.0, "rental_uris": {"android": "https://dc.lft.to/lastmile_qr_scan", "ios": "https://dc.lft.to/lastmile_qr_scan"}}, {"type": "electric_scooter", "name": "cba4bc4b1562ff2af267076ea606fcb7", "lat": 38.91222666666667, "fusion_lat": 0.0, "bike_id": "cba4bc4b1562ff2af267076ea606fcb7", "is_reserved": 0, "lon": -77.03184983333334, "is_disabled": 0, "fusion_lon": 0.0, "rental_uris": {"android": "https://dc.lft.to/lastmile_qr_scan", "ios": "https://dc.lft.to/lastmile_qr_scan"}}, {"type": "electric_scooter", "name": "050696b58b870a0b271934611b842765", "lat": 38.91164666666667, "fusion_lat": 0.0, "bike_id": "050696b58b870a0b271934611b842765", "is_reserved": 0, "lon": -77.01983733333333, "is_disabled": 0, "fusion_lon": 0.0, "rental_uris": {"android": "https://dc.lft.to/lastmile_qr_scan", "ios": "https://dc.lft.to/lastmile_qr_scan"}}, {"type": "electric_scooter", "name": "d33d138e6a17c58a991a2b72687da415", "lat": 38.922561333333334, "fusion_lat": 0.0, "bike_id": "d33d138e6a17c58a991a2b72687da415", "is_reserved": 0, "lon": -77.0091925, "is_disabled": 0, "fusion_lon": 0.0, "rental_uris": {"android": "https://dc.lft.to/lastmile_qr_scan", "ios": "https://dc.lft.to/lastmile_qr_scan"}}, {"type": "electric_bike", "name": "dbf7122211ab5199f9a377761ca1eaa9", "lat": 38.90038783333333, "fusion_lat": 0.0, "bike_id": "dbf7122211ab5199f9a377761ca1eaa9", "is_reserved": 0, "lon": -76.97219083333333, "is_disabled": 0, "fusion_lon": 0.0, "rental_uris": {"android": "https://dc.lft.to/lastmile_qr_scan", "ios": "https://dc.lft.to/lastmile_qr_scan"}}, {"type": "electric_scooter", "name": "2e752fc2a784163be83774c86787a71e", "lat": 38.897315666666664, "fusion_lat": 0.0, "bike_id": "2e752fc2a784163be83774c86787a71e", "is_reserved": 0, "lon": -77.00372916666667, "is_disabled": 0, "fusion_lon": 0.0, "rental_uris": {"android": "https://dc.lft.to/lastmile_qr_scan", "ios": "https://dc.lft.to/lastmile_qr_scan"}}, {"type": "electric_scooter", "name": "becd6bf9500954bcb323a1b3832db1bf", "lat": 38.905639666666666, "fusion_lat": 0.0, "bike_id": "becd6bf9500954bcb323a1b3832db1bf", "is_reserved": 0, "lon": -77.03445033333334, "is_disabled": 0, "fusion_lon": 0.0, "rental_uris": {"android": "https://dc.lft.to/lastmile_qr_scan", "ios": "https://dc.lft.to/lastmile_qr_scan"}}, {"type": "electric_scooter", "name": "8c2e5cf45cb2996a9eca9a82cac82e98", "lat": 38.87706766666667, "fusion_lat": 0.0, "bike_id": "8c2e5cf45cb2996a9eca9a82cac82e98", "is_reserved": 0, "lon": -77.00418483333333, "is_disabled": 0, "fusion_lon": 0.0, "rental_uris": {"android": "https://dc.lft.to/lastmile_qr_scan", "ios": "https://dc.lft.to/lastmile_qr_scan"}}, {"type": "electric_scooter", "name": "a9f911d378ab87eacc084d083c47de2d", "lat": 38.924855, "fusion_lat": 0.0, "bike_id": "a9f911d378ab87eacc084d083c47de2d", "is_reserved": 0, "lon": -77.02139716666667, "is_disabled": 0, "fusion_lon": 0.0, "rental_uris": {"android": "https://dc.lft.to/lastmile_qr_scan", "ios": "https://dc.lft.to/lastmile_qr_scan"}}, {"type": "electric_scooter", "name": "e8e87b73b934cc52142504bb569ca3bd", "lat": 38.907699666666666, "fusion_lat": 0.0, "bike_id": "e8e87b73b934cc52142504bb569ca3bd", "is_reserved": 0, "lon": -77.03857983333333, "is_disabled": 0, "fusion_lon": 0.0, "rental_uris": {"android": "https://dc.lft.to/lastmile_qr_scan", "ios": "https://dc.lft.to/lastmile_qr_scan"}}, {"type": "electric_scooter", "name": "76a08a10bdd5791a7f629a0006f57f2c", "lat": 38.90041033333333, "fusion_lat": 0.0, "bike_id": "76a08a10bdd5791a7f629a0006f57f2c", "is_reserved": 0, "lon": -77.03510483333334, "is_disabled": 0, "fusion_lon": 0.0, "rental_uris": {"android": "https://dc.lft.to/lastmile_qr_scan", "ios": "https://dc.lft.to/lastmile_qr_scan"}}, {"type": "electric_scooter", "name": "8df8a0159ff032b3d54d18600c8222d7", "lat": 38.90040483333333, "fusion_lat": 0.0, "bike_id": "8df8a0159ff032b3d54d18600c8222d7", "is_reserved": 0, "lon": -77.008937, "is_disabled": 0, "fusion_lon": 0.0, "rental_uris": {"android": "https://dc.lft.to/lastmile_qr_scan", "ios": "https://dc.lft.to/lastmile_qr_scan"}}, {"type": "electric_scooter", "name": "d81d21861f8f632a77dafd06ecf569d1", "lat": 38.9041095, "fusion_lat": 0.0, "bike_id": "d81d21861f8f632a77dafd06ecf569d1", "is_reserved": 0, "lon": -76.97330416666667, "is_disabled": 0, "fusion_lon": 0.0, "rental_uris": {"android": "https://dc.lft.to/lastmile_qr_scan", "ios": "https://dc.lft.to/lastmile_qr_scan"}}, {"type": "electric_bike", "name": "4bc37ebcdaade33e9e1741c8bd499336", "lat": 38.9510465, "fusion_lat": 0.0, "bike_id": "4bc37ebcdaade33e9e1741c8bd499336", "is_reserved": 0, "lon": -77.00851833333333, "is_disabled": 0, "fusion_lon": 0.0, "rental_uris": {"android": "https://dc.lft.to/lastmile_qr_scan", "ios": "https://dc.lft.to/lastmile_qr_scan"}}, {"type": "electric_scooter", "name": "30801c61b34cf1bb0b0c6523cf49f15e", "lat": 38.91259516666667, "fusion_lat": 0.0, "bike_id": "30801c61b34cf1bb0b0c6523cf49f15e", "is_reserved": 0, "lon": -77.0335815, "is_disabled": 0, "fusion_lon": 0.0, "rental_uris": {"android": "https://dc.lft.to/lastmile_qr_scan", "ios": "https://dc.lft.to/lastmile_qr_scan"}}, {"type": "electric_scooter", "name": "4fbf9d39af5edaf7326e0b40bc716644", "lat": 38.90449066666667, "fusion_lat": 0.0, "bike_id": "4fbf9d39af5edaf7326e0b40bc716644", "is_reserved": 0, "lon": -77.05919683333333, "is_disabled": 0, "fusion_lon": 0.0, "rental_uris": {"android": "https://dc.lft.to/lastmile_qr_scan", "ios": "https://dc.lft.to/lastmile_qr_scan"}}, {"type": "electric_scooter", "name": "f3e475c73871f561082a5ba3598f2933", "lat": 38.90473983333333, "fusion_lat": 0.0, "bike_id": "f3e475c73871f561082a5ba3598f2933", "is_reserved": 0, "lon": -77.06128683333333, "is_disabled": 0, "fusion_lon": 0.0, "rental_uris": {"android": "https://dc.lft.to/lastmile_qr_scan", "ios": "https://dc.lft.to/lastmile_qr_scan"}}, {"type": "electric_scooter", "name": "dd9ca5c3ed2111e3e88991e2e7c1750f", "lat": 38.928432666666666, "fusion_lat": 0.0, "bike_id": "dd9ca5c3ed2111e3e88991e2e7c1750f", "is_reserved": 0, "lon": -77.05419316666666, "is_disabled": 0, "fusion_lon": 0.0, "rental_uris": {"android": "https://dc.lft.to/lastmile_qr_scan", "ios": "https://dc.lft.to/lastmile_qr_scan"}}, {"type": "electric_scooter", "name": "29370a5e5bfe5822b47730c5bdb2e7f3", "lat": 38.9010705, "fusion_lat": 0.0, "bike_id": "29370a5e5bfe5822b47730c5bdb2e7f3", "is_reserved": 0, "lon": -76.994925, "is_disabled": 0, "fusion_lon": 0.0, "rental_uris": {"android": "https://dc.lft.to/lastmile_qr_scan", "ios": "https://dc.lft.to/lastmile_qr_scan"}}, {"type": "electric_scooter", "name": "6b8ddeb2e0576af14bee1ea6d5048c43", "lat": 38.85745, "fusion_lat": 0.0, "bike_id": "6b8ddeb2e0576af14bee1ea6d5048c43", "is_reserved": 0, "lon": -76.9736775, "is_disabled": 0, "fusion_lon": 0.0, "rental_uris": {"android": "https://dc.lft.to/lastmile_qr_scan", "ios": "https://dc.lft.to/lastmile_qr_scan"}}, {"type": "electric_scooter", "name": "ebe76a43b20bb77e5c207f85f4b5a4b2", "lat": 38.904677, "fusion_lat": 0.0, "bike_id": "ebe76a43b20bb77e5c207f85f4b5a4b2", "is_reserved": 0, "lon": -77.04350666666667, "is_disabled": 0, "fusion_lon": 0.0, "rental_uris": {"android": "https://dc.lft.to/lastmile_qr_scan", "ios": "https://dc.lft.to/lastmile_qr_scan"}}, {"type": "electric_scooter", "name": "906b91096ba08fd49d6d2e55b36ea921", "lat": 38.90569266666667, "fusion_lat": 0.0, "bike_id": "906b91096ba08fd49d6d2e55b36ea921", "is_reserved": 0, "lon": -77.0432875, "is_disabled": 0, "fusion_lon": 0.0, "rental_uris": {"android": "https://dc.lft.to/lastmile_qr_scan", "ios": "https://dc.lft.to/lastmile_qr_scan"}}, {"type": "electric_scooter", "name": "2c970388d7a3ff720dadb501cfe627b7", "lat": 38.91644066666667, "fusion_lat": 0.0, "bike_id": "2c970388d7a3ff720dadb501cfe627b7", "is_reserved": 0, "lon": -77.04838633333334, "is_disabled": 0, "fusion_lon": 0.0, "rental_uris": {"android": "https://dc.lft.to/lastmile_qr_scan", "ios": "https://dc.lft.to/lastmile_qr_scan"}}, {"type": "electric_scooter", "name": "a04d8a86a06c91543376d51b3216034d", "lat": 38.893273666666666, "fusion_lat": 0.0, "bike_id": "a04d8a86a06c91543376d51b3216034d", "is_reserved": 0, "lon": -77.02258983333333, "is_disabled": 0, "fusion_lon": 0.0, "rental_uris": {"android": "https://dc.lft.to/lastmile_qr_scan", "ios": "https://dc.lft.to/lastmile_qr_scan"}}, {"type": "electric_bike", "name": "6b5c184a0aed223fb224b641a123c630", "lat": 38.8956785, "fusion_lat": 0.0, "bike_id": "6b5c184a0aed223fb224b641a123c630", "is_reserved": 0, "lon": -77.12735483333333, "is_disabled": 0, "fusion_lon": 0.0, "rental_uris": {"android": "https://dc.lft.to/lastmile_qr_scan", "ios": "https://dc.lft.to/lastmile_qr_scan"}}, {"type": "electric_scooter", "name": "e0bfd8b4af9e917bba6262fdcafc974e", "lat": 38.9171995, "fusion_lat": 0.0, "bike_id": "e0bfd8b4af9e917bba6262fdcafc974e", "is_reserved": 0, "lon": -77.02809383333333, "is_disabled": 0, "fusion_lon": 0.0, "rental_uris": {"android": "https://dc.lft.to/lastmile_qr_scan", "ios": "https://dc.lft.to/lastmile_qr_scan"}}, {"type": "electric_scooter", "name": "cd54db2684c7b9124820bad8f252eb70", "lat": 38.913647166666664, "fusion_lat": 0.0, "bike_id": "cd54db2684c7b9124820bad8f252eb70", "is_reserved": 0, "lon": -77.0448915, "is_disabled": 0, "fusion_lon": 0.0, "rental_uris": {"android": "https://dc.lft.to/lastmile_qr_scan", "ios": "https://dc.lft.to/lastmile_qr_scan"}}, {"type": "electric_scooter", "name": "1e7ef0ef27bf7ad4ca3c0ff9f8e8ff41", "lat": 38.91117366666667, "fusion_lat": 0.0, "bike_id": "1e7ef0ef27bf7ad4ca3c0ff9f8e8ff41", "is_reserved": 0, "lon": -77.02238683333333, "is_disabled": 0, "fusion_lon": 0.0, "rental_uris": {"android": "https://dc.lft.to/lastmile_qr_scan", "ios": "https://dc.lft.to/lastmile_qr_scan"}}, {"type": "electric_scooter", "name": "20a7e09b282740dee866828388b9f180", "lat": 38.866611, "fusion_lat": 0.0, "bike_id": "20a7e09b282740dee866828388b9f180", "is_reserved": 0, "lon": -76.9888155, "is_disabled": 0, "fusion_lon": 0.0, "rental_uris": {"android": "https://dc.lft.to/lastmile_qr_scan", "ios": "https://dc.lft.to/lastmile_qr_scan"}}, {"type": "electric_bike", "name": "e6ac2ff0bdc0a4b27eda6c158ab2ccd3", "lat": 38.9443205, "fusion_lat": 0.0, "bike_id": "e6ac2ff0bdc0a4b27eda6c158ab2ccd3", "is_reserved": 0, "lon": -77.02607466666667, "is_disabled": 0, "fusion_lon": 0.0, "rental_uris": {"android": "https://dc.lft.to/lastmile_qr_scan", "ios": "https://dc.lft.to/lastmile_qr_scan"}}, {"type": "electric_scooter", "name": "47e1595a9e82b68bae4ff9aaf55015b8", "lat": 38.90928666666667, "fusion_lat": 0.0, "bike_id": "47e1595a9e82b68bae4ff9aaf55015b8", "is_reserved": 0, "lon": -77.02693, "is_disabled": 0, "fusion_lon": 0.0, "rental_uris": {"android": "https://dc.lft.to/lastmile_qr_scan", "ios": "https://dc.lft.to/lastmile_qr_scan"}}, {"type": "electric_scooter", "name": "31b7aebb77ad656710258c10dd757ffe", "lat": 38.90034583333333, "fusion_lat": 0.0, "bike_id": "31b7aebb77ad656710258c10dd757ffe", "is_reserved": 0, "lon": -77.01183333333333, "is_disabled": 0, "fusion_lon": 0.0, "rental_uris": {"android": "https://dc.lft.to/lastmile_qr_scan", "ios": "https://dc.lft.to/lastmile_qr_scan"}}, {"type": "electric_scooter", "name": "e11440ebc4baa7d33a3a5cea094fddb3", "lat": 38.8579635, "fusion_lat": 0.0, "bike_id": "e11440ebc4baa7d33a3a5cea094fddb3", "is_reserved": 0, "lon": -76.9891065, "is_disabled": 0, "fusion_lon": 0.0, "rental_uris": {"android": "https://dc.lft.to/lastmile_qr_scan", "ios": "https://dc.lft.to/lastmile_qr_scan"}}, {"type": "electric_scooter", "name": "676d5fa4838b17660f3853628097fd07", "lat": 38.91641033333333, "fusion_lat": 0.0, "bike_id": "676d5fa4838b17660f3853628097fd07", "is_reserved": 0, "lon": -77.03204933333333, "is_disabled": 0, "fusion_lon": 0.0, "rental_uris": {"android": "https://dc.lft.to/lastmile_qr_scan", "ios": "https://dc.lft.to/lastmile_qr_scan"}}, {"type": "electric_scooter", "name": "7a93140552a0b478e0ef56eedf22c59f", "lat": 38.9255045, "fusion_lat": 0.0, "bike_id": "7a93140552a0b478e0ef56eedf22c59f", "is_reserved": 0, "lon": -77.02706566666667, "is_disabled": 0, "fusion_lon": 0.0, "rental_uris": {"android": "https://dc.lft.to/lastmile_qr_scan", "ios": "https://dc.lft.to/lastmile_qr_scan"}}, {"type": "electric_scooter", "name": "36764cb64cd0812dcf13127493e7d735", "lat": 38.95245633333333, "fusion_lat": 0.0, "bike_id": "36764cb64cd0812dcf13127493e7d735", "is_reserved": 0, "lon": -77.00692516666666, "is_disabled": 0, "fusion_lon": 0.0, "rental_uris": {"android": "https://dc.lft.to/lastmile_qr_scan", "ios": "https://dc.lft.to/lastmile_qr_scan"}}, {"type": "electric_scooter", "name": "937a819ce209cebf5e63036023c50901", "lat": 38.879946, "fusion_lat": 0.0, "bike_id": "937a819ce209cebf5e63036023c50901", "is_reserved": 0, "lon": -77.02409166666666, "is_disabled": 0, "fusion_lon": 0.0, "rental_uris": {"android": "https://dc.lft.to/lastmile_qr_scan", "ios": "https://dc.lft.to/lastmile_qr_scan"}}, {"type": "electric_scooter", "name": "fc11a9a5e96227d489bc1bf78feaaca1", "lat": 38.902365333333336, "fusion_lat": 0.0, "bike_id": "fc11a9a5e96227d489bc1bf78feaaca1", "is_reserved": 0, "lon": -77.00199933333333, "is_disabled": 0, "fusion_lon": 0.0, "rental_uris": {"android": "https://dc.lft.to/lastmile_qr_scan", "ios": "https://dc.lft.to/lastmile_qr_scan"}}, {"type": "electric_scooter", "name": "2e1a2eed77e16915719ace0797828b85", "lat": 38.841831166666665, "fusion_lat": 0.0, "bike_id": "2e1a2eed77e16915719ace0797828b85", "is_reserved": 0, "lon": -76.99780833333334, "is_disabled": 0, "fusion_lon": 0.0, "rental_uris": {"android": "https://dc.lft.to/lastmile_qr_scan", "ios": "https://dc.lft.to/lastmile_qr_scan"}}, {"type": "electric_scooter", "name": "18a0559088e494d2b028bb854230ca35", "lat": 38.90239066666667, "fusion_lat": 0.0, "bike_id": "18a0559088e494d2b028bb854230ca35", "is_reserved": 0, "lon": -77.04546316666666, "is_disabled": 0, "fusion_lon": 0.0, "rental_uris": {"android": "https://dc.lft.to/lastmile_qr_scan", "ios": "https://dc.lft.to/lastmile_qr_scan"}}, {"type": "electric_scooter", "name": "e2ddeb0413b513932193918c707d622a", "lat": 38.916849666666664, "fusion_lat": 0.0, "bike_id": "e2ddeb0413b513932193918c707d622a", "is_reserved": 0, "lon": -77.0294725, "is_disabled": 0, "fusion_lon": 0.0, "rental_uris": {"android": "https://dc.lft.to/lastmile_qr_scan", "ios": "https://dc.lft.to/lastmile_qr_scan"}}, {"type": "electric_scooter", "name": "1cde47a475e641c4166f52207fedb5f2", "lat": 38.90567216666667, "fusion_lat": 0.0, "bike_id": "1cde47a475e641c4166f52207fedb5f2", "is_reserved": 0, "lon": -77.03451416666667, "is_disabled": 0, "fusion_lon": 0.0, "rental_uris": {"android": "https://dc.lft.to/lastmile_qr_scan", "ios": "https://dc.lft.to/lastmile_qr_scan"}}, {"type": "electric_bike", "name": "f75d67657486a685b7ca766133865931", "lat": 38.79855, "fusion_lat": 0.0, "bike_id": "f75d67657486a685b7ca766133865931", "is_reserved": 0, "lon": -77.063091, "is_disabled": 0, "fusion_lon": 0.0, "rental_uris": {"android": "https://dc.lft.to/lastmile_qr_scan", "ios": "https://dc.lft.to/lastmile_qr_scan"}}, {"type": "electric_scooter", "name": "9c22dff05515de0b2beb2fcb7efb1868", "lat": 38.94407316666667, "fusion_lat": 0.0, "bike_id": "9c22dff05515de0b2beb2fcb7efb1868", "is_reserved": 0, "lon": -77.025981, "is_disabled": 0, "fusion_lon": 0.0, "rental_uris": {"android": "https://dc.lft.to/lastmile_qr_scan", "ios": "https://dc.lft.to/lastmile_qr_scan"}}, {"type": "electric_bike", "name": "535d6e423660582dc1168e80d4c7680f", "lat": 38.857707833333336, "fusion_lat": 0.0, "bike_id": "535d6e423660582dc1168e80d4c7680f", "is_reserved": 0, "lon": -76.9875465, "is_disabled": 0, "fusion_lon": 0.0, "rental_uris": {"android": "https://dc.lft.to/lastmile_qr_scan", "ios": "https://dc.lft.to/lastmile_qr_scan"}}, {"type": "electric_scooter", "name": "19a259ef5fcdda6a6620b8cc2f926c06", "lat": 38.887320333333335, "fusion_lat": 0.0, "bike_id": "19a259ef5fcdda6a6620b8cc2f926c06", "is_reserved": 0, "lon": -77.02830883333333, "is_disabled": 0, "fusion_lon": 0.0, "rental_uris": {"android": "https://dc.lft.to/lastmile_qr_scan", "ios": "https://dc.lft.to/lastmile_qr_scan"}}, {"type": "electric_scooter", "name": "5275aa2bc8b63f1bca4c9b688f41ea33", "lat": 38.895156, "fusion_lat": 0.0, "bike_id": "5275aa2bc8b63f1bca4c9b688f41ea33", "is_reserved": 0, "lon": -77.02285816666667, "is_disabled": 0, "fusion_lon": 0.0, "rental_uris": {"android": "https://dc.lft.to/lastmile_qr_scan", "ios": "https://dc.lft.to/lastmile_qr_scan"}}, {"type": "electric_scooter", "name": "e5c0af66fc61b1362b5e781be4e79afe", "lat": 38.91976783333333, "fusion_lat": 0.0, "bike_id": "e5c0af66fc61b1362b5e781be4e79afe", "is_reserved": 0, "lon": -77.023972, "is_disabled": 0, "fusion_lon": 0.0, "rental_uris": {"android": "https://dc.lft.to/lastmile_qr_scan", "ios": "https://dc.lft.to/lastmile_qr_scan"}}, {"type": "electric_bike", "name": "6fa8998baaa8f588a4d9404829792535", "lat": 38.949193, "fusion_lat": 0.0, "bike_id": "6fa8998baaa8f588a4d9404829792535", "is_reserved": 0, "lon": -77.07843116666666, "is_disabled": 0, "fusion_lon": 0.0, "rental_uris": {"android": "https://dc.lft.to/lastmile_qr_scan", "ios": "https://dc.lft.to/lastmile_qr_scan"}}, {"type": "electric_scooter", "name": "aa692183d16ebc1b3c0d786c9cd67fdd", "lat": 38.918367, "fusion_lat": 0.0, "bike_id": "aa692183d16ebc1b3c0d786c9cd67fdd", "is_reserved": 0, "lon": -77.03520416666667, "is_disabled": 0, "fusion_lon": 0.0, "rental_uris": {"android": "https://dc.lft.to/lastmile_qr_scan", "ios": "https://dc.lft.to/lastmile_qr_scan"}}, {"type": "electric_scooter", "name": "39a57fa7c8bf76021d51ed821b554ae6", "lat": 38.9066345, "fusion_lat": 0.0, "bike_id": "39a57fa7c8bf76021d51ed821b554ae6", "is_reserved": 0, "lon": -77.03867033333333, "is_disabled": 0, "fusion_lon": 0.0, "rental_uris": {"android": "https://dc.lft.to/lastmile_qr_scan", "ios": "https://dc.lft.to/lastmile_qr_scan"}}, {"type": "electric_scooter", "name": "4629fd01b45656d7f726c7ce4add31d2", "lat": 38.902671, "fusion_lat": 0.0, "bike_id": "4629fd01b45656d7f726c7ce4add31d2", "is_reserved": 0, "lon": -77.03936483333334, "is_disabled": 0, "fusion_lon": 0.0, "rental_uris": {"android": "https://dc.lft.to/lastmile_qr_scan", "ios": "https://dc.lft.to/lastmile_qr_scan"}}, {"type": "electric_scooter", "name": "ca95add53cf6933d1166fb1c670d84cb", "lat": 38.92348616666666, "fusion_lat": 0.0, "bike_id": "ca95add53cf6933d1166fb1c670d84cb", "is_reserved": 0, "lon": -77.04149216666667, "is_disabled": 0, "fusion_lon": 0.0, "rental_uris": {"android": "https://dc.lft.to/lastmile_qr_scan", "ios": "https://dc.lft.to/lastmile_qr_scan"}}, {"type": "electric_scooter", "name": "13c1ca33e02e5a186ddf23c5395e29a6", "lat": 38.877856666666666, "fusion_lat": 0.0, "bike_id": "13c1ca33e02e5a186ddf23c5395e29a6", "is_reserved": 0, "lon": -76.99403916666667, "is_disabled": 0, "fusion_lon": 0.0, "rental_uris": {"android": "https://dc.lft.to/lastmile_qr_scan", "ios": "https://dc.lft.to/lastmile_qr_scan"}}, {"type": "electric_scooter", "name": "67e03f19dba1bfe29f63caa5f722dd9d", "lat": 38.908555166666666, "fusion_lat": 0.0, "bike_id": "67e03f19dba1bfe29f63caa5f722dd9d", "is_reserved": 0, "lon": -77.0196805, "is_disabled": 0, "fusion_lon": 0.0, "rental_uris": {"android": "https://dc.lft.to/lastmile_qr_scan", "ios": "https://dc.lft.to/lastmile_qr_scan"}}, {"type": "electric_scooter", "name": "724161bb3ed863636971c353617ef4f6", "lat": 38.904108, "fusion_lat": 0.0, "bike_id": "724161bb3ed863636971c353617ef4f6", "is_reserved": 0, "lon": -76.973299, "is_disabled": 0, "fusion_lon": 0.0, "rental_uris": {"android": "https://dc.lft.to/lastmile_qr_scan", "ios": "https://dc.lft.to/lastmile_qr_scan"}}, {"type": "electric_scooter", "name": "c7f881ce0c7c2f4d811675519d578831", "lat": 38.92322766666667, "fusion_lat": 0.0, "bike_id": "c7f881ce0c7c2f4d811675519d578831", "is_reserved": 0, "lon": -77.01962916666666, "is_disabled": 0, "fusion_lon": 0.0, "rental_uris": {"android": "https://dc.lft.to/lastmile_qr_scan", "ios": "https://dc.lft.to/lastmile_qr_scan"}}, {"type": "electric_scooter", "name": "0ddf2b7af6d6a9c9b05e8da97b374bf6", "lat": 38.90385533333333, "fusion_lat": 0.0, "bike_id": "0ddf2b7af6d6a9c9b05e8da97b374bf6", "is_reserved": 0, "lon": -77.03629666666667, "is_disabled": 0, "fusion_lon": 0.0, "rental_uris": {"android": "https://dc.lft.to/lastmile_qr_scan", "ios": "https://dc.lft.to/lastmile_qr_scan"}}, {"type": "electric_scooter", "name": "1a3d58cb5084f48c2cbe99209f142201", "lat": 38.892300166666665, "fusion_lat": 0.0, "bike_id": "1a3d58cb5084f48c2cbe99209f142201", "is_reserved": 0, "lon": -77.03210433333334, "is_disabled": 0, "fusion_lon": 0.0, "rental_uris": {"android": "https://dc.lft.to/lastmile_qr_scan", "ios": "https://dc.lft.to/lastmile_qr_scan"}}, {"type": "electric_scooter", "name": "f8462030804adb83964add2d5dfb90d8", "lat": 38.90373066666667, "fusion_lat": 0.0, "bike_id": "f8462030804adb83964add2d5dfb90d8", "is_reserved": 0, "lon": -77.04178916666666, "is_disabled": 0, "fusion_lon": 0.0, "rental_uris": {"android": "https://dc.lft.to/lastmile_qr_scan", "ios": "https://dc.lft.to/lastmile_qr_scan"}}, {"type": "electric_scooter", "name": "19d207c1dde83b4ea13617e375af06e6", "lat": 38.899158666666665, "fusion_lat": 0.0, "bike_id": "19d207c1dde83b4ea13617e375af06e6", "is_reserved": 0, "lon": -77.02823566666666, "is_disabled": 0, "fusion_lon": 0.0, "rental_uris": {"android": "https://dc.lft.to/lastmile_qr_scan", "ios": "https://dc.lft.to/lastmile_qr_scan"}}, {"type": "electric_scooter", "name": "5c52840cd6943de30e27d585f50d2037", "lat": 38.9205305, "fusion_lat": 0.0, "bike_id": "5c52840cd6943de30e27d585f50d2037", "is_reserved": 0, "lon": -77.03445033333334, "is_disabled": 0, "fusion_lon": 0.0, "rental_uris": {"android": "https://dc.lft.to/lastmile_qr_scan", "ios": "https://dc.lft.to/lastmile_qr_scan"}}, {"type": "electric_scooter", "name": "f9f67fab14796cdf9b1c05a6ec44d83c", "lat": 38.90708033333333, "fusion_lat": 0.0, "bike_id": "f9f67fab14796cdf9b1c05a6ec44d83c", "is_reserved": 0, "lon": -77.002136, "is_disabled": 0, "fusion_lon": 0.0, "rental_uris": {"android": "https://dc.lft.to/lastmile_qr_scan", "ios": "https://dc.lft.to/lastmile_qr_scan"}}, {"type": "electric_scooter", "name": "ef6397e9b7d3df7b4ffb6e79a3e263d1", "lat": 38.89739766666667, "fusion_lat": 0.0, "bike_id": "ef6397e9b7d3df7b4ffb6e79a3e263d1", "is_reserved": 0, "lon": -77.04694266666667, "is_disabled": 0, "fusion_lon": 0.0, "rental_uris": {"android": "https://dc.lft.to/lastmile_qr_scan", "ios": "https://dc.lft.to/lastmile_qr_scan"}}, {"type": "electric_scooter", "name": "43ce6a4eca22027fa7541be2623ec997", "lat": 38.87687116666667, "fusion_lat": 0.0, "bike_id": "43ce6a4eca22027fa7541be2623ec997", "is_reserved": 0, "lon": -77.000687, "is_disabled": 0, "fusion_lon": 0.0, "rental_uris": {"android": "https://dc.lft.to/lastmile_qr_scan", "ios": "https://dc.lft.to/lastmile_qr_scan"}}, {"type": "electric_scooter", "name": "6a94818a6701a9c5fa970b6de8548778", "lat": 38.903734166666666, "fusion_lat": 0.0, "bike_id": "6a94818a6701a9c5fa970b6de8548778", "is_reserved": 0, "lon": -77.0367375, "is_disabled": 0, "fusion_lon": 0.0, "rental_uris": {"android": "https://dc.lft.to/lastmile_qr_scan", "ios": "https://dc.lft.to/lastmile_qr_scan"}}, {"type": "electric_scooter", "name": "d96138b1d5f981155e7fb1d93a025127", "lat": 38.90241833333333, "fusion_lat": 0.0, "bike_id": "d96138b1d5f981155e7fb1d93a025127", "is_reserved": 0, "lon": -77.0376105, "is_disabled": 0, "fusion_lon": 0.0, "rental_uris": {"android": "https://dc.lft.to/lastmile_qr_scan", "ios": "https://dc.lft.to/lastmile_qr_scan"}}, {"type": "electric_scooter", "name": "eb6b6edd0a5d7a3bf94cee0e7d492572", "lat": 38.90652466666667, "fusion_lat": 0.0, "bike_id": "eb6b6edd0a5d7a3bf94cee0e7d492572", "is_reserved": 0, "lon": -77.02522383333333, "is_disabled": 0, "fusion_lon": 0.0, "rental_uris": {"android": "https://dc.lft.to/lastmile_qr_scan", "ios": "https://dc.lft.to/lastmile_qr_scan"}}, {"type": "electric_scooter", "name": "29cd3b305b09444ea091c22987ddbfb1", "lat": 38.937012833333334, "fusion_lat": 0.0, "bike_id": "29cd3b305b09444ea091c22987ddbfb1", "is_reserved": 0, "lon": -77.02400816666666, "is_disabled": 0, "fusion_lon": 0.0, "rental_uris": {"android": "https://dc.lft.to/lastmile_qr_scan", "ios": "https://dc.lft.to/lastmile_qr_scan"}}, {"type": "electric_scooter", "name": "d24a9dcd1e13a84d809cc765fc4a4fda", "lat": 38.92800666666667, "fusion_lat": 0.0, "bike_id": "d24a9dcd1e13a84d809cc765fc4a4fda", "is_reserved": 0, "lon": -77.05524016666666, "is_disabled": 0, "fusion_lon": 0.0, "rental_uris": {"android": "https://dc.lft.to/lastmile_qr_scan", "ios": "https://dc.lft.to/lastmile_qr_scan"}}, {"type": "electric_scooter", "name": "9e7f759f52d76cedee8e8cf2084fd390", "lat": 38.931974833333335, "fusion_lat": 0.0, "bike_id": "9e7f759f52d76cedee8e8cf2084fd390", "is_reserved": 0, "lon": -77.02806166666667, "is_disabled": 0, "fusion_lon": 0.0, "rental_uris": {"android": "https://dc.lft.to/lastmile_qr_scan", "ios": "https://dc.lft.to/lastmile_qr_scan"}}, {"type": "electric_scooter", "name": "e5967ee4a6243cc882ae912bb2d77c65", "lat": 38.91833416666667, "fusion_lat": 0.0, "bike_id": "e5967ee4a6243cc882ae912bb2d77c65", "is_reserved": 0, "lon": -77.03885583333333, "is_disabled": 0, "fusion_lon": 0.0, "rental_uris": {"android": "https://dc.lft.to/lastmile_qr_scan", "ios": "https://dc.lft.to/lastmile_qr_scan"}}, {"type": "electric_scooter", "name": "b719b85245b66a39189fe99b84138873", "lat": 38.921811166666664, "fusion_lat": 0.0, "bike_id": "b719b85245b66a39189fe99b84138873", "is_reserved": 0, "lon": -77.04230383333334, "is_disabled": 0, "fusion_lon": 0.0, "rental_uris": {"android": "https://dc.lft.to/lastmile_qr_scan", "ios": "https://dc.lft.to/lastmile_qr_scan"}}, {"type": "electric_scooter", "name": "2b63a55e69c8a1f742c70ca3464b4ca4", "lat": 38.906863333333334, "fusion_lat": 0.0, "bike_id": "2b63a55e69c8a1f742c70ca3464b4ca4", "is_reserved": 0, "lon": -76.98497183333333, "is_disabled": 0, "fusion_lon": 0.0, "rental_uris": {"android": "https://dc.lft.to/lastmile_qr_scan", "ios": "https://dc.lft.to/lastmile_qr_scan"}}, {"type": "electric_scooter", "name": "5d58fe0789fcf8cc7b0a1284ced64e31", "lat": 38.927821, "fusion_lat": 0.0, "bike_id": "5d58fe0789fcf8cc7b0a1284ced64e31", "is_reserved": 0, "lon": -77.02713166666666, "is_disabled": 0, "fusion_lon": 0.0, "rental_uris": {"android": "https://dc.lft.to/lastmile_qr_scan", "ios": "https://dc.lft.to/lastmile_qr_scan"}}, {"type": "electric_scooter", "name": "51cce209f22c3ae6eead7246a58b004d", "lat": 38.87920183333333, "fusion_lat": 0.0, "bike_id": "51cce209f22c3ae6eead7246a58b004d", "is_reserved": 0, "lon": -77.02155333333333, "is_disabled": 0, "fusion_lon": 0.0, "rental_uris": {"android": "https://dc.lft.to/lastmile_qr_scan", "ios": "https://dc.lft.to/lastmile_qr_scan"}}, {"type": "electric_bike", "name": "4dcc00836abc6a623001064a83850ee2", "lat": 39.034336, "fusion_lat": 0.0, "bike_id": "4dcc00836abc6a623001064a83850ee2", "is_reserved": 0, "lon": -77.04304066666667, "is_disabled": 0, "fusion_lon": 0.0, "rental_uris": {"android": "https://dc.lft.to/lastmile_qr_scan", "ios": "https://dc.lft.to/lastmile_qr_scan"}}, {"type": "electric_bike", "name": "b843cade8cc999d8face8db26b8fdc8c", "lat": 38.88470916666667, "fusion_lat": 0.0, "bike_id": "b843cade8cc999d8face8db26b8fdc8c", "is_reserved": 0, "lon": -76.95661983333333, "is_disabled": 0, "fusion_lon": 0.0, "rental_uris": {"android": "https://dc.lft.to/lastmile_qr_scan", "ios": "https://dc.lft.to/lastmile_qr_scan"}}, {"type": "electric_scooter", "name": "107f3be9fdc2042786f35fdbb891f023", "lat": 38.8864055, "fusion_lat": 0.0, "bike_id": "107f3be9fdc2042786f35fdbb891f023", "is_reserved": 0, "lon": -77.015361, "is_disabled": 0, "fusion_lon": 0.0, "rental_uris": {"android": "https://dc.lft.to/lastmile_qr_scan", "ios": "https://dc.lft.to/lastmile_qr_scan"}}, {"type": "electric_scooter", "name": "7b479336ed5edfc0a44223f9fe73e2e2", "lat": 38.957249, "fusion_lat": 0.0, "bike_id": "7b479336ed5edfc0a44223f9fe73e2e2", "is_reserved": 0, "lon": -77.02876466666666, "is_disabled": 0, "fusion_lon": 0.0, "rental_uris": {"android": "https://dc.lft.to/lastmile_qr_scan", "ios": "https://dc.lft.to/lastmile_qr_scan"}}, {"type": "electric_scooter", "name": "99564592d763ca13446716adc0e1a6a7", "lat": 38.898326833333336, "fusion_lat": 0.0, "bike_id": "99564592d763ca13446716adc0e1a6a7", "is_reserved": 0, "lon": -77.04331983333333, "is_disabled": 0, "fusion_lon": 0.0, "rental_uris": {"android": "https://dc.lft.to/lastmile_qr_scan", "ios": "https://dc.lft.to/lastmile_qr_scan"}}, {"type": "electric_scooter", "name": "a860bfe46d9583455d9f9797298f0053", "lat": 38.905532, "fusion_lat": 0.0, "bike_id": "a860bfe46d9583455d9f9797298f0053", "is_reserved": 0, "lon": -77.034507, "is_disabled": 0, "fusion_lon": 0.0, "rental_uris": {"android": "https://dc.lft.to/lastmile_qr_scan", "ios": "https://dc.lft.to/lastmile_qr_scan"}}, {"type": "electric_bike", "name": "c26f5f90827ac4c14173cc8d5cd73adb", "lat": 38.8638575, "fusion_lat": 0.0, "bike_id": "c26f5f90827ac4c14173cc8d5cd73adb", "is_reserved": 0, "lon": -76.97484583333333, "is_disabled": 0, "fusion_lon": 0.0, "rental_uris": {"android": "https://dc.lft.to/lastmile_qr_scan", "ios": "https://dc.lft.to/lastmile_qr_scan"}}, {"type": "electric_bike", "name": "641d8eecb28d6588598e078e6e68accf", "lat": 38.92170983333333, "fusion_lat": 0.0, "bike_id": "641d8eecb28d6588598e078e6e68accf", "is_reserved": 0, "lon": -76.9940845, "is_disabled": 0, "fusion_lon": 0.0, "rental_uris": {"android": "https://dc.lft.to/lastmile_qr_scan", "ios": "https://dc.lft.to/lastmile_qr_scan"}}, {"type": "electric_scooter", "name": "3f4a1abe2283b0fdc19fc48c9b57a954", "lat": 38.92443183333334, "fusion_lat": 0.0, "bike_id": "3f4a1abe2283b0fdc19fc48c9b57a954", "is_reserved": 0, "lon": -77.0340165, "is_disabled": 0, "fusion_lon": 0.0, "rental_uris": {"android": "https://dc.lft.to/lastmile_qr_scan", "ios": "https://dc.lft.to/lastmile_qr_scan"}}, {"type": "electric_scooter", "name": "0b4f5d99e5f2d5c11ef4cac4f5af8653", "lat": 38.900382666666665, "fusion_lat": 0.0, "bike_id": "0b4f5d99e5f2d5c11ef4cac4f5af8653", "is_reserved": 0, "lon": -77.00200733333334, "is_disabled": 0, "fusion_lon": 0.0, "rental_uris": {"android": "https://dc.lft.to/lastmile_qr_scan", "ios": "https://dc.lft.to/lastmile_qr_scan"}}, {"type": "electric_scooter", "name": "6bc8ea54c43f53344d63cafbd58b54c3", "lat": 38.937076, "fusion_lat": 0.0, "bike_id": "6bc8ea54c43f53344d63cafbd58b54c3", "is_reserved": 0, "lon": -77.03228283333333, "is_disabled": 0, "fusion_lon": 0.0, "rental_uris": {"android": "https://dc.lft.to/lastmile_qr_scan", "ios": "https://dc.lft.to/lastmile_qr_scan"}}, {"type": "electric_scooter", "name": "93e3ab5077be23a00882a286ab329c68", "lat": 38.9321565, "fusion_lat": 0.0, "bike_id": "93e3ab5077be23a00882a286ab329c68", "is_reserved": 0, "lon": -77.03263433333333, "is_disabled": 0, "fusion_lon": 0.0, "rental_uris": {"android": "https://dc.lft.to/lastmile_qr_scan", "ios": "https://dc.lft.to/lastmile_qr_scan"}}, {"type": "electric_bike", "name": "8c9e2d3c14d599d67de739299e91bda6", "lat": 38.845306, "fusion_lat": 0.0, "bike_id": "8c9e2d3c14d599d67de739299e91bda6", "is_reserved": 0, "lon": -76.981595, "is_disabled": 0, "fusion_lon": 0.0, "rental_uris": {"android": "https://dc.lft.to/lastmile_qr_scan", "ios": "https://dc.lft.to/lastmile_qr_scan"}}, {"type": "electric_scooter", "name": "c09211c94bfd0770a3ce38bb5e8f9ab2", "lat": 38.908437, "fusion_lat": 0.0, "bike_id": "c09211c94bfd0770a3ce38bb5e8f9ab2", "is_reserved": 0, "lon": -77.0417125, "is_disabled": 0, "fusion_lon": 0.0, "rental_uris": {"android": "https://dc.lft.to/lastmile_qr_scan", "ios": "https://dc.lft.to/lastmile_qr_scan"}}, {"type": "electric_scooter", "name": "9c83c7ae2210e2e38220e23b62b19707", "lat": 38.904139, "fusion_lat": 0.0, "bike_id": "9c83c7ae2210e2e38220e23b62b19707", "is_reserved": 0, "lon": -76.98532966666667, "is_disabled": 0, "fusion_lon": 0.0, "rental_uris": {"android": "https://dc.lft.to/lastmile_qr_scan", "ios": "https://dc.lft.to/lastmile_qr_scan"}}, {"type": "electric_scooter", "name": "156e133a01e774d223aedf6392382feb", "lat": 38.901684333333336, "fusion_lat": 0.0, "bike_id": "156e133a01e774d223aedf6392382feb", "is_reserved": 0, "lon": -77.02209433333333, "is_disabled": 0, "fusion_lon": 0.0, "rental_uris": {"android": "https://dc.lft.to/lastmile_qr_scan", "ios": "https://dc.lft.to/lastmile_qr_scan"}}, {"type": "electric_scooter", "name": "944c9a9d43b38b276b80f0e7a68e657d", "lat": 38.91408216666667, "fusion_lat": 0.0, "bike_id": "944c9a9d43b38b276b80f0e7a68e657d", "is_reserved": 0, "lon": -77.02278983333333, "is_disabled": 0, "fusion_lon": 0.0, "rental_uris": {"android": "https://dc.lft.to/lastmile_qr_scan", "ios": "https://dc.lft.to/lastmile_qr_scan"}}, {"type": "electric_scooter", "name": "707c69e330f13c0fc69fe5b7d0230d2a", "lat": 38.899048, "fusion_lat": 0.0, "bike_id": "707c69e330f13c0fc69fe5b7d0230d2a", "is_reserved": 0, "lon": -77.0197205, "is_disabled": 0, "fusion_lon": 0.0, "rental_uris": {"android": "https://dc.lft.to/lastmile_qr_scan", "ios": "https://dc.lft.to/lastmile_qr_scan"}}, {"type": "electric_scooter", "name": "c368cabaebd1c6f5c62e460bb3ba4675", "lat": 38.865074166666666, "fusion_lat": 0.0, "bike_id": "c368cabaebd1c6f5c62e460bb3ba4675", "is_reserved": 0, "lon": -76.99005816666667, "is_disabled": 0, "fusion_lon": 0.0, "rental_uris": {"android": "https://dc.lft.to/lastmile_qr_scan", "ios": "https://dc.lft.to/lastmile_qr_scan"}}, {"type": "electric_scooter", "name": "be9431ea84a00df4fac095859a6973d5", "lat": 38.921535, "fusion_lat": 0.0, "bike_id": "be9431ea84a00df4fac095859a6973d5", "is_reserved": 0, "lon": -77.04222766666666, "is_disabled": 0, "fusion_lon": 0.0, "rental_uris": {"android": "https://dc.lft.to/lastmile_qr_scan", "ios": "https://dc.lft.to/lastmile_qr_scan"}}, {"type": "electric_scooter", "name": "3398618c77a4df8367ceb16ef655cce1", "lat": 38.92369166666667, "fusion_lat": 0.0, "bike_id": "3398618c77a4df8367ceb16ef655cce1", "is_reserved": 0, "lon": -77.050273, "is_disabled": 0, "fusion_lon": 0.0, "rental_uris": {"android": "https://dc.lft.to/lastmile_qr_scan", "ios": "https://dc.lft.to/lastmile_qr_scan"}}, {"type": "electric_scooter", "name": "a08e3081a293ed2e152e1ddea11f7ec7", "lat": 38.92740583333333, "fusion_lat": 0.0, "bike_id": "a08e3081a293ed2e152e1ddea11f7ec7", "is_reserved": 0, "lon": -77.03634833333334, "is_disabled": 0, "fusion_lon": 0.0, "rental_uris": {"android": "https://dc.lft.to/lastmile_qr_scan", "ios": "https://dc.lft.to/lastmile_qr_scan"}}, {"type": "electric_scooter", "name": "de1034e450de060275287621a104f8d0", "lat": 38.9536965, "fusion_lat": 0.0, "bike_id": "de1034e450de060275287621a104f8d0", "is_reserved": 0, "lon": -76.998415, "is_disabled": 0, "fusion_lon": 0.0, "rental_uris": {"android": "https://dc.lft.to/lastmile_qr_scan", "ios": "https://dc.lft.to/lastmile_qr_scan"}}, {"type": "electric_scooter", "name": "0d446bff7ab74ed3b309b6cf15c7f46d", "lat": 38.87899566666667, "fusion_lat": 0.0, "bike_id": "0d446bff7ab74ed3b309b6cf15c7f46d", "is_reserved": 0, "lon": -77.0219615, "is_disabled": 0, "fusion_lon": 0.0, "rental_uris": {"android": "https://dc.lft.to/lastmile_qr_scan", "ios": "https://dc.lft.to/lastmile_qr_scan"}}, {"type": "electric_scooter", "name": "77997fffd81c5835ec8f68d49597837b", "lat": 38.8964895, "fusion_lat": 0.0, "bike_id": "77997fffd81c5835ec8f68d49597837b", "is_reserved": 0, "lon": -77.02621016666667, "is_disabled": 0, "fusion_lon": 0.0, "rental_uris": {"android": "https://dc.lft.to/lastmile_qr_scan", "ios": "https://dc.lft.to/lastmile_qr_scan"}}, {"type": "electric_scooter", "name": "8a44e792ba213d1b99c1f5f70d7aa150", "lat": 38.899866, "fusion_lat": 0.0, "bike_id": "8a44e792ba213d1b99c1f5f70d7aa150", "is_reserved": 0, "lon": -77.021043, "is_disabled": 0, "fusion_lon": 0.0, "rental_uris": {"android": "https://dc.lft.to/lastmile_qr_scan", "ios": "https://dc.lft.to/lastmile_qr_scan"}}, {"type": "electric_scooter", "name": "0dee0a3c676e003f5b5966d7ffc7d0e4", "lat": 38.906745, "fusion_lat": 0.0, "bike_id": "0dee0a3c676e003f5b5966d7ffc7d0e4", "is_reserved": 0, "lon": -77.02713083333333, "is_disabled": 0, "fusion_lon": 0.0, "rental_uris": {"android": "https://dc.lft.to/lastmile_qr_scan", "ios": "https://dc.lft.to/lastmile_qr_scan"}}, {"type": "electric_scooter", "name": "4d71b8f7e73c90e17537ce5bfe456488", "lat": 38.9014005, "fusion_lat": 0.0, "bike_id": "4d71b8f7e73c90e17537ce5bfe456488", "is_reserved": 0, "lon": -77.01680866666666, "is_disabled": 0, "fusion_lon": 0.0, "rental_uris": {"android": "https://dc.lft.to/lastmile_qr_scan", "ios": "https://dc.lft.to/lastmile_qr_scan"}}, {"type": "electric_scooter", "name": "aed48545ad3db32c523c75fcae3f6347", "lat": 38.90315983333333, "fusion_lat": 0.0, "bike_id": "aed48545ad3db32c523c75fcae3f6347", "is_reserved": 0, "lon": -77.05901933333334, "is_disabled": 0, "fusion_lon": 0.0, "rental_uris": {"android": "https://dc.lft.to/lastmile_qr_scan", "ios": "https://dc.lft.to/lastmile_qr_scan"}}, {"type": "electric_scooter", "name": "b0f6816b49d876d07c1e17dd3f2954c8", "lat": 38.886331166666665, "fusion_lat": 0.0, "bike_id": "b0f6816b49d876d07c1e17dd3f2954c8", "is_reserved": 0, "lon": -77.01535033333333, "is_disabled": 0, "fusion_lon": 0.0, "rental_uris": {"android": "https://dc.lft.to/lastmile_qr_scan", "ios": "https://dc.lft.to/lastmile_qr_scan"}}, {"type": "electric_scooter", "name": "ea0d52c39ff7bb769074b532b2597950", "lat": 38.90422133333333, "fusion_lat": 0.0, "bike_id": "ea0d52c39ff7bb769074b532b2597950", "is_reserved": 0, "lon": -77.0184825, "is_disabled": 0, "fusion_lon": 0.0, "rental_uris": {"android": "https://dc.lft.to/lastmile_qr_scan", "ios": "https://dc.lft.to/lastmile_qr_scan"}}, {"type": "electric_scooter", "name": "3cfe50615ea7210c366bfbc4c962c9c1", "lat": 38.924315166666666, "fusion_lat": 0.0, "bike_id": "3cfe50615ea7210c366bfbc4c962c9c1", "is_reserved": 0, "lon": -77.021437, "is_disabled": 0, "fusion_lon": 0.0, "rental_uris": {"android": "https://dc.lft.to/lastmile_qr_scan", "ios": "https://dc.lft.to/lastmile_qr_scan"}}, {"type": "electric_scooter", "name": "a0da66dc95327f9acec1acbbfc27e055", "lat": 38.9241585, "fusion_lat": 0.0, "bike_id": "a0da66dc95327f9acec1acbbfc27e055", "is_reserved": 0, "lon": -77.05755716666667, "is_disabled": 0, "fusion_lon": 0.0, "rental_uris": {"android": "https://dc.lft.to/lastmile_qr_scan", "ios": "https://dc.lft.to/lastmile_qr_scan"}}, {"type": "electric_scooter", "name": "f811d52f476ec27020f1ad80293f0c2f", "lat": 38.96056, "fusion_lat": 0.0, "bike_id": "f811d52f476ec27020f1ad80293f0c2f", "is_reserved": 0, "lon": -77.02795033333334, "is_disabled": 0, "fusion_lon": 0.0, "rental_uris": {"android": "https://dc.lft.to/lastmile_qr_scan", "ios": "https://dc.lft.to/lastmile_qr_scan"}}, {"type": "electric_scooter", "name": "79850a6568e6887633f2b5b65bb2b40d", "lat": 38.895298333333336, "fusion_lat": 0.0, "bike_id": "79850a6568e6887633f2b5b65bb2b40d", "is_reserved": 0, "lon": -77.03154466666666, "is_disabled": 0, "fusion_lon": 0.0, "rental_uris": {"android": "https://dc.lft.to/lastmile_qr_scan", "ios": "https://dc.lft.to/lastmile_qr_scan"}}, {"type": "electric_scooter", "name": "c307085fddc848305b2faf7601a4ab68", "lat": 38.895864, "fusion_lat": 0.0, "bike_id": "c307085fddc848305b2faf7601a4ab68", "is_reserved": 0, "lon": -77.02580866666666, "is_disabled": 0, "fusion_lon": 0.0, "rental_uris": {"android": "https://dc.lft.to/lastmile_qr_scan", "ios": "https://dc.lft.to/lastmile_qr_scan"}}, {"type": "electric_bike", "name": "7173875d6f66b496bb4c2ce59529c09a", "lat": 38.86514483333333, "fusion_lat": 0.0, "bike_id": "7173875d6f66b496bb4c2ce59529c09a", "is_reserved": 0, "lon": -77.12937233333334, "is_disabled": 0, "fusion_lon": 0.0, "rental_uris": {"android": "https://dc.lft.to/lastmile_qr_scan", "ios": "https://dc.lft.to/lastmile_qr_scan"}}, {"type": "electric_scooter", "name": "12bd3c93af921b4d2c454d60257c0d53", "lat": 38.92644266666667, "fusion_lat": 0.0, "bike_id": "12bd3c93af921b4d2c454d60257c0d53", "is_reserved": 0, "lon": -77.037092, "is_disabled": 0, "fusion_lon": 0.0, "rental_uris": {"android": "https://dc.lft.to/lastmile_qr_scan", "ios": "https://dc.lft.to/lastmile_qr_scan"}}, {"type": "electric_scooter", "name": "cf93fb0dc4f8374c6874be4e1a06337a", "lat": 38.94449916666667, "fusion_lat": 0.0, "bike_id": "cf93fb0dc4f8374c6874be4e1a06337a", "is_reserved": 0, "lon": -77.06346383333333, "is_disabled": 0, "fusion_lon": 0.0, "rental_uris": {"android": "https://dc.lft.to/lastmile_qr_scan", "ios": "https://dc.lft.to/lastmile_qr_scan"}}, {"type": "electric_scooter", "name": "60a0151ab26338c327e9cffac1b93dd2", "lat": 38.912638, "fusion_lat": 0.0, "bike_id": "60a0151ab26338c327e9cffac1b93dd2", "is_reserved": 0, "lon": -77.0079605, "is_disabled": 0, "fusion_lon": 0.0, "rental_uris": {"android": "https://dc.lft.to/lastmile_qr_scan", "ios": "https://dc.lft.to/lastmile_qr_scan"}}, {"type": "electric_scooter", "name": "0115b3ddd67591fe9723a6f81f34b6ba", "lat": 38.912713833333335, "fusion_lat": 0.0, "bike_id": "0115b3ddd67591fe9723a6f81f34b6ba", "is_reserved": 0, "lon": -77.048411, "is_disabled": 0, "fusion_lon": 0.0, "rental_uris": {"android": "https://dc.lft.to/lastmile_qr_scan", "ios": "https://dc.lft.to/lastmile_qr_scan"}}, {"type": "electric_scooter", "name": "11d6402b9b98c283828726855b5126fb", "lat": 38.90234, "fusion_lat": 0.0, "bike_id": "11d6402b9b98c283828726855b5126fb", "is_reserved": 0, "lon": -77.02683283333333, "is_disabled": 0, "fusion_lon": 0.0, "rental_uris": {"android": "https://dc.lft.to/lastmile_qr_scan", "ios": "https://dc.lft.to/lastmile_qr_scan"}}, {"type": "electric_scooter", "name": "eb40e1527b941110ddb367a14b652c56", "lat": 38.90381433333334, "fusion_lat": 0.0, "bike_id": "eb40e1527b941110ddb367a14b652c56", "is_reserved": 0, "lon": -77.02969716666666, "is_disabled": 0, "fusion_lon": 0.0, "rental_uris": {"android": "https://dc.lft.to/lastmile_qr_scan", "ios": "https://dc.lft.to/lastmile_qr_scan"}}, {"type": "electric_scooter", "name": "fb39cf2d52b5134a92f0b4f6d4436298", "lat": 38.91202283333333, "fusion_lat": 0.0, "bike_id": "fb39cf2d52b5134a92f0b4f6d4436298", "is_reserved": 0, "lon": -77.0364185, "is_disabled": 0, "fusion_lon": 0.0, "rental_uris": {"android": "https://dc.lft.to/lastmile_qr_scan", "ios": "https://dc.lft.to/lastmile_qr_scan"}}, {"type": "electric_scooter", "name": "a5d7fe2ce416b044791b547c9d060e71", "lat": 38.893640166666664, "fusion_lat": 0.0, "bike_id": "a5d7fe2ce416b044791b547c9d060e71", "is_reserved": 0, "lon": -76.9259055, "is_disabled": 0, "fusion_lon": 0.0, "rental_uris": {"android": "https://dc.lft.to/lastmile_qr_scan", "ios": "https://dc.lft.to/lastmile_qr_scan"}}, {"type": "electric_scooter", "name": "5346edc240a8aa5bca9fe97bb3575155", "lat": 38.91488533333333, "fusion_lat": 0.0, "bike_id": "5346edc240a8aa5bca9fe97bb3575155", "is_reserved": 0, "lon": -77.04834216666667, "is_disabled": 0, "fusion_lon": 0.0, "rental_uris": {"android": "https://dc.lft.to/lastmile_qr_scan", "ios": "https://dc.lft.to/lastmile_qr_scan"}}, {"type": "electric_bike", "name": "d54c7afa03d9f5be8f37e0866b729baf", "lat": 39.0844495, "fusion_lat": 0.0, "bike_id": "d54c7afa03d9f5be8f37e0866b729baf", "is_reserved": 0, "lon": -76.95192683333333, "is_disabled": 0, "fusion_lon": 0.0, "rental_uris": {"android": "https://dc.lft.to/lastmile_qr_scan", "ios": "https://dc.lft.to/lastmile_qr_scan"}}, {"type": "electric_bike", "name": "570c58a8a1b6966258615d63148d7f6e", "lat": 38.9523555, "fusion_lat": 0.0, "bike_id": "570c58a8a1b6966258615d63148d7f6e", "is_reserved": 0, "lon": -77.0027115, "is_disabled": 0, "fusion_lon": 0.0, "rental_uris": {"android": "https://dc.lft.to/lastmile_qr_scan", "ios": "https://dc.lft.to/lastmile_qr_scan"}}, {"type": "electric_scooter", "name": "81473198a30f05e98d1c1126db346f37", "lat": 38.90254866666667, "fusion_lat": 0.0, "bike_id": "81473198a30f05e98d1c1126db346f37", "is_reserved": 0, "lon": -77.03940016666667, "is_disabled": 0, "fusion_lon": 0.0, "rental_uris": {"android": "https://dc.lft.to/lastmile_qr_scan", "ios": "https://dc.lft.to/lastmile_qr_scan"}}, {"type": "electric_scooter", "name": "e655e56b2ddec74e00dfd4343012c1a0", "lat": 38.9561485, "fusion_lat": 0.0, "bike_id": "e655e56b2ddec74e00dfd4343012c1a0", "is_reserved": 0, "lon": -77.02819733333334, "is_disabled": 0, "fusion_lon": 0.0, "rental_uris": {"android": "https://dc.lft.to/lastmile_qr_scan", "ios": "https://dc.lft.to/lastmile_qr_scan"}}, {"type": "electric_scooter", "name": "8ecb1e768b096f06629839ad7ba6bf89", "lat": 38.84439883333334, "fusion_lat": 0.0, "bike_id": "8ecb1e768b096f06629839ad7ba6bf89", "is_reserved": 0, "lon": -76.9977625, "is_disabled": 0, "fusion_lon": 0.0, "rental_uris": {"android": "https://dc.lft.to/lastmile_qr_scan", "ios": "https://dc.lft.to/lastmile_qr_scan"}}, {"type": "electric_scooter", "name": "c65e8723df56b95750fa20920c1b8bed", "lat": 38.91811383333334, "fusion_lat": 0.0, "bike_id": "c65e8723df56b95750fa20920c1b8bed", "is_reserved": 0, "lon": -77.04436233333334, "is_disabled": 0, "fusion_lon": 0.0, "rental_uris": {"android": "https://dc.lft.to/lastmile_qr_scan", "ios": "https://dc.lft.to/lastmile_qr_scan"}}, {"type": "electric_scooter", "name": "fb1cc46fdb67919ed73a6605aa113618", "lat": 38.904335833333334, "fusion_lat": 0.0, "bike_id": "fb1cc46fdb67919ed73a6605aa113618", "is_reserved": 0, "lon": -77.04660083333333, "is_disabled": 0, "fusion_lon": 0.0, "rental_uris": {"android": "https://dc.lft.to/lastmile_qr_scan", "ios": "https://dc.lft.to/lastmile_qr_scan"}}, {"type": "electric_scooter", "name": "1e25615251b704f1b9f08dc26120261e", "lat": 38.90288016666667, "fusion_lat": 0.0, "bike_id": "1e25615251b704f1b9f08dc26120261e", "is_reserved": 0, "lon": -77.03874933333333, "is_disabled": 0, "fusion_lon": 0.0, "rental_uris": {"android": "https://dc.lft.to/lastmile_qr_scan", "ios": "https://dc.lft.to/lastmile_qr_scan"}}, {"type": "electric_scooter", "name": "a8b43bd9752c312fe6c8d2332702ef02", "lat": 38.916719666666665, "fusion_lat": 0.0, "bike_id": "a8b43bd9752c312fe6c8d2332702ef02", "is_reserved": 0, "lon": -77.0239785, "is_disabled": 0, "fusion_lon": 0.0, "rental_uris": {"android": "https://dc.lft.to/lastmile_qr_scan", "ios": "https://dc.lft.to/lastmile_qr_scan"}}, {"type": "electric_scooter", "name": "b30aa3d8bd9329e696182d3b60e4b85d", "lat": 38.90688883333333, "fusion_lat": 0.0, "bike_id": "b30aa3d8bd9329e696182d3b60e4b85d", "is_reserved": 0, "lon": -77.05720133333334, "is_disabled": 0, "fusion_lon": 0.0, "rental_uris": {"android": "https://dc.lft.to/lastmile_qr_scan", "ios": "https://dc.lft.to/lastmile_qr_scan"}}, {"type": "electric_scooter", "name": "1012d7b2a9182aa628613684e27eb5bd", "lat": 38.923864, "fusion_lat": 0.0, "bike_id": "1012d7b2a9182aa628613684e27eb5bd", "is_reserved": 0, "lon": -77.02681316666667, "is_disabled": 0, "fusion_lon": 0.0, "rental_uris": {"android": "https://dc.lft.to/lastmile_qr_scan", "ios": "https://dc.lft.to/lastmile_qr_scan"}}, {"type": "electric_scooter", "name": "9c60c6379465d7262a94d46069289599", "lat": 38.926550166666665, "fusion_lat": 0.0, "bike_id": "9c60c6379465d7262a94d46069289599", "is_reserved": 0, "lon": -77.04298366666667, "is_disabled": 0, "fusion_lon": 0.0, "rental_uris": {"android": "https://dc.lft.to/lastmile_qr_scan", "ios": "https://dc.lft.to/lastmile_qr_scan"}}, {"type": "electric_bike", "name": "a3ca970b1f23f2086aa17dfee35cb81d", "lat": 38.93329966666667, "fusion_lat": 0.0, "bike_id": "a3ca970b1f23f2086aa17dfee35cb81d", "is_reserved": 0, "lon": -77.03958916666667, "is_disabled": 0, "fusion_lon": 0.0, "rental_uris": {"android": "https://dc.lft.to/lastmile_qr_scan", "ios": "https://dc.lft.to/lastmile_qr_scan"}}, {"type": "electric_scooter", "name": "408e13bfef4836404f4111442aaf9383", "lat": 38.92950883333334, "fusion_lat": 0.0, "bike_id": "408e13bfef4836404f4111442aaf9383", "is_reserved": 0, "lon": -77.05505433333333, "is_disabled": 0, "fusion_lon": 0.0, "rental_uris": {"android": "https://dc.lft.to/lastmile_qr_scan", "ios": "https://dc.lft.to/lastmile_qr_scan"}}, {"type": "electric_scooter", "name": "ee6c33343f3b249540808eaeb8510863", "lat": 38.902363666666666, "fusion_lat": 0.0, "bike_id": "ee6c33343f3b249540808eaeb8510863", "is_reserved": 0, "lon": -77.00195583333333, "is_disabled": 0, "fusion_lon": 0.0, "rental_uris": {"android": "https://dc.lft.to/lastmile_qr_scan", "ios": "https://dc.lft.to/lastmile_qr_scan"}}, {"type": "electric_bike", "name": "a5874ce3724c9ec0799d7c927d9c9182", "lat": 38.893509, "fusion_lat": 0.0, "bike_id": "a5874ce3724c9ec0799d7c927d9c9182", "is_reserved": 0, "lon": -77.18738883333333, "is_disabled": 0, "fusion_lon": 0.0, "rental_uris": {"android": "https://dc.lft.to/lastmile_qr_scan", "ios": "https://dc.lft.to/lastmile_qr_scan"}}, {"type": "electric_scooter", "name": "e677475f232a12040ca24dbf618897b7", "lat": 38.9342735, "fusion_lat": 0.0, "bike_id": "e677475f232a12040ca24dbf618897b7", "is_reserved": 0, "lon": -77.055836, "is_disabled": 0, "fusion_lon": 0.0, "rental_uris": {"android": "https://dc.lft.to/lastmile_qr_scan", "ios": "https://dc.lft.to/lastmile_qr_scan"}}, {"type": "electric_scooter", "name": "4d110bb123425ccec97d0855e6193bef", "lat": 38.9099235, "fusion_lat": 0.0, "bike_id": "4d110bb123425ccec97d0855e6193bef", "is_reserved": 0, "lon": -77.03840866666667, "is_disabled": 0, "fusion_lon": 0.0, "rental_uris": {"android": "https://dc.lft.to/lastmile_qr_scan", "ios": "https://dc.lft.to/lastmile_qr_scan"}}, {"type": "electric_scooter", "name": "9a6d1f84a43dd1eac9e50082b49153f6", "lat": 38.939312, "fusion_lat": 0.0, "bike_id": "9a6d1f84a43dd1eac9e50082b49153f6", "is_reserved": 0, "lon": -77.02794, "is_disabled": 0, "fusion_lon": 0.0, "rental_uris": {"android": "https://dc.lft.to/lastmile_qr_scan", "ios": "https://dc.lft.to/lastmile_qr_scan"}}, {"type": "electric_scooter", "name": "d858f2002f316846371783a8965ee2fb", "lat": 38.910699666666666, "fusion_lat": 0.0, "bike_id": "d858f2002f316846371783a8965ee2fb", "is_reserved": 0, "lon": -76.986608, "is_disabled": 0, "fusion_lon": 0.0, "rental_uris": {"android": "https://dc.lft.to/lastmile_qr_scan", "ios": "https://dc.lft.to/lastmile_qr_scan"}}, {"type": "electric_scooter", "name": "edff4fcc90329ac735f693eeb3befba0", "lat": 38.902724166666665, "fusion_lat": 0.0, "bike_id": "edff4fcc90329ac735f693eeb3befba0", "is_reserved": 0, "lon": -77.03000933333334, "is_disabled": 0, "fusion_lon": 0.0, "rental_uris": {"android": "https://dc.lft.to/lastmile_qr_scan", "ios": "https://dc.lft.to/lastmile_qr_scan"}}, {"type": "electric_scooter", "name": "26109323a75da9f5d96f4a4f19285374", "lat": 38.89526566666667, "fusion_lat": 0.0, "bike_id": "26109323a75da9f5d96f4a4f19285374", "is_reserved": 0, "lon": -77.04850233333333, "is_disabled": 0, "fusion_lon": 0.0, "rental_uris": {"android": "https://dc.lft.to/lastmile_qr_scan", "ios": "https://dc.lft.to/lastmile_qr_scan"}}, {"type": "electric_scooter", "name": "b7218321fdb465156cc05c62f3681771", "lat": 38.90867816666667, "fusion_lat": 0.0, "bike_id": "b7218321fdb465156cc05c62f3681771", "is_reserved": 0, "lon": -77.07163, "is_disabled": 0, "fusion_lon": 0.0, "rental_uris": {"android": "https://dc.lft.to/lastmile_qr_scan", "ios": "https://dc.lft.to/lastmile_qr_scan"}}, {"type": "electric_scooter", "name": "b75fa403cdf935742b3a69c5c5a3e220", "lat": 38.88746483333333, "fusion_lat": 0.0, "bike_id": "b75fa403cdf935742b3a69c5c5a3e220", "is_reserved": 0, "lon": -77.02842016666666, "is_disabled": 0, "fusion_lon": 0.0, "rental_uris": {"android": "https://dc.lft.to/lastmile_qr_scan", "ios": "https://dc.lft.to/lastmile_qr_scan"}}, {"type": "electric_bike", "name": "d1f1d13c74267cfd59410b7b0f4a719e", "lat": 38.86449616666667, "fusion_lat": 0.0, "bike_id": "d1f1d13c74267cfd59410b7b0f4a719e", "is_reserved": 0, "lon": -77.10683883333333, "is_disabled": 0, "fusion_lon": 0.0, "rental_uris": {"android": "https://dc.lft.to/lastmile_qr_scan", "ios": "https://dc.lft.to/lastmile_qr_scan"}}, {"type": "electric_scooter", "name": "0e7f9a9665d404f5349f08343229822c", "lat": 38.90621, "fusion_lat": 0.0, "bike_id": "0e7f9a9665d404f5349f08343229822c", "is_reserved": 0, "lon": -77.0101265, "is_disabled": 0, "fusion_lon": 0.0, "rental_uris": {"android": "https://dc.lft.to/lastmile_qr_scan", "ios": "https://dc.lft.to/lastmile_qr_scan"}}, {"type": "electric_scooter", "name": "31fabfa07c6c5e67e3f76d7c78a8c6eb", "lat": 38.9093135, "fusion_lat": 0.0, "bike_id": "31fabfa07c6c5e67e3f76d7c78a8c6eb", "is_reserved": 0, "lon": -77.02685366666667, "is_disabled": 0, "fusion_lon": 0.0, "rental_uris": {"android": "https://dc.lft.to/lastmile_qr_scan", "ios": "https://dc.lft.to/lastmile_qr_scan"}}, {"type": "electric_scooter", "name": "66bc07b34bdd765bd652e6dcac1cb8ac", "lat": 38.91780416666667, "fusion_lat": 0.0, "bike_id": "66bc07b34bdd765bd652e6dcac1cb8ac", "is_reserved": 0, "lon": -77.03851866666666, "is_disabled": 0, "fusion_lon": 0.0, "rental_uris": {"android": "https://dc.lft.to/lastmile_qr_scan", "ios": "https://dc.lft.to/lastmile_qr_scan"}}, {"type": "electric_scooter", "name": "a57bcdc37a38321a3e9f4ce110acf09d", "lat": 38.93474416666667, "fusion_lat": 0.0, "bike_id": "a57bcdc37a38321a3e9f4ce110acf09d", "is_reserved": 0, "lon": -77.08662616666666, "is_disabled": 0, "fusion_lon": 0.0, "rental_uris": {"android": "https://dc.lft.to/lastmile_qr_scan", "ios": "https://dc.lft.to/lastmile_qr_scan"}}, {"type": "electric_scooter", "name": "8966970689661487af3a218fb49774af", "lat": 38.91008433333333, "fusion_lat": 0.0, "bike_id": "8966970689661487af3a218fb49774af", "is_reserved": 0, "lon": -76.99405966666667, "is_disabled": 0, "fusion_lon": 0.0, "rental_uris": {"android": "https://dc.lft.to/lastmile_qr_scan", "ios": "https://dc.lft.to/lastmile_qr_scan"}}, {"type": "electric_scooter", "name": "5aa831291626e0ba56ca986f804b2fd1", "lat": 38.937068833333335, "fusion_lat": 0.0, "bike_id": "5aa831291626e0ba56ca986f804b2fd1", "is_reserved": 0, "lon": -77.0240545, "is_disabled": 0, "fusion_lon": 0.0, "rental_uris": {"android": "https://dc.lft.to/lastmile_qr_scan", "ios": "https://dc.lft.to/lastmile_qr_scan"}}, {"type": "electric_scooter", "name": "0dc8c99d7c9b571950a835cbc9507756", "lat": 38.916807, "fusion_lat": 0.0, "bike_id": "0dc8c99d7c9b571950a835cbc9507756", "is_reserved": 0, "lon": -77.03636583333333, "is_disabled": 0, "fusion_lon": 0.0, "rental_uris": {"android": "https://dc.lft.to/lastmile_qr_scan", "ios": "https://dc.lft.to/lastmile_qr_scan"}}, {"type": "electric_scooter", "name": "68792837e1efca56c36b0c82414a4aa7", "lat": 38.900667, "fusion_lat": 0.0, "bike_id": "68792837e1efca56c36b0c82414a4aa7", "is_reserved": 0, "lon": -77.04532916666666, "is_disabled": 0, "fusion_lon": 0.0, "rental_uris": {"android": "https://dc.lft.to/lastmile_qr_scan", "ios": "https://dc.lft.to/lastmile_qr_scan"}}, {"type": "electric_scooter", "name": "af19b98f88fb94e6b60a2f5813625353", "lat": 38.91737766666667, "fusion_lat": 0.0, "bike_id": "af19b98f88fb94e6b60a2f5813625353", "is_reserved": 0, "lon": -77.03443233333333, "is_disabled": 0, "fusion_lon": 0.0, "rental_uris": {"android": "https://dc.lft.to/lastmile_qr_scan", "ios": "https://dc.lft.to/lastmile_qr_scan"}}, {"type": "electric_scooter", "name": "af1bf5908acf2fe896e7b5206aca2a80", "lat": 38.892215666666665, "fusion_lat": 0.0, "bike_id": "af1bf5908acf2fe896e7b5206aca2a80", "is_reserved": 0, "lon": -77.04692733333333, "is_disabled": 0, "fusion_lon": 0.0, "rental_uris": {"android": "https://dc.lft.to/lastmile_qr_scan", "ios": "https://dc.lft.to/lastmile_qr_scan"}}, {"type": "electric_bike", "name": "2b1011f6535f8bca1cb68a8b871f7e7f", "lat": 38.898297666666664, "fusion_lat": 0.0, "bike_id": "2b1011f6535f8bca1cb68a8b871f7e7f", "is_reserved": 0, "lon": -77.04688566666667, "is_disabled": 0, "fusion_lon": 0.0, "rental_uris": {"android": "https://dc.lft.to/lastmile_qr_scan", "ios": "https://dc.lft.to/lastmile_qr_scan"}}, {"type": "electric_scooter", "name": "35faa51f503306391dab877ea795b2cc", "lat": 38.88681533333333, "fusion_lat": 0.0, "bike_id": "35faa51f503306391dab877ea795b2cc", "is_reserved": 0, "lon": -77.00070733333334, "is_disabled": 0, "fusion_lon": 0.0, "rental_uris": {"android": "https://dc.lft.to/lastmile_qr_scan", "ios": "https://dc.lft.to/lastmile_qr_scan"}}, {"type": "electric_scooter", "name": "8158aece5e3886a4e9341248af716df2", "lat": 38.900326666666665, "fusion_lat": 0.0, "bike_id": "8158aece5e3886a4e9341248af716df2", "is_reserved": 0, "lon": -77.0113815, "is_disabled": 0, "fusion_lon": 0.0, "rental_uris": {"android": "https://dc.lft.to/lastmile_qr_scan", "ios": "https://dc.lft.to/lastmile_qr_scan"}}, {"type": "electric_scooter", "name": "207eeaaad643b43c25411675182b0605", "lat": 38.898470333333336, "fusion_lat": 0.0, "bike_id": "207eeaaad643b43c25411675182b0605", "is_reserved": 0, "lon": -76.9425295, "is_disabled": 0, "fusion_lon": 0.0, "rental_uris": {"android": "https://dc.lft.to/lastmile_qr_scan", "ios": "https://dc.lft.to/lastmile_qr_scan"}}, {"type": "electric_scooter", "name": "fee77539c466f62f76d51174fb196091", "lat": 38.8767465, "fusion_lat": 0.0, "bike_id": "fee77539c466f62f76d51174fb196091", "is_reserved": 0, "lon": -77.00886516666667, "is_disabled": 0, "fusion_lon": 0.0, "rental_uris": {"android": "https://dc.lft.to/lastmile_qr_scan", "ios": "https://dc.lft.to/lastmile_qr_scan"}}, {"type": "electric_scooter", "name": "3a791da062eccffc5d0dad8d5d433c79", "lat": 38.9223795, "fusion_lat": 0.0, "bike_id": "3a791da062eccffc5d0dad8d5d433c79", "is_reserved": 0, "lon": -77.03345683333333, "is_disabled": 0, "fusion_lon": 0.0, "rental_uris": {"android": "https://dc.lft.to/lastmile_qr_scan", "ios": "https://dc.lft.to/lastmile_qr_scan"}}, {"type": "electric_scooter", "name": "dc91d15eae40a69922bbbccb8d3956b7", "lat": 38.91693983333333, "fusion_lat": 0.0, "bike_id": "dc91d15eae40a69922bbbccb8d3956b7", "is_reserved": 0, "lon": -77.03345566666667, "is_disabled": 0, "fusion_lon": 0.0, "rental_uris": {"android": "https://dc.lft.to/lastmile_qr_scan", "ios": "https://dc.lft.to/lastmile_qr_scan"}}, {"type": "electric_scooter", "name": "cbf98330bd5ecd7eacf04dac8e690f92", "lat": 38.89167366666667, "fusion_lat": 0.0, "bike_id": "cbf98330bd5ecd7eacf04dac8e690f92", "is_reserved": 0, "lon": -77.01542416666666, "is_disabled": 0, "fusion_lon": 0.0, "rental_uris": {"android": "https://dc.lft.to/lastmile_qr_scan", "ios": "https://dc.lft.to/lastmile_qr_scan"}}, {"type": "electric_scooter", "name": "cdaf73cfe6f768187448315556141e97", "lat": 38.9260935, "fusion_lat": 0.0, "bike_id": "cdaf73cfe6f768187448315556141e97", "is_reserved": 0, "lon": -77.02212216666666, "is_disabled": 0, "fusion_lon": 0.0, "rental_uris": {"android": "https://dc.lft.to/lastmile_qr_scan", "ios": "https://dc.lft.to/lastmile_qr_scan"}}, {"type": "electric_scooter", "name": "4f4e6231089279d68c3f823520cf33e0", "lat": 38.8975075, "fusion_lat": 0.0, "bike_id": "4f4e6231089279d68c3f823520cf33e0", "is_reserved": 0, "lon": -77.00928266666666, "is_disabled": 0, "fusion_lon": 0.0, "rental_uris": {"android": "https://dc.lft.to/lastmile_qr_scan", "ios": "https://dc.lft.to/lastmile_qr_scan"}}, {"type": "electric_scooter", "name": "73625e1b83ce679f2fb2c00c77f57b9f", "lat": 38.867244166666666, "fusion_lat": 0.0, "bike_id": "73625e1b83ce679f2fb2c00c77f57b9f", "is_reserved": 0, "lon": -76.98694733333333, "is_disabled": 0, "fusion_lon": 0.0, "rental_uris": {"android": "https://dc.lft.to/lastmile_qr_scan", "ios": "https://dc.lft.to/lastmile_qr_scan"}}, {"type": "electric_scooter", "name": "f0afded066735beb097c3ab350ae364d", "lat": 38.898871666666665, "fusion_lat": 0.0, "bike_id": "f0afded066735beb097c3ab350ae364d", "is_reserved": 0, "lon": -77.01208583333333, "is_disabled": 0, "fusion_lon": 0.0, "rental_uris": {"android": "https://dc.lft.to/lastmile_qr_scan", "ios": "https://dc.lft.to/lastmile_qr_scan"}}, {"type": "electric_scooter", "name": "a480c85eadc57fd2985219339ec46de9", "lat": 38.90685833333333, "fusion_lat": 0.0, "bike_id": "a480c85eadc57fd2985219339ec46de9", "is_reserved": 0, "lon": -77.0375965, "is_disabled": 0, "fusion_lon": 0.0, "rental_uris": {"android": "https://dc.lft.to/lastmile_qr_scan", "ios": "https://dc.lft.to/lastmile_qr_scan"}}, {"type": "electric_scooter", "name": "53e6cf416c4601925458ca4f6a5d7837", "lat": 38.88490933333333, "fusion_lat": 0.0, "bike_id": "53e6cf416c4601925458ca4f6a5d7837", "is_reserved": 0, "lon": -77.007092, "is_disabled": 0, "fusion_lon": 0.0, "rental_uris": {"android": "https://dc.lft.to/lastmile_qr_scan", "ios": "https://dc.lft.to/lastmile_qr_scan"}}, {"type": "electric_scooter", "name": "3c4866c4dbf3d01e24aea291cf0d3c8e", "lat": 38.906833666666664, "fusion_lat": 0.0, "bike_id": "3c4866c4dbf3d01e24aea291cf0d3c8e", "is_reserved": 0, "lon": -77.03465966666667, "is_disabled": 0, "fusion_lon": 0.0, "rental_uris": {"android": "https://dc.lft.to/lastmile_qr_scan", "ios": "https://dc.lft.to/lastmile_qr_scan"}}, {"type": "electric_scooter", "name": "beea4ac82556e52c5f86c455ed5d2b7d", "lat": 38.894636, "fusion_lat": 0.0, "bike_id": "beea4ac82556e52c5f86c455ed5d2b7d", "is_reserved": 0, "lon": -77.0034245, "is_disabled": 0, "fusion_lon": 0.0, "rental_uris": {"android": "https://dc.lft.to/lastmile_qr_scan", "ios": "https://dc.lft.to/lastmile_qr_scan"}}, {"type": "electric_scooter", "name": "de14476eca48b762bfcaada44122aaa1", "lat": 38.95731216666667, "fusion_lat": 0.0, "bike_id": "de14476eca48b762bfcaada44122aaa1", "is_reserved": 0, "lon": -77.02401783333333, "is_disabled": 0, "fusion_lon": 0.0, "rental_uris": {"android": "https://dc.lft.to/lastmile_qr_scan", "ios": "https://dc.lft.to/lastmile_qr_scan"}}, {"type": "electric_scooter", "name": "df38249ec095c57b5968162cb6c5f26e", "lat": 38.896103, "fusion_lat": 0.0, "bike_id": "df38249ec095c57b5968162cb6c5f26e", "is_reserved": 0, "lon": -77.00526266666667, "is_disabled": 0, "fusion_lon": 0.0, "rental_uris": {"android": "https://dc.lft.to/lastmile_qr_scan", "ios": "https://dc.lft.to/lastmile_qr_scan"}}, {"type": "electric_scooter", "name": "194187f30c27e0216d092d047eca4acf", "lat": 38.9056155, "fusion_lat": 0.0, "bike_id": "194187f30c27e0216d092d047eca4acf", "is_reserved": 0, "lon": -77.01877966666666, "is_disabled": 0, "fusion_lon": 0.0, "rental_uris": {"android": "https://dc.lft.to/lastmile_qr_scan", "ios": "https://dc.lft.to/lastmile_qr_scan"}}, {"type": "electric_scooter", "name": "c30378046528d364d747495f705298c0", "lat": 38.89518916666667, "fusion_lat": 0.0, "bike_id": "c30378046528d364d747495f705298c0", "is_reserved": 0, "lon": -77.00215683333333, "is_disabled": 0, "fusion_lon": 0.0, "rental_uris": {"android": "https://dc.lft.to/lastmile_qr_scan", "ios": "https://dc.lft.to/lastmile_qr_scan"}}, {"type": "electric_scooter", "name": "da0a8db2619e30e66d4983e1b68293d6", "lat": 38.8876985, "fusion_lat": 0.0, "bike_id": "da0a8db2619e30e66d4983e1b68293d6", "is_reserved": 0, "lon": -77.02629616666667, "is_disabled": 0, "fusion_lon": 0.0, "rental_uris": {"android": "https://dc.lft.to/lastmile_qr_scan", "ios": "https://dc.lft.to/lastmile_qr_scan"}}, {"type": "electric_scooter", "name": "020ee142a6392412b3c40d4c87c82b87", "lat": 38.894400166666664, "fusion_lat": 0.0, "bike_id": "020ee142a6392412b3c40d4c87c82b87", "is_reserved": 0, "lon": -76.99257766666666, "is_disabled": 0, "fusion_lon": 0.0, "rental_uris": {"android": "https://dc.lft.to/lastmile_qr_scan", "ios": "https://dc.lft.to/lastmile_qr_scan"}}, {"type": "electric_scooter", "name": "e52256e7aab97b7ed0e4864918995fdf", "lat": 38.9398285, "fusion_lat": 0.0, "bike_id": "e52256e7aab97b7ed0e4864918995fdf", "is_reserved": 0, "lon": -77.03262283333333, "is_disabled": 0, "fusion_lon": 0.0, "rental_uris": {"android": "https://dc.lft.to/lastmile_qr_scan", "ios": "https://dc.lft.to/lastmile_qr_scan"}}, {"type": "electric_scooter", "name": "894366983f7f55a8c0e800ce8fe31edd", "lat": 38.90028316666667, "fusion_lat": 0.0, "bike_id": "894366983f7f55a8c0e800ce8fe31edd", "is_reserved": 0, "lon": -77.0320555, "is_disabled": 0, "fusion_lon": 0.0, "rental_uris": {"android": "https://dc.lft.to/lastmile_qr_scan", "ios": "https://dc.lft.to/lastmile_qr_scan"}}, {"type": "electric_scooter", "name": "e6bc677b00fb12ed2e6f3e34735ad0f5", "lat": 38.9377565, "fusion_lat": 0.0, "bike_id": "e6bc677b00fb12ed2e6f3e34735ad0f5", "is_reserved": 0, "lon": -77.0884155, "is_disabled": 0, "fusion_lon": 0.0, "rental_uris": {"android": "https://dc.lft.to/lastmile_qr_scan", "ios": "https://dc.lft.to/lastmile_qr_scan"}}, {"type": "electric_scooter", "name": "46a97237856a857a01e59cdfd590d045", "lat": 38.9524555, "fusion_lat": 0.0, "bike_id": "46a97237856a857a01e59cdfd590d045", "is_reserved": 0, "lon": -77.02377983333334, "is_disabled": 0, "fusion_lon": 0.0, "rental_uris": {"android": "https://dc.lft.to/lastmile_qr_scan", "ios": "https://dc.lft.to/lastmile_qr_scan"}}, {"type": "electric_scooter", "name": "3f7191db3da0025ecfd0762936df0fd9", "lat": 38.93965033333333, "fusion_lat": 0.0, "bike_id": "3f7191db3da0025ecfd0762936df0fd9", "is_reserved": 0, "lon": -77.07527466666667, "is_disabled": 0, "fusion_lon": 0.0, "rental_uris": {"android": "https://dc.lft.to/lastmile_qr_scan", "ios": "https://dc.lft.to/lastmile_qr_scan"}}, {"type": "electric_scooter", "name": "f3ba9e7bfab947787ebb12e75c6d07e9", "lat": 38.896265666666665, "fusion_lat": 0.0, "bike_id": "f3ba9e7bfab947787ebb12e75c6d07e9", "is_reserved": 0, "lon": -77.02850566666666, "is_disabled": 0, "fusion_lon": 0.0, "rental_uris": {"android": "https://dc.lft.to/lastmile_qr_scan", "ios": "https://dc.lft.to/lastmile_qr_scan"}}, {"type": "electric_bike", "name": "0d41b02601b1dc304e8478da41290641", "lat": 38.922362666666665, "fusion_lat": 0.0, "bike_id": "0d41b02601b1dc304e8478da41290641", "is_reserved": 0, "lon": -77.02822733333333, "is_disabled": 0, "fusion_lon": 0.0, "rental_uris": {"android": "https://dc.lft.to/lastmile_qr_scan", "ios": "https://dc.lft.to/lastmile_qr_scan"}}, {"type": "electric_scooter", "name": "b6d3362292d86c71b2973ac867fddc66", "lat": 38.91080183333333, "fusion_lat": 0.0, "bike_id": "b6d3362292d86c71b2973ac867fddc66", "is_reserved": 0, "lon": -77.05049166666667, "is_disabled": 0, "fusion_lon": 0.0, "rental_uris": {"android": "https://dc.lft.to/lastmile_qr_scan", "ios": "https://dc.lft.to/lastmile_qr_scan"}}, {"type": "electric_scooter", "name": "924b648aa9c3e304f48dea1e1186038a", "lat": 38.92089466666667, "fusion_lat": 0.0, "bike_id": "924b648aa9c3e304f48dea1e1186038a", "is_reserved": 0, "lon": -77.02037933333334, "is_disabled": 0, "fusion_lon": 0.0, "rental_uris": {"android": "https://dc.lft.to/lastmile_qr_scan", "ios": "https://dc.lft.to/lastmile_qr_scan"}}, {"type": "electric_scooter", "name": "2cf2f68c6f165306e99d9ec310266c14", "lat": 38.86689583333333, "fusion_lat": 0.0, "bike_id": "2cf2f68c6f165306e99d9ec310266c14", "is_reserved": 0, "lon": -76.985387, "is_disabled": 0, "fusion_lon": 0.0, "rental_uris": {"android": "https://dc.lft.to/lastmile_qr_scan", "ios": "https://dc.lft.to/lastmile_qr_scan"}}, {"type": "electric_scooter", "name": "8b0dae36ae78cacb669cc88200f93d15", "lat": 38.9039845, "fusion_lat": 0.0, "bike_id": "8b0dae36ae78cacb669cc88200f93d15", "is_reserved": 0, "lon": -77.04365616666666, "is_disabled": 0, "fusion_lon": 0.0, "rental_uris": {"android": "https://dc.lft.to/lastmile_qr_scan", "ios": "https://dc.lft.to/lastmile_qr_scan"}}, {"type": "electric_scooter", "name": "ac641d0fd7ac93ad6eb763057ba119e9", "lat": 38.892349, "fusion_lat": 0.0, "bike_id": "ac641d0fd7ac93ad6eb763057ba119e9", "is_reserved": 0, "lon": -77.032047, "is_disabled": 0, "fusion_lon": 0.0, "rental_uris": {"android": "https://dc.lft.to/lastmile_qr_scan", "ios": "https://dc.lft.to/lastmile_qr_scan"}}, {"type": "electric_scooter", "name": "3212c5155638c9ae923df23bb6cf79f5", "lat": 38.876998666666665, "fusion_lat": 0.0, "bike_id": "3212c5155638c9ae923df23bb6cf79f5", "is_reserved": 0, "lon": -77.01768066666666, "is_disabled": 0, "fusion_lon": 0.0, "rental_uris": {"android": "https://dc.lft.to/lastmile_qr_scan", "ios": "https://dc.lft.to/lastmile_qr_scan"}}, {"type": "electric_scooter", "name": "3a6fef17540a7dac83ceff4536882c78", "lat": 38.918533333333336, "fusion_lat": 0.0, "bike_id": "3a6fef17540a7dac83ceff4536882c78", "is_reserved": 0, "lon": -77.06190683333334, "is_disabled": 0, "fusion_lon": 0.0, "rental_uris": {"android": "https://dc.lft.to/lastmile_qr_scan", "ios": "https://dc.lft.to/lastmile_qr_scan"}}, {"type": "electric_scooter", "name": "71f22a7d5f6608cf4215f9c1382284e2", "lat": 38.9076495, "fusion_lat": 0.0, "bike_id": "71f22a7d5f6608cf4215f9c1382284e2", "is_reserved": 0, "lon": -77.04002066666666, "is_disabled": 0, "fusion_lon": 0.0, "rental_uris": {"android": "https://dc.lft.to/lastmile_qr_scan", "ios": "https://dc.lft.to/lastmile_qr_scan"}}, {"type": "electric_scooter", "name": "303e2b10958faf5c659190219467ec04", "lat": 38.94458633333333, "fusion_lat": 0.0, "bike_id": "303e2b10958faf5c659190219467ec04", "is_reserved": 0, "lon": -77.02340633333333, "is_disabled": 0, "fusion_lon": 0.0, "rental_uris": {"android": "https://dc.lft.to/lastmile_qr_scan", "ios": "https://dc.lft.to/lastmile_qr_scan"}}, {"type": "electric_scooter", "name": "3b2ce47937f73cd000e8c1cd476fe4a9", "lat": 38.899812, "fusion_lat": 0.0, "bike_id": "3b2ce47937f73cd000e8c1cd476fe4a9", "is_reserved": 0, "lon": -77.0222465, "is_disabled": 0, "fusion_lon": 0.0, "rental_uris": {"android": "https://dc.lft.to/lastmile_qr_scan", "ios": "https://dc.lft.to/lastmile_qr_scan"}}, {"type": "electric_scooter", "name": "5ea237b0afe2a033694fac05e5941d9f", "lat": 38.95255516666667, "fusion_lat": 0.0, "bike_id": "5ea237b0afe2a033694fac05e5941d9f", "is_reserved": 0, "lon": -77.0019885, "is_disabled": 0, "fusion_lon": 0.0, "rental_uris": {"android": "https://dc.lft.to/lastmile_qr_scan", "ios": "https://dc.lft.to/lastmile_qr_scan"}}, {"type": "electric_bike", "name": "b366097a864fe533b3ac5f475709b3b7", "lat": 38.94155516666667, "fusion_lat": 0.0, "bike_id": "b366097a864fe533b3ac5f475709b3b7", "is_reserved": 0, "lon": -77.0019445, "is_disabled": 0, "fusion_lon": 0.0, "rental_uris": {"android": "https://dc.lft.to/lastmile_qr_scan", "ios": "https://dc.lft.to/lastmile_qr_scan"}}, {"type": "electric_scooter", "name": "0dd4172794dac1478d004176a7e0a87a", "lat": 38.89718933333333, "fusion_lat": 0.0, "bike_id": "0dd4172794dac1478d004176a7e0a87a", "is_reserved": 0, "lon": -77.0266385, "is_disabled": 0, "fusion_lon": 0.0, "rental_uris": {"android": "https://dc.lft.to/lastmile_qr_scan", "ios": "https://dc.lft.to/lastmile_qr_scan"}}, {"type": "electric_scooter", "name": "fa5ef0a4c5349351876a7aa9efa2a70b", "lat": 38.88493116666667, "fusion_lat": 0.0, "bike_id": "fa5ef0a4c5349351876a7aa9efa2a70b", "is_reserved": 0, "lon": -77.01531266666667, "is_disabled": 0, "fusion_lon": 0.0, "rental_uris": {"android": "https://dc.lft.to/lastmile_qr_scan", "ios": "https://dc.lft.to/lastmile_qr_scan"}}, {"type": "electric_scooter", "name": "d006f5a1cb0e3918cdba38cac60621de", "lat": 38.90718066666667, "fusion_lat": 0.0, "bike_id": "d006f5a1cb0e3918cdba38cac60621de", "is_reserved": 0, "lon": -77.04266616666666, "is_disabled": 0, "fusion_lon": 0.0, "rental_uris": {"android": "https://dc.lft.to/lastmile_qr_scan", "ios": "https://dc.lft.to/lastmile_qr_scan"}}, {"type": "electric_scooter", "name": "107c4988795bb140e05db758e17ec8c6", "lat": 38.91119416666667, "fusion_lat": 0.0, "bike_id": "107c4988795bb140e05db758e17ec8c6", "is_reserved": 0, "lon": -77.00603116666667, "is_disabled": 0, "fusion_lon": 0.0, "rental_uris": {"android": "https://dc.lft.to/lastmile_qr_scan", "ios": "https://dc.lft.to/lastmile_qr_scan"}}, {"type": "electric_scooter", "name": "b5268f658fa9dc3f6f3944462313d76c", "lat": 38.90030516666667, "fusion_lat": 0.0, "bike_id": "b5268f658fa9dc3f6f3944462313d76c", "is_reserved": 0, "lon": -77.0118215, "is_disabled": 0, "fusion_lon": 0.0, "rental_uris": {"android": "https://dc.lft.to/lastmile_qr_scan", "ios": "https://dc.lft.to/lastmile_qr_scan"}}, {"type": "electric_scooter", "name": "254c2163edf22f9f46c23f1ee0dc67b3", "lat": 38.900334666666666, "fusion_lat": 0.0, "bike_id": "254c2163edf22f9f46c23f1ee0dc67b3", "is_reserved": 0, "lon": -77.01183683333333, "is_disabled": 0, "fusion_lon": 0.0, "rental_uris": {"android": "https://dc.lft.to/lastmile_qr_scan", "ios": "https://dc.lft.to/lastmile_qr_scan"}}, {"type": "electric_scooter", "name": "2bf991ea0585b3c52d9e2263b3029fa3", "lat": 38.90940233333333, "fusion_lat": 0.0, "bike_id": "2bf991ea0585b3c52d9e2263b3029fa3", "is_reserved": 0, "lon": -77.02812483333334, "is_disabled": 0, "fusion_lon": 0.0, "rental_uris": {"android": "https://dc.lft.to/lastmile_qr_scan", "ios": "https://dc.lft.to/lastmile_qr_scan"}}, {"type": "electric_scooter", "name": "280cf3dcb4ec26b6b86b960c3c531cc0", "lat": 38.92522816666666, "fusion_lat": 0.0, "bike_id": "280cf3dcb4ec26b6b86b960c3c531cc0", "is_reserved": 0, "lon": -77.05129733333334, "is_disabled": 0, "fusion_lon": 0.0, "rental_uris": {"android": "https://dc.lft.to/lastmile_qr_scan", "ios": "https://dc.lft.to/lastmile_qr_scan"}}, {"type": "electric_scooter", "name": "ae9bb98dae189df5f2ff84e916f07693", "lat": 38.90832366666667, "fusion_lat": 0.0, "bike_id": "ae9bb98dae189df5f2ff84e916f07693", "is_reserved": 0, "lon": -77.03937066666667, "is_disabled": 0, "fusion_lon": 0.0, "rental_uris": {"android": "https://dc.lft.to/lastmile_qr_scan", "ios": "https://dc.lft.to/lastmile_qr_scan"}}, {"type": "electric_scooter", "name": "00d18587e516d86768f64aa4301bc601", "lat": 38.927867166666665, "fusion_lat": 0.0, "bike_id": "00d18587e516d86768f64aa4301bc601", "is_reserved": 0, "lon": -77.03207316666666, "is_disabled": 0, "fusion_lon": 0.0, "rental_uris": {"android": "https://dc.lft.to/lastmile_qr_scan", "ios": "https://dc.lft.to/lastmile_qr_scan"}}, {"type": "electric_scooter", "name": "36bf95d1a9928a964159e725358feb86", "lat": 38.900317333333334, "fusion_lat": 0.0, "bike_id": "36bf95d1a9928a964159e725358feb86", "is_reserved": 0, "lon": -76.989028, "is_disabled": 0, "fusion_lon": 0.0, "rental_uris": {"android": "https://dc.lft.to/lastmile_qr_scan", "ios": "https://dc.lft.to/lastmile_qr_scan"}}, {"type": "electric_scooter", "name": "f194380f2205f9484c3f639a30589879", "lat": 38.92833783333333, "fusion_lat": 0.0, "bike_id": "f194380f2205f9484c3f639a30589879", "is_reserved": 0, "lon": -77.04338966666667, "is_disabled": 0, "fusion_lon": 0.0, "rental_uris": {"android": "https://dc.lft.to/lastmile_qr_scan", "ios": "https://dc.lft.to/lastmile_qr_scan"}}, {"type": "electric_scooter", "name": "cfaaf63e4a57f86f89dbc752dca3a194", "lat": 38.9024045, "fusion_lat": 0.0, "bike_id": "cfaaf63e4a57f86f89dbc752dca3a194", "is_reserved": 0, "lon": -77.00197, "is_disabled": 0, "fusion_lon": 0.0, "rental_uris": {"android": "https://dc.lft.to/lastmile_qr_scan", "ios": "https://dc.lft.to/lastmile_qr_scan"}}, {"type": "electric_scooter", "name": "a02e8145aff79738045f2c86fcc5a6a3", "lat": 38.91119716666667, "fusion_lat": 0.0, "bike_id": "a02e8145aff79738045f2c86fcc5a6a3", "is_reserved": 0, "lon": -77.0383455, "is_disabled": 0, "fusion_lon": 0.0, "rental_uris": {"android": "https://dc.lft.to/lastmile_qr_scan", "ios": "https://dc.lft.to/lastmile_qr_scan"}}, {"type": "electric_scooter", "name": "a25b6fe4472deb766e889d0ef84c2413", "lat": 38.89438033333333, "fusion_lat": 0.0, "bike_id": "a25b6fe4472deb766e889d0ef84c2413", "is_reserved": 0, "lon": -76.98359083333334, "is_disabled": 0, "fusion_lon": 0.0, "rental_uris": {"android": "https://dc.lft.to/lastmile_qr_scan", "ios": "https://dc.lft.to/lastmile_qr_scan"}}, {"type": "electric_scooter", "name": "3a558e6c91b9cb87ed783ff885e86ca5", "lat": 38.885222166666665, "fusion_lat": 0.0, "bike_id": "3a558e6c91b9cb87ed783ff885e86ca5", "is_reserved": 0, "lon": -76.97710016666667, "is_disabled": 0, "fusion_lon": 0.0, "rental_uris": {"android": "https://dc.lft.to/lastmile_qr_scan", "ios": "https://dc.lft.to/lastmile_qr_scan"}}, {"type": "electric_scooter", "name": "3820e62db30ffc2553e98afaa0e91df7", "lat": 38.89250716666667, "fusion_lat": 0.0, "bike_id": "3820e62db30ffc2553e98afaa0e91df7", "is_reserved": 0, "lon": -77.019625, "is_disabled": 0, "fusion_lon": 0.0, "rental_uris": {"android": "https://dc.lft.to/lastmile_qr_scan", "ios": "https://dc.lft.to/lastmile_qr_scan"}}, {"type": "electric_scooter", "name": "bd38fd2c0d5be86b6cfe9a37b28a03e5", "lat": 38.899431166666666, "fusion_lat": 0.0, "bike_id": "bd38fd2c0d5be86b6cfe9a37b28a03e5", "is_reserved": 0, "lon": -77.05480083333333, "is_disabled": 0, "fusion_lon": 0.0, "rental_uris": {"android": "https://dc.lft.to/lastmile_qr_scan", "ios": "https://dc.lft.to/lastmile_qr_scan"}}, {"type": "electric_scooter", "name": "037939b076f83bf4640533e88c3cf48c", "lat": 38.926577333333334, "fusion_lat": 0.0, "bike_id": "037939b076f83bf4640533e88c3cf48c", "is_reserved": 0, "lon": -77.02426716666666, "is_disabled": 0, "fusion_lon": 0.0, "rental_uris": {"android": "https://dc.lft.to/lastmile_qr_scan", "ios": "https://dc.lft.to/lastmile_qr_scan"}}, {"type": "electric_scooter", "name": "ac7b181bbb8758c70a186046c34eca96", "lat": 38.90862683333334, "fusion_lat": 0.0, "bike_id": "ac7b181bbb8758c70a186046c34eca96", "is_reserved": 0, "lon": -77.02227716666667, "is_disabled": 0, "fusion_lon": 0.0, "rental_uris": {"android": "https://dc.lft.to/lastmile_qr_scan", "ios": "https://dc.lft.to/lastmile_qr_scan"}}, {"type": "electric_scooter", "name": "f1c3f8f24523b90714acccd53ba92b28", "lat": 38.907242, "fusion_lat": 0.0, "bike_id": "f1c3f8f24523b90714acccd53ba92b28", "is_reserved": 0, "lon": -77.02373033333333, "is_disabled": 0, "fusion_lon": 0.0, "rental_uris": {"android": "https://dc.lft.to/lastmile_qr_scan", "ios": "https://dc.lft.to/lastmile_qr_scan"}}, {"type": "electric_scooter", "name": "1a01cf65fa03885d78037ce022b6a5d1", "lat": 38.89459466666667, "fusion_lat": 0.0, "bike_id": "1a01cf65fa03885d78037ce022b6a5d1", "is_reserved": 0, "lon": -77.02699633333333, "is_disabled": 0, "fusion_lon": 0.0, "rental_uris": {"android": "https://dc.lft.to/lastmile_qr_scan", "ios": "https://dc.lft.to/lastmile_qr_scan"}}, {"type": "electric_bike", "name": "bfb8fd2b384c85de03d853045025738a", "lat": 38.8551965, "fusion_lat": 0.0, "bike_id": "bfb8fd2b384c85de03d853045025738a", "is_reserved": 0, "lon": -76.98430166666667, "is_disabled": 0, "fusion_lon": 0.0, "rental_uris": {"android": "https://dc.lft.to/lastmile_qr_scan", "ios": "https://dc.lft.to/lastmile_qr_scan"}}, {"type": "electric_scooter", "name": "a327ebb64042b1f740db797818f33ac8", "lat": 38.897381833333334, "fusion_lat": 0.0, "bike_id": "a327ebb64042b1f740db797818f33ac8", "is_reserved": 0, "lon": -77.0473855, "is_disabled": 0, "fusion_lon": 0.0, "rental_uris": {"android": "https://dc.lft.to/lastmile_qr_scan", "ios": "https://dc.lft.to/lastmile_qr_scan"}}, {"type": "electric_scooter", "name": "22c898a983023bd9b584b2ceab29fc1c", "lat": 38.900237, "fusion_lat": 0.0, "bike_id": "22c898a983023bd9b584b2ceab29fc1c", "is_reserved": 0, "lon": -76.99545383333333, "is_disabled": 0, "fusion_lon": 0.0, "rental_uris": {"android": "https://dc.lft.to/lastmile_qr_scan", "ios": "https://dc.lft.to/lastmile_qr_scan"}}, {"type": "electric_scooter", "name": "af8eb7a9e8de8bc495ec4ac85d6536eb", "lat": 38.917522166666664, "fusion_lat": 0.0, "bike_id": "af8eb7a9e8de8bc495ec4ac85d6536eb", "is_reserved": 0, "lon": -77.02803166666666, "is_disabled": 0, "fusion_lon": 0.0, "rental_uris": {"android": "https://dc.lft.to/lastmile_qr_scan", "ios": "https://dc.lft.to/lastmile_qr_scan"}}, {"type": "electric_scooter", "name": "cc95668665dd3906d53d25f71bc90efc", "lat": 38.920358, "fusion_lat": 0.0, "bike_id": "cc95668665dd3906d53d25f71bc90efc", "is_reserved": 0, "lon": -77.01741666666666, "is_disabled": 0, "fusion_lon": 0.0, "rental_uris": {"android": "https://dc.lft.to/lastmile_qr_scan", "ios": "https://dc.lft.to/lastmile_qr_scan"}}, {"type": "electric_scooter", "name": "2f1faf135c5ebcfc4d000df99fff8b5e", "lat": 38.87375816666667, "fusion_lat": 0.0, "bike_id": "2f1faf135c5ebcfc4d000df99fff8b5e", "is_reserved": 0, "lon": -77.00111766666667, "is_disabled": 0, "fusion_lon": 0.0, "rental_uris": {"android": "https://dc.lft.to/lastmile_qr_scan", "ios": "https://dc.lft.to/lastmile_qr_scan"}}, {"type": "electric_scooter", "name": "6ca296be6f3800741939fe0725076040", "lat": 38.90132966666667, "fusion_lat": 0.0, "bike_id": "6ca296be6f3800741939fe0725076040", "is_reserved": 0, "lon": -77.03197683333333, "is_disabled": 0, "fusion_lon": 0.0, "rental_uris": {"android": "https://dc.lft.to/lastmile_qr_scan", "ios": "https://dc.lft.to/lastmile_qr_scan"}}, {"type": "electric_scooter", "name": "11aa655924064c5d8ad24ec78ca70f87", "lat": 38.90569333333333, "fusion_lat": 0.0, "bike_id": "11aa655924064c5d8ad24ec78ca70f87", "is_reserved": 0, "lon": -77.051467, "is_disabled": 0, "fusion_lon": 0.0, "rental_uris": {"android": "https://dc.lft.to/lastmile_qr_scan", "ios": "https://dc.lft.to/lastmile_qr_scan"}}, {"type": "electric_scooter", "name": "597f70f2bde230343f9e4ae6cf5d1d7e", "lat": 38.934016666666665, "fusion_lat": 0.0, "bike_id": "597f70f2bde230343f9e4ae6cf5d1d7e", "is_reserved": 0, "lon": -77.05740583333333, "is_disabled": 0, "fusion_lon": 0.0, "rental_uris": {"android": "https://dc.lft.to/lastmile_qr_scan", "ios": "https://dc.lft.to/lastmile_qr_scan"}}, {"type": "electric_scooter", "name": "424d61a5ccbacc18de7d544d0a6f8413", "lat": 38.9286655, "fusion_lat": 0.0, "bike_id": "424d61a5ccbacc18de7d544d0a6f8413", "is_reserved": 0, "lon": -77.03443566666667, "is_disabled": 0, "fusion_lon": 0.0, "rental_uris": {"android": "https://dc.lft.to/lastmile_qr_scan", "ios": "https://dc.lft.to/lastmile_qr_scan"}}, {"type": "electric_scooter", "name": "b48cee33d0be43b66f7af1b928468560", "lat": 38.9141825, "fusion_lat": 0.0, "bike_id": "b48cee33d0be43b66f7af1b928468560", "is_reserved": 0, "lon": -77.02331433333333, "is_disabled": 0, "fusion_lon": 0.0, "rental_uris": {"android": "https://dc.lft.to/lastmile_qr_scan", "ios": "https://dc.lft.to/lastmile_qr_scan"}}, {"type": "electric_scooter", "name": "f004c60d77dbbc2bbdb07f63a42d4705", "lat": 38.892223666666666, "fusion_lat": 0.0, "bike_id": "f004c60d77dbbc2bbdb07f63a42d4705", "is_reserved": 0, "lon": -77.04375183333333, "is_disabled": 0, "fusion_lon": 0.0, "rental_uris": {"android": "https://dc.lft.to/lastmile_qr_scan", "ios": "https://dc.lft.to/lastmile_qr_scan"}}, {"type": "electric_scooter", "name": "1c63f1d03b2ad599f6aa3fbc6681e49d", "lat": 38.91120316666667, "fusion_lat": 0.0, "bike_id": "1c63f1d03b2ad599f6aa3fbc6681e49d", "is_reserved": 0, "lon": -77.03825616666667, "is_disabled": 0, "fusion_lon": 0.0, "rental_uris": {"android": "https://dc.lft.to/lastmile_qr_scan", "ios": "https://dc.lft.to/lastmile_qr_scan"}}, {"type": "electric_scooter", "name": "42755b9f1eea0273643a2d4c10cab079", "lat": 38.925216666666664, "fusion_lat": 0.0, "bike_id": "42755b9f1eea0273643a2d4c10cab079", "is_reserved": 0, "lon": -77.051241, "is_disabled": 0, "fusion_lon": 0.0, "rental_uris": {"android": "https://dc.lft.to/lastmile_qr_scan", "ios": "https://dc.lft.to/lastmile_qr_scan"}}, {"type": "electric_scooter", "name": "ecf288c2bd2d87d2933d0e663b13a3d8", "lat": 38.92588, "fusion_lat": 0.0, "bike_id": "ecf288c2bd2d87d2933d0e663b13a3d8", "is_reserved": 0, "lon": -77.04403416666666, "is_disabled": 0, "fusion_lon": 0.0, "rental_uris": {"android": "https://dc.lft.to/lastmile_qr_scan", "ios": "https://dc.lft.to/lastmile_qr_scan"}}, {"type": "electric_scooter", "name": "71b357875bfeb51cf154444d114c1786", "lat": 38.898401, "fusion_lat": 0.0, "bike_id": "71b357875bfeb51cf154444d114c1786", "is_reserved": 0, "lon": -77.04697916666667, "is_disabled": 0, "fusion_lon": 0.0, "rental_uris": {"android": "https://dc.lft.to/lastmile_qr_scan", "ios": "https://dc.lft.to/lastmile_qr_scan"}}, {"type": "electric_scooter", "name": "f4e48162d6e719ed0fdf012270ffba28", "lat": 38.94309783333333, "fusion_lat": 0.0, "bike_id": "f4e48162d6e719ed0fdf012270ffba28", "is_reserved": 0, "lon": -77.02591733333334, "is_disabled": 0, "fusion_lon": 0.0, "rental_uris": {"android": "https://dc.lft.to/lastmile_qr_scan", "ios": "https://dc.lft.to/lastmile_qr_scan"}}, {"type": "electric_scooter", "name": "a346d7b62a5b02fbd51c8c3bb3164fe1", "lat": 38.898670833333334, "fusion_lat": 0.0, "bike_id": "a346d7b62a5b02fbd51c8c3bb3164fe1", "is_reserved": 0, "lon": -76.94637466666667, "is_disabled": 0, "fusion_lon": 0.0, "rental_uris": {"android": "https://dc.lft.to/lastmile_qr_scan", "ios": "https://dc.lft.to/lastmile_qr_scan"}}, {"type": "electric_scooter", "name": "e1093d5b0edb17f985c0dbc72b029c9b", "lat": 38.89602266666667, "fusion_lat": 0.0, "bike_id": "e1093d5b0edb17f985c0dbc72b029c9b", "is_reserved": 0, "lon": -77.02690033333333, "is_disabled": 0, "fusion_lon": 0.0, "rental_uris": {"android": "https://dc.lft.to/lastmile_qr_scan", "ios": "https://dc.lft.to/lastmile_qr_scan"}}, {"type": "electric_scooter", "name": "3e72f129f586a29e536b73bba7976802", "lat": 38.92315083333333, "fusion_lat": 0.0, "bike_id": "3e72f129f586a29e536b73bba7976802", "is_reserved": 0, "lon": -77.02131266666666, "is_disabled": 0, "fusion_lon": 0.0, "rental_uris": {"android": "https://dc.lft.to/lastmile_qr_scan", "ios": "https://dc.lft.to/lastmile_qr_scan"}}, {"type": "electric_scooter", "name": "c288919441ae2f4591886e724dce0269", "lat": 38.9091895, "fusion_lat": 0.0, "bike_id": "c288919441ae2f4591886e724dce0269", "is_reserved": 0, "lon": -77.03185783333333, "is_disabled": 0, "fusion_lon": 0.0, "rental_uris": {"android": "https://dc.lft.to/lastmile_qr_scan", "ios": "https://dc.lft.to/lastmile_qr_scan"}}, {"type": "electric_scooter", "name": "5d6919b9b0bc8ad4878ce88e31eba788", "lat": 38.952037, "fusion_lat": 0.0, "bike_id": "5d6919b9b0bc8ad4878ce88e31eba788", "is_reserved": 0, "lon": -77.02732983333334, "is_disabled": 0, "fusion_lon": 0.0, "rental_uris": {"android": "https://dc.lft.to/lastmile_qr_scan", "ios": "https://dc.lft.to/lastmile_qr_scan"}}, {"type": "electric_scooter", "name": "f33806e1862125597138b61f2a8258f8", "lat": 38.928702, "fusion_lat": 0.0, "bike_id": "f33806e1862125597138b61f2a8258f8", "is_reserved": 0, "lon": -77.03370483333333, "is_disabled": 0, "fusion_lon": 0.0, "rental_uris": {"android": "https://dc.lft.to/lastmile_qr_scan", "ios": "https://dc.lft.to/lastmile_qr_scan"}}, {"type": "electric_scooter", "name": "1d8b244372a131b23bf9cf3e4d2b4b17", "lat": 38.89679183333333, "fusion_lat": 0.0, "bike_id": "1d8b244372a131b23bf9cf3e4d2b4b17", "is_reserved": 0, "lon": -77.02383866666666, "is_disabled": 0, "fusion_lon": 0.0, "rental_uris": {"android": "https://dc.lft.to/lastmile_qr_scan", "ios": "https://dc.lft.to/lastmile_qr_scan"}}, {"type": "electric_scooter", "name": "3a9133fbdea08f6d0c6aa1e7cd292ee7", "lat": 38.924753, "fusion_lat": 0.0, "bike_id": "3a9133fbdea08f6d0c6aa1e7cd292ee7", "is_reserved": 0, "lon": -77.022119, "is_disabled": 0, "fusion_lon": 0.0, "rental_uris": {"android": "https://dc.lft.to/lastmile_qr_scan", "ios": "https://dc.lft.to/lastmile_qr_scan"}}, {"type": "electric_scooter", "name": "725586c20decb974f420ab1091ce3e76", "lat": 38.89249683333333, "fusion_lat": 0.0, "bike_id": "725586c20decb974f420ab1091ce3e76", "is_reserved": 0, "lon": -77.03957016666666, "is_disabled": 0, "fusion_lon": 0.0, "rental_uris": {"android": "https://dc.lft.to/lastmile_qr_scan", "ios": "https://dc.lft.to/lastmile_qr_scan"}}, {"type": "electric_scooter", "name": "1cf95f66794fa167c127178fefcc8981", "lat": 38.902968666666666, "fusion_lat": 0.0, "bike_id": "1cf95f66794fa167c127178fefcc8981", "is_reserved": 0, "lon": -77.034341, "is_disabled": 0, "fusion_lon": 0.0, "rental_uris": {"android": "https://dc.lft.to/lastmile_qr_scan", "ios": "https://dc.lft.to/lastmile_qr_scan"}}, {"type": "electric_scooter", "name": "4af2e45bd6f4bed15e4054e33db05528", "lat": 38.909086333333335, "fusion_lat": 0.0, "bike_id": "4af2e45bd6f4bed15e4054e33db05528", "is_reserved": 0, "lon": -77.071881, "is_disabled": 0, "fusion_lon": 0.0, "rental_uris": {"android": "https://dc.lft.to/lastmile_qr_scan", "ios": "https://dc.lft.to/lastmile_qr_scan"}}, {"type": "electric_scooter", "name": "8b8173182654b70bed09e71ba7df5a91", "lat": 38.87467066666667, "fusion_lat": 0.0, "bike_id": "8b8173182654b70bed09e71ba7df5a91", "is_reserved": 0, "lon": -77.0048175, "is_disabled": 0, "fusion_lon": 0.0, "rental_uris": {"android": "https://dc.lft.to/lastmile_qr_scan", "ios": "https://dc.lft.to/lastmile_qr_scan"}}, {"type": "electric_scooter", "name": "a47c4cab3b42607248e784d6ac81dd41", "lat": 38.9171035, "fusion_lat": 0.0, "bike_id": "a47c4cab3b42607248e784d6ac81dd41", "is_reserved": 0, "lon": -77.03222066666666, "is_disabled": 0, "fusion_lon": 0.0, "rental_uris": {"android": "https://dc.lft.to/lastmile_qr_scan", "ios": "https://dc.lft.to/lastmile_qr_scan"}}, {"type": "electric_scooter", "name": "d3536a01106f0d91c9a57a15aaf2e55c", "lat": 38.901251333333335, "fusion_lat": 0.0, "bike_id": "d3536a01106f0d91c9a57a15aaf2e55c", "is_reserved": 0, "lon": -77.03169383333334, "is_disabled": 0, "fusion_lon": 0.0, "rental_uris": {"android": "https://dc.lft.to/lastmile_qr_scan", "ios": "https://dc.lft.to/lastmile_qr_scan"}}, {"type": "electric_scooter", "name": "c9e389fba2c61d956fef3d93c3a2f180", "lat": 38.9232065, "fusion_lat": 0.0, "bike_id": "c9e389fba2c61d956fef3d93c3a2f180", "is_reserved": 0, "lon": -77.04516016666666, "is_disabled": 0, "fusion_lon": 0.0, "rental_uris": {"android": "https://dc.lft.to/lastmile_qr_scan", "ios": "https://dc.lft.to/lastmile_qr_scan"}}, {"type": "electric_scooter", "name": "14fcbcc1cb14ef566e81e77c85441058", "lat": 38.88490516666667, "fusion_lat": 0.0, "bike_id": "14fcbcc1cb14ef566e81e77c85441058", "is_reserved": 0, "lon": -76.95649416666667, "is_disabled": 0, "fusion_lon": 0.0, "rental_uris": {"android": "https://dc.lft.to/lastmile_qr_scan", "ios": "https://dc.lft.to/lastmile_qr_scan"}}, {"type": "electric_scooter", "name": "ef7ba0e04b33c68a905d01b3c87ce636", "lat": 38.9275395, "fusion_lat": 0.0, "bike_id": "ef7ba0e04b33c68a905d01b3c87ce636", "is_reserved": 0, "lon": -77.0330965, "is_disabled": 0, "fusion_lon": 0.0, "rental_uris": {"android": "https://dc.lft.to/lastmile_qr_scan", "ios": "https://dc.lft.to/lastmile_qr_scan"}}, {"type": "electric_scooter", "name": "20f27cdce8c7a2a0b4842124d021d1ed", "lat": 38.924197166666666, "fusion_lat": 0.0, "bike_id": "20f27cdce8c7a2a0b4842124d021d1ed", "is_reserved": 0, "lon": -77.01947483333333, "is_disabled": 0, "fusion_lon": 0.0, "rental_uris": {"android": "https://dc.lft.to/lastmile_qr_scan", "ios": "https://dc.lft.to/lastmile_qr_scan"}}, {"type": "electric_scooter", "name": "c0ea9b42a0f89486d0310e5ebf66c934", "lat": 38.87398866666667, "fusion_lat": 0.0, "bike_id": "c0ea9b42a0f89486d0310e5ebf66c934", "is_reserved": 0, "lon": -77.00019066666667, "is_disabled": 0, "fusion_lon": 0.0, "rental_uris": {"android": "https://dc.lft.to/lastmile_qr_scan", "ios": "https://dc.lft.to/lastmile_qr_scan"}}, {"type": "electric_scooter", "name": "adc1b2c2ed271193395260c022161d5d", "lat": 38.887437, "fusion_lat": 0.0, "bike_id": "adc1b2c2ed271193395260c022161d5d", "is_reserved": 0, "lon": -77.02229316666667, "is_disabled": 0, "fusion_lon": 0.0, "rental_uris": {"android": "https://dc.lft.to/lastmile_qr_scan", "ios": "https://dc.lft.to/lastmile_qr_scan"}}, {"type": "electric_scooter", "name": "ebe9dfaa43f90d245e47f009efb08b67", "lat": 38.87698433333333, "fusion_lat": 0.0, "bike_id": "ebe9dfaa43f90d245e47f009efb08b67", "is_reserved": 0, "lon": -77.004168, "is_disabled": 0, "fusion_lon": 0.0, "rental_uris": {"android": "https://dc.lft.to/lastmile_qr_scan", "ios": "https://dc.lft.to/lastmile_qr_scan"}}, {"type": "electric_scooter", "name": "bc34ca322211c898e7cbf4f095ff65a7", "lat": 38.91429383333333, "fusion_lat": 0.0, "bike_id": "bc34ca322211c898e7cbf4f095ff65a7", "is_reserved": 0, "lon": -77.03183683333333, "is_disabled": 0, "fusion_lon": 0.0, "rental_uris": {"android": "https://dc.lft.to/lastmile_qr_scan", "ios": "https://dc.lft.to/lastmile_qr_scan"}}, {"type": "electric_scooter", "name": "c838a7e7a994ad28d13a01e6694eb7e6", "lat": 38.8872765, "fusion_lat": 0.0, "bike_id": "c838a7e7a994ad28d13a01e6694eb7e6", "is_reserved": 0, "lon": -77.0138435, "is_disabled": 0, "fusion_lon": 0.0, "rental_uris": {"android": "https://dc.lft.to/lastmile_qr_scan", "ios": "https://dc.lft.to/lastmile_qr_scan"}}, {"type": "electric_scooter", "name": "e54436220421713a905dc05c3130552c", "lat": 38.892261, "fusion_lat": 0.0, "bike_id": "e54436220421713a905dc05c3130552c", "is_reserved": 0, "lon": -77.02502983333333, "is_disabled": 0, "fusion_lon": 0.0, "rental_uris": {"android": "https://dc.lft.to/lastmile_qr_scan", "ios": "https://dc.lft.to/lastmile_qr_scan"}}, {"type": "electric_scooter", "name": "2f12f3bb202daa5956c739605ea8fda0", "lat": 38.938809166666665, "fusion_lat": 0.0, "bike_id": "2f12f3bb202daa5956c739605ea8fda0", "is_reserved": 0, "lon": -77.024833, "is_disabled": 0, "fusion_lon": 0.0, "rental_uris": {"android": "https://dc.lft.to/lastmile_qr_scan", "ios": "https://dc.lft.to/lastmile_qr_scan"}},