{"data": {"bikes": [{"lon": -77.03183566666667, "bike_id": "b6160f0ccdc6453fae01d7741457aad7", "lat": 38.918396333333334, "fusion_lon": 0.0, "fusion_lat": 0.0, "type": "electric_scooter", "name": "b6160f0ccdc6453fae01d7741457aad7", "is_disabled": 0, "rental_uris": {"ios": "https://dc.lft.to/lastmile_qr_scan", "android": "https://dc.lft.to/lastmile_qr_scan"}, "is_reserved": 0}, {"lon": -77.00683016666666, "bike_id": "93c50463529b693234f210baef37a504", "lat": 38.944975, "fusion_lon": 0.0, "fusion_lat": 0.0, "type": "electric_bike", "name": "93c50463529b693234f210baef37a504", "is_disabled": 0, "rental_uris": {"ios": "https://dc.lft.to/lastmile_qr_scan", "android": "https://dc.lft.to/lastmile_qr_scan"}, "is_reserved": 0}, {"lon": -77.04675816666666, "bike_id": "bb5646f9a3a68312d53cf856e7c4b1b8", "lat": 38.892290333333335, "fusion_lon": 0.0, "fusion_lat": 0.0, "type": "electric_scooter", "name": "bb5646f9a3a68312d53cf856e7c4b1b8", "is_disabled": 0, "rental_uris": {"ios": "https://dc.lft.to/lastmile_qr_scan", "android": "https://dc.lft.to/lastmile_qr_scan"}, "is_reserved": 0}, {"lon": -76.998861, "bike_id": "722080d6aa3290cd81547c9a84c87a86", "lat": 38.907258666666664, "fusion_lon": 0.0, "fusion_lat": 0.0, "type": "electric_scooter", "name": "722080d6aa3290cd81547c9a84c87a86", "is_disabled": 0, "rental_uris": {"ios": "https://dc.lft.to/lastmile_qr_scan", "android": "https://dc.lft.to/lastmile_qr_scan"}, "is_reserved": 0}, {"lon": -77.02561166666666, "bike_id": "31c5bcee0f55c523c2588bd426ce761b", "lat": 38.941712, "fusion_lon": 0.0, "fusion_lat": 0.0, "type": "electric_scooter", "name": "31c5bcee0f55c523c2588bd426ce761b", "is_disabled": 0, "rental_uris": {"ios": "https://dc.lft.to/lastmile_qr_scan", "android": "https://dc.lft.to/lastmile_qr_scan"}, "is_reserved": 0}, {"lon": -77.03194883333333, "bike_id": "844e5955776e35620585594a4773469a", "lat": 38.91741866666667, "fusion_lon": 0.0, "fusion_lat": 0.0, "type": "electric_scooter", "name": "844e5955776e35620585594a4773469a", "is_disabled": 0, "rental_uris": {"ios": "https://dc.lft.to/lastmile_qr_scan", "android": "https://dc.lft.to/lastmile_qr_scan"}, "is_reserved": 0}, {"lon": -77.04385066666667, "bike_id": "f528738d8f5dbc0de805c99e51e8363f", "lat": 38.92117283333333, "fusion_lon": 0.0, "fusion_lat": 0.0, "type": "electric_scooter", "name": "f528738d8f5dbc0de805c99e51e8363f", "is_disabled": 0, "rental_uris": {"ios": "https://dc.lft.to/lastmile_qr_scan", "android": "https://dc.lft.to/lastmile_qr_scan"}, "is_reserved": 0}, {"lon": -77.02514033333334, "bike_id": "c1d695190173cc1ec66b9378a3b5ac3d", "lat": 38.926441, "fusion_lon": 0.0, "fusion_lat": 0.0, "type": "electric_scooter", "name": "c1d695190173cc1ec66b9378a3b5ac3d", "is_disabled": 0, "rental_uris": {"ios": "https://dc.lft.to/lastmile_qr_scan", "android": "https://dc.lft.to/lastmile_qr_scan"}, "is_reserved": 0}, {"lon": -76.99157666666666, "bike_id": "8f79571ee95d1e543c6e57ec0fe0df4d", "lat": 38.90038716666667, "fusion_lon": 0.0, "fusion_lat": 0.0, "type": "electric_scooter", "name": "8f79571ee95d1e543c6e57ec0fe0df4d", "is_disabled": 0, "rental_uris": {"ios": "https://dc.lft.to/lastmile_qr_scan", "android": "https://dc.lft.to/lastmile_qr_scan"}, "is_reserved": 0}, {"lon": -76.8954095, "bike_id": "e349be808e1937677a4d14cb3acec8df", "lat": 38.94552866666667, "fusion_lon": 0.0, "fusion_lat": 0.0, "type": "electric_bike", "name": "e349be808e1937677a4d14cb3acec8df", "is_disabled": 0, "rental_uris": {"ios": "https://dc.lft.to/lastmile_qr_scan", "android": "https://dc.lft.to/lastmile_qr_scan"}, "is_reserved": 0}, {"lon": -77.006002, "bike_id": "db60207434fadb05df45587a50e12948", "lat": 38.87185083333333, "fusion_lon": 0.0, "fusion_lat": 0.0, "type": "electric_scooter", "name": "db60207434fadb05df45587a50e12948", "is_disabled": 0, "rental_uris": {"ios": "https://dc.lft.to/lastmile_qr_scan", "android": "https://dc.lft.to/lastmile_qr_scan"}, "is_reserved": 0}, {"lon": -77.04879883333334, "bike_id": "ce08085242d69f29b51ae8adc7647788", "lat": 38.900917666666665, "fusion_lon": 0.0, "fusion_lat": 0.0, "type": "electric_scooter", "name": "ce08085242d69f29b51ae8adc7647788", "is_disabled": 0, "rental_uris": {"ios": "https://dc.lft.to/lastmile_qr_scan", "android": "https://dc.lft.to/lastmile_qr_scan"}, "is_reserved": 0}, {"lon": -77.03278683333333, "bike_id": "cc81defe4fdc842025354aa5b19b22d8", "lat": 38.901604666666664, "fusion_lon": 0.0, "fusion_lat": 0.0, "type": "electric_scooter", "name": "cc81defe4fdc842025354aa5b19b22d8", "is_disabled": 0, "rental_uris": {"ios": "https://dc.lft.to/lastmile_qr_scan", "android": "https://dc.lft.to/lastmile_qr_scan"}, "is_reserved": 0}, {"lon": -77.0421795, "bike_id": "5a5950d02d9f364aac05b1c91737f7ea", "lat": 38.923118333333335, "fusion_lon": 0.0, "fusion_lat": 0.0, "type": "electric_scooter", "name": "5a5950d02d9f364aac05b1c91737f7ea", "is_disabled": 0, "rental_uris": {"ios": "https://dc.lft.to/lastmile_qr_scan", "android": "https://dc.lft.to/lastmile_qr_scan"}, "is_reserved": 0}, {"lon": -76.97808383333333, "bike_id": "071ab6df2001033a8682b2b7a3b6ff85", "lat": 38.90666, "fusion_lon": 0.0, "fusion_lat": 0.0, "type": "electric_scooter", "name": "071ab6df2001033a8682b2b7a3b6ff85", "is_disabled": 0, "rental_uris": {"ios": "https://dc.lft.to/lastmile_qr_scan", "android": "https://dc.lft.to/lastmile_qr_scan"}, "is_reserved": 0}, {"lon": -77.02698583333333, "bike_id": "772f00853f0b79a96914b1b6b1bc2773", "lat": 38.906600166666664, "fusion_lon": 0.0, "fusion_lat": 0.0, "type": "electric_scooter", "name": "772f00853f0b79a96914b1b6b1bc2773", "is_disabled": 0, "rental_uris": {"ios": "https://dc.lft.to/lastmile_qr_scan", "android": "https://dc.lft.to/lastmile_qr_scan"}, "is_reserved": 0}, {"lon": -77.02574283333334, "bike_id": "0b1b9c8e7f3d51b3a95a93115c1dbe89", "lat": 38.9148465, "fusion_lon": 0.0, "fusion_lat": 0.0, "type": "electric_scooter", "name": "0b1b9c8e7f3d51b3a95a93115c1dbe89", "is_disabled": 0, "rental_uris": {"ios": "https://dc.lft.to/lastmile_qr_scan", "android": "https://dc.lft.to/lastmile_qr_scan"}, "is_reserved": 0}, {"lon": -77.04263316666666, "bike_id": "5fb7b37e2cb387b50054ed5bbe231105", "lat": 38.922908166666666, "fusion_lon": 0.0, "fusion_lat": 0.0, "type": "electric_scooter", "name": "5fb7b37e2cb387b50054ed5bbe231105", "is_disabled": 0, "rental_uris": {"ios": "https://dc.lft.to/lastmile_qr_scan", "android": "https://dc.lft.to/lastmile_qr_scan"}, "is_reserved": 0}, {"lon": -77.05245266666667, "bike_id": "66039e8685bc025bb882d089a91ac68d", "lat": 38.925515, "fusion_lon": 0.0, "fusion_lat": 0.0, "type": "electric_scooter", "name": "66039e8685bc025bb882d089a91ac68d", "is_disabled": 0, "rental_uris": {"ios": "https://dc.lft.to/lastmile_qr_scan", "android": "https://dc.lft.to/lastmile_qr_scan"}, "is_reserved": 0}, {"lon": -77.0476275, "bike_id": "691313acc7f110220c3f20366bbc8752", "lat": 38.905599, "fusion_lon": 0.0, "fusion_lat": 0.0, "type": "electric_scooter", "name": "691313acc7f110220c3f20366bbc8752", "is_disabled": 0, "rental_uris": {"ios": "https://dc.lft.to/lastmile_qr_scan", "android": "https://dc.lft.to/lastmile_qr_scan"}, "is_reserved": 0}, {"lon": -77.0709925, "bike_id": "6f5c72ea34cacdb3ded506ccfc3c1fa1", "lat": 38.91968966666666, "fusion_lon": 0.0, "fusion_lat": 0.0, "type": "electric_scooter", "name": "6f5c72ea34cacdb3ded506ccfc3c1fa1", "is_disabled": 0, "rental_uris": {"ios": "https://dc.lft.to/lastmile_qr_scan", "android": "https://dc.lft.to/lastmile_qr_scan"}, "is_reserved": 0}, {"lon": -77.03855716666666, "bike_id": "d135b5a43a583a5239ec967ceee8878e", "lat": 38.910177833333336, "fusion_lon": 0.0, "fusion_lat": 0.0, "type": "electric_scooter", "name": "d135b5a43a583a5239ec967ceee8878e", "is_disabled": 0, "rental_uris": {"ios": "https://dc.lft.to/lastmile_qr_scan", "android": "https://dc.lft.to/lastmile_qr_scan"}, "is_reserved": 0}, {"lon": -77.0258335, "bike_id": "2fc2aec0cdf394b2a7778684a103a8a1", "lat": 38.887398166666664, "fusion_lon": 0.0, "fusion_lat": 0.0, "type": "electric_scooter", "name": "2fc2aec0cdf394b2a7778684a103a8a1", "is_disabled": 0, "rental_uris": {"ios": "https://dc.lft.to/lastmile_qr_scan", "android": "https://dc.lft.to/lastmile_qr_scan"}, "is_reserved": 0}, {"lon": -76.95895833333333, "bike_id": "961f01b9208d411eab8d6443ec93fc7d", "lat": 38.890079, "fusion_lon": 0.0, "fusion_lat": 0.0, "type": "electric_scooter", "name": "961f01b9208d411eab8d6443ec93fc7d", "is_disabled": 0, "rental_uris": {"ios": "https://dc.lft.to/lastmile_qr_scan", "android": "https://dc.lft.to/lastmile_qr_scan"}, "is_reserved": 0}, {"lon": -76.96359516666666, "bike_id": "291a801248d7ef0eca245f33215f8d0a", "lat": 38.93500366666667, "fusion_lon": 0.0, "fusion_lat": 0.0, "type": "electric_scooter", "name": "291a801248d7ef0eca245f33215f8d0a", "is_disabled": 0, "rental_uris": {"ios": "https://dc.lft.to/lastmile_qr_scan", "android": "https://dc.lft.to/lastmile_qr_scan"}, "is_reserved": 0}, {"lon": -77.0091965, "bike_id": "64c1e185058ce49a81ffe0e9abfed366", "lat": 38.827863, "fusion_lon": 0.0, "fusion_lat": 0.0, "type": "electric_bike", "name": "64c1e185058ce49a81ffe0e9abfed366", "is_disabled": 0, "rental_uris": {"ios": "https://dc.lft.to/lastmile_qr_scan", "android": "https://dc.lft.to/lastmile_qr_scan"}, "is_reserved": 0}, {"lon": -77.03822516666666, "bike_id": "303fa9bcdc3f2afd504b3ea7602900f7", "lat": 38.930977, "fusion_lon": 0.0, "fusion_lat": 0.0, "type": "electric_scooter", "name": "303fa9bcdc3f2afd504b3ea7602900f7", "is_disabled": 0, "rental_uris": {"ios": "https://dc.lft.to/lastmile_qr_scan", "android": "https://dc.lft.to/lastmile_qr_scan"}, "is_reserved": 0}, {"lon": -77.03519133333333, "bike_id": "db67bd5f1615ac7a174cd7143fa11c79", "lat": 38.92141916666667, "fusion_lon": 0.0, "fusion_lat": 0.0, "type": "electric_scooter", "name": "db67bd5f1615ac7a174cd7143fa11c79", "is_disabled": 0, "rental_uris": {"ios": "https://dc.lft.to/lastmile_qr_scan", "android": "https://dc.lft.to/lastmile_qr_scan"}, "is_reserved": 0}, {"lon": -77.03902283333333, "bike_id": "1cfa1da25365b6050ada56cc0a2b92bf", "lat": 38.9065755, "fusion_lon": 0.0, "fusion_lat": 0.0, "type": "electric_scooter", "name": "1cfa1da25365b6050ada56cc0a2b92bf", "is_disabled": 0, "rental_uris": {"ios": "https://dc.lft.to/lastmile_qr_scan", "android": "https://dc.lft.to/lastmile_qr_scan"}, "is_reserved": 0}, {"lon": -77.0211805, "bike_id": "89fadf38aa76419a161175ab512ce4d8", "lat": 38.9369915, "fusion_lon": 0.0, "fusion_lat": 0.0, "type": "electric_scooter", "name": "89fadf38aa76419a161175ab512ce4d8", "is_disabled": 0, "rental_uris": {"ios": "https://dc.lft.to/lastmile_qr_scan", "android": "https://dc.lft.to/lastmile_qr_scan"}, "is_reserved": 0}, {"lon": -77.04337066666666, "bike_id": "47bca07f5a2623222e883c674c749466", "lat": 38.892282333333334, "fusion_lon": 0.0, "fusion_lat": 0.0, "type": "electric_scooter", "name": "47bca07f5a2623222e883c674c749466", "is_disabled": 0, "rental_uris": {"ios": "https://dc.lft.to/lastmile_qr_scan", "android": "https://dc.lft.to/lastmile_qr_scan"}, "is_reserved": 0}, {"lon": -77.04693016666667, "bike_id": "986ef74d5b7f823e424ebd14fc91ec35", "lat": 38.892235666666664, "fusion_lon": 0.0, "fusion_lat": 0.0, "type": "electric_scooter", "name": "986ef74d5b7f823e424ebd14fc91ec35", "is_disabled": 0, "rental_uris": {"ios": "https://dc.lft.to/lastmile_qr_scan", "android": "https://dc.lft.to/lastmile_qr_scan"}, "is_reserved": 0}, {"lon": -77.04689833333333, "bike_id": "de1f6c21a8428d1fe97bbfde9845585f", "lat": 38.89221916666666, "fusion_lon": 0.0, "fusion_lat": 0.0, "type": "electric_scooter", "name": "de1f6c21a8428d1fe97bbfde9845585f", "is_disabled": 0, "rental_uris": {"ios": "https://dc.lft.to/lastmile_qr_scan", "android": "https://dc.lft.to/lastmile_qr_scan"}, "is_reserved": 0}, {"lon": -77.0241625, "bike_id": "767b6612dca2f2364082f1cf1419fe59", "lat": 38.904171, "fusion_lon": 0.0, "fusion_lat": 0.0, "type": "electric_scooter", "name": "767b6612dca2f2364082f1cf1419fe59", "is_disabled": 0, "rental_uris": {"ios": "https://dc.lft.to/lastmile_qr_scan", "android": "https://dc.lft.to/lastmile_qr_scan"}, "is_reserved": 0}, {"lon": -77.0302735, "bike_id": "1006d309758add4266ff3f2a93fb946f", "lat": 38.8997615, "fusion_lon": 0.0, "fusion_lat": 0.0, "type": "electric_scooter", "name": "1006d309758add4266ff3f2a93fb946f", "is_disabled": 0, "rental_uris": {"ios": "https://dc.lft.to/lastmile_qr_scan", "android": "https://dc.lft.to/lastmile_qr_scan"}, "is_reserved": 0}, {"lon": -77.0610325, "bike_id": "c278dca1c94e8a6deee01f77efb56b42", "lat": 38.93705683333334, "fusion_lon": 0.0, "fusion_lat": 0.0, "type": "electric_scooter", "name": "c278dca1c94e8a6deee01f77efb56b42", "is_disabled": 0, "rental_uris": {"ios": "https://dc.lft.to/lastmile_qr_scan", "android": "https://dc.lft.to/lastmile_qr_scan"}, "is_reserved": 0}, {"lon": -77.013043, "bike_id": "999aefc6ba2b7e2bff18c1e3f45616e5", "lat": 38.93028283333334, "fusion_lon": 0.0, "fusion_lat": 0.0, "type": "electric_scooter", "name": "999aefc6ba2b7e2bff18c1e3f45616e5", "is_disabled": 0, "rental_uris": {"ios": "https://dc.lft.to/lastmile_qr_scan", "android": "https://dc.lft.to/lastmile_qr_scan"}, "is_reserved": 0}, {"lon": -76.948867, "bike_id": "97db567219b088d19b6c7203abc05cc6", "lat": 38.8951125, "fusion_lon": 0.0, "fusion_lat": 0.0, "type": "electric_scooter", "name": "97db567219b088d19b6c7203abc05cc6", "is_disabled": 0, "rental_uris": {"ios": "https://dc.lft.to/lastmile_qr_scan", "android": "https://dc.lft.to/lastmile_qr_scan"}, "is_reserved": 0}, {"lon": -77.07771183333334, "bike_id": "0369979954894d15d6ff2c891d1fa44f", "lat": 38.9304355, "fusion_lon": 0.0, "fusion_lat": 0.0, "type": "electric_scooter", "name": "0369979954894d15d6ff2c891d1fa44f", "is_disabled": 0, "rental_uris": {"ios": "https://dc.lft.to/lastmile_qr_scan", "android": "https://dc.lft.to/lastmile_qr_scan"}, "is_reserved": 0}, {"lon": -77.040417, "bike_id": "e422bb9e7d876e883681a6947fc4218c", "lat": 38.92569433333333, "fusion_lon": 0.0, "fusion_lat": 0.0, "type": "electric_scooter", "name": "e422bb9e7d876e883681a6947fc4218c", "is_disabled": 0, "rental_uris": {"ios": "https://dc.lft.to/lastmile_qr_scan", "android": "https://dc.lft.to/lastmile_qr_scan"}, "is_reserved": 0}, {"lon": -77.03379116666666, "bike_id": "13cd1ea42699412d5cd02c97540fd74a", "lat": 38.9214375, "fusion_lon": 0.0, "fusion_lat": 0.0, "type": "electric_scooter", "name": "13cd1ea42699412d5cd02c97540fd74a", "is_disabled": 0, "rental_uris": {"ios": "https://dc.lft.to/lastmile_qr_scan", "android": "https://dc.lft.to/lastmile_qr_scan"}, "is_reserved": 0}, {"lon": -77.036669, "bike_id": "3865664bd8daeb1428ba10fb28defe00", "lat": 38.90468666666666, "fusion_lon": 0.0, "fusion_lat": 0.0, "type": "electric_scooter", "name": "3865664bd8daeb1428ba10fb28defe00", "is_disabled": 0, "rental_uris": {"ios": "https://dc.lft.to/lastmile_qr_scan", "android": "https://dc.lft.to/lastmile_qr_scan"}, "is_reserved": 0}, {"lon": -77.02714383333333, "bike_id": "f44060e63300c7ec8d211328d44a467b", "lat": 38.911399833333334, "fusion_lon": 0.0, "fusion_lat": 0.0, "type": "electric_scooter", "name": "f44060e63300c7ec8d211328d44a467b", "is_disabled": 0, "rental_uris": {"ios": "https://dc.lft.to/lastmile_qr_scan", "android": "https://dc.lft.to/lastmile_qr_scan"}, "is_reserved": 0}, {"lon": -77.021639, "bike_id": "ce36ef2ad1f1038c7a504922e80a2499", "lat": 38.926156666666664, "fusion_lon": 0.0, "fusion_lat": 0.0, "type": "electric_scooter", "name": "ce36ef2ad1f1038c7a504922e80a2499", "is_disabled": 0, "rental_uris": {"ios": "https://dc.lft.to/lastmile_qr_scan", "android": "https://dc.lft.to/lastmile_qr_scan"}, "is_reserved": 0}, {"lon": -77.03177966666667, "bike_id": "d4832ab6cceb97d3f8389a7229e09fe1", "lat": 38.91267933333334, "fusion_lon": 0.0, "fusion_lat": 0.0, "type": "electric_scooter", "name": "d4832ab6cceb97d3f8389a7229e09fe1", "is_disabled": 0, "rental_uris": {"ios": "https://dc.lft.to/lastmile_qr_scan", "android": "https://dc.lft.to/lastmile_qr_scan"}, "is_reserved": 0}, {"lon": -77.03410466666666, "bike_id": "e1d07c103a94b7e10876f65be6f9c488", "lat": 38.934237333333336, "fusion_lon": 0.0, "fusion_lat": 0.0, "type": "electric_scooter", "name": "e1d07c103a94b7e10876f65be6f9c488", "is_disabled": 0, "rental_uris": {"ios": "https://dc.lft.to/lastmile_qr_scan", "android": "https://dc.lft.to/lastmile_qr_scan"}, "is_reserved": 0}, {"lon": -77.04469, "bike_id": "60e7c4fee05aed6d5e484cb4331f48a8", "lat": 38.90063683333333, "fusion_lon": 0.0, "fusion_lat": 0.0, "type": "electric_scooter", "name": "60e7c4fee05aed6d5e484cb4331f48a8", "is_disabled": 0, "rental_uris": {"ios": "https://dc.lft.to/lastmile_qr_scan", "android": "https://dc.lft.to/lastmile_qr_scan"}, "is_reserved": 0}, {"lon": -77.04155933333334, "bike_id": "e8df18e1bb1c41d88ccd8d4b4f2a8b1f", "lat": 38.918128833333334, "fusion_lon": 0.0, "fusion_lat": 0.0, "type": "electric_scooter", "name": "e8df18e1bb1c41d88ccd8d4b4f2a8b1f", "is_disabled": 0, "rental_uris": {"ios": "https://dc.lft.to/lastmile_qr_scan", "android": "https://dc.lft.to/lastmile_qr_scan"}, "is_reserved": 0}, {"lon": -77.018547, "bike_id": "28f0d025c3d95c5c9bab5d224bc8191b", "lat": 38.94888683333333, "fusion_lon": 0.0, "fusion_lat": 0.0, "type": "electric_scooter", "name": "28f0d025c3d95c5c9bab5d224bc8191b", "is_disabled": 0, "rental_uris": {"ios": "https://dc.lft.to/lastmile_qr_scan", "android": "https://dc.lft.to/lastmile_qr_scan"}, "is_reserved": 0}, {"lon": -77.0347635, "bike_id": "42d401523718da528dcfbbb8a89f0b2b", "lat": 38.90729266666666, "fusion_lon": 0.0, "fusion_lat": 0.0, "type": "electric_scooter", "name": "42d401523718da528dcfbbb8a89f0b2b", "is_disabled": 0, "rental_uris": {"ios": "https://dc.lft.to/lastmile_qr_scan", "android": "https://dc.lft.to/lastmile_qr_scan"}, "is_reserved": 0}, {"lon": -77.04640333333333, "bike_id": "b459716c53953687eea881a850aa92a8", "lat": 38.9211175, "fusion_lon": 0.0, "fusion_lat": 0.0, "type": "electric_scooter", "name": "b459716c53953687eea881a850aa92a8", "is_disabled": 0, "rental_uris": {"ios": "https://dc.lft.to/lastmile_qr_scan", "android": "https://dc.lft.to/lastmile_qr_scan"}, "is_reserved": 0}, {"lon": -77.04679866666666, "bike_id": "35c1b4d6b63d169155644944412d242a", "lat": 38.89458483333333, "fusion_lon": 0.0, "fusion_lat": 0.0, "type": "electric_scooter", "name": "35c1b4d6b63d169155644944412d242a", "is_disabled": 0, "rental_uris": {"ios": "https://dc.lft.to/lastmile_qr_scan", "android": "https://dc.lft.to/lastmile_qr_scan"}, "is_reserved": 0}, {"lon": -77.026994, "bike_id": "4f21a5375cb11a7b7526efaf2c621c7a", "lat": 38.90624716666667, "fusion_lon": 0.0, "fusion_lat": 0.0, "type": "electric_scooter", "name": "4f21a5375cb11a7b7526efaf2c621c7a", "is_disabled": 0, "rental_uris": {"ios": "https://dc.lft.to/lastmile_qr_scan", "android": "https://dc.lft.to/lastmile_qr_scan"}, "is_reserved": 0}, {"lon": -77.04234583333333, "bike_id": "2c444f4f58f6041344202f99fbda7d9f", "lat": 38.9216475, "fusion_lon": 0.0, "fusion_lat": 0.0, "type": "electric_scooter", "name": "2c444f4f58f6041344202f99fbda7d9f", "is_disabled": 0, "rental_uris": {"ios": "https://dc.lft.to/lastmile_qr_scan", "android": "https://dc.lft.to/lastmile_qr_scan"}, "is_reserved": 0}, {"lon": -77.0351735, "bike_id": "1f58258c4503f416ad45d747f9f423a4", "lat": 38.927323333333334, "fusion_lon": 0.0, "fusion_lat": 0.0, "type": "electric_scooter", "name": "1f58258c4503f416ad45d747f9f423a4", "is_disabled": 0, "rental_uris": {"ios": "https://dc.lft.to/lastmile_qr_scan", "android": "https://dc.lft.to/lastmile_qr_scan"}, "is_reserved": 0}, {"lon": -77.0563835, "bike_id": "4eceef09b299b8f84cc57723e655dfb0", "lat": 38.92635683333334, "fusion_lon": 0.0, "fusion_lat": 0.0, "type": "electric_scooter", "name": "4eceef09b299b8f84cc57723e655dfb0", "is_disabled": 0, "rental_uris": {"ios": "https://dc.lft.to/lastmile_qr_scan", "android": "https://dc.lft.to/lastmile_qr_scan"}, "is_reserved": 0}, {"lon": -76.940236, "bike_id": "49ec1a012b684b00128859af7d186fb3", "lat": 38.9081865, "fusion_lon": 0.0, "fusion_lat": 0.0, "type": "electric_bike", "name": "49ec1a012b684b00128859af7d186fb3", "is_disabled": 0, "rental_uris": {"ios": "https://dc.lft.to/lastmile_qr_scan", "android": "https://dc.lft.to/lastmile_qr_scan"}, "is_reserved": 0}, {"lon": -77.03992333333333, "bike_id": "f63d1638e913d9e2929c6587033b8847", "lat": 38.907326, "fusion_lon": 0.0, "fusion_lat": 0.0, "type": "electric_scooter", "name": "f63d1638e913d9e2929c6587033b8847", "is_disabled": 0, "rental_uris": {"ios": "https://dc.lft.to/lastmile_qr_scan", "android": "https://dc.lft.to/lastmile_qr_scan"}, "is_reserved": 0}, {"lon": -77.02376433333333, "bike_id": "a2e9989466b31cb251bb6b789fcc03a3", "lat": 38.91702266666667, "fusion_lon": 0.0, "fusion_lat": 0.0, "type": "electric_scooter", "name": "a2e9989466b31cb251bb6b789fcc03a3", "is_disabled": 0, "rental_uris": {"ios": "https://dc.lft.to/lastmile_qr_scan", "android": "https://dc.lft.to/lastmile_qr_scan"}, "is_reserved": 0}, {"lon": -77.048751, "bike_id": "248e3ea9b1e8fff47a9bbafa3bf4087a", "lat": 38.89273216666667, "fusion_lon": 0.0, "fusion_lat": 0.0, "type": "electric_scooter", "name": "248e3ea9b1e8fff47a9bbafa3bf4087a", "is_disabled": 0, "rental_uris": {"ios": "https://dc.lft.to/lastmile_qr_scan", "android": "https://dc.lft.to/lastmile_qr_scan"}, "is_reserved": 0}, {"lon": -77.07241816666667, "bike_id": "8cee6fa3e636ec1f1213a526cb16ad59", "lat": 38.93414666666666, "fusion_lon": 0.0, "fusion_lat": 0.0, "type": "electric_scooter", "name": "8cee6fa3e636ec1f1213a526cb16ad59", "is_disabled": 0, "rental_uris": {"ios": "https://dc.lft.to/lastmile_qr_scan", "android": "https://dc.lft.to/lastmile_qr_scan"}, "is_reserved": 0}, {"lon": -77.0221465, "bike_id": "8f016ea029ecfbf1476990202b2da3f0", "lat": 38.900153333333336, "fusion_lon": 0.0, "fusion_lat": 0.0, "type": "electric_scooter", "name": "8f016ea029ecfbf1476990202b2da3f0", "is_disabled": 0, "rental_uris": {"ios": "https://dc.lft.to/lastmile_qr_scan", "android": "https://dc.lft.to/lastmile_qr_scan"}, "is_reserved": 0}, {"lon": -77.03633, "bike_id": "297859a4c839d2c924d2035b3d66595f", "lat": 38.944966666666666, "fusion_lon": 0.0, "fusion_lat": 0.0, "type": "electric_scooter", "name": "297859a4c839d2c924d2035b3d66595f", "is_disabled": 0, "rental_uris": {"ios": "https://dc.lft.to/lastmile_qr_scan", "android": "https://dc.lft.to/lastmile_qr_scan"}, "is_reserved": 0}, {"lon": -76.97306433333333, "bike_id": "48ee48079d9d08383f07bbfac672b7e5", "lat": 38.916451, "fusion_lon": 0.0, "fusion_lat": 0.0, "type": "electric_bike", "name": "48ee48079d9d08383f07bbfac672b7e5", "is_disabled": 0, "rental_uris": {"ios": "https://dc.lft.to/lastmile_qr_scan", "android": "https://dc.lft.to/lastmile_qr_scan"}, "is_reserved": 0}, {"lon": -77.0724355, "bike_id": "f4b86ca19d3efc752833906c1ef0d7e6", "lat": 38.93416066666666, "fusion_lon": 0.0, "fusion_lat": 0.0, "type": "electric_scooter", "name": "f4b86ca19d3efc752833906c1ef0d7e6", "is_disabled": 0, "rental_uris": {"ios": "https://dc.lft.to/lastmile_qr_scan", "android": "https://dc.lft.to/lastmile_qr_scan"}, "is_reserved": 0}, {"lon": -76.96523866666666, "bike_id": "c632aca98f3286f10ab3e34d228cfaf6", "lat": 38.87631533333333, "fusion_lon": 0.0, "fusion_lat": 0.0, "type": "electric_scooter", "name": "c632aca98f3286f10ab3e34d228cfaf6", "is_disabled": 0, "rental_uris": {"ios": "https://dc.lft.to/lastmile_qr_scan", "android": "https://dc.lft.to/lastmile_qr_scan"}, "is_reserved": 0}, {"lon": -77.02976916666667, "bike_id": "052d19dcc6b9ba304c862e3a56a7bb17", "lat": 38.91668166666667, "fusion_lon": 0.0, "fusion_lat": 0.0, "type": "electric_scooter", "name": "052d19dcc6b9ba304c862e3a56a7bb17", "is_disabled": 0, "rental_uris": {"ios": "https://dc.lft.to/lastmile_qr_scan", "android": "https://dc.lft.to/lastmile_qr_scan"}, "is_reserved": 0}, {"lon": -77.02175333333334, "bike_id": "76267caf9852f84e765ca1666b05288b", "lat": 38.942974166666666, "fusion_lon": 0.0, "fusion_lat": 0.0, "type": "electric_scooter", "name": "76267caf9852f84e765ca1666b05288b", "is_disabled": 0, "rental_uris": {"ios": "https://dc.lft.to/lastmile_qr_scan", "android": "https://dc.lft.to/lastmile_qr_scan"}, "is_reserved": 0}, {"lon": -77.0258845, "bike_id": "aa60cdc3fbcba2c2cdb052a3f25c7dd2", "lat": 38.892616833333335, "fusion_lon": 0.0, "fusion_lat": 0.0, "type": "electric_scooter", "name": "aa60cdc3fbcba2c2cdb052a3f25c7dd2", "is_disabled": 0, "rental_uris": {"ios": "https://dc.lft.to/lastmile_qr_scan", "android": "https://dc.lft.to/lastmile_qr_scan"}, "is_reserved": 0}, {"lon": -77.0236015, "bike_id": "73320705dd2bc05a9a1ada750c5a75b0", "lat": 38.884831166666665, "fusion_lon": 0.0, "fusion_lat": 0.0, "type": "electric_scooter", "name": "73320705dd2bc05a9a1ada750c5a75b0", "is_disabled": 0, "rental_uris": {"ios": "https://dc.lft.to/lastmile_qr_scan", "android": "https://dc.lft.to/lastmile_qr_scan"}, "is_reserved": 0}, {"lon": -77.0144535, "bike_id": "4bcf13d73836bd5ea80879ba36f7392f", "lat": 38.9207365, "fusion_lon": 0.0, "fusion_lat": 0.0, "type": "electric_scooter", "name": "4bcf13d73836bd5ea80879ba36f7392f", "is_disabled": 0, "rental_uris": {"ios": "https://dc.lft.to/lastmile_qr_scan", "android": "https://dc.lft.to/lastmile_qr_scan"}, "is_reserved": 0}, {"lon": -77.05180966666667, "bike_id": "9ef1ad016a49ac39d7f404caa67bd842", "lat": 38.9242515, "fusion_lon": 0.0, "fusion_lat": 0.0, "type": "electric_scooter", "name": "9ef1ad016a49ac39d7f404caa67bd842", "is_disabled": 0, "rental_uris": {"ios": "https://dc.lft.to/lastmile_qr_scan", "android": "https://dc.lft.to/lastmile_qr_scan"}, "is_reserved": 0}, {"lon": -77.06122783333333, "bike_id": "281adb01107ff1a392a799d749543683", "lat": 38.943631333333336, "fusion_lon": 0.0, "fusion_lat": 0.0, "type": "electric_scooter", "name": "281adb01107ff1a392a799d749543683", "is_disabled": 0, "rental_uris": {"ios": "https://dc.lft.to/lastmile_qr_scan", "android": "https://dc.lft.to/lastmile_qr_scan"}, "is_reserved": 0}, {"lon": -77.05609483333333, "bike_id": "56fc55e1efae283cb07efadd7c947296", "lat": 38.931649666666665, "fusion_lon": 0.0, "fusion_lat": 0.0, "type": "electric_scooter", "name": "56fc55e1efae283cb07efadd7c947296", "is_disabled": 0, "rental_uris": {"ios": "https://dc.lft.to/lastmile_qr_scan", "android": "https://dc.lft.to/lastmile_qr_scan"}, "is_reserved": 0}, {"lon": -76.983757, "bike_id": "72269bd6f849195202c56fea2e541aa6", "lat": 38.8896245, "fusion_lon": 0.0, "fusion_lat": 0.0, "type": "electric_scooter", "name": "72269bd6f849195202c56fea2e541aa6", "is_disabled": 0, "rental_uris": {"ios": "https://dc.lft.to/lastmile_qr_scan", "android": "https://dc.lft.to/lastmile_qr_scan"}, "is_reserved": 0}, {"lon": -77.03178033333333, "bike_id": "6f283afc0d36682189aa04f47165af45", "lat": 38.90366983333333, "fusion_lon": 0.0, "fusion_lat": 0.0, "type": "electric_scooter", "name": "6f283afc0d36682189aa04f47165af45", "is_disabled": 0, "rental_uris": {"ios": "https://dc.lft.to/lastmile_qr_scan", "android": "https://dc.lft.to/lastmile_qr_scan"}, "is_reserved": 0}, {"lon": -77.04243216666667, "bike_id": "92146870f9ba2c1094cc5689cc1d2fee", "lat": 38.91641383333334, "fusion_lon": 0.0, "fusion_lat": 0.0, "type": "electric_scooter", "name": "92146870f9ba2c1094cc5689cc1d2fee", "is_disabled": 0, "rental_uris": {"ios": "https://dc.lft.to/lastmile_qr_scan", "android": "https://dc.lft.to/lastmile_qr_scan"}, "is_reserved": 0}, {"lon": -76.98841433333334, "bike_id": "fa21270053d3ffdc5e076670aa45509a", "lat": 38.90070216666667, "fusion_lon": 0.0, "fusion_lat": 0.0, "type": "electric_scooter", "name": "fa21270053d3ffdc5e076670aa45509a", "is_disabled": 0, "rental_uris": {"ios": "https://dc.lft.to/lastmile_qr_scan", "android": "https://dc.lft.to/lastmile_qr_scan"}, "is_reserved": 0}, {"lon": -77.0334245, "bike_id": "66a56db92d2f391b5b291ec709511a50", "lat": 38.919151, "fusion_lon": 0.0, "fusion_lat": 0.0, "type": "electric_scooter", "name": "66a56db92d2f391b5b291ec709511a50", "is_disabled": 0, "rental_uris": {"ios": "https://dc.lft.to/lastmile_qr_scan", "android": "https://dc.lft.to/lastmile_qr_scan"}, "is_reserved": 0}, {"lon": -76.994766, "bike_id": "b57a3efe817051aa9c1ac60629b323b6", "lat": 38.862177, "fusion_lon": 0.0, "fusion_lat": 0.0, "type": "electric_scooter", "name": "b57a3efe817051aa9c1ac60629b323b6", "is_disabled": 0, "rental_uris": {"ios": "https://dc.lft.to/lastmile_qr_scan", "android": "https://dc.lft.to/lastmile_qr_scan"}, "is_reserved": 0}, {"lon": -77.021016, "bike_id": "019b9f31c5bd2f81240f1df91b90a05f", "lat": 38.922178333333335, "fusion_lon": 0.0, "fusion_lat": 0.0, "type": "electric_scooter", "name": "019b9f31c5bd2f81240f1df91b90a05f", "is_disabled": 0, "rental_uris": {"ios": "https://dc.lft.to/lastmile_qr_scan", "android": "https://dc.lft.to/lastmile_qr_scan"}, "is_reserved": 0}, {"lon": -77.03384433333333, "bike_id": "3bbae1ac7ccb1bcd6c3578d6d7125572", "lat": 38.921598333333336, "fusion_lon": 0.0, "fusion_lat": 0.0, "type": "electric_scooter", "name": "3bbae1ac7ccb1bcd6c3578d6d7125572", "is_disabled": 0, "rental_uris": {"ios": "https://dc.lft.to/lastmile_qr_scan", "android": "https://dc.lft.to/lastmile_qr_scan"}, "is_reserved": 0}, {"lon": -76.99601866666667, "bike_id": "56ee68506af25b5f0fd8e675a7db375d", "lat": 38.884257, "fusion_lon": 0.0, "fusion_lat": 0.0, "type": "electric_scooter", "name": "56ee68506af25b5f0fd8e675a7db375d", "is_disabled": 0, "rental_uris": {"ios": "https://dc.lft.to/lastmile_qr_scan", "android": "https://dc.lft.to/lastmile_qr_scan"}, "is_reserved": 0}, {"lon": -77.01926783333333, "bike_id": "6c271655d6d08929a7aca7856c8e2ab9", "lat": 38.9221675, "fusion_lon": 0.0, "fusion_lat": 0.0, "type": "electric_scooter", "name": "6c271655d6d08929a7aca7856c8e2ab9", "is_disabled": 0, "rental_uris": {"ios": "https://dc.lft.to/lastmile_qr_scan", "android": "https://dc.lft.to/lastmile_qr_scan"}, "is_reserved": 0}, {"lon": -77.03182083333333, "bike_id": "30f360bb65c36f33d11fb4a1bfee1156", "lat": 38.887388666666666, "fusion_lon": 0.0, "fusion_lat": 0.0, "type": "electric_scooter", "name": "30f360bb65c36f33d11fb4a1bfee1156", "is_disabled": 0, "rental_uris": {"ios": "https://dc.lft.to/lastmile_qr_scan", "android": "https://dc.lft.to/lastmile_qr_scan"}, "is_reserved": 0}, {"lon": -77.007791, "bike_id": "9581b98d602a5654eb2acb6027a6838e", "lat": 38.8973355, "fusion_lon": 0.0, "fusion_lat": 0.0, "type": "electric_scooter", "name": "9581b98d602a5654eb2acb6027a6838e", "is_disabled": 0, "rental_uris": {"ios": "https://dc.lft.to/lastmile_qr_scan", "android": "https://dc.lft.to/lastmile_qr_scan"}, "is_reserved": 0}, {"lon": -77.03207233333333, "bike_id": "c1de71cab024528a1d68ff3e7f7251c2", "lat": 38.91629266666666, "fusion_lon": 0.0, "fusion_lat": 0.0, "type": "electric_scooter", "name": "c1de71cab024528a1d68ff3e7f7251c2", "is_disabled": 0, "rental_uris": {"ios": "https://dc.lft.to/lastmile_qr_scan", "android": "https://dc.lft.to/lastmile_qr_scan"}, "is_reserved": 0}, {"lon": -77.13101566666667, "bike_id": "8c79a488a517365c56f499b65fb2df9b", "lat": 39.024353, "fusion_lon": 0.0, "fusion_lat": 0.0, "type": "electric_bike", "name": "8c79a488a517365c56f499b65fb2df9b", "is_disabled": 0, "rental_uris": {"ios": "https://dc.lft.to/lastmile_qr_scan", "android": "https://dc.lft.to/lastmile_qr_scan"}, "is_reserved": 0}, {"lon": -77.038377, "bike_id": "cf593ac739f5df7f5e3ab136e1a0a948", "lat": 38.90285333333333, "fusion_lon": 0.0, "fusion_lat": 0.0, "type": "electric_scooter", "name": "cf593ac739f5df7f5e3ab136e1a0a948", "is_disabled": 0, "rental_uris": {"ios": "https://dc.lft.to/lastmile_qr_scan", "android": "https://dc.lft.to/lastmile_qr_scan"}, "is_reserved": 0}, {"lon": -77.09075033333333, "bike_id": "526c8a9e339679c6460aef4ed7ce9995", "lat": 38.978548333333336, "fusion_lon": 0.0, "fusion_lat": 0.0, "type": "electric_bike", "name": "526c8a9e339679c6460aef4ed7ce9995", "is_disabled": 0, "rental_uris": {"ios": "https://dc.lft.to/lastmile_qr_scan", "android": "https://dc.lft.to/lastmile_qr_scan"}, "is_reserved": 0}, {"lon": -77.0394325, "bike_id": "bba9dd4c51af1319c5bf86c2cdd82b06", "lat": 38.908203, "fusion_lon": 0.0, "fusion_lat": 0.0, "type": "electric_scooter", "name": "bba9dd4c51af1319c5bf86c2cdd82b06", "is_disabled": 0, "rental_uris": {"ios": "https://dc.lft.to/lastmile_qr_scan", "android": "https://dc.lft.to/lastmile_qr_scan"}, "is_reserved": 0}, {"lon": -77.03498316666666, "bike_id": "e8aa678da62850202eaf4a2c8aa98054", "lat": 38.917097, "fusion_lon": 0.0, "fusion_lat": 0.0, "type": "electric_scooter", "name": "e8aa678da62850202eaf4a2c8aa98054", "is_disabled": 0, "rental_uris": {"ios": "https://dc.lft.to/lastmile_qr_scan", "android": "https://dc.lft.to/lastmile_qr_scan"}, "is_reserved": 0}, {"lon": -77.03306016666667, "bike_id": "b628a22acb7d06749f22c90cc88940e3", "lat": 38.90384316666667, "fusion_lon": 0.0, "fusion_lat": 0.0, "type": "electric_scooter", "name": "b628a22acb7d06749f22c90cc88940e3", "is_disabled": 0, "rental_uris": {"ios": "https://dc.lft.to/lastmile_qr_scan", "android": "https://dc.lft.to/lastmile_qr_scan"}, "is_reserved": 0}, {"lon": -77.02223683333334, "bike_id": "81d1dbaa044e20e27f024718309a8dea", "lat": 38.9246625, "fusion_lon": 0.0, "fusion_lat": 0.0, "type": "electric_scooter", "name": "81d1dbaa044e20e27f024718309a8dea", "is_disabled": 0, "rental_uris": {"ios": "https://dc.lft.to/lastmile_qr_scan", "android": "https://dc.lft.to/lastmile_qr_scan"}, "is_reserved": 0}, {"lon": -77.06783183333333, "bike_id": "7d802e8cf676017e952339ae003d64dd", "lat": 38.90457, "fusion_lon": 0.0, "fusion_lat": 0.0, "type": "electric_scooter", "name": "7d802e8cf676017e952339ae003d64dd", "is_disabled": 0, "rental_uris": {"ios": "https://dc.lft.to/lastmile_qr_scan", "android": "https://dc.lft.to/lastmile_qr_scan"}, "is_reserved": 0}, {"lon": -77.0464495, "bike_id": "df620eabc0bdd0ac30d860d048c719b6", "lat": 38.892222333333336, "fusion_lon": 0.0, "fusion_lat": 0.0, "type": "electric_scooter", "name": "df620eabc0bdd0ac30d860d048c719b6", "is_disabled": 0, "rental_uris": {"ios": "https://dc.lft.to/lastmile_qr_scan", "android": "https://dc.lft.to/lastmile_qr_scan"}, "is_reserved": 0}, {"lon": -77.021648, "bike_id": "c43780183d62f58584f1d004337f22ef", "lat": 38.897223833333335, "fusion_lon": 0.0, "fusion_lat": 0.0, "type": "electric_scooter", "name": "c43780183d62f58584f1d004337f22ef", "is_disabled": 0, "rental_uris": {"ios": "https://dc.lft.to/lastmile_qr_scan", "android": "https://dc.lft.to/lastmile_qr_scan"}, "is_reserved": 0}, {"lon": -77.02193516666667, "bike_id": "cdc742527d4eecdeb834fd2d458fd933", "lat": 38.910089, "fusion_lon": 0.0, "fusion_lat": 0.0, "type": "electric_scooter", "name": "cdc742527d4eecdeb834fd2d458fd933", "is_disabled": 0, "rental_uris": {"ios": "https://dc.lft.to/lastmile_qr_scan", "android": "https://dc.lft.to/lastmile_qr_scan"}, "is_reserved": 0}, {"lon": -77.03173883333334, "bike_id": "9f0762fb09c6ef5e7f19f9eb054443f4", "lat": 38.901041666666664, "fusion_lon": 0.0, "fusion_lat": 0.0, "type": "electric_scooter", "name": "9f0762fb09c6ef5e7f19f9eb054443f4", "is_disabled": 0, "rental_uris": {"ios": "https://dc.lft.to/lastmile_qr_scan", "android": "https://dc.lft.to/lastmile_qr_scan"}, "is_reserved": 0}, {"lon": -77.02205616666667, "bike_id": "6fe89a9dbb1623e302386c7f166513fa", "lat": 38.89294133333333, "fusion_lon": 0.0, "fusion_lat": 0.0, "type": "electric_scooter", "name": "6fe89a9dbb1623e302386c7f166513fa", "is_disabled": 0, "rental_uris": {"ios": "https://dc.lft.to/lastmile_qr_scan", "android": "https://dc.lft.to/lastmile_qr_scan"}, "is_reserved": 0}, {"lon": -77.02588333333334, "bike_id": "8a3347ce6b86cd0f50f676a76b0241c0", "lat": 38.94200933333333, "fusion_lon": 0.0, "fusion_lat": 0.0, "type": "electric_scooter", "name": "8a3347ce6b86cd0f50f676a76b0241c0", "is_disabled": 0, "rental_uris": {"ios": "https://dc.lft.to/lastmile_qr_scan", "android": "https://dc.lft.to/lastmile_qr_scan"}, "is_reserved": 0}, {"lon": -76.98838033333334, "bike_id": "aebbd7bf5db9c73e7df9255f7043254d", "lat": 38.90096416666667, "fusion_lon": 0.0, "fusion_lat": 0.0, "type": "electric_scooter", "name": "aebbd7bf5db9c73e7df9255f7043254d", "is_disabled": 0, "rental_uris": {"ios": "https://dc.lft.to/lastmile_qr_scan", "android": "https://dc.lft.to/lastmile_qr_scan"}, "is_reserved": 0}, {"lon": -77.03184433333334, "bike_id": "d43f4b45286662239cf7f7aaad5b20d9", "lat": 38.89629016666667, "fusion_lon": 0.0, "fusion_lat": 0.0, "type": "electric_scooter", "name": "d43f4b45286662239cf7f7aaad5b20d9", "is_disabled": 0, "rental_uris": {"ios": "https://dc.lft.to/lastmile_qr_scan", "android": "https://dc.lft.to/lastmile_qr_scan"}, "is_reserved": 0}, {"lon": -77.05935166666667, "bike_id": "cf2da3148ad1f6d3c216296a3fd25b03", "lat": 38.90530166666667, "fusion_lon": 0.0, "fusion_lat": 0.0, "type": "electric_bike", "name": "cf2da3148ad1f6d3c216296a3fd25b03", "is_disabled": 0, "rental_uris": {"ios": "https://dc.lft.to/lastmile_qr_scan", "android": "https://dc.lft.to/lastmile_qr_scan"}, "is_reserved": 0}, {"lon": -77.0272155, "bike_id": "0ba501ec537b91161e51df8b2d97aa86", "lat": 38.896470666666666, "fusion_lon": 0.0, "fusion_lat": 0.0, "type": "electric_scooter", "name": "0ba501ec537b91161e51df8b2d97aa86", "is_disabled": 0, "rental_uris": {"ios": "https://dc.lft.to/lastmile_qr_scan", "android": "https://dc.lft.to/lastmile_qr_scan"}, "is_reserved": 0}, {"lon": -77.03394616666667, "bike_id": "ab5be5a7707a35b2b34b7e6e00bdc202", "lat": 38.902688, "fusion_lon": 0.0, "fusion_lat": 0.0, "type": "electric_scooter", "name": "ab5be5a7707a35b2b34b7e6e00bdc202", "is_disabled": 0, "rental_uris": {"ios": "https://dc.lft.to/lastmile_qr_scan", "android": "https://dc.lft.to/lastmile_qr_scan"}, "is_reserved": 0}, {"lon": -77.0340535, "bike_id": "97a717e2df92af30a6805a0060441ba7", "lat": 38.9227225, "fusion_lon": 0.0, "fusion_lat": 0.0, "type": "electric_scooter", "name": "97a717e2df92af30a6805a0060441ba7", "is_disabled": 0, "rental_uris": {"ios": "https://dc.lft.to/lastmile_qr_scan", "android": "https://dc.lft.to/lastmile_qr_scan"}, "is_reserved": 0}, {"lon": -77.04600833333333, "bike_id": "60e4fd24ce261449216b7f67657be329", "lat": 38.9022635, "fusion_lon": 0.0, "fusion_lat": 0.0, "type": "electric_scooter", "name": "60e4fd24ce261449216b7f67657be329", "is_disabled": 0, "rental_uris": {"ios": "https://dc.lft.to/lastmile_qr_scan", "android": "https://dc.lft.to/lastmile_qr_scan"}, "is_reserved": 0}, {"lon": -77.03217883333333, "bike_id": "3bd69a0f010f3deb73e444be8a9bfa1e", "lat": 38.90731233333333, "fusion_lon": 0.0, "fusion_lat": 0.0, "type": "electric_scooter", "name": "3bd69a0f010f3deb73e444be8a9bfa1e", "is_disabled": 0, "rental_uris": {"ios": "https://dc.lft.to/lastmile_qr_scan", "android": "https://dc.lft.to/lastmile_qr_scan"}, "is_reserved": 0}, {"lon": -76.99939966666666, "bike_id": "840c0e89a274b3fe53b54a73a6f8607a", "lat": 38.91927616666667, "fusion_lon": 0.0, "fusion_lat": 0.0, "type": "electric_scooter", "name": "840c0e89a274b3fe53b54a73a6f8607a", "is_disabled": 0, "rental_uris": {"ios": "https://dc.lft.to/lastmile_qr_scan", "android": "https://dc.lft.to/lastmile_qr_scan"}, "is_reserved": 0}, {"lon": -77.021649, "bike_id": "dff1730d57063baab0bb9579b0eaea0b", "lat": 38.926133666666665, "fusion_lon": 0.0, "fusion_lat": 0.0, "type": "electric_scooter", "name": "dff1730d57063baab0bb9579b0eaea0b", "is_disabled": 0, "rental_uris": {"ios": "https://dc.lft.to/lastmile_qr_scan", "android": "https://dc.lft.to/lastmile_qr_scan"}, "is_reserved": 0}, {"lon": -77.00227433333333, "bike_id": "2daca1089fe52ed39881a64b19696b29", "lat": 38.925111, "fusion_lon": 0.0, "fusion_lat": 0.0, "type": "electric_scooter", "name": "2daca1089fe52ed39881a64b19696b29", "is_disabled": 0, "rental_uris": {"ios": "https://dc.lft.to/lastmile_qr_scan", "android": "https://dc.lft.to/lastmile_qr_scan"}, "is_reserved": 0}, {"lon": -76.99365483333334, "bike_id": "0131d5740383dab872b42590df7c3972", "lat": 38.893832, "fusion_lon": 0.0, "fusion_lat": 0.0, "type": "electric_scooter", "name": "0131d5740383dab872b42590df7c3972", "is_disabled": 0, "rental_uris": {"ios": "https://dc.lft.to/lastmile_qr_scan", "android": "https://dc.lft.to/lastmile_qr_scan"}, "is_reserved": 0}, {"lon": -77.04658883333333, "bike_id": "8b0b10aac574c4c757d5ec502ad999f8", "lat": 38.91555533333333, "fusion_lon": 0.0, "fusion_lat": 0.0, "type": "electric_scooter", "name": "8b0b10aac574c4c757d5ec502ad999f8", "is_disabled": 0, "rental_uris": {"ios": "https://dc.lft.to/lastmile_qr_scan", "android": "https://dc.lft.to/lastmile_qr_scan"}, "is_reserved": 0}, {"lon": -77.03444483333334, "bike_id": "48189dfb5a030160204b3c875d0cf7e2", "lat": 38.909785666666664, "fusion_lon": 0.0, "fusion_lat": 0.0, "type": "electric_scooter", "name": "48189dfb5a030160204b3c875d0cf7e2", "is_disabled": 0, "rental_uris": {"ios": "https://dc.lft.to/lastmile_qr_scan", "android": "https://dc.lft.to/lastmile_qr_scan"}, "is_reserved": 0}, {"lon": -77.03874183333333, "bike_id": "af92f87294dc4c31552ef3f1e016c30b", "lat": 38.902705, "fusion_lon": 0.0, "fusion_lat": 0.0, "type": "electric_scooter", "name": "af92f87294dc4c31552ef3f1e016c30b", "is_disabled": 0, "rental_uris": {"ios": "https://dc.lft.to/lastmile_qr_scan", "android": "https://dc.lft.to/lastmile_qr_scan"}, "is_reserved": 0}, {"lon": -77.045401, "bike_id": "367533ae2ba2bb562ddfea4712d827bc", "lat": 38.913160500000004, "fusion_lon": 0.0, "fusion_lat": 0.0, "type": "electric_scooter", "name": "367533ae2ba2bb562ddfea4712d827bc", "is_disabled": 0, "rental_uris": {"ios": "https://dc.lft.to/lastmile_qr_scan", "android": "https://dc.lft.to/lastmile_qr_scan"}, "is_reserved": 0}, {"lon": -77.03101733333334, "bike_id": "7f893d043b84b359c9ec2f981e4b25f4", "lat": 38.90070733333334, "fusion_lon": 0.0, "fusion_lat": 0.0, "type": "electric_scooter", "name": "7f893d043b84b359c9ec2f981e4b25f4", "is_disabled": 0, "rental_uris": {"ios": "https://dc.lft.to/lastmile_qr_scan", "android": "https://dc.lft.to/lastmile_qr_scan"}, "is_reserved": 0}, {"lon": -77.02772283333333, "bike_id": "a2e5cf03cc05d93ec86d337303f39526", "lat": 38.89221083333333, "fusion_lon": 0.0, "fusion_lat": 0.0, "type": "electric_scooter", "name": "a2e5cf03cc05d93ec86d337303f39526", "is_disabled": 0, "rental_uris": {"ios": "https://dc.lft.to/lastmile_qr_scan", "android": "https://dc.lft.to/lastmile_qr_scan"}, "is_reserved": 0}, {"lon": -77.00064666666667, "bike_id": "dd0d6cfeb9b14d6bf94ccf292c48da09", "lat": 38.90083933333333, "fusion_lon": 0.0, "fusion_lat": 0.0, "type": "electric_scooter", "name": "dd0d6cfeb9b14d6bf94ccf292c48da09", "is_disabled": 0, "rental_uris": {"ios": "https://dc.lft.to/lastmile_qr_scan", "android": "https://dc.lft.to/lastmile_qr_scan"}, "is_reserved": 0}, {"lon": -76.99057316666666, "bike_id": "546e13b6e0ce5a6c9f9d970016355616", "lat": 38.863783833333336, "fusion_lon": 0.0, "fusion_lat": 0.0, "type": "electric_scooter", "name": "546e13b6e0ce5a6c9f9d970016355616", "is_disabled": 0, "rental_uris": {"ios": "https://dc.lft.to/lastmile_qr_scan", "android": "https://dc.lft.to/lastmile_qr_scan"}, "is_reserved": 0}, {"lon": -77.04658483333333, "bike_id": "9aa3ee4ade618568ab09123699da98bb", "lat": 38.90464733333334, "fusion_lon": 0.0, "fusion_lat": 0.0, "type": "electric_scooter", "name": "9aa3ee4ade618568ab09123699da98bb", "is_disabled": 0, "rental_uris": {"ios": "https://dc.lft.to/lastmile_qr_scan", "android": "https://dc.lft.to/lastmile_qr_scan"}, "is_reserved": 0}, {"lon": -77.03216516666667, "bike_id": "2c8fa02f2235b4e93f75c9f1c4b6c66f", "lat": 38.912674333333335, "fusion_lon": 0.0, "fusion_lat": 0.0, "type": "electric_scooter", "name": "2c8fa02f2235b4e93f75c9f1c4b6c66f", "is_disabled": 0, "rental_uris": {"ios": "https://dc.lft.to/lastmile_qr_scan", "android": "https://dc.lft.to/lastmile_qr_scan"}, "is_reserved": 0}, {"lon": -76.94885633333334, "bike_id": "d323958bb53f7a187f765144096289b1", "lat": 38.8942515, "fusion_lon": 0.0, "fusion_lat": 0.0, "type": "electric_scooter", "name": "d323958bb53f7a187f765144096289b1", "is_disabled": 0, "rental_uris": {"ios": "https://dc.lft.to/lastmile_qr_scan", "android": "https://dc.lft.to/lastmile_qr_scan"}, "is_reserved": 0}, {"lon": -77.01986016666666, "bike_id": "07f87cbaa211e13a4a1190d052b5da16", "lat": 38.925476, "fusion_lon": 0.0, "fusion_lat": 0.0, "type": "electric_bike", "name": "07f87cbaa211e13a4a1190d052b5da16", "is_disabled": 0, "rental_uris": {"ios": "https://dc.lft.to/lastmile_qr_scan", "android": "https://dc.lft.to/lastmile_qr_scan"}, "is_reserved": 0}, {"lon": -77.11460183333334, "bike_id": "0e67ba0bccf16504e59fe01ace9280fa", "lat": 38.88260266666666, "fusion_lon": 0.0, "fusion_lat": 0.0, "type": "electric_bike", "name": "0e67ba0bccf16504e59fe01ace9280fa", "is_disabled": 0, "rental_uris": {"ios": "https://dc.lft.to/lastmile_qr_scan", "android": "https://dc.lft.to/lastmile_qr_scan"}, "is_reserved": 0}, {"lon": -77.04331766666667, "bike_id": "5bb6721074da032d5c8cde372d9b18d7", "lat": 38.902643166666664, "fusion_lon": 0.0, "fusion_lat": 0.0, "type": "electric_scooter", "name": "5bb6721074da032d5c8cde372d9b18d7", "is_disabled": 0, "rental_uris": {"ios": "https://dc.lft.to/lastmile_qr_scan", "android": "https://dc.lft.to/lastmile_qr_scan"}, "is_reserved": 0}, {"lon": -77.03868616666666, "bike_id": "bbd722e7d677f735be22a2c4b8975228", "lat": 38.90268733333333, "fusion_lon": 0.0, "fusion_lat": 0.0, "type": "electric_scooter", "name": "bbd722e7d677f735be22a2c4b8975228", "is_disabled": 0, "rental_uris": {"ios": "https://dc.lft.to/lastmile_qr_scan", "android": "https://dc.lft.to/lastmile_qr_scan"}, "is_reserved": 0}, {"lon": -77.02055166666666, "bike_id": "df8e18db9d59cd8877353b8db4a43d1a", "lat": 38.95753783333333, "fusion_lon": 0.0, "fusion_lat": 0.0, "type": "electric_bike", "name": "df8e18db9d59cd8877353b8db4a43d1a", "is_disabled": 0, "rental_uris": {"ios": "https://dc.lft.to/lastmile_qr_scan", "android": "https://dc.lft.to/lastmile_qr_scan"}, "is_reserved": 0}, {"lon": -77.04522416666667, "bike_id": "0e103eb293ff39f888b58df89a8ce9ba", "lat": 38.93533883333333, "fusion_lon": 0.0, "fusion_lat": 0.0, "type": "electric_scooter", "name": "0e103eb293ff39f888b58df89a8ce9ba", "is_disabled": 0, "rental_uris": {"ios": "https://dc.lft.to/lastmile_qr_scan", "android": "https://dc.lft.to/lastmile_qr_scan"}, "is_reserved": 0}, {"lon": -77.04171333333333, "bike_id": "df20ebf099b3a9b86806dd63ff552cf2", "lat": 38.90556616666667, "fusion_lon": 0.0, "fusion_lat": 0.0, "type": "electric_scooter", "name": "df20ebf099b3a9b86806dd63ff552cf2", "is_disabled": 0, "rental_uris": {"ios": "https://dc.lft.to/lastmile_qr_scan", "android": "https://dc.lft.to/lastmile_qr_scan"}, "is_reserved": 0}, {"lon": -77.05372783333334, "bike_id": "d3a0e58a59df97d9854e6b97227c29eb", "lat": 38.9275845, "fusion_lon": 0.0, "fusion_lat": 0.0, "type": "electric_scooter", "name": "d3a0e58a59df97d9854e6b97227c29eb", "is_disabled": 0, "rental_uris": {"ios": "https://dc.lft.to/lastmile_qr_scan", "android": "https://dc.lft.to/lastmile_qr_scan"}, "is_reserved": 0}, {"lon": -77.0344315, "bike_id": "4d63bd28b4ae29ada94f4402609707df", "lat": 38.902493666666665, "fusion_lon": 0.0, "fusion_lat": 0.0, "type": "electric_scooter", "name": "4d63bd28b4ae29ada94f4402609707df", "is_disabled": 0, "rental_uris": {"ios": "https://dc.lft.to/lastmile_qr_scan", "android": "https://dc.lft.to/lastmile_qr_scan"}, "is_reserved": 0}, {"lon": -76.991987, "bike_id": "3b61c73d7f0daaeeac1c11c855af6543", "lat": 38.862860833333336, "fusion_lon": 0.0, "fusion_lat": 0.0, "type": "electric_scooter", "name": "3b61c73d7f0daaeeac1c11c855af6543", "is_disabled": 0, "rental_uris": {"ios": "https://dc.lft.to/lastmile_qr_scan", "android": "https://dc.lft.to/lastmile_qr_scan"}, "is_reserved": 0}, {"lon": -77.04161433333333, "bike_id": "27b2b583f2d736dafc9ac0b04b6f68c8", "lat": 38.89583116666667, "fusion_lon": 0.0, "fusion_lat": 0.0, "type": "electric_bike", "name": "27b2b583f2d736dafc9ac0b04b6f68c8", "is_disabled": 0, "rental_uris": {"ios": "https://dc.lft.to/lastmile_qr_scan", "android": "https://dc.lft.to/lastmile_qr_scan"}, "is_reserved": 0}, {"lon": -77.04505583333334, "bike_id": "26008b196f240de4027155013bfedf8c", "lat": 38.89782983333333, "fusion_lon": 0.0, "fusion_lat": 0.0, "type": "electric_scooter", "name": "26008b196f240de4027155013bfedf8c", "is_disabled": 0, "rental_uris": {"ios": "https://dc.lft.to/lastmile_qr_scan", "android": "https://dc.lft.to/lastmile_qr_scan"}, "is_reserved": 0}, {"lon": -77.0449405, "bike_id": "cd008809460dce66db6c4bb43d17bba3", "lat": 38.91427916666667, "fusion_lon": 0.0, "fusion_lat": 0.0, "type": "electric_scooter", "name": "cd008809460dce66db6c4bb43d17bba3", "is_disabled": 0, "rental_uris": {"ios": "https://dc.lft.to/lastmile_qr_scan", "android": "https://dc.lft.to/lastmile_qr_scan"}, "is_reserved": 0}, {"lon": -77.02093183333334, "bike_id": "c29435b39fcd6f9e0a89edd8e2343cef", "lat": 38.921542, "fusion_lon": 0.0, "fusion_lat": 0.0, "type": "electric_scooter", "name": "c29435b39fcd6f9e0a89edd8e2343cef", "is_disabled": 0, "rental_uris": {"ios": "https://dc.lft.to/lastmile_qr_scan", "android": "https://dc.lft.to/lastmile_qr_scan"}, "is_reserved": 0}, {"lon": -76.98713783333334, "bike_id": "ed239b889bc949b1a8292d1fa0db98dc", "lat": 38.867018, "fusion_lon": 0.0, "fusion_lat": 0.0, "type": "electric_scooter", "name": "ed239b889bc949b1a8292d1fa0db98dc", "is_disabled": 0, "rental_uris": {"ios": "https://dc.lft.to/lastmile_qr_scan", "android": "https://dc.lft.to/lastmile_qr_scan"}, "is_reserved": 0}, {"lon": -77.0259195, "bike_id": "fd37ef31e6d3a2db5f19e5a9b513f84a", "lat": 38.9639745, "fusion_lon": 0.0, "fusion_lat": 0.0, "type": "electric_scooter", "name": "fd37ef31e6d3a2db5f19e5a9b513f84a", "is_disabled": 0, "rental_uris": {"ios": "https://dc.lft.to/lastmile_qr_scan", "android": "https://dc.lft.to/lastmile_qr_scan"}, "is_reserved": 0}, {"lon": -77.0297875, "bike_id": "10460e6487bb89c759d0194e1385b9f9", "lat": 38.928762166666665, "fusion_lon": 0.0, "fusion_lat": 0.0, "type": "electric_scooter", "name": "10460e6487bb89c759d0194e1385b9f9", "is_disabled": 0, "rental_uris": {"ios": "https://dc.lft.to/lastmile_qr_scan", "android": "https://dc.lft.to/lastmile_qr_scan"}, "is_reserved": 0}, {"lon": -77.032816, "bike_id": "86ed74b59b4672bdd0cfddd875762800", "lat": 38.91996016666667, "fusion_lon": 0.0, "fusion_lat": 0.0, "type": "electric_scooter", "name": "86ed74b59b4672bdd0cfddd875762800", "is_disabled": 0, "rental_uris": {"ios": "https://dc.lft.to/lastmile_qr_scan", "android": "https://dc.lft.to/lastmile_qr_scan"}, "is_reserved": 0}, {"lon": -76.937328, "bike_id": "6644deb32bb22a0988161c6eb5935f0a", "lat": 38.8901465, "fusion_lon": 0.0, "fusion_lat": 0.0, "type": "electric_scooter", "name": "6644deb32bb22a0988161c6eb5935f0a", "is_disabled": 0, "rental_uris": {"ios": "https://dc.lft.to/lastmile_qr_scan", "android": "https://dc.lft.to/lastmile_qr_scan"}, "is_reserved": 0}, {"lon": -77.04514616666667, "bike_id": "44ab7d513c662a38ed0a663bc67e488c", "lat": 38.903756666666666, "fusion_lon": 0.0, "fusion_lat": 0.0, "type": "electric_scooter", "name": "44ab7d513c662a38ed0a663bc67e488c", "is_disabled": 0, "rental_uris": {"ios": "https://dc.lft.to/lastmile_qr_scan", "android": "https://dc.lft.to/lastmile_qr_scan"}, "is_reserved": 0}, {"lon": -77.03173166666667, "bike_id": "282d7e253ab94ad0b4ebcf581945580c", "lat": 38.89353833333333, "fusion_lon": 0.0, "fusion_lat": 0.0, "type": "electric_scooter", "name": "282d7e253ab94ad0b4ebcf581945580c", "is_disabled": 0, "rental_uris": {"ios": "https://dc.lft.to/lastmile_qr_scan", "android": "https://dc.lft.to/lastmile_qr_scan"}, "is_reserved": 0}, {"lon": -76.98230416666667, "bike_id": "86952c28a69748e76dc8f73d29248c8c", "lat": 38.8689455, "fusion_lon": 0.0, "fusion_lat": 0.0, "type": "electric_scooter", "name": "86952c28a69748e76dc8f73d29248c8c", "is_disabled": 0, "rental_uris": {"ios": "https://dc.lft.to/lastmile_qr_scan", "android": "https://dc.lft.to/lastmile_qr_scan"}, "is_reserved": 0}, {"lon": -77.01052083333333, "bike_id": "d5ea853daaacd4d884d2a028610f1edc", "lat": 38.897428166666664, "fusion_lon": 0.0, "fusion_lat": 0.0, "type": "electric_scooter", "name": "d5ea853daaacd4d884d2a028610f1edc", "is_disabled": 0, "rental_uris": {"ios": "https://dc.lft.to/lastmile_qr_scan", "android": "https://dc.lft.to/lastmile_qr_scan"}, "is_reserved": 0}, {"lon": -77.023997, "bike_id": "230a44796bff4210e3341228811922f7", "lat": 38.9370065, "fusion_lon": 0.0, "fusion_lat": 0.0, "type": "electric_scooter", "name": "230a44796bff4210e3341228811922f7", "is_disabled": 0, "rental_uris": {"ios": "https://dc.lft.to/lastmile_qr_scan", "android": "https://dc.lft.to/lastmile_qr_scan"}, "is_reserved": 0}, {"lon": -77.04487966666667, "bike_id": "1872128e97fd4e0f12c92572bf2e192f", "lat": 38.89749283333333, "fusion_lon": 0.0, "fusion_lat": 0.0, "type": "electric_scooter", "name": "1872128e97fd4e0f12c92572bf2e192f", "is_disabled": 0, "rental_uris": {"ios": "https://dc.lft.to/lastmile_qr_scan", "android": "https://dc.lft.to/lastmile_qr_scan"}, "is_reserved": 0}, {"lon": -77.07342633333333, "bike_id": "ab42958c9aee3d5288af6c488bfecc04", "lat": 38.909995, "fusion_lon": 0.0, "fusion_lat": 0.0, "type": "electric_scooter", "name": "ab42958c9aee3d5288af6c488bfecc04", "is_disabled": 0, "rental_uris": {"ios": "https://dc.lft.to/lastmile_qr_scan", "android": "https://dc.lft.to/lastmile_qr_scan"}, "is_reserved": 0}, {"lon": -77.07459183333333, "bike_id": "e63f28194fda7253d6c605503b4aa9d4", "lat": 38.9334745, "fusion_lon": 0.0, "fusion_lat": 0.0, "type": "electric_bike", "name": "e63f28194fda7253d6c605503b4aa9d4", "is_disabled": 0, "rental_uris": {"ios": "https://dc.lft.to/lastmile_qr_scan", "android": "https://dc.lft.to/lastmile_qr_scan"}, "is_reserved": 0}, {"lon": -76.95577283333333, "bike_id": "8fa3923bcc4e75226b24a37cf3c05d23", "lat": 38.88770916666667, "fusion_lon": 0.0, "fusion_lat": 0.0, "type": "electric_scooter", "name": "8fa3923bcc4e75226b24a37cf3c05d23", "is_disabled": 0, "rental_uris": {"ios": "https://dc.lft.to/lastmile_qr_scan", "android": "https://dc.lft.to/lastmile_qr_scan"}, "is_reserved": 0}, {"lon": -76.9855125, "bike_id": "e79fe22bf93cf65172d0bdf62a6693fd", "lat": 38.920184166666665, "fusion_lon": 0.0, "fusion_lat": 0.0, "type": "electric_scooter", "name": "e79fe22bf93cf65172d0bdf62a6693fd", "is_disabled": 0, "rental_uris": {"ios": "https://dc.lft.to/lastmile_qr_scan", "android": "https://dc.lft.to/lastmile_qr_scan"}, "is_reserved": 0}, {"lon": -77.0214285, "bike_id": "1fb1fb4c0f92e6c81c4fa5378cc418fc", "lat": 38.905756833333335, "fusion_lon": 0.0, "fusion_lat": 0.0, "type": "electric_scooter", "name": "1fb1fb4c0f92e6c81c4fa5378cc418fc", "is_disabled": 0, "rental_uris": {"ios": "https://dc.lft.to/lastmile_qr_scan", "android": "https://dc.lft.to/lastmile_qr_scan"}, "is_reserved": 0}, {"lon": -77.02845733333334, "bike_id": "42c4eb968ed5d10277c8ec30e644661f", "lat": 38.925748166666665, "fusion_lon": 0.0, "fusion_lat": 0.0, "type": "electric_scooter", "name": "42c4eb968ed5d10277c8ec30e644661f", "is_disabled": 0, "rental_uris": {"ios": "https://dc.lft.to/lastmile_qr_scan", "android": "https://dc.lft.to/lastmile_qr_scan"}, "is_reserved": 0}, {"lon": -77.02205383333333, "bike_id": "cc9e11bc4bfc69bbaf62379a0fe60fe1", "lat": 38.9261735, "fusion_lon": 0.0, "fusion_lat": 0.0, "type": "electric_scooter", "name": "cc9e11bc4bfc69bbaf62379a0fe60fe1", "is_disabled": 0, "rental_uris": {"ios": "https://dc.lft.to/lastmile_qr_scan", "android": "https://dc.lft.to/lastmile_qr_scan"}, "is_reserved": 0}, {"lon": -77.046644, "bike_id": "42acb3e7f3c17c0b768fe118d0ee81aa", "lat": 38.90552916666667, "fusion_lon": 0.0, "fusion_lat": 0.0, "type": "electric_scooter", "name": "42acb3e7f3c17c0b768fe118d0ee81aa", "is_disabled": 0, "rental_uris": {"ios": "https://dc.lft.to/lastmile_qr_scan", "android": "https://dc.lft.to/lastmile_qr_scan"}, "is_reserved": 0}, {"lon": -77.03186766666667, "bike_id": "da9c92661dda408dd6851da95f187797", "lat": 38.91251533333333, "fusion_lon": 0.0, "fusion_lat": 0.0, "type": "electric_scooter", "name": "da9c92661dda408dd6851da95f187797", "is_disabled": 0, "rental_uris": {"ios": "https://dc.lft.to/lastmile_qr_scan", "android": "https://dc.lft.to/lastmile_qr_scan"}, "is_reserved": 0}, {"lon": -77.02183216666667, "bike_id": "6d5998ffdb88dca38ff039983ef69805", "lat": 38.914699, "fusion_lon": 0.0, "fusion_lat": 0.0, "type": "electric_scooter", "name": "6d5998ffdb88dca38ff039983ef69805", "is_disabled": 0, "rental_uris": {"ios": "https://dc.lft.to/lastmile_qr_scan", "android": "https://dc.lft.to/lastmile_qr_scan"}, "is_reserved": 0}, {"lon": -77.04663816666667, "bike_id": "97a93d2675715338c3919dd228c68699", "lat": 38.8983475, "fusion_lon": 0.0, "fusion_lat": 0.0, "type": "electric_scooter", "name": "97a93d2675715338c3919dd228c68699", "is_disabled": 0, "rental_uris": {"ios": "https://dc.lft.to/lastmile_qr_scan", "android": "https://dc.lft.to/lastmile_qr_scan"}, "is_reserved": 0}, {"lon": -77.00887366666667, "bike_id": "54a5311d0d6f9eea747586cc3f31c651", "lat": 38.900442166666664, "fusion_lon": 0.0, "fusion_lat": 0.0, "type": "electric_scooter", "name": "54a5311d0d6f9eea747586cc3f31c651", "is_disabled": 0, "rental_uris": {"ios": "https://dc.lft.to/lastmile_qr_scan", "android": "https://dc.lft.to/lastmile_qr_scan"}, "is_reserved": 0}, {"lon": -77.04391283333334, "bike_id": "5140ee59786514d7abb35212b38eb6d2", "lat": 39.047184, "fusion_lon": 0.0, "fusion_lat": 0.0, "type": "electric_bike", "name": "5140ee59786514d7abb35212b38eb6d2", "is_disabled": 0, "rental_uris": {"ios": "https://dc.lft.to/lastmile_qr_scan", "android": "https://dc.lft.to/lastmile_qr_scan"}, "is_reserved": 0}, {"lon": -77.02583483333333, "bike_id": "3645b9a5aae868a61983cf589ecabfd3", "lat": 38.892570666666664, "fusion_lon": 0.0, "fusion_lat": 0.0, "type": "electric_scooter", "name": "3645b9a5aae868a61983cf589ecabfd3", "is_disabled": 0, "rental_uris": {"ios": "https://dc.lft.to/lastmile_qr_scan", "android": "https://dc.lft.to/lastmile_qr_scan"}, "is_reserved": 0}, {"lon": -77.03350033333334, "bike_id": "3b9ae23230f10152e1dc66d10497ced9", "lat": 38.90283816666667, "fusion_lon": 0.0, "fusion_lat": 0.0, "type": "electric_scooter", "name": "3b9ae23230f10152e1dc66d10497ced9", "is_disabled": 0, "rental_uris": {"ios": "https://dc.lft.to/lastmile_qr_scan", "android": "https://dc.lft.to/lastmile_qr_scan"}, "is_reserved": 0}, {"lon": -77.05001883333334, "bike_id": "75bdef006c7f78ffd51db615c81d5ab8", "lat": 38.8923215, "fusion_lon": 0.0, "fusion_lat": 0.0, "type": "electric_scooter", "name": "75bdef006c7f78ffd51db615c81d5ab8", "is_disabled": 0, "rental_uris": {"ios": "https://dc.lft.to/lastmile_qr_scan", "android": "https://dc.lft.to/lastmile_qr_scan"}, "is_reserved": 0}, {"lon": -77.03188033333333, "bike_id": "76d0ce40a0f63c20053f3e89acbe8ee0", "lat": 38.90444333333333, "fusion_lon": 0.0, "fusion_lat": 0.0, "type": "electric_scooter", "name": "76d0ce40a0f63c20053f3e89acbe8ee0", "is_disabled": 0, "rental_uris": {"ios": "https://dc.lft.to/lastmile_qr_scan", "android": "https://dc.lft.to/lastmile_qr_scan"}, "is_reserved": 0}, {"lon": -77.0355405, "bike_id": "4a9c8d1230400e0274f1f1c0de69984f", "lat": 38.908359833333336, "fusion_lon": 0.0, "fusion_lat": 0.0, "type": "electric_scooter", "name": "4a9c8d1230400e0274f1f1c0de69984f", "is_disabled": 0, "rental_uris": {"ios": "https://dc.lft.to/lastmile_qr_scan", "android": "https://dc.lft.to/lastmile_qr_scan"}, "is_reserved": 0}, {"lon": -77.03519483333334, "bike_id": "f5b01461c9cb7b966c2261241bc0e36c", "lat": 38.921983833333336, "fusion_lon": 0.0, "fusion_lat": 0.0, "type": "electric_scooter", "name": "f5b01461c9cb7b966c2261241bc0e36c", "is_disabled": 0, "rental_uris": {"ios": "https://dc.lft.to/lastmile_qr_scan", "android": "https://dc.lft.to/lastmile_qr_scan"}, "is_reserved": 0}, {"lon": -77.0996235, "bike_id": "06d7a00df5e5e1c9153045f57ccd5198", "lat": 38.85793133333333, "fusion_lon": 0.0, "fusion_lat": 0.0, "type": "electric_bike", "name": "06d7a00df5e5e1c9153045f57ccd5198", "is_disabled": 0, "rental_uris": {"ios": "https://dc.lft.to/lastmile_qr_scan", "android": "https://dc.lft.to/lastmile_qr_scan"}, "is_reserved": 0}, {"lon": -77.02767283333333, "bike_id": "6303d3be78b3c269733150c33880237a", "lat": 38.93460866666667, "fusion_lon": 0.0, "fusion_lat": 0.0, "type": "electric_scooter", "name": "6303d3be78b3c269733150c33880237a", "is_disabled": 0, "rental_uris": {"ios": "https://dc.lft.to/lastmile_qr_scan", "android": "https://dc.lft.to/lastmile_qr_scan"}, "is_reserved": 0}, {"lon": -77.02716533333333, "bike_id": "9ac31d4c9147328c1cbc490a5cc3174e", "lat": 38.916798666666665, "fusion_lon": 0.0, "fusion_lat": 0.0, "type": "electric_scooter", "name": "9ac31d4c9147328c1cbc490a5cc3174e", "is_disabled": 0, "rental_uris": {"ios": "https://dc.lft.to/lastmile_qr_scan", "android": "https://dc.lft.to/lastmile_qr_scan"}, "is_reserved": 0}, {"lon": -77.03911366666667, "bike_id": "1d87a5a94bbad7baae4fa3e6be5c3cef", "lat": 38.9257675, "fusion_lon": 0.0, "fusion_lat": 0.0, "type": "electric_scooter", "name": "1d87a5a94bbad7baae4fa3e6be5c3cef", "is_disabled": 0, "rental_uris": {"ios": "https://dc.lft.to/lastmile_qr_scan", "android": "https://dc.lft.to/lastmile_qr_scan"}, "is_reserved": 0}, {"lon": -77.01501883333333, "bike_id": "bf06ad8aa619a6a296ca9e81ebc879a1", "lat": 38.926699166666666, "fusion_lon": 0.0, "fusion_lat": 0.0, "type": "electric_scooter", "name": "bf06ad8aa619a6a296ca9e81ebc879a1", "is_disabled": 0, "rental_uris": {"ios": "https://dc.lft.to/lastmile_qr_scan", "android": "https://dc.lft.to/lastmile_qr_scan"}, "is_reserved": 0}, {"lon": -76.9980265, "bike_id": "d965cf1907568af4babd958316615020", "lat": 38.90853083333333, "fusion_lon": 0.0, "fusion_lat": 0.0, "type": "electric_scooter", "name": "d965cf1907568af4babd958316615020", "is_disabled": 0, "rental_uris": {"ios": "https://dc.lft.to/lastmile_qr_scan", "android": "https://dc.lft.to/lastmile_qr_scan"}, "is_reserved": 0}, {"lon": -76.90743766666667, "bike_id": "2d89baad1b46ecabb42e3d1029327dbf", "lat": 38.89614483333333, "fusion_lon": 0.0, "fusion_lat": 0.0, "type": "electric_bike", "name": "2d89baad1b46ecabb42e3d1029327dbf", "is_disabled": 0, "rental_uris": {"ios": "https://dc.lft.to/lastmile_qr_scan", "android": "https://dc.lft.to/lastmile_qr_scan"}, "is_reserved": 0}, {"lon": -76.97929666666667, "bike_id": "6cc33d5872b0e8384c0ce755438f06ac", "lat": 38.9024405, "fusion_lon": 0.0, "fusion_lat": 0.0, "type": "electric_scooter", "name": "6cc33d5872b0e8384c0ce755438f06ac", "is_disabled": 0, "rental_uris": {"ios": "https://dc.lft.to/lastmile_qr_scan", "android": "https://dc.lft.to/lastmile_qr_scan"}, "is_reserved": 0}, {"lon": -77.03657183333333, "bike_id": "313e3c1301d253de230849a65cb1ac70", "lat": 38.9313615, "fusion_lon": 0.0, "fusion_lat": 0.0, "type": "electric_scooter", "name": "313e3c1301d253de230849a65cb1ac70", "is_disabled": 0, "rental_uris": {"ios": "https://dc.lft.to/lastmile_qr_scan", "android": "https://dc.lft.to/lastmile_qr_scan"}, "is_reserved": 0}, {"lon": -77.0222315, "bike_id": "cd7868cbf3e8bab9705df2eb4b741120", "lat": 38.8922165, "fusion_lon": 0.0, "fusion_lat": 0.0, "type": "electric_scooter", "name": "cd7868cbf3e8bab9705df2eb4b741120", "is_disabled": 0, "rental_uris": {"ios": "https://dc.lft.to/lastmile_qr_scan", "android": "https://dc.lft.to/lastmile_qr_scan"}, "is_reserved": 0}, {"lon": -76.99482933333333, "bike_id": "2dc824a8c37c77d7932caff13d3e8fa4", "lat": 38.8860925, "fusion_lon": 0.0, "fusion_lat": 0.0, "type": "electric_scooter", "name": "2dc824a8c37c77d7932caff13d3e8fa4", "is_disabled": 0, "rental_uris": {"ios": "https://dc.lft.to/lastmile_qr_scan", "android": "https://dc.lft.to/lastmile_qr_scan"}, "is_reserved": 0}, {"lon": -77.023003, "bike_id": "41ef607ab6bbe925bc647b504da417a5", "lat": 38.91709783333334, "fusion_lon": 0.0, "fusion_lat": 0.0, "type": "electric_scooter", "name": "41ef607ab6bbe925bc647b504da417a5", "is_disabled": 0, "rental_uris": {"ios": "https://dc.lft.to/lastmile_qr_scan", "android": "https://dc.lft.to/lastmile_qr_scan"}, "is_reserved": 0}, {"lon": -77.04721266666667, "bike_id": "f8e24987af7852003ee8366aba861f68", "lat": 38.9231575, "fusion_lon": 0.0, "fusion_lat": 0.0, "type": "electric_scooter", "name": "f8e24987af7852003ee8366aba861f68", "is_disabled": 0, "rental_uris": {"ios": "https://dc.lft.to/lastmile_qr_scan", "android": "https://dc.lft.to/lastmile_qr_scan"}, "is_reserved": 0}, {"lon": -76.98531083333333, "bike_id": "4b1bcce05e070839bb9ce29a6d5d80d3", "lat": 38.86688, "fusion_lon": 0.0, "fusion_lat": 0.0, "type": "electric_scooter", "name": "4b1bcce05e070839bb9ce29a6d5d80d3", "is_disabled": 0, "rental_uris": {"ios": "https://dc.lft.to/lastmile_qr_scan", "android": "https://dc.lft.to/lastmile_qr_scan"}, "is_reserved": 0}, {"lon": -77.046787, "bike_id": "39ebec551e1d217c02f81402200e5ba6", "lat": 38.89560216666667, "fusion_lon": 0.0, "fusion_lat": 0.0, "type": "electric_scooter", "name": "39ebec551e1d217c02f81402200e5ba6", "is_disabled": 0, "rental_uris": {"ios": "https://dc.lft.to/lastmile_qr_scan", "android": "https://dc.lft.to/lastmile_qr_scan"}, "is_reserved": 0}, {"lon": -77.04470116666667, "bike_id": "65f78600f28f01d478e231b2d8551541", "lat": 38.9238425, "fusion_lon": 0.0, "fusion_lat": 0.0, "type": "electric_scooter", "name": "65f78600f28f01d478e231b2d8551541", "is_disabled": 0, "rental_uris": {"ios": "https://dc.lft.to/lastmile_qr_scan", "android": "https://dc.lft.to/lastmile_qr_scan"}, "is_reserved": 0}, {"lon": -77.02086533333333, "bike_id": "0b91befd17177cfbd42626fbeb1683ce", "lat": 38.92125983333333, "fusion_lon": 0.0, "fusion_lat": 0.0, "type": "electric_scooter", "name": "0b91befd17177cfbd42626fbeb1683ce", "is_disabled": 0, "rental_uris": {"ios": "https://dc.lft.to/lastmile_qr_scan", "android": "https://dc.lft.to/lastmile_qr_scan"}, "is_reserved": 0}, {"lon": -77.01738533333334, "bike_id": "1b7c8f38f5e41956f883c9f8859a0296", "lat": 38.887438333333336, "fusion_lon": 0.0, "fusion_lat": 0.0, "type": "electric_scooter", "name": "1b7c8f38f5e41956f883c9f8859a0296", "is_disabled": 0, "rental_uris": {"ios": "https://dc.lft.to/lastmile_qr_scan", "android": "https://dc.lft.to/lastmile_qr_scan"}, "is_reserved": 0}, {"lon": -77.04690366666667, "bike_id": "fed0684929a84bf28c567adc157e756f", "lat": 38.892214, "fusion_lon": 0.0, "fusion_lat": 0.0, "type": "electric_scooter", "name": "fed0684929a84bf28c567adc157e756f", "is_disabled": 0, "rental_uris": {"ios": "https://dc.lft.to/lastmile_qr_scan", "android": "https://dc.lft.to/lastmile_qr_scan"}, "is_reserved": 0}, {"lon": -77.0298475, "bike_id": "6cc5d95716c8f02532158e6bce283cf0", "lat": 38.91633616666667, "fusion_lon": 0.0, "fusion_lat": 0.0, "type": "electric_scooter", "name": "6cc5d95716c8f02532158e6bce283cf0", "is_disabled": 0, "rental_uris": {"ios": "https://dc.lft.to/lastmile_qr_scan", "android": "https://dc.lft.to/lastmile_qr_scan"}, "is_reserved": 0}, {"lon": -77.02706916666666, "bike_id": "fde59abd3f80b0243318eb7227a2d5ea", "lat": 38.920299, "fusion_lon": 0.0, "fusion_lat": 0.0, "type": "electric_scooter", "name": "fde59abd3f80b0243318eb7227a2d5ea", "is_disabled": 0, "rental_uris": {"ios": "https://dc.lft.to/lastmile_qr_scan", "android": "https://dc.lft.to/lastmile_qr_scan"}, "is_reserved": 0}, {"lon": -77.0258985, "bike_id": "eb15a6a14e3dae82c87e941ee92e30a2", "lat": 38.90357216666666, "fusion_lon": 0.0, "fusion_lat": 0.0, "type": "electric_scooter", "name": "eb15a6a14e3dae82c87e941ee92e30a2", "is_disabled": 0, "rental_uris": {"ios": "https://dc.lft.to/lastmile_qr_scan", "android": "https://dc.lft.to/lastmile_qr_scan"}, "is_reserved": 0}, {"lon": -76.99535716666666, "bike_id": "8ffa781965f264f846f9751af3004594", "lat": 38.92672533333333, "fusion_lon": 0.0, "fusion_lat": 0.0, "type": "electric_scooter", "name": "8ffa781965f264f846f9751af3004594", "is_disabled": 0, "rental_uris": {"ios": "https://dc.lft.to/lastmile_qr_scan", "android": "https://dc.lft.to/lastmile_qr_scan"}, "is_reserved": 0}, {"lon": -77.11596216666666, "bike_id": "031d0a0c9287ae28922432034f0d9fa5", "lat": 39.07495883333333, "fusion_lon": 0.0, "fusion_lat": 0.0, "type": "electric_bike", "name": "031d0a0c9287ae28922432034f0d9fa5", "is_disabled": 0, "rental_uris": {"ios": "https://dc.lft.to/lastmile_qr_scan", "android": "https://dc.lft.to/lastmile_qr_scan"}, "is_reserved": 0}, {"lon": -76.96911566666667, "bike_id": "154d44c8e21da12badf5df42d65b903a", "lat": 38.8461135, "fusion_lon": 0.0, "fusion_lat": 0.0, "type": "electric_bike", "name": "154d44c8e21da12badf5df42d65b903a", "is_disabled": 0, "rental_uris": {"ios": "https://dc.lft.to/lastmile_qr_scan", "android": "https://dc.lft.to/lastmile_qr_scan"}, "is_reserved": 0}, {"lon": -77.0417455, "bike_id": "a8b3e94fb46da3eea56f6e81e50a9231", "lat": 38.9055925, "fusion_lon": 0.0, "fusion_lat": 0.0, "type": "electric_scooter", "name": "a8b3e94fb46da3eea56f6e81e50a9231", "is_disabled": 0, "rental_uris": {"ios": "https://dc.lft.to/lastmile_qr_scan", "android": "https://dc.lft.to/lastmile_qr_scan"}, "is_reserved": 0}, {"lon": -77.032143, "bike_id": "59fb223321fe9f22c68f643935a0e904", "lat": 38.892433833333335, "fusion_lon": 0.0, "fusion_lat": 0.0, "type": "electric_scooter", "name": "59fb223321fe9f22c68f643935a0e904", "is_disabled": 0, "rental_uris": {"ios": "https://dc.lft.to/lastmile_qr_scan", "android": "https://dc.lft.to/lastmile_qr_scan"}, "is_reserved": 0}, {"lon": -77.00071233333334, "bike_id": "7a8078c4f5b17843cfbf5ecfbf9a49a7", "lat": 38.90148116666667, "fusion_lon": 0.0, "fusion_lat": 0.0, "type": "electric_bike", "name": "7a8078c4f5b17843cfbf5ecfbf9a49a7", "is_disabled": 0, "rental_uris": {"ios": "https://dc.lft.to/lastmile_qr_scan", "android": "https://dc.lft.to/lastmile_qr_scan"}, "is_reserved": 0}, {"lon": -77.03118866666667, "bike_id": "c33821aa12bd213b06f3338b68d2244b", "lat": 38.912687, "fusion_lon": 0.0, "fusion_lat": 0.0, "type": "electric_scooter", "name": "c33821aa12bd213b06f3338b68d2244b", "is_disabled": 0, "rental_uris": {"ios": "https://dc.lft.to/lastmile_qr_scan", "android": "https://dc.lft.to/lastmile_qr_scan"}, "is_reserved": 0}, {"lon": -76.99030633333334, "bike_id": "a321b5290127488329c61a802f68f33f", "lat": 38.864013, "fusion_lon": 0.0, "fusion_lat": 0.0, "type": "electric_scooter", "name": "a321b5290127488329c61a802f68f33f", "is_disabled": 0, "rental_uris": {"ios": "https://dc.lft.to/lastmile_qr_scan", "android": "https://dc.lft.to/lastmile_qr_scan"}, "is_reserved": 0}, {"lon": -77.01763183333334, "bike_id": "b019db1301e1c35f3065ad2c13e5168e", "lat": 38.8767005, "fusion_lon": 0.0, "fusion_lat": 0.0, "type": "electric_scooter", "name": "b019db1301e1c35f3065ad2c13e5168e", "is_disabled": 0, "rental_uris": {"ios": "https://dc.lft.to/lastmile_qr_scan", "android": "https://dc.lft.to/lastmile_qr_scan"}, "is_reserved": 0}, {"lon": -77.03346233333333, "bike_id": "72f18a520ec6d2c7bc07d573eed5a037", "lat": 38.928742166666666, "fusion_lon": 0.0, "fusion_lat": 0.0, "type": "electric_scooter", "name": "72f18a520ec6d2c7bc07d573eed5a037", "is_disabled": 0, "rental_uris": {"ios": "https://dc.lft.to/lastmile_qr_scan", "android": "https://dc.lft.to/lastmile_qr_scan"}, "is_reserved": 0}, {"lon": -77.03445166666667, "bike_id": "ec59b4b7c2728bca802358f159533b75", "lat": 38.90948916666667, "fusion_lon": 0.0, "fusion_lat": 0.0, "type": "electric_scooter", "name": "ec59b4b7c2728bca802358f159533b75", "is_disabled": 0, "rental_uris": {"ios": "https://dc.lft.to/lastmile_qr_scan", "android": "https://dc.lft.to/lastmile_qr_scan"}, "is_reserved": 0}, {"lon": -76.99582316666667, "bike_id": "4c211ad48e2cb6dcf541101ccdb641ce", "lat": 38.85176366666666, "fusion_lon": 0.0, "fusion_lat": 0.0, "type": "electric_scooter", "name": "4c211ad48e2cb6dcf541101ccdb641ce", "is_disabled": 0, "rental_uris": {"ios": "https://dc.lft.to/lastmile_qr_scan", "android": "https://dc.lft.to/lastmile_qr_scan"}, "is_reserved": 0}, {"lon": -77.03949783333333, "bike_id": "05c6165151b99590bfc2b12965a5e48f", "lat": 38.90257833333333, "fusion_lon": 0.0, "fusion_lat": 0.0, "type": "electric_scooter", "name": "05c6165151b99590bfc2b12965a5e48f", "is_disabled": 0, "rental_uris": {"ios": "https://dc.lft.to/lastmile_qr_scan", "android": "https://dc.lft.to/lastmile_qr_scan"}, "is_reserved": 0}, {"lon": -76.998668, "bike_id": "297b441f992b37a6736169920a17c3e0", "lat": 38.900246833333334, "fusion_lon": 0.0, "fusion_lat": 0.0, "type": "electric_scooter", "name": "297b441f992b37a6736169920a17c3e0", "is_disabled": 0, "rental_uris": {"ios": "https://dc.lft.to/lastmile_qr_scan", "android": "https://dc.lft.to/lastmile_qr_scan"}, "is_reserved": 0}, {"lon": -77.00652983333333, "bike_id": "c64101920b3ed732efeb629e9aef1bec", "lat": 38.9010455, "fusion_lon": 0.0, "fusion_lat": 0.0, "type": "electric_scooter", "name": "c64101920b3ed732efeb629e9aef1bec", "is_disabled": 0, "rental_uris": {"ios": "https://dc.lft.to/lastmile_qr_scan", "android": "https://dc.lft.to/lastmile_qr_scan"}, "is_reserved": 0}, {"lon": -77.01908983333334, "bike_id": "8d9f3c847e2554cf711e1cfb0d311e4e", "lat": 38.915090166666666, "fusion_lon": 0.0, "fusion_lat": 0.0, "type": "electric_scooter", "name": "8d9f3c847e2554cf711e1cfb0d311e4e", "is_disabled": 0, "rental_uris": {"ios": "https://dc.lft.to/lastmile_qr_scan", "android": "https://dc.lft.to/lastmile_qr_scan"}, "is_reserved": 0}, {"lon": -76.97835233333333, "bike_id": "fb2418d2bac994ddbcf6fc8c9156dfb4", "lat": 38.89912016666667, "fusion_lon": 0.0, "fusion_lat": 0.0, "type": "electric_scooter", "name": "fb2418d2bac994ddbcf6fc8c9156dfb4", "is_disabled": 0, "rental_uris": {"ios": "https://dc.lft.to/lastmile_qr_scan", "android": "https://dc.lft.to/lastmile_qr_scan"}, "is_reserved": 0}, {"lon": -77.04818383333334, "bike_id": "7ba63f60e3718a36d8e0aeb67626808f", "lat": 38.904972666666666, "fusion_lon": 0.0, "fusion_lat": 0.0, "type": "electric_scooter", "name": "7ba63f60e3718a36d8e0aeb67626808f", "is_disabled": 0, "rental_uris": {"ios": "https://dc.lft.to/lastmile_qr_scan", "android": "https://dc.lft.to/lastmile_qr_scan"}, "is_reserved": 0}, {"lon": -77.0332875, "bike_id": "7ae8d8eeb77cc1d4787aed5063c569da", "lat": 38.94715466666667, "fusion_lon": 0.0, "fusion_lat": 0.0, "type": "electric_scooter", "name": "7ae8d8eeb77cc1d4787aed5063c569da", "is_disabled": 0, "rental_uris": {"ios": "https://dc.lft.to/lastmile_qr_scan", "android": "https://dc.lft.to/lastmile_qr_scan"}, "is_reserved": 0}, {"lon": -77.04486516666667, "bike_id": "3e3081d0fde152638e864124e730ff72", "lat": 38.892261500000004, "fusion_lon": 0.0, "fusion_lat": 0.0, "type": "electric_scooter", "name": "3e3081d0fde152638e864124e730ff72", "is_disabled": 0, "rental_uris": {"ios": "https://dc.lft.to/lastmile_qr_scan", "android": "https://dc.lft.to/lastmile_qr_scan"}, "is_reserved": 0}, {"lon": -76.97205666666666, "bike_id": "dd488ea90b333eee12e5f733e01ef390", "lat": 38.892892, "fusion_lon": 0.0, "fusion_lat": 0.0, "type": "electric_bike", "name": "dd488ea90b333eee12e5f733e01ef390", "is_disabled": 0, "rental_uris": {"ios": "https://dc.lft.to/lastmile_qr_scan", "android": "https://dc.lft.to/lastmile_qr_scan"}, "is_reserved": 0}, {"lon": -77.0448825, "bike_id": "4bcb16a323b540374e24c5d00f00d574", "lat": 38.913279833333334, "fusion_lon": 0.0, "fusion_lat": 0.0, "type": "electric_scooter", "name": "4bcb16a323b540374e24c5d00f00d574", "is_disabled": 0, "rental_uris": {"ios": "https://dc.lft.to/lastmile_qr_scan", "android": "https://dc.lft.to/lastmile_qr_scan"}, "is_reserved": 0}, {"lon": -77.139268, "bike_id": "b2e5a56b24e05c2264da4d528ccf643b", "lat": 38.87300166666667, "fusion_lon": 0.0, "fusion_lat": 0.0, "type": "electric_bike", "name": "b2e5a56b24e05c2264da4d528ccf643b", "is_disabled": 0, "rental_uris": {"ios": "https://dc.lft.to/lastmile_qr_scan", "android": "https://dc.lft.to/lastmile_qr_scan"}, "is_reserved": 0}, {"lon": -77.02703, "bike_id": "36b323a61946851f68c80126d1cf1c91", "lat": 38.94989783333333, "fusion_lon": 0.0, "fusion_lat": 0.0, "type": "electric_scooter", "name": "36b323a61946851f68c80126d1cf1c91", "is_disabled": 0, "rental_uris": {"ios": "https://dc.lft.to/lastmile_qr_scan", "android": "https://dc.lft.to/lastmile_qr_scan"}, "is_reserved": 0}, {"lon": -76.98835866666667, "bike_id": "15dc5cbd026826a53d27e6b1a095d4a9", "lat": 38.89665516666667, "fusion_lon": 0.0, "fusion_lat": 0.0, "type": "electric_scooter", "name": "15dc5cbd026826a53d27e6b1a095d4a9", "is_disabled": 0, "rental_uris": {"ios": "https://dc.lft.to/lastmile_qr_scan", "android": "https://dc.lft.to/lastmile_qr_scan"}, "is_reserved": 0}, {"lon": -77.0221405, "bike_id": "717736af3a3f74b238dfb6f914dd64a8", "lat": 38.893542833333335, "fusion_lon": 0.0, "fusion_lat": 0.0, "type": "electric_scooter", "name": "717736af3a3f74b238dfb6f914dd64a8", "is_disabled": 0, "rental_uris": {"ios": "https://dc.lft.to/lastmile_qr_scan", "android": "https://dc.lft.to/lastmile_qr_scan"}, "is_reserved": 0}, {"lon": -77.04193733333334, "bike_id": "194ecb8f1a55eb38e28c33f34eb449d7", "lat": 38.905831, "fusion_lon": 0.0, "fusion_lat": 0.0, "type": "electric_scooter", "name": "194ecb8f1a55eb38e28c33f34eb449d7", "is_disabled": 0, "rental_uris": {"ios": "https://dc.lft.to/lastmile_qr_scan", "android": "https://dc.lft.to/lastmile_qr_scan"}, "is_reserved": 0}, {"lon": -77.05575566666667, "bike_id": "0496966e76394260912fa924fbadadd0", "lat": 38.9305415, "fusion_lon": 0.0, "fusion_lat": 0.0, "type": "electric_scooter", "name": "0496966e76394260912fa924fbadadd0", "is_disabled": 0, "rental_uris": {"ios": "https://dc.lft.to/lastmile_qr_scan", "android": "https://dc.lft.to/lastmile_qr_scan"}, "is_reserved": 0}, {"lon": -77.03205983333334, "bike_id": "185749a269be775679d9bf4cad8d69fe", "lat": 38.914981, "fusion_lon": 0.0, "fusion_lat": 0.0, "type": "electric_scooter", "name": "185749a269be775679d9bf4cad8d69fe", "is_disabled": 0, "rental_uris": {"ios": "https://dc.lft.to/lastmile_qr_scan", "android": "https://dc.lft.to/lastmile_qr_scan"}, "is_reserved": 0}, {"lon": -76.99273316666667, "bike_id": "cbf2375039d984e8a4ea97e5fef1e9ec", "lat": 38.860351, "fusion_lon": 0.0, "fusion_lat": 0.0, "type": "electric_scooter", "name": "cbf2375039d984e8a4ea97e5fef1e9ec", "is_disabled": 0, "rental_uris": {"ios": "https://dc.lft.to/lastmile_qr_scan", "android": "https://dc.lft.to/lastmile_qr_scan"}, "is_reserved": 0}, {"lon": -77.03816183333333, "bike_id": "f9fb2ad9ca52617ad4cf9b23709f4d49", "lat": 38.930982166666666, "fusion_lon": 0.0, "fusion_lat": 0.0, "type": "electric_scooter", "name": "f9fb2ad9ca52617ad4cf9b23709f4d49", "is_disabled": 0, "rental_uris": {"ios": "https://dc.lft.to/lastmile_qr_scan", "android": "https://dc.lft.to/lastmile_qr_scan"}, "is_reserved": 0}, {"lon": -77.1246535, "bike_id": "537e3c381ba7461188492f96461d53f1", "lat": 38.8537595, "fusion_lon": 0.0, "fusion_lat": 0.0, "type": "electric_bike", "name": "537e3c381ba7461188492f96461d53f1", "is_disabled": 0, "rental_uris": {"ios": "https://dc.lft.to/lastmile_qr_scan", "android": "https://dc.lft.to/lastmile_qr_scan"}, "is_reserved": 0}, {"lon": -77.04993333333333, "bike_id": "4e31e5bf3e9712ae2714253aac91c8c0", "lat": 38.905164166666665, "fusion_lon": 0.0, "fusion_lat": 0.0, "type": "electric_scooter", "name": "4e31e5bf3e9712ae2714253aac91c8c0", "is_disabled": 0, "rental_uris": {"ios": "https://dc.lft.to/lastmile_qr_scan", "android": "https://dc.lft.to/lastmile_qr_scan"}, "is_reserved": 0}, {"lon": -77.04182716666666, "bike_id": "c912c9d6b120b56195d4f7b194bfb073", "lat": 38.915530333333336, "fusion_lon": 0.0, "fusion_lat": 0.0, "type": "electric_scooter", "name": "c912c9d6b120b56195d4f7b194bfb073", "is_disabled": 0, "rental_uris": {"ios": "https://dc.lft.to/lastmile_qr_scan", "android": "https://dc.lft.to/lastmile_qr_scan"}, "is_reserved": 0}, {"lon": -76.97708283333333, "bike_id": "34eb42d84752312e3749fd74f0120ec0", "lat": 38.88522483333333, "fusion_lon": 0.0, "fusion_lat": 0.0, "type": "electric_scooter", "name": "34eb42d84752312e3749fd74f0120ec0", "is_disabled": 0, "rental_uris": {"ios": "https://dc.lft.to/lastmile_qr_scan", "android": "https://dc.lft.to/lastmile_qr_scan"}, "is_reserved": 0}, {"lon": -77.03660633333334, "bike_id": "3ab6e98ce80aed5846f5d6ba7ea1be3f", "lat": 38.922611, "fusion_lon": 0.0, "fusion_lat": 0.0, "type": "electric_scooter", "name": "3ab6e98ce80aed5846f5d6ba7ea1be3f", "is_disabled": 0, "rental_uris": {"ios": "https://dc.lft.to/lastmile_qr_scan", "android": "https://dc.lft.to/lastmile_qr_scan"}, "is_reserved": 0}, {"lon": -77.0437445, "bike_id": "9a4ec012aaa7d8fc214c3bf07f70c489", "lat": 38.92094516666667, "fusion_lon": 0.0, "fusion_lat": 0.0, "type": "electric_scooter", "name": "9a4ec012aaa7d8fc214c3bf07f70c489", "is_disabled": 0, "rental_uris": {"ios": "https://dc.lft.to/lastmile_qr_scan", "android": "https://dc.lft.to/lastmile_qr_scan"}, "is_reserved": 0}, {"lon": -76.97770483333333, "bike_id": "3cbd6eb4e54207a33222083eef785b11", "lat": 38.95154383333333, "fusion_lon": 0.0, "fusion_lat": 0.0, "type": "electric_bike", "name": "3cbd6eb4e54207a33222083eef785b11", "is_disabled": 0, "rental_uris": {"ios": "https://dc.lft.to/lastmile_qr_scan", "android": "https://dc.lft.to/lastmile_qr_scan"}, "is_reserved": 0}, {"lon": -77.00731866666666, "bike_id": "71efd83b10e4bfae7eb85d06b0abc801", "lat": 38.8849515, "fusion_lon": 0.0, "fusion_lat": 0.0, "type": "electric_scooter", "name": "71efd83b10e4bfae7eb85d06b0abc801", "is_disabled": 0, "rental_uris": {"ios": "https://dc.lft.to/lastmile_qr_scan", "android": "https://dc.lft.to/lastmile_qr_scan"}, "is_reserved": 0}, {"lon": -77.02596866666667, "bike_id": "0a53c61dbd0d4a800a3c79c4b7489626", "lat": 38.94202716666667, "fusion_lon": 0.0, "fusion_lat": 0.0, "type": "electric_scooter", "name": "0a53c61dbd0d4a800a3c79c4b7489626", "is_disabled": 0, "rental_uris": {"ios": "https://dc.lft.to/lastmile_qr_scan", "android": "https://dc.lft.to/lastmile_qr_scan"}, "is_reserved": 0}, {"lon": -77.03200333333334, "bike_id": "8282c86b2f243ed238bd422b540c80b0", "lat": 38.89873383333333, "fusion_lon": 0.0, "fusion_lat": 0.0, "type": "electric_scooter", "name": "8282c86b2f243ed238bd422b540c80b0", "is_disabled": 0, "rental_uris": {"ios": "https://dc.lft.to/lastmile_qr_scan", "android": "https://dc.lft.to/lastmile_qr_scan"}, "is_reserved": 0}, {"lon": -77.03805383333334, "bike_id": "b3a0f73071fcfab89216f469baa1d41c", "lat": 38.920639666666666, "fusion_lon": 0.0, "fusion_lat": 0.0, "type": "electric_scooter", "name": "b3a0f73071fcfab89216f469baa1d41c", "is_disabled": 0, "rental_uris": {"ios": "https://dc.lft.to/lastmile_qr_scan", "android": "https://dc.lft.to/lastmile_qr_scan"}, "is_reserved": 0}, {"lon": -77.0246735, "bike_id": "4e67af30bca8bd5784857f2cf07dfa53", "lat": 38.938579, "fusion_lon": 0.0, "fusion_lat": 0.0, "type": "electric_scooter", "name": "4e67af30bca8bd5784857f2cf07dfa53", "is_disabled": 0, "rental_uris": {"ios": "https://dc.lft.to/lastmile_qr_scan", "android": "https://dc.lft.to/lastmile_qr_scan"}, "is_reserved": 0}, {"lon": -77.0226565, "bike_id": "3113b442313a1e4de3a80d809b8fe5b3", "lat": 38.937641166666666, "fusion_lon": 0.0, "fusion_lat": 0.0, "type": "electric_scooter", "name": "3113b442313a1e4de3a80d809b8fe5b3", "is_disabled": 0, "rental_uris": {"ios": "https://dc.lft.to/lastmile_qr_scan", "android": "https://dc.lft.to/lastmile_qr_scan"}, "is_reserved": 0}, {"lon": -76.98526866666667, "bike_id": "488c08a184bd6c6f90b06e1a6a43130e", "lat": 38.866871833333335, "fusion_lon": 0.0, "fusion_lat": 0.0, "type": "electric_scooter", "name": "488c08a184bd6c6f90b06e1a6a43130e", "is_disabled": 0, "rental_uris": {"ios": "https://dc.lft.to/lastmile_qr_scan", "android": "https://dc.lft.to/lastmile_qr_scan"}, "is_reserved": 0}, {"lon": -77.0449095, "bike_id": "5706b7125394ce25acb5cc902fb90791", "lat": 38.892413833333336, "fusion_lon": 0.0, "fusion_lat": 0.0, "type": "electric_scooter", "name": "5706b7125394ce25acb5cc902fb90791", "is_disabled": 0, "rental_uris": {"ios": "https://dc.lft.to/lastmile_qr_scan", "android": "https://dc.lft.to/lastmile_qr_scan"}, "is_reserved": 0}, {"lon": -77.00532166666666, "bike_id": "642d11d291259bb20d78e57582fe84a7", "lat": 38.929782333333335, "fusion_lon": 0.0, "fusion_lat": 0.0, "type": "electric_scooter", "name": "642d11d291259bb20d78e57582fe84a7", "is_disabled": 0, "rental_uris": {"ios": "https://dc.lft.to/lastmile_qr_scan", "android": "https://dc.lft.to/lastmile_qr_scan"}, "is_reserved": 0}, {"lon": -77.04343683333333, "bike_id": "ffdc9be17a6fdab1c84fd1376b13c2ff", "lat": 38.91336583333333, "fusion_lon": 0.0, "fusion_lat": 0.0, "type": "electric_scooter", "name": "ffdc9be17a6fdab1c84fd1376b13c2ff", "is_disabled": 0, "rental_uris": {"ios": "https://dc.lft.to/lastmile_qr_scan", "android": "https://dc.lft.to/lastmile_qr_scan"}, "is_reserved": 0}, {"lon": -77.04625716666666, "bike_id": "605af952de8628f39d261875bffc6702", "lat": 38.91548316666667, "fusion_lon": 0.0, "fusion_lat": 0.0, "type": "electric_scooter", "name": "605af952de8628f39d261875bffc6702", "is_disabled": 0, "rental_uris": {"ios": "https://dc.lft.to/lastmile_qr_scan", "android": "https://dc.lft.to/lastmile_qr_scan"}, "is_reserved": 0}, {"lon": -77.03174866666667, "bike_id": "1ee418ee1a11539c8e36ad68db1421c4", "lat": 38.8920035, "fusion_lon": 0.0, "fusion_lat": 0.0, "type": "electric_scooter", "name": "1ee418ee1a11539c8e36ad68db1421c4", "is_disabled": 0, "rental_uris": {"ios": "https://dc.lft.to/lastmile_qr_scan", "android": "https://dc.lft.to/lastmile_qr_scan"}, "is_reserved": 0}, {"lon": -77.0157845, "bike_id": "a900308b2871813253bda6bbd7f7a42e", "lat": 38.9532685, "fusion_lon": 0.0, "fusion_lat": 0.0, "type": "electric_bike", "name": "a900308b2871813253bda6bbd7f7a42e", "is_disabled": 0, "rental_uris": {"ios": "https://dc.lft.to/lastmile_qr_scan", "android": "https://dc.lft.to/lastmile_qr_scan"}, "is_reserved": 0}, {"lon": -77.02228416666667, "bike_id": "b587473e5569eacf6560f94034759555", "lat": 38.91254516666667, "fusion_lon": 0.0, "fusion_lat": 0.0, "type": "electric_scooter", "name": "b587473e5569eacf6560f94034759555", "is_disabled": 0, "rental_uris": {"ios": "https://dc.lft.to/lastmile_qr_scan", "android": "https://dc.lft.to/lastmile_qr_scan"}, "is_reserved": 0}, {"lon": -77.02082366666667, "bike_id": "4360dc91b20b5511e68aa0e82657d46d", "lat": 38.89986366666667, "fusion_lon": 0.0, "fusion_lat": 0.0, "type": "electric_scooter", "name": "4360dc91b20b5511e68aa0e82657d46d", "is_disabled": 0, "rental_uris": {"ios": "https://dc.lft.to/lastmile_qr_scan", "android": "https://dc.lft.to/lastmile_qr_scan"}, "is_reserved": 0}, {"lon": -76.93058283333333, "bike_id": "015f230642236dd14084c2249fc0f4b1", "lat": 38.88385516666666, "fusion_lon": 0.0, "fusion_lat": 0.0, "type": "electric_scooter", "name": "015f230642236dd14084c2249fc0f4b1", "is_disabled": 0, "rental_uris": {"ios": "https://dc.lft.to/lastmile_qr_scan", "android": "https://dc.lft.to/lastmile_qr_scan"}, "is_reserved": 0}, {"lon": -77.01280583333333, "bike_id": "fc848f1e1976865e8387e93e4ca4eb37", "lat": 38.91564016666667, "fusion_lon": 0.0, "fusion_lat": 0.0, "type": "electric_scooter", "name": "fc848f1e1976865e8387e93e4ca4eb37", "is_disabled": 0, "rental_uris": {"ios": "https://dc.lft.to/lastmile_qr_scan", "android": "https://dc.lft.to/lastmile_qr_scan"}, "is_reserved": 0}, {"lon": -77.02040266666667, "bike_id": "9b51c47ea10c4ae95267f772f556ea8e", "lat": 38.908623666666664, "fusion_lon": 0.0, "fusion_lat": 0.0, "type": "electric_scooter", "name": "9b51c47ea10c4ae95267f772f556ea8e", "is_disabled": 0, "rental_uris": {"ios": "https://dc.lft.to/lastmile_qr_scan", "android": "https://dc.lft.to/lastmile_qr_scan"}, "is_reserved": 0}, {"lon": -77.02665933333333, "bike_id": "8a8e102cefaf861648edd8654672b9f3", "lat": 38.916971833333335, "fusion_lon": 0.0, "fusion_lat": 0.0, "type": "electric_scooter", "name": "8a8e102cefaf861648edd8654672b9f3", "is_disabled": 0, "rental_uris": {"ios": "https://dc.lft.to/lastmile_qr_scan", "android": "https://dc.lft.to/lastmile_qr_scan"}, "is_reserved": 0}, {"lon": -77.02666733333334, "bike_id": "1cd9d271cc03e9fe8115f7dae7881c24", "lat": 38.921810666666666, "fusion_lon": 0.0, "fusion_lat": 0.0, "type": "electric_scooter", "name": "1cd9d271cc03e9fe8115f7dae7881c24", "is_disabled": 0, "rental_uris": {"ios": "https://dc.lft.to/lastmile_qr_scan", "android": "https://dc.lft.to/lastmile_qr_scan"}, "is_reserved": 0}, {"lon": -77.04355616666666, "bike_id": "65e169b5446ed678d19e4d6327f49100", "lat": 38.92172516666667, "fusion_lon": 0.0, "fusion_lat": 0.0, "type": "electric_scooter", "name": "65e169b5446ed678d19e4d6327f49100", "is_disabled": 0, "rental_uris": {"ios": "https://dc.lft.to/lastmile_qr_scan", "android": "https://dc.lft.to/lastmile_qr_scan"}, "is_reserved": 0}, {"lon": -77.04473466666667, "bike_id": "151eaf540d340d1e92cbf33a678828b1", "lat": 38.892199166666664, "fusion_lon": 0.0, "fusion_lat": 0.0, "type": "electric_scooter", "name": "151eaf540d340d1e92cbf33a678828b1", "is_disabled": 0, "rental_uris": {"ios": "https://dc.lft.to/lastmile_qr_scan", "android": "https://dc.lft.to/lastmile_qr_scan"}, "is_reserved": 0}, {"lon": -77.02308166666667, "bike_id": "5fdb2db00b034fa10effa01881994175", "lat": 38.87885516666667, "fusion_lon": 0.0, "fusion_lat": 0.0, "type": "electric_scooter", "name": "5fdb2db00b034fa10effa01881994175", "is_disabled": 0, "rental_uris": {"ios": "https://dc.lft.to/lastmile_qr_scan", "android": "https://dc.lft.to/lastmile_qr_scan"}, "is_reserved": 0}, {"lon": -77.06893133333334, "bike_id": "fdd03613221734621c372c0e2bd2d678", "lat": 38.90515033333333, "fusion_lon": 0.0, "fusion_lat": 0.0, "type": "electric_scooter", "name": "fdd03613221734621c372c0e2bd2d678", "is_disabled": 0, "rental_uris": {"ios": "https://dc.lft.to/lastmile_qr_scan", "android": "https://dc.lft.to/lastmile_qr_scan"}, "is_reserved": 0}, {"lon": -76.9463365, "bike_id": "bdf7ef455d8e32a052b5b0eeec8c19e4", "lat": 38.89834, "fusion_lon": 0.0, "fusion_lat": 0.0, "type": "electric_scooter", "name": "bdf7ef455d8e32a052b5b0eeec8c19e4", "is_disabled": 0, "rental_uris": {"ios": "https://dc.lft.to/lastmile_qr_scan", "android": "https://dc.lft.to/lastmile_qr_scan"}, "is_reserved": 0}, {"lon": -77.000493, "bike_id": "091fd509201e1d11a7cd5371f315b9f4", "lat": 38.9069965, "fusion_lon": 0.0, "fusion_lat": 0.0, "type": "electric_scooter", "name": "091fd509201e1d11a7cd5371f315b9f4", "is_disabled": 0, "rental_uris": {"ios": "https://dc.lft.to/lastmile_qr_scan", "android": "https://dc.lft.to/lastmile_qr_scan"}, "is_reserved": 0}, {"lon": -77.03756433333334, "bike_id": "ffd32a2c594580ccdb2f49de832f9952", "lat": 38.912516833333335, "fusion_lon": 0.0, "fusion_lat": 0.0, "type": "electric_scooter", "name": "ffd32a2c594580ccdb2f49de832f9952", "is_disabled": 0, "rental_uris": {"ios": "https://dc.lft.to/lastmile_qr_scan", "android": "https://dc.lft.to/lastmile_qr_scan"}, "is_reserved": 0}, {"lon": -77.05168216666667, "bike_id": "f71a306765cb71e4de8a94404a9f3b4e", "lat": 38.897865833333334, "fusion_lon": 0.0, "fusion_lat": 0.0, "type": "electric_scooter", "name": "f71a306765cb71e4de8a94404a9f3b4e", "is_disabled": 0, "rental_uris": {"ios": "https://dc.lft.to/lastmile_qr_scan", "android": "https://dc.lft.to/lastmile_qr_scan"}, "is_reserved": 0}, {"lon": -77.0031345, "bike_id": "f4a8014f92051f83868a16b5f3fa9ccb", "lat": 38.923533166666665, "fusion_lon": 0.0, "fusion_lat": 0.0, "type": "electric_scooter", "name": "f4a8014f92051f83868a16b5f3fa9ccb", "is_disabled": 0, "rental_uris": {"ios": "https://dc.lft.to/lastmile_qr_scan", "android": "https://dc.lft.to/lastmile_qr_scan"}, "is_reserved": 0}, {"lon": -76.9837755, "bike_id": "8c95a69c1e3974043266d1f7dc21f6b4", "lat": 38.90648, "fusion_lon": 0.0, "fusion_lat": 0.0, "type": "electric_scooter", "name": "8c95a69c1e3974043266d1f7dc21f6b4", "is_disabled": 0, "rental_uris": {"ios": "https://dc.lft.to/lastmile_qr_scan", "android": "https://dc.lft.to/lastmile_qr_scan"}, "is_reserved": 0}, {"lon": -77.0308005, "bike_id": "c548d3e2bfdcac93b26645fac62bdab6", "lat": 38.910076, "fusion_lon": 0.0, "fusion_lat": 0.0, "type": "electric_scooter", "name": "c548d3e2bfdcac93b26645fac62bdab6", "is_disabled": 0, "rental_uris": {"ios": "https://dc.lft.to/lastmile_qr_scan", "android": "https://dc.lft.to/lastmile_qr_scan"}, "is_reserved": 0}, {"lon": -77.04324883333334, "bike_id": "9e729a6d8d3e88165c7d4ac3a746a4a6", "lat": 38.9088375, "fusion_lon": 0.0, "fusion_lat": 0.0, "type": "electric_scooter", "name": "9e729a6d8d3e88165c7d4ac3a746a4a6", "is_disabled": 0, "rental_uris": {"ios": "https://dc.lft.to/lastmile_qr_scan", "android": "https://dc.lft.to/lastmile_qr_scan"}, "is_reserved": 0}, {"lon": -77.03337033333334, "bike_id": "bcbea71fc7815afaede6905c8aeebac9", "lat": 38.9389985, "fusion_lon": 0.0, "fusion_lat": 0.0, "type": "electric_scooter", "name": "bcbea71fc7815afaede6905c8aeebac9", "is_disabled": 0, "rental_uris": {"ios": "https://dc.lft.to/lastmile_qr_scan", "android": "https://dc.lft.to/lastmile_qr_scan"}, "is_reserved": 0}, {"lon": -77.032462, "bike_id": "063a0051b1494f462992316869b89a37", "lat": 38.919994333333335, "fusion_lon": 0.0, "fusion_lat": 0.0, "type": "electric_scooter", "name": "063a0051b1494f462992316869b89a37", "is_disabled": 0, "rental_uris": {"ios": "https://dc.lft.to/lastmile_qr_scan", "android": "https://dc.lft.to/lastmile_qr_scan"}, "is_reserved": 0}, {"lon": -77.03522283333334, "bike_id": "0530f603b29fe00472bd24798ff65ec1", "lat": 38.915971, "fusion_lon": 0.0, "fusion_lat": 0.0, "type": "electric_scooter", "name": "0530f603b29fe00472bd24798ff65ec1", "is_disabled": 0, "rental_uris": {"ios": "https://dc.lft.to/lastmile_qr_scan", "android": "https://dc.lft.to/lastmile_qr_scan"}, "is_reserved": 0}, {"lon": -77.03258233333334, "bike_id": "d26e05c9b90355f5a66e2788263bfe2b", "lat": 38.942743, "fusion_lon": 0.0, "fusion_lat": 0.0, "type": "electric_scooter", "name": "d26e05c9b90355f5a66e2788263bfe2b", "is_disabled": 0, "rental_uris": {"ios": "https://dc.lft.to/lastmile_qr_scan", "android": "https://dc.lft.to/lastmile_qr_scan"}, "is_reserved": 0}, {"lon": -76.99508133333333, "bike_id": "d12c146ec6ea7adb5a7a38370eea1c1f", "lat": 38.879167833333334, "fusion_lon": 0.0, "fusion_lat": 0.0, "type": "electric_scooter", "name": "d12c146ec6ea7adb5a7a38370eea1c1f", "is_disabled": 0, "rental_uris": {"ios": "https://dc.lft.to/lastmile_qr_scan", "android": "https://dc.lft.to/lastmile_qr_scan"}, "is_reserved": 0}, {"lon": -77.04183983333333, "bike_id": "8e5af95ddd662ac51f1c6c90e02416d9", "lat": 38.89224633333333, "fusion_lon": 0.0, "fusion_lat": 0.0, "type": "electric_scooter", "name": "8e5af95ddd662ac51f1c6c90e02416d9", "is_disabled": 0, "rental_uris": {"ios": "https://dc.lft.to/lastmile_qr_scan", "android": "https://dc.lft.to/lastmile_qr_scan"}, "is_reserved": 0}, {"lon": -77.03830483333333, "bike_id": "057771e8f5ceed740e638489fcd693e4", "lat": 38.9126745, "fusion_lon": 0.0, "fusion_lat": 0.0, "type": "electric_scooter", "name": "057771e8f5ceed740e638489fcd693e4", "is_disabled": 0, "rental_uris": {"ios": "https://dc.lft.to/lastmile_qr_scan", "android": "https://dc.lft.to/lastmile_qr_scan"}, "is_reserved": 0}, {"lon": -77.01780466666666, "bike_id": "a9272d2019515a41adbe0c5795b2c161", "lat": 38.88609433333333, "fusion_lon": 0.0, "fusion_lat": 0.0, "type": "electric_scooter", "name": "a9272d2019515a41adbe0c5795b2c161", "is_disabled": 0, "rental_uris": {"ios": "https://dc.lft.to/lastmile_qr_scan", "android": "https://dc.lft.to/lastmile_qr_scan"}, "is_reserved": 0}, {"lon": -77.041618, "bike_id": "11cc8b3cafaad3017b1708c888eb3bee", "lat": 38.91254333333333, "fusion_lon": 0.0, "fusion_lat": 0.0, "type": "electric_scooter", "name": "11cc8b3cafaad3017b1708c888eb3bee", "is_disabled": 0, "rental_uris": {"ios": "https://dc.lft.to/lastmile_qr_scan", "android": "https://dc.lft.to/lastmile_qr_scan"}, "is_reserved": 0}, {"lon": -77.02216516666667, "bike_id": "0f0bc9c4871a290fd6c61a8499a1906f", "lat": 38.8876935, "fusion_lon": 0.0, "fusion_lat": 0.0, "type": "electric_scooter", "name": "0f0bc9c4871a290fd6c61a8499a1906f", "is_disabled": 0, "rental_uris": {"ios": "https://dc.lft.to/lastmile_qr_scan", "android": "https://dc.lft.to/lastmile_qr_scan"}, "is_reserved": 0}, {"lon": -77.02453083333333, "bike_id": "125729e01891965571aaf008d302d799", "lat": 38.8844235, "fusion_lon": 0.0, "fusion_lat": 0.0, "type": "electric_scooter", "name": "125729e01891965571aaf008d302d799", "is_disabled": 0, "rental_uris": {"ios": "https://dc.lft.to/lastmile_qr_scan", "android": "https://dc.lft.to/lastmile_qr_scan"}, "is_reserved": 0}, {"lon": -77.0480545, "bike_id": "95cfa6f6dd2adf0b74d64ad5af78e554", "lat": 38.91404133333333, "fusion_lon": 0.0, "fusion_lat": 0.0, "type": "electric_scooter", "name": "95cfa6f6dd2adf0b74d64ad5af78e554", "is_disabled": 0, "rental_uris": {"ios": "https://dc.lft.to/lastmile_qr_scan", "android": "https://dc.lft.to/lastmile_qr_scan"}, "is_reserved": 0}, {"lon": -76.982338, "bike_id": "72e8b35eb4b652b68ca21da087765548", "lat": 38.8886785, "fusion_lon": 0.0, "fusion_lat": 0.0, "type": "electric_scooter", "name": "72e8b35eb4b652b68ca21da087765548", "is_disabled": 0, "rental_uris": {"ios": "https://dc.lft.to/lastmile_qr_scan", "android": "https://dc.lft.to/lastmile_qr_scan"}, "is_reserved": 0}, {"lon": -77.04031816666667, "bike_id": "dc1c2933312267d370f1f8c228e474d4", "lat": 38.90577066666667, "fusion_lon": 0.0, "fusion_lat": 0.0, "type": "electric_scooter", "name": "dc1c2933312267d370f1f8c228e474d4", "is_disabled": 0, "rental_uris": {"ios": "https://dc.lft.to/lastmile_qr_scan", "android": "https://dc.lft.to/lastmile_qr_scan"}, "is_reserved": 0}, {"lon": -77.0426945, "bike_id": "0c77114f4bf88d8ec8c52c350908097d", "lat": 38.922330333333335, "fusion_lon": 0.0, "fusion_lat": 0.0, "type": "electric_scooter", "name": "0c77114f4bf88d8ec8c52c350908097d", "is_disabled": 0, "rental_uris": {"ios": "https://dc.lft.to/lastmile_qr_scan", "android": "https://dc.lft.to/lastmile_qr_scan"}, "is_reserved": 0}, {"lon": -77.003559, "bike_id": "24b10423aaa8da4fb15a6dfe732c8218", "lat": 38.89935633333333, "fusion_lon": 0.0, "fusion_lat": 0.0, "type": "electric_scooter", "name": "24b10423aaa8da4fb15a6dfe732c8218", "is_disabled": 0, "rental_uris": {"ios": "https://dc.lft.to/lastmile_qr_scan", "android": "https://dc.lft.to/lastmile_qr_scan"}, "is_reserved": 0}, {"lon": -77.03657783333334, "bike_id": "ab60b04f45439f7a6c380ef5a53b2dbf", "lat": 38.9360695, "fusion_lon": 0.0, "fusion_lat": 0.0, "type": "electric_scooter", "name": "ab60b04f45439f7a6c380ef5a53b2dbf", "is_disabled": 0, "rental_uris": {"ios": "https://dc.lft.to/lastmile_qr_scan", "android": "https://dc.lft.to/lastmile_qr_scan"}, "is_reserved": 0}, {"lon": -77.03173416666667, "bike_id": "a904e46f4c4dc2368804d4b80e72e266", "lat": 38.89200116666667, "fusion_lon": 0.0, "fusion_lat": 0.0, "type": "electric_scooter", "name": "a904e46f4c4dc2368804d4b80e72e266", "is_disabled": 0, "rental_uris": {"ios": "https://dc.lft.to/lastmile_qr_scan", "android": "https://dc.lft.to/lastmile_qr_scan"}, "is_reserved": 0}, {"lon": -77.05889583333334, "bike_id": "e8e7e5ebe4b8466492fe658c60e9fe5f", "lat": 38.93607016666667, "fusion_lon": 0.0, "fusion_lat": 0.0, "type": "electric_scooter", "name": "e8e7e5ebe4b8466492fe658c60e9fe5f", "is_disabled": 0, "rental_uris": {"ios": "https://dc.lft.to/lastmile_qr_scan", "android": "https://dc.lft.to/lastmile_qr_scan"}, "is_reserved": 0}, {"lon": -77.02833933333334, "bike_id": "984f11076b265fd90cc709c1f5e3329d", "lat": 38.9023955, "fusion_lon": 0.0, "fusion_lat": 0.0, "type": "electric_scooter", "name": "984f11076b265fd90cc709c1f5e3329d", "is_disabled": 0, "rental_uris": {"ios": "https://dc.lft.to/lastmile_qr_scan", "android": "https://dc.lft.to/lastmile_qr_scan"}, "is_reserved": 0}, {"lon": -77.03386583333334, "bike_id": "675ad276d6ed17950d7bc8ab6c9f8778", "lat": 38.90269383333333, "fusion_lon": 0.0, "fusion_lat": 0.0, "type": "electric_scooter", "name": "675ad276d6ed17950d7bc8ab6c9f8778", "is_disabled": 0, "rental_uris": {"ios": "https://dc.lft.to/lastmile_qr_scan", "android": "https://dc.lft.to/lastmile_qr_scan"}, "is_reserved": 0}, {"lon": -77.040891, "bike_id": "ceb7768d73a8b4fe2ffd5777302def18", "lat": 38.915615333333335, "fusion_lon": 0.0, "fusion_lat": 0.0, "type": "electric_scooter", "name": "ceb7768d73a8b4fe2ffd5777302def18", "is_disabled": 0, "rental_uris": {"ios": "https://dc.lft.to/lastmile_qr_scan", "android": "https://dc.lft.to/lastmile_qr_scan"}, "is_reserved": 0},