{"data": {"bikes": [{"is_reserved": 0, "is_disabled": 0, "fusion_lon": 0.0, "lat": 38.89623683333333, "name": "9a94ab329198ab7c0ee51dd530374ad4", "bike_id": "9a94ab329198ab7c0ee51dd530374ad4", "lon": -77.04052016666667, "fusion_lat": 0.0, "rental_uris": {"android": "https://dc.lft.to/lastmile_qr_scan", "ios": "https://dc.lft.to/lastmile_qr_scan"}, "type": "electric_scooter"}, {"is_reserved": 0, "is_disabled": 0, "fusion_lon": 0.0, "lat": 38.924216333333334, "name": "ee6cd2237cc173702dff5ed9cd9faf5e", "bike_id": "ee6cd2237cc173702dff5ed9cd9faf5e", "lon": -77.04459366666667, "fusion_lat": 0.0, "rental_uris": {"android": "https://dc.lft.to/lastmile_qr_scan", "ios": "https://dc.lft.to/lastmile_qr_scan"}, "type": "electric_scooter"}, {"is_reserved": 0, "is_disabled": 0, "fusion_lon": 0.0, "lat": 38.945033333333335, "name": "d3353a78293bb3a5159d578e887c12bc", "bike_id": "d3353a78293bb3a5159d578e887c12bc", "lon": -77.03423933333333, "fusion_lat": 0.0, "rental_uris": {"android": "https://dc.lft.to/lastmile_qr_scan", "ios": "https://dc.lft.to/lastmile_qr_scan"}, "type": "electric_scooter"}, {"is_reserved": 0, "is_disabled": 0, "fusion_lon": 0.0, "lat": 38.902557, "name": "4ee5ff1e54ce8cbe378f78754ace0d39", "bike_id": "4ee5ff1e54ce8cbe378f78754ace0d39", "lon": -77.061644, "fusion_lat": 0.0, "rental_uris": {"android": "https://dc.lft.to/lastmile_qr_scan", "ios": "https://dc.lft.to/lastmile_qr_scan"}, "type": "electric_scooter"}, {"is_reserved": 0, "is_disabled": 0, "fusion_lon": 0.0, "lat": 38.91560883333333, "name": "5e3bde8655d4b5de092177d0e6e5da77", "bike_id": "5e3bde8655d4b5de092177d0e6e5da77", "lon": -77.04877133333333, "fusion_lat": 0.0, "rental_uris": {"android": "https://dc.lft.to/lastmile_qr_scan", "ios": "https://dc.lft.to/lastmile_qr_scan"}, "type": "electric_scooter"}, {"is_reserved": 0, "is_disabled": 0, "fusion_lon": 0.0, "lat": 38.933292, "name": "ed6bb635057c6657eb55dc34054be00e", "bike_id": "ed6bb635057c6657eb55dc34054be00e", "lon": -77.0381115, "fusion_lat": 0.0, "rental_uris": {"android": "https://dc.lft.to/lastmile_qr_scan", "ios": "https://dc.lft.to/lastmile_qr_scan"}, "type": "electric_scooter"}, {"is_reserved": 0, "is_disabled": 0, "fusion_lon": 0.0, "lat": 38.898971, "name": "81c9c7f8c3bcfe2f93b6c774f3f35ad9", "bike_id": "81c9c7f8c3bcfe2f93b6c774f3f35ad9", "lon": -76.98956733333333, "fusion_lat": 0.0, "rental_uris": {"android": "https://dc.lft.to/lastmile_qr_scan", "ios": "https://dc.lft.to/lastmile_qr_scan"}, "type": "electric_bike"}, {"is_reserved": 0, "is_disabled": 0, "fusion_lon": 0.0, "lat": 38.90630783333334, "name": "6d3de344b56a6686ae49a24bc0dd9226", "bike_id": "6d3de344b56a6686ae49a24bc0dd9226", "lon": -77.00599483333333, "fusion_lat": 0.0, "rental_uris": {"android": "https://dc.lft.to/lastmile_qr_scan", "ios": "https://dc.lft.to/lastmile_qr_scan"}, "type": "electric_scooter"}, {"is_reserved": 0, "is_disabled": 0, "fusion_lon": 0.0, "lat": 38.918464, "name": "c00fa356a24a786df636606d8806a57d", "bike_id": "c00fa356a24a786df636606d8806a57d", "lon": -76.96546683333334, "fusion_lat": 0.0, "rental_uris": {"android": "https://dc.lft.to/lastmile_qr_scan", "ios": "https://dc.lft.to/lastmile_qr_scan"}, "type": "electric_scooter"}, {"is_reserved": 0, "is_disabled": 0, "fusion_lon": 0.0, "lat": 38.9589235, "name": "47c53bda17f505af08c9e919bee440d8", "bike_id": "47c53bda17f505af08c9e919bee440d8", "lon": -77.00016033333333, "fusion_lat": 0.0, "rental_uris": {"android": "https://dc.lft.to/lastmile_qr_scan", "ios": "https://dc.lft.to/lastmile_qr_scan"}, "type": "electric_scooter"}, {"is_reserved": 0, "is_disabled": 0, "fusion_lon": 0.0, "lat": 38.92203633333333, "name": "3ed7bfa3fd934f85db737b167ae1cb9b", "bike_id": "3ed7bfa3fd934f85db737b167ae1cb9b", "lon": -77.02035316666667, "fusion_lat": 0.0, "rental_uris": {"android": "https://dc.lft.to/lastmile_qr_scan", "ios": "https://dc.lft.to/lastmile_qr_scan"}, "type": "electric_scooter"}, {"is_reserved": 0, "is_disabled": 0, "fusion_lon": 0.0, "lat": 38.91230483333333, "name": "35472a4e044c1adddfe254b28fb092d6", "bike_id": "35472a4e044c1adddfe254b28fb092d6", "lon": -77.06588883333333, "fusion_lat": 0.0, "rental_uris": {"android": "https://dc.lft.to/lastmile_qr_scan", "ios": "https://dc.lft.to/lastmile_qr_scan"}, "type": "electric_scooter"}, {"is_reserved": 0, "is_disabled": 0, "fusion_lon": 0.0, "lat": 38.912086, "name": "5166f343c2088ab228875bca1b695f3d", "bike_id": "5166f343c2088ab228875bca1b695f3d", "lon": -77.00461583333333, "fusion_lat": 0.0, "rental_uris": {"android": "https://dc.lft.to/lastmile_qr_scan", "ios": "https://dc.lft.to/lastmile_qr_scan"}, "type": "electric_bike"}, {"is_reserved": 0, "is_disabled": 0, "fusion_lon": 0.0, "lat": 38.937597, "name": "2d316892b2de32034f4ba9a2b16fc86d", "bike_id": "2d316892b2de32034f4ba9a2b16fc86d", "lon": -76.99055116666666, "fusion_lat": 0.0, "rental_uris": {"android": "https://dc.lft.to/lastmile_qr_scan", "ios": "https://dc.lft.to/lastmile_qr_scan"}, "type": "electric_bike"}, {"is_reserved": 0, "is_disabled": 0, "fusion_lon": 0.0, "lat": 38.923468, "name": "5adab9bb75df6d588af35b4a11a76ef9", "bike_id": "5adab9bb75df6d588af35b4a11a76ef9", "lon": -77.03288216666667, "fusion_lat": 0.0, "rental_uris": {"android": "https://dc.lft.to/lastmile_qr_scan", "ios": "https://dc.lft.to/lastmile_qr_scan"}, "type": "electric_scooter"}, {"is_reserved": 0, "is_disabled": 0, "fusion_lon": 0.0, "lat": 38.89748766666666, "name": "303d960593b569a7ca6e4ca1de1d9710", "bike_id": "303d960593b569a7ca6e4ca1de1d9710", "lon": -77.02999466666667, "fusion_lat": 0.0, "rental_uris": {"android": "https://dc.lft.to/lastmile_qr_scan", "ios": "https://dc.lft.to/lastmile_qr_scan"}, "type": "electric_scooter"}, {"is_reserved": 0, "is_disabled": 0, "fusion_lon": 0.0, "lat": 38.92483433333334, "name": "121338c80fdb22f3d7cc98bf5011780e", "bike_id": "121338c80fdb22f3d7cc98bf5011780e", "lon": -77.02271466666667, "fusion_lat": 0.0, "rental_uris": {"android": "https://dc.lft.to/lastmile_qr_scan", "ios": "https://dc.lft.to/lastmile_qr_scan"}, "type": "electric_scooter"}, {"is_reserved": 0, "is_disabled": 0, "fusion_lon": 0.0, "lat": 38.94149183333333, "name": "c3e1182aad14adb105054d9fa1293514", "bike_id": "c3e1182aad14adb105054d9fa1293514", "lon": -77.00199333333333, "fusion_lat": 0.0, "rental_uris": {"android": "https://dc.lft.to/lastmile_qr_scan", "ios": "https://dc.lft.to/lastmile_qr_scan"}, "type": "electric_bike"}, {"is_reserved": 0, "is_disabled": 0, "fusion_lon": 0.0, "lat": 38.927684, "name": "72a8025991de405530bddd6ff45c88ef", "bike_id": "72a8025991de405530bddd6ff45c88ef", "lon": -77.0273295, "fusion_lat": 0.0, "rental_uris": {"android": "https://dc.lft.to/lastmile_qr_scan", "ios": "https://dc.lft.to/lastmile_qr_scan"}, "type": "electric_scooter"}, {"is_reserved": 0, "is_disabled": 0, "fusion_lon": 0.0, "lat": 38.913217833333334, "name": "ed4bf3294e41327c5f0fa47f9bef61fa", "bike_id": "ed4bf3294e41327c5f0fa47f9bef61fa", "lon": -77.0453855, "fusion_lat": 0.0, "rental_uris": {"android": "https://dc.lft.to/lastmile_qr_scan", "ios": "https://dc.lft.to/lastmile_qr_scan"}, "type": "electric_scooter"}, {"is_reserved": 0, "is_disabled": 0, "fusion_lon": 0.0, "lat": 38.90300383333334, "name": "f2ff244810b0c943bb49ba71d177256f", "bike_id": "f2ff244810b0c943bb49ba71d177256f", "lon": -77.04955633333333, "fusion_lat": 0.0, "rental_uris": {"android": "https://dc.lft.to/lastmile_qr_scan", "ios": "https://dc.lft.to/lastmile_qr_scan"}, "type": "electric_scooter"}, {"is_reserved": 0, "is_disabled": 0, "fusion_lon": 0.0, "lat": 38.8951865, "name": "07df2a53aa17d67e63f104285bcc2051", "bike_id": "07df2a53aa17d67e63f104285bcc2051", "lon": -77.04489266666667, "fusion_lat": 0.0, "rental_uris": {"android": "https://dc.lft.to/lastmile_qr_scan", "ios": "https://dc.lft.to/lastmile_qr_scan"}, "type": "electric_scooter"}, {"is_reserved": 0, "is_disabled": 0, "fusion_lon": 0.0, "lat": 38.87900233333333, "name": "8a096afd04c709bc726a260e6e009c15", "bike_id": "8a096afd04c709bc726a260e6e009c15", "lon": -77.01366583333333, "fusion_lat": 0.0, "rental_uris": {"android": "https://dc.lft.to/lastmile_qr_scan", "ios": "https://dc.lft.to/lastmile_qr_scan"}, "type": "electric_scooter"}, {"is_reserved": 0, "is_disabled": 0, "fusion_lon": 0.0, "lat": 38.905658333333335, "name": "7403ccf262a4b408549807d5d9c9b08c", "bike_id": "7403ccf262a4b408549807d5d9c9b08c", "lon": -77.05707333333334, "fusion_lat": 0.0, "rental_uris": {"android": "https://dc.lft.to/lastmile_qr_scan", "ios": "https://dc.lft.to/lastmile_qr_scan"}, "type": "electric_scooter"}, {"is_reserved": 0, "is_disabled": 0, "fusion_lon": 0.0, "lat": 38.90272483333333, "name": "051a329b2be8e4dd6923214fc322f6d6", "bike_id": "051a329b2be8e4dd6923214fc322f6d6", "lon": -77.03923416666666, "fusion_lat": 0.0, "rental_uris": {"android": "https://dc.lft.to/lastmile_qr_scan", "ios": "https://dc.lft.to/lastmile_qr_scan"}, "type": "electric_scooter"}, {"is_reserved": 0, "is_disabled": 0, "fusion_lon": 0.0, "lat": 38.8896705, "name": "2944c39dd9b8cd20b085ad89b4518296", "bike_id": "2944c39dd9b8cd20b085ad89b4518296", "lon": -76.98035083333333, "fusion_lat": 0.0, "rental_uris": {"android": "https://dc.lft.to/lastmile_qr_scan", "ios": "https://dc.lft.to/lastmile_qr_scan"}, "type": "electric_scooter"}, {"is_reserved": 0, "is_disabled": 0, "fusion_lon": 0.0, "lat": 38.915479500000004, "name": "93d8af9c7f5c210dbc3be7523f28c3ae", "bike_id": "93d8af9c7f5c210dbc3be7523f28c3ae", "lon": -77.05102283333333, "fusion_lat": 0.0, "rental_uris": {"android": "https://dc.lft.to/lastmile_qr_scan", "ios": "https://dc.lft.to/lastmile_qr_scan"}, "type": "electric_scooter"}, {"is_reserved": 0, "is_disabled": 0, "fusion_lon": 0.0, "lat": 38.9030265, "name": "87f387fbece1dfd229389770e005e3e0", "bike_id": "87f387fbece1dfd229389770e005e3e0", "lon": -77.05052433333333, "fusion_lat": 0.0, "rental_uris": {"android": "https://dc.lft.to/lastmile_qr_scan", "ios": "https://dc.lft.to/lastmile_qr_scan"}, "type": "electric_scooter"}, {"is_reserved": 0, "is_disabled": 0, "fusion_lon": 0.0, "lat": 38.9229335, "name": "959dbb7f41b38f8e18897fb2690c4bb7", "bike_id": "959dbb7f41b38f8e18897fb2690c4bb7", "lon": -77.04217066666666, "fusion_lat": 0.0, "rental_uris": {"android": "https://dc.lft.to/lastmile_qr_scan", "ios": "https://dc.lft.to/lastmile_qr_scan"}, "type": "electric_scooter"}, {"is_reserved": 0, "is_disabled": 0, "fusion_lon": 0.0, "lat": 38.8988535, "name": "140ab422a228fff3f3ab4b83bfc1a215", "bike_id": "140ab422a228fff3f3ab4b83bfc1a215", "lon": -76.93176133333333, "fusion_lat": 0.0, "rental_uris": {"android": "https://dc.lft.to/lastmile_qr_scan", "ios": "https://dc.lft.to/lastmile_qr_scan"}, "type": "electric_scooter"}, {"is_reserved": 0, "is_disabled": 0, "fusion_lon": 0.0, "lat": 38.90942833333333, "name": "d6d8ffc6f16cff515427b6c2014c04a4", "bike_id": "d6d8ffc6f16cff515427b6c2014c04a4", "lon": -77.04876033333333, "fusion_lat": 0.0, "rental_uris": {"android": "https://dc.lft.to/lastmile_qr_scan", "ios": "https://dc.lft.to/lastmile_qr_scan"}, "type": "electric_scooter"}, {"is_reserved": 0, "is_disabled": 0, "fusion_lon": 0.0, "lat": 38.92369883333333, "name": "c642c5e2674f0b533c13ac81821bf1d3", "bike_id": "c642c5e2674f0b533c13ac81821bf1d3", "lon": -77.0313135, "fusion_lat": 0.0, "rental_uris": {"android": "https://dc.lft.to/lastmile_qr_scan", "ios": "https://dc.lft.to/lastmile_qr_scan"}, "type": "electric_scooter"}, {"is_reserved": 0, "is_disabled": 0, "fusion_lon": 0.0, "lat": 38.918729666666664, "name": "5ebd10eba1cc85f96bc5a51b9c434aea", "bike_id": "5ebd10eba1cc85f96bc5a51b9c434aea", "lon": -77.04484966666666, "fusion_lat": 0.0, "rental_uris": {"android": "https://dc.lft.to/lastmile_qr_scan", "ios": "https://dc.lft.to/lastmile_qr_scan"}, "type": "electric_scooter"}, {"is_reserved": 0, "is_disabled": 0, "fusion_lon": 0.0, "lat": 38.92471883333333, "name": "e6678c755dd58f8de6fcfcc8b6eeaf92", "bike_id": "e6678c755dd58f8de6fcfcc8b6eeaf92", "lon": -77.03939283333334, "fusion_lat": 0.0, "rental_uris": {"android": "https://dc.lft.to/lastmile_qr_scan", "ios": "https://dc.lft.to/lastmile_qr_scan"}, "type": "electric_scooter"}, {"is_reserved": 0, "is_disabled": 0, "fusion_lon": 0.0, "lat": 38.90129983333333, "name": "10b42394e548c5328b98f93cc5780c2f", "bike_id": "10b42394e548c5328b98f93cc5780c2f", "lon": -77.01737666666666, "fusion_lat": 0.0, "rental_uris": {"android": "https://dc.lft.to/lastmile_qr_scan", "ios": "https://dc.lft.to/lastmile_qr_scan"}, "type": "electric_scooter"}, {"is_reserved": 0, "is_disabled": 0, "fusion_lon": 0.0, "lat": 38.96043933333333, "name": "5c051b5763fbbf42028ce5b5b2fe6de5", "bike_id": "5c051b5763fbbf42028ce5b5b2fe6de5", "lon": -77.00511766666666, "fusion_lat": 0.0, "rental_uris": {"android": "https://dc.lft.to/lastmile_qr_scan", "ios": "https://dc.lft.to/lastmile_qr_scan"}, "type": "electric_scooter"}, {"is_reserved": 0, "is_disabled": 0, "fusion_lon": 0.0, "lat": 38.930605666666665, "name": "78533fca327141dcbe7c2d92fef7bf42", "bike_id": "78533fca327141dcbe7c2d92fef7bf42", "lon": -77.04332983333333, "fusion_lat": 0.0, "rental_uris": {"android": "https://dc.lft.to/lastmile_qr_scan", "ios": "https://dc.lft.to/lastmile_qr_scan"}, "type": "electric_scooter"}, {"is_reserved": 0, "is_disabled": 0, "fusion_lon": 0.0, "lat": 38.91782933333333, "name": "623972be03a1423f6549a2b1a1f6e9cd", "bike_id": "623972be03a1423f6549a2b1a1f6e9cd", "lon": -77.02309183333334, "fusion_lat": 0.0, "rental_uris": {"android": "https://dc.lft.to/lastmile_qr_scan", "ios": "https://dc.lft.to/lastmile_qr_scan"}, "type": "electric_scooter"}, {"is_reserved": 0, "is_disabled": 0, "fusion_lon": 0.0, "lat": 38.9283305, "name": "e22442b447800b20bfe93a3472b578a5", "bike_id": "e22442b447800b20bfe93a3472b578a5", "lon": -76.995821, "fusion_lat": 0.0, "rental_uris": {"android": "https://dc.lft.to/lastmile_qr_scan", "ios": "https://dc.lft.to/lastmile_qr_scan"}, "type": "electric_scooter"}, {"is_reserved": 0, "is_disabled": 0, "fusion_lon": 0.0, "lat": 38.94036116666667, "name": "9cfb3535ce3ec2869d2a9c7b0394e663", "bike_id": "9cfb3535ce3ec2869d2a9c7b0394e663", "lon": -77.07568033333334, "fusion_lat": 0.0, "rental_uris": {"android": "https://dc.lft.to/lastmile_qr_scan", "ios": "https://dc.lft.to/lastmile_qr_scan"}, "type": "electric_scooter"}, {"is_reserved": 0, "is_disabled": 0, "fusion_lon": 0.0, "lat": 38.900640833333334, "name": "26814f3e8665f73a2168bd27a6662ef8", "bike_id": "26814f3e8665f73a2168bd27a6662ef8", "lon": -76.92740183333333, "fusion_lat": 0.0, "rental_uris": {"android": "https://dc.lft.to/lastmile_qr_scan", "ios": "https://dc.lft.to/lastmile_qr_scan"}, "type": "electric_scooter"}, {"is_reserved": 0, "is_disabled": 0, "fusion_lon": 0.0, "lat": 38.87860333333333, "name": "88dc0bd9489ba086926b6599414bbbee", "bike_id": "88dc0bd9489ba086926b6599414bbbee", "lon": -76.99163183333333, "fusion_lat": 0.0, "rental_uris": {"android": "https://dc.lft.to/lastmile_qr_scan", "ios": "https://dc.lft.to/lastmile_qr_scan"}, "type": "electric_scooter"}, {"is_reserved": 0, "is_disabled": 0, "fusion_lon": 0.0, "lat": 38.92369016666667, "name": "61cdc4e4d31b1409c1d90c90e8496342", "bike_id": "61cdc4e4d31b1409c1d90c90e8496342", "lon": -77.0269505, "fusion_lat": 0.0, "rental_uris": {"android": "https://dc.lft.to/lastmile_qr_scan", "ios": "https://dc.lft.to/lastmile_qr_scan"}, "type": "electric_scooter"}, {"is_reserved": 0, "is_disabled": 0, "fusion_lon": 0.0, "lat": 38.881212833333336, "name": "67cb3be147152c6a0018f45548f6f22a", "bike_id": "67cb3be147152c6a0018f45548f6f22a", "lon": -76.99295083333334, "fusion_lat": 0.0, "rental_uris": {"android": "https://dc.lft.to/lastmile_qr_scan", "ios": "https://dc.lft.to/lastmile_qr_scan"}, "type": "electric_scooter"}, {"is_reserved": 0, "is_disabled": 0, "fusion_lon": 0.0, "lat": 38.9079465, "name": "4e8523f91179e8e56aa2416cb1d30863", "bike_id": "4e8523f91179e8e56aa2416cb1d30863", "lon": -77.04982983333333, "fusion_lat": 0.0, "rental_uris": {"android": "https://dc.lft.to/lastmile_qr_scan", "ios": "https://dc.lft.to/lastmile_qr_scan"}, "type": "electric_scooter"}, {"is_reserved": 0, "is_disabled": 0, "fusion_lon": 0.0, "lat": 38.9182, "name": "af26ddf61c0b8f435ad96a9a8604da38", "bike_id": "af26ddf61c0b8f435ad96a9a8604da38", "lon": -77.0475495, "fusion_lat": 0.0, "rental_uris": {"android": "https://dc.lft.to/lastmile_qr_scan", "ios": "https://dc.lft.to/lastmile_qr_scan"}, "type": "electric_scooter"}, {"is_reserved": 0, "is_disabled": 0, "fusion_lon": 0.0, "lat": 38.89456116666667, "name": "6eb3213d6ab1f84b403a3caa1e1589e4", "bike_id": "6eb3213d6ab1f84b403a3caa1e1589e4", "lon": -77.00342266666667, "fusion_lat": 0.0, "rental_uris": {"android": "https://dc.lft.to/lastmile_qr_scan", "ios": "https://dc.lft.to/lastmile_qr_scan"}, "type": "electric_scooter"}, {"is_reserved": 0, "is_disabled": 0, "fusion_lon": 0.0, "lat": 38.9095865, "name": "15f0c96821cba2ccedf1cb4927b38fd7", "bike_id": "15f0c96821cba2ccedf1cb4927b38fd7", "lon": -77.04620433333334, "fusion_lat": 0.0, "rental_uris": {"android": "https://dc.lft.to/lastmile_qr_scan", "ios": "https://dc.lft.to/lastmile_qr_scan"}, "type": "electric_scooter"}, {"is_reserved": 0, "is_disabled": 0, "fusion_lon": 0.0, "lat": 38.91786166666667, "name": "7cd06d9902354ce8bf13afe01bd45d9b", "bike_id": "7cd06d9902354ce8bf13afe01bd45d9b", "lon": -77.0363675, "fusion_lat": 0.0, "rental_uris": {"android": "https://dc.lft.to/lastmile_qr_scan", "ios": "https://dc.lft.to/lastmile_qr_scan"}, "type": "electric_scooter"}, {"is_reserved": 0, "is_disabled": 0, "fusion_lon": 0.0, "lat": 38.881382, "name": "936766a1f361637832fcbd5815812c24", "bike_id": "936766a1f361637832fcbd5815812c24", "lon": -76.9962145, "fusion_lat": 0.0, "rental_uris": {"android": "https://dc.lft.to/lastmile_qr_scan", "ios": "https://dc.lft.to/lastmile_qr_scan"}, "type": "electric_scooter"}, {"is_reserved": 0, "is_disabled": 0, "fusion_lon": 0.0, "lat": 38.893297833333335, "name": "7aec9bf1c0fa72074777b3c87771f798", "bike_id": "7aec9bf1c0fa72074777b3c87771f798", "lon": -76.9393005, "fusion_lat": 0.0, "rental_uris": {"android": "https://dc.lft.to/lastmile_qr_scan", "ios": "https://dc.lft.to/lastmile_qr_scan"}, "type": "electric_scooter"}, {"is_reserved": 0, "is_disabled": 0, "fusion_lon": 0.0, "lat": 38.85244016666667, "name": "42038dc6eed01aae3304f90d49c123ee", "bike_id": "42038dc6eed01aae3304f90d49c123ee", "lon": -77.11427433333333, "fusion_lat": 0.0, "rental_uris": {"android": "https://dc.lft.to/lastmile_qr_scan", "ios": "https://dc.lft.to/lastmile_qr_scan"}, "type": "electric_bike"}, {"is_reserved": 0, "is_disabled": 0, "fusion_lon": 0.0, "lat": 38.91721166666667, "name": "0ecd3b471a4083f1a6725d0e6090a474", "bike_id": "0ecd3b471a4083f1a6725d0e6090a474", "lon": -77.02700733333333, "fusion_lat": 0.0, "rental_uris": {"android": "https://dc.lft.to/lastmile_qr_scan", "ios": "https://dc.lft.to/lastmile_qr_scan"}, "type": "electric_scooter"}, {"is_reserved": 0, "is_disabled": 0, "fusion_lon": 0.0, "lat": 38.91982383333333, "name": "1b24fe9e3564cc368d1b2988d3218c11", "bike_id": "1b24fe9e3564cc368d1b2988d3218c11", "lon": -77.032633, "fusion_lat": 0.0, "rental_uris": {"android": "https://dc.lft.to/lastmile_qr_scan", "ios": "https://dc.lft.to/lastmile_qr_scan"}, "type": "electric_scooter"}, {"is_reserved": 0, "is_disabled": 0, "fusion_lon": 0.0, "lat": 38.921595333333336, "name": "62be8dbe243a1892971528b97c8cd951", "bike_id": "62be8dbe243a1892971528b97c8cd951", "lon": -77.033316, "fusion_lat": 0.0, "rental_uris": {"android": "https://dc.lft.to/lastmile_qr_scan", "ios": "https://dc.lft.to/lastmile_qr_scan"}, "type": "electric_scooter"}, {"is_reserved": 0, "is_disabled": 0, "fusion_lon": 0.0, "lat": 38.886274666666665, "name": "d0d8589135c3346a006882f254e956df", "bike_id": "d0d8589135c3346a006882f254e956df", "lon": -77.03214783333334, "fusion_lat": 0.0, "rental_uris": {"android": "https://dc.lft.to/lastmile_qr_scan", "ios": "https://dc.lft.to/lastmile_qr_scan"}, "type": "electric_scooter"}, {"is_reserved": 0, "is_disabled": 0, "fusion_lon": 0.0, "lat": 38.9071815, "name": "cdccaa63ad87f7ecfa9b8d3bc856c149", "bike_id": "cdccaa63ad87f7ecfa9b8d3bc856c149", "lon": -77.02440316666667, "fusion_lat": 0.0, "rental_uris": {"android": "https://dc.lft.to/lastmile_qr_scan", "ios": "https://dc.lft.to/lastmile_qr_scan"}, "type": "electric_scooter"}, {"is_reserved": 0, "is_disabled": 0, "fusion_lon": 0.0, "lat": 38.944834, "name": "f3b4afc2e26384e06153a0a5588a3405", "bike_id": "f3b4afc2e26384e06153a0a5588a3405", "lon": -77.0640085, "fusion_lat": 0.0, "rental_uris": {"android": "https://dc.lft.to/lastmile_qr_scan", "ios": "https://dc.lft.to/lastmile_qr_scan"}, "type": "electric_scooter"}, {"is_reserved": 0, "is_disabled": 0, "fusion_lon": 0.0, "lat": 38.923301, "name": "a67dde0eecfdc637ffab804ba3f43e04", "bike_id": "a67dde0eecfdc637ffab804ba3f43e04", "lon": -77.056764, "fusion_lat": 0.0, "rental_uris": {"android": "https://dc.lft.to/lastmile_qr_scan", "ios": "https://dc.lft.to/lastmile_qr_scan"}, "type": "electric_scooter"}, {"is_reserved": 0, "is_disabled": 0, "fusion_lon": 0.0, "lat": 38.917387, "name": "ba635c36ad345e16131d1505fbaaa29d", "bike_id": "ba635c36ad345e16131d1505fbaaa29d", "lon": -77.02305783333334, "fusion_lat": 0.0, "rental_uris": {"android": "https://dc.lft.to/lastmile_qr_scan", "ios": "https://dc.lft.to/lastmile_qr_scan"}, "type": "electric_scooter"}, {"is_reserved": 0, "is_disabled": 0, "fusion_lon": 0.0, "lat": 38.87446883333333, "name": "84dde90a2a1eb3e9a6b38ddded5f4ce6", "bike_id": "84dde90a2a1eb3e9a6b38ddded5f4ce6", "lon": -77.00074966666666, "fusion_lat": 0.0, "rental_uris": {"android": "https://dc.lft.to/lastmile_qr_scan", "ios": "https://dc.lft.to/lastmile_qr_scan"}, "type": "electric_scooter"}, {"is_reserved": 0, "is_disabled": 0, "fusion_lon": 0.0, "lat": 38.908565, "name": "46f3edec163041121302fd9308e6b4a6", "bike_id": "46f3edec163041121302fd9308e6b4a6", "lon": -77.02411166666667, "fusion_lat": 0.0, "rental_uris": {"android": "https://dc.lft.to/lastmile_qr_scan", "ios": "https://dc.lft.to/lastmile_qr_scan"}, "type": "electric_scooter"}, {"is_reserved": 0, "is_disabled": 0, "fusion_lon": 0.0, "lat": 38.9211275, "name": "9adeeb406ad13560df72b9da28617654", "bike_id": "9adeeb406ad13560df72b9da28617654", "lon": -76.98879533333333, "fusion_lat": 0.0, "rental_uris": {"android": "https://dc.lft.to/lastmile_qr_scan", "ios": "https://dc.lft.to/lastmile_qr_scan"}, "type": "electric_bike"}, {"is_reserved": 0, "is_disabled": 0, "fusion_lon": 0.0, "lat": 38.9170795, "name": "2c64eb8fb59d045767e5af2a223c96f5", "bike_id": "2c64eb8fb59d045767e5af2a223c96f5", "lon": -77.03866433333333, "fusion_lat": 0.0, "rental_uris": {"android": "https://dc.lft.to/lastmile_qr_scan", "ios": "https://dc.lft.to/lastmile_qr_scan"}, "type": "electric_scooter"}, {"is_reserved": 0, "is_disabled": 0, "fusion_lon": 0.0, "lat": 38.9140235, "name": "8bc791954601e7b67ec2683458007090", "bike_id": "8bc791954601e7b67ec2683458007090", "lon": -77.018099, "fusion_lat": 0.0, "rental_uris": {"android": "https://dc.lft.to/lastmile_qr_scan", "ios": "https://dc.lft.to/lastmile_qr_scan"}, "type": "electric_scooter"}, {"is_reserved": 0, "is_disabled": 0, "fusion_lon": 0.0, "lat": 38.905029166666665, "name": "b5e4f54a3b0ab9617e8b8d72f4ee9c55", "bike_id": "b5e4f54a3b0ab9617e8b8d72f4ee9c55", "lon": -77.068704, "fusion_lat": 0.0, "rental_uris": {"android": "https://dc.lft.to/lastmile_qr_scan", "ios": "https://dc.lft.to/lastmile_qr_scan"}, "type": "electric_scooter"}, {"is_reserved": 0, "is_disabled": 0, "fusion_lon": 0.0, "lat": 38.93685583333333, "name": "b6c0e0f6611a5ce53f058f416926e35b", "bike_id": "b6c0e0f6611a5ce53f058f416926e35b", "lon": -77.036368, "fusion_lat": 0.0, "rental_uris": {"android": "https://dc.lft.to/lastmile_qr_scan", "ios": "https://dc.lft.to/lastmile_qr_scan"}, "type": "electric_scooter"}, {"is_reserved": 0, "is_disabled": 0, "fusion_lon": 0.0, "lat": 38.91923083333333, "name": "21659ee25af3de8edccffa05e44aa5db", "bike_id": "21659ee25af3de8edccffa05e44aa5db", "lon": -77.03369166666667, "fusion_lat": 0.0, "rental_uris": {"android": "https://dc.lft.to/lastmile_qr_scan", "ios": "https://dc.lft.to/lastmile_qr_scan"}, "type": "electric_scooter"}, {"is_reserved": 0, "is_disabled": 0, "fusion_lon": 0.0, "lat": 38.896986, "name": "5a6c9d8a9db67b115d58cd94ad697a0f", "bike_id": "5a6c9d8a9db67b115d58cd94ad697a0f", "lon": -77.04356, "fusion_lat": 0.0, "rental_uris": {"android": "https://dc.lft.to/lastmile_qr_scan", "ios": "https://dc.lft.to/lastmile_qr_scan"}, "type": "electric_scooter"}, {"is_reserved": 0, "is_disabled": 0, "fusion_lon": 0.0, "lat": 38.900118166666665, "name": "c8f26bb40197039da687086f32df2b81", "bike_id": "c8f26bb40197039da687086f32df2b81", "lon": -77.04479733333334, "fusion_lat": 0.0, "rental_uris": {"android": "https://dc.lft.to/lastmile_qr_scan", "ios": "https://dc.lft.to/lastmile_qr_scan"}, "type": "electric_scooter"}, {"is_reserved": 0, "is_disabled": 0, "fusion_lon": 0.0, "lat": 38.920699666666664, "name": "188a0087b464a46693bfc5d0f3dcf519", "bike_id": "188a0087b464a46693bfc5d0f3dcf519", "lon": -77.03796233333334, "fusion_lat": 0.0, "rental_uris": {"android": "https://dc.lft.to/lastmile_qr_scan", "ios": "https://dc.lft.to/lastmile_qr_scan"}, "type": "electric_scooter"}, {"is_reserved": 0, "is_disabled": 0, "fusion_lon": 0.0, "lat": 38.9293025, "name": "4ca708cb7dc19762a61483fad4f025b9", "bike_id": "4ca708cb7dc19762a61483fad4f025b9", "lon": -76.99821316666667, "fusion_lat": 0.0, "rental_uris": {"android": "https://dc.lft.to/lastmile_qr_scan", "ios": "https://dc.lft.to/lastmile_qr_scan"}, "type": "electric_scooter"}, {"is_reserved": 0, "is_disabled": 0, "fusion_lon": 0.0, "lat": 38.90787666666667, "name": "e89e744f380751070b1f69aceb747a2c", "bike_id": "e89e744f380751070b1f69aceb747a2c", "lon": -77.02199816666666, "fusion_lat": 0.0, "rental_uris": {"android": "https://dc.lft.to/lastmile_qr_scan", "ios": "https://dc.lft.to/lastmile_qr_scan"}, "type": "electric_scooter"}, {"is_reserved": 0, "is_disabled": 0, "fusion_lon": 0.0, "lat": 38.88032666666667, "name": "fbaba29b9db9557433c4abd779351156", "bike_id": "fbaba29b9db9557433c4abd779351156", "lon": -77.02502733333333, "fusion_lat": 0.0, "rental_uris": {"android": "https://dc.lft.to/lastmile_qr_scan", "ios": "https://dc.lft.to/lastmile_qr_scan"}, "type": "electric_scooter"}, {"is_reserved": 0, "is_disabled": 0, "fusion_lon": 0.0, "lat": 38.87398133333333, "name": "4a08eaaf236e7b531ce2569fc091f887", "bike_id": "4a08eaaf236e7b531ce2569fc091f887", "lon": -77.0002905, "fusion_lat": 0.0, "rental_uris": {"android": "https://dc.lft.to/lastmile_qr_scan", "ios": "https://dc.lft.to/lastmile_qr_scan"}, "type": "electric_scooter"}, {"is_reserved": 0, "is_disabled": 0, "fusion_lon": 0.0, "lat": 38.91689566666667, "name": "97b9c9f26c135983a4519a8bc1607fb6", "bike_id": "97b9c9f26c135983a4519a8bc1607fb6", "lon": -77.02461283333334, "fusion_lat": 0.0, "rental_uris": {"android": "https://dc.lft.to/lastmile_qr_scan", "ios": "https://dc.lft.to/lastmile_qr_scan"}, "type": "electric_scooter"}, {"is_reserved": 0, "is_disabled": 0, "fusion_lon": 0.0, "lat": 38.91570183333333, "name": "ab3d5761a5612f79ac4febc20d12948d", "bike_id": "ab3d5761a5612f79ac4febc20d12948d", "lon": -77.04481733333333, "fusion_lat": 0.0, "rental_uris": {"android": "https://dc.lft.to/lastmile_qr_scan", "ios": "https://dc.lft.to/lastmile_qr_scan"}, "type": "electric_scooter"}, {"is_reserved": 0, "is_disabled": 0, "fusion_lon": 0.0, "lat": 38.924865833333335, "name": "1b8533b14ee534bf4f820f98e333c59c", "bike_id": "1b8533b14ee534bf4f820f98e333c59c", "lon": -77.02273833333334, "fusion_lat": 0.0, "rental_uris": {"android": "https://dc.lft.to/lastmile_qr_scan", "ios": "https://dc.lft.to/lastmile_qr_scan"}, "type": "electric_scooter"}, {"is_reserved": 0, "is_disabled": 0, "fusion_lon": 0.0, "lat": 38.88237983333333, "name": "3db289a397f85de80cf1891ff20fedad", "bike_id": "3db289a397f85de80cf1891ff20fedad", "lon": -76.99509083333334, "fusion_lat": 0.0, "rental_uris": {"android": "https://dc.lft.to/lastmile_qr_scan", "ios": "https://dc.lft.to/lastmile_qr_scan"}, "type": "electric_scooter"}, {"is_reserved": 0, "is_disabled": 0, "fusion_lon": 0.0, "lat": 38.876495166666665, "name": "809aaa512a122b6bef000a9dd8a68c63", "bike_id": "809aaa512a122b6bef000a9dd8a68c63", "lon": -77.00085166666666, "fusion_lat": 0.0, "rental_uris": {"android": "https://dc.lft.to/lastmile_qr_scan", "ios": "https://dc.lft.to/lastmile_qr_scan"}, "type": "electric_scooter"}, {"is_reserved": 0, "is_disabled": 0, "fusion_lon": 0.0, "lat": 38.915371666666665, "name": "e205701210e1caf10f4eb8cfa8d4d850", "bike_id": "e205701210e1caf10f4eb8cfa8d4d850", "lon": -77.0320235, "fusion_lat": 0.0, "rental_uris": {"android": "https://dc.lft.to/lastmile_qr_scan", "ios": "https://dc.lft.to/lastmile_qr_scan"}, "type": "electric_scooter"}, {"is_reserved": 0, "is_disabled": 0, "fusion_lon": 0.0, "lat": 38.89488433333333, "name": "5fc4e3c8038340bd42439ba61c0de685", "bike_id": "5fc4e3c8038340bd42439ba61c0de685", "lon": -76.99508566666667, "fusion_lat": 0.0, "rental_uris": {"android": "https://dc.lft.to/lastmile_qr_scan", "ios": "https://dc.lft.to/lastmile_qr_scan"}, "type": "electric_scooter"}, {"is_reserved": 0, "is_disabled": 0, "fusion_lon": 0.0, "lat": 38.92328033333333, "name": "5e151fa5e489864622a1ef161be53eef", "bike_id": "5e151fa5e489864622a1ef161be53eef", "lon": -77.0297835, "fusion_lat": 0.0, "rental_uris": {"android": "https://dc.lft.to/lastmile_qr_scan", "ios": "https://dc.lft.to/lastmile_qr_scan"}, "type": "electric_scooter"}, {"is_reserved": 0, "is_disabled": 0, "fusion_lon": 0.0, "lat": 38.926778166666665, "name": "03e2e34787b2763b42e8160820fe3e81", "bike_id": "03e2e34787b2763b42e8160820fe3e81", "lon": -77.02746966666666, "fusion_lat": 0.0, "rental_uris": {"android": "https://dc.lft.to/lastmile_qr_scan", "ios": "https://dc.lft.to/lastmile_qr_scan"}, "type": "electric_scooter"}, {"is_reserved": 0, "is_disabled": 0, "fusion_lon": 0.0, "lat": 39.0390055, "name": "9ebc59a0e9c7133c518361d248ee4acf", "bike_id": "9ebc59a0e9c7133c518361d248ee4acf", "lon": -77.05033416666667, "fusion_lat": 0.0, "rental_uris": {"android": "https://dc.lft.to/lastmile_qr_scan", "ios": "https://dc.lft.to/lastmile_qr_scan"}, "type": "electric_bike"}, {"is_reserved": 0, "is_disabled": 0, "fusion_lon": 0.0, "lat": 38.90032266666667, "name": "1364b8c7a8e117bb175b2e87eb794d64", "bike_id": "1364b8c7a8e117bb175b2e87eb794d64", "lon": -77.0259455, "fusion_lat": 0.0, "rental_uris": {"android": "https://dc.lft.to/lastmile_qr_scan", "ios": "https://dc.lft.to/lastmile_qr_scan"}, "type": "electric_scooter"}, {"is_reserved": 0, "is_disabled": 0, "fusion_lon": 0.0, "lat": 38.927357666666666, "name": "44efd79490930ecfb8fbcaec882bc685", "bike_id": "44efd79490930ecfb8fbcaec882bc685", "lon": -77.0323375, "fusion_lat": 0.0, "rental_uris": {"android": "https://dc.lft.to/lastmile_qr_scan", "ios": "https://dc.lft.to/lastmile_qr_scan"}, "type": "electric_scooter"}, {"is_reserved": 0, "is_disabled": 0, "fusion_lon": 0.0, "lat": 38.89172083333333, "name": "ea9af4ba630ebe584560b5c6899f0f90", "bike_id": "ea9af4ba630ebe584560b5c6899f0f90", "lon": -77.0155215, "fusion_lat": 0.0, "rental_uris": {"android": "https://dc.lft.to/lastmile_qr_scan", "ios": "https://dc.lft.to/lastmile_qr_scan"}, "type": "electric_scooter"}, {"is_reserved": 0, "is_disabled": 0, "fusion_lon": 0.0, "lat": 38.892212666666666, "name": "fcf6c2b207650637fece4ab808d45834", "bike_id": "fcf6c2b207650637fece4ab808d45834", "lon": -77.048638, "fusion_lat": 0.0, "rental_uris": {"android": "https://dc.lft.to/lastmile_qr_scan", "ios": "https://dc.lft.to/lastmile_qr_scan"}, "type": "electric_scooter"}, {"is_reserved": 0, "is_disabled": 0, "fusion_lon": 0.0, "lat": 38.90247983333333, "name": "9c11ba40eb9128eb2b4e382fab1d2d12", "bike_id": "9c11ba40eb9128eb2b4e382fab1d2d12", "lon": -77.02698366666667, "fusion_lat": 0.0, "rental_uris": {"android": "https://dc.lft.to/lastmile_qr_scan", "ios": "https://dc.lft.to/lastmile_qr_scan"}, "type": "electric_scooter"}, {"is_reserved": 0, "is_disabled": 0, "fusion_lon": 0.0, "lat": 38.89705583333333, "name": "3ddb3cdbfdd5309a63a1ff793fc40c3a", "bike_id": "3ddb3cdbfdd5309a63a1ff793fc40c3a", "lon": -76.94748833333334, "fusion_lat": 0.0, "rental_uris": {"android": "https://dc.lft.to/lastmile_qr_scan", "ios": "https://dc.lft.to/lastmile_qr_scan"}, "type": "electric_bike"}, {"is_reserved": 0, "is_disabled": 0, "fusion_lon": 0.0, "lat": 38.91404266666667, "name": "1f68b67706ce8d2e124b344007c8f88c", "bike_id": "1f68b67706ce8d2e124b344007c8f88c", "lon": -77.01817016666666, "fusion_lat": 0.0, "rental_uris": {"android": "https://dc.lft.to/lastmile_qr_scan", "ios": "https://dc.lft.to/lastmile_qr_scan"}, "type": "electric_scooter"}, {"is_reserved": 0, "is_disabled": 0, "fusion_lon": 0.0, "lat": 38.918643333333335, "name": "14743d1f8db21e0ae94175843000823d", "bike_id": "14743d1f8db21e0ae94175843000823d", "lon": -77.04598133333333, "fusion_lat": 0.0, "rental_uris": {"android": "https://dc.lft.to/lastmile_qr_scan", "ios": "https://dc.lft.to/lastmile_qr_scan"}, "type": "electric_scooter"}, {"is_reserved": 0, "is_disabled": 0, "fusion_lon": 0.0, "lat": 38.89636483333334, "name": "937b7fb96bb27ec879eefb5516029108", "bike_id": "937b7fb96bb27ec879eefb5516029108", "lon": -77.0434385, "fusion_lat": 0.0, "rental_uris": {"android": "https://dc.lft.to/lastmile_qr_scan", "ios": "https://dc.lft.to/lastmile_qr_scan"}, "type": "electric_scooter"}, {"is_reserved": 0, "is_disabled": 0, "fusion_lon": 0.0, "lat": 38.901281, "name": "a9d0f756bfdb0a023323b140878a98bd", "bike_id": "a9d0f756bfdb0a023323b140878a98bd", "lon": -77.00323316666666, "fusion_lat": 0.0, "rental_uris": {"android": "https://dc.lft.to/lastmile_qr_scan", "ios": "https://dc.lft.to/lastmile_qr_scan"}, "type": "electric_scooter"}, {"is_reserved": 0, "is_disabled": 0, "fusion_lon": 0.0, "lat": 38.915797833333336, "name": "e6daf022a3f51cc21bd46967fbd816f5", "bike_id": "e6daf022a3f51cc21bd46967fbd816f5", "lon": -77.03186583333333, "fusion_lat": 0.0, "rental_uris": {"android": "https://dc.lft.to/lastmile_qr_scan", "ios": "https://dc.lft.to/lastmile_qr_scan"}, "type": "electric_scooter"}, {"is_reserved": 0, "is_disabled": 0, "fusion_lon": 0.0, "lat": 38.917050833333334, "name": "c0045dc59ff0d8b432b096a969146449", "bike_id": "c0045dc59ff0d8b432b096a969146449", "lon": -77.0417125, "fusion_lat": 0.0, "rental_uris": {"android": "https://dc.lft.to/lastmile_qr_scan", "ios": "https://dc.lft.to/lastmile_qr_scan"}, "type": "electric_scooter"}, {"is_reserved": 0, "is_disabled": 0, "fusion_lon": 0.0, "lat": 38.88378266666667, "name": "839bc65a2dca0be0dbb4e1e1f524b9b0", "bike_id": "839bc65a2dca0be0dbb4e1e1f524b9b0", "lon": -77.00888016666667, "fusion_lat": 0.0, "rental_uris": {"android": "https://dc.lft.to/lastmile_qr_scan", "ios": "https://dc.lft.to/lastmile_qr_scan"}, "type": "electric_scooter"}, {"is_reserved": 0, "is_disabled": 0, "fusion_lon": 0.0, "lat": 38.883024166666665, "name": "815ef8b709a8c3531f527dcf564927a0", "bike_id": "815ef8b709a8c3531f527dcf564927a0", "lon": -76.93473783333333, "fusion_lat": 0.0, "rental_uris": {"android": "https://dc.lft.to/lastmile_qr_scan", "ios": "https://dc.lft.to/lastmile_qr_scan"}, "type": "electric_scooter"}, {"is_reserved": 0, "is_disabled": 0, "fusion_lon": 0.0, "lat": 38.899143, "name": "833eebe826956301b21b70e5ee8eab3b", "bike_id": "833eebe826956301b21b70e5ee8eab3b", "lon": -77.04153283333333, "fusion_lat": 0.0, "rental_uris": {"android": "https://dc.lft.to/lastmile_qr_scan", "ios": "https://dc.lft.to/lastmile_qr_scan"}, "type": "electric_scooter"}, {"is_reserved": 0, "is_disabled": 0, "fusion_lon": 0.0, "lat": 38.881879166666664, "name": "e1afbd59f84be7211de4e7cb57cbe617", "bike_id": "e1afbd59f84be7211de4e7cb57cbe617", "lon": -77.02854783333333, "fusion_lat": 0.0, "rental_uris": {"android": "https://dc.lft.to/lastmile_qr_scan", "ios": "https://dc.lft.to/lastmile_qr_scan"}, "type": "electric_scooter"}, {"is_reserved": 0, "is_disabled": 0, "fusion_lon": 0.0, "lat": 38.80734916666667, "name": "0ee8546dd7d86688b0166700f8ddeaf8", "bike_id": "0ee8546dd7d86688b0166700f8ddeaf8", "lon": -77.09690783333333, "fusion_lat": 0.0, "rental_uris": {"android": "https://dc.lft.to/lastmile_qr_scan", "ios": "https://dc.lft.to/lastmile_qr_scan"}, "type": "electric_bike"}, {"is_reserved": 0, "is_disabled": 0, "fusion_lon": 0.0, "lat": 38.931444666666664, "name": "3df2a49ac63595bd9b92f3c81f301243", "bike_id": "3df2a49ac63595bd9b92f3c81f301243", "lon": -77.05697366666666, "fusion_lat": 0.0, "rental_uris": {"android": "https://dc.lft.to/lastmile_qr_scan", "ios": "https://dc.lft.to/lastmile_qr_scan"}, "type": "electric_scooter"}, {"is_reserved": 0, "is_disabled": 0, "fusion_lon": 0.0, "lat": 38.9023915, "name": "fe7906d762466770cb04081f8d0512c3", "bike_id": "fe7906d762466770cb04081f8d0512c3", "lon": -77.01772116666666, "fusion_lat": 0.0, "rental_uris": {"android": "https://dc.lft.to/lastmile_qr_scan", "ios": "https://dc.lft.to/lastmile_qr_scan"}, "type": "electric_scooter"}, {"is_reserved": 0, "is_disabled": 0, "fusion_lon": 0.0, "lat": 38.91518116666667, "name": "3fb31431617bfe22aa6ca7b133f684e1", "bike_id": "3fb31431617bfe22aa6ca7b133f684e1", "lon": -77.012209, "fusion_lat": 0.0, "rental_uris": {"android": "https://dc.lft.to/lastmile_qr_scan", "ios": "https://dc.lft.to/lastmile_qr_scan"}, "type": "electric_bike"}, {"is_reserved": 0, "is_disabled": 0, "fusion_lon": 0.0, "lat": 38.91013866666667, "name": "03317876f561eafbaab1ededa977bd38", "bike_id": "03317876f561eafbaab1ededa977bd38", "lon": -77.04456433333333, "fusion_lat": 0.0, "rental_uris": {"android": "https://dc.lft.to/lastmile_qr_scan", "ios": "https://dc.lft.to/lastmile_qr_scan"}, "type": "electric_scooter"}, {"is_reserved": 0, "is_disabled": 0, "fusion_lon": 0.0, "lat": 38.924579666666666, "name": "6e89d8babd7c05d14b0a17044fc985ca", "bike_id": "6e89d8babd7c05d14b0a17044fc985ca", "lon": -77.02151733333334, "fusion_lat": 0.0, "rental_uris": {"android": "https://dc.lft.to/lastmile_qr_scan", "ios": "https://dc.lft.to/lastmile_qr_scan"}, "type": "electric_scooter"}, {"is_reserved": 0, "is_disabled": 0, "fusion_lon": 0.0, "lat": 38.89909933333333, "name": "453280b4bb8a90bbf6cc3a571fef21c2", "bike_id": "453280b4bb8a90bbf6cc3a571fef21c2", "lon": -77.04873016666667, "fusion_lat": 0.0, "rental_uris": {"android": "https://dc.lft.to/lastmile_qr_scan", "ios": "https://dc.lft.to/lastmile_qr_scan"}, "type": "electric_scooter"}, {"is_reserved": 0, "is_disabled": 0, "fusion_lon": 0.0, "lat": 38.92235383333333, "name": "85902014ecb463d8bab2e9d2817e5343", "bike_id": "85902014ecb463d8bab2e9d2817e5343", "lon": -77.0212315, "fusion_lat": 0.0, "rental_uris": {"android": "https://dc.lft.to/lastmile_qr_scan", "ios": "https://dc.lft.to/lastmile_qr_scan"}, "type": "electric_scooter"}, {"is_reserved": 0, "is_disabled": 0, "fusion_lon": 0.0, "lat": 38.9234415, "name": "bddc793759dbea991c179e57a8284d3f", "bike_id": "bddc793759dbea991c179e57a8284d3f", "lon": -77.03413783333333, "fusion_lat": 0.0, "rental_uris": {"android": "https://dc.lft.to/lastmile_qr_scan", "ios": "https://dc.lft.to/lastmile_qr_scan"}, "type": "electric_scooter"}, {"is_reserved": 0, "is_disabled": 0, "fusion_lon": 0.0, "lat": 38.911062333333334, "name": "5ae38632d47cfeacb658024cd9b5cdf5", "bike_id": "5ae38632d47cfeacb658024cd9b5cdf5", "lon": -77.038596, "fusion_lat": 0.0, "rental_uris": {"android": "https://dc.lft.to/lastmile_qr_scan", "ios": "https://dc.lft.to/lastmile_qr_scan"}, "type": "electric_scooter"}, {"is_reserved": 0, "is_disabled": 0, "fusion_lon": 0.0, "lat": 38.9261185, "name": "26cfad032ad5745e7ab0e3ca861f4c30", "bike_id": "26cfad032ad5745e7ab0e3ca861f4c30", "lon": -76.9819725, "fusion_lat": 0.0, "rental_uris": {"android": "https://dc.lft.to/lastmile_qr_scan", "ios": "https://dc.lft.to/lastmile_qr_scan"}, "type": "electric_scooter"}, {"is_reserved": 0, "is_disabled": 0, "fusion_lon": 0.0, "lat": 38.92105883333333, "name": "534ddb652bf878cb02d3ce4de1641d4f", "bike_id": "534ddb652bf878cb02d3ce4de1641d4f", "lon": -77.0320515, "fusion_lat": 0.0, "rental_uris": {"android": "https://dc.lft.to/lastmile_qr_scan", "ios": "https://dc.lft.to/lastmile_qr_scan"}, "type": "electric_bike"}, {"is_reserved": 0, "is_disabled": 0, "fusion_lon": 0.0, "lat": 38.94398616666667, "name": "545528737fbf5ad58fab1a0cbd8c1223", "bike_id": "545528737fbf5ad58fab1a0cbd8c1223", "lon": -77.06357233333334, "fusion_lat": 0.0, "rental_uris": {"android": "https://dc.lft.to/lastmile_qr_scan", "ios": "https://dc.lft.to/lastmile_qr_scan"}, "type": "electric_scooter"}, {"is_reserved": 0, "is_disabled": 0, "fusion_lon": 0.0, "lat": 38.921327833333336, "name": "3349a6276f99883fdde884bdc9af91ee", "bike_id": "3349a6276f99883fdde884bdc9af91ee", "lon": -77.01797433333333, "fusion_lat": 0.0, "rental_uris": {"android": "https://dc.lft.to/lastmile_qr_scan", "ios": "https://dc.lft.to/lastmile_qr_scan"}, "type": "electric_scooter"}, {"is_reserved": 0, "is_disabled": 0, "fusion_lon": 0.0, "lat": 38.904309, "name": "a979e996f41c336c938a99aad70ae7df", "bike_id": "a979e996f41c336c938a99aad70ae7df", "lon": -77.04400166666667, "fusion_lat": 0.0, "rental_uris": {"android": "https://dc.lft.to/lastmile_qr_scan", "ios": "https://dc.lft.to/lastmile_qr_scan"}, "type": "electric_scooter"}, {"is_reserved": 0, "is_disabled": 0, "fusion_lon": 0.0, "lat": 38.9336275, "name": "8efe4daf9d3b0558fc8a6b6687b057b7", "bike_id": "8efe4daf9d3b0558fc8a6b6687b057b7", "lon": -77.02406466666666, "fusion_lat": 0.0, "rental_uris": {"android": "https://dc.lft.to/lastmile_qr_scan", "ios": "https://dc.lft.to/lastmile_qr_scan"}, "type": "electric_scooter"}, {"is_reserved": 0, "is_disabled": 0, "fusion_lon": 0.0, "lat": 38.93023866666667, "name": "7ba75e51ef6b6a0eeb00501c267fb23f", "bike_id": "7ba75e51ef6b6a0eeb00501c267fb23f", "lon": -77.07533966666666, "fusion_lat": 0.0, "rental_uris": {"android": "https://dc.lft.to/lastmile_qr_scan", "ios": "https://dc.lft.to/lastmile_qr_scan"}, "type": "electric_scooter"}, {"is_reserved": 0, "is_disabled": 0, "fusion_lon": 0.0, "lat": 38.920577333333334, "name": "40403052545da7e7f83f905468f8a7e3", "bike_id": "40403052545da7e7f83f905468f8a7e3", "lon": -77.03296266666666, "fusion_lat": 0.0, "rental_uris": {"android": "https://dc.lft.to/lastmile_qr_scan", "ios": "https://dc.lft.to/lastmile_qr_scan"}, "type": "electric_scooter"}, {"is_reserved": 0, "is_disabled": 0, "fusion_lon": 0.0, "lat": 38.90239116666667, "name": "4741d3dae6fdfe23f19db6a1ceed3571", "bike_id": "4741d3dae6fdfe23f19db6a1ceed3571", "lon": -77.01769816666666, "fusion_lat": 0.0, "rental_uris": {"android": "https://dc.lft.to/lastmile_qr_scan", "ios": "https://dc.lft.to/lastmile_qr_scan"}, "type": "electric_scooter"}, {"is_reserved": 0, "is_disabled": 0, "fusion_lon": 0.0, "lat": 38.90016416666667, "name": "bfba41f8fe3b96bc59b06f172c3e291d", "bike_id": "bfba41f8fe3b96bc59b06f172c3e291d", "lon": -76.99097233333333, "fusion_lat": 0.0, "rental_uris": {"android": "https://dc.lft.to/lastmile_qr_scan", "ios": "https://dc.lft.to/lastmile_qr_scan"}, "type": "electric_scooter"}, {"is_reserved": 0, "is_disabled": 0, "fusion_lon": 0.0, "lat": 38.935831666666665, "name": "a518911ec7013973e9d03d4a8ed58223", "bike_id": "a518911ec7013973e9d03d4a8ed58223", "lon": -77.05888116666667, "fusion_lat": 0.0, "rental_uris": {"android": "https://dc.lft.to/lastmile_qr_scan", "ios": "https://dc.lft.to/lastmile_qr_scan"}, "type": "electric_scooter"}, {"is_reserved": 0, "is_disabled": 0, "fusion_lon": 0.0, "lat": 38.957386666666665, "name": "6308bd37663a190932dba877e8b49e21", "bike_id": "6308bd37663a190932dba877e8b49e21", "lon": -76.98079916666667, "fusion_lat": 0.0, "rental_uris": {"android": "https://dc.lft.to/lastmile_qr_scan", "ios": "https://dc.lft.to/lastmile_qr_scan"}, "type": "electric_bike"}, {"is_reserved": 0, "is_disabled": 0, "fusion_lon": 0.0, "lat": 38.920341666666666, "name": "93f22b7e2f1c09d54b3dc07c020127ba", "bike_id": "93f22b7e2f1c09d54b3dc07c020127ba", "lon": -77.01219433333333, "fusion_lat": 0.0, "rental_uris": {"android": "https://dc.lft.to/lastmile_qr_scan", "ios": "https://dc.lft.to/lastmile_qr_scan"}, "type": "electric_scooter"}, {"is_reserved": 0, "is_disabled": 0, "fusion_lon": 0.0, "lat": 38.879317, "name": "a0ca0de31efd19c43b2d390577a6d8ef", "bike_id": "a0ca0de31efd19c43b2d390577a6d8ef", "lon": -76.99370583333334, "fusion_lat": 0.0, "rental_uris": {"android": "https://dc.lft.to/lastmile_qr_scan", "ios": "https://dc.lft.to/lastmile_qr_scan"}, "type": "electric_scooter"}, {"is_reserved": 0, "is_disabled": 0, "fusion_lon": 0.0, "lat": 38.90133483333334, "name": "d3d89e13386ad5187325a89246d330be", "bike_id": "d3d89e13386ad5187325a89246d330be", "lon": -76.98965033333333, "fusion_lat": 0.0, "rental_uris": {"android": "https://dc.lft.to/lastmile_qr_scan", "ios": "https://dc.lft.to/lastmile_qr_scan"}, "type": "electric_scooter"}, {"is_reserved": 0, "is_disabled": 0, "fusion_lon": 0.0, "lat": 38.905475833333334, "name": "2dc97cb4b8dd46229dbed755dd8078cf", "bike_id": "2dc97cb4b8dd46229dbed755dd8078cf", "lon": -77.057036, "fusion_lat": 0.0, "rental_uris": {"android": "https://dc.lft.to/lastmile_qr_scan", "ios": "https://dc.lft.to/lastmile_qr_scan"}, "type": "electric_scooter"}, {"is_reserved": 0, "is_disabled": 0, "fusion_lon": 0.0, "lat": 38.88731216666667, "name": "9476874cbe1f2fcc30508ff5c269a01a", "bike_id": "9476874cbe1f2fcc30508ff5c269a01a", "lon": -76.95330233333334, "fusion_lat": 0.0, "rental_uris": {"android": "https://dc.lft.to/lastmile_qr_scan", "ios": "https://dc.lft.to/lastmile_qr_scan"}, "type": "electric_scooter"}, {"is_reserved": 0, "is_disabled": 0, "fusion_lon": 0.0, "lat": 38.9221235, "name": "b15abbac7343ff2567c78c79a2b21e60", "bike_id": "b15abbac7343ff2567c78c79a2b21e60", "lon": -77.04253966666667, "fusion_lat": 0.0, "rental_uris": {"android": "https://dc.lft.to/lastmile_qr_scan", "ios": "https://dc.lft.to/lastmile_qr_scan"}, "type": "electric_scooter"}, {"is_reserved": 0, "is_disabled": 0, "fusion_lon": 0.0, "lat": 38.85705766666667, "name": "34cfaa3ab34cf95f3dad5181f51560b2", "bike_id": "34cfaa3ab34cf95f3dad5181f51560b2", "lon": -76.98209983333334, "fusion_lat": 0.0, "rental_uris": {"android": "https://dc.lft.to/lastmile_qr_scan", "ios": "https://dc.lft.to/lastmile_qr_scan"}, "type": "electric_scooter"}, {"is_reserved": 0, "is_disabled": 0, "fusion_lon": 0.0, "lat": 38.90865566666667, "name": "1efe2a93791c6cc175c3f9a2c1ac79a8", "bike_id": "1efe2a93791c6cc175c3f9a2c1ac79a8", "lon": -77.0036175, "fusion_lat": 0.0, "rental_uris": {"android": "https://dc.lft.to/lastmile_qr_scan", "ios": "https://dc.lft.to/lastmile_qr_scan"}, "type": "electric_scooter"}, {"is_reserved": 0, "is_disabled": 0, "fusion_lon": 0.0, "lat": 38.93192916666667, "name": "1cfc7b890f65f889caadecb51008c427", "bike_id": "1cfc7b890f65f889caadecb51008c427", "lon": -77.07198083333333, "fusion_lat": 0.0, "rental_uris": {"android": "https://dc.lft.to/lastmile_qr_scan", "ios": "https://dc.lft.to/lastmile_qr_scan"}, "type": "electric_scooter"}, {"is_reserved": 0, "is_disabled": 0, "fusion_lon": 0.0, "lat": 38.9386575, "name": "21fac0b7d490e7ab134c98e1d65aa804", "bike_id": "21fac0b7d490e7ab134c98e1d65aa804", "lon": -77.025216, "fusion_lat": 0.0, "rental_uris": {"android": "https://dc.lft.to/lastmile_qr_scan", "ios": "https://dc.lft.to/lastmile_qr_scan"}, "type": "electric_scooter"}, {"is_reserved": 0, "is_disabled": 0, "fusion_lon": 0.0, "lat": 38.898329333333336, "name": "39f27e6a38d0100795761cb23caada7e", "bike_id": "39f27e6a38d0100795761cb23caada7e", "lon": -77.04693133333333, "fusion_lat": 0.0, "rental_uris": {"android": "https://dc.lft.to/lastmile_qr_scan", "ios": "https://dc.lft.to/lastmile_qr_scan"}, "type": "electric_scooter"}, {"is_reserved": 0, "is_disabled": 0, "fusion_lon": 0.0, "lat": 38.89219033333333, "name": "73f7e660d7eb304d2875de849ce61f7d", "bike_id": "73f7e660d7eb304d2875de849ce61f7d", "lon": -77.02162983333334, "fusion_lat": 0.0, "rental_uris": {"android": "https://dc.lft.to/lastmile_qr_scan", "ios": "https://dc.lft.to/lastmile_qr_scan"}, "type": "electric_scooter"}, {"is_reserved": 0, "is_disabled": 0, "fusion_lon": 0.0, "lat": 38.9003635, "name": "86aaa023e5436b300388cb4ba1135def", "bike_id": "86aaa023e5436b300388cb4ba1135def", "lon": -76.98823383333334, "fusion_lat": 0.0, "rental_uris": {"android": "https://dc.lft.to/lastmile_qr_scan", "ios": "https://dc.lft.to/lastmile_qr_scan"}, "type": "electric_scooter"}, {"is_reserved": 0, "is_disabled": 0, "fusion_lon": 0.0, "lat": 38.892900166666664, "name": "a7f6d9b63659d74f8b846ae5882343a5", "bike_id": "a7f6d9b63659d74f8b846ae5882343a5", "lon": -76.97615183333333, "fusion_lat": 0.0, "rental_uris": {"android": "https://dc.lft.to/lastmile_qr_scan", "ios": "https://dc.lft.to/lastmile_qr_scan"}, "type": "electric_bike"}, {"is_reserved": 0, "is_disabled": 0, "fusion_lon": 0.0, "lat": 38.88369266666667, "name": "dc45c304bceee0a2ccd631c0de91282c", "bike_id": "dc45c304bceee0a2ccd631c0de91282c", "lon": -77.02570383333334, "fusion_lat": 0.0, "rental_uris": {"android": "https://dc.lft.to/lastmile_qr_scan", "ios": "https://dc.lft.to/lastmile_qr_scan"}, "type": "electric_scooter"}, {"is_reserved": 0, "is_disabled": 0, "fusion_lon": 0.0, "lat": 38.924771166666666, "name": "92cf6605ba8f46b2f9645037866e34e6", "bike_id": "92cf6605ba8f46b2f9645037866e34e6", "lon": -77.02186633333334, "fusion_lat": 0.0, "rental_uris": {"android": "https://dc.lft.to/lastmile_qr_scan", "ios": "https://dc.lft.to/lastmile_qr_scan"}, "type": "electric_scooter"}, {"is_reserved": 0, "is_disabled": 0, "fusion_lon": 0.0, "lat": 38.923149333333335, "name": "ba1ceb56a164d99b8f47da58128bdb2c", "bike_id": "ba1ceb56a164d99b8f47da58128bdb2c", "lon": -77.04174283333333, "fusion_lat": 0.0, "rental_uris": {"android": "https://dc.lft.to/lastmile_qr_scan", "ios": "https://dc.lft.to/lastmile_qr_scan"}, "type": "electric_scooter"}, {"is_reserved": 0, "is_disabled": 0, "fusion_lon": 0.0, "lat": 38.92991883333333, "name": "68318f6f219e7709fffaf80dd1635897", "bike_id": "68318f6f219e7709fffaf80dd1635897", "lon": -77.03775183333333, "fusion_lat": 0.0, "rental_uris": {"android": "https://dc.lft.to/lastmile_qr_scan", "ios": "https://dc.lft.to/lastmile_qr_scan"}, "type": "electric_scooter"}, {"is_reserved": 0, "is_disabled": 0, "fusion_lon": 0.0, "lat": 38.924577166666666, "name": "d5b01f5f9ebfc5bc42b4bc4889b49206", "bike_id": "d5b01f5f9ebfc5bc42b4bc4889b49206", "lon": -76.99911033333333, "fusion_lat": 0.0, "rental_uris": {"android": "https://dc.lft.to/lastmile_qr_scan", "ios": "https://dc.lft.to/lastmile_qr_scan"}, "type": "electric_scooter"}, {"is_reserved": 0, "is_disabled": 0, "fusion_lon": 0.0, "lat": 38.912570333333335, "name": "a747c2fa58e30f9c8e2538dc2e2a2632", "bike_id": "a747c2fa58e30f9c8e2538dc2e2a2632", "lon": -77.0444055, "fusion_lat": 0.0, "rental_uris": {"android": "https://dc.lft.to/lastmile_qr_scan", "ios": "https://dc.lft.to/lastmile_qr_scan"}, "type": "electric_scooter"}, {"is_reserved": 0, "is_disabled": 0, "fusion_lon": 0.0, "lat": 38.91879383333333, "name": "7c4adf9e1d51e83c5e82427a10485d53", "bike_id": "7c4adf9e1d51e83c5e82427a10485d53", "lon": -77.04261616666666, "fusion_lat": 0.0, "rental_uris": {"android": "https://dc.lft.to/lastmile_qr_scan", "ios": "https://dc.lft.to/lastmile_qr_scan"}, "type": "electric_scooter"}, {"is_reserved": 0, "is_disabled": 0, "fusion_lon": 0.0, "lat": 38.909684166666665, "name": "956c83d1c872401caf71e16aa418049e", "bike_id": "956c83d1c872401caf71e16aa418049e", "lon": -77.0228835, "fusion_lat": 0.0, "rental_uris": {"android": "https://dc.lft.to/lastmile_qr_scan", "ios": "https://dc.lft.to/lastmile_qr_scan"}, "type": "electric_scooter"}, {"is_reserved": 0, "is_disabled": 0, "fusion_lon": 0.0, "lat": 38.92272216666667, "name": "032c24e8959dff484ed9bcfe80d91b93", "bike_id": "032c24e8959dff484ed9bcfe80d91b93", "lon": -77.00890966666667, "fusion_lat": 0.0, "rental_uris": {"android": "https://dc.lft.to/lastmile_qr_scan", "ios": "https://dc.lft.to/lastmile_qr_scan"}, "type": "electric_scooter"}, {"is_reserved": 0, "is_disabled": 0, "fusion_lon": 0.0, "lat": 38.9061215, "name": "47710f1db124fe78c62debe64fd3e615", "bike_id": "47710f1db124fe78c62debe64fd3e615", "lon": -77.1289255, "fusion_lat": 0.0, "rental_uris": {"android": "https://dc.lft.to/lastmile_qr_scan", "ios": "https://dc.lft.to/lastmile_qr_scan"}, "type": "electric_bike"}, {"is_reserved": 0, "is_disabled": 0, "fusion_lon": 0.0, "lat": 38.917455333333336, "name": "dd8af7ef2563aa77d8bb87eab28d697a", "bike_id": "dd8af7ef2563aa77d8bb87eab28d697a", "lon": -77.0171875, "fusion_lat": 0.0, "rental_uris": {"android": "https://dc.lft.to/lastmile_qr_scan", "ios": "https://dc.lft.to/lastmile_qr_scan"}, "type": "electric_scooter"}, {"is_reserved": 0, "is_disabled": 0, "fusion_lon": 0.0, "lat": 38.89221516666667, "name": "c9dc8d39d9271409915824e854b865b3", "bike_id": "c9dc8d39d9271409915824e854b865b3", "lon": -77.02423033333334, "fusion_lat": 0.0, "rental_uris": {"android": "https://dc.lft.to/lastmile_qr_scan", "ios": "https://dc.lft.to/lastmile_qr_scan"}, "type": "electric_scooter"}, {"is_reserved": 0, "is_disabled": 0, "fusion_lon": 0.0, "lat": 38.880400333333334, "name": "4787a482c6c89e5908b3d08a4a23aade", "bike_id": "4787a482c6c89e5908b3d08a4a23aade", "lon": -77.01187983333334, "fusion_lat": 0.0, "rental_uris": {"android": "https://dc.lft.to/lastmile_qr_scan", "ios": "https://dc.lft.to/lastmile_qr_scan"}, "type": "electric_scooter"}, {"is_reserved": 0, "is_disabled": 0, "fusion_lon": 0.0, "lat": 38.903267, "name": "748c0a8d65392959a1f304d0a78c8c1b", "bike_id": "748c0a8d65392959a1f304d0a78c8c1b", "lon": -77.01629116666666, "fusion_lat": 0.0, "rental_uris": {"android": "https://dc.lft.to/lastmile_qr_scan", "ios": "https://dc.lft.to/lastmile_qr_scan"}, "type": "electric_scooter"}, {"is_reserved": 0, "is_disabled": 0, "fusion_lon": 0.0, "lat": 38.892210166666665, "name": "29520c5fd0d5d8b843e3ae410e3cf2f6", "bike_id": "29520c5fd0d5d8b843e3ae410e3cf2f6", "lon": -77.02749533333333, "fusion_lat": 0.0, "rental_uris": {"android": "https://dc.lft.to/lastmile_qr_scan", "ios": "https://dc.lft.to/lastmile_qr_scan"}, "type": "electric_scooter"}, {"is_reserved": 0, "is_disabled": 0, "fusion_lon": 0.0, "lat": 38.8950495, "name": "d8a612c2621f9ce735755db022cf9e85", "bike_id": "d8a612c2621f9ce735755db022cf9e85", "lon": -77.00338316666667, "fusion_lat": 0.0, "rental_uris": {"android": "https://dc.lft.to/lastmile_qr_scan", "ios": "https://dc.lft.to/lastmile_qr_scan"}, "type": "electric_scooter"}, {"is_reserved": 0, "is_disabled": 0, "fusion_lon": 0.0, "lat": 38.93354816666667, "name": "fe7ddf52e2b24ea249b92957e3ce4b14", "bike_id": "fe7ddf52e2b24ea249b92957e3ce4b14", "lon": -77.06151083333333, "fusion_lat": 0.0, "rental_uris": {"android": "https://dc.lft.to/lastmile_qr_scan", "ios": "https://dc.lft.to/lastmile_qr_scan"}, "type": "electric_scooter"}, {"is_reserved": 0, "is_disabled": 0, "fusion_lon": 0.0, "lat": 38.90202, "name": "2e8371231b189dd081aa4fbcee0cf41e", "bike_id": "2e8371231b189dd081aa4fbcee0cf41e", "lon": -77.05895033333333, "fusion_lat": 0.0, "rental_uris": {"android": "https://dc.lft.to/lastmile_qr_scan", "ios": "https://dc.lft.to/lastmile_qr_scan"}, "type": "electric_scooter"}, {"is_reserved": 0, "is_disabled": 0, "fusion_lon": 0.0, "lat": 38.91987666666667, "name": "a257db0a0ab6ca64f54a07e05d3f90e1", "bike_id": "a257db0a0ab6ca64f54a07e05d3f90e1", "lon": -77.03245383333334, "fusion_lat": 0.0, "rental_uris": {"android": "https://dc.lft.to/lastmile_qr_scan", "ios": "https://dc.lft.to/lastmile_qr_scan"}, "type": "electric_scooter"}, {"is_reserved": 0, "is_disabled": 0, "fusion_lon": 0.0, "lat": 38.944461833333335, "name": "313646036949323540a08477826eec39", "bike_id": "313646036949323540a08477826eec39", "lon": -77.063524, "fusion_lat": 0.0, "rental_uris": {"android": "https://dc.lft.to/lastmile_qr_scan", "ios": "https://dc.lft.to/lastmile_qr_scan"}, "type": "electric_scooter"}, {"is_reserved": 0, "is_disabled": 0, "fusion_lon": 0.0, "lat": 38.881395166666664, "name": "9a2ca4ec896ae1b5c3c1a26b329de0f4", "bike_id": "9a2ca4ec896ae1b5c3c1a26b329de0f4", "lon": -77.01767683333334, "fusion_lat": 0.0, "rental_uris": {"android": "https://dc.lft.to/lastmile_qr_scan", "ios": "https://dc.lft.to/lastmile_qr_scan"}, "type": "electric_scooter"}, {"is_reserved": 0, "is_disabled": 0, "fusion_lon": 0.0, "lat": 38.93497683333333, "name": "0e3663e40e62bd8a281fec2b605d894b", "bike_id": "0e3663e40e62bd8a281fec2b605d894b", "lon": -77.036312, "fusion_lat": 0.0, "rental_uris": {"android": "https://dc.lft.to/lastmile_qr_scan", "ios": "https://dc.lft.to/lastmile_qr_scan"}, "type": "electric_scooter"}, {"is_reserved": 0, "is_disabled": 0, "fusion_lon": 0.0, "lat": 38.919222, "name": "b125a64e63d4964e9325eb5c118c2d96", "bike_id": "b125a64e63d4964e9325eb5c118c2d96", "lon": -77.02495733333333, "fusion_lat": 0.0, "rental_uris": {"android": "https://dc.lft.to/lastmile_qr_scan", "ios": "https://dc.lft.to/lastmile_qr_scan"}, "type": "electric_scooter"}, {"is_reserved": 0, "is_disabled": 0, "fusion_lon": 0.0, "lat": 38.918377, "name": "db9795b4d8f56cfeecd5532b8550ad3a", "bike_id": "db9795b4d8f56cfeecd5532b8550ad3a", "lon": -77.05923816666666, "fusion_lat": 0.0, "rental_uris": {"android": "https://dc.lft.to/lastmile_qr_scan", "ios": "https://dc.lft.to/lastmile_qr_scan"}, "type": "electric_scooter"}, {"is_reserved": 0, "is_disabled": 0, "fusion_lon": 0.0, "lat": 39.084926, "name": "19e88873a09ac2c3342565311f051184", "bike_id": "19e88873a09ac2c3342565311f051184", "lon": -76.95049466666667, "fusion_lat": 0.0, "rental_uris": {"android": "https://dc.lft.to/lastmile_qr_scan", "ios": "https://dc.lft.to/lastmile_qr_scan"}, "type": "electric_bike"}, {"is_reserved": 0, "is_disabled": 0, "fusion_lon": 0.0, "lat": 38.903096833333336, "name": "ea1fbfbf50d3090bafed467b48fe041c", "bike_id": "ea1fbfbf50d3090bafed467b48fe041c", "lon": -77.01952583333333, "fusion_lat": 0.0, "rental_uris": {"android": "https://dc.lft.to/lastmile_qr_scan", "ios": "https://dc.lft.to/lastmile_qr_scan"}, "type": "electric_scooter"}, {"is_reserved": 0, "is_disabled": 0, "fusion_lon": 0.0, "lat": 38.92042983333333, "name": "feb02235b3c34afd6e9182854c18953b", "bike_id": "feb02235b3c34afd6e9182854c18953b", "lon": -77.04794983333333, "fusion_lat": 0.0, "rental_uris": {"android": "https://dc.lft.to/lastmile_qr_scan", "ios": "https://dc.lft.to/lastmile_qr_scan"}, "type": "electric_scooter"}, {"is_reserved": 0, "is_disabled": 0, "fusion_lon": 0.0, "lat": 38.989598, "name": "62f67cc4fdb3036aafd5535ddc66d8bf", "bike_id": "62f67cc4fdb3036aafd5535ddc66d8bf", "lon": -77.09895683333333, "fusion_lat": 0.0, "rental_uris": {"android": "https://dc.lft.to/lastmile_qr_scan", "ios": "https://dc.lft.to/lastmile_qr_scan"}, "type": "electric_bike"}, {"is_reserved": 0, "is_disabled": 0, "fusion_lon": 0.0, "lat": 38.89999816666667, "name": "b2d834f66b1475be9f43e28a9eafb3ac", "bike_id": "b2d834f66b1475be9f43e28a9eafb3ac", "lon": -77.00909883333334, "fusion_lat": 0.0, "rental_uris": {"android": "https://dc.lft.to/lastmile_qr_scan", "ios": "https://dc.lft.to/lastmile_qr_scan"}, "type": "electric_scooter"}, {"is_reserved": 0, "is_disabled": 0, "fusion_lon": 0.0, "lat": 38.93432633333333, "name": "c349648bc17c349b05a37af1ed871c87", "bike_id": "c349648bc17c349b05a37af1ed871c87", "lon": -77.03449216666667, "fusion_lat": 0.0, "rental_uris": {"android": "https://dc.lft.to/lastmile_qr_scan", "ios": "https://dc.lft.to/lastmile_qr_scan"}, "type": "electric_scooter"}, {"is_reserved": 0, "is_disabled": 0, "fusion_lon": 0.0, "lat": 38.910066666666665, "name": "b7cd5abc326b45962db2e216b3a732ea", "bike_id": "b7cd5abc326b45962db2e216b3a732ea", "lon": -77.0221175, "fusion_lat": 0.0, "rental_uris": {"android": "https://dc.lft.to/lastmile_qr_scan", "ios": "https://dc.lft.to/lastmile_qr_scan"}, "type": "electric_scooter"}, {"is_reserved": 0, "is_disabled": 0, "fusion_lon": 0.0, "lat": 38.86483716666667, "name": "289e29cc6e1f135bf72b1ee2752d7a04", "bike_id": "289e29cc6e1f135bf72b1ee2752d7a04", "lon": -76.97743616666666, "fusion_lat": 0.0, "rental_uris": {"android": "https://dc.lft.to/lastmile_qr_scan", "ios": "https://dc.lft.to/lastmile_qr_scan"}, "type": "electric_bike"}, {"is_reserved": 0, "is_disabled": 0, "fusion_lon": 0.0, "lat": 38.909563, "name": "c05cd87466c69edf610e037ebd6edb23", "bike_id": "c05cd87466c69edf610e037ebd6edb23", "lon": -77.04865733333334, "fusion_lat": 0.0, "rental_uris": {"android": "https://dc.lft.to/lastmile_qr_scan", "ios": "https://dc.lft.to/lastmile_qr_scan"}, "type": "electric_scooter"}, {"is_reserved": 0, "is_disabled": 0, "fusion_lon": 0.0, "lat": 38.8818415, "name": "6c7efba31f7747771661f78b81070691", "bike_id": "6c7efba31f7747771661f78b81070691", "lon": -77.0269975, "fusion_lat": 0.0, "rental_uris": {"android": "https://dc.lft.to/lastmile_qr_scan", "ios": "https://dc.lft.to/lastmile_qr_scan"}, "type": "electric_scooter"}, {"is_reserved": 0, "is_disabled": 0, "fusion_lon": 0.0, "lat": 38.9377355, "name": "9d60302b9de269a469c5abc94ca47ea8", "bike_id": "9d60302b9de269a469c5abc94ca47ea8", "lon": -77.03281016666666, "fusion_lat": 0.0, "rental_uris": {"android": "https://dc.lft.to/lastmile_qr_scan", "ios": "https://dc.lft.to/lastmile_qr_scan"}, "type": "electric_scooter"}, {"is_reserved": 0, "is_disabled": 0, "fusion_lon": 0.0, "lat": 38.924982166666666, "name": "5a89d12aeb42b10f8271295a713ebe5a", "bike_id": "5a89d12aeb42b10f8271295a713ebe5a", "lon": -77.021597, "fusion_lat": 0.0, "rental_uris": {"android": "https://dc.lft.to/lastmile_qr_scan", "ios": "https://dc.lft.to/lastmile_qr_scan"}, "type": "electric_scooter"}, {"is_reserved": 0, "is_disabled": 0, "fusion_lon": 0.0, "lat": 38.92123133333333, "name": "ee1e7fb59a63555e930cf02e45803497", "bike_id": "ee1e7fb59a63555e930cf02e45803497", "lon": -77.04576966666667, "fusion_lat": 0.0, "rental_uris": {"android": "https://dc.lft.to/lastmile_qr_scan", "ios": "https://dc.lft.to/lastmile_qr_scan"}, "type": "electric_scooter"}, {"is_reserved": 0, "is_disabled": 0, "fusion_lon": 0.0, "lat": 38.898836833333334, "name": "c996fe076fc2370e51300de260ac6f43", "bike_id": "c996fe076fc2370e51300de260ac6f43", "lon": -76.9799675, "fusion_lat": 0.0, "rental_uris": {"android": "https://dc.lft.to/lastmile_qr_scan", "ios": "https://dc.lft.to/lastmile_qr_scan"}, "type": "electric_scooter"}, {"is_reserved": 0, "is_disabled": 0, "fusion_lon": 0.0, "lat": 38.908592166666665, "name": "83aae59c8d9bccd12f3d411f9eb424ce", "bike_id": "83aae59c8d9bccd12f3d411f9eb424ce", "lon": -77.0240765, "fusion_lat": 0.0, "rental_uris": {"android": "https://dc.lft.to/lastmile_qr_scan", "ios": "https://dc.lft.to/lastmile_qr_scan"}, "type": "electric_scooter"}, {"is_reserved": 0, "is_disabled": 0, "fusion_lon": 0.0, "lat": 38.91491666666667, "name": "13b27c24fa8e89e66289f476763dc1cb", "bike_id": "13b27c24fa8e89e66289f476763dc1cb", "lon": -77.01854083333333, "fusion_lat": 0.0, "rental_uris": {"android": "https://dc.lft.to/lastmile_qr_scan", "ios": "https://dc.lft.to/lastmile_qr_scan"}, "type": "electric_scooter"}, {"is_reserved": 0, "is_disabled": 0, "fusion_lon": 0.0, "lat": 38.92675283333333, "name": "2855bdc7f6085743b5f759b0aee8f9ec", "bike_id": "2855bdc7f6085743b5f759b0aee8f9ec", "lon": -77.05438483333333, "fusion_lat": 0.0, "rental_uris": {"android": "https://dc.lft.to/lastmile_qr_scan", "ios": "https://dc.lft.to/lastmile_qr_scan"}, "type": "electric_scooter"}, {"is_reserved": 0, "is_disabled": 0, "fusion_lon": 0.0, "lat": 38.911087333333334, "name": "c496a8c6d9804563d62a4ee2d323bf41", "bike_id": "c496a8c6d9804563d62a4ee2d323bf41", "lon": -77.03808716666667, "fusion_lat": 0.0, "rental_uris": {"android": "https://dc.lft.to/lastmile_qr_scan", "ios": "https://dc.lft.to/lastmile_qr_scan"}, "type": "electric_scooter"}, {"is_reserved": 0, "is_disabled": 0, "fusion_lon": 0.0, "lat": 38.9072835, "name": "24143fa72137b458beee95550378e7c4", "bike_id": "24143fa72137b458beee95550378e7c4", "lon": -77.04058233333333, "fusion_lat": 0.0, "rental_uris": {"android": "https://dc.lft.to/lastmile_qr_scan", "ios": "https://dc.lft.to/lastmile_qr_scan"}, "type": "electric_scooter"}, {"is_reserved": 0, "is_disabled": 0, "fusion_lon": 0.0, "lat": 38.931952333333335, "name": "1da4346a500a432dab47581a03f6057a", "bike_id": "1da4346a500a432dab47581a03f6057a", "lon": -77.01866766666667, "fusion_lat": 0.0, "rental_uris": {"android": "https://dc.lft.to/lastmile_qr_scan", "ios": "https://dc.lft.to/lastmile_qr_scan"}, "type": "electric_scooter"}, {"is_reserved": 0, "is_disabled": 0, "fusion_lon": 0.0, "lat": 38.876828, "name": "3937a62f2f1b5499a010c55c9f835d05", "bike_id": "3937a62f2f1b5499a010c55c9f835d05", "lon": -77.020057, "fusion_lat": 0.0, "rental_uris": {"android": "https://dc.lft.to/lastmile_qr_scan", "ios": "https://dc.lft.to/lastmile_qr_scan"}, "type": "electric_scooter"}, {"is_reserved": 0, "is_disabled": 0, "fusion_lon": 0.0, "lat": 38.927948666666666, "name": "9f945fd2486ea13dc925fae6251b6eb2", "bike_id": "9f945fd2486ea13dc925fae6251b6eb2", "lon": -77.0297115, "fusion_lat": 0.0, "rental_uris": {"android": "https://dc.lft.to/lastmile_qr_scan", "ios": "https://dc.lft.to/lastmile_qr_scan"}, "type": "electric_scooter"}, {"is_reserved": 0, "is_disabled": 0, "fusion_lon": 0.0, "lat": 38.922604, "name": "4a4a2e18f77929a242f430f39ad71072", "bike_id": "4a4a2e18f77929a242f430f39ad71072", "lon": -77.01938166666666, "fusion_lat": 0.0, "rental_uris": {"android": "https://dc.lft.to/lastmile_qr_scan", "ios": "https://dc.lft.to/lastmile_qr_scan"}, "type": "electric_scooter"}, {"is_reserved": 0, "is_disabled": 0, "fusion_lon": 0.0, "lat": 38.9272405, "name": "5621a449747915bd2f34da447491ebdd", "bike_id": "5621a449747915bd2f34da447491ebdd", "lon": -77.02273383333333, "fusion_lat": 0.0, "rental_uris": {"android": "https://dc.lft.to/lastmile_qr_scan", "ios": "https://dc.lft.to/lastmile_qr_scan"}, "type": "electric_scooter"}, {"is_reserved": 0, "is_disabled": 0, "fusion_lon": 0.0, "lat": 38.870782, "name": "2d0afd3aa9a9bf932f6ce4eb86bf58b8", "bike_id": "2d0afd3aa9a9bf932f6ce4eb86bf58b8", "lon": -77.1105205, "fusion_lat": 0.0, "rental_uris": {"android": "https://dc.lft.to/lastmile_qr_scan", "ios": "https://dc.lft.to/lastmile_qr_scan"}, "type": "electric_bike"}, {"is_reserved": 0, "is_disabled": 0, "fusion_lon": 0.0, "lat": 38.957548, "name": "a4f3a0f4502c092c5dd8d01be72b4b6a", "bike_id": "a4f3a0f4502c092c5dd8d01be72b4b6a", "lon": -77.009119, "fusion_lat": 0.0, "rental_uris": {"android": "https://dc.lft.to/lastmile_qr_scan", "ios": "https://dc.lft.to/lastmile_qr_scan"}, "type": "electric_scooter"}, {"is_reserved": 0, "is_disabled": 0, "fusion_lon": 0.0, "lat": 38.9231205, "name": "783f62b508f735c22e09afce37dace96", "bike_id": "783f62b508f735c22e09afce37dace96", "lon": -77.02705866666666, "fusion_lat": 0.0, "rental_uris": {"android": "https://dc.lft.to/lastmile_qr_scan", "ios": "https://dc.lft.to/lastmile_qr_scan"}, "type": "electric_scooter"}, {"is_reserved": 0, "is_disabled": 0, "fusion_lon": 0.0, "lat": 38.935970833333336, "name": "df45f0fe27f50db8e97c83f2860d09a1", "bike_id": "df45f0fe27f50db8e97c83f2860d09a1", "lon": -77.02115466666666, "fusion_lat": 0.0, "rental_uris": {"android": "https://dc.lft.to/lastmile_qr_scan", "ios": "https://dc.lft.to/lastmile_qr_scan"}, "type": "electric_bike"}, {"is_reserved": 0, "is_disabled": 0, "fusion_lon": 0.0, "lat": 38.92406916666667, "name": "252b9aac2c4eea8a370afdf30ddbe441", "bike_id": "252b9aac2c4eea8a370afdf30ddbe441", "lon": -77.01945433333333, "fusion_lat": 0.0, "rental_uris": {"android": "https://dc.lft.to/lastmile_qr_scan", "ios": "https://dc.lft.to/lastmile_qr_scan"}, "type": "electric_scooter"}, {"is_reserved": 0, "is_disabled": 0, "fusion_lon": 0.0, "lat": 38.911828, "name": "37b3c1c49773a222fd2e1d4831471ec3", "bike_id": "37b3c1c49773a222fd2e1d4831471ec3", "lon": -77.03142416666667, "fusion_lat": 0.0, "rental_uris": {"android": "https://dc.lft.to/lastmile_qr_scan", "ios": "https://dc.lft.to/lastmile_qr_scan"}, "type": "electric_scooter"}, {"is_reserved": 0, "is_disabled": 0, "fusion_lon": 0.0, "lat": 38.902676, "name": "9198f332e0db478504a4cbe14635716d", "bike_id": "9198f332e0db478504a4cbe14635716d", "lon": -77.0344885, "fusion_lat": 0.0, "rental_uris": {"android": "https://dc.lft.to/lastmile_qr_scan", "ios": "https://dc.lft.to/lastmile_qr_scan"}, "type": "electric_scooter"}, {"is_reserved": 0, "is_disabled": 0, "fusion_lon": 0.0, "lat": 38.89499983333333, "name": "8aa43dc2de5f21be0b2e30b791b81cbc", "bike_id": "8aa43dc2de5f21be0b2e30b791b81cbc", "lon": -77.04638083333333, "fusion_lat": 0.0, "rental_uris": {"android": "https://dc.lft.to/lastmile_qr_scan", "ios": "https://dc.lft.to/lastmile_qr_scan"}, "type": "electric_scooter"}, {"is_reserved": 0, "is_disabled": 0, "fusion_lon": 0.0, "lat": 38.918195833333336, "name": "0faa313ff52ccbbfbb5e617c66e466df", "bike_id": "0faa313ff52ccbbfbb5e617c66e466df", "lon": -77.01417133333334, "fusion_lat": 0.0, "rental_uris": {"android": "https://dc.lft.to/lastmile_qr_scan", "ios": "https://dc.lft.to/lastmile_qr_scan"}, "type": "electric_scooter"}, {"is_reserved": 0, "is_disabled": 0, "fusion_lon": 0.0, "lat": 38.9201435, "name": "3a442882d5b1c526d389ffd37ccefc8d", "bike_id": "3a442882d5b1c526d389ffd37ccefc8d", "lon": -77.0715905, "fusion_lat": 0.0, "rental_uris": {"android": "https://dc.lft.to/lastmile_qr_scan", "ios": "https://dc.lft.to/lastmile_qr_scan"}, "type": "electric_scooter"}, {"is_reserved": 0, "is_disabled": 0, "fusion_lon": 0.0, "lat": 38.89619533333333, "name": "5f12ebdf5309737c74d83813c572f670", "bike_id": "5f12ebdf5309737c74d83813c572f670", "lon": -76.90746016666667, "fusion_lat": 0.0, "rental_uris": {"android": "https://dc.lft.to/lastmile_qr_scan", "ios": "https://dc.lft.to/lastmile_qr_scan"}, "type": "electric_bike"}, {"is_reserved": 0, "is_disabled": 0, "fusion_lon": 0.0, "lat": 38.9154845, "name": "996c2afa6364dc03b79c3088d42086c9", "bike_id": "996c2afa6364dc03b79c3088d42086c9", "lon": -77.01231983333334, "fusion_lat": 0.0, "rental_uris": {"android": "https://dc.lft.to/lastmile_qr_scan", "ios": "https://dc.lft.to/lastmile_qr_scan"}, "type": "electric_scooter"}, {"is_reserved": 0, "is_disabled": 0, "fusion_lon": 0.0, "lat": 38.9197935, "name": "634658471d91465ce4acc53e5da5fe95", "bike_id": "634658471d91465ce4acc53e5da5fe95", "lon": -77.04176083333333, "fusion_lat": 0.0, "rental_uris": {"android": "https://dc.lft.to/lastmile_qr_scan", "ios": "https://dc.lft.to/lastmile_qr_scan"}, "type": "electric_scooter"}, {"is_reserved": 0, "is_disabled": 0, "fusion_lon": 0.0, "lat": 38.94240833333333, "name": "90c96a32008191a82bfd8879cc7fec3e", "bike_id": "90c96a32008191a82bfd8879cc7fec3e", "lon": -77.00222083333334, "fusion_lat": 0.0, "rental_uris": {"android": "https://dc.lft.to/lastmile_qr_scan", "ios": "https://dc.lft.to/lastmile_qr_scan"}, "type": "electric_scooter"}, {"is_reserved": 0, "is_disabled": 0, "fusion_lon": 0.0, "lat": 38.90840166666667, "name": "c3480abe611c05d018ac06b9946f5b49", "bike_id": "c3480abe611c05d018ac06b9946f5b49", "lon": -77.00209233333334, "fusion_lat": 0.0, "rental_uris": {"android": "https://dc.lft.to/lastmile_qr_scan", "ios": "https://dc.lft.to/lastmile_qr_scan"}, "type": "electric_scooter"}, {"is_reserved": 0, "is_disabled": 0, "fusion_lon": 0.0, "lat": 38.903927833333334, "name": "93d4d739e728d4a789b92e5f5142ba3c", "bike_id": "93d4d739e728d4a789b92e5f5142ba3c", "lon": -76.989449, "fusion_lat": 0.0, "rental_uris": {"android": "https://dc.lft.to/lastmile_qr_scan", "ios": "https://dc.lft.to/lastmile_qr_scan"}, "type": "electric_scooter"}, {"is_reserved": 0, "is_disabled": 0, "fusion_lon": 0.0, "lat": 38.88670966666667, "name": "bfd7f73b83e11f2c2de7f3b269d30cdc", "bike_id": "bfd7f73b83e11f2c2de7f3b269d30cdc", "lon": -77.01381483333333, "fusion_lat": 0.0, "rental_uris": {"android": "https://dc.lft.to/lastmile_qr_scan", "ios": "https://dc.lft.to/lastmile_qr_scan"}, "type": "electric_scooter"}, {"is_reserved": 0, "is_disabled": 0, "fusion_lon": 0.0, "lat": 38.90756483333333, "name": "cc32272782a187c2fcb79c2760976cde", "bike_id": "cc32272782a187c2fcb79c2760976cde", "lon": -77.04535266666667, "fusion_lat": 0.0, "rental_uris": {"android": "https://dc.lft.to/lastmile_qr_scan", "ios": "https://dc.lft.to/lastmile_qr_scan"}, "type": "electric_scooter"}, {"is_reserved": 0, "is_disabled": 0, "fusion_lon": 0.0, "lat": 38.8797575, "name": "89e360f51338a510526af6131ddf5174", "bike_id": "89e360f51338a510526af6131ddf5174", "lon": -77.02419683333333, "fusion_lat": 0.0, "rental_uris": {"android": "https://dc.lft.to/lastmile_qr_scan", "ios": "https://dc.lft.to/lastmile_qr_scan"}, "type": "electric_scooter"}, {"is_reserved": 0, "is_disabled": 0, "fusion_lon": 0.0, "lat": 38.9167905, "name": "dc0c23e367cfad4d60f20148b3ec2433", "bike_id": "dc0c23e367cfad4d60f20148b3ec2433", "lon": -77.02393333333333, "fusion_lat": 0.0, "rental_uris": {"android": "https://dc.lft.to/lastmile_qr_scan", "ios": "https://dc.lft.to/lastmile_qr_scan"}, "type": "electric_scooter"}, {"is_reserved": 0, "is_disabled": 0, "fusion_lon": 0.0, "lat": 38.92136716666667, "name": "a74eb7c0c783831da9d9668122a263ad", "bike_id": "a74eb7c0c783831da9d9668122a263ad", "lon": -77.051526, "fusion_lat": 0.0, "rental_uris": {"android": "https://dc.lft.to/lastmile_qr_scan", "ios": "https://dc.lft.to/lastmile_qr_scan"}, "type": "electric_scooter"}, {"is_reserved": 0, "is_disabled": 0, "fusion_lon": 0.0, "lat": 38.92428833333334, "name": "9c34b85cdd8750a170a14a879265b0af", "bike_id": "9c34b85cdd8750a170a14a879265b0af", "lon": -77.04049433333333, "fusion_lat": 0.0, "rental_uris": {"android": "https://dc.lft.to/lastmile_qr_scan", "ios": "https://dc.lft.to/lastmile_qr_scan"}, "type": "electric_scooter"}, {"is_reserved": 0, "is_disabled": 0, "fusion_lon": 0.0, "lat": 38.91404166666667, "name": "84b7656e1df9d15282f3ab9666ab7f90", "bike_id": "84b7656e1df9d15282f3ab9666ab7f90", "lon": -77.02376916666667, "fusion_lat": 0.0, "rental_uris": {"android": "https://dc.lft.to/lastmile_qr_scan", "ios": "https://dc.lft.to/lastmile_qr_scan"}, "type": "electric_scooter"}, {"is_reserved": 0, "is_disabled": 0, "fusion_lon": 0.0, "lat": 38.93215566666667, "name": "ec1e94ae1b3f4d6452658399d73feb2d", "bike_id": "ec1e94ae1b3f4d6452658399d73feb2d", "lon": -77.03347816666667, "fusion_lat": 0.0, "rental_uris": {"android": "https://dc.lft.to/lastmile_qr_scan", "ios": "https://dc.lft.to/lastmile_qr_scan"}, "type": "electric_scooter"}, {"is_reserved": 0, "is_disabled": 0, "fusion_lon": 0.0, "lat": 38.87174066666667, "name": "ff25f3b56936d564bf9d70f5750bd2c7", "bike_id": "ff25f3b56936d564bf9d70f5750bd2c7", "lon": -77.00659116666667, "fusion_lat": 0.0, "rental_uris": {"android": "https://dc.lft.to/lastmile_qr_scan", "ios": "https://dc.lft.to/lastmile_qr_scan"}, "type": "electric_scooter"}, {"is_reserved": 0, "is_disabled": 0, "fusion_lon": 0.0, "lat": 38.931852166666665, "name": "cb5125428bfdb4b3f33dd3cc15d81915", "bike_id": "cb5125428bfdb4b3f33dd3cc15d81915", "lon": -77.03884733333334, "fusion_lat": 0.0, "rental_uris": {"android": "https://dc.lft.to/lastmile_qr_scan", "ios": "https://dc.lft.to/lastmile_qr_scan"}, "type": "electric_scooter"}, {"is_reserved": 0, "is_disabled": 0, "fusion_lon": 0.0, "lat": 38.90253383333334, "name": "493b7964d4e912a4dda3d94e5a2acda4", "bike_id": "493b7964d4e912a4dda3d94e5a2acda4", "lon": -76.98472166666667, "fusion_lat": 0.0, "rental_uris": {"android": "https://dc.lft.to/lastmile_qr_scan", "ios": "https://dc.lft.to/lastmile_qr_scan"}, "type": "electric_scooter"}, {"is_reserved": 0, "is_disabled": 0, "fusion_lon": 0.0, "lat": 38.91109733333333, "name": "69b789fbd2b34570a94708c55fc4a7d4", "bike_id": "69b789fbd2b34570a94708c55fc4a7d4", "lon": -77.03868766666666, "fusion_lat": 0.0, "rental_uris": {"android": "https://dc.lft.to/lastmile_qr_scan", "ios": "https://dc.lft.to/lastmile_qr_scan"}, "type": "electric_scooter"}, {"is_reserved": 0, "is_disabled": 0, "fusion_lon": 0.0, "lat": 38.90389233333333, "name": "0dc18321fe6f2665a4e653ba3f8dfb2d", "bike_id": "0dc18321fe6f2665a4e653ba3f8dfb2d", "lon": -76.97385166666666, "fusion_lat": 0.0, "rental_uris": {"android": "https://dc.lft.to/lastmile_qr_scan", "ios": "https://dc.lft.to/lastmile_qr_scan"}, "type": "electric_scooter"}, {"is_reserved": 0, "is_disabled": 0, "fusion_lon": 0.0, "lat": 38.89630616666667, "name": "4a417697d503edc7c86f1d05451923b2", "bike_id": "4a417697d503edc7c86f1d05451923b2", "lon": -77.02193233333334, "fusion_lat": 0.0, "rental_uris": {"android": "https://dc.lft.to/lastmile_qr_scan", "ios": "https://dc.lft.to/lastmile_qr_scan"}, "type": "electric_scooter"}, {"is_reserved": 0, "is_disabled": 0, "fusion_lon": 0.0, "lat": 38.85455916666667, "name": "28c577347b2c3e9b27c91f955cd46bad", "bike_id": "28c577347b2c3e9b27c91f955cd46bad", "lon": -76.98620383333333, "fusion_lat": 0.0, "rental_uris": {"android": "https://dc.lft.to/lastmile_qr_scan", "ios": "https://dc.lft.to/lastmile_qr_scan"}, "type": "electric_bike"}, {"is_reserved": 0, "is_disabled": 0, "fusion_lon": 0.0, "lat": 38.9163345, "name": "16378018ef3270fa21f89f630ee3d594", "bike_id": "16378018ef3270fa21f89f630ee3d594", "lon": -76.982761, "fusion_lat": 0.0, "rental_uris": {"android": "https://dc.lft.to/lastmile_qr_scan", "ios": "https://dc.lft.to/lastmile_qr_scan"}, "type": "electric_scooter"}, {"is_reserved": 0, "is_disabled": 0, "fusion_lon": 0.0, "lat": 38.87861183333333, "name": "204843a4a09ffe395ae04bacb176dfd9", "bike_id": "204843a4a09ffe395ae04bacb176dfd9", "lon": -76.996595, "fusion_lat": 0.0, "rental_uris": {"android": "https://dc.lft.to/lastmile_qr_scan", "ios": "https://dc.lft.to/lastmile_qr_scan"}, "type": "electric_scooter"}, {"is_reserved": 0, "is_disabled": 0, "fusion_lon": 0.0, "lat": 38.925511666666665, "name": "c992852f0ef5f716c692c21de2f9939f", "bike_id": "c992852f0ef5f716c692c21de2f9939f", "lon": -76.98310683333334, "fusion_lat": 0.0, "rental_uris": {"android": "https://dc.lft.to/lastmile_qr_scan", "ios": "https://dc.lft.to/lastmile_qr_scan"}, "type": "electric_scooter"}, {"is_reserved": 0, "is_disabled": 0, "fusion_lon": 0.0, "lat": 38.894489666666665, "name": "08cc57a7b29e8aec7413694d132c5016", "bike_id": "08cc57a7b29e8aec7413694d132c5016", "lon": -77.0267165, "fusion_lat": 0.0, "rental_uris": {"android": "https://dc.lft.to/lastmile_qr_scan", "ios": "https://dc.lft.to/lastmile_qr_scan"}, "type": "electric_scooter"}, {"is_reserved": 0, "is_disabled": 0, "fusion_lon": 0.0, "lat": 38.924023166666665, "name": "3158bb5864153f6d038d112beeeecdd3", "bike_id": "3158bb5864153f6d038d112beeeecdd3", "lon": -77.0269465, "fusion_lat": 0.0, "rental_uris": {"android": "https://dc.lft.to/lastmile_qr_scan", "ios": "https://dc.lft.to/lastmile_qr_scan"}, "type": "electric_scooter"}, {"is_reserved": 0, "is_disabled": 0, "fusion_lon": 0.0, "lat": 38.8802685, "name": "e48b8cb71d0eeb2ae37a2cf288845ca7", "bike_id": "e48b8cb71d0eeb2ae37a2cf288845ca7", "lon": -77.023184, "fusion_lat": 0.0, "rental_uris": {"android": "https://dc.lft.to/lastmile_qr_scan", "ios": "https://dc.lft.to/lastmile_qr_scan"}, "type": "electric_scooter"}, {"is_reserved": 0, "is_disabled": 0, "fusion_lon": 0.0, "lat": 38.8464135, "name": "b85b4bdc62457bf2339601fef42ac550", "bike_id": "b85b4bdc62457bf2339601fef42ac550", "lon": -76.97069083333334, "fusion_lat": 0.0, "rental_uris": {"android": "https://dc.lft.to/lastmile_qr_scan", "ios": "https://dc.lft.to/lastmile_qr_scan"}, "type": "electric_bike"}, {"is_reserved": 0, "is_disabled": 0, "fusion_lon": 0.0, "lat": 38.919500166666666, "name": "29a13c18df81756e738d192cb76f9f08", "bike_id": "29a13c18df81756e738d192cb76f9f08", "lon": -77.01419583333333, "fusion_lat": 0.0, "rental_uris": {"android": "https://dc.lft.to/lastmile_qr_scan", "ios": "https://dc.lft.to/lastmile_qr_scan"}, "type": "electric_scooter"}, {"is_reserved": 0, "is_disabled": 0, "fusion_lon": 0.0, "lat": 38.917809166666665, "name": "ce25eced587ab9f1e42154ae8961c53b", "bike_id": "ce25eced587ab9f1e42154ae8961c53b", "lon": -77.0231, "fusion_lat": 0.0, "rental_uris": {"android": "https://dc.lft.to/lastmile_qr_scan", "ios": "https://dc.lft.to/lastmile_qr_scan"}, "type": "electric_scooter"}, {"is_reserved": 0, "is_disabled": 0, "fusion_lon": 0.0, "lat": 38.91830483333333, "name": "6c6275927d8ba3e39f94a3dc73165245", "bike_id": "6c6275927d8ba3e39f94a3dc73165245", "lon": -77.02291866666667, "fusion_lat": 0.0, "rental_uris": {"android": "https://dc.lft.to/lastmile_qr_scan", "ios": "https://dc.lft.to/lastmile_qr_scan"}, "type": "electric_scooter"}, {"is_reserved": 0, "is_disabled": 0, "fusion_lon": 0.0, "lat": 38.9604665, "name": "a7edf492d82055759282a19aeb173789", "bike_id": "a7edf492d82055759282a19aeb173789", "lon": -77.0050845, "fusion_lat": 0.0, "rental_uris": {"android": "https://dc.lft.to/lastmile_qr_scan", "ios": "https://dc.lft.to/lastmile_qr_scan"}, "type": "electric_scooter"}, {"is_reserved": 0, "is_disabled": 0, "fusion_lon": 0.0, "lat": 38.896068166666666, "name": "533002601105d8ce1142db2ddcbff7e3", "bike_id": "533002601105d8ce1142db2ddcbff7e3", "lon": -77.04791216666666, "fusion_lat": 0.0, "rental_uris": {"android": "https://dc.lft.to/lastmile_qr_scan", "ios": "https://dc.lft.to/lastmile_qr_scan"}, "type": "electric_scooter"}, {"is_reserved": 0, "is_disabled": 0, "fusion_lon": 0.0, "lat": 38.88015816666667, "name": "9486b045fbf7578bacdd57515fe5f439", "bike_id": "9486b045fbf7578bacdd57515fe5f439", "lon": -77.00573666666666, "fusion_lat": 0.0, "rental_uris": {"android": "https://dc.lft.to/lastmile_qr_scan", "ios": "https://dc.lft.to/lastmile_qr_scan"}, "type": "electric_scooter"}, {"is_reserved": 0, "is_disabled": 0, "fusion_lon": 0.0, "lat": 38.91994316666667, "name": "af7ee53a0bdf550c5a055f8d06dc2e49", "bike_id": "af7ee53a0bdf550c5a055f8d06dc2e49", "lon": -76.983969, "fusion_lat": 0.0, "rental_uris": {"android": "https://dc.lft.to/lastmile_qr_scan", "ios": "https://dc.lft.to/lastmile_qr_scan"}, "type": "electric_scooter"}, {"is_reserved": 0, "is_disabled": 0, "fusion_lon": 0.0, "lat": 38.89221633333333, "name": "d4fe27f2eb2b27dac3b97a5fd860234e", "bike_id": "d4fe27f2eb2b27dac3b97a5fd860234e", "lon": -77.04363433333333, "fusion_lat": 0.0, "rental_uris": {"android": "https://dc.lft.to/lastmile_qr_scan", "ios": "https://dc.lft.to/lastmile_qr_scan"}, "type": "electric_scooter"}, {"is_reserved": 0, "is_disabled": 0, "fusion_lon": 0.0, "lat": 38.918058333333335, "name": "88e54a386a47a91ae38046dae45fb1f0", "bike_id": "88e54a386a47a91ae38046dae45fb1f0", "lon": -77.03436883333333, "fusion_lat": 0.0, "rental_uris": {"android": "https://dc.lft.to/lastmile_qr_scan", "ios": "https://dc.lft.to/lastmile_qr_scan"}, "type": "electric_scooter"}, {"is_reserved": 0, "is_disabled": 0, "fusion_lon": 0.0, "lat": 38.910557833333336, "name": "c8d8ab4193071549c33df0abbf77aa8a", "bike_id": "c8d8ab4193071549c33df0abbf77aa8a", "lon": -77.04173866666666, "fusion_lat": 0.0, "rental_uris": {"android": "https://dc.lft.to/lastmile_qr_scan", "ios": "https://dc.lft.to/lastmile_qr_scan"}, "type": "electric_scooter"}, {"is_reserved": 0, "is_disabled": 0, "fusion_lon": 0.0, "lat": 38.85439183333333, "name": "196cb66e2c44fbef0195565ff9f487e3", "bike_id": "196cb66e2c44fbef0195565ff9f487e3", "lon": -76.97168466666666, "fusion_lat": 0.0, "rental_uris": {"android": "https://dc.lft.to/lastmile_qr_scan", "ios": "https://dc.lft.to/lastmile_qr_scan"}, "type": "electric_scooter"}, {"is_reserved": 0, "is_disabled": 0, "fusion_lon": 0.0, "lat": 38.9007325, "name": "936cc83e5fab1a71032e45efa80ffe20", "bike_id": "936cc83e5fab1a71032e45efa80ffe20", "lon": -77.05411166666667, "fusion_lat": 0.0, "rental_uris": {"android": "https://dc.lft.to/lastmile_qr_scan", "ios": "https://dc.lft.to/lastmile_qr_scan"}, "type": "electric_scooter"}, {"is_reserved": 0, "is_disabled": 0, "fusion_lon": 0.0, "lat": 38.92909216666666, "name": "d73d080919a80073417e806a24136816", "bike_id": "d73d080919a80073417e806a24136816", "lon": -77.02382233333333, "fusion_lat": 0.0, "rental_uris": {"android": "https://dc.lft.to/lastmile_qr_scan", "ios": "https://dc.lft.to/lastmile_qr_scan"}, "type": "electric_bike"}, {"is_reserved": 0, "is_disabled": 0, "fusion_lon": 0.0, "lat": 38.91115083333333, "name": "33863cddf5d682081edae59fd8803d86", "bike_id": "33863cddf5d682081edae59fd8803d86", "lon": -77.0361155, "fusion_lat": 0.0, "rental_uris": {"android": "https://dc.lft.to/lastmile_qr_scan", "ios": "https://dc.lft.to/lastmile_qr_scan"}, "type": "electric_scooter"}, {"is_reserved": 0, "is_disabled": 0, "fusion_lon": 0.0, "lat": 38.922352333333336, "name": "c90bc64f06ef209399607bba267bfb10", "bike_id": "c90bc64f06ef209399607bba267bfb10", "lon": -77.03467683333334, "fusion_lat": 0.0, "rental_uris": {"android": "https://dc.lft.to/lastmile_qr_scan", "ios": "https://dc.lft.to/lastmile_qr_scan"}, "type": "electric_scooter"}, {"is_reserved": 0, "is_disabled": 0, "fusion_lon": 0.0, "lat": 38.91097116666667, "name": "15a770f33467d84ecbce9065f31959a6", "bike_id": "15a770f33467d84ecbce9065f31959a6", "lon": -77.02546616666666, "fusion_lat": 0.0, "rental_uris": {"android": "https://dc.lft.to/lastmile_qr_scan", "ios": "https://dc.lft.to/lastmile_qr_scan"}, "type": "electric_scooter"}, {"is_reserved": 0, "is_disabled": 0, "fusion_lon": 0.0, "lat": 38.9057625, "name": "70d4ce0be2b917ae83bb9bb2c9b7f64e", "bike_id": "70d4ce0be2b917ae83bb9bb2c9b7f64e", "lon": -77.0220875, "fusion_lat": 0.0, "rental_uris": {"android": "https://dc.lft.to/lastmile_qr_scan", "ios": "https://dc.lft.to/lastmile_qr_scan"}, "type": "electric_scooter"}, {"is_reserved": 0, "is_disabled": 0, "fusion_lon": 0.0, "lat": 38.90223866666667, "name": "ca2a08c532091d9cf6e9b50234b1cc89", "bike_id": "ca2a08c532091d9cf6e9b50234b1cc89", "lon": -77.04810183333333, "fusion_lat": 0.0, "rental_uris": {"android": "https://dc.lft.to/lastmile_qr_scan", "ios": "https://dc.lft.to/lastmile_qr_scan"}, "type": "electric_scooter"}, {"is_reserved": 0, "is_disabled": 0, "fusion_lon": 0.0, "lat": 38.941376166666664, "name": "b3115e21bf87972dfba85b9da040613b", "bike_id": "b3115e21bf87972dfba85b9da040613b", "lon": -77.0232185, "fusion_lat": 0.0, "rental_uris": {"android": "https://dc.lft.to/lastmile_qr_scan", "ios": "https://dc.lft.to/lastmile_qr_scan"}, "type": "electric_scooter"}, {"is_reserved": 0, "is_disabled": 0, "fusion_lon": 0.0, "lat": 38.912844666666665, "name": "58724d8e56372829e4f496fad44ee413", "bike_id": "58724d8e56372829e4f496fad44ee413", "lon": -77.023006, "fusion_lat": 0.0, "rental_uris": {"android": "https://dc.lft.to/lastmile_qr_scan", "ios": "https://dc.lft.to/lastmile_qr_scan"}, "type": "electric_scooter"}, {"is_reserved": 0, "is_disabled": 0, "fusion_lon": 0.0, "lat": 38.924723166666666, "name": "538cba9ac9604b70b5a0386fab86d61e", "bike_id": "538cba9ac9604b70b5a0386fab86d61e", "lon": -77.03938383333333, "fusion_lat": 0.0, "rental_uris": {"android": "https://dc.lft.to/lastmile_qr_scan", "ios": "https://dc.lft.to/lastmile_qr_scan"}, "type": "electric_scooter"}, {"is_reserved": 0, "is_disabled": 0, "fusion_lon": 0.0, "lat": 38.90682233333333, "name": "ee527d2e3f249ff7b6d5c08815b2348d", "bike_id": "ee527d2e3f249ff7b6d5c08815b2348d", "lon": -77.07154683333333, "fusion_lat": 0.0, "rental_uris": {"android": "https://dc.lft.to/lastmile_qr_scan", "ios": "https://dc.lft.to/lastmile_qr_scan"}, "type": "electric_scooter"}, {"is_reserved": 0, "is_disabled": 0, "fusion_lon": 0.0, "lat": 38.941043, "name": "ecf69149b4247dd9186848c94b603b2a", "bike_id": "ecf69149b4247dd9186848c94b603b2a", "lon": -77.0770285, "fusion_lat": 0.0, "rental_uris": {"android": "https://dc.lft.to/lastmile_qr_scan", "ios": "https://dc.lft.to/lastmile_qr_scan"}, "type": "electric_scooter"}, {"is_reserved": 0, "is_disabled": 0, "fusion_lon": 0.0, "lat": 38.913615666666665, "name": "abb7c8c1bcf50e084d6d7790ace415c7", "bike_id": "abb7c8c1bcf50e084d6d7790ace415c7", "lon": -77.04553116666666, "fusion_lat": 0.0, "rental_uris": {"android": "https://dc.lft.to/lastmile_qr_scan", "ios": "https://dc.lft.to/lastmile_qr_scan"}, "type": "electric_scooter"}, {"is_reserved": 0, "is_disabled": 0, "fusion_lon": 0.0, "lat": 38.907142, "name": "2dabdc1b241594c0b1c94e21dd79b5b0", "bike_id": "2dabdc1b241594c0b1c94e21dd79b5b0", "lon": -77.03218616666666, "fusion_lat": 0.0, "rental_uris": {"android": "https://dc.lft.to/lastmile_qr_scan", "ios": "https://dc.lft.to/lastmile_qr_scan"}, "type": "electric_scooter"}, {"is_reserved": 0, "is_disabled": 0, "fusion_lon": 0.0, "lat": 38.784598833333334, "name": "30fdc7b54de5925d1df5dea951e5bb8d", "bike_id": "30fdc7b54de5925d1df5dea951e5bb8d", "lon": -77.0544005, "fusion_lat": 0.0, "rental_uris": {"android": "https://dc.lft.to/lastmile_qr_scan", "ios": "https://dc.lft.to/lastmile_qr_scan"}, "type": "electric_bike"}, {"is_reserved": 0, "is_disabled": 0, "fusion_lon": 0.0, "lat": 38.96222016666667, "name": "fc3bba03bc9d8721efa362a7c5dca59b", "bike_id": "fc3bba03bc9d8721efa362a7c5dca59b", "lon": -77.01356183333333, "fusion_lat": 0.0, "rental_uris": {"android": "https://dc.lft.to/lastmile_qr_scan", "ios": "https://dc.lft.to/lastmile_qr_scan"}, "type": "electric_scooter"}, {"is_reserved": 0, "is_disabled": 0, "fusion_lon": 0.0, "lat": 38.893232833333336, "name": "cac13b5bdff62121501e1308c1fcfcfd", "bike_id": "cac13b5bdff62121501e1308c1fcfcfd", "lon": -77.02215766666667, "fusion_lat": 0.0, "rental_uris": {"android": "https://dc.lft.to/lastmile_qr_scan", "ios": "https://dc.lft.to/lastmile_qr_scan"}, "type": "electric_scooter"}, {"is_reserved": 0, "is_disabled": 0, "fusion_lon": 0.0, "lat": 38.907362666666664, "name": "7420aebacbf479f6a38d7df7c4de1e15", "bike_id": "7420aebacbf479f6a38d7df7c4de1e15", "lon": -77.0455505, "fusion_lat": 0.0, "rental_uris": {"android": "https://dc.lft.to/lastmile_qr_scan", "ios": "https://dc.lft.to/lastmile_qr_scan"}, "type": "electric_scooter"}, {"is_reserved": 0, "is_disabled": 0, "fusion_lon": 0.0, "lat": 38.897336, "name": "bd3cb344c595c901f0d6c4f6b99cb849", "bike_id": "bd3cb344c595c901f0d6c4f6b99cb849", "lon": -77.05525133333333, "fusion_lat": 0.0, "rental_uris": {"android": "https://dc.lft.to/lastmile_qr_scan", "ios": "https://dc.lft.to/lastmile_qr_scan"}, "type": "electric_scooter"}, {"is_reserved": 0, "is_disabled": 0, "fusion_lon": 0.0, "lat": 38.927934, "name": "328406a8ac145c43dc1d9f691118993b", "bike_id": "328406a8ac145c43dc1d9f691118993b", "lon": -77.015469, "fusion_lat": 0.0, "rental_uris": {"android": "https://dc.lft.to/lastmile_qr_scan", "ios": "https://dc.lft.to/lastmile_qr_scan"}, "type": "electric_scooter"}, {"is_reserved": 0, "is_disabled": 0, "fusion_lon": 0.0, "lat": 38.93098033333333, "name": "10b90112f3c3ce8c083240874ff43dc1", "bike_id": "10b90112f3c3ce8c083240874ff43dc1", "lon": -77.02474733333334, "fusion_lat": 0.0, "rental_uris": {"android": "https://dc.lft.to/lastmile_qr_scan", "ios": "https://dc.lft.to/lastmile_qr_scan"}, "type": "electric_scooter"}, {"is_reserved": 0, "is_disabled": 0, "fusion_lon": 0.0, "lat": 38.902544666666664, "name": "e1fc400f62a0b5260a1606ac9f606220", "bike_id": "e1fc400f62a0b5260a1606ac9f606220", "lon": -77.0178245, "fusion_lat": 0.0, "rental_uris": {"android": "https://dc.lft.to/lastmile_qr_scan", "ios": "https://dc.lft.to/lastmile_qr_scan"}, "type": "electric_scooter"}, {"is_reserved": 0, "is_disabled": 0, "fusion_lon": 0.0, "lat": 38.917708, "name": "7dcccc94b369f00ee0d7b52e87a6dcd9", "bike_id": "7dcccc94b369f00ee0d7b52e87a6dcd9", "lon": -77.04770683333334, "fusion_lat": 0.0, "rental_uris": {"android": "https://dc.lft.to/lastmile_qr_scan", "ios": "https://dc.lft.to/lastmile_qr_scan"}, "type": "electric_scooter"}, {"is_reserved": 0, "is_disabled": 0, "fusion_lon": 0.0, "lat": 38.913991, "name": "7c4a22ffb2e60fa70627f6ae49aef940", "bike_id": "7c4a22ffb2e60fa70627f6ae49aef940", "lon": -77.0316525, "fusion_lat": 0.0, "rental_uris": {"android": "https://dc.lft.to/lastmile_qr_scan", "ios": "https://dc.lft.to/lastmile_qr_scan"}, "type": "electric_scooter"}, {"is_reserved": 0, "is_disabled": 0, "fusion_lon": 0.0, "lat": 38.92601, "name": "4fcf55a2ee7d787a1c6e8d91c07bc963", "bike_id": "4fcf55a2ee7d787a1c6e8d91c07bc963", "lon": -77.02155816666667, "fusion_lat": 0.0, "rental_uris": {"android": "https://dc.lft.to/lastmile_qr_scan", "ios": "https://dc.lft.to/lastmile_qr_scan"}, "type": "electric_scooter"}, {"is_reserved": 0, "is_disabled": 0, "fusion_lon": 0.0, "lat": 38.92239633333333, "name": "e83ae14fda8fe679d09a5ec335ef0422", "bike_id": "e83ae14fda8fe679d09a5ec335ef0422", "lon": -77.03660716666667, "fusion_lat": 0.0, "rental_uris": {"android": "https://dc.lft.to/lastmile_qr_scan", "ios": "https://dc.lft.to/lastmile_qr_scan"}, "type": "electric_scooter"}, {"is_reserved": 0, "is_disabled": 0, "fusion_lon": 0.0, "lat": 38.90152783333333, "name": "831a152bc8c4309c89756f54d268cdbf", "bike_id": "831a152bc8c4309c89756f54d268cdbf", "lon": -76.9741845, "fusion_lat": 0.0, "rental_uris": {"android": "https://dc.lft.to/lastmile_qr_scan", "ios": "https://dc.lft.to/lastmile_qr_scan"}, "type": "electric_scooter"}, {"is_reserved": 0, "is_disabled": 0, "fusion_lon": 0.0, "lat": 38.9106675, "name": "2aac1d34b9b9737bd9c3c8b7badd8f6f", "bike_id": "2aac1d34b9b9737bd9c3c8b7badd8f6f", "lon": -77.04481566666666, "fusion_lat": 0.0, "rental_uris": {"android": "https://dc.lft.to/lastmile_qr_scan", "ios": "https://dc.lft.to/lastmile_qr_scan"}, "type": "electric_scooter"}, {"is_reserved": 0, "is_disabled": 0, "fusion_lon": 0.0, "lat": 38.918604333333334, "name": "b3d5330c447ef114ed0bbb051925e7b4", "bike_id": "b3d5330c447ef114ed0bbb051925e7b4", "lon": -76.96080933333333, "fusion_lat": 0.0, "rental_uris": {"android": "https://dc.lft.to/lastmile_qr_scan", "ios": "https://dc.lft.to/lastmile_qr_scan"}, "type": "electric_bike"}, {"is_reserved": 0, "is_disabled": 0, "fusion_lon": 0.0, "lat": 38.9465495, "name": "96f005e3bfa9a9759557f9f24fab66d0", "bike_id": "96f005e3bfa9a9759557f9f24fab66d0", "lon": -77.02249483333334, "fusion_lat": 0.0, "rental_uris": {"android": "https://dc.lft.to/lastmile_qr_scan", "ios": "https://dc.lft.to/lastmile_qr_scan"}, "type": "electric_scooter"}, {"is_reserved": 0, "is_disabled": 0, "fusion_lon": 0.0, "lat": 38.896042666666666, "name": "d2c27c94e1844bf0f7cda9cc5022c66f", "bike_id": "d2c27c94e1844bf0f7cda9cc5022c66f", "lon": -77.04430933333333, "fusion_lat": 0.0, "rental_uris": {"android": "https://dc.lft.to/lastmile_qr_scan", "ios": "https://dc.lft.to/lastmile_qr_scan"}, "type": "electric_scooter"}, {"is_reserved": 0, "is_disabled": 0, "fusion_lon": 0.0, "lat": 38.894034833333336, "name": "bfd01a04b7eac57aa2b30fd80def1777", "bike_id": "bfd01a04b7eac57aa2b30fd80def1777", "lon": -77.021774, "fusion_lat": 0.0, "rental_uris": {"android": "https://dc.lft.to/lastmile_qr_scan", "ios": "https://dc.lft.to/lastmile_qr_scan"}, "type": "electric_scooter"}, {"is_reserved": 0, "is_disabled": 0, "fusion_lon": 0.0, "lat": 38.92061866666667, "name": "83f83868f40490675184c45805304d73", "bike_id": "83f83868f40490675184c45805304d73", "lon": -77.0346115, "fusion_lat": 0.0, "rental_uris": {"android": "https://dc.lft.to/lastmile_qr_scan", "ios": "https://dc.lft.to/lastmile_qr_scan"}, "type": "electric_scooter"}, {"is_reserved": 0, "is_disabled": 0, "fusion_lon": 0.0, "lat": 38.89970116666667, "name": "5f84aff5bbdba17e697c7a1111d3f867", "bike_id": "5f84aff5bbdba17e697c7a1111d3f867", "lon": -77.0307825, "fusion_lat": 0.0, "rental_uris": {"android": "https://dc.lft.to/lastmile_qr_scan", "ios": "https://dc.lft.to/lastmile_qr_scan"}, "type": "electric_scooter"}, {"is_reserved": 0, "is_disabled": 0, "fusion_lon": 0.0, "lat": 38.92137916666667, "name": "d246bbf1ddb60eb16d80794b18bcb545", "bike_id": "d246bbf1ddb60eb16d80794b18bcb545", "lon": -77.02544383333333, "fusion_lat": 0.0, "rental_uris": {"android": "https://dc.lft.to/lastmile_qr_scan", "ios": "https://dc.lft.to/lastmile_qr_scan"}, "type": "electric_scooter"}, {"is_reserved": 0, "is_disabled": 0, "fusion_lon": 0.0, "lat": 38.91255483333333, "name": "71f410504704b9509deb9260152028f6", "bike_id": "71f410504704b9509deb9260152028f6", "lon": -77.072327, "fusion_lat": 0.0, "rental_uris": {"android": "https://dc.lft.to/lastmile_qr_scan", "ios": "https://dc.lft.to/lastmile_qr_scan"}, "type": "electric_scooter"}, {"is_reserved": 0, "is_disabled": 0, "fusion_lon": 0.0, "lat": 38.88956183333333, "name": "b55625edc2b8c96405318764f990fea6", "bike_id": "b55625edc2b8c96405318764f990fea6", "lon": -76.9881915, "fusion_lat": 0.0, "rental_uris": {"android": "https://dc.lft.to/lastmile_qr_scan", "ios": "https://dc.lft.to/lastmile_qr_scan"}, "type": "electric_scooter"}, {"is_reserved": 0, "is_disabled": 0, "fusion_lon": 0.0, "lat": 38.908382333333336, "name": "c2633928fed86ff5553068a6b18d8da5", "bike_id": "c2633928fed86ff5553068a6b18d8da5", "lon": -77.07308283333333, "fusion_lat": 0.0, "rental_uris": {"android": "https://dc.lft.to/lastmile_qr_scan", "ios": "https://dc.lft.to/lastmile_qr_scan"}, "type": "electric_scooter"}, {"is_reserved": 0, "is_disabled": 0, "fusion_lon": 0.0, "lat": 38.917603, "name": "b9138d17558c4048464af2fb48165c0f", "bike_id": "b9138d17558c4048464af2fb48165c0f", "lon": -77.02712433333333, "fusion_lat": 0.0, "rental_uris": {"android": "https://dc.lft.to/lastmile_qr_scan", "ios": "https://dc.lft.to/lastmile_qr_scan"}, "type": "electric_scooter"}, {"is_reserved": 0, "is_disabled": 0, "fusion_lon": 0.0, "lat": 38.9198555, "name": "728ef61aa32535294fd772ca322d0250", "bike_id": "728ef61aa32535294fd772ca322d0250", "lon": -77.02503083333333, "fusion_lat": 0.0, "rental_uris": {"android": "https://dc.lft.to/lastmile_qr_scan", "ios": "https://dc.lft.to/lastmile_qr_scan"}, "type": "electric_scooter"}, {"is_reserved": 0, "is_disabled": 0, "fusion_lon": 0.0, "lat": 38.90148533333333, "name": "7950ac09a5590327e5fe47d81c2f959e", "bike_id": "7950ac09a5590327e5fe47d81c2f959e", "lon": -77.05162833333333, "fusion_lat": 0.0, "rental_uris": {"android": "https://dc.lft.to/lastmile_qr_scan", "ios": "https://dc.lft.to/lastmile_qr_scan"}, "type": "electric_scooter"}, {"is_reserved": 0, "is_disabled": 0, "fusion_lon": 0.0, "lat": 38.998092666666665, "name": "d15eac409702260880fe74a3b746ac99", "bike_id": "d15eac409702260880fe74a3b746ac99", "lon": -77.02889783333333, "fusion_lat": 0.0, "rental_uris": {"android": "https://dc.lft.to/lastmile_qr_scan", "ios": "https://dc.lft.to/lastmile_qr_scan"}, "type": "electric_bike"}, {"is_reserved": 0, "is_disabled": 0, "fusion_lon": 0.0, "lat": 38.914344666666665, "name": "789a56fe735748630aa1137a412ddaf5", "bike_id": "789a56fe735748630aa1137a412ddaf5", "lon": -77.00359783333333, "fusion_lat": 0.0, "rental_uris": {"android": "https://dc.lft.to/lastmile_qr_scan", "ios": "https://dc.lft.to/lastmile_qr_scan"}, "type": "electric_scooter"}, {"is_reserved": 0, "is_disabled": 0, "fusion_lon": 0.0, "lat": 38.9167985, "name": "256b775cfe33da547d66bb494eaf6486", "bike_id": "256b775cfe33da547d66bb494eaf6486", "lon": -77.03686733333333, "fusion_lat": 0.0, "rental_uris": {"android": "https://dc.lft.to/lastmile_qr_scan", "ios": "https://dc.lft.to/lastmile_qr_scan"}, "type": "electric_scooter"}, {"is_reserved": 0, "is_disabled": 0, "fusion_lon": 0.0, "lat": 38.91912583333333, "name": "853bc758461a8c847871640afe2ba1fd", "bike_id": "853bc758461a8c847871640afe2ba1fd", "lon": -77.03320216666667, "fusion_lat": 0.0, "rental_uris": {"android": "https://dc.lft.to/lastmile_qr_scan", "ios": "https://dc.lft.to/lastmile_qr_scan"}, "type": "electric_scooter"}, {"is_reserved": 0, "is_disabled": 0, "fusion_lon": 0.0, "lat": 38.9422655, "name": "11637cf4140a7d32a32a67b7ea6cae7a", "bike_id": "11637cf4140a7d32a32a67b7ea6cae7a", "lon": -77.0143775, "fusion_lat": 0.0, "rental_uris": {"android": "https://dc.lft.to/lastmile_qr_scan", "ios": "https://dc.lft.to/lastmile_qr_scan"}, "type": "electric_scooter"}, {"is_reserved": 0, "is_disabled": 0, "fusion_lon": 0.0, "lat": 38.8967775, "name": "296e1f31a0f83f62a1262b66cf680177", "bike_id": "296e1f31a0f83f62a1262b66cf680177", "lon": -76.96304416666666, "fusion_lat": 0.0, "rental_uris": {"android": "https://dc.lft.to/lastmile_qr_scan", "ios": "https://dc.lft.to/lastmile_qr_scan"}, "type": "electric_bike"}, {"is_reserved": 0, "is_disabled": 0, "fusion_lon": 0.0, "lat": 38.892261, "name": "46dd21ae95f38ececf0205b4b3b10e2f", "bike_id": "46dd21ae95f38ececf0205b4b3b10e2f", "lon": -77.04335966666666, "fusion_lat": 0.0, "rental_uris": {"android": "https://dc.lft.to/lastmile_qr_scan", "ios": "https://dc.lft.to/lastmile_qr_scan"},