{"data": {"bikes": [{"fusion_lat": 0.0, "name": "6dfa4fa078d87fcfcf91d1175aa56fa1", "is_disabled": 0, "rental_uris": {"android": "https://dc.lft.to/lastmile_qr_scan", "ios": "https://dc.lft.to/lastmile_qr_scan"}, "fusion_lon": 0.0, "lat": 38.882602, "bike_id": "6dfa4fa078d87fcfcf91d1175aa56fa1", "type": "electric_scooter", "is_reserved": 0, "lon": -76.9949035}, {"fusion_lat": 0.0, "name": "11df85237446fe254435c7791f883651", "is_disabled": 0, "rental_uris": {"android": "https://dc.lft.to/lastmile_qr_scan", "ios": "https://dc.lft.to/lastmile_qr_scan"}, "fusion_lon": 0.0, "lat": 38.9406985, "bike_id": "11df85237446fe254435c7791f883651", "type": "electric_scooter", "is_reserved": 0, "lon": -77.0170195}, {"fusion_lat": 0.0, "name": "540574b0ef4d1bc979c571f84d075bf9", "is_disabled": 0, "rental_uris": {"android": "https://dc.lft.to/lastmile_qr_scan", "ios": "https://dc.lft.to/lastmile_qr_scan"}, "fusion_lon": 0.0, "lat": 38.90991416666667, "bike_id": "540574b0ef4d1bc979c571f84d075bf9", "type": "electric_scooter", "is_reserved": 0, "lon": -77.044863}, {"fusion_lat": 0.0, "name": "0ed21dcce5953a79b75a350d24f024d3", "is_disabled": 0, "rental_uris": {"android": "https://dc.lft.to/lastmile_qr_scan", "ios": "https://dc.lft.to/lastmile_qr_scan"}, "fusion_lon": 0.0, "lat": 38.865555, "bike_id": "0ed21dcce5953a79b75a350d24f024d3", "type": "electric_scooter", "is_reserved": 0, "lon": -76.98352633333333}, {"fusion_lat": 0.0, "name": "b9324ccc456990be01f47cb006beeda9", "is_disabled": 0, "rental_uris": {"android": "https://dc.lft.to/lastmile_qr_scan", "ios": "https://dc.lft.to/lastmile_qr_scan"}, "fusion_lon": 0.0, "lat": 38.89610966666667, "bike_id": "b9324ccc456990be01f47cb006beeda9", "type": "electric_scooter", "is_reserved": 0, "lon": -76.94815183333333}, {"fusion_lat": 0.0, "name": "c4c7d2d9eccf63b76a413165cdb054b9", "is_disabled": 0, "rental_uris": {"android": "https://dc.lft.to/lastmile_qr_scan", "ios": "https://dc.lft.to/lastmile_qr_scan"}, "fusion_lon": 0.0, "lat": 38.863239, "bike_id": "c4c7d2d9eccf63b76a413165cdb054b9", "type": "electric_bike", "is_reserved": 0, "lon": -76.9871285}, {"fusion_lat": 0.0, "name": "31630fe61105da33d551fc93d8c0c159", "is_disabled": 0, "rental_uris": {"android": "https://dc.lft.to/lastmile_qr_scan", "ios": "https://dc.lft.to/lastmile_qr_scan"}, "fusion_lon": 0.0, "lat": 38.916977, "bike_id": "31630fe61105da33d551fc93d8c0c159", "type": "electric_scooter", "is_reserved": 0, "lon": -77.0310655}, {"fusion_lat": 0.0, "name": "f8811ceeb3b28a18ec1b94ab936f281f", "is_disabled": 0, "rental_uris": {"android": "https://dc.lft.to/lastmile_qr_scan", "ios": "https://dc.lft.to/lastmile_qr_scan"}, "fusion_lon": 0.0, "lat": 38.908270333333334, "bike_id": "f8811ceeb3b28a18ec1b94ab936f281f", "type": "electric_scooter", "is_reserved": 0, "lon": -77.03838583333334}, {"fusion_lat": 0.0, "name": "cab82a75babd4ca63d6e121dc06621f1", "is_disabled": 0, "rental_uris": {"android": "https://dc.lft.to/lastmile_qr_scan", "ios": "https://dc.lft.to/lastmile_qr_scan"}, "fusion_lon": 0.0, "lat": 38.9057095, "bike_id": "cab82a75babd4ca63d6e121dc06621f1", "type": "electric_scooter", "is_reserved": 0, "lon": -77.0416035}, {"fusion_lat": 0.0, "name": "c4ea6fe2682698c8649ea5313a1e82b6", "is_disabled": 0, "rental_uris": {"android": "https://dc.lft.to/lastmile_qr_scan", "ios": "https://dc.lft.to/lastmile_qr_scan"}, "fusion_lon": 0.0, "lat": 38.912592, "bike_id": "c4ea6fe2682698c8649ea5313a1e82b6", "type": "electric_scooter", "is_reserved": 0, "lon": -77.047351}, {"fusion_lat": 0.0, "name": "6f73d302ea46b06781941aa0686b714a", "is_disabled": 0, "rental_uris": {"android": "https://dc.lft.to/lastmile_qr_scan", "ios": "https://dc.lft.to/lastmile_qr_scan"}, "fusion_lon": 0.0, "lat": 38.908271166666665, "bike_id": "6f73d302ea46b06781941aa0686b714a", "type": "electric_scooter", "is_reserved": 0, "lon": -76.98427416666667}, {"fusion_lat": 0.0, "name": "48fbee8309196b9a90008ec7b789fe1d", "is_disabled": 0, "rental_uris": {"android": "https://dc.lft.to/lastmile_qr_scan", "ios": "https://dc.lft.to/lastmile_qr_scan"}, "fusion_lon": 0.0, "lat": 38.896744, "bike_id": "48fbee8309196b9a90008ec7b789fe1d", "type": "electric_scooter", "is_reserved": 0, "lon": -77.00517533333333}, {"fusion_lat": 0.0, "name": "6910abcabce6a367c71aea5b5bc039c6", "is_disabled": 0, "rental_uris": {"android": "https://dc.lft.to/lastmile_qr_scan", "ios": "https://dc.lft.to/lastmile_qr_scan"}, "fusion_lon": 0.0, "lat": 38.88599, "bike_id": "6910abcabce6a367c71aea5b5bc039c6", "type": "electric_scooter", "is_reserved": 0, "lon": -77.01717183333334}, {"fusion_lat": 0.0, "name": "1be7dd089b1840c20012126824d08c2c", "is_disabled": 0, "rental_uris": {"android": "https://dc.lft.to/lastmile_qr_scan", "ios": "https://dc.lft.to/lastmile_qr_scan"}, "fusion_lon": 0.0, "lat": 38.91063916666667, "bike_id": "1be7dd089b1840c20012126824d08c2c", "type": "electric_scooter", "is_reserved": 0, "lon": -77.04112716666667}, {"fusion_lat": 0.0, "name": "2b7e3062468f5f5bba12e63b57a036c6", "is_disabled": 0, "rental_uris": {"android": "https://dc.lft.to/lastmile_qr_scan", "ios": "https://dc.lft.to/lastmile_qr_scan"}, "fusion_lon": 0.0, "lat": 38.950544, "bike_id": "2b7e3062468f5f5bba12e63b57a036c6", "type": "electric_scooter", "is_reserved": 0, "lon": -77.08026916666667}, {"fusion_lat": 0.0, "name": "3038b0f80ea7e4c6aa1043d7a886f062", "is_disabled": 0, "rental_uris": {"android": "https://dc.lft.to/lastmile_qr_scan", "ios": "https://dc.lft.to/lastmile_qr_scan"}, "fusion_lon": 0.0, "lat": 38.93398216666667, "bike_id": "3038b0f80ea7e4c6aa1043d7a886f062", "type": "electric_scooter", "is_reserved": 0, "lon": -77.05746883333333}, {"fusion_lat": 0.0, "name": "4ee130a83869ce0a413e9ef5afafe5d7", "is_disabled": 0, "rental_uris": {"android": "https://dc.lft.to/lastmile_qr_scan", "ios": "https://dc.lft.to/lastmile_qr_scan"}, "fusion_lon": 0.0, "lat": 38.897697666666666, "bike_id": "4ee130a83869ce0a413e9ef5afafe5d7", "type": "electric_scooter", "is_reserved": 0, "lon": -77.0280835}, {"fusion_lat": 0.0, "name": "d7a4c927d48c2058c311d2e5d91bbaa9", "is_disabled": 0, "rental_uris": {"android": "https://dc.lft.to/lastmile_qr_scan", "ios": "https://dc.lft.to/lastmile_qr_scan"}, "fusion_lon": 0.0, "lat": 38.855462, "bike_id": "d7a4c927d48c2058c311d2e5d91bbaa9", "type": "electric_scooter", "is_reserved": 0, "lon": -76.98760583333333}, {"fusion_lat": 0.0, "name": "dc72095d79612e15dfddde14ca0a4bf2", "is_disabled": 0, "rental_uris": {"android": "https://dc.lft.to/lastmile_qr_scan", "ios": "https://dc.lft.to/lastmile_qr_scan"}, "fusion_lon": 0.0, "lat": 38.924162333333335, "bike_id": "dc72095d79612e15dfddde14ca0a4bf2", "type": "electric_scooter", "is_reserved": 0, "lon": -77.03640283333333}, {"fusion_lat": 0.0, "name": "db2c6de1625b96e892f542564c6ea73f", "is_disabled": 0, "rental_uris": {"android": "https://dc.lft.to/lastmile_qr_scan", "ios": "https://dc.lft.to/lastmile_qr_scan"}, "fusion_lon": 0.0, "lat": 38.92043316666667, "bike_id": "db2c6de1625b96e892f542564c6ea73f", "type": "electric_scooter", "is_reserved": 0, "lon": -77.0177575}, {"fusion_lat": 0.0, "name": "d0d51326b3551724ea86506acda50085", "is_disabled": 0, "rental_uris": {"android": "https://dc.lft.to/lastmile_qr_scan", "ios": "https://dc.lft.to/lastmile_qr_scan"}, "fusion_lon": 0.0, "lat": 38.9064405, "bike_id": "d0d51326b3551724ea86506acda50085", "type": "electric_scooter", "is_reserved": 0, "lon": -77.01137516666667}, {"fusion_lat": 0.0, "name": "09c86316899c2aab9eac373db66edf22", "is_disabled": 0, "rental_uris": {"android": "https://dc.lft.to/lastmile_qr_scan", "ios": "https://dc.lft.to/lastmile_qr_scan"}, "fusion_lon": 0.0, "lat": 38.916329833333336, "bike_id": "09c86316899c2aab9eac373db66edf22", "type": "electric_scooter", "is_reserved": 0, "lon": -77.03980633333333}, {"fusion_lat": 0.0, "name": "3fb8a15aaca581f6a516eedd8c991342", "is_disabled": 0, "rental_uris": {"android": "https://dc.lft.to/lastmile_qr_scan", "ios": "https://dc.lft.to/lastmile_qr_scan"}, "fusion_lon": 0.0, "lat": 38.953244833333336, "bike_id": "3fb8a15aaca581f6a516eedd8c991342", "type": "electric_bike", "is_reserved": 0, "lon": -76.98248983333333}, {"fusion_lat": 0.0, "name": "54d19d46895e71fd81f1d5edb6586d13", "is_disabled": 0, "rental_uris": {"android": "https://dc.lft.to/lastmile_qr_scan", "ios": "https://dc.lft.to/lastmile_qr_scan"}, "fusion_lon": 0.0, "lat": 38.897544833333335, "bike_id": "54d19d46895e71fd81f1d5edb6586d13", "type": "electric_scooter", "is_reserved": 0, "lon": -77.04309783333333}, {"fusion_lat": 0.0, "name": "530df75f2ada630705e7d878e3191a53", "is_disabled": 0, "rental_uris": {"android": "https://dc.lft.to/lastmile_qr_scan", "ios": "https://dc.lft.to/lastmile_qr_scan"}, "fusion_lon": 0.0, "lat": 38.840848666666666, "bike_id": "530df75f2ada630705e7d878e3191a53", "type": "electric_bike", "is_reserved": 0, "lon": -76.97029983333333}, {"fusion_lat": 0.0, "name": "a3d5597066b638c67e6b74e6d383255f", "is_disabled": 0, "rental_uris": {"android": "https://dc.lft.to/lastmile_qr_scan", "ios": "https://dc.lft.to/lastmile_qr_scan"}, "fusion_lon": 0.0, "lat": 38.919972, "bike_id": "a3d5597066b638c67e6b74e6d383255f", "type": "electric_scooter", "is_reserved": 0, "lon": -77.07131666666666}, {"fusion_lat": 0.0, "name": "48d1cb179b1944f3e407ce713588e5af", "is_disabled": 0, "rental_uris": {"android": "https://dc.lft.to/lastmile_qr_scan", "ios": "https://dc.lft.to/lastmile_qr_scan"}, "fusion_lon": 0.0, "lat": 38.9251095, "bike_id": "48d1cb179b1944f3e407ce713588e5af", "type": "electric_scooter", "is_reserved": 0, "lon": -77.00218083333333}, {"fusion_lat": 0.0, "name": "c6e50d5d11973b465d04aa6479edf87f", "is_disabled": 0, "rental_uris": {"android": "https://dc.lft.to/lastmile_qr_scan", "ios": "https://dc.lft.to/lastmile_qr_scan"}, "fusion_lon": 0.0, "lat": 38.920646166666664, "bike_id": "c6e50d5d11973b465d04aa6479edf87f", "type": "electric_bike", "is_reserved": 0, "lon": -77.0480985}, {"fusion_lat": 0.0, "name": "046a81ad2738088ecc28394464ccaf90", "is_disabled": 0, "rental_uris": {"android": "https://dc.lft.to/lastmile_qr_scan", "ios": "https://dc.lft.to/lastmile_qr_scan"}, "fusion_lon": 0.0, "lat": 38.91398266666667, "bike_id": "046a81ad2738088ecc28394464ccaf90", "type": "electric_scooter", "is_reserved": 0, "lon": -77.033257}, {"fusion_lat": 0.0, "name": "26576c5d4c586183f7484986dbdf87c4", "is_disabled": 0, "rental_uris": {"android": "https://dc.lft.to/lastmile_qr_scan", "ios": "https://dc.lft.to/lastmile_qr_scan"}, "fusion_lon": 0.0, "lat": 38.90600166666667, "bike_id": "26576c5d4c586183f7484986dbdf87c4", "type": "electric_scooter", "is_reserved": 0, "lon": -77.05693283333333}, {"fusion_lat": 0.0, "name": "17ef1bd8b01018ed3cd17613b7d9c92b", "is_disabled": 0, "rental_uris": {"android": "https://dc.lft.to/lastmile_qr_scan", "ios": "https://dc.lft.to/lastmile_qr_scan"}, "fusion_lon": 0.0, "lat": 38.9002895, "bike_id": "17ef1bd8b01018ed3cd17613b7d9c92b", "type": "electric_scooter", "is_reserved": 0, "lon": -77.00031283333334}, {"fusion_lat": 0.0, "name": "226972537a27881dcf408f76aaa46c04", "is_disabled": 0, "rental_uris": {"android": "https://dc.lft.to/lastmile_qr_scan", "ios": "https://dc.lft.to/lastmile_qr_scan"}, "fusion_lon": 0.0, "lat": 38.9232025, "bike_id": "226972537a27881dcf408f76aaa46c04", "type": "electric_scooter", "is_reserved": 0, "lon": -77.02142216666667}, {"fusion_lat": 0.0, "name": "40e319d251b3b359ee3efc94e81d82ee", "is_disabled": 0, "rental_uris": {"android": "https://dc.lft.to/lastmile_qr_scan", "ios": "https://dc.lft.to/lastmile_qr_scan"}, "fusion_lon": 0.0, "lat": 38.930603166666664, "bike_id": "40e319d251b3b359ee3efc94e81d82ee", "type": "electric_scooter", "is_reserved": 0, "lon": -77.02319433333334}, {"fusion_lat": 0.0, "name": "8fa5ff653c445ffb09fb206f8c6b1f95", "is_disabled": 0, "rental_uris": {"android": "https://dc.lft.to/lastmile_qr_scan", "ios": "https://dc.lft.to/lastmile_qr_scan"}, "fusion_lon": 0.0, "lat": 38.9056945, "bike_id": "8fa5ff653c445ffb09fb206f8c6b1f95", "type": "electric_scooter", "is_reserved": 0, "lon": -77.00581216666667}, {"fusion_lat": 0.0, "name": "060d1f68fff026532ef143a7399bf73a", "is_disabled": 0, "rental_uris": {"android": "https://dc.lft.to/lastmile_qr_scan", "ios": "https://dc.lft.to/lastmile_qr_scan"}, "fusion_lon": 0.0, "lat": 38.916811833333334, "bike_id": "060d1f68fff026532ef143a7399bf73a", "type": "electric_scooter", "is_reserved": 0, "lon": -77.0228545}, {"fusion_lat": 0.0, "name": "a559b88d01a106974bd98581076295c4", "is_disabled": 0, "rental_uris": {"android": "https://dc.lft.to/lastmile_qr_scan", "ios": "https://dc.lft.to/lastmile_qr_scan"}, "fusion_lon": 0.0, "lat": 38.9195995, "bike_id": "a559b88d01a106974bd98581076295c4", "type": "electric_scooter", "is_reserved": 0, "lon": -77.045064}, {"fusion_lat": 0.0, "name": "00de123ef1b81446769f23ac742b75da", "is_disabled": 0, "rental_uris": {"android": "https://dc.lft.to/lastmile_qr_scan", "ios": "https://dc.lft.to/lastmile_qr_scan"}, "fusion_lon": 0.0, "lat": 38.898996, "bike_id": "00de123ef1b81446769f23ac742b75da", "type": "electric_bike", "is_reserved": 0, "lon": -77.09619966666666}, {"fusion_lat": 0.0, "name": "29ca3daec953de79e6793e13a347395f", "is_disabled": 0, "rental_uris": {"android": "https://dc.lft.to/lastmile_qr_scan", "ios": "https://dc.lft.to/lastmile_qr_scan"}, "fusion_lon": 0.0, "lat": 38.900360666666664, "bike_id": "29ca3daec953de79e6793e13a347395f", "type": "electric_scooter", "is_reserved": 0, "lon": -77.00200916666667}, {"fusion_lat": 0.0, "name": "d795f9b7bce5b5f1640689040445e062", "is_disabled": 0, "rental_uris": {"android": "https://dc.lft.to/lastmile_qr_scan", "ios": "https://dc.lft.to/lastmile_qr_scan"}, "fusion_lon": 0.0, "lat": 38.891943, "bike_id": "d795f9b7bce5b5f1640689040445e062", "type": "electric_scooter", "is_reserved": 0, "lon": -77.02129933333333}, {"fusion_lat": 0.0, "name": "02aa43c71dc556a0f131c34e4f4f67e4", "is_disabled": 0, "rental_uris": {"android": "https://dc.lft.to/lastmile_qr_scan", "ios": "https://dc.lft.to/lastmile_qr_scan"}, "fusion_lon": 0.0, "lat": 38.9207895, "bike_id": "02aa43c71dc556a0f131c34e4f4f67e4", "type": "electric_scooter", "is_reserved": 0, "lon": -76.994857}, {"fusion_lat": 0.0, "name": "712780cd2124774bb34a77d1ab3ef54b", "is_disabled": 0, "rental_uris": {"android": "https://dc.lft.to/lastmile_qr_scan", "ios": "https://dc.lft.to/lastmile_qr_scan"}, "fusion_lon": 0.0, "lat": 38.907046333333334, "bike_id": "712780cd2124774bb34a77d1ab3ef54b", "type": "electric_scooter", "is_reserved": 0, "lon": -76.98696183333334}, {"fusion_lat": 0.0, "name": "cc9a1d3718e8bf9cdf20463264eec25e", "is_disabled": 0, "rental_uris": {"android": "https://dc.lft.to/lastmile_qr_scan", "ios": "https://dc.lft.to/lastmile_qr_scan"}, "fusion_lon": 0.0, "lat": 38.990943666666666, "bike_id": "cc9a1d3718e8bf9cdf20463264eec25e", "type": "electric_bike", "is_reserved": 0, "lon": -76.99377966666667}, {"fusion_lat": 0.0, "name": "62e102d22d5bdf9ffd1cfecb9849be0b", "is_disabled": 0, "rental_uris": {"android": "https://dc.lft.to/lastmile_qr_scan", "ios": "https://dc.lft.to/lastmile_qr_scan"}, "fusion_lon": 0.0, "lat": 38.896087333333334, "bike_id": "62e102d22d5bdf9ffd1cfecb9849be0b", "type": "electric_scooter", "is_reserved": 0, "lon": -77.00332916666666}, {"fusion_lat": 0.0, "name": "de548e4b469896f5e0c147faa913e147", "is_disabled": 0, "rental_uris": {"android": "https://dc.lft.to/lastmile_qr_scan", "ios": "https://dc.lft.to/lastmile_qr_scan"}, "fusion_lon": 0.0, "lat": 38.922193666666665, "bike_id": "de548e4b469896f5e0c147faa913e147", "type": "electric_bike", "is_reserved": 0, "lon": -77.20138516666667}, {"fusion_lat": 0.0, "name": "0aa266aad2f90894a4b5c1cf67669b44", "is_disabled": 0, "rental_uris": {"android": "https://dc.lft.to/lastmile_qr_scan", "ios": "https://dc.lft.to/lastmile_qr_scan"}, "fusion_lon": 0.0, "lat": 38.8873795, "bike_id": "0aa266aad2f90894a4b5c1cf67669b44", "type": "electric_scooter", "is_reserved": 0, "lon": -77.03173133333334}, {"fusion_lat": 0.0, "name": "723dbbf0a0e656e4620d5185e5d164ab", "is_disabled": 0, "rental_uris": {"android": "https://dc.lft.to/lastmile_qr_scan", "ios": "https://dc.lft.to/lastmile_qr_scan"}, "fusion_lon": 0.0, "lat": 38.92333083333333, "bike_id": "723dbbf0a0e656e4620d5185e5d164ab", "type": "electric_scooter", "is_reserved": 0, "lon": -77.03618233333333}, {"fusion_lat": 0.0, "name": "0df45898358d91cb5f61ae954a1e437e", "is_disabled": 0, "rental_uris": {"android": "https://dc.lft.to/lastmile_qr_scan", "ios": "https://dc.lft.to/lastmile_qr_scan"}, "fusion_lon": 0.0, "lat": 38.917727166666666, "bike_id": "0df45898358d91cb5f61ae954a1e437e", "type": "electric_scooter", "is_reserved": 0, "lon": -77.01220533333333}, {"fusion_lat": 0.0, "name": "5444a27f1c7dd9c1154a063e96cbd2db", "is_disabled": 0, "rental_uris": {"android": "https://dc.lft.to/lastmile_qr_scan", "ios": "https://dc.lft.to/lastmile_qr_scan"}, "fusion_lon": 0.0, "lat": 38.928273, "bike_id": "5444a27f1c7dd9c1154a063e96cbd2db", "type": "electric_scooter", "is_reserved": 0, "lon": -77.05435166666666}, {"fusion_lat": 0.0, "name": "b0dadf28fe85bc38f75202c6b5322831", "is_disabled": 0, "rental_uris": {"android": "https://dc.lft.to/lastmile_qr_scan", "ios": "https://dc.lft.to/lastmile_qr_scan"}, "fusion_lon": 0.0, "lat": 38.941987833333336, "bike_id": "b0dadf28fe85bc38f75202c6b5322831", "type": "electric_scooter", "is_reserved": 0, "lon": -77.02593766666666}, {"fusion_lat": 0.0, "name": "5797e64218dc4c9e407dfa39831eb37c", "is_disabled": 0, "rental_uris": {"android": "https://dc.lft.to/lastmile_qr_scan", "ios": "https://dc.lft.to/lastmile_qr_scan"}, "fusion_lon": 0.0, "lat": 38.920776000000004, "bike_id": "5797e64218dc4c9e407dfa39831eb37c", "type": "electric_scooter", "is_reserved": 0, "lon": -77.01426016666667}, {"fusion_lat": 0.0, "name": "e2593ef313e9409440e4e164d048c69a", "is_disabled": 0, "rental_uris": {"android": "https://dc.lft.to/lastmile_qr_scan", "ios": "https://dc.lft.to/lastmile_qr_scan"}, "fusion_lon": 0.0, "lat": 38.9383805, "bike_id": "e2593ef313e9409440e4e164d048c69a", "type": "electric_scooter", "is_reserved": 0, "lon": -77.033939}, {"fusion_lat": 0.0, "name": "61d24c1aecba7fa54ca4851775344b75", "is_disabled": 0, "rental_uris": {"android": "https://dc.lft.to/lastmile_qr_scan", "ios": "https://dc.lft.to/lastmile_qr_scan"}, "fusion_lon": 0.0, "lat": 38.9640635, "bike_id": "61d24c1aecba7fa54ca4851775344b75", "type": "electric_scooter", "is_reserved": 0, "lon": -77.0753595}, {"fusion_lat": 0.0, "name": "53b1d11d0d8d78ffaa05587fea78165c", "is_disabled": 0, "rental_uris": {"android": "https://dc.lft.to/lastmile_qr_scan", "ios": "https://dc.lft.to/lastmile_qr_scan"}, "fusion_lon": 0.0, "lat": 38.893998333333336, "bike_id": "53b1d11d0d8d78ffaa05587fea78165c", "type": "electric_scooter", "is_reserved": 0, "lon": -76.99490683333333}, {"fusion_lat": 0.0, "name": "2054f466b3e456d7d5605cb673412188", "is_disabled": 0, "rental_uris": {"android": "https://dc.lft.to/lastmile_qr_scan", "ios": "https://dc.lft.to/lastmile_qr_scan"}, "fusion_lon": 0.0, "lat": 38.925390666666665, "bike_id": "2054f466b3e456d7d5605cb673412188", "type": "electric_bike", "is_reserved": 0, "lon": -77.0011775}, {"fusion_lat": 0.0, "name": "328ea8a2638a0f7c3a23060bd10e4a0d", "is_disabled": 0, "rental_uris": {"android": "https://dc.lft.to/lastmile_qr_scan", "ios": "https://dc.lft.to/lastmile_qr_scan"}, "fusion_lon": 0.0, "lat": 38.903818, "bike_id": "328ea8a2638a0f7c3a23060bd10e4a0d", "type": "electric_scooter", "is_reserved": 0, "lon": -77.0515005}, {"fusion_lat": 0.0, "name": "ee6869dee64c0bb83c91f3cc46cbd489", "is_disabled": 0, "rental_uris": {"android": "https://dc.lft.to/lastmile_qr_scan", "ios": "https://dc.lft.to/lastmile_qr_scan"}, "fusion_lon": 0.0, "lat": 38.90572216666666, "bike_id": "ee6869dee64c0bb83c91f3cc46cbd489", "type": "electric_scooter", "is_reserved": 0, "lon": -77.03443416666667}, {"fusion_lat": 0.0, "name": "97147bab2cbd89e619d09cb80158fd67", "is_disabled": 0, "rental_uris": {"android": "https://dc.lft.to/lastmile_qr_scan", "ios": "https://dc.lft.to/lastmile_qr_scan"}, "fusion_lon": 0.0, "lat": 38.867620333333335, "bike_id": "97147bab2cbd89e619d09cb80158fd67", "type": "electric_scooter", "is_reserved": 0, "lon": -76.98271733333333}, {"fusion_lat": 0.0, "name": "9389d57f919ad247366b3b26b9cbcfeb", "is_disabled": 0, "rental_uris": {"android": "https://dc.lft.to/lastmile_qr_scan", "ios": "https://dc.lft.to/lastmile_qr_scan"}, "fusion_lon": 0.0, "lat": 38.90517916666667, "bike_id": "9389d57f919ad247366b3b26b9cbcfeb", "type": "electric_scooter", "is_reserved": 0, "lon": -77.029702}, {"fusion_lat": 0.0, "name": "548bad3a01f7a34f4ca3ac2e16e53bf1", "is_disabled": 0, "rental_uris": {"android": "https://dc.lft.to/lastmile_qr_scan", "ios": "https://dc.lft.to/lastmile_qr_scan"}, "fusion_lon": 0.0, "lat": 38.91260466666667, "bike_id": "548bad3a01f7a34f4ca3ac2e16e53bf1", "type": "electric_scooter", "is_reserved": 0, "lon": -77.03868416666667}, {"fusion_lat": 0.0, "name": "93d2f3d181e87c56ea57cc52934fef19", "is_disabled": 0, "rental_uris": {"android": "https://dc.lft.to/lastmile_qr_scan", "ios": "https://dc.lft.to/lastmile_qr_scan"}, "fusion_lon": 0.0, "lat": 38.916447166666664, "bike_id": "93d2f3d181e87c56ea57cc52934fef19", "type": "electric_scooter", "is_reserved": 0, "lon": -77.04515466666666}, {"fusion_lat": 0.0, "name": "f33c51b32c8afe7fec8b9513fa188921", "is_disabled": 0, "rental_uris": {"android": "https://dc.lft.to/lastmile_qr_scan", "ios": "https://dc.lft.to/lastmile_qr_scan"}, "fusion_lon": 0.0, "lat": 38.9280235, "bike_id": "f33c51b32c8afe7fec8b9513fa188921", "type": "electric_scooter", "is_reserved": 0, "lon": -77.02392083333334}, {"fusion_lat": 0.0, "name": "8a557d3a89aa86f607893b7158908fa1", "is_disabled": 0, "rental_uris": {"android": "https://dc.lft.to/lastmile_qr_scan", "ios": "https://dc.lft.to/lastmile_qr_scan"}, "fusion_lon": 0.0, "lat": 38.8890335, "bike_id": "8a557d3a89aa86f607893b7158908fa1", "type": "electric_scooter", "is_reserved": 0, "lon": -76.9773345}, {"fusion_lat": 0.0, "name": "e478f64eb018b4bc2c5967551dfe7574", "is_disabled": 0, "rental_uris": {"android": "https://dc.lft.to/lastmile_qr_scan", "ios": "https://dc.lft.to/lastmile_qr_scan"}, "fusion_lon": 0.0, "lat": 38.873765166666665, "bike_id": "e478f64eb018b4bc2c5967551dfe7574", "type": "electric_scooter", "is_reserved": 0, "lon": -77.00049033333333}, {"fusion_lat": 0.0, "name": "e97f1c30782253b2dbcdd0e4983d3c5d", "is_disabled": 0, "rental_uris": {"android": "https://dc.lft.to/lastmile_qr_scan", "ios": "https://dc.lft.to/lastmile_qr_scan"}, "fusion_lon": 0.0, "lat": 38.980569, "bike_id": "e97f1c30782253b2dbcdd0e4983d3c5d", "type": "electric_bike", "is_reserved": 0, "lon": -77.0957335}, {"fusion_lat": 0.0, "name": "e202727b8992263f019da6884729689f", "is_disabled": 0, "rental_uris": {"android": "https://dc.lft.to/lastmile_qr_scan", "ios": "https://dc.lft.to/lastmile_qr_scan"}, "fusion_lon": 0.0, "lat": 38.92682383333333, "bike_id": "e202727b8992263f019da6884729689f", "type": "electric_scooter", "is_reserved": 0, "lon": -77.02297766666666}, {"fusion_lat": 0.0, "name": "928cd553ab187198e90cedbececd6a93", "is_disabled": 0, "rental_uris": {"android": "https://dc.lft.to/lastmile_qr_scan", "ios": "https://dc.lft.to/lastmile_qr_scan"}, "fusion_lon": 0.0, "lat": 38.91543683333333, "bike_id": "928cd553ab187198e90cedbececd6a93", "type": "electric_scooter", "is_reserved": 0, "lon": -77.005494}, {"fusion_lat": 0.0, "name": "0c8813e7bd34848c04ab6dacaecacd58", "is_disabled": 0, "rental_uris": {"android": "https://dc.lft.to/lastmile_qr_scan", "ios": "https://dc.lft.to/lastmile_qr_scan"}, "fusion_lon": 0.0, "lat": 38.92084933333334, "bike_id": "0c8813e7bd34848c04ab6dacaecacd58", "type": "electric_scooter", "is_reserved": 0, "lon": -76.9945965}, {"fusion_lat": 0.0, "name": "0243ad3fb836045c150a2f6585961038", "is_disabled": 0, "rental_uris": {"android": "https://dc.lft.to/lastmile_qr_scan", "ios": "https://dc.lft.to/lastmile_qr_scan"}, "fusion_lon": 0.0, "lat": 38.92117316666667, "bike_id": "0243ad3fb836045c150a2f6585961038", "type": "electric_scooter", "is_reserved": 0, "lon": -77.01212383333333}, {"fusion_lat": 0.0, "name": "3d171f8eac9c7b14924aa4ae9d3de8dd", "is_disabled": 0, "rental_uris": {"android": "https://dc.lft.to/lastmile_qr_scan", "ios": "https://dc.lft.to/lastmile_qr_scan"}, "fusion_lon": 0.0, "lat": 38.88729383333333, "bike_id": "3d171f8eac9c7b14924aa4ae9d3de8dd", "type": "electric_scooter", "is_reserved": 0, "lon": -77.025808}, {"fusion_lat": 0.0, "name": "21e0f07920187b165cf287f8183935e7", "is_disabled": 0, "rental_uris": {"android": "https://dc.lft.to/lastmile_qr_scan", "ios": "https://dc.lft.to/lastmile_qr_scan"}, "fusion_lon": 0.0, "lat": 38.92394616666667, "bike_id": "21e0f07920187b165cf287f8183935e7", "type": "electric_scooter", "is_reserved": 0, "lon": -77.026013}, {"fusion_lat": 0.0, "name": "49e81dc22844ad44d4099630a9db0006", "is_disabled": 0, "rental_uris": {"android": "https://dc.lft.to/lastmile_qr_scan", "ios": "https://dc.lft.to/lastmile_qr_scan"}, "fusion_lon": 0.0, "lat": 38.9508495, "bike_id": "49e81dc22844ad44d4099630a9db0006", "type": "electric_scooter", "is_reserved": 0, "lon": -77.028216}, {"fusion_lat": 0.0, "name": "d5b5f1455038960e7b865ed2123eb836", "is_disabled": 0, "rental_uris": {"android": "https://dc.lft.to/lastmile_qr_scan", "ios": "https://dc.lft.to/lastmile_qr_scan"}, "fusion_lon": 0.0, "lat": 38.898321333333335, "bike_id": "d5b5f1455038960e7b865ed2123eb836", "type": "electric_scooter", "is_reserved": 0, "lon": -76.93179933333333}, {"fusion_lat": 0.0, "name": "921dcd0236d9d7974140a57de0890771", "is_disabled": 0, "rental_uris": {"android": "https://dc.lft.to/lastmile_qr_scan", "ios": "https://dc.lft.to/lastmile_qr_scan"}, "fusion_lon": 0.0, "lat": 38.8405355, "bike_id": "921dcd0236d9d7974140a57de0890771", "type": "electric_scooter", "is_reserved": 0, "lon": -76.9766745}, {"fusion_lat": 0.0, "name": "44a064aa1db55160e8092ec39106bd85", "is_disabled": 0, "rental_uris": {"android": "https://dc.lft.to/lastmile_qr_scan", "ios": "https://dc.lft.to/lastmile_qr_scan"}, "fusion_lon": 0.0, "lat": 38.898289, "bike_id": "44a064aa1db55160e8092ec39106bd85", "type": "electric_scooter", "is_reserved": 0, "lon": -76.94652783333333}, {"fusion_lat": 0.0, "name": "e2e2c982ca9c810c8ea5562b8190235c", "is_disabled": 0, "rental_uris": {"android": "https://dc.lft.to/lastmile_qr_scan", "ios": "https://dc.lft.to/lastmile_qr_scan"}, "fusion_lon": 0.0, "lat": 38.9045275, "bike_id": "e2e2c982ca9c810c8ea5562b8190235c", "type": "electric_bike", "is_reserved": 0, "lon": -76.97423833333333}, {"fusion_lat": 0.0, "name": "6ef4cd8f8c5cdce95e6859525036b4eb", "is_disabled": 0, "rental_uris": {"android": "https://dc.lft.to/lastmile_qr_scan", "ios": "https://dc.lft.to/lastmile_qr_scan"}, "fusion_lon": 0.0, "lat": 38.8798945, "bike_id": "6ef4cd8f8c5cdce95e6859525036b4eb", "type": "electric_scooter", "is_reserved": 0, "lon": -77.024065}, {"fusion_lat": 0.0, "name": "6fd7cde506b3d3a669dcdb5a0c1c05f8", "is_disabled": 0, "rental_uris": {"android": "https://dc.lft.to/lastmile_qr_scan", "ios": "https://dc.lft.to/lastmile_qr_scan"}, "fusion_lon": 0.0, "lat": 38.9247135, "bike_id": "6fd7cde506b3d3a669dcdb5a0c1c05f8", "type": "electric_scooter", "is_reserved": 0, "lon": -77.03854333333334}, {"fusion_lat": 0.0, "name": "1d31ca69829dafbb4cb587385d434284", "is_disabled": 0, "rental_uris": {"android": "https://dc.lft.to/lastmile_qr_scan", "ios": "https://dc.lft.to/lastmile_qr_scan"}, "fusion_lon": 0.0, "lat": 38.94432033333333, "bike_id": "1d31ca69829dafbb4cb587385d434284", "type": "electric_bike", "is_reserved": 0, "lon": -77.02601266666667}, {"fusion_lat": 0.0, "name": "2f10b6ba8f9839f9ecf714e449bac775", "is_disabled": 0, "rental_uris": {"android": "https://dc.lft.to/lastmile_qr_scan", "ios": "https://dc.lft.to/lastmile_qr_scan"}, "fusion_lon": 0.0, "lat": 38.890898166666666, "bike_id": "2f10b6ba8f9839f9ecf714e449bac775", "type": "electric_scooter", "is_reserved": 0, "lon": -76.91928}, {"fusion_lat": 0.0, "name": "23eacef70aa656e177bd0526c785060e", "is_disabled": 0, "rental_uris": {"android": "https://dc.lft.to/lastmile_qr_scan", "ios": "https://dc.lft.to/lastmile_qr_scan"}, "fusion_lon": 0.0, "lat": 38.91705816666666, "bike_id": "23eacef70aa656e177bd0526c785060e", "type": "electric_scooter", "is_reserved": 0, "lon": -77.041509}, {"fusion_lat": 0.0, "name": "185880a8acd7a391e02b57922f921136", "is_disabled": 0, "rental_uris": {"android": "https://dc.lft.to/lastmile_qr_scan", "ios": "https://dc.lft.to/lastmile_qr_scan"}, "fusion_lon": 0.0, "lat": 38.79858, "bike_id": "185880a8acd7a391e02b57922f921136", "type": "electric_bike", "is_reserved": 0, "lon": -77.0630835}, {"fusion_lat": 0.0, "name": "4f921638d3395f30244c109824a208a2", "is_disabled": 0, "rental_uris": {"android": "https://dc.lft.to/lastmile_qr_scan", "ios": "https://dc.lft.to/lastmile_qr_scan"}, "fusion_lon": 0.0, "lat": 38.9324295, "bike_id": "4f921638d3395f30244c109824a208a2", "type": "electric_scooter", "is_reserved": 0, "lon": -77.03424116666666}, {"fusion_lat": 0.0, "name": "3ae2999eb9e04a6874dec63a91604ca5", "is_disabled": 0, "rental_uris": {"android": "https://dc.lft.to/lastmile_qr_scan", "ios": "https://dc.lft.to/lastmile_qr_scan"}, "fusion_lon": 0.0, "lat": 38.947522666666664, "bike_id": "3ae2999eb9e04a6874dec63a91604ca5", "type": "electric_scooter", "is_reserved": 0, "lon": -77.007218}, {"fusion_lat": 0.0, "name": "a06931eab60217dc35866dd3d8b99bc4", "is_disabled": 0, "rental_uris": {"android": "https://dc.lft.to/lastmile_qr_scan", "ios": "https://dc.lft.to/lastmile_qr_scan"}, "fusion_lon": 0.0, "lat": 38.88176933333333, "bike_id": "a06931eab60217dc35866dd3d8b99bc4", "type": "electric_scooter", "is_reserved": 0, "lon": -77.02872733333334}, {"fusion_lat": 0.0, "name": "5d26049c783d51e903c981a3a2cdbdba", "is_disabled": 0, "rental_uris": {"android": "https://dc.lft.to/lastmile_qr_scan", "ios": "https://dc.lft.to/lastmile_qr_scan"}, "fusion_lon": 0.0, "lat": 38.89740483333333, "bike_id": "5d26049c783d51e903c981a3a2cdbdba", "type": "electric_scooter", "is_reserved": 0, "lon": -77.04956333333334}, {"fusion_lat": 0.0, "name": "729b6e03be4920aa455ed036822ed629", "is_disabled": 0, "rental_uris": {"android": "https://dc.lft.to/lastmile_qr_scan", "ios": "https://dc.lft.to/lastmile_qr_scan"}, "fusion_lon": 0.0, "lat": 38.89857833333333, "bike_id": "729b6e03be4920aa455ed036822ed629", "type": "electric_scooter", "is_reserved": 0, "lon": -76.97671583333333}, {"fusion_lat": 0.0, "name": "29a1fa28e896a15e6dde169af53f9451", "is_disabled": 0, "rental_uris": {"android": "https://dc.lft.to/lastmile_qr_scan", "ios": "https://dc.lft.to/lastmile_qr_scan"}, "fusion_lon": 0.0, "lat": 38.933907833333336, "bike_id": "29a1fa28e896a15e6dde169af53f9451", "type": "electric_scooter", "is_reserved": 0, "lon": -77.02849033333334}, {"fusion_lat": 0.0, "name": "ee4f3ca5207a967100065ad778dc346e", "is_disabled": 0, "rental_uris": {"android": "https://dc.lft.to/lastmile_qr_scan", "ios": "https://dc.lft.to/lastmile_qr_scan"}, "fusion_lon": 0.0, "lat": 38.929117833333336, "bike_id": "ee4f3ca5207a967100065ad778dc346e", "type": "electric_scooter", "is_reserved": 0, "lon": -77.037509}, {"fusion_lat": 0.0, "name": "fef65ca6d2adf88d93d80e7b1b0b026b", "is_disabled": 0, "rental_uris": {"android": "https://dc.lft.to/lastmile_qr_scan", "ios": "https://dc.lft.to/lastmile_qr_scan"}, "fusion_lon": 0.0, "lat": 38.88397583333333, "bike_id": "fef65ca6d2adf88d93d80e7b1b0b026b", "type": "electric_scooter", "is_reserved": 0, "lon": -76.9304425}, {"fusion_lat": 0.0, "name": "63d5b80fe8369262b3d060b8bc98aad1", "is_disabled": 0, "rental_uris": {"android": "https://dc.lft.to/lastmile_qr_scan", "ios": "https://dc.lft.to/lastmile_qr_scan"}, "fusion_lon": 0.0, "lat": 38.937701, "bike_id": "63d5b80fe8369262b3d060b8bc98aad1", "type": "electric_bike", "is_reserved": 0, "lon": -77.019099}, {"fusion_lat": 0.0, "name": "9cc99b4b33eb2c79c550f0a14b83f56b", "is_disabled": 0, "rental_uris": {"android": "https://dc.lft.to/lastmile_qr_scan", "ios": "https://dc.lft.to/lastmile_qr_scan"}, "fusion_lon": 0.0, "lat": 38.914057666666665, "bike_id": "9cc99b4b33eb2c79c550f0a14b83f56b", "type": "electric_scooter", "is_reserved": 0, "lon": -77.03315966666666}, {"fusion_lat": 0.0, "name": "b2660ca031f3f0234d3dffd1efb4479d", "is_disabled": 0, "rental_uris": {"android": "https://dc.lft.to/lastmile_qr_scan", "ios": "https://dc.lft.to/lastmile_qr_scan"}, "fusion_lon": 0.0, "lat": 38.93025183333334, "bike_id": "b2660ca031f3f0234d3dffd1efb4479d", "type": "electric_bike", "is_reserved": 0, "lon": -77.0201575}, {"fusion_lat": 0.0, "name": "6e987bb65b13111f1f7b4da2fe2c9e76", "is_disabled": 0, "rental_uris": {"android": "https://dc.lft.to/lastmile_qr_scan", "ios": "https://dc.lft.to/lastmile_qr_scan"}, "fusion_lon": 0.0, "lat": 38.91658816666666, "bike_id": "6e987bb65b13111f1f7b4da2fe2c9e76", "type": "electric_scooter", "is_reserved": 0, "lon": -77.02820233333334}, {"fusion_lat": 0.0, "name": "7d646187b9b57d1099fb609ff95f9ae9", "is_disabled": 0, "rental_uris": {"android": "https://dc.lft.to/lastmile_qr_scan", "ios": "https://dc.lft.to/lastmile_qr_scan"}, "fusion_lon": 0.0, "lat": 38.9156715, "bike_id": "7d646187b9b57d1099fb609ff95f9ae9", "type": "electric_scooter", "is_reserved": 0, "lon": -77.03232033333333}, {"fusion_lat": 0.0, "name": "9c6c8a575eae33dece519e16d7d5e33d", "is_disabled": 0, "rental_uris": {"android": "https://dc.lft.to/lastmile_qr_scan", "ios": "https://dc.lft.to/lastmile_qr_scan"}, "fusion_lon": 0.0, "lat": 38.94088033333333, "bike_id": "9c6c8a575eae33dece519e16d7d5e33d", "type": "electric_scooter", "is_reserved": 0, "lon": -77.06182716666666}, {"fusion_lat": 0.0, "name": "eee7a2406f967e22f59fdc7beb4702c2", "is_disabled": 0, "rental_uris": {"android": "https://dc.lft.to/lastmile_qr_scan", "ios": "https://dc.lft.to/lastmile_qr_scan"}, "fusion_lon": 0.0, "lat": 38.924001, "bike_id": "eee7a2406f967e22f59fdc7beb4702c2", "type": "electric_scooter", "is_reserved": 0, "lon": -77.04298516666667}, {"fusion_lat": 0.0, "name": "d810a6f74c2fd3d2f496ed309830a02d", "is_disabled": 0, "rental_uris": {"android": "https://dc.lft.to/lastmile_qr_scan", "ios": "https://dc.lft.to/lastmile_qr_scan"}, "fusion_lon": 0.0, "lat": 38.90422683333333, "bike_id": "d810a6f74c2fd3d2f496ed309830a02d", "type": "electric_scooter", "is_reserved": 0, "lon": -76.94979616666667}, {"fusion_lat": 0.0, "name": "f7be0ed7495728f722c114e6349d34f4", "is_disabled": 0, "rental_uris": {"android": "https://dc.lft.to/lastmile_qr_scan", "ios": "https://dc.lft.to/lastmile_qr_scan"}, "fusion_lon": 0.0, "lat": 38.897108333333335, "bike_id": "f7be0ed7495728f722c114e6349d34f4", "type": "electric_scooter", "is_reserved": 0, "lon": -77.01311683333333}, {"fusion_lat": 0.0, "name": "885554e1f3ae29b53015f4691990835a", "is_disabled": 0, "rental_uris": {"android": "https://dc.lft.to/lastmile_qr_scan", "ios": "https://dc.lft.to/lastmile_qr_scan"}, "fusion_lon": 0.0, "lat": 38.906423333333336, "bike_id": "885554e1f3ae29b53015f4691990835a", "type": "electric_scooter", "is_reserved": 0, "lon": -77.01137366666667}, {"fusion_lat": 0.0, "name": "3b3dcaf77cf58a1a5cd94cbe21fcd4a7", "is_disabled": 0, "rental_uris": {"android": "https://dc.lft.to/lastmile_qr_scan", "ios": "https://dc.lft.to/lastmile_qr_scan"}, "fusion_lon": 0.0, "lat": 38.885229833333334, "bike_id": "3b3dcaf77cf58a1a5cd94cbe21fcd4a7", "type": "electric_scooter", "is_reserved": 0, "lon": -77.0151715}, {"fusion_lat": 0.0, "name": "411fbcac785f45cc60ee8c1f4402b7f3", "is_disabled": 0, "rental_uris": {"android": "https://dc.lft.to/lastmile_qr_scan", "ios": "https://dc.lft.to/lastmile_qr_scan"}, "fusion_lon": 0.0, "lat": 38.934547, "bike_id": "411fbcac785f45cc60ee8c1f4402b7f3", "type": "electric_scooter", "is_reserved": 0, "lon": -77.072684}, {"fusion_lat": 0.0, "name": "fbb955aeb90448b6200b147baa93d8c8", "is_disabled": 0, "rental_uris": {"android": "https://dc.lft.to/lastmile_qr_scan", "ios": "https://dc.lft.to/lastmile_qr_scan"}, "fusion_lon": 0.0, "lat": 38.92287616666667, "bike_id": "fbb955aeb90448b6200b147baa93d8c8", "type": "electric_scooter", "is_reserved": 0, "lon": -77.02981766666667}, {"fusion_lat": 0.0, "name": "1fe26a7f78145b5e299c02b4672ee318", "is_disabled": 0, "rental_uris": {"android": "https://dc.lft.to/lastmile_qr_scan", "ios": "https://dc.lft.to/lastmile_qr_scan"}, "fusion_lon": 0.0, "lat": 38.928807, "bike_id": "1fe26a7f78145b5e299c02b4672ee318", "type": "electric_scooter", "is_reserved": 0, "lon": -77.03528283333333}, {"fusion_lat": 0.0, "name": "a22372c2dbfb68428c34beeab411d3f8", "is_disabled": 0, "rental_uris": {"android": "https://dc.lft.to/lastmile_qr_scan", "ios": "https://dc.lft.to/lastmile_qr_scan"}, "fusion_lon": 0.0, "lat": 38.90003466666667, "bike_id": "a22372c2dbfb68428c34beeab411d3f8", "type": "electric_scooter", "is_reserved": 0, "lon": -77.00658}, {"fusion_lat": 0.0, "name": "0701da4c00bae1db167d13c370fb460b", "is_disabled": 0, "rental_uris": {"android": "https://dc.lft.to/lastmile_qr_scan", "ios": "https://dc.lft.to/lastmile_qr_scan"}, "fusion_lon": 0.0, "lat": 38.918194666666665, "bike_id": "0701da4c00bae1db167d13c370fb460b", "type": "electric_scooter", "is_reserved": 0, "lon": -77.01213116666666}, {"fusion_lat": 0.0, "name": "9f0671a6273532cac40d43b35fe47fd6", "is_disabled": 0, "rental_uris": {"android": "https://dc.lft.to/lastmile_qr_scan", "ios": "https://dc.lft.to/lastmile_qr_scan"}, "fusion_lon": 0.0, "lat": 38.93142233333333, "bike_id": "9f0671a6273532cac40d43b35fe47fd6", "type": "electric_scooter", "is_reserved": 0, "lon": -77.0299005}, {"fusion_lat": 0.0, "name": "697cb63c8f73296208b17675a7f83c96", "is_disabled": 0, "rental_uris": {"android": "https://dc.lft.to/lastmile_qr_scan", "ios": "https://dc.lft.to/lastmile_qr_scan"}, "fusion_lon": 0.0, "lat": 38.89846466666667, "bike_id": "697cb63c8f73296208b17675a7f83c96", "type": "electric_scooter", "is_reserved": 0, "lon": -77.04167533333333}, {"fusion_lat": 0.0, "name": "facaf5339a4419508bb6f0c09b30b318", "is_disabled": 0, "rental_uris": {"android": "https://dc.lft.to/lastmile_qr_scan", "ios": "https://dc.lft.to/lastmile_qr_scan"}, "fusion_lon": 0.0, "lat": 38.931119, "bike_id": "facaf5339a4419508bb6f0c09b30b318", "type": "electric_scooter", "is_reserved": 0, "lon": -77.03031333333334}, {"fusion_lat": 0.0, "name": "4827abe0ad74e47d950d3c620494c0b9", "is_disabled": 0, "rental_uris": {"android": "https://dc.lft.to/lastmile_qr_scan", "ios": "https://dc.lft.to/lastmile_qr_scan"}, "fusion_lon": 0.0, "lat": 38.8787645, "bike_id": "4827abe0ad74e47d950d3c620494c0b9", "type": "electric_scooter", "is_reserved": 0, "lon": -77.02228683333334}, {"fusion_lat": 0.0, "name": "f9db99b412e35a8e7d3ef987ec369679", "is_disabled": 0, "rental_uris": {"android": "https://dc.lft.to/lastmile_qr_scan", "ios": "https://dc.lft.to/lastmile_qr_scan"}, "fusion_lon": 0.0, "lat": 38.916727, "bike_id": "f9db99b412e35a8e7d3ef987ec369679", "type": "electric_scooter", "is_reserved": 0, "lon": -77.02830016666667}, {"fusion_lat": 0.0, "name": "9355393b0ab3b283abb0ed2f39cca9b4", "is_disabled": 0, "rental_uris": {"android": "https://dc.lft.to/lastmile_qr_scan", "ios": "https://dc.lft.to/lastmile_qr_scan"}, "fusion_lon": 0.0, "lat": 38.901886833333336, "bike_id": "9355393b0ab3b283abb0ed2f39cca9b4", "type": "electric_scooter", "is_reserved": 0, "lon": -77.01617116666667}, {"fusion_lat": 0.0, "name": "1b5d523def2fef1df11b2ea4dadf037c", "is_disabled": 0, "rental_uris": {"android": "https://dc.lft.to/lastmile_qr_scan", "ios": "https://dc.lft.to/lastmile_qr_scan"}, "fusion_lon": 0.0, "lat": 38.8961515, "bike_id": "1b5d523def2fef1df11b2ea4dadf037c", "type": "electric_bike", "is_reserved": 0, "lon": -76.90742816666666}, {"fusion_lat": 0.0, "name": "6197f135c5e916dc431dc785c07730ee", "is_disabled": 0, "rental_uris": {"android": "https://dc.lft.to/lastmile_qr_scan", "ios": "https://dc.lft.to/lastmile_qr_scan"}, "fusion_lon": 0.0, "lat": 38.941139, "bike_id": "6197f135c5e916dc431dc785c07730ee", "type": "electric_scooter", "is_reserved": 0, "lon": -77.02544933333333}, {"fusion_lat": 0.0, "name": "d61ddc8e16e7985b4b5646de76620ced", "is_disabled": 0, "rental_uris": {"android": "https://dc.lft.to/lastmile_qr_scan", "ios": "https://dc.lft.to/lastmile_qr_scan"}, "fusion_lon": 0.0, "lat": 38.924082, "bike_id": "d61ddc8e16e7985b4b5646de76620ced", "type": "electric_scooter", "is_reserved": 0, "lon": -77.04457233333333}, {"fusion_lat": 0.0, "name": "bc29f69d21ee762a7ea05085043e1b44", "is_disabled": 0, "rental_uris": {"android": "https://dc.lft.to/lastmile_qr_scan", "ios": "https://dc.lft.to/lastmile_qr_scan"}, "fusion_lon": 0.0, "lat": 38.92659783333333, "bike_id": "bc29f69d21ee762a7ea05085043e1b44", "type": "electric_scooter", "is_reserved": 0, "lon": -77.014972}, {"fusion_lat": 0.0, "name": "3b04f8e324386203f91fe9d1f831c0db", "is_disabled": 0, "rental_uris": {"android": "https://dc.lft.to/lastmile_qr_scan", "ios": "https://dc.lft.to/lastmile_qr_scan"}, "fusion_lon": 0.0, "lat": 38.9233715, "bike_id": "3b04f8e324386203f91fe9d1f831c0db", "type": "electric_scooter", "is_reserved": 0, "lon": -77.05296733333333}, {"fusion_lat": 0.0, "name": "a4a8c3d1a9aa60bddc6547c944e39eb4", "is_disabled": 0, "rental_uris": {"android": "https://dc.lft.to/lastmile_qr_scan", "ios": "https://dc.lft.to/lastmile_qr_scan"}, "fusion_lon": 0.0, "lat": 38.904065833333334, "bike_id": "a4a8c3d1a9aa60bddc6547c944e39eb4", "type": "electric_scooter", "is_reserved": 0, "lon": -77.0486095}, {"fusion_lat": 0.0, "name": "ced1b47e61c5ddfc702564e7cb8ffda8", "is_disabled": 0, "rental_uris": {"android": "https://dc.lft.to/lastmile_qr_scan", "ios": "https://dc.lft.to/lastmile_qr_scan"}, "fusion_lon": 0.0, "lat": 38.92475733333333, "bike_id": "ced1b47e61c5ddfc702564e7cb8ffda8", "type": "electric_scooter", "is_reserved": 0, "lon": -77.02209283333333}, {"fusion_lat": 0.0, "name": "6bb61fda277a52617a80988a795e96ad", "is_disabled": 0, "rental_uris": {"android": "https://dc.lft.to/lastmile_qr_scan", "ios": "https://dc.lft.to/lastmile_qr_scan"}, "fusion_lon": 0.0, "lat": 38.931676833333334, "bike_id": "6bb61fda277a52617a80988a795e96ad", "type": "electric_scooter", "is_reserved": 0, "lon": -77.03801933333334}, {"fusion_lat": 0.0, "name": "64127c01a4b540add68130099f472051", "is_disabled": 0, "rental_uris": {"android": "https://dc.lft.to/lastmile_qr_scan", "ios": "https://dc.lft.to/lastmile_qr_scan"}, "fusion_lon": 0.0, "lat": 38.966719, "bike_id": "64127c01a4b540add68130099f472051", "type": "electric_bike", "is_reserved": 0, "lon": -77.02303983333333}, {"fusion_lat": 0.0, "name": "c3ee3d56277427f3aadc59a56068985d", "is_disabled": 0, "rental_uris": {"android": "https://dc.lft.to/lastmile_qr_scan", "ios": "https://dc.lft.to/lastmile_qr_scan"}, "fusion_lon": 0.0, "lat": 38.91156433333333, "bike_id": "c3ee3d56277427f3aadc59a56068985d", "type": "electric_scooter", "is_reserved": 0, "lon": -76.99692983333334}, {"fusion_lat": 0.0, "name": "07fb9c3783b544f72cb64bfa46372e64", "is_disabled": 0, "rental_uris": {"android": "https://dc.lft.to/lastmile_qr_scan", "ios": "https://dc.lft.to/lastmile_qr_scan"}, "fusion_lon": 0.0, "lat": 38.87712, "bike_id": "07fb9c3783b544f72cb64bfa46372e64", "type": "electric_scooter", "is_reserved": 0, "lon": -77.00410983333333}, {"fusion_lat": 0.0, "name": "b9d2114b1a26db2a9f97ee16ecce3c15", "is_disabled": 0, "rental_uris": {"android": "https://dc.lft.to/lastmile_qr_scan", "ios": "https://dc.lft.to/lastmile_qr_scan"}, "fusion_lon": 0.0, "lat": 38.907366, "bike_id": "b9d2114b1a26db2a9f97ee16ecce3c15", "type": "electric_scooter", "is_reserved": 0, "lon": -77.03449383333333}, {"fusion_lat": 0.0, "name": "3e2ef272cd12bcdaf48dcbff2d3e3ceb", "is_disabled": 0, "rental_uris": {"android": "https://dc.lft.to/lastmile_qr_scan", "ios": "https://dc.lft.to/lastmile_qr_scan"}, "fusion_lon": 0.0, "lat": 38.9143665, "bike_id": "3e2ef272cd12bcdaf48dcbff2d3e3ceb", "type": "electric_scooter", "is_reserved": 0, "lon": -76.99356166666666}, {"fusion_lat": 0.0, "name": "7ad36f35f111fc80a628733a33f01894", "is_disabled": 0, "rental_uris": {"android": "https://dc.lft.to/lastmile_qr_scan", "ios": "https://dc.lft.to/lastmile_qr_scan"}, "fusion_lon": 0.0, "lat": 38.892171, "bike_id": "7ad36f35f111fc80a628733a33f01894", "type": "electric_scooter", "is_reserved": 0, "lon": -77.02016716666667}, {"fusion_lat": 0.0, "name": "03545f6f64eaf6f225b9a98c1d91960c", "is_disabled": 0, "rental_uris": {"android": "https://dc.lft.to/lastmile_qr_scan", "ios": "https://dc.lft.to/lastmile_qr_scan"}, "fusion_lon": 0.0, "lat": 38.91121533333333, "bike_id": "03545f6f64eaf6f225b9a98c1d91960c", "type": "electric_scooter", "is_reserved": 0, "lon": -77.03832866666667}, {"fusion_lat": 0.0, "name": "749a550a305e9a2ac91988b5c219a95e", "is_disabled": 0, "rental_uris": {"android": "https://dc.lft.to/lastmile_qr_scan", "ios": "https://dc.lft.to/lastmile_qr_scan"}, "fusion_lon": 0.0, "lat": 38.90520633333333, "bike_id": "749a550a305e9a2ac91988b5c219a95e", "type": "electric_scooter", "is_reserved": 0, "lon": -77.02955016666667}, {"fusion_lat": 0.0, "name": "c90be4aaca3a4db6662affd1d5bccc00", "is_disabled": 0, "rental_uris": {"android": "https://dc.lft.to/lastmile_qr_scan", "ios": "https://dc.lft.to/lastmile_qr_scan"}, "fusion_lon": 0.0, "lat": 38.9295725, "bike_id": "c90be4aaca3a4db6662affd1d5bccc00", "type": "electric_scooter", "is_reserved": 0, "lon": -76.99174416666666}, {"fusion_lat": 0.0, "name": "324213f0f44bb4b6db84cd8e5a9a47a0", "is_disabled": 0, "rental_uris": {"android": "https://dc.lft.to/lastmile_qr_scan", "ios": "https://dc.lft.to/lastmile_qr_scan"}, "fusion_lon": 0.0, "lat": 38.92255816666667, "bike_id": "324213f0f44bb4b6db84cd8e5a9a47a0", "type": "electric_scooter", "is_reserved": 0, "lon": -77.00913716666666}, {"fusion_lat": 0.0, "name": "431a361ce73b8c67d505f5efae2dfbcb", "is_disabled": 0, "rental_uris": {"android": "https://dc.lft.to/lastmile_qr_scan", "ios": "https://dc.lft.to/lastmile_qr_scan"}, "fusion_lon": 0.0, "lat": 38.90763616666667, "bike_id": "431a361ce73b8c67d505f5efae2dfbcb", "type": "electric_scooter", "is_reserved": 0, "lon": -77.0383525}, {"fusion_lat": 0.0, "name": "d0dd76ebdca345fa88ffe277de949762", "is_disabled": 0, "rental_uris": {"android": "https://dc.lft.to/lastmile_qr_scan", "ios": "https://dc.lft.to/lastmile_qr_scan"}, "fusion_lon": 0.0, "lat": 38.900336333333335, "bike_id": "d0dd76ebdca345fa88ffe277de949762", "type": "electric_bike", "is_reserved": 0, "lon": -76.97224733333333}, {"fusion_lat": 0.0, "name": "997e3dbf4b28edb340a1e67ad8f1104a", "is_disabled": 0, "rental_uris": {"android": "https://dc.lft.to/lastmile_qr_scan", "ios": "https://dc.lft.to/lastmile_qr_scan"}, "fusion_lon": 0.0, "lat": 38.93866716666667, "bike_id": "997e3dbf4b28edb340a1e67ad8f1104a", "type": "electric_scooter", "is_reserved": 0, "lon": -77.02553383333333}, {"fusion_lat": 0.0, "name": "c5dd6c9c53240929d8ea10bd6baf9513", "is_disabled": 0, "rental_uris": {"android": "https://dc.lft.to/lastmile_qr_scan", "ios": "https://dc.lft.to/lastmile_qr_scan"}, "fusion_lon": 0.0, "lat": 38.832027833333335, "bike_id": "c5dd6c9c53240929d8ea10bd6baf9513", "type": "electric_bike", "is_reserved": 0, "lon": -76.99679283333333}, {"fusion_lat": 0.0, "name": "85bae1c2bd02c5a110c46241ba7b6fbb", "is_disabled": 0, "rental_uris": {"android": "https://dc.lft.to/lastmile_qr_scan", "ios": "https://dc.lft.to/lastmile_qr_scan"}, "fusion_lon": 0.0, "lat": 38.905712666666666, "bike_id": "85bae1c2bd02c5a110c46241ba7b6fbb", "type": "electric_scooter", "is_reserved": 0, "lon": -77.0345495}, {"fusion_lat": 0.0, "name": "3d86f50583333f8d5466c034b4f38fdd", "is_disabled": 0, "rental_uris": {"android": "https://dc.lft.to/lastmile_qr_scan", "ios": "https://dc.lft.to/lastmile_qr_scan"}, "fusion_lon": 0.0, "lat": 38.907589333333334, "bike_id": "3d86f50583333f8d5466c034b4f38fdd", "type": "electric_scooter", "is_reserved": 0, "lon": -77.03844433333333}, {"fusion_lat": 0.0, "name": "ef8c4c4756277408ac5c1b1356afc10b", "is_disabled": 0, "rental_uris": {"android": "https://dc.lft.to/lastmile_qr_scan", "ios": "https://dc.lft.to/lastmile_qr_scan"}, "fusion_lon": 0.0, "lat": 38.8876705, "bike_id": "ef8c4c4756277408ac5c1b1356afc10b", "type": "electric_scooter", "is_reserved": 0, "lon": -76.99469366666666}, {"fusion_lat": 0.0, "name": "29474fb01b382d759339deabde08706a", "is_disabled": 0, "rental_uris": {"android": "https://dc.lft.to/lastmile_qr_scan", "ios": "https://dc.lft.to/lastmile_qr_scan"}, "fusion_lon": 0.0, "lat": 38.921589, "bike_id": "29474fb01b382d759339deabde08706a", "type": "electric_scooter", "is_reserved": 0, "lon": -77.03652416666667}, {"fusion_lat": 0.0, "name": "80912225d5b26ef80e144342a75249e2", "is_disabled": 0, "rental_uris": {"android": "https://dc.lft.to/lastmile_qr_scan", "ios": "https://dc.lft.to/lastmile_qr_scan"}, "fusion_lon": 0.0, "lat": 38.95288266666667, "bike_id": "80912225d5b26ef80e144342a75249e2", "type": "electric_scooter", "is_reserved": 0, "lon": -76.9989925}, {"fusion_lat": 0.0, "name": "9a51db0efe59e472f914d11356ec20f8", "is_disabled": 0, "rental_uris": {"android": "https://dc.lft.to/lastmile_qr_scan", "ios": "https://dc.lft.to/lastmile_qr_scan"}, "fusion_lon": 0.0, "lat": 38.92447466666667, "bike_id": "9a51db0efe59e472f914d11356ec20f8", "type": "electric_scooter", "is_reserved": 0, "lon": -77.08036083333333}, {"fusion_lat": 0.0, "name": "f7827aba5f610044f99faf3e62b2249c", "is_disabled": 0, "rental_uris": {"android": "https://dc.lft.to/lastmile_qr_scan", "ios": "https://dc.lft.to/lastmile_qr_scan"}, "fusion_lon": 0.0, "lat": 38.90683833333333, "bike_id": "f7827aba5f610044f99faf3e62b2249c", "type": "electric_scooter", "is_reserved": 0, "lon": -77.04890383333333}, {"fusion_lat": 0.0, "name": "30e96fe1bd39d08bf3f15c5d99f93cd8", "is_disabled": 0, "rental_uris": {"android": "https://dc.lft.to/lastmile_qr_scan", "ios": "https://dc.lft.to/lastmile_qr_scan"}, "fusion_lon": 0.0, "lat": 38.9231525, "bike_id": "30e96fe1bd39d08bf3f15c5d99f93cd8", "type": "electric_scooter", "is_reserved": 0, "lon": -77.029635}, {"fusion_lat": 0.0, "name": "146a0d5438c1b9a9fc74f5c14bd320bd", "is_disabled": 0, "rental_uris": {"android": "https://dc.lft.to/lastmile_qr_scan", "ios": "https://dc.lft.to/lastmile_qr_scan"}, "fusion_lon": 0.0, "lat": 38.9847645, "bike_id": "146a0d5438c1b9a9fc74f5c14bd320bd", "type": "electric_scooter", "is_reserved": 0, "lon": -77.02644183333334}, {"fusion_lat": 0.0, "name": "32f6fec0a5817aa80dce0e9cef3fb0e8", "is_disabled": 0, "rental_uris": {"android": "https://dc.lft.to/lastmile_qr_scan", "ios": "https://dc.lft.to/lastmile_qr_scan"}, "fusion_lon": 0.0, "lat": 38.9165625, "bike_id": "32f6fec0a5817aa80dce0e9cef3fb0e8", "type": "electric_scooter", "is_reserved": 0, "lon": -77.0281905}, {"fusion_lat": 0.0, "name": "281ea9da9123ed4ee731639fd7470b27", "is_disabled": 0, "rental_uris": {"android": "https://dc.lft.to/lastmile_qr_scan", "ios": "https://dc.lft.to/lastmile_qr_scan"}, "fusion_lon": 0.0, "lat": 38.915583, "bike_id": "281ea9da9123ed4ee731639fd7470b27", "type": "electric_scooter", "is_reserved": 0, "lon": -77.03222833333334}, {"fusion_lat": 0.0, "name": "a1ff65abef80f458453f53d2406727f8", "is_disabled": 0, "rental_uris": {"android": "https://dc.lft.to/lastmile_qr_scan", "ios": "https://dc.lft.to/lastmile_qr_scan"}, "fusion_lon": 0.0, "lat": 38.93651083333334, "bike_id": "a1ff65abef80f458453f53d2406727f8", "type": "electric_scooter", "is_reserved": 0, "lon": -77.03689033333333}, {"fusion_lat": 0.0, "name": "501bb708c435b8fa9eae4d0b3e766704", "is_disabled": 0, "rental_uris": {"android": "https://dc.lft.to/lastmile_qr_scan", "ios": "https://dc.lft.to/lastmile_qr_scan"}, "fusion_lon": 0.0, "lat": 38.9259005, "bike_id": "501bb708c435b8fa9eae4d0b3e766704", "type": "electric_scooter", "is_reserved": 0, "lon": -77.02584133333333}, {"fusion_lat": 0.0, "name": "bd4a4c57626eacc380e9fb6e360da3d5", "is_disabled": 0, "rental_uris": {"android": "https://dc.lft.to/lastmile_qr_scan", "ios": "https://dc.lft.to/lastmile_qr_scan"}, "fusion_lon": 0.0, "lat": 38.95831116666667, "bike_id": "bd4a4c57626eacc380e9fb6e360da3d5", "type": "electric_bike", "is_reserved": 0, "lon": -77.01513183333333}, {"fusion_lat": 0.0, "name": "e42a63796c6888cca013fa43825d04b6", "is_disabled": 0, "rental_uris": {"android": "https://dc.lft.to/lastmile_qr_scan", "ios": "https://dc.lft.to/lastmile_qr_scan"}, "fusion_lon": 0.0, "lat": 38.9169705, "bike_id": "e42a63796c6888cca013fa43825d04b6", "type": "electric_scooter", "is_reserved": 0, "lon": -77.03587583333334}, {"fusion_lat": 0.0, "name": "13066c23b1a410cab67212d29aac4dda", "is_disabled": 0, "rental_uris": {"android": "https://dc.lft.to/lastmile_qr_scan", "ios": "https://dc.lft.to/lastmile_qr_scan"}, "fusion_lon": 0.0, "lat": 38.897475, "bike_id": "13066c23b1a410cab67212d29aac4dda", "type": "electric_scooter", "is_reserved": 0, "lon": -77.04396116666666}, {"fusion_lat": 0.0, "name": "5f6b0932974db93d76b7040fb278f175", "is_disabled": 0, "rental_uris": {"android": "https://dc.lft.to/lastmile_qr_scan", "ios": "https://dc.lft.to/lastmile_qr_scan"}, "fusion_lon": 0.0, "lat": 38.904109, "bike_id": "5f6b0932974db93d76b7040fb278f175", "type": "electric_scooter", "is_reserved": 0, "lon": -76.97330316666667}, {"fusion_lat": 0.0, "name": "905b2e336795e7a084df2c939efc3a62", "is_disabled": 0, "rental_uris": {"android": "https://dc.lft.to/lastmile_qr_scan", "ios": "https://dc.lft.to/lastmile_qr_scan"}, "fusion_lon": 0.0, "lat": 38.9103365, "bike_id": "905b2e336795e7a084df2c939efc3a62", "type": "electric_scooter", "is_reserved": 0, "lon": -77.06424483333333}, {"fusion_lat": 0.0, "name": "d9fb674a62720f1ab681d09877089072", "is_disabled": 0, "rental_uris": {"android": "https://dc.lft.to/lastmile_qr_scan", "ios": "https://dc.lft.to/lastmile_qr_scan"}, "fusion_lon": 0.0, "lat": 38.903193, "bike_id": "d9fb674a62720f1ab681d09877089072", "type": "electric_scooter", "is_reserved": 0, "lon": -77.0289145}, {"fusion_lat": 0.0, "name": "e71aac096a4e4dd0bf91d7377d89d6b2", "is_disabled": 0, "rental_uris": {"android": "https://dc.lft.to/lastmile_qr_scan", "ios": "https://dc.lft.to/lastmile_qr_scan"}, "fusion_lon": 0.0, "lat": 38.8724245, "bike_id": "e71aac096a4e4dd0bf91d7377d89d6b2", "type": "electric_scooter", "is_reserved": 0, "lon": -76.97728133333334}, {"fusion_lat": 0.0, "name": "c8095a1a0696e268728110b29fe446f8", "is_disabled": 0, "rental_uris": {"android": "https://dc.lft.to/lastmile_qr_scan", "ios": "https://dc.lft.to/lastmile_qr_scan"}, "fusion_lon": 0.0, "lat": 38.955972833333334, "bike_id": "c8095a1a0696e268728110b29fe446f8", "type": "electric_bike", "is_reserved": 0, "lon": -77.01017016666667}, {"fusion_lat": 0.0, "name": "36fa25e44b30795ebfc89d906a090456", "is_disabled": 0, "rental_uris": {"android": "https://dc.lft.to/lastmile_qr_scan", "ios": "https://dc.lft.to/lastmile_qr_scan"}, "fusion_lon": 0.0, "lat": 38.91418483333333, "bike_id": "36fa25e44b30795ebfc89d906a090456", "type": "electric_scooter", "is_reserved": 0, "lon": -77.02212616666667}, {"fusion_lat": 0.0, "name": "44706a3dd1910372083d3aae66d697d4", "is_disabled": 0, "rental_uris": {"android": "https://dc.lft.to/lastmile_qr_scan", "ios": "https://dc.lft.to/lastmile_qr_scan"}, "fusion_lon": 0.0, "lat": 38.891984, "bike_id": "44706a3dd1910372083d3aae66d697d4", "type": "electric_scooter", "is_reserved": 0, "lon": -77.016539}, {"fusion_lat": 0.0, "name": "7a106598dc747ed86fa02804a402adab", "is_disabled": 0, "rental_uris": {"android": "https://dc.lft.to/lastmile_qr_scan", "ios": "https://dc.lft.to/lastmile_qr_scan"}, "fusion_lon": 0.0, "lat": 38.9876695, "bike_id": "7a106598dc747ed86fa02804a402adab", "type": "electric_bike", "is_reserved": 0, "lon": -77.14058666666666}, {"fusion_lat": 0.0, "name": "c4134e1de4914b134309ba3501058550", "is_disabled": 0, "rental_uris": {"android": "https://dc.lft.to/lastmile_qr_scan", "ios": "https://dc.lft.to/lastmile_qr_scan"}, "fusion_lon": 0.0, "lat": 38.879109166666666, "bike_id": "c4134e1de4914b134309ba3501058550", "type": "electric_scooter", "is_reserved": 0, "lon": -77.0087655}, {"fusion_lat": 0.0, "name": "c2b7f52f79af4098b090af72568a0614", "is_disabled": 0, "rental_uris": {"android": "https://dc.lft.to/lastmile_qr_scan", "ios": "https://dc.lft.to/lastmile_qr_scan"}, "fusion_lon": 0.0, "lat": 38.924840333333336, "bike_id": "c2b7f52f79af4098b090af72568a0614", "type": "electric_scooter", "is_reserved": 0, "lon": -77.02548066666667}, {"fusion_lat": 0.0, "name": "6bf42ab1cfbe65846f64bc376d2427b6", "is_disabled": 0, "rental_uris": {"android": "https://dc.lft.to/lastmile_qr_scan", "ios": "https://dc.lft.to/lastmile_qr_scan"}, "fusion_lon": 0.0, "lat": 38.924806, "bike_id": "6bf42ab1cfbe65846f64bc376d2427b6", "type": "electric_scooter", "is_reserved": 0, "lon": -77.02651733333333}, {"fusion_lat": 0.0, "name": "a416a9a5e48ca3a3e011c70612eab221", "is_disabled": 0, "rental_uris": {"android": "https://dc.lft.to/lastmile_qr_scan", "ios": "https://dc.lft.to/lastmile_qr_scan"}, "fusion_lon": 0.0, "lat": 38.9325785, "bike_id": "a416a9a5e48ca3a3e011c70612eab221", "type": "electric_scooter", "is_reserved": 0, "lon": -77.032755}, {"fusion_lat": 0.0, "name": "d5e1156b779c909d2f0c191f3588a7b3", "is_disabled": 0, "rental_uris": {"android": "https://dc.lft.to/lastmile_qr_scan", "ios": "https://dc.lft.to/lastmile_qr_scan"}, "fusion_lon": 0.0, "lat": 38.958796166666666, "bike_id": "d5e1156b779c909d2f0c191f3588a7b3", "type": "electric_scooter", "is_reserved": 0, "lon": -77.011697}, {"fusion_lat": 0.0, "name": "79b6e5d30266b37f7b213a634a1d6249", "is_disabled": 0, "rental_uris": {"android": "https://dc.lft.to/lastmile_qr_scan", "ios": "https://dc.lft.to/lastmile_qr_scan"}, "fusion_lon": 0.0, "lat": 38.91563, "bike_id": "79b6e5d30266b37f7b213a634a1d6249", "type": "electric_scooter", "is_reserved": 0, "lon": -77.03221416666666}, {"fusion_lat": 0.0, "name": "3d7097624ae97fe20e5da94304b7108b", "is_disabled": 0, "rental_uris": {"android": "https://dc.lft.to/lastmile_qr_scan", "ios": "https://dc.lft.to/lastmile_qr_scan"}, "fusion_lon": 0.0, "lat": 38.9040755, "bike_id": "3d7097624ae97fe20e5da94304b7108b", "type": "electric_scooter", "is_reserved": 0, "lon": -77.0436595}, {"fusion_lat": 0.0, "name": "f545d215e54494cbd8a38d65e4a59113", "is_disabled": 0, "rental_uris": {"android": "https://dc.lft.to/lastmile_qr_scan", "ios": "https://dc.lft.to/lastmile_qr_scan"}, "fusion_lon": 0.0, "lat": 38.8765995, "bike_id": "f545d215e54494cbd8a38d65e4a59113", "type": "electric_scooter", "is_reserved": 0, "lon": -77.00915783333333}, {"fusion_lat": 0.0, "name": "3dc4510e93950c814abdceb832985955", "is_disabled": 0, "rental_uris": {"android": "https://dc.lft.to/lastmile_qr_scan", "ios": "https://dc.lft.to/lastmile_qr_scan"}, "fusion_lon": 0.0, "lat": 38.91854383333333, "bike_id": "3dc4510e93950c814abdceb832985955", "type": "electric_scooter", "is_reserved": 0, "lon": -77.02452533333333}, {"fusion_lat": 0.0, "name": "81407343e5430a1638e326c89dc41536", "is_disabled": 0, "rental_uris": {"android": "https://dc.lft.to/lastmile_qr_scan", "ios": "https://dc.lft.to/lastmile_qr_scan"}, "fusion_lon": 0.0, "lat": 38.91553616666667, "bike_id": "81407343e5430a1638e326c89dc41536", "type": "electric_scooter", "is_reserved": 0, "lon": -77.0322655}, {"fusion_lat": 0.0, "name": "0bb8cd64e9c6214dea118e32fb1f1f45", "is_disabled": 0, "rental_uris": {"android": "https://dc.lft.to/lastmile_qr_scan", "ios": "https://dc.lft.to/lastmile_qr_scan"}, "fusion_lon": 0.0, "lat": 38.8823245, "bike_id": "0bb8cd64e9c6214dea118e32fb1f1f45", "type": "electric_scooter", "is_reserved": 0, "lon": -77.02616133333333}, {"fusion_lat": 0.0, "name": "6579363461e461c5d991ab66fe5d39db", "is_disabled": 0, "rental_uris": {"android": "https://dc.lft.to/lastmile_qr_scan", "ios": "https://dc.lft.to/lastmile_qr_scan"}, "fusion_lon": 0.0, "lat": 38.93281783333333, "bike_id": "6579363461e461c5d991ab66fe5d39db", "type": "electric_scooter", "is_reserved": 0, "lon": -77.04078816666667}, {"fusion_lat": 0.0, "name": "52f6263e391bdc2c64f95bfd8fcd2bd1", "is_disabled": 0, "rental_uris": {"android": "https://dc.lft.to/lastmile_qr_scan", "ios": "https://dc.lft.to/lastmile_qr_scan"}, "fusion_lon": 0.0, "lat": 38.915537666666665, "bike_id": "52f6263e391bdc2c64f95bfd8fcd2bd1", "type": "electric_scooter", "is_reserved": 0, "lon": -77.03479016666667}, {"fusion_lat": 0.0, "name": "86dc91823e70ad9bff54d2130697746d", "is_disabled": 0, "rental_uris": {"android": "https://dc.lft.to/lastmile_qr_scan", "ios": "https://dc.lft.to/lastmile_qr_scan"}, "fusion_lon": 0.0, "lat": 38.95057383333334, "bike_id": "86dc91823e70ad9bff54d2130697746d", "type": "electric_scooter", "is_reserved": 0, "lon": -77.0802535}, {"fusion_lat": 0.0, "name": "042f0a32cafa061f92b0051a66872411", "is_disabled": 0, "rental_uris": {"android": "https://dc.lft.to/lastmile_qr_scan", "ios": "https://dc.lft.to/lastmile_qr_scan"}, "fusion_lon": 0.0, "lat": 38.963897833333334, "bike_id": "042f0a32cafa061f92b0051a66872411", "type": "electric_scooter", "is_reserved": 0, "lon": -77.02592666666666}, {"fusion_lat": 0.0, "name": "0a458cc1c4b612d8ed634f2ef0d8fea6", "is_disabled": 0, "rental_uris": {"android": "https://dc.lft.to/lastmile_qr_scan", "ios": "https://dc.lft.to/lastmile_qr_scan"}, "fusion_lon": 0.0, "lat": 38.89794966666667, "bike_id": "0a458cc1c4b612d8ed634f2ef0d8fea6", "type": "electric_bike", "is_reserved": 0, "lon": -76.99956233333333}, {"fusion_lat": 0.0, "name": "29c634f507fd4b0ce85de6767af25c95", "is_disabled": 0, "rental_uris": {"android": "https://dc.lft.to/lastmile_qr_scan", "ios": "https://dc.lft.to/lastmile_qr_scan"}, "fusion_lon": 0.0, "lat": 38.90304166666667, "bike_id": "29c634f507fd4b0ce85de6767af25c95", "type": "electric_scooter", "is_reserved": 0, "lon": -77.060282}, {"fusion_lat": 0.0, "name": "7a4bbffbccf8a4df53e2e7ff12508ef9", "is_disabled": 0, "rental_uris": {"android": "https://dc.lft.to/lastmile_qr_scan", "ios": "https://dc.lft.to/lastmile_qr_scan"}, "fusion_lon": 0.0, "lat": 38.86625766666667, "bike_id": "7a4bbffbccf8a4df53e2e7ff12508ef9", "type": "electric_scooter", "is_reserved": 0, "lon": -76.987188}, {"fusion_lat": 0.0, "name": "086d9d6de56425ae819b7cf7a5ee8155", "is_disabled": 0, "rental_uris": {"android": "https://dc.lft.to/lastmile_qr_scan", "ios": "https://dc.lft.to/lastmile_qr_scan"}, "fusion_lon": 0.0, "lat": 38.8200205, "bike_id": "086d9d6de56425ae819b7cf7a5ee8155", "type": "electric_bike", "is_reserved": 0, "lon": -76.99818166666667}, {"fusion_lat": 0.0, "name": "72415a35a47ed984facb7364f9272f66", "is_disabled": 0, "rental_uris": {"android": "https://dc.lft.to/lastmile_qr_scan", "ios": "https://dc.lft.to/lastmile_qr_scan"}, "fusion_lon": 0.0, "lat": 38.8767, "bike_id": "72415a35a47ed984facb7364f9272f66", "type": "electric_bike", "is_reserved": 0, "lon": -77.0145445}, {"fusion_lat": 0.0, "name": "40a4b0ce0ae1d3343f7ed8d044f1a473", "is_disabled": 0, "rental_uris": {"android": "https://dc.lft.to/lastmile_qr_scan", "ios": "https://dc.lft.to/lastmile_qr_scan"}, "fusion_lon": 0.0, "lat": 38.87630383333333, "bike_id": "40a4b0ce0ae1d3343f7ed8d044f1a473", "type": "electric_scooter", "is_reserved": 0, "lon": -77.00714366666666}, {"fusion_lat": 0.0, "name": "deb4c32c86b78a407aff760675a26802", "is_disabled": 0, "rental_uris": {"android": "https://dc.lft.to/lastmile_qr_scan", "ios": "https://dc.lft.to/lastmile_qr_scan"}, "fusion_lon": 0.0, "lat": 38.90895416666667, "bike_id": "deb4c32c86b78a407aff760675a26802", "type": "electric_scooter", "is_reserved": 0, "lon": -77.00236033333333}, {"fusion_lat": 0.0, "name": "26005bd7419d8632aa5d57ee5047d9f5", "is_disabled": 0, "rental_uris": {"android": "https://dc.lft.to/lastmile_qr_scan", "ios": "https://dc.lft.to/lastmile_qr_scan"}, "fusion_lon": 0.0, "lat": 38.9078695, "bike_id": "26005bd7419d8632aa5d57ee5047d9f5", "type": "electric_scooter", "is_reserved": 0, "lon": -77.03191366666667}, {"fusion_lat": 0.0, "name": "3bbf2693937ca998579e82a0538478fb", "is_disabled": 0, "rental_uris": {"android": "https://dc.lft.to/lastmile_qr_scan", "ios": "https://dc.lft.to/lastmile_qr_scan"}, "fusion_lon": 0.0, "lat": 38.916656333333336, "bike_id": "3bbf2693937ca998579e82a0538478fb", "type": "electric_scooter", "is_reserved": 0, "lon": -77.029723}, {"fusion_lat": 0.0, "name": "0bb3475f4132fbb9d5cd562966953780", "is_disabled": 0, "rental_uris": {"android": "https://dc.lft.to/lastmile_qr_scan", "ios": "https://dc.lft.to/lastmile_qr_scan"}, "fusion_lon": 0.0, "lat": 38.949722, "bike_id": "0bb3475f4132fbb9d5cd562966953780", "type": "electric_scooter", "is_reserved": 0, "lon": -77.0664645}, {"fusion_lat": 0.0, "name": "abd0e390678f974c42980495c377d645", "is_disabled": 0, "rental_uris": {"android": "https://dc.lft.to/lastmile_qr_scan", "ios": "https://dc.lft.to/lastmile_qr_scan"}, "fusion_lon": 0.0, "lat": 38.911135333333334, "bike_id": "abd0e390678f974c42980495c377d645", "type": "electric_scooter", "is_reserved": 0, "lon": -77.0383295}, {"fusion_lat": 0.0, "name": "40dfb7ba3aab6ee1f0717f0e11225528", "is_disabled": 0, "rental_uris": {"android": "https://dc.lft.to/lastmile_qr_scan", "ios": "https://dc.lft.to/lastmile_qr_scan"}, "fusion_lon": 0.0, "lat": 38.922578, "bike_id": "40dfb7ba3aab6ee1f0717f0e11225528", "type": "electric_bike", "is_reserved": 0, "lon": -77.07032766666667}, {"fusion_lat": 0.0, "name": "3dc07760cafc47b96396261cb3a57c62", "is_disabled": 0, "rental_uris": {"android": "https://dc.lft.to/lastmile_qr_scan", "ios": "https://dc.lft.to/lastmile_qr_scan"}, "fusion_lon": 0.0, "lat": 38.89750933333333, "bike_id": "3dc07760cafc47b96396261cb3a57c62", "type": "electric_scooter", "is_reserved": 0, "lon": -77.03222083333333}, {"fusion_lat": 0.0, "name": "5869635bdaea34de25dc88189c4773d6", "is_disabled": 0, "rental_uris": {"android": "https://dc.lft.to/lastmile_qr_scan", "ios": "https://dc.lft.to/lastmile_qr_scan"}, "fusion_lon": 0.0, "lat": 38.935322, "bike_id": "5869635bdaea34de25dc88189c4773d6", "type": "electric_scooter", "is_reserved": 0, "lon": -77.0235095}, {"fusion_lat": 0.0, "name": "8dcd20212dcc1425a4fefab7b158dd3a", "is_disabled": 0, "rental_uris": {"android": "https://dc.lft.to/lastmile_qr_scan", "ios": "https://dc.lft.to/lastmile_qr_scan"}, "fusion_lon": 0.0, "lat": 38.921053666666666, "bike_id": "8dcd20212dcc1425a4fefab7b158dd3a", "type": "electric_scooter", "is_reserved": 0, "lon": -77.04683083333333}, {"fusion_lat": 0.0, "name": "2e7b80fbe8a5af7a259bc3f1f870c7c8", "is_disabled": 0, "rental_uris": {"android": "https://dc.lft.to/lastmile_qr_scan", "ios": "https://dc.lft.to/lastmile_qr_scan"}, "fusion_lon": 0.0, "lat": 38.9124525, "bike_id": "2e7b80fbe8a5af7a259bc3f1f870c7c8", "type": "electric_scooter", "is_reserved": 0, "lon": -77.04886166666667}, {"fusion_lat": 0.0, "name": "3013597b12d5e38e2c6375141b8d4ff0", "is_disabled": 0, "rental_uris": {"android": "https://dc.lft.to/lastmile_qr_scan", "ios": "https://dc.lft.to/lastmile_qr_scan"}, "fusion_lon": 0.0, "lat": 38.91549766666667, "bike_id": "3013597b12d5e38e2c6375141b8d4ff0", "type": "electric_scooter", "is_reserved": 0, "lon": -77.03159933333333}, {"fusion_lat": 0.0, "name": "b18ee353c9a0b2a5598bfc670c46b606", "is_disabled": 0, "rental_uris": {"android": "https://dc.lft.to/lastmile_qr_scan", "ios": "https://dc.lft.to/lastmile_qr_scan"}, "fusion_lon": 0.0, "lat": 38.84275783333333, "bike_id": "b18ee353c9a0b2a5598bfc670c46b606", "type": "electric_bike", "is_reserved": 0, "lon": -76.98837033333334}, {"fusion_lat": 0.0, "name": "8b30825ece8766a417f7aac8a0f43351", "is_disabled": 0, "rental_uris": {"android": "https://dc.lft.to/lastmile_qr_scan", "ios": "https://dc.lft.to/lastmile_qr_scan"}, "fusion_lon": 0.0, "lat": 38.92458766666667, "bike_id": "8b30825ece8766a417f7aac8a0f43351", "type": "electric_scooter", "is_reserved": 0, "lon": -77.02409633333333}, {"fusion_lat": 0.0, "name": "230c6e478bcf874da0c2cdc236398f8c", "is_disabled": 0, "rental_uris": {"android": "https://dc.lft.to/lastmile_qr_scan", "ios": "https://dc.lft.to/lastmile_qr_scan"}, "fusion_lon": 0.0, "lat": 38.9337205, "bike_id": "230c6e478bcf874da0c2cdc236398f8c", "type": "electric_scooter", "is_reserved": 0, "lon": -77.03083783333334}, {"fusion_lat": 0.0, "name": "6b3067c471a72e3997aa8745013e35b6", "is_disabled": 0, "rental_uris": {"android": "https://dc.lft.to/lastmile_qr_scan", "ios": "https://dc.lft.to/lastmile_qr_scan"}, "fusion_lon": 0.0, "lat": 38.92062983333334, "bike_id": "6b3067c471a72e3997aa8745013e35b6", "type": "electric_scooter", "is_reserved": 0, "lon": -77.04219}, {"fusion_lat": 0.0, "name": "085948005b54fe369b74475eb18c346c", "is_disabled": 0, "rental_uris": {"android": "https://dc.lft.to/lastmile_qr_scan", "ios": "https://dc.lft.to/lastmile_qr_scan"}, "fusion_lon": 0.0, "lat": 38.911310666666665, "bike_id": "085948005b54fe369b74475eb18c346c", "type": "electric_scooter", "is_reserved": 0, "lon": -77.02200683333334}, {"fusion_lat": 0.0, "name": "f88fe5f75aa0b91ecfb99a60f2d3219a", "is_disabled": 0, "rental_uris": {"android": "https://dc.lft.to/lastmile_qr_scan", "ios": "https://dc.lft.to/lastmile_qr_scan"}, "fusion_lon": 0.0, "lat": 38.9087445, "bike_id": "f88fe5f75aa0b91ecfb99a60f2d3219a", "type": "electric_scooter", "is_reserved": 0, "lon": -77.04412466666666}, {"fusion_lat": 0.0, "name": "539e1a10642962e5526b99df2baf3f9b", "is_disabled": 0, "rental_uris": {"android": "https://dc.lft.to/lastmile_qr_scan", "ios": "https://dc.lft.to/lastmile_qr_scan"}, "fusion_lon": 0.0, "lat": 38.920287, "bike_id": "539e1a10642962e5526b99df2baf3f9b", "type": "electric_scooter", "is_reserved": 0, "lon": -77.03069833333333}, {"fusion_lat": 0.0, "name": "e80cc20f0cb70af0594b88e307af4593", "is_disabled": 0, "rental_uris": {"android": "https://dc.lft.to/lastmile_qr_scan", "ios": "https://dc.lft.to/lastmile_qr_scan"}, "fusion_lon": 0.0, "lat": 38.89477333333333, "bike_id": "e80cc20f0cb70af0594b88e307af4593", "type": "electric_scooter", "is_reserved": 0, "lon": -77.03955733333333}, {"fusion_lat": 0.0, "name": "6e37a6476fba8529feae4a06f6b0d3ae", "is_disabled": 0, "rental_uris": {"android": "https://dc.lft.to/lastmile_qr_scan", "ios": "https://dc.lft.to/lastmile_qr_scan"}, "fusion_lon": 0.0, "lat": 38.91761366666667, "bike_id": "6e37a6476fba8529feae4a06f6b0d3ae", "type": "electric_scooter", "is_reserved": 0, "lon": -77.02387016666667}, {"fusion_lat": 0.0, "name": "314aebe834dfaeb304f349b867dd680e", "is_disabled": 0, "rental_uris": {"android": "https://dc.lft.to/lastmile_qr_scan", "ios": "https://dc.lft.to/lastmile_qr_scan"}, "fusion_lon": 0.0, "lat": 38.918122833333335, "bike_id": "314aebe834dfaeb304f349b867dd680e", "type": "electric_scooter", "is_reserved": 0, "lon": -77.0327715}, {"fusion_lat": 0.0, "name": "43773329f3c2b0fdaf4720b2ceb6a970", "is_disabled": 0, "rental_uris": {"android": "https://dc.lft.to/lastmile_qr_scan", "ios": "https://dc.lft.to/lastmile_qr_scan"}, "fusion_lon": 0.0, "lat": 38.916534166666665, "bike_id": "43773329f3c2b0fdaf4720b2ceb6a970", "type": "electric_scooter", "is_reserved": 0, "lon": -77.041989}, {"fusion_lat": 0.0, "name": "1412b72f97b8a6a992669d13abe59a5d", "is_disabled": 0, "rental_uris": {"android": "https://dc.lft.to/lastmile_qr_scan", "ios": "https://dc.lft.to/lastmile_qr_scan"}, "fusion_lon": 0.0, "lat": 38.93459583333333, "bike_id": "1412b72f97b8a6a992669d13abe59a5d", "type": "electric_scooter", "is_reserved": 0, "lon": -77.057821}, {"fusion_lat": 0.0, "name": "645e0c5784a70ad6cac939c0d365a7d7", "is_disabled": 0, "rental_uris": {"android": "https://dc.lft.to/lastmile_qr_scan", "ios": "https://dc.lft.to/lastmile_qr_scan"}, "fusion_lon": 0.0, "lat": 38.903543166666665, "bike_id": "645e0c5784a70ad6cac939c0d365a7d7", "type": "electric_scooter", "is_reserved": 0, "lon": -76.974774}, {"fusion_lat": 0.0, "name": "db0d58630818c60c245d115f6314f600", "is_disabled": 0, "rental_uris": {"android": "https://dc.lft.to/lastmile_qr_scan", "ios": "https://dc.lft.to/lastmile_qr_scan"}, "fusion_lon": 0.0, "lat": 38.9087375, "bike_id": "db0d58630818c60c245d115f6314f600", "type": "electric_scooter", "is_reserved": 0, "lon": -77.05427983333334}, {"fusion_lat": 0.0, "name": "9cdcb7238cb7ba8afd282caf2fe1851a", "is_disabled": 0, "rental_uris": {"android": "https://dc.lft.to/lastmile_qr_scan", "ios": "https://dc.lft.to/lastmile_qr_scan"}, "fusion_lon": 0.0, "lat": 38.918631, "bike_id": "9cdcb7238cb7ba8afd282caf2fe1851a", "type": "electric_scooter", "is_reserved": 0, "lon": -77.03497016666667}, {"fusion_lat": 0.0, "name": "30acfb04b55e316bea919b891a6330fc", "is_disabled": 0, "rental_uris": {"android": "https://dc.lft.to/lastmile_qr_scan", "ios": "https://dc.lft.to/lastmile_qr_scan"}, "fusion_lon": 0.0, "lat": 38.909725333333334, "bike_id": "30acfb04b55e316bea919b891a6330fc", "type": "electric_scooter", "is_reserved": 0, "lon": -77.04872216666666}, {"fusion_lat": 0.0, "name": "1758df541ae8670e388618b50a056a05", "is_disabled": 0, "rental_uris": {"android": "https://dc.lft.to/lastmile_qr_scan", "ios": "https://dc.lft.to/lastmile_qr_scan"}, "fusion_lon": 0.0, "lat": 38.89524616666667, "bike_id": "1758df541ae8670e388618b50a056a05", "type": "electric_scooter", "is_reserved": 0, "lon": -77.02685566666666}, {"fusion_lat": 0.0, "name": "8432ae79cb86b23fa3ba575921dab90e", "is_disabled": 0, "rental_uris": {"android": "https://dc.lft.to/lastmile_qr_scan", "ios": "https://dc.lft.to/lastmile_qr_scan"}, "fusion_lon": 0.0, "lat": 38.8832785, "bike_id": "8432ae79cb86b23fa3ba575921dab90e", "type": "electric_scooter", "is_reserved": 0, "lon": -77.01362866666666}, {"fusion_lat": 0.0, "name": "83ea29cc1367965a2581ad0cba25c44b", "is_disabled": 0, "rental_uris": {"android": "https://dc.lft.to/lastmile_qr_scan", "ios": "https://dc.lft.to/lastmile_qr_scan"}, "fusion_lon": 0.0, "lat": 38.975018166666665, "bike_id": "83ea29cc1367965a2581ad0cba25c44b", "type": "electric_scooter", "is_reserved": 0, "lon": -77.017031}, {"fusion_lat": 0.0, "name": "351a5877464bb9ae0699ad313d44e6ff", "is_disabled": 0, "rental_uris": {"android": "https://dc.lft.to/lastmile_qr_scan", "ios": "https://dc.lft.to/lastmile_qr_scan"}, "fusion_lon": 0.0, "lat": 38.935268666666666, "bike_id": "351a5877464bb9ae0699ad313d44e6ff", "type": "electric_scooter", "is_reserved": 0, "lon": -77.04515866666667}, {"fusion_lat": 0.0, "name": "44569c635226e8dcc5c593350e5eb44d", "is_disabled": 0, "rental_uris": {"android": "https://dc.lft.to/lastmile_qr_scan", "ios": "https://dc.lft.to/lastmile_qr_scan"}, "fusion_lon": 0.0, "lat": 38.90786333333333, "bike_id": "44569c635226e8dcc5c593350e5eb44d", "type": "electric_scooter", "is_reserved": 0, "lon": -77.0382985}, {"fusion_lat": 0.0, "name": "89b90ca23598becddb25aa3498c10661", "is_disabled": 0, "rental_uris": {"android": "https://dc.lft.to/lastmile_qr_scan", "ios": "https://dc.lft.to/lastmile_qr_scan"}, "fusion_lon": 0.0, "lat": 38.90509566666667, "bike_id": "89b90ca23598becddb25aa3498c10661", "type": "electric_scooter", "is_reserved": 0, "lon": -77.06872916666667}, {"fusion_lat": 0.0, "name": "d3d9011a60218642018f4b938e88ffcf", "is_disabled": 0, "rental_uris": {"android": "https://dc.lft.to/lastmile_qr_scan", "ios": "https://dc.lft.to/lastmile_qr_scan"}, "fusion_lon": 0.0, "lat": 38.92737133333333, "bike_id": "d3d9011a60218642018f4b938e88ffcf", "type": "electric_scooter", "is_reserved": 0, "lon": -77.034501}, {"fusion_lat": 0.0, "name": "b35b3d87e36f7335d187b32f232b67f7", "is_disabled": 0, "rental_uris": {"android": "https://dc.lft.to/lastmile_qr_scan", "ios": "https://dc.lft.to/lastmile_qr_scan"}, "fusion_lon": 0.0, "lat": 38.884223166666665, "bike_id": "b35b3d87e36f7335d187b32f232b67f7", "type": "electric_scooter", "is_reserved": 0, "lon": -77.02559666666667}, {"fusion_lat": 0.0, "name": "4decb1421b4950f96bffbc34afa2a8f8", "is_disabled": 0, "rental_uris": {"android": "https://dc.lft.to/lastmile_qr_scan", "ios": "https://dc.lft.to/lastmile_qr_scan"}, "fusion_lon": 0.0, "lat": 38.925208833333336, "bike_id": "4decb1421b4950f96bffbc34afa2a8f8", "type": "electric_scooter", "is_reserved": 0, "lon": -77.022825}, {"fusion_lat": 0.0, "name": "d6b6d98b2608dc3e54d3e58692dec14a", "is_disabled": 0, "rental_uris": {"android": "https://dc.lft.to/lastmile_qr_scan", "ios": "https://dc.lft.to/lastmile_qr_scan"}, "fusion_lon": 0.0, "lat": 38.9036585, "bike_id": "d6b6d98b2608dc3e54d3e58692dec14a", "type": "electric_scooter", "is_reserved": 0, "lon": -77.00345316666667}, {"fusion_lat": 0.0, "name": "b17592c9ec6147a100a91304e18dc7db", "is_disabled": 0, "rental_uris": {"android": "https://dc.lft.to/lastmile_qr_scan", "ios": "https://dc.lft.to/lastmile_qr_scan"}, "fusion_lon": 0.0, "lat": 39.0563335, "bike_id": "b17592c9ec6147a100a91304e18dc7db", "type": "electric_bike", "is_reserved": 0, "lon": -77.12525083333334}, {"fusion_lat": 0.0, "name": "3cf0099b4028d8fdcf6d9d8daef16109", "is_disabled": 0, "rental_uris": {"android": "https://dc.lft.to/lastmile_qr_scan", "ios": "https://dc.lft.to/lastmile_qr_scan"}, "fusion_lon": 0.0, "lat": 38.93380466666667, "bike_id": "3cf0099b4028d8fdcf6d9d8daef16109", "type": "electric_scooter", "is_reserved": 0, "lon": -77.02681716666666}, {"fusion_lat": 0.0, "name": "e669e571738ecd024a25ef85ff5bb0b1", "is_disabled": 0, "rental_uris": {"android": "https://dc.lft.to/lastmile_qr_scan", "ios": "https://dc.lft.to/lastmile_qr_scan"}, "fusion_lon": 0.0, "lat": 38.898581666666665, "bike_id": "e669e571738ecd024a25ef85ff5bb0b1", "type": "electric_scooter", "is_reserved": 0, "lon": -76.9464255}, {"fusion_lat": 0.0, "name": "81339613b518765df52ddce729480323", "is_disabled": 0, "rental_uris": {"android": "https://dc.lft.to/lastmile_qr_scan", "ios": "https://dc.lft.to/lastmile_qr_scan"}, "fusion_lon": 0.0, "lat": 38.8938115, "bike_id": "81339613b518765df52ddce729480323", "type": "electric_scooter", "is_reserved": 0, "lon": -76.92308683333333}, {"fusion_lat": 0.0, "name": "d4697d2dcd62681a318a8720479c0506", "is_disabled": 0, "rental_uris": {"android": "https://dc.lft.to/lastmile_qr_scan", "ios": "https://dc.lft.to/lastmile_qr_scan"}, "fusion_lon": 0.0, "lat": 38.92868, "bike_id": "d4697d2dcd62681a318a8720479c0506", "type": "electric_scooter", "is_reserved": 0, "lon": -77.01925866666667}, {"fusion_lat": 0.0, "name": "c23065cd97dbbbf5a44666bd5ab7b609", "is_disabled": 0, "rental_uris": {"android": "https://dc.lft.to/lastmile_qr_scan", "ios": "https://dc.lft.to/lastmile_qr_scan"}, "fusion_lon": 0.0, "lat": 38.912552166666664, "bike_id": "c23065cd97dbbbf5a44666bd5ab7b609", "type": "electric_scooter", "is_reserved": 0, "lon": -77.0492485}, {"fusion_lat": 0.0, "name": "94150f72b22c1ddbeb994996c43b887f", "is_disabled": 0, "rental_uris": {"android": "https://dc.lft.to/lastmile_qr_scan", "ios": "https://dc.lft.to/lastmile_qr_scan"}, "fusion_lon": 0.0, "lat": 38.910273, "bike_id": "94150f72b22c1ddbeb994996c43b887f", "type": "electric_scooter", "is_reserved": 0, "lon": -77.015081}, {"fusion_lat": 0.0, "name": "ea40fb1043264f3e5ef01d68e921dea1", "is_disabled": 0, "rental_uris": {"android": "https://dc.lft.to/lastmile_qr_scan", "ios": "https://dc.lft.to/lastmile_qr_scan"}, "fusion_lon": 0.0, "lat": 38.860593333333334, "bike_id": "ea40fb1043264f3e5ef01d68e921dea1", "type": "electric_scooter", "is_reserved": 0, "lon": -76.98507533333333}, {"fusion_lat": 0.0, "name": "eaf14f90e357fab13a4b2a8fe3e2079c", "is_disabled": 0, "rental_uris": {"android": "https://dc.lft.to/lastmile_qr_scan", "ios": "https://dc.lft.to/lastmile_qr_scan"}, "fusion_lon": 0.0, "lat": 38.91365233333333, "bike_id": "eaf14f90e357fab13a4b2a8fe3e2079c", "type": "electric_scooter", "is_reserved": 0, "lon": -77.048773}, {"fusion_lat": 0.0, "name": "d5a4f6042ae8ba9d22d0f8534ba46a6e", "is_disabled": 0, "rental_uris": {"android": "https://dc.lft.to/lastmile_qr_scan", "ios": "https://dc.lft.to/lastmile_qr_scan"}, "fusion_lon": 0.0, "lat": 38.89852533333333, "bike_id": "d5a4f6042ae8ba9d22d0f8534ba46a6e", "type": "electric_scooter", "is_reserved": 0, "lon": -77.02829216666666}, {"fusion_lat": 0.0, "name": "b2b324cecbe98e0fec36b41d436b72bd", "is_disabled": 0, "rental_uris": {"android": "https://dc.lft.to/lastmile_qr_scan", "ios": "https://dc.lft.to/lastmile_qr_scan"}, "fusion_lon": 0.0, "lat": 38.90461416666667, "bike_id": "b2b324cecbe98e0fec36b41d436b72bd", "type": "electric_scooter", "is_reserved": 0, "lon": -77.03367233333333}, {"fusion_lat": 0.0, "name": "5ecead29130e2c1630564193bb512cf7", "is_disabled": 0, "rental_uris": {"android": "https://dc.lft.to/lastmile_qr_scan", "ios": "https://dc.lft.to/lastmile_qr_scan"}, "fusion_lon": 0.0, "lat": 38.93528466666667, "bike_id": "5ecead29130e2c1630564193bb512cf7", "type": "electric_scooter", "is_reserved": 0, "lon": -77.02366916666666}, {"fusion_lat": 0.0, "name": "9db88384000dc5f522006da10529c827", "is_disabled": 0, "rental_uris": {"android": "https://dc.lft.to/lastmile_qr_scan", "ios": "https://dc.lft.to/lastmile_qr_scan"}, "fusion_lon": 0.0, "lat": 38.92336133333333, "bike_id": "9db88384000dc5f522006da10529c827", "type": "electric_scooter", "is_reserved": 0, "lon": -77.024555}, {"fusion_lat": 0.0, "name": "45d9530c5b23468c1213845c5d92c54a", "is_disabled": 0, "rental_uris": {"android": "https://dc.lft.to/lastmile_qr_scan", "ios": "https://dc.lft.to/lastmile_qr_scan"}, "fusion_lon": 0.0, "lat": 38.865559833333336, "bike_id": "45d9530c5b23468c1213845c5d92c54a", "type": "electric_scooter", "is_reserved": 0, "lon": -76.983529}, {"fusion_lat": 0.0, "name": "d05d0376d215a68511d93ce8c50ed1c9", "is_disabled": 0, "rental_uris": {"android": "https://dc.lft.to/lastmile_qr_scan", "ios": "https://dc.lft.to/lastmile_qr_scan"}, "fusion_lon": 0.0, "lat": 38.897308833333334, "bike_id": "d05d0376d215a68511d93ce8c50ed1c9", "type": "electric_scooter", "is_reserved": 0, "lon": -76.94700983333334}, {"fusion_lat": 0.0, "name": "17208d2b72de06b72744e0795d569f91", "is_disabled": 0, "rental_uris": {"android": "https://dc.lft.to/lastmile_qr_scan", "ios": "https://dc.lft.to/lastmile_qr_scan"}, "fusion_lon": 0.0, "lat": 38.907874166666666, "bike_id": "17208d2b72de06b72744e0795d569f91", "type": "electric_scooter", "is_reserved": 0, "lon": -77.01103966666666}, {"fusion_lat": 0.0, "name": "c6a791fb064d2a9712e4837aa2d93c08", "is_disabled": 0, "rental_uris": {"android": "https://dc.lft.to/lastmile_qr_scan", "ios": "https://dc.lft.to/lastmile_qr_scan"}, "fusion_lon": 0.0, "lat": 38.895555, "bike_id": "c6a791fb064d2a9712e4837aa2d93c08", "type": "electric_scooter", "is_reserved": 0, "lon": -77.02739866666667}, {"fusion_lat": 0.0, "name": "a9440c8ff421b6227d70ecaebd1707e8", "is_disabled": 0, "rental_uris": {"android": "https://dc.lft.to/lastmile_qr_scan", "ios": "https://dc.lft.to/lastmile_qr_scan"}, "fusion_lon": 0.0, "lat": 38.8840775, "bike_id": "a9440c8ff421b6227d70ecaebd1707e8", "type": "electric_bike", "is_reserved": 0, "lon": -76.9606405}, {"fusion_lat": 0.0, "name": "a097851847208a56d03cde10d3083794", "is_disabled": 0, "rental_uris": {"android": "https://dc.lft.to/lastmile_qr_scan", "ios": "https://dc.lft.to/lastmile_qr_scan"}, "fusion_lon": 0.0, "lat": 38.89785066666666, "bike_id": "a097851847208a56d03cde10d3083794", "type": "electric_scooter", "is_reserved": 0, "lon": -77.0107275}, {"fusion_lat": 0.0, "name": "787ab0e1695c2e05ec088f5a0ac5b7b9", "is_disabled": 0, "rental_uris": {"android": "https://dc.lft.to/lastmile_qr_scan", "ios": "https://dc.lft.to/lastmile_qr_scan"}, "fusion_lon": 0.0, "lat": 38.8850185, "bike_id": "787ab0e1695c2e05ec088f5a0ac5b7b9", "type": "electric_scooter", "is_reserved": 0, "lon": -77.00702233333334}, {"fusion_lat": 0.0, "name": "d8f80966baefd070bd9f2e03ced3df74", "is_disabled": 0, "rental_uris": {"android": "https://dc.lft.to/lastmile_qr_scan", "ios": "https://dc.lft.to/lastmile_qr_scan"}, "fusion_lon": 0.0, "lat": 38.925890333333335, "bike_id": "d8f80966baefd070bd9f2e03ced3df74", "type": "electric_scooter", "is_reserved": 0, "lon": -77.0324505}, {"fusion_lat": 0.0, "name": "fac59af6cae1763140de9b3a0428b086", "is_disabled": 0, "rental_uris": {"android": "https://dc.lft.to/lastmile_qr_scan", "ios": "https://dc.lft.to/lastmile_qr_scan"}, "fusion_lon": 0.0, "lat": 38.910453, "bike_id": "fac59af6cae1763140de9b3a0428b086", "type": "electric_scooter", "is_reserved": 0, "lon": -77.03437}, {"fusion_lat": 0.0, "name": "45cd316e2ce98e417af017679159e07b", "is_disabled": 0, "rental_uris": {"android": "https://dc.lft.to/lastmile_qr_scan", "ios": "https://dc.lft.to/lastmile_qr_scan"}, "fusion_lon": 0.0, "lat": 38.8668105, "bike_id": "45cd316e2ce98e417af017679159e07b", "type": "electric_scooter", "is_reserved": 0, "lon": -76.98566666666666}, {"fusion_lat": 0.0, "name": "b640b4f8d7abb8a04a5fe3bc4cbe4e9b", "is_disabled": 0, "rental_uris": {"android": "https://dc.lft.to/lastmile_qr_scan", "ios": "https://dc.lft.to/lastmile_qr_scan"}, "fusion_lon": 0.0, "lat": 38.842804, "bike_id": "b640b4f8d7abb8a04a5fe3bc4cbe4e9b", "type": "electric_bike", "is_reserved": 0, "lon": -77.04496183333333}, {"fusion_lat": 0.0, "name": "da22b4edf40d7bda3dc242ea50141987", "is_disabled": 0, "rental_uris": {"android": "https://dc.lft.to/lastmile_qr_scan", "ios": "https://dc.lft.to/lastmile_qr_scan"}, "fusion_lon": 0.0, "lat": 38.8848375, "bike_id": "da22b4edf40d7bda3dc242ea50141987", "type": "electric_scooter", "is_reserved": 0, "lon": -77.0071145}, {"fusion_lat": 0.0, "name": "a3274735ccbca398b6ebf9f8361e9af5", "is_disabled": 0, "rental_uris": {"android": "https://dc.lft.to/lastmile_qr_scan", "ios": "https://dc.lft.to/lastmile_qr_scan"}, "fusion_lon": 0.0, "lat": 38.9224625, "bike_id": "a3274735ccbca398b6ebf9f8361e9af5", "type": "electric_scooter", "is_reserved": 0, "lon": -77.0420065}, {"fusion_lat": 0.0, "name": "f3a9563e9e2c1bd2855ef99d617b4247", "is_disabled": 0, "rental_uris": {"android": "https://dc.lft.to/lastmile_qr_scan", "ios": "https://dc.lft.to/lastmile_qr_scan"}, "fusion_lon": 0.0, "lat": 38.900050666666665, "bike_id": "f3a9563e9e2c1bd2855ef99d617b4247", "type": "electric_scooter", "is_reserved": 0, "lon": -76.93158283333334}, {"fusion_lat": 0.0, "name": "5bfe1ae5062df9e4d75f992fdfb96917", "is_disabled": 0, "rental_uris": {"android": "https://dc.lft.to/lastmile_qr_scan", "ios": "https://dc.lft.to/lastmile_qr_scan"}, "fusion_lon": 0.0, "lat": 38.915367, "bike_id": "5bfe1ae5062df9e4d75f992fdfb96917", "type": "electric_scooter", "is_reserved": 0, "lon": -77.032123}, {"fusion_lat": 0.0, "name": "ec1f5a0ce15761b35976f8dce68ee21a", "is_disabled": 0, "rental_uris": {"android": "https://dc.lft.to/lastmile_qr_scan", "ios": "https://dc.lft.to/lastmile_qr_scan"}, "fusion_lon": 0.0, "lat": 38.897284166666665, "bike_id": "ec1f5a0ce15761b35976f8dce68ee21a", "type": "electric_scooter", "is_reserved": 0, "lon": -77.043625}, {"fusion_lat": 0.0, "name": "f737ee6c60b5063a2567002fa216067f", "is_disabled": 0, "rental_uris": {"android": "https://dc.lft.to/lastmile_qr_scan", "ios": "https://dc.lft.to/lastmile_qr_scan"}, "fusion_lon": 0.0, "lat": 38.9352655, "bike_id": "f737ee6c60b5063a2567002fa216067f", "type": "electric_scooter", "is_reserved": 0, "lon": -77.036522}, {"fusion_lat": 0.0, "name": "e9c1735d317cb4f4facb69156fe47055", "is_disabled": 0, "rental_uris": {"android": "https://dc.lft.to/lastmile_qr_scan", "ios": "https://dc.lft.to/lastmile_qr_scan"}, "fusion_lon": 0.0, "lat": 38.928295, "bike_id": "e9c1735d317cb4f4facb69156fe47055", "type": "electric_scooter", "is_reserved": 0, "lon": -77.03286316666667}, {"fusion_lat": 0.0, "name": "f89025babcf7e7e8d410845f2ff67058", "is_disabled": 0, "rental_uris": {"android": "https://dc.lft.to/lastmile_qr_scan", "ios": "https://dc.lft.to/lastmile_qr_scan"}, "fusion_lon": 0.0, "lat": 38.900088, "bike_id": "f89025babcf7e7e8d410845f2ff67058", "type": "electric_scooter", "is_reserved": 0, "lon": -77.0067435}, {"fusion_lat": 0.0, "name": "7ebb004d5bed2e0d053b2f51689161a2", "is_disabled": 0, "rental_uris": {"android": "https://dc.lft.to/lastmile_qr_scan", "ios": "https://dc.lft.to/lastmile_qr_scan"}, "fusion_lon": 0.0, "lat": 38.93460866666667, "bike_id": "7ebb004d5bed2e0d053b2f51689161a2", "type": "electric_scooter", "is_reserved": 0, "lon": -77.04117866666667}, {"fusion_lat": 0.0, "name": "35552785528a62e41a6834c6af1da926", "is_disabled": 0, "rental_uris": {"android": "https://dc.lft.to/lastmile_qr_scan", "ios": "https://dc.lft.to/lastmile_qr_scan"}, "fusion_lon": 0.0, "lat": 38.9244445, "bike_id": "35552785528a62e41a6834c6af1da926", "type": "electric_scooter", "is_reserved": 0, "lon": -77.05248866666666}, {"fusion_lat": 0.0, "name": "e8f2798832147b823d8797b1a0b0b463", "is_disabled": 0, "rental_uris": {"android": "https://dc.lft.to/lastmile_qr_scan", "ios": "https://dc.lft.to/lastmile_qr_scan"}, "fusion_lon": 0.0, "lat": 38.8824495, "bike_id": "e8f2798832147b823d8797b1a0b0b463", "type": "electric_bike", "is_reserved": 0, "lon": -76.96262783333333}, {"fusion_lat": 0.0, "name": "f4a0d3edffe4819e9f33dd2358ad9909", "is_disabled": 0, "rental_uris": {"android": "https://dc.lft.to/lastmile_qr_scan", "ios": "https://dc.lft.to/lastmile_qr_scan"}, "fusion_lon": 0.0, "lat": 38.91924483333333, "bike_id": "f4a0d3edffe4819e9f33dd2358ad9909", "type": "electric_scooter", "is_reserved": 0, "lon": -77.0250345}, {"fusion_lat": 0.0, "name": "cfb604186d3b1355e16155af032a119f", "is_disabled": 0, "rental_uris": {"android": "https://dc.lft.to/lastmile_qr_scan", "ios": "https://dc.lft.to/lastmile_qr_scan"}, "fusion_lon": 0.0, "lat": 38.90844083333333, "bike_id": "cfb604186d3b1355e16155af032a119f", "type": "electric_scooter", "is_reserved": 0, "lon": -77.0269635}, {"fusion_lat": 0.0, "name": "e8cbe3f199b2a5946862499d917999f1", "is_disabled": 0, "rental_uris": {"android": "https://dc.lft.to/lastmile_qr_scan", "ios": "https://dc.lft.to/lastmile_qr_scan"}, "fusion_lon": 0.0, "lat": 38.98815183333333, "bike_id": "e8cbe3f199b2a5946862499d917999f1", "type": "electric_bike", "is_reserved": 0, "lon": -77.02654066666666}, {"fusion_lat": 0.0, "name": "63de2c1f9043f493d82db3ca61d2f526", "is_disabled": 0, "rental_uris": {"android": "https://dc.lft.to/lastmile_qr_scan", "ios": "https://dc.lft.to/lastmile_qr_scan"}, "fusion_lon": 0.0, "lat": 38.875728, "bike_id": "63de2c1f9043f493d82db3ca61d2f526", "type": "electric_scooter", "is_reserved": 0, "lon": -77.009352}, {"fusion_lat": 0.0, "name": "68fb96bfb26e9df6f84768406499be31", "is_disabled": 0, "rental_uris": {"android": "https://dc.lft.to/lastmile_qr_scan", "ios": "https://dc.lft.to/lastmile_qr_scan"}, "fusion_lon": 0.0, "lat": 38.82092083333333, "bike_id": "68fb96bfb26e9df6f84768406499be31", "type": "electric_bike", "is_reserved": 0, "lon": -77.05304666666666}, {"fusion_lat": 0.0, "name": "98c9416213a97a8c6cfcf6d49d766e5a", "is_disabled": 0, "rental_uris": {"android": "https://dc.lft.to/lastmile_qr_scan", "ios": "https://dc.lft.to/lastmile_qr_scan"}, "fusion_lon": 0.0, "lat": 38.9278785, "bike_id": "98c9416213a97a8c6cfcf6d49d766e5a", "type": "electric_scooter", "is_reserved": 0, "lon": -76.9555825}, {"fusion_lat": 0.0, "name": "964a802f470854913f23da089f48fce3", "is_disabled": 0, "rental_uris": {"android": "https://dc.lft.to/lastmile_qr_scan", "ios": "https://dc.lft.to/lastmile_qr_scan"}, "fusion_lon": 0.0, "lat": 38.893041333333336, "bike_id": "964a802f470854913f23da089f48fce3", "type": "electric_scooter", "is_reserved": 0, "lon": -77.02152866666667}, {"fusion_lat": 0.0, "name": "dea9982cf80db8f419fca88f4d655af9", "is_disabled": 0, "rental_uris": {"android": "https://dc.lft.to/lastmile_qr_scan", "ios": "https://dc.lft.to/lastmile_qr_scan"}, "fusion_lon": 0.0, "lat": 38.92041366666667, "bike_id": "dea9982cf80db8f419fca88f4d655af9", "type": "electric_scooter", "is_reserved": 0, "lon": -77.07982083333333}, {"fusion_lat": 0.0, "name": "1807fad809307d8d8fea1e745dbc6424", "is_disabled": 0, "rental_uris": {"android": "https://dc.lft.to/lastmile_qr_scan", "ios": "https://dc.lft.to/lastmile_qr_scan"}, "fusion_lon": 0.0, "lat": 38.93212066666667, "bike_id": "1807fad809307d8d8fea1e745dbc6424", "type": "electric_scooter", "is_reserved": 0, "lon": -77.03860466666667}, {"fusion_lat": 0.0, "name": "aa77d886766810db659ca7f169c693e2", "is_disabled": 0, "rental_uris": {"android": "https://dc.lft.to/lastmile_qr_scan", "ios": "https://dc.lft.to/lastmile_qr_scan"}, "fusion_lon": 0.0, "lat": 38.908236333333335, "bike_id": "aa77d886766810db659ca7f169c693e2", "type": "electric_scooter", "is_reserved": 0, "lon": -77.03198333333333}, {"fusion_lat": 0.0, "name": "90333a2f65af492381424ed30c86c296", "is_disabled": 0, "rental_uris": {"android": "https://dc.lft.to/lastmile_qr_scan", "ios": "https://dc.lft.to/lastmile_qr_scan"}, "fusion_lon": 0.0, "lat": 38.904833833333335, "bike_id": "90333a2f65af492381424ed30c86c296", "type": "electric_scooter", "is_reserved": 0, "lon": -76.94966816666667}, {"fusion_lat": 0.0, "name": "5a8d718b46c41835e536dba28f869fb3", "is_disabled": 0, "rental_uris": {"android": "https://dc.lft.to/lastmile_qr_scan", "ios": "https://dc.lft.to/lastmile_qr_scan"}, "fusion_lon": 0.0, "lat": 38.8973135, "bike_id": "5a8d718b46c41835e536dba28f869fb3", "type": "electric_scooter", "is_reserved": 0, "lon": -77.02222283333333}, {"fusion_lat": 0.0, "name": "7f3b083fa6fa2370523d27136c752a30", "is_disabled": 0, "rental_uris": {"android": "https://dc.lft.to/lastmile_qr_scan", "ios": "https://dc.lft.to/lastmile_qr_scan"}, "fusion_lon": 0.0, "lat": 38.92298733333333, "bike_id": "7f3b083fa6fa2370523d27136c752a30", "type": "electric_scooter", "is_reserved": 0, "lon": -77.04142283333333}, {"fusion_lat": 0.0, "name": "eaacafdb6a9363c3106ec0f8b2dfb89a", "is_disabled": 0, "rental_uris": {"android": "https://dc.lft.to/lastmile_qr_scan", "ios": "https://dc.lft.to/lastmile_qr_scan"}, "fusion_lon": 0.0, "lat": 38.913371833333336, "bike_id": "eaacafdb6a9363c3106ec0f8b2dfb89a", "type": "electric_scooter", "is_reserved": 0, "lon": -77.0434685}, {"fusion_lat": 0.0, "name": "9f9509e0c9a3182bae36a7a6e68491c9", "is_disabled": 0, "rental_uris": {"android": "https://dc.lft.to/lastmile_qr_scan", "ios": "https://dc.lft.to/lastmile_qr_scan"}, "fusion_lon": 0.0, "lat": 38.949144, "bike_id": "9f9509e0c9a3182bae36a7a6e68491c9", "type": "electric_scooter", "is_reserved": 0, "lon": -77.01859333333333}, {"fusion_lat": 0.0, "name": "38ae1b35799271e3685ce55c9d03ab57", "is_disabled": 0, "rental_uris": {"android": "https://dc.lft.to/lastmile_qr_scan", "ios": "https://dc.lft.to/lastmile_qr_scan"}, "fusion_lon": 0.0, "lat": 38.900319833333334, "bike_id": "38ae1b35799271e3685ce55c9d03ab57", "type": "electric_scooter", "is_reserved": 0, "lon": -77.03982483333333}, {"fusion_lat": 0.0, "name": "f54e871a30595055937796f1f1b7f2d4", "is_disabled": 0, "rental_uris": {"android": "https://dc.lft.to/lastmile_qr_scan", "ios": "https://dc.lft.to/lastmile_qr_scan"}, "fusion_lon": 0.0, "lat": 38.90073183333333, "bike_id": "f54e871a30595055937796f1f1b7f2d4", "type": "electric_scooter", "is_reserved": 0, "lon": -77.0131025}, {"fusion_lat": 0.0, "name": "e118a0d4789c2963f2fdc7498cf88dae", "is_disabled": 0, "rental_uris": {"android": "https://dc.lft.to/lastmile_qr_scan", "ios": "https://dc.lft.to/lastmile_qr_scan"}, "fusion_lon": 0.0, "lat": 38.892086166666665, "bike_id": "e118a0d4789c2963f2fdc7498cf88dae", "type": "electric_scooter", "is_reserved": 0, "lon": -76.977032}, {"fusion_lat": 0.0, "name": "90da80c4c1c61c8422a8d26f4ccd55f4", "is_disabled": 0, "rental_uris": {"android": "https://dc.lft.to/lastmile_qr_scan", "ios": "https://dc.lft.to/lastmile_qr_scan"}, "fusion_lon": 0.0, "lat": 38.8961795, "bike_id": "90da80c4c1c61c8422a8d26f4ccd55f4", "type": "electric_scooter", "is_reserved": 0, "lon": -77.01158616666666}, {"fusion_lat": 0.0, "name": "ef2bd26e16dc2dc69ca7de82f475d063", "is_disabled": 0, "rental_uris": {"android": "https://dc.lft.to/lastmile_qr_scan", "ios": "https://dc.lft.to/lastmile_qr_scan"}, "fusion_lon": 0.0, "lat": 38.904107333333336, "bike_id": "ef2bd26e16dc2dc69ca7de82f475d063", "type": "electric_scooter", "is_reserved": 0, "lon": -76.973301}, {"fusion_lat": 0.0, "name": "fd9e531e049528aeb811533050a141a4", "is_disabled": 0, "rental_uris": {"android": "https://dc.lft.to/lastmile_qr_scan", "ios": "https://dc.lft.to/lastmile_qr_scan"}, "fusion_lon": 0.0, "lat": 38.877827833333335, "bike_id": "fd9e531e049528aeb811533050a141a4", "type": "electric_scooter", "is_reserved": 0, "lon": -76.994113}, {"fusion_lat": 0.0, "name": "f52f05af2e4b2292b036e2318e2a8ed8", "is_disabled": 0, "rental_uris": {"android": "https://dc.lft.to/lastmile_qr_scan", "ios": "https://dc.lft.to/lastmile_qr_scan"}, "fusion_lon": 0.0, "lat": 38.90971566666666, "bike_id": "f52f05af2e4b2292b036e2318e2a8ed8", "type": "electric_scooter", "is_reserved": 0, "lon": -77.035664}, {"fusion_lat": 0.0, "name": "59e420d0ed17c36f6393ce439a7d5d88", "is_disabled": 0, "rental_uris": {"android": "https://dc.lft.to/lastmile_qr_scan", "ios": "https://dc.lft.to/lastmile_qr_scan"}, "fusion_lon": 0.0, "lat": 38.907166333333336, "bike_id": "59e420d0ed17c36f6393ce439a7d5d88", "type": "electric_scooter", "is_reserved": 0, "lon": -77.0513355}, {"fusion_lat": 0.0, "name": "2849ff63b7af27028c5dc7ccdfb5911e", "is_disabled": 0, "rental_uris": {"android": "https://dc.lft.to/lastmile_qr_scan", "ios": "https://dc.lft.to/lastmile_qr_scan"}, "fusion_lon": 0.0, "lat": 38.91454983333333, "bike_id": "2849ff63b7af27028c5dc7ccdfb5911e", "type": "electric_scooter", "is_reserved": 0, "lon": -77.00644033333333}, {"fusion_lat": 0.0, "name": "002ff6bb1471f6a00a3d622ab84316b2", "is_disabled": 0, "rental_uris": {"android": "https://dc.lft.to/lastmile_qr_scan", "ios": "https://dc.lft.to/lastmile_qr_scan"}, "fusion_lon": 0.0, "lat": 38.91402766666667, "bike_id": "002ff6bb1471f6a00a3d622ab84316b2", "type": "electric_scooter", "is_reserved": 0, "lon": -77.048639}, {"fusion_lat": 0.0, "name": "beeb9ab0556b3da24c0b8174c57593ce", "is_disabled": 0, "rental_uris": {"android": "https://dc.lft.to/lastmile_qr_scan", "ios": "https://dc.lft.to/lastmile_qr_scan"}, "fusion_lon": 0.0, "lat": 38.933032, "bike_id": "beeb9ab0556b3da24c0b8174c57593ce", "type": "electric_scooter", "is_reserved": 0, "lon": -77.03096233333333}, {"fusion_lat": 0.0, "name": "56edb22b513b30ed95cac24db8a26b08", "is_disabled": 0, "rental_uris": {"android": "https://dc.lft.to/lastmile_qr_scan", "ios": "https://dc.lft.to/lastmile_qr_scan"}, "fusion_lon": 0.0, "lat": 38.89966783333333, "bike_id": "56edb22b513b30ed95cac24db8a26b08", "type": "electric_scooter", "is_reserved": 0, "lon": -77.041558}, {"fusion_lat": 0.0, "name": "07492de6641b63a7cdc220f33f04720d", "is_disabled": 0, "rental_uris": {"android": "https://dc.lft.to/lastmile_qr_scan", "ios": "https://dc.lft.to/lastmile_qr_scan"}, "fusion_lon": 0.0, "lat": 38.879665833333334, "bike_id": "07492de6641b63a7cdc220f33f04720d", "type": "electric_bike", "is_reserved": 0, "lon": -76.91607533333334}, {"fusion_lat": 0.0, "name": "efa6de9e071da4b6a261490bd08722b3", "is_disabled": 0, "rental_uris": {"android": "https://dc.lft.to/lastmile_qr_scan", "ios": "https://dc.lft.to/lastmile_qr_scan"}, "fusion_lon": 0.0, "lat": 38.91737166666667, "bike_id": "efa6de9e071da4b6a261490bd08722b3", "type": "electric_scooter", "is_reserved": 0, "lon": -77.06846683333333}, {"fusion_lat": 0.0, "name": "c58afeb690272d842e25131414895f96", "is_disabled": 0, "rental_uris": {"android": "https://dc.lft.to/lastmile_qr_scan", "ios": "https://dc.lft.to/lastmile_qr_scan"}, "fusion_lon": 0.0, "lat": 38.92571133333333, "bike_id": "c58afeb690272d842e25131414895f96", "type": "electric_scooter", "is_reserved": 0, "lon": -77.0289365}, {"fusion_lat": 0.0, "name": "a3a21a5f960a94023fd8a0e0a6e45f62", "is_disabled": 0, "rental_uris": {"android": "https://dc.lft.to/lastmile_qr_scan", "ios": "https://dc.lft.to/lastmile_qr_scan"}, "fusion_lon": 0.0, "lat": 38.91309866666667, "bike_id": "a3a21a5f960a94023fd8a0e0a6e45f62", "type": "electric_scooter", "is_reserved": 0, "lon": -77.021377}, {"fusion_lat": 0.0, "name": "bad5e1e5adef77968aa5a51e04f547ef", "is_disabled": 0, "rental_uris": {"android": "https://dc.lft.to/lastmile_qr_scan", "ios": "https://dc.lft.to/lastmile_qr_scan"}, "fusion_lon": 0.0, "lat": 38.9001845, "bike_id": "bad5e1e5adef77968aa5a51e04f547ef", "type": "electric_scooter", "is_reserved": 0, "lon": -76.988083}, {"fusion_lat": 0.0, "name": "5d3ab93454f3bce08d14b26819646174", "is_disabled": 0, "rental_uris": {"android": "https://dc.lft.to/lastmile_qr_scan", "ios": "https://dc.lft.to/lastmile_qr_scan"}, "fusion_lon": 0.0, "lat": 38.915589833333335, "bike_id": "5d3ab93454f3bce08d14b26819646174", "type": "electric_scooter", "is_reserved": 0, "lon": -77.032272},