{"data": {"bikes": [{"bike_id": "442a08a82f83ac583b730c116f954665", "is_reserved": 0, "fusion_lon": 0.0, "lat": 38.9199055, "is_disabled": 0, "name": "442a08a82f83ac583b730c116f954665", "fusion_lat": 0.0, "rental_uris": {"ios": "https://dc.lft.to/lastmile_qr_scan", "android": "https://dc.lft.to/lastmile_qr_scan"}, "lon": -77.034768, "type": "electric_scooter"}, {"bike_id": "9667e710f2c6a6c6e836e34b4821e68d", "is_reserved": 0, "fusion_lon": 0.0, "lat": 38.897707833333335, "is_disabled": 0, "name": "9667e710f2c6a6c6e836e34b4821e68d", "fusion_lat": 0.0, "rental_uris": {"ios": "https://dc.lft.to/lastmile_qr_scan", "android": "https://dc.lft.to/lastmile_qr_scan"}, "lon": -77.043469, "type": "electric_scooter"}, {"bike_id": "e2f16866e26a4d4d728b50d1a60f14a4", "is_reserved": 0, "fusion_lon": 0.0, "lat": 38.90278883333333, "is_disabled": 0, "name": "e2f16866e26a4d4d728b50d1a60f14a4", "fusion_lat": 0.0, "rental_uris": {"ios": "https://dc.lft.to/lastmile_qr_scan", "android": "https://dc.lft.to/lastmile_qr_scan"}, "lon": -77.03852516666667, "type": "electric_scooter"}, {"bike_id": "6fb69e84122c7f4f7b49102a09019894", "is_reserved": 0, "fusion_lon": 0.0, "lat": 38.88532583333333, "is_disabled": 0, "name": "6fb69e84122c7f4f7b49102a09019894", "fusion_lat": 0.0, "rental_uris": {"ios": "https://dc.lft.to/lastmile_qr_scan", "android": "https://dc.lft.to/lastmile_qr_scan"}, "lon": -77.00578616666667, "type": "electric_scooter"}, {"bike_id": "81de50906c2b4448d47dbfebf9552f91", "is_reserved": 0, "fusion_lon": 0.0, "lat": 38.901335333333336, "is_disabled": 0, "name": "81de50906c2b4448d47dbfebf9552f91", "fusion_lat": 0.0, "rental_uris": {"ios": "https://dc.lft.to/lastmile_qr_scan", "android": "https://dc.lft.to/lastmile_qr_scan"}, "lon": -76.98078866666667, "type": "electric_scooter"}, {"bike_id": "545de7b012cf315f59926eebeaa76aeb", "is_reserved": 0, "fusion_lon": 0.0, "lat": 38.8991015, "is_disabled": 0, "name": "545de7b012cf315f59926eebeaa76aeb", "fusion_lat": 0.0, "rental_uris": {"ios": "https://dc.lft.to/lastmile_qr_scan", "android": "https://dc.lft.to/lastmile_qr_scan"}, "lon": -77.039342, "type": "electric_scooter"}, {"bike_id": "1e1c35f6daa47e99bf5035bb406b845b", "is_reserved": 0, "fusion_lon": 0.0, "lat": 38.933550833333335, "is_disabled": 0, "name": "1e1c35f6daa47e99bf5035bb406b845b", "fusion_lat": 0.0, "rental_uris": {"ios": "https://dc.lft.to/lastmile_qr_scan", "android": "https://dc.lft.to/lastmile_qr_scan"}, "lon": -77.06944516666667, "type": "electric_scooter"}, {"bike_id": "fa29af4d267b30c9587e51e1f62b2065", "is_reserved": 0, "fusion_lon": 0.0, "lat": 38.872177, "is_disabled": 0, "name": "fa29af4d267b30c9587e51e1f62b2065", "fusion_lat": 0.0, "rental_uris": {"ios": "https://dc.lft.to/lastmile_qr_scan", "android": "https://dc.lft.to/lastmile_qr_scan"}, "lon": -77.0056955, "type": "electric_scooter"}, {"bike_id": "52bc8a8d095dbd76e5256a817ecb8d92", "is_reserved": 0, "fusion_lon": 0.0, "lat": 38.9042695, "is_disabled": 0, "name": "52bc8a8d095dbd76e5256a817ecb8d92", "fusion_lat": 0.0, "rental_uris": {"ios": "https://dc.lft.to/lastmile_qr_scan", "android": "https://dc.lft.to/lastmile_qr_scan"}, "lon": -77.036482, "type": "electric_scooter"}, {"bike_id": "7f6570063f8c73b371ab75fc7c3ef537", "is_reserved": 0, "fusion_lon": 0.0, "lat": 38.888756666666666, "is_disabled": 0, "name": "7f6570063f8c73b371ab75fc7c3ef537", "fusion_lat": 0.0, "rental_uris": {"ios": "https://dc.lft.to/lastmile_qr_scan", "android": "https://dc.lft.to/lastmile_qr_scan"}, "lon": -76.99028566666667, "type": "electric_scooter"}, {"bike_id": "8b212d48c0d5f8f8ebce8b37c17d1185", "is_reserved": 0, "fusion_lon": 0.0, "lat": 38.898871, "is_disabled": 0, "name": "8b212d48c0d5f8f8ebce8b37c17d1185", "fusion_lat": 0.0, "rental_uris": {"ios": "https://dc.lft.to/lastmile_qr_scan", "android": "https://dc.lft.to/lastmile_qr_scan"}, "lon": -76.93174566666667, "type": "electric_scooter"}, {"bike_id": "a1ac8a69ffd3e6e262e864121e317365", "is_reserved": 0, "fusion_lon": 0.0, "lat": 38.844274166666665, "is_disabled": 0, "name": "a1ac8a69ffd3e6e262e864121e317365", "fusion_lat": 0.0, "rental_uris": {"ios": "https://dc.lft.to/lastmile_qr_scan", "android": "https://dc.lft.to/lastmile_qr_scan"}, "lon": -76.99775766666667, "type": "electric_scooter"}, {"bike_id": "141c8fe0ca9e192a9445620bbf217af4", "is_reserved": 0, "fusion_lon": 0.0, "lat": 38.893036333333335, "is_disabled": 0, "name": "141c8fe0ca9e192a9445620bbf217af4", "fusion_lat": 0.0, "rental_uris": {"ios": "https://dc.lft.to/lastmile_qr_scan", "android": "https://dc.lft.to/lastmile_qr_scan"}, "lon": -77.01240533333333, "type": "electric_scooter"}, {"bike_id": "96c7c2437f48ce1603c9213c099efec8", "is_reserved": 0, "fusion_lon": 0.0, "lat": 38.86924416666667, "is_disabled": 0, "name": "96c7c2437f48ce1603c9213c099efec8", "fusion_lat": 0.0, "rental_uris": {"ios": "https://dc.lft.to/lastmile_qr_scan", "android": "https://dc.lft.to/lastmile_qr_scan"}, "lon": -76.98290683333333, "type": "electric_scooter"}, {"bike_id": "4fab41e18acbc360f03e153ca2b62f65", "is_reserved": 0, "fusion_lon": 0.0, "lat": 38.89509983333333, "is_disabled": 0, "name": "4fab41e18acbc360f03e153ca2b62f65", "fusion_lat": 0.0, "rental_uris": {"ios": "https://dc.lft.to/lastmile_qr_scan", "android": "https://dc.lft.to/lastmile_qr_scan"}, "lon": -77.00335433333333, "type": "electric_scooter"}, {"bike_id": "2053b5b455691ba992b17d6f257283a2", "is_reserved": 0, "fusion_lon": 0.0, "lat": 38.91589783333333, "is_disabled": 0, "name": "2053b5b455691ba992b17d6f257283a2", "fusion_lat": 0.0, "rental_uris": {"ios": "https://dc.lft.to/lastmile_qr_scan", "android": "https://dc.lft.to/lastmile_qr_scan"}, "lon": -76.98394966666666, "type": "electric_scooter"}, {"bike_id": "2927e5ee7eb5c4078fa40057896d1ae7", "is_reserved": 0, "fusion_lon": 0.0, "lat": 38.91557566666667, "is_disabled": 0, "name": "2927e5ee7eb5c4078fa40057896d1ae7", "fusion_lat": 0.0, "rental_uris": {"ios": "https://dc.lft.to/lastmile_qr_scan", "android": "https://dc.lft.to/lastmile_qr_scan"}, "lon": -77.0317445, "type": "electric_scooter"}, {"bike_id": "9f19686003af31af7e02847029e7366f", "is_reserved": 0, "fusion_lon": 0.0, "lat": 38.8980595, "is_disabled": 0, "name": "9f19686003af31af7e02847029e7366f", "fusion_lat": 0.0, "rental_uris": {"ios": "https://dc.lft.to/lastmile_qr_scan", "android": "https://dc.lft.to/lastmile_qr_scan"}, "lon": -77.03303416666667, "type": "electric_scooter"}, {"bike_id": "77e64025b923263f60a2d18a5e488c81", "is_reserved": 0, "fusion_lon": 0.0, "lat": 38.8849435, "is_disabled": 0, "name": "77e64025b923263f60a2d18a5e488c81", "fusion_lat": 0.0, "rental_uris": {"ios": "https://dc.lft.to/lastmile_qr_scan", "android": "https://dc.lft.to/lastmile_qr_scan"}, "lon": -77.007276, "type": "electric_scooter"}, {"bike_id": "6c5ebe23b7b501132b74bebd442003ae", "is_reserved": 0, "fusion_lon": 0.0, "lat": 38.906039166666666, "is_disabled": 0, "name": "6c5ebe23b7b501132b74bebd442003ae", "fusion_lat": 0.0, "rental_uris": {"ios": "https://dc.lft.to/lastmile_qr_scan", "android": "https://dc.lft.to/lastmile_qr_scan"}, "lon": -77.01609783333333, "type": "electric_scooter"}, {"bike_id": "ba8d0b5f696ce51cc332480d53072542", "is_reserved": 0, "fusion_lon": 0.0, "lat": 38.903422666666664, "is_disabled": 0, "name": "ba8d0b5f696ce51cc332480d53072542", "fusion_lat": 0.0, "rental_uris": {"ios": "https://dc.lft.to/lastmile_qr_scan", "android": "https://dc.lft.to/lastmile_qr_scan"}, "lon": -77.03328316666666, "type": "electric_scooter"}, {"bike_id": "938170370600dc011e6330c5827c4ba0", "is_reserved": 0, "fusion_lon": 0.0, "lat": 38.90027933333333, "is_disabled": 0, "name": "938170370600dc011e6330c5827c4ba0", "fusion_lat": 0.0, "rental_uris": {"ios": "https://dc.lft.to/lastmile_qr_scan", "android": "https://dc.lft.to/lastmile_qr_scan"}, "lon": -77.011583, "type": "electric_scooter"}, {"bike_id": "c89465a3278ce0d2c2efe49f9db4944e", "is_reserved": 0, "fusion_lon": 0.0, "lat": 38.839403, "is_disabled": 0, "name": "c89465a3278ce0d2c2efe49f9db4944e", "fusion_lat": 0.0, "rental_uris": {"ios": "https://dc.lft.to/lastmile_qr_scan", "android": "https://dc.lft.to/lastmile_qr_scan"}, "lon": -77.079006, "type": "electric_bike"}, {"bike_id": "40f0f9d16ccdb28cfcf94f0b77edfa56", "is_reserved": 0, "fusion_lon": 0.0, "lat": 38.90833816666667, "is_disabled": 0, "name": "40f0f9d16ccdb28cfcf94f0b77edfa56", "fusion_lat": 0.0, "rental_uris": {"ios": "https://dc.lft.to/lastmile_qr_scan", "android": "https://dc.lft.to/lastmile_qr_scan"}, "lon": -77.04361516666667, "type": "electric_scooter"}, {"bike_id": "b43342fe8b2d48d9ac46607a3e748f4f", "is_reserved": 0, "fusion_lon": 0.0, "lat": 38.91406216666667, "is_disabled": 0, "name": "b43342fe8b2d48d9ac46607a3e748f4f", "fusion_lat": 0.0, "rental_uris": {"ios": "https://dc.lft.to/lastmile_qr_scan", "android": "https://dc.lft.to/lastmile_qr_scan"}, "lon": -77.02077016666667, "type": "electric_scooter"}, {"bike_id": "5b6b46405ad6d84ac287683f949057bc", "is_reserved": 0, "fusion_lon": 0.0, "lat": 38.8428355, "is_disabled": 0, "name": "5b6b46405ad6d84ac287683f949057bc", "fusion_lat": 0.0, "rental_uris": {"ios": "https://dc.lft.to/lastmile_qr_scan", "android": "https://dc.lft.to/lastmile_qr_scan"}, "lon": -76.98840683333333, "type": "electric_bike"}, {"bike_id": "91b3f1e062413aa533175d7f08ddf990", "is_reserved": 0, "fusion_lon": 0.0, "lat": 38.90184683333333, "is_disabled": 0, "name": "91b3f1e062413aa533175d7f08ddf990", "fusion_lat": 0.0, "rental_uris": {"ios": "https://dc.lft.to/lastmile_qr_scan", "android": "https://dc.lft.to/lastmile_qr_scan"}, "lon": -76.92997933333334, "type": "electric_scooter"}, {"bike_id": "37eb2168c36e7de2bafd76e0eae2717b", "is_reserved": 0, "fusion_lon": 0.0, "lat": 38.9067175, "is_disabled": 0, "name": "37eb2168c36e7de2bafd76e0eae2717b", "fusion_lat": 0.0, "rental_uris": {"ios": "https://dc.lft.to/lastmile_qr_scan", "android": "https://dc.lft.to/lastmile_qr_scan"}, "lon": -77.03451883333334, "type": "electric_scooter"}, {"bike_id": "beb940985e0b1dd4263a32d7ee7fd1e6", "is_reserved": 0, "fusion_lon": 0.0, "lat": 38.9170615, "is_disabled": 0, "name": "beb940985e0b1dd4263a32d7ee7fd1e6", "fusion_lat": 0.0, "rental_uris": {"ios": "https://dc.lft.to/lastmile_qr_scan", "android": "https://dc.lft.to/lastmile_qr_scan"}, "lon": -77.02405383333334, "type": "electric_scooter"}, {"bike_id": "7799b0d8726f735a8bf573339f1a2fb8", "is_reserved": 0, "fusion_lon": 0.0, "lat": 38.878477833333335, "is_disabled": 0, "name": "7799b0d8726f735a8bf573339f1a2fb8", "fusion_lat": 0.0, "rental_uris": {"ios": "https://dc.lft.to/lastmile_qr_scan", "android": "https://dc.lft.to/lastmile_qr_scan"}, "lon": -76.9884175, "type": "electric_scooter"}, {"bike_id": "41dc78a029d6a049e4377f12b7452e30", "is_reserved": 0, "fusion_lon": 0.0, "lat": 38.8909185, "is_disabled": 0, "name": "41dc78a029d6a049e4377f12b7452e30", "fusion_lat": 0.0, "rental_uris": {"ios": "https://dc.lft.to/lastmile_qr_scan", "android": "https://dc.lft.to/lastmile_qr_scan"}, "lon": -76.98745483333333, "type": "electric_scooter"}, {"bike_id": "18f19d961570829777a026e9e46e28a4", "is_reserved": 0, "fusion_lon": 0.0, "lat": 38.91496633333333, "is_disabled": 0, "name": "18f19d961570829777a026e9e46e28a4", "fusion_lat": 0.0, "rental_uris": {"ios": "https://dc.lft.to/lastmile_qr_scan", "android": "https://dc.lft.to/lastmile_qr_scan"}, "lon": -77.0407995, "type": "electric_scooter"}, {"bike_id": "fae1d85eaa501587ad06a2f0297ab913", "is_reserved": 0, "fusion_lon": 0.0, "lat": 38.913349333333336, "is_disabled": 0, "name": "fae1d85eaa501587ad06a2f0297ab913", "fusion_lat": 0.0, "rental_uris": {"ios": "https://dc.lft.to/lastmile_qr_scan", "android": "https://dc.lft.to/lastmile_qr_scan"}, "lon": -77.04835733333333, "type": "electric_scooter"}, {"bike_id": "c09a0e0802383f81561608713a740dad", "is_reserved": 0, "fusion_lon": 0.0, "lat": 38.916593166666665, "is_disabled": 0, "name": "c09a0e0802383f81561608713a740dad", "fusion_lat": 0.0, "rental_uris": {"ios": "https://dc.lft.to/lastmile_qr_scan", "android": "https://dc.lft.to/lastmile_qr_scan"}, "lon": -77.02277016666666, "type": "electric_scooter"}, {"bike_id": "ff859cb7cf1bf0bc2a508d7990ae219a", "is_reserved": 0, "fusion_lon": 0.0, "lat": 38.876505, "is_disabled": 0, "name": "ff859cb7cf1bf0bc2a508d7990ae219a", "fusion_lat": 0.0, "rental_uris": {"ios": "https://dc.lft.to/lastmile_qr_scan", "android": "https://dc.lft.to/lastmile_qr_scan"}, "lon": -77.00446133333334, "type": "electric_scooter"}, {"bike_id": "33f9a99d2256e9813add7bcea46d6025", "is_reserved": 0, "fusion_lon": 0.0, "lat": 38.8839945, "is_disabled": 0, "name": "33f9a99d2256e9813add7bcea46d6025", "fusion_lat": 0.0, "rental_uris": {"ios": "https://dc.lft.to/lastmile_qr_scan", "android": "https://dc.lft.to/lastmile_qr_scan"}, "lon": -77.02630066666667, "type": "electric_scooter"}, {"bike_id": "edb27bf6eb461b71bbe82c8663bf9ee9", "is_reserved": 0, "fusion_lon": 0.0, "lat": 38.9420955, "is_disabled": 0, "name": "edb27bf6eb461b71bbe82c8663bf9ee9", "fusion_lat": 0.0, "rental_uris": {"ios": "https://dc.lft.to/lastmile_qr_scan", "android": "https://dc.lft.to/lastmile_qr_scan"}, "lon": -77.0358245, "type": "electric_scooter"}, {"bike_id": "16c3174d6f697e3f726c183812c918d4", "is_reserved": 0, "fusion_lon": 0.0, "lat": 38.9212475, "is_disabled": 0, "name": "16c3174d6f697e3f726c183812c918d4", "fusion_lat": 0.0, "rental_uris": {"ios": "https://dc.lft.to/lastmile_qr_scan", "android": "https://dc.lft.to/lastmile_qr_scan"}, "lon": -77.036444, "type": "electric_scooter"}, {"bike_id": "5fbb4f3efae6c4df293a26ce61e83d36", "is_reserved": 0, "fusion_lon": 0.0, "lat": 38.89565416666667, "is_disabled": 0, "name": "5fbb4f3efae6c4df293a26ce61e83d36", "fusion_lat": 0.0, "rental_uris": {"ios": "https://dc.lft.to/lastmile_qr_scan", "android": "https://dc.lft.to/lastmile_qr_scan"}, "lon": -77.02565666666666, "type": "electric_scooter"}, {"bike_id": "27a89762ae8674cea5e5b0ed85f35474", "is_reserved": 0, "fusion_lon": 0.0, "lat": 38.88001966666667, "is_disabled": 0, "name": "27a89762ae8674cea5e5b0ed85f35474", "fusion_lat": 0.0, "rental_uris": {"ios": "https://dc.lft.to/lastmile_qr_scan", "android": "https://dc.lft.to/lastmile_qr_scan"}, "lon": -76.98541433333334, "type": "electric_scooter"}, {"bike_id": "ce467e1f8b03ff8f25845d88abfa87ed", "is_reserved": 0, "fusion_lon": 0.0, "lat": 38.90278083333333, "is_disabled": 0, "name": "ce467e1f8b03ff8f25845d88abfa87ed", "fusion_lat": 0.0, "rental_uris": {"ios": "https://dc.lft.to/lastmile_qr_scan", "android": "https://dc.lft.to/lastmile_qr_scan"}, "lon": -77.03333183333334, "type": "electric_scooter"}, {"bike_id": "1c4964cd146040c1c668af02c54c46d2", "is_reserved": 0, "fusion_lon": 0.0, "lat": 38.9317355, "is_disabled": 0, "name": "1c4964cd146040c1c668af02c54c46d2", "fusion_lat": 0.0, "rental_uris": {"ios": "https://dc.lft.to/lastmile_qr_scan", "android": "https://dc.lft.to/lastmile_qr_scan"}, "lon": -76.99603633333334, "type": "electric_scooter"}, {"bike_id": "a8ced2fffdd55a691dbac2027ce280bf", "is_reserved": 0, "fusion_lon": 0.0, "lat": 38.9083415, "is_disabled": 0, "name": "a8ced2fffdd55a691dbac2027ce280bf", "fusion_lat": 0.0, "rental_uris": {"ios": "https://dc.lft.to/lastmile_qr_scan", "android": "https://dc.lft.to/lastmile_qr_scan"}, "lon": -76.996949, "type": "electric_scooter"}, {"bike_id": "ecb5cdade62f011bad083f52f6f376f2", "is_reserved": 0, "fusion_lon": 0.0, "lat": 38.920497833333336, "is_disabled": 0, "name": "ecb5cdade62f011bad083f52f6f376f2", "fusion_lat": 0.0, "rental_uris": {"ios": "https://dc.lft.to/lastmile_qr_scan", "android": "https://dc.lft.to/lastmile_qr_scan"}, "lon": -77.0419175, "type": "electric_scooter"}, {"bike_id": "9039d80b2784be4429fd9e7c309274c1", "is_reserved": 0, "fusion_lon": 0.0, "lat": 38.89719, "is_disabled": 0, "name": "9039d80b2784be4429fd9e7c309274c1", "fusion_lat": 0.0, "rental_uris": {"ios": "https://dc.lft.to/lastmile_qr_scan", "android": "https://dc.lft.to/lastmile_qr_scan"}, "lon": -77.0270915, "type": "electric_scooter"}, {"bike_id": "6737764c6570c772147b0f1d48a165d2", "is_reserved": 0, "fusion_lon": 0.0, "lat": 38.884327166666665, "is_disabled": 0, "name": "6737764c6570c772147b0f1d48a165d2", "fusion_lat": 0.0, "rental_uris": {"ios": "https://dc.lft.to/lastmile_qr_scan", "android": "https://dc.lft.to/lastmile_qr_scan"}, "lon": -76.99593633333333, "type": "electric_scooter"}, {"bike_id": "9c56bb22ab6aa96924978811c2736959", "is_reserved": 0, "fusion_lon": 0.0, "lat": 38.887041333333336, "is_disabled": 0, "name": "9c56bb22ab6aa96924978811c2736959", "fusion_lat": 0.0, "rental_uris": {"ios": "https://dc.lft.to/lastmile_qr_scan", "android": "https://dc.lft.to/lastmile_qr_scan"}, "lon": -77.0015035, "type": "electric_scooter"}, {"bike_id": "42486e0ed3be2450d0cee6da875db87c", "is_reserved": 0, "fusion_lon": 0.0, "lat": 39.030538166666666, "is_disabled": 0, "name": "42486e0ed3be2450d0cee6da875db87c", "fusion_lat": 0.0, "rental_uris": {"ios": "https://dc.lft.to/lastmile_qr_scan", "android": "https://dc.lft.to/lastmile_qr_scan"}, "lon": -77.09481483333333, "type": "electric_bike"}, {"bike_id": "ed73428fe9c1fbd15b56f1fba5e11a0a", "is_reserved": 0, "fusion_lon": 0.0, "lat": 38.891984666666666, "is_disabled": 0, "name": "ed73428fe9c1fbd15b56f1fba5e11a0a", "fusion_lat": 0.0, "rental_uris": {"ios": "https://dc.lft.to/lastmile_qr_scan", "android": "https://dc.lft.to/lastmile_qr_scan"}, "lon": -77.01548133333333, "type": "electric_scooter"}, {"bike_id": "49737c163bb2c3e87e55924fed152256", "is_reserved": 0, "fusion_lon": 0.0, "lat": 38.9285125, "is_disabled": 0, "name": "49737c163bb2c3e87e55924fed152256", "fusion_lat": 0.0, "rental_uris": {"ios": "https://dc.lft.to/lastmile_qr_scan", "android": "https://dc.lft.to/lastmile_qr_scan"}, "lon": -77.054239, "type": "electric_scooter"}, {"bike_id": "8c0d75137a3b4d997c3a6f3c96ac6ef6", "is_reserved": 0, "fusion_lon": 0.0, "lat": 38.87393333333333, "is_disabled": 0, "name": "8c0d75137a3b4d997c3a6f3c96ac6ef6", "fusion_lat": 0.0, "rental_uris": {"ios": "https://dc.lft.to/lastmile_qr_scan", "android": "https://dc.lft.to/lastmile_qr_scan"}, "lon": -77.00027883333334, "type": "electric_bike"}, {"bike_id": "31a4d457977ce3fc1ce35b5bc1af93cc", "is_reserved": 0, "fusion_lon": 0.0, "lat": 38.951843833333335, "is_disabled": 0, "name": "31a4d457977ce3fc1ce35b5bc1af93cc", "fusion_lat": 0.0, "rental_uris": {"ios": "https://dc.lft.to/lastmile_qr_scan", "android": "https://dc.lft.to/lastmile_qr_scan"}, "lon": -76.93543316666667, "type": "electric_bike"}, {"bike_id": "d0b39d6b2154aff003c7865d5b24357a", "is_reserved": 0, "fusion_lon": 0.0, "lat": 38.95647533333333, "is_disabled": 0, "name": "d0b39d6b2154aff003c7865d5b24357a", "fusion_lat": 0.0, "rental_uris": {"ios": "https://dc.lft.to/lastmile_qr_scan", "android": "https://dc.lft.to/lastmile_qr_scan"}, "lon": -76.99744866666667, "type": "electric_bike"}, {"bike_id": "c5252c95dd5eecc1102881bf95b0fd95", "is_reserved": 0, "fusion_lon": 0.0, "lat": 38.89745833333333, "is_disabled": 0, "name": "c5252c95dd5eecc1102881bf95b0fd95", "fusion_lat": 0.0, "rental_uris": {"ios": "https://dc.lft.to/lastmile_qr_scan", "android": "https://dc.lft.to/lastmile_qr_scan"}, "lon": -77.02214283333333, "type": "electric_scooter"}, {"bike_id": "e0a5ec1b2d54bf5f33a1771ff51b7684", "is_reserved": 0, "fusion_lon": 0.0, "lat": 38.91689783333333, "is_disabled": 0, "name": "e0a5ec1b2d54bf5f33a1771ff51b7684", "fusion_lat": 0.0, "rental_uris": {"ios": "https://dc.lft.to/lastmile_qr_scan", "android": "https://dc.lft.to/lastmile_qr_scan"}, "lon": -77.028946, "type": "electric_scooter"}, {"bike_id": "5a5c979bfefb469cb68b978597006b3b", "is_reserved": 0, "fusion_lon": 0.0, "lat": 38.883282333333334, "is_disabled": 0, "name": "5a5c979bfefb469cb68b978597006b3b", "fusion_lat": 0.0, "rental_uris": {"ios": "https://dc.lft.to/lastmile_qr_scan", "android": "https://dc.lft.to/lastmile_qr_scan"}, "lon": -77.01767433333333, "type": "electric_scooter"}, {"bike_id": "898227aadca4d86078cfc639cf36fed5", "is_reserved": 0, "fusion_lon": 0.0, "lat": 38.917060166666666, "is_disabled": 0, "name": "898227aadca4d86078cfc639cf36fed5", "fusion_lat": 0.0, "rental_uris": {"ios": "https://dc.lft.to/lastmile_qr_scan", "android": "https://dc.lft.to/lastmile_qr_scan"}, "lon": -77.0011275, "type": "electric_scooter"}, {"bike_id": "e1a4754a4803e3b212532ef9c396375b", "is_reserved": 0, "fusion_lon": 0.0, "lat": 38.92712916666667, "is_disabled": 0, "name": "e1a4754a4803e3b212532ef9c396375b", "fusion_lat": 0.0, "rental_uris": {"ios": "https://dc.lft.to/lastmile_qr_scan", "android": "https://dc.lft.to/lastmile_qr_scan"}, "lon": -77.03849216666667, "type": "electric_scooter"}, {"bike_id": "86d79ddd2b23dfb5bcba7318a28100cc", "is_reserved": 0, "fusion_lon": 0.0, "lat": 38.884324666666664, "is_disabled": 0, "name": "86d79ddd2b23dfb5bcba7318a28100cc", "fusion_lat": 0.0, "rental_uris": {"ios": "https://dc.lft.to/lastmile_qr_scan", "android": "https://dc.lft.to/lastmile_qr_scan"}, "lon": -76.99594183333333, "type": "electric_scooter"}, {"bike_id": "dcd6991239a233ad9b7970c698d65acd", "is_reserved": 0, "fusion_lon": 0.0, "lat": 38.93429066666667, "is_disabled": 0, "name": "dcd6991239a233ad9b7970c698d65acd", "fusion_lat": 0.0, "rental_uris": {"ios": "https://dc.lft.to/lastmile_qr_scan", "android": "https://dc.lft.to/lastmile_qr_scan"}, "lon": -77.040023, "type": "electric_scooter"}, {"bike_id": "d9a081b9821fbf11215bbdcea48d02f2", "is_reserved": 0, "fusion_lon": 0.0, "lat": 38.9011535, "is_disabled": 0, "name": "d9a081b9821fbf11215bbdcea48d02f2", "fusion_lat": 0.0, "rental_uris": {"ios": "https://dc.lft.to/lastmile_qr_scan", "android": "https://dc.lft.to/lastmile_qr_scan"}, "lon": -77.0316895, "type": "electric_scooter"}, {"bike_id": "d0c7bfd7b0976830da43c56ce525cd87", "is_reserved": 0, "fusion_lon": 0.0, "lat": 38.920024833333336, "is_disabled": 0, "name": "d0c7bfd7b0976830da43c56ce525cd87", "fusion_lat": 0.0, "rental_uris": {"ios": "https://dc.lft.to/lastmile_qr_scan", "android": "https://dc.lft.to/lastmile_qr_scan"}, "lon": -77.03877266666667, "type": "electric_scooter"}, {"bike_id": "40d6d92270c3599de5c34b07865721cf", "is_reserved": 0, "fusion_lon": 0.0, "lat": 38.88709083333333, "is_disabled": 0, "name": "40d6d92270c3599de5c34b07865721cf", "fusion_lat": 0.0, "rental_uris": {"ios": "https://dc.lft.to/lastmile_qr_scan", "android": "https://dc.lft.to/lastmile_qr_scan"}, "lon": -77.09737166666666, "type": "electric_bike"}, {"bike_id": "c0195f3336cdebe0f281725a72a8d7d8", "is_reserved": 0, "fusion_lon": 0.0, "lat": 38.899628166666666, "is_disabled": 0, "name": "c0195f3336cdebe0f281725a72a8d7d8", "fusion_lat": 0.0, "rental_uris": {"ios": "https://dc.lft.to/lastmile_qr_scan", "android": "https://dc.lft.to/lastmile_qr_scan"}, "lon": -77.024042, "type": "electric_scooter"}, {"bike_id": "017bc3a945403d19c15451e9f2d973b6", "is_reserved": 0, "fusion_lon": 0.0, "lat": 38.909684666666664, "is_disabled": 0, "name": "017bc3a945403d19c15451e9f2d973b6", "fusion_lat": 0.0, "rental_uris": {"ios": "https://dc.lft.to/lastmile_qr_scan", "android": "https://dc.lft.to/lastmile_qr_scan"}, "lon": -77.03833516666667, "type": "electric_scooter"}, {"bike_id": "ab89a5b5b5b3d6f127964bd90c24e9a9", "is_reserved": 0, "fusion_lon": 0.0, "lat": 38.866605166666666, "is_disabled": 0, "name": "ab89a5b5b5b3d6f127964bd90c24e9a9", "fusion_lat": 0.0, "rental_uris": {"ios": "https://dc.lft.to/lastmile_qr_scan", "android": "https://dc.lft.to/lastmile_qr_scan"}, "lon": -76.98885633333333, "type": "electric_scooter"}, {"bike_id": "4468dce4183c916f9f74c9ed0c47a65c", "is_reserved": 0, "fusion_lon": 0.0, "lat": 38.865212166666666, "is_disabled": 0, "name": "4468dce4183c916f9f74c9ed0c47a65c", "fusion_lat": 0.0, "rental_uris": {"ios": "https://dc.lft.to/lastmile_qr_scan", "android": "https://dc.lft.to/lastmile_qr_scan"}, "lon": -76.99028116666666, "type": "electric_scooter"}, {"bike_id": "d7b16b8083eaa07e6c668ec3433a7c73", "is_reserved": 0, "fusion_lon": 0.0, "lat": 38.925128, "is_disabled": 0, "name": "d7b16b8083eaa07e6c668ec3433a7c73", "fusion_lat": 0.0, "rental_uris": {"ios": "https://dc.lft.to/lastmile_qr_scan", "android": "https://dc.lft.to/lastmile_qr_scan"}, "lon": -77.01932483333333, "type": "electric_scooter"}, {"bike_id": "8ac9f945c6ffd79f3b337c8a1758d955", "is_reserved": 0, "fusion_lon": 0.0, "lat": 38.8637855, "is_disabled": 0, "name": "8ac9f945c6ffd79f3b337c8a1758d955", "fusion_lat": 0.0, "rental_uris": {"ios": "https://dc.lft.to/lastmile_qr_scan", "android": "https://dc.lft.to/lastmile_qr_scan"}, "lon": -76.99061383333333, "type": "electric_scooter"}, {"bike_id": "dec1ec6a253d8b5c02ea88ee16a15fda", "is_reserved": 0, "fusion_lon": 0.0, "lat": 38.86276766666667, "is_disabled": 0, "name": "dec1ec6a253d8b5c02ea88ee16a15fda", "fusion_lat": 0.0, "rental_uris": {"ios": "https://dc.lft.to/lastmile_qr_scan", "android": "https://dc.lft.to/lastmile_qr_scan"}, "lon": -77.063601, "type": "electric_bike"}, {"bike_id": "b559096ac2147dd7c3d351c6014c6cc2", "is_reserved": 0, "fusion_lon": 0.0, "lat": 38.88723933333333, "is_disabled": 0, "name": "b559096ac2147dd7c3d351c6014c6cc2", "fusion_lat": 0.0, "rental_uris": {"ios": "https://dc.lft.to/lastmile_qr_scan", "android": "https://dc.lft.to/lastmile_qr_scan"}, "lon": -77.025812, "type": "electric_scooter"}, {"bike_id": "78ba53e545b1f4215edbb7917dc2d4ba", "is_reserved": 0, "fusion_lon": 0.0, "lat": 38.89399483333333, "is_disabled": 0, "name": "78ba53e545b1f4215edbb7917dc2d4ba", "fusion_lat": 0.0, "rental_uris": {"ios": "https://dc.lft.to/lastmile_qr_scan", "android": "https://dc.lft.to/lastmile_qr_scan"}, "lon": -77.0298205, "type": "electric_scooter"}, {"bike_id": "b647571e701985059e5fa07043d32647", "is_reserved": 0, "fusion_lon": 0.0, "lat": 38.91600533333333, "is_disabled": 0, "name": "b647571e701985059e5fa07043d32647", "fusion_lat": 0.0, "rental_uris": {"ios": "https://dc.lft.to/lastmile_qr_scan", "android": "https://dc.lft.to/lastmile_qr_scan"}, "lon": -76.983732, "type": "electric_scooter"}, {"bike_id": "aec7e2565fcac6abdfdfc2b092b5e99f", "is_reserved": 0, "fusion_lon": 0.0, "lat": 38.9257395, "is_disabled": 0, "name": "aec7e2565fcac6abdfdfc2b092b5e99f", "fusion_lat": 0.0, "rental_uris": {"ios": "https://dc.lft.to/lastmile_qr_scan", "android": "https://dc.lft.to/lastmile_qr_scan"}, "lon": -77.03922066666667, "type": "electric_scooter"}, {"bike_id": "45d600bea9391112be57972de1e990e0", "is_reserved": 0, "fusion_lon": 0.0, "lat": 38.911867666666666, "is_disabled": 0, "name": "45d600bea9391112be57972de1e990e0", "fusion_lat": 0.0, "rental_uris": {"ios": "https://dc.lft.to/lastmile_qr_scan", "android": "https://dc.lft.to/lastmile_qr_scan"}, "lon": -76.99617183333334, "type": "electric_scooter"}, {"bike_id": "a14a467409e4453a5868f2b973a1299d", "is_reserved": 0, "fusion_lon": 0.0, "lat": 38.93695683333333, "is_disabled": 0, "name": "a14a467409e4453a5868f2b973a1299d", "fusion_lat": 0.0, "rental_uris": {"ios": "https://dc.lft.to/lastmile_qr_scan", "android": "https://dc.lft.to/lastmile_qr_scan"}, "lon": -77.06018683333333, "type": "electric_scooter"}, {"bike_id": "b03b7cc09f456ceb54d3fe84d920d888", "is_reserved": 0, "fusion_lon": 0.0, "lat": 38.912859833333336, "is_disabled": 0, "name": "b03b7cc09f456ceb54d3fe84d920d888", "fusion_lat": 0.0, "rental_uris": {"ios": "https://dc.lft.to/lastmile_qr_scan", "android": "https://dc.lft.to/lastmile_qr_scan"}, "lon": -77.0384215, "type": "electric_scooter"}, {"bike_id": "4852d087353793b61a4412acffaceab2", "is_reserved": 0, "fusion_lon": 0.0, "lat": 38.8553645, "is_disabled": 0, "name": "4852d087353793b61a4412acffaceab2", "fusion_lat": 0.0, "rental_uris": {"ios": "https://dc.lft.to/lastmile_qr_scan", "android": "https://dc.lft.to/lastmile_qr_scan"}, "lon": -77.113275, "type": "electric_bike"}, {"bike_id": "8a7fa9acfeb965c3d6500b1f3d69fbfd", "is_reserved": 0, "fusion_lon": 0.0, "lat": 38.91691183333333, "is_disabled": 0, "name": "8a7fa9acfeb965c3d6500b1f3d69fbfd", "fusion_lat": 0.0, "rental_uris": {"ios": "https://dc.lft.to/lastmile_qr_scan", "android": "https://dc.lft.to/lastmile_qr_scan"}, "lon": -77.029067, "type": "electric_scooter"}, {"bike_id": "46ed55c39dfb35eedda1a64550d25970", "is_reserved": 0, "fusion_lon": 0.0, "lat": 38.92563033333333, "is_disabled": 0, "name": "46ed55c39dfb35eedda1a64550d25970", "fusion_lat": 0.0, "rental_uris": {"ios": "https://dc.lft.to/lastmile_qr_scan", "android": "https://dc.lft.to/lastmile_qr_scan"}, "lon": -77.03908, "type": "electric_scooter"}, {"bike_id": "e749134d7c7adab4a9a05830f616fd35", "is_reserved": 0, "fusion_lon": 0.0, "lat": 38.91010683333333, "is_disabled": 0, "name": "e749134d7c7adab4a9a05830f616fd35", "fusion_lat": 0.0, "rental_uris": {"ios": "https://dc.lft.to/lastmile_qr_scan", "android": "https://dc.lft.to/lastmile_qr_scan"}, "lon": -76.99397233333333, "type": "electric_scooter"}, {"bike_id": "ba441c2c6c45c8dbd731efbf259f97aa", "is_reserved": 0, "fusion_lon": 0.0, "lat": 38.90368516666667, "is_disabled": 0, "name": "ba441c2c6c45c8dbd731efbf259f97aa", "fusion_lat": 0.0, "rental_uris": {"ios": "https://dc.lft.to/lastmile_qr_scan", "android": "https://dc.lft.to/lastmile_qr_scan"}, "lon": -77.031631, "type": "electric_scooter"}, {"bike_id": "46214922341f71b5b987a3baefe209e3", "is_reserved": 0, "fusion_lon": 0.0, "lat": 38.917024166666664, "is_disabled": 0, "name": "46214922341f71b5b987a3baefe209e3", "fusion_lat": 0.0, "rental_uris": {"ios": "https://dc.lft.to/lastmile_qr_scan", "android": "https://dc.lft.to/lastmile_qr_scan"}, "lon": -77.03104916666666, "type": "electric_scooter"}, {"bike_id": "4612da19392f483149dcad854b711e6d", "is_reserved": 0, "fusion_lon": 0.0, "lat": 38.89669716666667, "is_disabled": 0, "name": "4612da19392f483149dcad854b711e6d", "fusion_lat": 0.0, "rental_uris": {"ios": "https://dc.lft.to/lastmile_qr_scan", "android": "https://dc.lft.to/lastmile_qr_scan"}, "lon": -77.0294715, "type": "electric_scooter"}, {"bike_id": "42ad9776ef89c69aee2479197bff450a", "is_reserved": 0, "fusion_lon": 0.0, "lat": 38.883336666666665, "is_disabled": 0, "name": "42ad9776ef89c69aee2479197bff450a", "fusion_lat": 0.0, "rental_uris": {"ios": "https://dc.lft.to/lastmile_qr_scan", "android": "https://dc.lft.to/lastmile_qr_scan"}, "lon": -77.01736333333334, "type": "electric_scooter"}, {"bike_id": "359dff0e4b909a1cba25d46c3311d123", "is_reserved": 0, "fusion_lon": 0.0, "lat": 38.898021, "is_disabled": 0, "name": "359dff0e4b909a1cba25d46c3311d123", "fusion_lat": 0.0, "rental_uris": {"ios": "https://dc.lft.to/lastmile_qr_scan", "android": "https://dc.lft.to/lastmile_qr_scan"}, "lon": -77.029341, "type": "electric_scooter"}, {"bike_id": "9913cc1132485014030c53b89dbbe4da", "is_reserved": 0, "fusion_lon": 0.0, "lat": 38.919420333333335, "is_disabled": 0, "name": "9913cc1132485014030c53b89dbbe4da", "fusion_lat": 0.0, "rental_uris": {"ios": "https://dc.lft.to/lastmile_qr_scan", "android": "https://dc.lft.to/lastmile_qr_scan"}, "lon": -77.01352883333334, "type": "electric_scooter"}, {"bike_id": "d1e0ae5ff0f898cb1d77c27f1fd5ad0f", "is_reserved": 0, "fusion_lon": 0.0, "lat": 38.932431666666666, "is_disabled": 0, "name": "d1e0ae5ff0f898cb1d77c27f1fd5ad0f", "fusion_lat": 0.0, "rental_uris": {"ios": "https://dc.lft.to/lastmile_qr_scan", "android": "https://dc.lft.to/lastmile_qr_scan"}, "lon": -77.02845966666666, "type": "electric_scooter"}, {"bike_id": "0ecbcad0e53f0de5402bbb8c8070c4a8", "is_reserved": 0, "fusion_lon": 0.0, "lat": 38.924199333333334, "is_disabled": 0, "name": "0ecbcad0e53f0de5402bbb8c8070c4a8", "fusion_lat": 0.0, "rental_uris": {"ios": "https://dc.lft.to/lastmile_qr_scan", "android": "https://dc.lft.to/lastmile_qr_scan"}, "lon": -77.05259883333333, "type": "electric_scooter"}, {"bike_id": "a2687f0b283e3a5e2ad9166c350960c3", "is_reserved": 0, "fusion_lon": 0.0, "lat": 38.8854985, "is_disabled": 0, "name": "a2687f0b283e3a5e2ad9166c350960c3", "fusion_lat": 0.0, "rental_uris": {"ios": "https://dc.lft.to/lastmile_qr_scan", "android": "https://dc.lft.to/lastmile_qr_scan"}, "lon": -76.95450416666667, "type": "electric_scooter"}, {"bike_id": "d980d3915db28f1bc9ec314f8734171e", "is_reserved": 0, "fusion_lon": 0.0, "lat": 38.92357466666667, "is_disabled": 0, "name": "d980d3915db28f1bc9ec314f8734171e", "fusion_lat": 0.0, "rental_uris": {"ios": "https://dc.lft.to/lastmile_qr_scan", "android": "https://dc.lft.to/lastmile_qr_scan"}, "lon": -77.05228116666666, "type": "electric_scooter"}, {"bike_id": "443d2bab60cc846101c1791517a4167f", "is_reserved": 0, "fusion_lon": 0.0, "lat": 38.88429983333333, "is_disabled": 0, "name": "443d2bab60cc846101c1791517a4167f", "fusion_lat": 0.0, "rental_uris": {"ios": "https://dc.lft.to/lastmile_qr_scan", "android": "https://dc.lft.to/lastmile_qr_scan"}, "lon": -77.02423983333334, "type": "electric_scooter"}, {"bike_id": "256b909879d35cb30872148309737d6d", "is_reserved": 0, "fusion_lon": 0.0, "lat": 38.9285345, "is_disabled": 0, "name": "256b909879d35cb30872148309737d6d", "fusion_lat": 0.0, "rental_uris": {"ios": "https://dc.lft.to/lastmile_qr_scan", "android": "https://dc.lft.to/lastmile_qr_scan"}, "lon": -77.1067375, "type": "electric_bike"}, {"bike_id": "7c71768ddd3369bd9dce315be9997372", "is_reserved": 0, "fusion_lon": 0.0, "lat": 38.90455033333333, "is_disabled": 0, "name": "7c71768ddd3369bd9dce315be9997372", "fusion_lat": 0.0, "rental_uris": {"ios": "https://dc.lft.to/lastmile_qr_scan", "android": "https://dc.lft.to/lastmile_qr_scan"}, "lon": -77.03865983333333, "type": "electric_scooter"}, {"bike_id": "73443d171e1b5645365daa2526ab26fd", "is_reserved": 0, "fusion_lon": 0.0, "lat": 38.902521, "is_disabled": 0, "name": "73443d171e1b5645365daa2526ab26fd", "fusion_lat": 0.0, "rental_uris": {"ios": "https://dc.lft.to/lastmile_qr_scan", "android": "https://dc.lft.to/lastmile_qr_scan"}, "lon": -77.03150116666667, "type": "electric_scooter"}, {"bike_id": "935756232bb4eee9a908dcf62d5a4db4", "is_reserved": 0, "fusion_lon": 0.0, "lat": 38.925642333333336, "is_disabled": 0, "name": "935756232bb4eee9a908dcf62d5a4db4", "fusion_lat": 0.0, "rental_uris": {"ios": "https://dc.lft.to/lastmile_qr_scan", "android": "https://dc.lft.to/lastmile_qr_scan"}, "lon": -77.04046216666667, "type": "electric_scooter"}, {"bike_id": "f5521fa767d5b3cfa6552687dd393012", "is_reserved": 0, "fusion_lon": 0.0, "lat": 38.898763333333335, "is_disabled": 0, "name": "f5521fa767d5b3cfa6552687dd393012", "fusion_lat": 0.0, "rental_uris": {"ios": "https://dc.lft.to/lastmile_qr_scan", "android": "https://dc.lft.to/lastmile_qr_scan"}, "lon": -76.93160933333333, "type": "electric_scooter"}, {"bike_id": "5b631ccb91af001eea6c024c2861ca2d", "is_reserved": 0, "fusion_lon": 0.0, "lat": 38.898413833333336, "is_disabled": 0, "name": "5b631ccb91af001eea6c024c2861ca2d", "fusion_lat": 0.0, "rental_uris": {"ios": "https://dc.lft.to/lastmile_qr_scan", "android": "https://dc.lft.to/lastmile_qr_scan"}, "lon": -77.03337266666666, "type": "electric_scooter"}, {"bike_id": "b5b282fbbf2213d38068ee0915b4ca32", "is_reserved": 0, "fusion_lon": 0.0, "lat": 38.92488733333333, "is_disabled": 0, "name": "b5b282fbbf2213d38068ee0915b4ca32", "fusion_lat": 0.0, "rental_uris": {"ios": "https://dc.lft.to/lastmile_qr_scan", "android": "https://dc.lft.to/lastmile_qr_scan"}, "lon": -77.02711716666667, "type": "electric_scooter"}, {"bike_id": "6ff619b4b755e386c6794c6aa6f91200", "is_reserved": 0, "fusion_lon": 0.0, "lat": 38.83243383333333, "is_disabled": 0, "name": "6ff619b4b755e386c6794c6aa6f91200", "fusion_lat": 0.0, "rental_uris": {"ios": "https://dc.lft.to/lastmile_qr_scan", "android": "https://dc.lft.to/lastmile_qr_scan"}, "lon": -76.9462265, "type": "electric_bike"}, {"bike_id": "6f5ddfcd51b33c64d13110c40ea3a090", "is_reserved": 0, "fusion_lon": 0.0, "lat": 38.9413075, "is_disabled": 0, "name": "6f5ddfcd51b33c64d13110c40ea3a090", "fusion_lat": 0.0, "rental_uris": {"ios": "https://dc.lft.to/lastmile_qr_scan", "android": "https://dc.lft.to/lastmile_qr_scan"}, "lon": -77.01536266666666, "type": "electric_scooter"}, {"bike_id": "26e92020f0348377b40489ca63cd293a", "is_reserved": 0, "fusion_lon": 0.0, "lat": 38.919923833333335, "is_disabled": 0, "name": "26e92020f0348377b40489ca63cd293a", "fusion_lat": 0.0, "rental_uris": {"ios": "https://dc.lft.to/lastmile_qr_scan", "android": "https://dc.lft.to/lastmile_qr_scan"}, "lon": -76.97298833333333, "type": "electric_scooter"}, {"bike_id": "cfe28ecdbd9d97dcbf31568b0ea01304", "is_reserved": 0, "fusion_lon": 0.0, "lat": 38.8713915, "is_disabled": 0, "name": "cfe28ecdbd9d97dcbf31568b0ea01304", "fusion_lat": 0.0, "rental_uris": {"ios": "https://dc.lft.to/lastmile_qr_scan", "android": "https://dc.lft.to/lastmile_qr_scan"}, "lon": -76.93724666666667, "type": "electric_bike"}, {"bike_id": "655b918769e2ea024d3a8f7a59c7f31e", "is_reserved": 0, "fusion_lon": 0.0, "lat": 38.89812933333333, "is_disabled": 0, "name": "655b918769e2ea024d3a8f7a59c7f31e", "fusion_lat": 0.0, "rental_uris": {"ios": "https://dc.lft.to/lastmile_qr_scan", "android": "https://dc.lft.to/lastmile_qr_scan"}, "lon": -77.03283466666667, "type": "electric_scooter"}, {"bike_id": "caee95e576798d7fdd185c82281b518e", "is_reserved": 0, "fusion_lon": 0.0, "lat": 38.920520833333335, "is_disabled": 0, "name": "caee95e576798d7fdd185c82281b518e", "fusion_lat": 0.0, "rental_uris": {"ios": "https://dc.lft.to/lastmile_qr_scan", "android": "https://dc.lft.to/lastmile_qr_scan"}, "lon": -77.033867, "type": "electric_scooter"}, {"bike_id": "19bd6e7865b50e3ea329c174d8e3de65", "is_reserved": 0, "fusion_lon": 0.0, "lat": 38.923716, "is_disabled": 0, "name": "19bd6e7865b50e3ea329c174d8e3de65", "fusion_lat": 0.0, "rental_uris": {"ios": "https://dc.lft.to/lastmile_qr_scan", "android": "https://dc.lft.to/lastmile_qr_scan"}, "lon": -77.0195065, "type": "electric_scooter"}, {"bike_id": "c4b8ae5b29ba0d0f7c4db9de7e72a6eb", "is_reserved": 0, "fusion_lon": 0.0, "lat": 38.90128716666667, "is_disabled": 0, "name": "c4b8ae5b29ba0d0f7c4db9de7e72a6eb", "fusion_lat": 0.0, "rental_uris": {"ios": "https://dc.lft.to/lastmile_qr_scan", "android": "https://dc.lft.to/lastmile_qr_scan"}, "lon": -77.04350183333334, "type": "electric_scooter"}, {"bike_id": "5ac56208a0687b644bca9ca1585a963f", "is_reserved": 0, "fusion_lon": 0.0, "lat": 38.929906333333335, "is_disabled": 0, "name": "5ac56208a0687b644bca9ca1585a963f", "fusion_lat": 0.0, "rental_uris": {"ios": "https://dc.lft.to/lastmile_qr_scan", "android": "https://dc.lft.to/lastmile_qr_scan"}, "lon": -77.07946316666667, "type": "electric_scooter"}, {"bike_id": "8261e63e297f821ff1a387f3206535b9", "is_reserved": 0, "fusion_lon": 0.0, "lat": 38.903689166666666, "is_disabled": 0, "name": "8261e63e297f821ff1a387f3206535b9", "fusion_lat": 0.0, "rental_uris": {"ios": "https://dc.lft.to/lastmile_qr_scan", "android": "https://dc.lft.to/lastmile_qr_scan"}, "lon": -77.0299765, "type": "electric_scooter"}, {"bike_id": "22aa38f34a2e6378bc99f0d45bbf59e1", "is_reserved": 0, "fusion_lon": 0.0, "lat": 38.9025975, "is_disabled": 0, "name": "22aa38f34a2e6378bc99f0d45bbf59e1", "fusion_lat": 0.0, "rental_uris": {"ios": "https://dc.lft.to/lastmile_qr_scan", "android": "https://dc.lft.to/lastmile_qr_scan"}, "lon": -77.0434445, "type": "electric_scooter"}, {"bike_id": "28c0edca9b0813e2260f0f8dd0e9b80f", "is_reserved": 0, "fusion_lon": 0.0, "lat": 38.91258283333333, "is_disabled": 0, "name": "28c0edca9b0813e2260f0f8dd0e9b80f", "fusion_lat": 0.0, "rental_uris": {"ios": "https://dc.lft.to/lastmile_qr_scan", "android": "https://dc.lft.to/lastmile_qr_scan"}, "lon": -77.04443783333333, "type": "electric_scooter"}, {"bike_id": "a68145ad0cb3646623f739ac97e01669", "is_reserved": 0, "fusion_lon": 0.0, "lat": 38.91651233333333, "is_disabled": 0, "name": "a68145ad0cb3646623f739ac97e01669", "fusion_lat": 0.0, "rental_uris": {"ios": "https://dc.lft.to/lastmile_qr_scan", "android": "https://dc.lft.to/lastmile_qr_scan"}, "lon": -77.032074, "type": "electric_scooter"}, {"bike_id": "e53858afab36ac5fbcc544bcc2284d48", "is_reserved": 0, "fusion_lon": 0.0, "lat": 38.91665583333333, "is_disabled": 0, "name": "e53858afab36ac5fbcc544bcc2284d48", "fusion_lat": 0.0, "rental_uris": {"ios": "https://dc.lft.to/lastmile_qr_scan", "android": "https://dc.lft.to/lastmile_qr_scan"}, "lon": -77.004999, "type": "electric_scooter"}, {"bike_id": "7e4272647355fbb19fbededf3314d0e8", "is_reserved": 0, "fusion_lon": 0.0, "lat": 38.93362966666667, "is_disabled": 0, "name": "7e4272647355fbb19fbededf3314d0e8", "fusion_lat": 0.0, "rental_uris": {"ios": "https://dc.lft.to/lastmile_qr_scan", "android": "https://dc.lft.to/lastmile_qr_scan"}, "lon": -77.0573145, "type": "electric_scooter"}, {"bike_id": "6d2d49bad154ab623f24e58b7f1b1b4f", "is_reserved": 0, "fusion_lon": 0.0, "lat": 38.897317, "is_disabled": 0, "name": "6d2d49bad154ab623f24e58b7f1b1b4f", "fusion_lat": 0.0, "rental_uris": {"ios": "https://dc.lft.to/lastmile_qr_scan", "android": "https://dc.lft.to/lastmile_qr_scan"}, "lon": -77.02707433333333, "type": "electric_scooter"}, {"bike_id": "6ee2b4c9e81877f0936b249a751de315", "is_reserved": 0, "fusion_lon": 0.0, "lat": 38.93353233333333, "is_disabled": 0, "name": "6ee2b4c9e81877f0936b249a751de315", "fusion_lat": 0.0, "rental_uris": {"ios": "https://dc.lft.to/lastmile_qr_scan", "android": "https://dc.lft.to/lastmile_qr_scan"}, "lon": -77.03428066666666, "type": "electric_scooter"}, {"bike_id": "e173065e9906b825d0a57d6e06950c21", "is_reserved": 0, "fusion_lon": 0.0, "lat": 38.89453566666667, "is_disabled": 0, "name": "e173065e9906b825d0a57d6e06950c21", "fusion_lat": 0.0, "rental_uris": {"ios": "https://dc.lft.to/lastmile_qr_scan", "android": "https://dc.lft.to/lastmile_qr_scan"}, "lon": -76.97033183333333, "type": "electric_bike"}, {"bike_id": "a998d682f27b195944f839bcdc907cea", "is_reserved": 0, "fusion_lon": 0.0, "lat": 38.91810916666667, "is_disabled": 0, "name": "a998d682f27b195944f839bcdc907cea", "fusion_lat": 0.0, "rental_uris": {"ios": "https://dc.lft.to/lastmile_qr_scan", "android": "https://dc.lft.to/lastmile_qr_scan"}, "lon": -77.03188666666667, "type": "electric_scooter"}, {"bike_id": "6cafc0bd0d84f1a9ba8b0f7aad98e076", "is_reserved": 0, "fusion_lon": 0.0, "lat": 38.903731, "is_disabled": 0, "name": "6cafc0bd0d84f1a9ba8b0f7aad98e076", "fusion_lat": 0.0, "rental_uris": {"ios": "https://dc.lft.to/lastmile_qr_scan", "android": "https://dc.lft.to/lastmile_qr_scan"}, "lon": -77.04511716666667, "type": "electric_scooter"}, {"bike_id": "4a2ff9176ab82e61b1d3338d3f045739", "is_reserved": 0, "fusion_lon": 0.0, "lat": 38.883256, "is_disabled": 0, "name": "4a2ff9176ab82e61b1d3338d3f045739", "fusion_lat": 0.0, "rental_uris": {"ios": "https://dc.lft.to/lastmile_qr_scan", "android": "https://dc.lft.to/lastmile_qr_scan"}, "lon": -77.01766716666667, "type": "electric_scooter"}, {"bike_id": "46b92c60d1670baa05f1637e04611605", "is_reserved": 0, "fusion_lon": 0.0, "lat": 38.91738683333333, "is_disabled": 0, "name": "46b92c60d1670baa05f1637e04611605", "fusion_lat": 0.0, "rental_uris": {"ios": "https://dc.lft.to/lastmile_qr_scan", "android": "https://dc.lft.to/lastmile_qr_scan"}, "lon": -77.04170183333333, "type": "electric_scooter"}, {"bike_id": "51a06b4560fba26b360670308f4949bf", "is_reserved": 0, "fusion_lon": 0.0, "lat": 38.91395, "is_disabled": 0, "name": "51a06b4560fba26b360670308f4949bf", "fusion_lat": 0.0, "rental_uris": {"ios": "https://dc.lft.to/lastmile_qr_scan", "android": "https://dc.lft.to/lastmile_qr_scan"}, "lon": -77.04600783333333, "type": "electric_scooter"}, {"bike_id": "0e64b25b2703f7b875c4ea219fae80dd", "is_reserved": 0, "fusion_lon": 0.0, "lat": 38.9009355, "is_disabled": 0, "name": "0e64b25b2703f7b875c4ea219fae80dd", "fusion_lat": 0.0, "rental_uris": {"ios": "https://dc.lft.to/lastmile_qr_scan", "android": "https://dc.lft.to/lastmile_qr_scan"}, "lon": -77.020481, "type": "electric_scooter"}, {"bike_id": "46b3e5424887caf2d684d35652486b06", "is_reserved": 0, "fusion_lon": 0.0, "lat": 38.86425933333334, "is_disabled": 0, "name": "46b3e5424887caf2d684d35652486b06", "fusion_lat": 0.0, "rental_uris": {"ios": "https://dc.lft.to/lastmile_qr_scan", "android": "https://dc.lft.to/lastmile_qr_scan"}, "lon": -76.98572583333333, "type": "electric_scooter"}, {"bike_id": "824fc2f314290487a271de6d7e25b178", "is_reserved": 0, "fusion_lon": 0.0, "lat": 38.89363316666667, "is_disabled": 0, "name": "824fc2f314290487a271de6d7e25b178", "fusion_lat": 0.0, "rental_uris": {"ios": "https://dc.lft.to/lastmile_qr_scan", "android": "https://dc.lft.to/lastmile_qr_scan"}, "lon": -77.028197, "type": "electric_scooter"}, {"bike_id": "ef5e8d624968e23ce500022ff0b45840", "is_reserved": 0, "fusion_lon": 0.0, "lat": 38.92597933333333, "is_disabled": 0, "name": "ef5e8d624968e23ce500022ff0b45840", "fusion_lat": 0.0, "rental_uris": {"ios": "https://dc.lft.to/lastmile_qr_scan", "android": "https://dc.lft.to/lastmile_qr_scan"}, "lon": -77.02129983333333, "type": "electric_scooter"}, {"bike_id": "9ffa485aa26b4e36d7e3d9a823d4a514", "is_reserved": 0, "fusion_lon": 0.0, "lat": 38.898869833333336, "is_disabled": 0, "name": "9ffa485aa26b4e36d7e3d9a823d4a514", "fusion_lat": 0.0, "rental_uris": {"ios": "https://dc.lft.to/lastmile_qr_scan", "android": "https://dc.lft.to/lastmile_qr_scan"}, "lon": -77.03272833333334, "type": "electric_scooter"}, {"bike_id": "2bc2f0917506d01e337ac462ae1c1240", "is_reserved": 0, "fusion_lon": 0.0, "lat": 38.88643283333333, "is_disabled": 0, "name": "2bc2f0917506d01e337ac462ae1c1240", "fusion_lat": 0.0, "rental_uris": {"ios": "https://dc.lft.to/lastmile_qr_scan", "android": "https://dc.lft.to/lastmile_qr_scan"}, "lon": -76.9546625, "type": "electric_bike"}, {"bike_id": "9e69186a197d3224dbf51d19eb8ccb08", "is_reserved": 0, "fusion_lon": 0.0, "lat": 38.900588, "is_disabled": 0, "name": "9e69186a197d3224dbf51d19eb8ccb08", "fusion_lat": 0.0, "rental_uris": {"ios": "https://dc.lft.to/lastmile_qr_scan", "android": "https://dc.lft.to/lastmile_qr_scan"}, "lon": -77.031883, "type": "electric_scooter"}, {"bike_id": "b9c793813109a2037e5228bc68022646", "is_reserved": 0, "fusion_lon": 0.0, "lat": 38.822666, "is_disabled": 0, "name": "b9c793813109a2037e5228bc68022646", "fusion_lat": 0.0, "rental_uris": {"ios": "https://dc.lft.to/lastmile_qr_scan", "android": "https://dc.lft.to/lastmile_qr_scan"}, "lon": -77.005505, "type": "electric_bike"}, {"bike_id": "4896fdcb864a89e323dadf5063789613", "is_reserved": 0, "fusion_lon": 0.0, "lat": 38.9105, "is_disabled": 0, "name": "4896fdcb864a89e323dadf5063789613", "fusion_lat": 0.0, "rental_uris": {"ios": "https://dc.lft.to/lastmile_qr_scan", "android": "https://dc.lft.to/lastmile_qr_scan"}, "lon": -77.03568116666666, "type": "electric_scooter"}, {"bike_id": "67a949cbd171628e56784ed15c4a457c", "is_reserved": 0, "fusion_lon": 0.0, "lat": 38.89988833333334, "is_disabled": 0, "name": "67a949cbd171628e56784ed15c4a457c", "fusion_lat": 0.0, "rental_uris": {"ios": "https://dc.lft.to/lastmile_qr_scan", "android": "https://dc.lft.to/lastmile_qr_scan"}, "lon": -77.05560533333333, "type": "electric_scooter"}, {"bike_id": "db04b9bc5d88c262b872ad4a2facc9b0", "is_reserved": 0, "fusion_lon": 0.0, "lat": 38.9279595, "is_disabled": 0, "name": "db04b9bc5d88c262b872ad4a2facc9b0", "fusion_lat": 0.0, "rental_uris": {"ios": "https://dc.lft.to/lastmile_qr_scan", "android": "https://dc.lft.to/lastmile_qr_scan"}, "lon": -77.05357716666667, "type": "electric_scooter"}, {"bike_id": "f35c3271fd84d823a3d3b8c494b3f00f", "is_reserved": 0, "fusion_lon": 0.0, "lat": 38.89502366666667, "is_disabled": 0, "name": "f35c3271fd84d823a3d3b8c494b3f00f", "fusion_lat": 0.0, "rental_uris": {"ios": "https://dc.lft.to/lastmile_qr_scan", "android": "https://dc.lft.to/lastmile_qr_scan"}, "lon": -77.02387266666666, "type": "electric_scooter"}, {"bike_id": "bd468d00316c47a85e13dc15bacd619d", "is_reserved": 0, "fusion_lon": 0.0, "lat": 38.9241035, "is_disabled": 0, "name": "bd468d00316c47a85e13dc15bacd619d", "fusion_lat": 0.0, "rental_uris": {"ios": "https://dc.lft.to/lastmile_qr_scan", "android": "https://dc.lft.to/lastmile_qr_scan"}, "lon": -77.019451, "type": "electric_scooter"}, {"bike_id": "05d1f5089f2d238f44abbe0811299688", "is_reserved": 0, "fusion_lon": 0.0, "lat": 38.827305833333334, "is_disabled": 0, "name": "05d1f5089f2d238f44abbe0811299688", "fusion_lat": 0.0, "rental_uris": {"ios": "https://dc.lft.to/lastmile_qr_scan", "android": "https://dc.lft.to/lastmile_qr_scan"}, "lon": -77.00862366666667, "type": "electric_bike"}, {"bike_id": "3ef9e0ae7a6a1ec21b4a5bb2dcff0f3f", "is_reserved": 0, "fusion_lon": 0.0, "lat": 38.900566833333336, "is_disabled": 0, "name": "3ef9e0ae7a6a1ec21b4a5bb2dcff0f3f", "fusion_lat": 0.0, "rental_uris": {"ios": "https://dc.lft.to/lastmile_qr_scan", "android": "https://dc.lft.to/lastmile_qr_scan"}, "lon": -77.0318465, "type": "electric_scooter"}, {"bike_id": "7e88b7b35e0b2ba876f7cee4428f8e93", "is_reserved": 0, "fusion_lon": 0.0, "lat": 38.88499133333333, "is_disabled": 0, "name": "7e88b7b35e0b2ba876f7cee4428f8e93", "fusion_lat": 0.0, "rental_uris": {"ios": "https://dc.lft.to/lastmile_qr_scan", "android": "https://dc.lft.to/lastmile_qr_scan"}, "lon": -77.00726616666667, "type": "electric_scooter"}, {"bike_id": "27c6b3d7c664f1cd96cfca266774061d", "is_reserved": 0, "fusion_lon": 0.0, "lat": 38.918790333333334, "is_disabled": 0, "name": "27c6b3d7c664f1cd96cfca266774061d", "fusion_lat": 0.0, "rental_uris": {"ios": "https://dc.lft.to/lastmile_qr_scan", "android": "https://dc.lft.to/lastmile_qr_scan"}, "lon": -77.04310233333334, "type": "electric_scooter"}, {"bike_id": "dac6fe2a80bbb2044361bcf4d478ae8a", "is_reserved": 0, "fusion_lon": 0.0, "lat": 38.908603, "is_disabled": 0, "name": "dac6fe2a80bbb2044361bcf4d478ae8a", "fusion_lat": 0.0, "rental_uris": {"ios": "https://dc.lft.to/lastmile_qr_scan", "android": "https://dc.lft.to/lastmile_qr_scan"}, "lon": -77.02730283333334, "type": "electric_scooter"}, {"bike_id": "2eb7786a474fb614612aa540b134b3c9", "is_reserved": 0, "fusion_lon": 0.0, "lat": 38.8802565, "is_disabled": 0, "name": "2eb7786a474fb614612aa540b134b3c9", "fusion_lat": 0.0, "rental_uris": {"ios": "https://dc.lft.to/lastmile_qr_scan", "android": "https://dc.lft.to/lastmile_qr_scan"}, "lon": -76.93136983333333, "type": "electric_scooter"}, {"bike_id": "7301543bb4341bdc90502c8198cd6b8e", "is_reserved": 0, "fusion_lon": 0.0, "lat": 38.8973725, "is_disabled": 0, "name": "7301543bb4341bdc90502c8198cd6b8e", "fusion_lat": 0.0, "rental_uris": {"ios": "https://dc.lft.to/lastmile_qr_scan", "android": "https://dc.lft.to/lastmile_qr_scan"}, "lon": -76.947219, "type": "electric_scooter"}, {"bike_id": "af79038619fa6eeb37548658b0a40b7d", "is_reserved": 0, "fusion_lon": 0.0, "lat": 38.8958715, "is_disabled": 0, "name": "af79038619fa6eeb37548658b0a40b7d", "fusion_lat": 0.0, "rental_uris": {"ios": "https://dc.lft.to/lastmile_qr_scan", "android": "https://dc.lft.to/lastmile_qr_scan"}, "lon": -76.93719066666667, "type": "electric_scooter"}, {"bike_id": "9111969e188d8373cb91c905deff1a2b", "is_reserved": 0, "fusion_lon": 0.0, "lat": 38.9192185, "is_disabled": 0, "name": "9111969e188d8373cb91c905deff1a2b", "fusion_lat": 0.0, "rental_uris": {"ios": "https://dc.lft.to/lastmile_qr_scan", "android": "https://dc.lft.to/lastmile_qr_scan"}, "lon": -77.031939, "type": "electric_scooter"}, {"bike_id": "8b76efa1254f0725e07ef9d19d061bcd", "is_reserved": 0, "fusion_lon": 0.0, "lat": 38.9127, "is_disabled": 0, "name": "8b76efa1254f0725e07ef9d19d061bcd", "fusion_lat": 0.0, "rental_uris": {"ios": "https://dc.lft.to/lastmile_qr_scan", "android": "https://dc.lft.to/lastmile_qr_scan"}, "lon": -77.07276333333333, "type": "electric_scooter"}, {"bike_id": "e50e98e7fd36f6534118a4776c6b2c1e", "is_reserved": 0, "fusion_lon": 0.0, "lat": 38.9044825, "is_disabled": 0, "name": "e50e98e7fd36f6534118a4776c6b2c1e", "fusion_lat": 0.0, "rental_uris": {"ios": "https://dc.lft.to/lastmile_qr_scan", "android": "https://dc.lft.to/lastmile_qr_scan"}, "lon": -76.9962155, "type": "electric_scooter"}, {"bike_id": "f46a5aa03e539fb5553a35c360a9efc8", "is_reserved": 0, "fusion_lon": 0.0, "lat": 38.878381166666664, "is_disabled": 0, "name": "f46a5aa03e539fb5553a35c360a9efc8", "fusion_lat": 0.0, "rental_uris": {"ios": "https://dc.lft.to/lastmile_qr_scan", "android": "https://dc.lft.to/lastmile_qr_scan"}, "lon": -76.990346, "type": "electric_scooter"}, {"bike_id": "0de4600bb147476f3f8fbc12fa65bfca", "is_reserved": 0, "fusion_lon": 0.0, "lat": 38.8763185, "is_disabled": 0, "name": "0de4600bb147476f3f8fbc12fa65bfca", "fusion_lat": 0.0, "rental_uris": {"ios": "https://dc.lft.to/lastmile_qr_scan", "android": "https://dc.lft.to/lastmile_qr_scan"}, "lon": -76.96521883333334, "type": "electric_scooter"}, {"bike_id": "ed3fd1b89d19af334fb828013ffe5621", "is_reserved": 0, "fusion_lon": 0.0, "lat": 38.92859516666667, "is_disabled": 0, "name": "ed3fd1b89d19af334fb828013ffe5621", "fusion_lat": 0.0, "rental_uris": {"ios": "https://dc.lft.to/lastmile_qr_scan", "android": "https://dc.lft.to/lastmile_qr_scan"}, "lon": -77.03283016666667, "type": "electric_scooter"}, {"bike_id": "3d374dccfd737d4f416a3cbb8f62096c", "is_reserved": 0, "fusion_lon": 0.0, "lat": 38.874249666666664, "is_disabled": 0, "name": "3d374dccfd737d4f416a3cbb8f62096c", "fusion_lat": 0.0, "rental_uris": {"ios": "https://dc.lft.to/lastmile_qr_scan", "android": "https://dc.lft.to/lastmile_qr_scan"}, "lon": -77.08569566666667, "type": "electric_bike"}, {"bike_id": "93b695f543550c4d503e55836daa16fb", "is_reserved": 0, "fusion_lon": 0.0, "lat": 38.91914416666667, "is_disabled": 0, "name": "93b695f543550c4d503e55836daa16fb", "fusion_lat": 0.0, "rental_uris": {"ios": "https://dc.lft.to/lastmile_qr_scan", "android": "https://dc.lft.to/lastmile_qr_scan"}, "lon": -77.01340416666666, "type": "electric_scooter"}, {"bike_id": "0d73268851054e055d5f56a064c7ad6e", "is_reserved": 0, "fusion_lon": 0.0, "lat": 38.902984000000004, "is_disabled": 0, "name": "0d73268851054e055d5f56a064c7ad6e", "fusion_lat": 0.0, "rental_uris": {"ios": "https://dc.lft.to/lastmile_qr_scan", "android": "https://dc.lft.to/lastmile_qr_scan"}, "lon": -76.99858666666667, "type": "electric_scooter"}, {"bike_id": "63ec251593f7c3efd79a1bd22bbabe79", "is_reserved": 0, "fusion_lon": 0.0, "lat": 38.856155333333334, "is_disabled": 0, "name": "63ec251593f7c3efd79a1bd22bbabe79", "fusion_lat": 0.0, "rental_uris": {"ios": "https://dc.lft.to/lastmile_qr_scan", "android": "https://dc.lft.to/lastmile_qr_scan"}, "lon": -76.98013833333333, "type": "electric_scooter"}, {"bike_id": "cf8420e2077c20db14f853daeee3b56f", "is_reserved": 0, "fusion_lon": 0.0, "lat": 38.8429645, "is_disabled": 0, "name": "cf8420e2077c20db14f853daeee3b56f", "fusion_lat": 0.0, "rental_uris": {"ios": "https://dc.lft.to/lastmile_qr_scan", "android": "https://dc.lft.to/lastmile_qr_scan"}, "lon": -76.999433, "type": "electric_scooter"}, {"bike_id": "9dfef8915d198cecc3cfc568a2069b6b", "is_reserved": 0, "fusion_lon": 0.0, "lat": 38.916109, "is_disabled": 0, "name": "9dfef8915d198cecc3cfc568a2069b6b", "fusion_lat": 0.0, "rental_uris": {"ios": "https://dc.lft.to/lastmile_qr_scan", "android": "https://dc.lft.to/lastmile_qr_scan"}, "lon": -77.03170316666667, "type": "electric_scooter"}, {"bike_id": "6a1ef338f11cf6ef4a834508cd1ea142", "is_reserved": 0, "fusion_lon": 0.0, "lat": 38.89801, "is_disabled": 0, "name": "6a1ef338f11cf6ef4a834508cd1ea142", "fusion_lat": 0.0, "rental_uris": {"ios": "https://dc.lft.to/lastmile_qr_scan", "android": "https://dc.lft.to/lastmile_qr_scan"}, "lon": -77.00635266666667, "type": "electric_bike"}, {"bike_id": "f1688cb1335c7099a2914b018db192fc", "is_reserved": 0, "fusion_lon": 0.0, "lat": 38.90142133333333, "is_disabled": 0, "name": "f1688cb1335c7099a2914b018db192fc", "fusion_lat": 0.0, "rental_uris": {"ios": "https://dc.lft.to/lastmile_qr_scan", "android": "https://dc.lft.to/lastmile_qr_scan"}, "lon": -77.04472166666666, "type": "electric_scooter"}, {"bike_id": "a55c21fb56204a8478d12b37e7d2bf83", "is_reserved": 0, "fusion_lon": 0.0, "lat": 38.899187833333336, "is_disabled": 0, "name": "a55c21fb56204a8478d12b37e7d2bf83", "fusion_lat": 0.0, "rental_uris": {"ios": "https://dc.lft.to/lastmile_qr_scan", "android": "https://dc.lft.to/lastmile_qr_scan"}, "lon": -76.93381633333334, "type": "electric_scooter"}, {"bike_id": "800695cfe15e0efe8a428efe93357763", "is_reserved": 0, "fusion_lon": 0.0, "lat": 38.957317833333335, "is_disabled": 0, "name": "800695cfe15e0efe8a428efe93357763", "fusion_lat": 0.0, "rental_uris": {"ios": "https://dc.lft.to/lastmile_qr_scan", "android": "https://dc.lft.to/lastmile_qr_scan"}, "lon": -77.02403533333333, "type": "electric_scooter"}, {"bike_id": "8c157004f03c5932f45516a0d82c0e3e", "is_reserved": 0, "fusion_lon": 0.0, "lat": 38.88033033333333, "is_disabled": 0, "name": "8c157004f03c5932f45516a0d82c0e3e", "fusion_lat": 0.0, "rental_uris": {"ios": "https://dc.lft.to/lastmile_qr_scan", "android": "https://dc.lft.to/lastmile_qr_scan"}, "lon": -77.02461633333333, "type": "electric_scooter"}, {"bike_id": "5e10bb098e44785006a8fa20759e813d", "is_reserved": 0, "fusion_lon": 0.0, "lat": 38.85158233333333, "is_disabled": 0, "name": "5e10bb098e44785006a8fa20759e813d", "fusion_lat": 0.0, "rental_uris": {"ios": "https://dc.lft.to/lastmile_qr_scan", "android": "https://dc.lft.to/lastmile_qr_scan"}, "lon": -77.1287835, "type": "electric_bike"}, {"bike_id": "21cd5f623563cfa7fb3ed7587021e432", "is_reserved": 0, "fusion_lon": 0.0, "lat": 38.90649966666667, "is_disabled": 0, "name": "21cd5f623563cfa7fb3ed7587021e432", "fusion_lat": 0.0, "rental_uris": {"ios": "https://dc.lft.to/lastmile_qr_scan", "android": "https://dc.lft.to/lastmile_qr_scan"}, "lon": -77.04289016666667, "type": "electric_scooter"}, {"bike_id": "917fe6ff945c0b0c18c9f0b16db14333", "is_reserved": 0, "fusion_lon": 0.0, "lat": 38.89476616666666, "is_disabled": 0, "name": "917fe6ff945c0b0c18c9f0b16db14333", "fusion_lat": 0.0, "rental_uris": {"ios": "https://dc.lft.to/lastmile_qr_scan", "android": "https://dc.lft.to/lastmile_qr_scan"}, "lon": -76.98399733333333, "type": "electric_scooter"}, {"bike_id": "e08134610bfce037d554a6d0bd01dfb2", "is_reserved": 0, "fusion_lon": 0.0, "lat": 38.93063166666666, "is_disabled": 0, "name": "e08134610bfce037d554a6d0bd01dfb2", "fusion_lat": 0.0, "rental_uris": {"ios": "https://dc.lft.to/lastmile_qr_scan", "android": "https://dc.lft.to/lastmile_qr_scan"}, "lon": -77.03944266666667, "type": "electric_scooter"}, {"bike_id": "0b72edc1de876cc03d8ba7c345f28eeb", "is_reserved": 0, "fusion_lon": 0.0, "lat": 38.897937, "is_disabled": 0, "name": "0b72edc1de876cc03d8ba7c345f28eeb", "fusion_lat": 0.0, "rental_uris": {"ios": "https://dc.lft.to/lastmile_qr_scan", "android": "https://dc.lft.to/lastmile_qr_scan"}, "lon": -77.02821966666667, "type": "electric_scooter"}, {"bike_id": "16e272f4f5b608144a80dabcd11651fa", "is_reserved": 0, "fusion_lon": 0.0, "lat": 38.91711983333333, "is_disabled": 0, "name": "16e272f4f5b608144a80dabcd11651fa", "fusion_lat": 0.0, "rental_uris": {"ios": "https://dc.lft.to/lastmile_qr_scan", "android": "https://dc.lft.to/lastmile_qr_scan"}, "lon": -77.03226833333333, "type": "electric_scooter"}, {"bike_id": "7e904841ea1ce9ccf88e5d0b24387cf7", "is_reserved": 0, "fusion_lon": 0.0, "lat": 38.943174666666664, "is_disabled": 0, "name": "7e904841ea1ce9ccf88e5d0b24387cf7", "fusion_lat": 0.0, "rental_uris": {"ios": "https://dc.lft.to/lastmile_qr_scan", "android": "https://dc.lft.to/lastmile_qr_scan"}, "lon": -77.05913966666667, "type": "electric_scooter"}, {"bike_id": "c1ad003a2e17e11ba49627c9f6ebeeba", "is_reserved": 0, "fusion_lon": 0.0, "lat": 38.900228, "is_disabled": 0, "name": "c1ad003a2e17e11ba49627c9f6ebeeba", "fusion_lat": 0.0, "rental_uris": {"ios": "https://dc.lft.to/lastmile_qr_scan", "android": "https://dc.lft.to/lastmile_qr_scan"}, "lon": -76.98299766666666, "type": "electric_scooter"}, {"bike_id": "0126fd137e5eb87638e969f5e377a944", "is_reserved": 0, "fusion_lon": 0.0, "lat": 38.865728833333336, "is_disabled": 0, "name": "0126fd137e5eb87638e969f5e377a944", "fusion_lat": 0.0, "rental_uris": {"ios": "https://dc.lft.to/lastmile_qr_scan", "android": "https://dc.lft.to/lastmile_qr_scan"}, "lon": -76.9895135, "type": "electric_scooter"}, {"bike_id": "841c32984f5c083ba7952c263c5aa720", "is_reserved": 0, "fusion_lon": 0.0, "lat": 38.903469666666666, "is_disabled": 0, "name": "841c32984f5c083ba7952c263c5aa720", "fusion_lat": 0.0, "rental_uris": {"ios": "https://dc.lft.to/lastmile_qr_scan", "android": "https://dc.lft.to/lastmile_qr_scan"}, "lon": -77.038238, "type": "electric_scooter"}, {"bike_id": "369272291cb88e0baff4d6c8c34d4255", "is_reserved": 0, "fusion_lon": 0.0, "lat": 38.916802833333335, "is_disabled": 0, "name": "369272291cb88e0baff4d6c8c34d4255", "fusion_lat": 0.0, "rental_uris": {"ios": "https://dc.lft.to/lastmile_qr_scan", "android": "https://dc.lft.to/lastmile_qr_scan"}, "lon": -77.03635633333333, "type": "electric_scooter"}, {"bike_id": "4d29fee9a8122ba2a00c5c234767d0ad", "is_reserved": 0, "fusion_lon": 0.0, "lat": 38.936023166666665, "is_disabled": 0, "name": "4d29fee9a8122ba2a00c5c234767d0ad", "fusion_lat": 0.0, "rental_uris": {"ios": "https://dc.lft.to/lastmile_qr_scan", "android": "https://dc.lft.to/lastmile_qr_scan"}, "lon": -77.0586035, "type": "electric_scooter"}, {"bike_id": "216d3a54fa0da42cb8ab6b4947cef608", "is_reserved": 0, "fusion_lon": 0.0, "lat": 38.884071, "is_disabled": 0, "name": "216d3a54fa0da42cb8ab6b4947cef608", "fusion_lat": 0.0, "rental_uris": {"ios": "https://dc.lft.to/lastmile_qr_scan", "android": "https://dc.lft.to/lastmile_qr_scan"}, "lon": -77.0151045, "type": "electric_scooter"}, {"bike_id": "4b9f5696f736e0c08e59add87c3c937d", "is_reserved": 0, "fusion_lon": 0.0, "lat": 38.918010333333335, "is_disabled": 0, "name": "4b9f5696f736e0c08e59add87c3c937d", "fusion_lat": 0.0, "rental_uris": {"ios": "https://dc.lft.to/lastmile_qr_scan", "android": "https://dc.lft.to/lastmile_qr_scan"}, "lon": -77.03437566666666, "type": "electric_scooter"}, {"bike_id": "89a5b0dbd6050fcdbdfbd17e64f872e0", "is_reserved": 0, "fusion_lon": 0.0, "lat": 38.901267, "is_disabled": 0, "name": "89a5b0dbd6050fcdbdfbd17e64f872e0", "fusion_lat": 0.0, "rental_uris": {"ios": "https://dc.lft.to/lastmile_qr_scan", "android": "https://dc.lft.to/lastmile_qr_scan"}, "lon": -77.04387766666666, "type": "electric_scooter"}, {"bike_id": "caf746f5e5ab51239e3091b9b38f2278", "is_reserved": 0, "fusion_lon": 0.0, "lat": 38.990925833333336, "is_disabled": 0, "name": "caf746f5e5ab51239e3091b9b38f2278", "fusion_lat": 0.0, "rental_uris": {"ios": "https://dc.lft.to/lastmile_qr_scan", "android": "https://dc.lft.to/lastmile_qr_scan"}, "lon": -76.8749535, "type": "electric_bike"}, {"bike_id": "53cf665bf3fa76670b741dda7383d04e", "is_reserved": 0, "fusion_lon": 0.0, "lat": 38.90007266666667, "is_disabled": 0, "name": "53cf665bf3fa76670b741dda7383d04e", "fusion_lat": 0.0, "rental_uris": {"ios": "https://dc.lft.to/lastmile_qr_scan", "android": "https://dc.lft.to/lastmile_qr_scan"}, "lon": -77.04003383333334, "type": "electric_scooter"}, {"bike_id": "6b2c1432ef91dfc7d3b7a480a23f007b", "is_reserved": 0, "fusion_lon": 0.0, "lat": 38.878403666666664, "is_disabled": 0, "name": "6b2c1432ef91dfc7d3b7a480a23f007b", "fusion_lat": 0.0, "rental_uris": {"ios": "https://dc.lft.to/lastmile_qr_scan", "android": "https://dc.lft.to/lastmile_qr_scan"}, "lon": -77.02277283333333, "type": "electric_scooter"}, {"bike_id": "5fd7c4d6910a0a3ffb798ac4c136f35e", "is_reserved": 0, "fusion_lon": 0.0, "lat": 38.90525733333333, "is_disabled": 0, "name": "5fd7c4d6910a0a3ffb798ac4c136f35e", "fusion_lat": 0.0, "rental_uris": {"ios": "https://dc.lft.to/lastmile_qr_scan", "android": "https://dc.lft.to/lastmile_qr_scan"}, "lon": -77.06158583333334, "type": "electric_scooter"}, {"bike_id": "980d21e8fb87592f8f7d4b483a1ad104", "is_reserved": 0, "fusion_lon": 0.0, "lat": 38.828729333333335, "is_disabled": 0, "name": "980d21e8fb87592f8f7d4b483a1ad104", "fusion_lat": 0.0, "rental_uris": {"ios": "https://dc.lft.to/lastmile_qr_scan", "android": "https://dc.lft.to/lastmile_qr_scan"}, "lon": -77.112232, "type": "electric_bike"}, {"bike_id": "3c2cd4a2cba4968cb0a1f355c4a53c5b", "is_reserved": 0, "fusion_lon": 0.0, "lat": 38.89829816666666, "is_disabled": 0, "name": "3c2cd4a2cba4968cb0a1f355c4a53c5b", "fusion_lat": 0.0, "rental_uris": {"ios": "https://dc.lft.to/lastmile_qr_scan", "android": "https://dc.lft.to/lastmile_qr_scan"}, "lon": -76.92639316666667, "type": "electric_scooter"}, {"bike_id": "5dcc6f10ef7bec83767567ef4807cbb9", "is_reserved": 0, "fusion_lon": 0.0, "lat": 38.92405333333333, "is_disabled": 0, "name": "5dcc6f10ef7bec83767567ef4807cbb9", "fusion_lat": 0.0, "rental_uris": {"ios": "https://dc.lft.to/lastmile_qr_scan", "android": "https://dc.lft.to/lastmile_qr_scan"}, "lon": -77.02541883333333, "type": "electric_scooter"}, {"bike_id": "ab7507bb425d40efbb70dc55eab977f6", "is_reserved": 0, "fusion_lon": 0.0, "lat": 38.867011, "is_disabled": 0, "name": "ab7507bb425d40efbb70dc55eab977f6", "fusion_lat": 0.0, "rental_uris": {"ios": "https://dc.lft.to/lastmile_qr_scan", "android": "https://dc.lft.to/lastmile_qr_scan"}, "lon": -76.98708383333333, "type": "electric_scooter"}, {"bike_id": "9a296e61cfa8b11a6008edc0e53e4b01", "is_reserved": 0, "fusion_lon": 0.0, "lat": 38.922925666666664, "is_disabled": 0, "name": "9a296e61cfa8b11a6008edc0e53e4b01", "fusion_lat": 0.0, "rental_uris": {"ios": "https://dc.lft.to/lastmile_qr_scan", "android": "https://dc.lft.to/lastmile_qr_scan"}, "lon": -77.03200916666667, "type": "electric_scooter"}, {"bike_id": "b058d4ff54f98a7dc37d6d1ed402fa7f", "is_reserved": 0, "fusion_lon": 0.0, "lat": 38.905319166666665, "is_disabled": 0, "name": "b058d4ff54f98a7dc37d6d1ed402fa7f", "fusion_lat": 0.0, "rental_uris": {"ios": "https://dc.lft.to/lastmile_qr_scan", "android": "https://dc.lft.to/lastmile_qr_scan"}, "lon": -76.99803183333333, "type": "electric_bike"}, {"bike_id": "8f915ba52c361be18de41e59d68a2089", "is_reserved": 0, "fusion_lon": 0.0, "lat": 38.884343333333334, "is_disabled": 0, "name": "8f915ba52c361be18de41e59d68a2089", "fusion_lat": 0.0, "rental_uris": {"ios": "https://dc.lft.to/lastmile_qr_scan", "android": "https://dc.lft.to/lastmile_qr_scan"}, "lon": -76.957547, "type": "electric_scooter"}, {"bike_id": "0429cb5ccd50b80d29a4e9808715609d", "is_reserved": 0, "fusion_lon": 0.0, "lat": 38.91334166666667, "is_disabled": 0, "name": "0429cb5ccd50b80d29a4e9808715609d", "fusion_lat": 0.0, "rental_uris": {"ios": "https://dc.lft.to/lastmile_qr_scan", "android": "https://dc.lft.to/lastmile_qr_scan"}, "lon": -77.030422, "type": "electric_scooter"}, {"bike_id": "b5b6d7ea3a96155419eae83c12e17564", "is_reserved": 0, "fusion_lon": 0.0, "lat": 38.9229185, "is_disabled": 0, "name": "b5b6d7ea3a96155419eae83c12e17564", "fusion_lat": 0.0, "rental_uris": {"ios": "https://dc.lft.to/lastmile_qr_scan", "android": "https://dc.lft.to/lastmile_qr_scan"}, "lon": -77.020681, "type": "electric_scooter"}, {"bike_id": "1ccb622bc9d5422eaac91e73c1a6cea5", "is_reserved": 0, "fusion_lon": 0.0, "lat": 38.941567, "is_disabled": 0, "name": "1ccb622bc9d5422eaac91e73c1a6cea5", "fusion_lat": 0.0, "rental_uris": {"ios": "https://dc.lft.to/lastmile_qr_scan", "android": "https://dc.lft.to/lastmile_qr_scan"}, "lon": -77.03653933333334, "type": "electric_scooter"}, {"bike_id": "efbf218b0c5fb7962b2ae659837b1a3a", "is_reserved": 0, "fusion_lon": 0.0, "lat": 38.99092616666667, "is_disabled": 0, "name": "efbf218b0c5fb7962b2ae659837b1a3a", "fusion_lat": 0.0, "rental_uris": {"ios": "https://dc.lft.to/lastmile_qr_scan", "android": "https://dc.lft.to/lastmile_qr_scan"}, "lon": -76.87495133333333, "type": "electric_bike"}, {"bike_id": "9588effb58c5881a54a87d86463d8d99", "is_reserved": 0, "fusion_lon": 0.0, "lat": 38.89675, "is_disabled": 0, "name": "9588effb58c5881a54a87d86463d8d99", "fusion_lat": 0.0, "rental_uris": {"ios": "https://dc.lft.to/lastmile_qr_scan", "android": "https://dc.lft.to/lastmile_qr_scan"}, "lon": -77.05398266666667, "type": "electric_scooter"}, {"bike_id": "b9c6a9a05e907e942b9e5d9269c51169", "is_reserved": 0, "fusion_lon": 0.0, "lat": 38.913374833333336, "is_disabled": 0, "name": "b9c6a9a05e907e942b9e5d9269c51169", "fusion_lat": 0.0, "rental_uris": {"ios": "https://dc.lft.to/lastmile_qr_scan", "android": "https://dc.lft.to/lastmile_qr_scan"}, "lon": -77.0311905, "type": "electric_scooter"}, {"bike_id": "41fc57485cd609d6b010bda770cbf682", "is_reserved": 0, "fusion_lon": 0.0, "lat": 38.9002845, "is_disabled": 0, "name": "41fc57485cd609d6b010bda770cbf682", "fusion_lat": 0.0, "rental_uris": {"ios": "https://dc.lft.to/lastmile_qr_scan", "android": "https://dc.lft.to/lastmile_qr_scan"}, "lon": -76.99532866666667, "type": "electric_scooter"}, {"bike_id": "7293499469148c5d1bf75a64081ebb7c", "is_reserved": 0, "fusion_lon": 0.0, "lat": 38.927438333333335, "is_disabled": 0, "name": "7293499469148c5d1bf75a64081ebb7c", "fusion_lat": 0.0, "rental_uris": {"ios": "https://dc.lft.to/lastmile_qr_scan", "android": "https://dc.lft.to/lastmile_qr_scan"}, "lon": -77.01203716666667, "type": "electric_scooter"}, {"bike_id": "1b9cb1fc260094a7c6c6ad6cbe1540bd", "is_reserved": 0, "fusion_lon": 0.0, "lat": 38.90371916666667, "is_disabled": 0, "name": "1b9cb1fc260094a7c6c6ad6cbe1540bd", "fusion_lat": 0.0, "rental_uris": {"ios": "https://dc.lft.to/lastmile_qr_scan", "android": "https://dc.lft.to/lastmile_qr_scan"}, "lon": -77.01903183333333, "type": "electric_scooter"}, {"bike_id": "bca2d0885eb9a928857bc8a7878d2b9c", "is_reserved": 0, "fusion_lon": 0.0, "lat": 38.920112, "is_disabled": 0, "name": "bca2d0885eb9a928857bc8a7878d2b9c", "fusion_lat": 0.0, "rental_uris": {"ios": "https://dc.lft.to/lastmile_qr_scan", "android": "https://dc.lft.to/lastmile_qr_scan"}, "lon": -77.03882816666666, "type": "electric_scooter"}, {"bike_id": "dbb219516c37f3654d076c01a392fd62", "is_reserved": 0, "fusion_lon": 0.0, "lat": 38.94051283333334, "is_disabled": 0, "name": "dbb219516c37f3654d076c01a392fd62", "fusion_lat": 0.0, "rental_uris": {"ios": "https://dc.lft.to/lastmile_qr_scan", "android": "https://dc.lft.to/lastmile_qr_scan"}, "lon": -77.09268316666666, "type": "electric_scooter"}, {"bike_id": "11a81791db0fb10ba7295a84e4afc88b", "is_reserved": 0, "fusion_lon": 0.0, "lat": 38.89797566666667, "is_disabled": 0, "name": "11a81791db0fb10ba7295a84e4afc88b", "fusion_lat": 0.0, "rental_uris": {"ios": "https://dc.lft.to/lastmile_qr_scan", "android": "https://dc.lft.to/lastmile_qr_scan"}, "lon": -77.02934533333334, "type": "electric_scooter"}, {"bike_id": "3dc6cca44964f2b796adef0c08a6b29f", "is_reserved": 0, "fusion_lon": 0.0, "lat": 38.867014833333336, "is_disabled": 0, "name": "3dc6cca44964f2b796adef0c08a6b29f", "fusion_lat": 0.0, "rental_uris": {"ios": "https://dc.lft.to/lastmile_qr_scan", "android": "https://dc.lft.to/lastmile_qr_scan"}, "lon": -76.98709516666666, "type": "electric_scooter"}, {"bike_id": "e3f3f56912cd633462c925d5a79958b9", "is_reserved": 0, "fusion_lon": 0.0, "lat": 38.903246, "is_disabled": 0, "name": "e3f3f56912cd633462c925d5a79958b9", "fusion_lat": 0.0, "rental_uris": {"ios": "https://dc.lft.to/lastmile_qr_scan", "android": "https://dc.lft.to/lastmile_qr_scan"}, "lon": -77.0382975, "type": "electric_scooter"}, {"bike_id": "e828ad5cffbb66de3a1bd13284b84af8", "is_reserved": 0, "fusion_lon": 0.0, "lat": 38.974237, "is_disabled": 0, "name": "e828ad5cffbb66de3a1bd13284b84af8", "fusion_lat": 0.0, "rental_uris": {"ios": "https://dc.lft.to/lastmile_qr_scan", "android": "https://dc.lft.to/lastmile_qr_scan"}, "lon": -77.01519933333333, "type": "electric_scooter"}, {"bike_id": "035f63a2f57c5500adb98fe66f7db669", "is_reserved": 0, "fusion_lon": 0.0, "lat": 38.84296583333333, "is_disabled": 0, "name": "035f63a2f57c5500adb98fe66f7db669", "fusion_lat": 0.0, "rental_uris": {"ios": "https://dc.lft.to/lastmile_qr_scan", "android": "https://dc.lft.to/lastmile_qr_scan"}, "lon": -76.99948966666666, "type": "electric_scooter"}, {"bike_id": "5c32fa955d358fcfcf7a7961c4ec6483", "is_reserved": 0, "fusion_lon": 0.0, "lat": 38.88407083333333, "is_disabled": 0, "name": "5c32fa955d358fcfcf7a7961c4ec6483", "fusion_lat": 0.0, "rental_uris": {"ios": "https://dc.lft.to/lastmile_qr_scan", "android": "https://dc.lft.to/lastmile_qr_scan"}, "lon": -76.985867, "type": "electric_scooter"}, {"bike_id": "01373ac9e933e42f0949585dc87ab621", "is_reserved": 0, "fusion_lon": 0.0, "lat": 38.9174255, "is_disabled": 0, "name": "01373ac9e933e42f0949585dc87ab621", "fusion_lat": 0.0, "rental_uris": {"ios": "https://dc.lft.to/lastmile_qr_scan", "android": "https://dc.lft.to/lastmile_qr_scan"}, "lon": -77.00752416666667, "type": "electric_scooter"}, {"bike_id": "ad112381ede47de705deaa14ee8951f5", "is_reserved": 0, "fusion_lon": 0.0, "lat": 38.9074905, "is_disabled": 0, "name": "ad112381ede47de705deaa14ee8951f5", "fusion_lat": 0.0, "rental_uris": {"ios": "https://dc.lft.to/lastmile_qr_scan", "android": "https://dc.lft.to/lastmile_qr_scan"}, "lon": -77.00102516666666, "type": "electric_scooter"}, {"bike_id": "2f4b061e3751a1e45dbf8ea95aca94f5", "is_reserved": 0, "fusion_lon": 0.0, "lat": 38.896834, "is_disabled": 0, "name": "2f4b061e3751a1e45dbf8ea95aca94f5", "fusion_lat": 0.0, "rental_uris": {"ios": "https://dc.lft.to/lastmile_qr_scan", "android": "https://dc.lft.to/lastmile_qr_scan"}, "lon": -76.9961575, "type": "electric_scooter"}, {"bike_id": "4d07a84ac1b2721730b7d27f5f108bb7", "is_reserved": 0, "fusion_lon": 0.0, "lat": 38.89812766666667, "is_disabled": 0, "name": "4d07a84ac1b2721730b7d27f5f108bb7", "fusion_lat": 0.0, "rental_uris": {"ios": "https://dc.lft.to/lastmile_qr_scan", "android": "https://dc.lft.to/lastmile_qr_scan"}, "lon": -77.00597383333333, "type": "electric_bike"}, {"bike_id": "12061e07ae09f6849f7d0b4ea3c4d625", "is_reserved": 0, "fusion_lon": 0.0, "lat": 38.915911333333334, "is_disabled": 0, "name": "12061e07ae09f6849f7d0b4ea3c4d625", "fusion_lat": 0.0, "rental_uris": {"ios": "https://dc.lft.to/lastmile_qr_scan", "android": "https://dc.lft.to/lastmile_qr_scan"}, "lon": -77.04345683333334, "type": "electric_scooter"}, {"bike_id": "225a646053ebc4086d126b0b00e235c5", "is_reserved": 0, "fusion_lon": 0.0, "lat": 38.91698366666667, "is_disabled": 0, "name": "225a646053ebc4086d126b0b00e235c5", "fusion_lat": 0.0, "rental_uris": {"ios": "https://dc.lft.to/lastmile_qr_scan", "android": "https://dc.lft.to/lastmile_qr_scan"}, "lon": -77.00810883333334, "type": "electric_scooter"}, {"bike_id": "19851a892820a26a0c5e5bb76149988a", "is_reserved": 0, "fusion_lon": 0.0, "lat": 38.90370016666667, "is_disabled": 0, "name": "19851a892820a26a0c5e5bb76149988a", "fusion_lat": 0.0, "rental_uris": {"ios": "https://dc.lft.to/lastmile_qr_scan", "android": "https://dc.lft.to/lastmile_qr_scan"}, "lon": -77.04479733333334, "type": "electric_scooter"}, {"bike_id": "4707882145ede5af026c6c73d3521764", "is_reserved": 0, "fusion_lon": 0.0, "lat": 38.9511175, "is_disabled": 0, "name": "4707882145ede5af026c6c73d3521764", "fusion_lat": 0.0, "rental_uris": {"ios": "https://dc.lft.to/lastmile_qr_scan", "android": "https://dc.lft.to/lastmile_qr_scan"}, "lon": -77.01577866666666, "type": "electric_scooter"}, {"bike_id": "25836c07046a71e9a3d0be56722a9663", "is_reserved": 0, "fusion_lon": 0.0, "lat": 38.93091733333333, "is_disabled": 0, "name": "25836c07046a71e9a3d0be56722a9663", "fusion_lat": 0.0, "rental_uris": {"ios": "https://dc.lft.to/lastmile_qr_scan", "android": "https://dc.lft.to/lastmile_qr_scan"}, "lon": -77.02504766666667, "type": "electric_scooter"}, {"bike_id": "aece7fb0be4c4834fc651cc285f41bc5", "is_reserved": 0, "fusion_lon": 0.0, "lat": 38.9036205, "is_disabled": 0, "name": "aece7fb0be4c4834fc651cc285f41bc5", "fusion_lat": 0.0, "rental_uris": {"ios": "https://dc.lft.to/lastmile_qr_scan", "android": "https://dc.lft.to/lastmile_qr_scan"}, "lon": -77.040183, "type": "electric_scooter"}, {"bike_id": "21236e940b54314143a6d43d202fab2d", "is_reserved": 0, "fusion_lon": 0.0, "lat": 38.94014216666667, "is_disabled": 0, "name": "21236e940b54314143a6d43d202fab2d", "fusion_lat": 0.0, "rental_uris": {"ios": "https://dc.lft.to/lastmile_qr_scan", "android": "https://dc.lft.to/lastmile_qr_scan"}, "lon": -77.07172783333333, "type": "electric_scooter"}, {"bike_id": "615dc201d37a17cd4d34600f68f9878c", "is_reserved": 0, "fusion_lon": 0.0, "lat": 38.91566133333333, "is_disabled": 0, "name": "615dc201d37a17cd4d34600f68f9878c", "fusion_lat": 0.0, "rental_uris": {"ios": "https://dc.lft.to/lastmile_qr_scan", "android": "https://dc.lft.to/lastmile_qr_scan"}, "lon": -77.03768916666667, "type": "electric_scooter"}, {"bike_id": "3e812b5c8801edb9bc6da44c46d90141", "is_reserved": 0, "fusion_lon": 0.0, "lat": 38.9072995, "is_disabled": 0, "name": "3e812b5c8801edb9bc6da44c46d90141", "fusion_lat": 0.0, "rental_uris": {"ios": "https://dc.lft.to/lastmile_qr_scan", "android": "https://dc.lft.to/lastmile_qr_scan"}, "lon": -76.98596216666667, "type": "electric_scooter"}, {"bike_id": "ac6f2b06dce52cdfc3bfb6e2540861ce", "is_reserved": 0, "fusion_lon": 0.0, "lat": 38.9397575, "is_disabled": 0, "name": "ac6f2b06dce52cdfc3bfb6e2540861ce", "fusion_lat": 0.0, "rental_uris": {"ios": "https://dc.lft.to/lastmile_qr_scan", "android": "https://dc.lft.to/lastmile_qr_scan"}, "lon": -77.028886, "type": "electric_scooter"}, {"bike_id": "e5155b42995d9c6c79cf724896e3edee", "is_reserved": 0, "fusion_lon": 0.0, "lat": 38.89955916666667, "is_disabled": 0, "name": "e5155b42995d9c6c79cf724896e3edee", "fusion_lat": 0.0, "rental_uris": {"ios": "https://dc.lft.to/lastmile_qr_scan", "android": "https://dc.lft.to/lastmile_qr_scan"}, "lon": -77.03181133333334, "type": "electric_scooter"}, {"bike_id": "0f1bed4b58897fabedc2426527f46183", "is_reserved": 0, "fusion_lon": 0.0, "lat": 38.966242, "is_disabled": 0, "name": "0f1bed4b58897fabedc2426527f46183", "fusion_lat": 0.0, "rental_uris": {"ios": "https://dc.lft.to/lastmile_qr_scan", "android": "https://dc.lft.to/lastmile_qr_scan"}, "lon": -76.97666533333333, "type": "electric_bike"}, {"bike_id": "413bb95d3e19e35f04ed9fd4994a6ef2", "is_reserved": 0, "fusion_lon": 0.0, "lat": 38.9077055, "is_disabled": 0, "name": "413bb95d3e19e35f04ed9fd4994a6ef2", "fusion_lat": 0.0, "rental_uris": {"ios": "https://dc.lft.to/lastmile_qr_scan", "android": "https://dc.lft.to/lastmile_qr_scan"}, "lon": -77.0691035, "type": "electric_scooter"}, {"bike_id": "608a3c216f9d48aefaf08f8f599fe8d9", "is_reserved": 0, "fusion_lon": 0.0, "lat": 38.909586166666664, "is_disabled": 0, "name": "608a3c216f9d48aefaf08f8f599fe8d9", "fusion_lat": 0.0, "rental_uris": {"ios": "https://dc.lft.to/lastmile_qr_scan", "android": "https://dc.lft.to/lastmile_qr_scan"}, "lon": -77.0327085, "type": "electric_scooter"}, {"bike_id": "01257d54f39b8b322f811482561d7c4d", "is_reserved": 0, "fusion_lon": 0.0, "lat": 38.916723, "is_disabled": 0, "name": "01257d54f39b8b322f811482561d7c4d", "fusion_lat": 0.0, "rental_uris": {"ios": "https://dc.lft.to/lastmile_qr_scan", "android": "https://dc.lft.to/lastmile_qr_scan"}, "lon": -77.0231075, "type": "electric_scooter"}, {"bike_id": "1a4846e052edcd737014946f587904f7", "is_reserved": 0, "fusion_lon": 0.0, "lat": 38.930642666666664, "is_disabled": 0, "name": "1a4846e052edcd737014946f587904f7", "fusion_lat": 0.0, "rental_uris": {"ios": "https://dc.lft.to/lastmile_qr_scan", "android": "https://dc.lft.to/lastmile_qr_scan"}, "lon": -77.03814733333333, "type": "electric_scooter"}, {"bike_id": "2986efebd1391deccb52ec00c7616598", "is_reserved": 0, "fusion_lon": 0.0, "lat": 38.999402, "is_disabled": 0, "name": "2986efebd1391deccb52ec00c7616598", "fusion_lat": 0.0, "rental_uris": {"ios": "https://dc.lft.to/lastmile_qr_scan", "android": "https://dc.lft.to/lastmile_qr_scan"}, "lon": -77.01764433333334, "type": "electric_bike"}, {"bike_id": "d4dc40c8c9afb8d7c07f42a31cea42d7", "is_reserved": 0, "fusion_lon": 0.0, "lat": 38.8669615, "is_disabled": 0, "name": "d4dc40c8c9afb8d7c07f42a31cea42d7", "fusion_lat": 0.0, "rental_uris": {"ios": "https://dc.lft.to/lastmile_qr_scan", "android": "https://dc.lft.to/lastmile_qr_scan"}, "lon": -76.98708283333333, "type": "electric_scooter"}, {"bike_id": "4f315ededf7a994d83f5afce5221e237", "is_reserved": 0, "fusion_lon": 0.0, "lat": 38.92052833333333, "is_disabled": 0, "name": "4f315ededf7a994d83f5afce5221e237", "fusion_lat": 0.0, "rental_uris": {"ios": "https://dc.lft.to/lastmile_qr_scan", "android": "https://dc.lft.to/lastmile_qr_scan"}, "lon": -77.03337633333334, "type": "electric_scooter"}, {"bike_id": "c2716f95345fb6dcbfac1ef358f85740", "is_reserved": 0, "fusion_lon": 0.0, "lat": 38.9028245, "is_disabled": 0, "name": "c2716f95345fb6dcbfac1ef358f85740", "fusion_lat": 0.0, "rental_uris": {"ios": "https://dc.lft.to/lastmile_qr_scan", "android": "https://dc.lft.to/lastmile_qr_scan"}, "lon": -77.0384205, "type": "electric_scooter"}, {"bike_id": "04da38ff7a95cf8769e93defc3a96f9c", "is_reserved": 0, "fusion_lon": 0.0, "lat": 38.909394666666664, "is_disabled": 0, "name": "04da38ff7a95cf8769e93defc3a96f9c", "fusion_lat": 0.0, "rental_uris": {"ios": "https://dc.lft.to/lastmile_qr_scan", "android": "https://dc.lft.to/lastmile_qr_scan"}, "lon": -77.02177833333333, "type": "electric_scooter"}, {"bike_id": "be59ccb080474685644848c326c861e9", "is_reserved": 0, "fusion_lon": 0.0, "lat": 38.9275165, "is_disabled": 0, "name": "be59ccb080474685644848c326c861e9", "fusion_lat": 0.0, "rental_uris": {"ios": "https://dc.lft.to/lastmile_qr_scan", "android": "https://dc.lft.to/lastmile_qr_scan"}, "lon": -77.02482733333333, "type": "electric_scooter"}, {"bike_id": "b9a03a22d13bfe08244db44c9f90de87", "is_reserved": 0, "fusion_lon": 0.0, "lat": 38.90793466666667, "is_disabled": 0, "name": "b9a03a22d13bfe08244db44c9f90de87", "fusion_lat": 0.0, "rental_uris": {"ios": "https://dc.lft.to/lastmile_qr_scan", "android": "https://dc.lft.to/lastmile_qr_scan"}, "lon": -77.04823033333334, "type": "electric_scooter"}, {"bike_id": "b595237bf930452a6f269f2cf5d0e5cb", "is_reserved": 0, "fusion_lon": 0.0, "lat": 38.88683183333333, "is_disabled": 0, "name": "b595237bf930452a6f269f2cf5d0e5cb", "fusion_lat": 0.0, "rental_uris": {"ios": "https://dc.lft.to/lastmile_qr_scan", "android": "https://dc.lft.to/lastmile_qr_scan"}, "lon": -77.16238416666667, "type": "electric_bike"}, {"bike_id": "8b7d0c5a635e6ba785440c06e471c6e6", "is_reserved": 0, "fusion_lon": 0.0, "lat": 38.916773, "is_disabled": 0, "name": "8b7d0c5a635e6ba785440c06e471c6e6", "fusion_lat": 0.0, "rental_uris": {"ios": "https://dc.lft.to/lastmile_qr_scan", "android": "https://dc.lft.to/lastmile_qr_scan"}, "lon": -77.03687533333333, "type": "electric_scooter"}, {"bike_id": "bdabe4de7ccd9045eccbf8944d6ef98d", "is_reserved": 0, "fusion_lon": 0.0, "lat": 38.898909, "is_disabled": 0, "name": "bdabe4de7ccd9045eccbf8944d6ef98d", "fusion_lat": 0.0, "rental_uris": {"ios": "https://dc.lft.to/lastmile_qr_scan", "android": "https://dc.lft.to/lastmile_qr_scan"}, "lon": -77.040647, "type": "electric_scooter"}, {"bike_id": "295f3ea7accc2e0c6e3f907076cb04b4", "is_reserved": 0, "fusion_lon": 0.0, "lat": 38.901206, "is_disabled": 0, "name": "295f3ea7accc2e0c6e3f907076cb04b4", "fusion_lat": 0.0, "rental_uris": {"ios": "https://dc.lft.to/lastmile_qr_scan", "android": "https://dc.lft.to/lastmile_qr_scan"}, "lon": -77.04863066666667, "type": "electric_scooter"}, {"bike_id": "d967b5adee44fc2521c9f0e704864ade", "is_reserved": 0, "fusion_lon": 0.0, "lat": 38.898545166666665, "is_disabled": 0, "name": "d967b5adee44fc2521c9f0e704864ade", "fusion_lat": 0.0, "rental_uris": {"ios": "https://dc.lft.to/lastmile_qr_scan", "android": "https://dc.lft.to/lastmile_qr_scan"}, "lon": -77.04365383333334, "type": "electric_scooter"}, {"bike_id": "a040888da63052308e862c098427ec3d", "is_reserved": 0, "fusion_lon": 0.0, "lat": 38.901127, "is_disabled": 0, "name": "a040888da63052308e862c098427ec3d", "fusion_lat": 0.0, "rental_uris": {"ios": "https://dc.lft.to/lastmile_qr_scan", "android": "https://dc.lft.to/lastmile_qr_scan"}, "lon": -77.04321116666667, "type": "electric_scooter"}, {"bike_id": "6b0550364275a343b87c767b995fbec4", "is_reserved": 0, "fusion_lon": 0.0, "lat": 38.845772333333336, "is_disabled": 0, "name": "6b0550364275a343b87c767b995fbec4", "fusion_lat": 0.0, "rental_uris": {"ios": "https://dc.lft.to/lastmile_qr_scan", "android": "https://dc.lft.to/lastmile_qr_scan"}, "lon": -77.09617766666666, "type": "electric_bike"}, {"bike_id": "2021028357e4f2500d9705edece909a0", "is_reserved": 0, "fusion_lon": 0.0, "lat": 38.905318, "is_disabled": 0, "name": "2021028357e4f2500d9705edece909a0", "fusion_lat": 0.0, "rental_uris": {"ios": "https://dc.lft.to/lastmile_qr_scan", "android": "https://dc.lft.to/lastmile_qr_scan"}, "lon": -77.057641, "type": "electric_scooter"}, {"bike_id": "7639cfab22b1bebde4881dbf798f4953", "is_reserved": 0, "fusion_lon": 0.0, "lat": 38.917999, "is_disabled": 0, "name": "7639cfab22b1bebde4881dbf798f4953", "fusion_lat": 0.0, "rental_uris": {"ios": "https://dc.lft.to/lastmile_qr_scan", "android": "https://dc.lft.to/lastmile_qr_scan"}, "lon": -77.03438983333334, "type": "electric_scooter"}, {"bike_id": "45d96ea8446096de7d8c71325e246e2d", "is_reserved": 0, "fusion_lon": 0.0, "lat": 38.929635, "is_disabled": 0, "name": "45d96ea8446096de7d8c71325e246e2d", "fusion_lat": 0.0, "rental_uris": {"ios": "https://dc.lft.to/lastmile_qr_scan", "android": "https://dc.lft.to/lastmile_qr_scan"}, "lon": -77.01146883333334, "type": "electric_scooter"}, {"bike_id": "9255c7808d333aee09b6809096b13590", "is_reserved": 0, "fusion_lon": 0.0, "lat": 38.8637025, "is_disabled": 0, "name": "9255c7808d333aee09b6809096b13590", "fusion_lat": 0.0, "rental_uris": {"ios": "https://dc.lft.to/lastmile_qr_scan", "android": "https://dc.lft.to/lastmile_qr_scan"}, "lon": -77.0135795, "type": "electric_scooter"}, {"bike_id": "4fbd16ebe3ab18124548d6cb9e8f0864", "is_reserved": 0, "fusion_lon": 0.0, "lat": 38.92167366666666, "is_disabled": 0, "name": "4fbd16ebe3ab18124548d6cb9e8f0864", "fusion_lat": 0.0, "rental_uris": {"ios": "https://dc.lft.to/lastmile_qr_scan", "android": "https://dc.lft.to/lastmile_qr_scan"}, "lon": -77.046873, "type": "electric_scooter"}, {"bike_id": "e94ad514eec77ba36d3acf395e168962", "is_reserved": 0, "fusion_lon": 0.0, "lat": 38.956243666666666, "is_disabled": 0, "name": "e94ad514eec77ba36d3acf395e168962", "fusion_lat": 0.0, "rental_uris": {"ios": "https://dc.lft.to/lastmile_qr_scan", "android": "https://dc.lft.to/lastmile_qr_scan"}, "lon": -77.02783216666667, "type": "electric_scooter"}, {"bike_id": "5254abd75433cd155c6a599b29d53fba", "is_reserved": 0, "fusion_lon": 0.0, "lat": 38.92051033333333, "is_disabled": 0, "name": "5254abd75433cd155c6a599b29d53fba", "fusion_lat": 0.0, "rental_uris": {"ios": "https://dc.lft.to/lastmile_qr_scan", "android": "https://dc.lft.to/lastmile_qr_scan"}, "lon": -76.99816566666667, "type": "electric_scooter"}, {"bike_id": "b75efb624c819b0f5f4c995173d5acc7", "is_reserved": 0, "fusion_lon": 0.0, "lat": 38.92953266666667, "is_disabled": 0, "name": "b75efb624c819b0f5f4c995173d5acc7", "fusion_lat": 0.0, "rental_uris": {"ios": "https://dc.lft.to/lastmile_qr_scan", "android": "https://dc.lft.to/lastmile_qr_scan"}, "lon": -77.03463833333333, "type": "electric_scooter"}, {"bike_id": "908cfb9d0fc66b810a5deb9a996dd5a2", "is_reserved": 0, "fusion_lon": 0.0, "lat": 38.87308816666667, "is_disabled": 0, "name": "908cfb9d0fc66b810a5deb9a996dd5a2", "fusion_lat": 0.0, "rental_uris": {"ios": "https://dc.lft.to/lastmile_qr_scan", "android": "https://dc.lft.to/lastmile_qr_scan"}, "lon": -77.01093383333334, "type": "electric_bike"}, {"bike_id": "ecfa86a2eba05b007305a637b3f49acb", "is_reserved": 0, "fusion_lon": 0.0, "lat": 38.93948183333333, "is_disabled": 0, "name": "ecfa86a2eba05b007305a637b3f49acb", "fusion_lat": 0.0, "rental_uris": {"ios": "https://dc.lft.to/lastmile_qr_scan", "android": "https://dc.lft.to/lastmile_qr_scan"}, "lon": -77.03260816666666, "type": "electric_scooter"}, {"bike_id": "bb8864acbd5bd09829e024531fe8690b", "is_reserved": 0, "fusion_lon": 0.0, "lat": 38.990669, "is_disabled": 0, "name": "bb8864acbd5bd09829e024531fe8690b", "fusion_lat": 0.0, "rental_uris": {"ios": "https://dc.lft.to/lastmile_qr_scan", "android": "https://dc.lft.to/lastmile_qr_scan"}, "lon": -77.10023666666666, "type": "electric_bike"}, {"bike_id": "bd8941dfdccef42170529e401e2e33a2", "is_reserved": 0, "fusion_lon": 0.0, "lat": 38.94051133333333, "is_disabled": 0, "name": "bd8941dfdccef42170529e401e2e33a2", "fusion_lat": 0.0, "rental_uris": {"ios": "https://dc.lft.to/lastmile_qr_scan", "android": "https://dc.lft.to/lastmile_qr_scan"}, "lon": -77.0297415, "type": "electric_scooter"}, {"bike_id": "7317c744d1b3d338887fbbef4fd98143", "is_reserved": 0, "fusion_lon": 0.0, "lat": 38.9019145, "is_disabled": 0, "name": "7317c744d1b3d338887fbbef4fd98143", "fusion_lat": 0.0, "rental_uris": {"ios": "https://dc.lft.to/lastmile_qr_scan", "android": "https://dc.lft.to/lastmile_qr_scan"}, "lon": -77.046463, "type": "electric_scooter"}, {"bike_id": "a8319da8e2c0f3b4906b5d62f81ac873", "is_reserved": 0, "fusion_lon": 0.0, "lat": 38.8898885, "is_disabled": 0, "name": "a8319da8e2c0f3b4906b5d62f81ac873", "fusion_lat": 0.0, "rental_uris": {"ios": "https://dc.lft.to/lastmile_qr_scan", "android": "https://dc.lft.to/lastmile_qr_scan"}, "lon": -77.00332166666666, "type": "electric_scooter"}, {"bike_id": "d1790a6c521b6529d0e2e1391d28ed3c", "is_reserved": 0, "fusion_lon": 0.0, "lat": 38.9528325, "is_disabled": 0, "name": "d1790a6c521b6529d0e2e1391d28ed3c", "fusion_lat": 0.0, "rental_uris": {"ios": "https://dc.lft.to/lastmile_qr_scan", "android": "https://dc.lft.to/lastmile_qr_scan"}, "lon": -77.00788966666667, "type": "electric_scooter"}, {"bike_id": "4455c410cb033c34c4b993b7c543a32b", "is_reserved": 0, "fusion_lon": 0.0, "lat": 38.85322383333333, "is_disabled": 0, "name": "4455c410cb033c34c4b993b7c543a32b", "fusion_lat": 0.0, "rental_uris": {"ios": "https://dc.lft.to/lastmile_qr_scan", "android": "https://dc.lft.to/lastmile_qr_scan"}, "lon": -76.9800195, "type": "electric_scooter"}, {"bike_id": "07514774a08abf251821c3a7a01d3ef1", "is_reserved": 0, "fusion_lon": 0.0, "lat": 38.9225835, "is_disabled": 0, "name": "07514774a08abf251821c3a7a01d3ef1", "fusion_lat": 0.0, "rental_uris": {"ios": "https://dc.lft.to/lastmile_qr_scan", "android": "https://dc.lft.to/lastmile_qr_scan"}, "lon": -77.0413555, "type": "electric_scooter"}, {"bike_id": "2278ca6282682ae0419cadb2f97b3681", "is_reserved": 0, "fusion_lon": 0.0, "lat": 38.9087315, "is_disabled": 0, "name": "2278ca6282682ae0419cadb2f97b3681", "fusion_lat": 0.0, "rental_uris": {"ios": "https://dc.lft.to/lastmile_qr_scan", "android": "https://dc.lft.to/lastmile_qr_scan"}, "lon": -77.03840883333334, "type": "electric_scooter"}, {"bike_id": "af33933d8c201feae91470dfbd635612", "is_reserved": 0, "fusion_lon": 0.0, "lat": 38.9208105, "is_disabled": 0, "name": "af33933d8c201feae91470dfbd635612", "fusion_lat": 0.0, "rental_uris": {"ios": "https://dc.lft.to/lastmile_qr_scan", "android": "https://dc.lft.to/lastmile_qr_scan"}, "lon": -76.999107, "type": "electric_scooter"}, {"bike_id": "fc7d8e2c48bc980ded4529bccde42d5a", "is_reserved": 0, "fusion_lon": 0.0, "lat": 38.8723675, "is_disabled": 0, "name": "fc7d8e2c48bc980ded4529bccde42d5a", "fusion_lat": 0.0, "rental_uris": {"ios": "https://dc.lft.to/lastmile_qr_scan", "android": "https://dc.lft.to/lastmile_qr_scan"}, "lon": -77.011731, "type": "electric_bike"}, {"bike_id": "0196c3b647678d116e1da59946d43108", "is_reserved": 0, "fusion_lon": 0.0, "lat": 38.91804366666667, "is_disabled": 0, "name": "0196c3b647678d116e1da59946d43108", "fusion_lat": 0.0, "rental_uris": {"ios": "https://dc.lft.to/lastmile_qr_scan", "android": "https://dc.lft.to/lastmile_qr_scan"}, "lon": -77.03435583333334, "type": "electric_scooter"}, {"bike_id": "ff78130ac14cf4f4451e4c723944ad48", "is_reserved": 0, "fusion_lon": 0.0, "lat": 38.931512833333336, "is_disabled": 0, "name": "ff78130ac14cf4f4451e4c723944ad48", "fusion_lat": 0.0, "rental_uris": {"ios": "https://dc.lft.to/lastmile_qr_scan", "android": "https://dc.lft.to/lastmile_qr_scan"}, "lon": -77.043669, "type": "electric_scooter"}, {"bike_id": "942a0794b8e740b7644d9af699b03f65", "is_reserved": 0, "fusion_lon": 0.0, "lat": 38.900340666666665, "is_disabled": 0, "name": "942a0794b8e740b7644d9af699b03f65", "fusion_lat": 0.0, "rental_uris": {"ios": "https://dc.lft.to/lastmile_qr_scan", "android": "https://dc.lft.to/lastmile_qr_scan"}, "lon": -76.9952265, "type": "electric_scooter"}, {"bike_id": "f027416a0533af90f2889e029c998c41", "is_reserved": 0, "fusion_lon": 0.0, "lat": 38.8922325, "is_disabled": 0, "name": "f027416a0533af90f2889e029c998c41", "fusion_lat": 0.0, "rental_uris": {"ios": "https://dc.lft.to/lastmile_qr_scan", "android": "https://dc.lft.to/lastmile_qr_scan"}, "lon": -77.04860233333333, "type": "electric_scooter"}, {"bike_id": "6e2d2c9197081b15670c3728b3b3b3f0", "is_reserved": 0, "fusion_lon": 0.0, "lat": 38.910555333333335, "is_disabled": 0, "name": "6e2d2c9197081b15670c3728b3b3b3f0", "fusion_lat": 0.0, "rental_uris": {"ios": "https://dc.lft.to/lastmile_qr_scan", "android": "https://dc.lft.to/lastmile_qr_scan"}, "lon": -77.04386833333334, "type": "electric_scooter"}, {"bike_id": "e854ac1c10e0cd36354f3ccc755995f3", "is_reserved": 0, "fusion_lon": 0.0, "lat": 38.935015166666666, "is_disabled": 0, "name": "e854ac1c10e0cd36354f3ccc755995f3", "fusion_lat": 0.0, "rental_uris": {"ios": "https://dc.lft.to/lastmile_qr_scan", "android": "https://dc.lft.to/lastmile_qr_scan"}, "lon": -77.02847566666667, "type": "electric_scooter"}, {"bike_id": "756dd17f117a6e2f4ca509f06b715144", "is_reserved": 0, "fusion_lon": 0.0, "lat": 38.88085266666667, "is_disabled": 0, "name": "756dd17f117a6e2f4ca509f06b715144", "fusion_lat": 0.0, "rental_uris": {"ios": "https://dc.lft.to/lastmile_qr_scan", "android": "https://dc.lft.to/lastmile_qr_scan"}, "lon": -76.98532083333333, "type": "electric_scooter"}, {"bike_id": "8f7deb49acbd19f5826e24f4632ac817", "is_reserved": 0, "fusion_lon": 0.0, "lat": 38.90319183333333, "is_disabled": 0, "name": "8f7deb49acbd19f5826e24f4632ac817", "fusion_lat": 0.0, "rental_uris": {"ios": "https://dc.lft.to/lastmile_qr_scan", "android": "https://dc.lft.to/lastmile_qr_scan"}, "lon": -77.032931, "type": "electric_scooter"}, {"bike_id": "ccfb72eb94ad6c72771794b7ee6becba", "is_reserved": 0, "fusion_lon": 0.0, "lat": 38.90019866666667, "is_disabled": 0, "name": "ccfb72eb94ad6c72771794b7ee6becba", "fusion_lat": 0.0, "rental_uris": {"ios": "https://dc.lft.to/lastmile_qr_scan", "android": "https://dc.lft.to/lastmile_qr_scan"}, "lon": -76.98699783333333, "type": "electric_scooter"}, {"bike_id": "ddc65b1d0382c431d5365461b4705000", "is_reserved": 0, "fusion_lon": 0.0, "lat": 38.91191766666667, "is_disabled": 0, "name": "ddc65b1d0382c431d5365461b4705000", "fusion_lat": 0.0, "rental_uris": {"ios": "https://dc.lft.to/lastmile_qr_scan", "android": "https://dc.lft.to/lastmile_qr_scan"}, "lon": -77.04547966666667, "type": "electric_scooter"}, {"bike_id": "8b61a7bf6b8f51fb4ff02c29ccc301eb", "is_reserved": 0, "fusion_lon": 0.0, "lat": 38.854291333333336, "is_disabled": 0, "name": "8b61a7bf6b8f51fb4ff02c29ccc301eb", "fusion_lat": 0.0, "rental_uris": {"ios": "https://dc.lft.to/lastmile_qr_scan", "android": "https://dc.lft.to/lastmile_qr_scan"}, "lon": -76.9095895, "type": "electric_bike"}, {"bike_id": "3558db04a4206995437928975ab4d6a3", "is_reserved": 0, "fusion_lon": 0.0, "lat": 38.886027, "is_disabled": 0, "name": "3558db04a4206995437928975ab4d6a3", "fusion_lat": 0.0, "rental_uris": {"ios": "https://dc.lft.to/lastmile_qr_scan", "android": "https://dc.lft.to/lastmile_qr_scan"}, "lon": -77.00564416666667, "type": "electric_scooter"}, {"bike_id": "2fe404b054e9212018eee59dbbd259d1", "is_reserved": 0, "fusion_lon": 0.0, "lat": 38.8105415, "is_disabled": 0, "name": "2fe404b054e9212018eee59dbbd259d1", "fusion_lat": 0.0, "rental_uris": {"ios": "https://dc.lft.to/lastmile_qr_scan", "android": "https://dc.lft.to/lastmile_qr_scan"}, "lon": -77.08503033333334, "type": "electric_bike"}, {"bike_id": "040ef14c1e2e78ce29e41b2b1926ee64", "is_reserved": 0, "fusion_lon": 0.0, "lat": 38.84427183333333, "is_disabled": 0, "name": "040ef14c1e2e78ce29e41b2b1926ee64", "fusion_lat": 0.0, "rental_uris": {"ios": "https://dc.lft.to/lastmile_qr_scan", "android": "https://dc.lft.to/lastmile_qr_scan"}, "lon": -76.99776666666666, "type": "electric_scooter"}, {"bike_id": "22ebde7d3c127e665d1508072bbc8822", "is_reserved": 0, "fusion_lon": 0.0, "lat": 38.92906766666667, "is_disabled": 0, "name": "22ebde7d3c127e665d1508072bbc8822", "fusion_lat": 0.0, "rental_uris": {"ios": "https://dc.lft.to/lastmile_qr_scan", "android": "https://dc.lft.to/lastmile_qr_scan"}, "lon": -77.02161833333334, "type": "electric_scooter"}, {"bike_id": "30b9e38c79464dc27af707de88146778", "is_reserved": 0, "fusion_lon": 0.0, "lat": 38.91162683333334, "is_disabled": 0, "name": "30b9e38c79464dc27af707de88146778", "fusion_lat": 0.0, "rental_uris": {"ios": "https://dc.lft.to/lastmile_qr_scan", "android": "https://dc.lft.to/lastmile_qr_scan"}, "lon": -77.00285833333334, "type": "electric_bike"}, {"bike_id": "821c055112026b8214875c22fefcba45", "is_reserved": 0, "fusion_lon": 0.0, "lat": 38.9225395, "is_disabled": 0, "name": "821c055112026b8214875c22fefcba45", "fusion_lat": 0.0, "rental_uris": {"ios": "https://dc.lft.to/lastmile_qr_scan", "android": "https://dc.lft.to/lastmile_qr_scan"}, "lon": -77.0429435, "type": "electric_scooter"}, {"bike_id": "e5632b3e164a7bb25816e84b998d5933", "is_reserved": 0, "fusion_lon": 0.0, "lat": 38.921889, "is_disabled": 0, "name": "e5632b3e164a7bb25816e84b998d5933", "fusion_lat": 0.0, "rental_uris": {"ios": "https://dc.lft.to/lastmile_qr_scan", "android": "https://dc.lft.to/lastmile_qr_scan"}, "lon": -77.0412275, "type": "electric_scooter"}, {"bike_id": "a36ed7df6a05ef55c9aa0c412eecd29b", "is_reserved": 0, "fusion_lon": 0.0, "lat": 38.90082966666667, "is_disabled": 0, "name": "a36ed7df6a05ef55c9aa0c412eecd29b", "fusion_lat": 0.0, "rental_uris": {"ios": "https://dc.lft.to/lastmile_qr_scan", "android": "https://dc.lft.to/lastmile_qr_scan"}, "lon": -77.04909366666666, "type": "electric_scooter"}, {"bike_id": "2b36d6c75c6630894a47adae8b61ccb3", "is_reserved": 0, "fusion_lon": 0.0, "lat": 38.923416833333334, "is_disabled": 0, "name": "2b36d6c75c6630894a47adae8b61ccb3", "fusion_lat": 0.0, "rental_uris": {"ios": "https://dc.lft.to/lastmile_qr_scan", "android": "https://dc.lft.to/lastmile_qr_scan"}, "lon": -77.01903166666666, "type": "electric_scooter"}, {"bike_id": "a73931556c827b3cbe54de1d27f693f5", "is_reserved": 0, "fusion_lon": 0.0, "lat": 38.92330616666667, "is_disabled": 0, "name": "a73931556c827b3cbe54de1d27f693f5", "fusion_lat": 0.0, "rental_uris": {"ios": "https://dc.lft.to/lastmile_qr_scan", "android": "https://dc.lft.to/lastmile_qr_scan"}, "lon": -77.03881816666667, "type": "electric_scooter"}, {"bike_id": "449ecb6e93cb11dd9748f8c21cfdf817", "is_reserved": 0, "fusion_lon": 0.0, "lat": 38.90144883333333, "is_disabled": 0, "name": "449ecb6e93cb11dd9748f8c21cfdf817", "fusion_lat": 0.0, "rental_uris": {"ios": "https://dc.lft.to/lastmile_qr_scan", "android": "https://dc.lft.to/lastmile_qr_scan"}, "lon": -77.0446605, "type": "electric_scooter"}, {"bike_id": "2caff0b5025b4e544084a0b9569b0c15", "is_reserved": 0, "fusion_lon": 0.0, "lat": 38.90317016666667, "is_disabled": 0, "name": "2caff0b5025b4e544084a0b9569b0c15", "fusion_lat": 0.0, "rental_uris": {"ios": "https://dc.lft.to/lastmile_qr_scan", "android": "https://dc.lft.to/lastmile_qr_scan"}, "lon": -77.04340416666666, "type": "electric_scooter"}, {"bike_id": "c09f217c53277ef8f4edea7917640be0", "is_reserved": 0, "fusion_lon": 0.0, "lat": 38.86159333333333, "is_disabled": 0, "name": "c09f217c53277ef8f4edea7917640be0", "fusion_lat": 0.0, "rental_uris": {"ios": "https://dc.lft.to/lastmile_qr_scan", "android": "https://dc.lft.to/lastmile_qr_scan"}, "lon": -76.95067416666667, "type": "electric_bike"}, {"bike_id": "7fb3241f5d9d4d1ef18f5127532993f7", "is_reserved": 0, "fusion_lon": 0.0, "lat": 38.90513983333334, "is_disabled": 0, "name": "7fb3241f5d9d4d1ef18f5127532993f7", "fusion_lat": 0.0, "rental_uris": {"ios": "https://dc.lft.to/lastmile_qr_scan", "android": "https://dc.lft.to/lastmile_qr_scan"}, "lon": -77.06869966666666, "type": "electric_scooter"},