{"data": {"bikes": [{"type": "electric_bike", "rental_uris": {"ios": "https://dc.lft.to/lastmile_qr_scan", "android": "https://dc.lft.to/lastmile_qr_scan"}, "lon": -77.11614016666667, "fusion_lon": 0.0, "is_disabled": 0, "lat": 38.854904166666664, "bike_id": "c5b00624e3d291066bdea5757245cee8", "name": "c5b00624e3d291066bdea5757245cee8", "is_reserved": 0, "fusion_lat": 0.0}, {"type": "electric_scooter", "rental_uris": {"ios": "https://dc.lft.to/lastmile_qr_scan", "android": "https://dc.lft.to/lastmile_qr_scan"}, "lon": -77.04015083333333, "fusion_lon": 0.0, "is_disabled": 0, "lat": 38.94192616666667, "bike_id": "02b5a5f40850920800cf452864a73234", "name": "02b5a5f40850920800cf452864a73234", "is_reserved": 0, "fusion_lat": 0.0}, {"type": "electric_bike", "rental_uris": {"ios": "https://dc.lft.to/lastmile_qr_scan", "android": "https://dc.lft.to/lastmile_qr_scan"}, "lon": -77.08844266666667, "fusion_lon": 0.0, "is_disabled": 0, "lat": 38.96688816666666, "bike_id": "390432fecb50d7eeb6c604b81ab056df", "name": "390432fecb50d7eeb6c604b81ab056df", "is_reserved": 0, "fusion_lat": 0.0}, {"type": "electric_scooter", "rental_uris": {"ios": "https://dc.lft.to/lastmile_qr_scan", "android": "https://dc.lft.to/lastmile_qr_scan"}, "lon": -77.01561716666667, "fusion_lon": 0.0, "is_disabled": 0, "lat": 38.879898833333336, "bike_id": "1bc31ebb3d940cbe3d78119473985ce2", "name": "1bc31ebb3d940cbe3d78119473985ce2", "is_reserved": 0, "fusion_lat": 0.0}, {"type": "electric_scooter", "rental_uris": {"ios": "https://dc.lft.to/lastmile_qr_scan", "android": "https://dc.lft.to/lastmile_qr_scan"}, "lon": -77.0261585, "fusion_lon": 0.0, "is_disabled": 0, "lat": 38.930814833333336, "bike_id": "dff6af95895e36596af0768d372b6470", "name": "dff6af95895e36596af0768d372b6470", "is_reserved": 0, "fusion_lat": 0.0}, {"type": "electric_scooter", "rental_uris": {"ios": "https://dc.lft.to/lastmile_qr_scan", "android": "https://dc.lft.to/lastmile_qr_scan"}, "lon": -77.007683, "fusion_lon": 0.0, "is_disabled": 0, "lat": 38.9071755, "bike_id": "463a132a126927dd8562ee36d0cce014", "name": "463a132a126927dd8562ee36d0cce014", "is_reserved": 0, "fusion_lat": 0.0}, {"type": "electric_bike", "rental_uris": {"ios": "https://dc.lft.to/lastmile_qr_scan", "android": "https://dc.lft.to/lastmile_qr_scan"}, "lon": -76.988101, "fusion_lon": 0.0, "is_disabled": 0, "lat": 38.911386, "bike_id": "57a06115e2339035b01bf45784c087d7", "name": "57a06115e2339035b01bf45784c087d7", "is_reserved": 0, "fusion_lat": 0.0}, {"type": "electric_scooter", "rental_uris": {"ios": "https://dc.lft.to/lastmile_qr_scan", "android": "https://dc.lft.to/lastmile_qr_scan"}, "lon": -77.04164933333334, "fusion_lon": 0.0, "is_disabled": 0, "lat": 38.93415366666667, "bike_id": "1f8ed23f182f0809ab0509b9ab1ded11", "name": "1f8ed23f182f0809ab0509b9ab1ded11", "is_reserved": 0, "fusion_lat": 0.0}, {"type": "electric_scooter", "rental_uris": {"ios": "https://dc.lft.to/lastmile_qr_scan", "android": "https://dc.lft.to/lastmile_qr_scan"}, "lon": -77.03643333333333, "fusion_lon": 0.0, "is_disabled": 0, "lat": 38.91614666666667, "bike_id": "efb284853ffedb5011e1bb2ca48c6b86", "name": "efb284853ffedb5011e1bb2ca48c6b86", "is_reserved": 0, "fusion_lat": 0.0}, {"type": "electric_scooter", "rental_uris": {"ios": "https://dc.lft.to/lastmile_qr_scan", "android": "https://dc.lft.to/lastmile_qr_scan"}, "lon": -77.0269325, "fusion_lon": 0.0, "is_disabled": 0, "lat": 38.911298, "bike_id": "c20c0e28fc93fd2772964675e3f682bb", "name": "c20c0e28fc93fd2772964675e3f682bb", "is_reserved": 0, "fusion_lat": 0.0}, {"type": "electric_bike", "rental_uris": {"ios": "https://dc.lft.to/lastmile_qr_scan", "android": "https://dc.lft.to/lastmile_qr_scan"}, "lon": -76.90074866666667, "fusion_lon": 0.0, "is_disabled": 0, "lat": 38.887595833333336, "bike_id": "647851f23f1319b064a6f2d267ebf038", "name": "647851f23f1319b064a6f2d267ebf038", "is_reserved": 0, "fusion_lat": 0.0}, {"type": "electric_bike", "rental_uris": {"ios": "https://dc.lft.to/lastmile_qr_scan", "android": "https://dc.lft.to/lastmile_qr_scan"}, "lon": -77.12012416666667, "fusion_lon": 0.0, "is_disabled": 0, "lat": 38.854991, "bike_id": "6c048cff8f7de1a7e508a303e3131e94", "name": "6c048cff8f7de1a7e508a303e3131e94", "is_reserved": 0, "fusion_lat": 0.0}, {"type": "electric_scooter", "rental_uris": {"ios": "https://dc.lft.to/lastmile_qr_scan", "android": "https://dc.lft.to/lastmile_qr_scan"}, "lon": -77.02154383333334, "fusion_lon": 0.0, "is_disabled": 0, "lat": 38.886397333333335, "bike_id": "eb3dd392baddf09adab497634909d39d", "name": "eb3dd392baddf09adab497634909d39d", "is_reserved": 0, "fusion_lat": 0.0}, {"type": "electric_scooter", "rental_uris": {"ios": "https://dc.lft.to/lastmile_qr_scan", "android": "https://dc.lft.to/lastmile_qr_scan"}, "lon": -77.03780583333334, "fusion_lon": 0.0, "is_disabled": 0, "lat": 38.93024966666667, "bike_id": "d63ba19b2c58d5a521c4b2b8b12cf1f8", "name": "d63ba19b2c58d5a521c4b2b8b12cf1f8", "is_reserved": 0, "fusion_lat": 0.0}, {"type": "electric_scooter", "rental_uris": {"ios": "https://dc.lft.to/lastmile_qr_scan", "android": "https://dc.lft.to/lastmile_qr_scan"}, "lon": -77.02514766666667, "fusion_lon": 0.0, "is_disabled": 0, "lat": 38.94623966666666, "bike_id": "12a55cfcd64efdf82725fd8db41be84a", "name": "12a55cfcd64efdf82725fd8db41be84a", "is_reserved": 0, "fusion_lat": 0.0}, {"type": "electric_scooter", "rental_uris": {"ios": "https://dc.lft.to/lastmile_qr_scan", "android": "https://dc.lft.to/lastmile_qr_scan"}, "lon": -77.0334045, "fusion_lon": 0.0, "is_disabled": 0, "lat": 38.917082, "bike_id": "fd04a07a7e2d85d61afc201ac4e9f77d", "name": "fd04a07a7e2d85d61afc201ac4e9f77d", "is_reserved": 0, "fusion_lat": 0.0}, {"type": "electric_scooter", "rental_uris": {"ios": "https://dc.lft.to/lastmile_qr_scan", "android": "https://dc.lft.to/lastmile_qr_scan"}, "lon": -77.03534233333333, "fusion_lon": 0.0, "is_disabled": 0, "lat": 38.9238625, "bike_id": "262f9b24773fd9c1f970993064d298ea", "name": "262f9b24773fd9c1f970993064d298ea", "is_reserved": 0, "fusion_lat": 0.0}, {"type": "electric_scooter", "rental_uris": {"ios": "https://dc.lft.to/lastmile_qr_scan", "android": "https://dc.lft.to/lastmile_qr_scan"}, "lon": -77.04022783333333, "fusion_lon": 0.0, "is_disabled": 0, "lat": 38.918034, "bike_id": "24caaa6cd3c36b8a5fa77919aa942629", "name": "24caaa6cd3c36b8a5fa77919aa942629", "is_reserved": 0, "fusion_lat": 0.0}, {"type": "electric_scooter", "rental_uris": {"ios": "https://dc.lft.to/lastmile_qr_scan", "android": "https://dc.lft.to/lastmile_qr_scan"}, "lon": -77.037548, "fusion_lon": 0.0, "is_disabled": 0, "lat": 38.925914666666664, "bike_id": "191340d111496f75e79467a847e053a9", "name": "191340d111496f75e79467a847e053a9", "is_reserved": 0, "fusion_lat": 0.0}, {"type": "electric_bike", "rental_uris": {"ios": "https://dc.lft.to/lastmile_qr_scan", "android": "https://dc.lft.to/lastmile_qr_scan"}, "lon": -77.0563725, "fusion_lon": 0.0, "is_disabled": 0, "lat": 38.986544, "bike_id": "8df3dcd2c84b9cb8090b8bc58a4f21bd", "name": "8df3dcd2c84b9cb8090b8bc58a4f21bd", "is_reserved": 0, "fusion_lat": 0.0}, {"type": "electric_bike", "rental_uris": {"ios": "https://dc.lft.to/lastmile_qr_scan", "android": "https://dc.lft.to/lastmile_qr_scan"}, "lon": -76.924994, "fusion_lon": 0.0, "is_disabled": 0, "lat": 38.999953833333336, "bike_id": "865cdedc1aeb1f49a622dbb8c789f16d", "name": "865cdedc1aeb1f49a622dbb8c789f16d", "is_reserved": 0, "fusion_lat": 0.0}, {"type": "electric_scooter", "rental_uris": {"ios": "https://dc.lft.to/lastmile_qr_scan", "android": "https://dc.lft.to/lastmile_qr_scan"}, "lon": -77.03214033333333, "fusion_lon": 0.0, "is_disabled": 0, "lat": 38.90971066666667, "bike_id": "dc782925266523d945111b242d69854c", "name": "dc782925266523d945111b242d69854c", "is_reserved": 0, "fusion_lat": 0.0}, {"type": "electric_scooter", "rental_uris": {"ios": "https://dc.lft.to/lastmile_qr_scan", "android": "https://dc.lft.to/lastmile_qr_scan"}, "lon": -77.0311995, "fusion_lon": 0.0, "is_disabled": 0, "lat": 38.918174, "bike_id": "4197641674b4f55072f0c51d1551106b", "name": "4197641674b4f55072f0c51d1551106b", "is_reserved": 0, "fusion_lat": 0.0}, {"type": "electric_scooter", "rental_uris": {"ios": "https://dc.lft.to/lastmile_qr_scan", "android": "https://dc.lft.to/lastmile_qr_scan"}, "lon": -77.03349683333333, "fusion_lon": 0.0, "is_disabled": 0, "lat": 38.892495, "bike_id": "e105cde1b045b3323361fa11d9c616a6", "name": "e105cde1b045b3323361fa11d9c616a6", "is_reserved": 0, "fusion_lat": 0.0}, {"type": "electric_scooter", "rental_uris": {"ios": "https://dc.lft.to/lastmile_qr_scan", "android": "https://dc.lft.to/lastmile_qr_scan"}, "lon": -77.02791883333333, "fusion_lon": 0.0, "is_disabled": 0, "lat": 38.930848833333336, "bike_id": "445e36fe875b25a40c538070d8b56ee8", "name": "445e36fe875b25a40c538070d8b56ee8", "is_reserved": 0, "fusion_lat": 0.0}, {"type": "electric_scooter", "rental_uris": {"ios": "https://dc.lft.to/lastmile_qr_scan", "android": "https://dc.lft.to/lastmile_qr_scan"}, "lon": -77.0592095, "fusion_lon": 0.0, "is_disabled": 0, "lat": 38.909479, "bike_id": "cb91223f7fb017cb04d7f5254743a3a8", "name": "cb91223f7fb017cb04d7f5254743a3a8", "is_reserved": 0, "fusion_lat": 0.0}, {"type": "electric_scooter", "rental_uris": {"ios": "https://dc.lft.to/lastmile_qr_scan", "android": "https://dc.lft.to/lastmile_qr_scan"}, "lon": -77.02028516666667, "fusion_lon": 0.0, "is_disabled": 0, "lat": 38.931941333333334, "bike_id": "bc46f907404a45391af8a386afe40d96", "name": "bc46f907404a45391af8a386afe40d96", "is_reserved": 0, "fusion_lat": 0.0}, {"type": "electric_scooter", "rental_uris": {"ios": "https://dc.lft.to/lastmile_qr_scan", "android": "https://dc.lft.to/lastmile_qr_scan"}, "lon": -77.0388255, "fusion_lon": 0.0, "is_disabled": 0, "lat": 38.90249766666667, "bike_id": "855d067607ed92e096bc41f023ffb499", "name": "855d067607ed92e096bc41f023ffb499", "is_reserved": 0, "fusion_lat": 0.0}, {"type": "electric_scooter", "rental_uris": {"ios": "https://dc.lft.to/lastmile_qr_scan", "android": "https://dc.lft.to/lastmile_qr_scan"}, "lon": -77.01137416666667, "fusion_lon": 0.0, "is_disabled": 0, "lat": 38.88526233333333, "bike_id": "539f25aea7d03d92605c648c4c41d907", "name": "539f25aea7d03d92605c648c4c41d907", "is_reserved": 0, "fusion_lat": 0.0}, {"type": "electric_scooter", "rental_uris": {"ios": "https://dc.lft.to/lastmile_qr_scan", "android": "https://dc.lft.to/lastmile_qr_scan"}, "lon": -77.04217316666667, "fusion_lon": 0.0, "is_disabled": 0, "lat": 38.92178233333333, "bike_id": "6e06db7e960f12664b821bf229fade3d", "name": "6e06db7e960f12664b821bf229fade3d", "is_reserved": 0, "fusion_lat": 0.0}, {"type": "electric_scooter", "rental_uris": {"ios": "https://dc.lft.to/lastmile_qr_scan", "android": "https://dc.lft.to/lastmile_qr_scan"}, "lon": -77.03413416666666, "fusion_lon": 0.0, "is_disabled": 0, "lat": 38.93077666666667, "bike_id": "13e6c8898710b672a0803a139839367d", "name": "13e6c8898710b672a0803a139839367d", "is_reserved": 0, "fusion_lat": 0.0}, {"type": "electric_scooter", "rental_uris": {"ios": "https://dc.lft.to/lastmile_qr_scan", "android": "https://dc.lft.to/lastmile_qr_scan"}, "lon": -77.02976216666667, "fusion_lon": 0.0, "is_disabled": 0, "lat": 38.9050525, "bike_id": "f0568d82711fe2d68a3c6469225e4ac8", "name": "f0568d82711fe2d68a3c6469225e4ac8", "is_reserved": 0, "fusion_lat": 0.0}, {"type": "electric_scooter", "rental_uris": {"ios": "https://dc.lft.to/lastmile_qr_scan", "android": "https://dc.lft.to/lastmile_qr_scan"}, "lon": -76.980823, "fusion_lon": 0.0, "is_disabled": 0, "lat": 38.9195495, "bike_id": "4a48edce1551e8c8099015f0d3bf5168", "name": "4a48edce1551e8c8099015f0d3bf5168", "is_reserved": 0, "fusion_lat": 0.0}, {"type": "electric_scooter", "rental_uris": {"ios": "https://dc.lft.to/lastmile_qr_scan", "android": "https://dc.lft.to/lastmile_qr_scan"}, "lon": -76.97699316666667, "fusion_lon": 0.0, "is_disabled": 0, "lat": 38.90249583333333, "bike_id": "37784c6e8426b2bea537fdfcc215eb72", "name": "37784c6e8426b2bea537fdfcc215eb72", "is_reserved": 0, "fusion_lat": 0.0}, {"type": "electric_bike", "rental_uris": {"ios": "https://dc.lft.to/lastmile_qr_scan", "android": "https://dc.lft.to/lastmile_qr_scan"}, "lon": -77.01014983333333, "fusion_lon": 0.0, "is_disabled": 0, "lat": 38.95596883333333, "bike_id": "f393d07610d997ac927cc08574e9d4f2", "name": "f393d07610d997ac927cc08574e9d4f2", "is_reserved": 0, "fusion_lat": 0.0}, {"type": "electric_scooter", "rental_uris": {"ios": "https://dc.lft.to/lastmile_qr_scan", "android": "https://dc.lft.to/lastmile_qr_scan"}, "lon": -77.02722333333334, "fusion_lon": 0.0, "is_disabled": 0, "lat": 38.9325355, "bike_id": "98d9414f72d59b6f9d114f0961b564df", "name": "98d9414f72d59b6f9d114f0961b564df", "is_reserved": 0, "fusion_lat": 0.0}, {"type": "electric_scooter", "rental_uris": {"ios": "https://dc.lft.to/lastmile_qr_scan", "android": "https://dc.lft.to/lastmile_qr_scan"}, "lon": -77.03956633333334, "fusion_lon": 0.0, "is_disabled": 0, "lat": 38.892463166666666, "bike_id": "e32a7057780a8434388e6f181b274ee6", "name": "e32a7057780a8434388e6f181b274ee6", "is_reserved": 0, "fusion_lat": 0.0}, {"type": "electric_scooter", "rental_uris": {"ios": "https://dc.lft.to/lastmile_qr_scan", "android": "https://dc.lft.to/lastmile_qr_scan"}, "lon": -77.043699, "fusion_lon": 0.0, "is_disabled": 0, "lat": 38.93327083333333, "bike_id": "082076d89eae806da8e1b2184ad65b16", "name": "082076d89eae806da8e1b2184ad65b16", "is_reserved": 0, "fusion_lat": 0.0}, {"type": "electric_scooter", "rental_uris": {"ios": "https://dc.lft.to/lastmile_qr_scan", "android": "https://dc.lft.to/lastmile_qr_scan"}, "lon": -77.02216966666667, "fusion_lon": 0.0, "is_disabled": 0, "lat": 38.91271583333333, "bike_id": "ffb940708ec2cb80df6e53e1d3ac15c9", "name": "ffb940708ec2cb80df6e53e1d3ac15c9", "is_reserved": 0, "fusion_lat": 0.0}, {"type": "electric_scooter", "rental_uris": {"ios": "https://dc.lft.to/lastmile_qr_scan", "android": "https://dc.lft.to/lastmile_qr_scan"}, "lon": -77.03728683333334, "fusion_lon": 0.0, "is_disabled": 0, "lat": 38.91710833333333, "bike_id": "4cbb05cf82ade8ceed02a25aaecc44ae", "name": "4cbb05cf82ade8ceed02a25aaecc44ae", "is_reserved": 0, "fusion_lat": 0.0}, {"type": "electric_scooter", "rental_uris": {"ios": "https://dc.lft.to/lastmile_qr_scan", "android": "https://dc.lft.to/lastmile_qr_scan"}, "lon": -77.03540116666667, "fusion_lon": 0.0, "is_disabled": 0, "lat": 38.92641183333333, "bike_id": "2d5bdf200d4c7ed95f7957a36b38eaf7", "name": "2d5bdf200d4c7ed95f7957a36b38eaf7", "is_reserved": 0, "fusion_lat": 0.0}, {"type": "electric_scooter", "rental_uris": {"ios": "https://dc.lft.to/lastmile_qr_scan", "android": "https://dc.lft.to/lastmile_qr_scan"}, "lon": -77.02713383333334, "fusion_lon": 0.0, "is_disabled": 0, "lat": 38.90741166666667, "bike_id": "f2d871c2ccbf05e6c84adbb1c4d4bbc4", "name": "f2d871c2ccbf05e6c84adbb1c4d4bbc4", "is_reserved": 0, "fusion_lat": 0.0}, {"type": "electric_scooter", "rental_uris": {"ios": "https://dc.lft.to/lastmile_qr_scan", "android": "https://dc.lft.to/lastmile_qr_scan"}, "lon": -77.028011, "fusion_lon": 0.0, "is_disabled": 0, "lat": 38.89234733333333, "bike_id": "04cd3a899441f84ca41157b5b505f6e8", "name": "04cd3a899441f84ca41157b5b505f6e8", "is_reserved": 0, "fusion_lat": 0.0}, {"type": "electric_scooter", "rental_uris": {"ios": "https://dc.lft.to/lastmile_qr_scan", "android": "https://dc.lft.to/lastmile_qr_scan"}, "lon": -77.04328383333333, "fusion_lon": 0.0, "is_disabled": 0, "lat": 38.892270833333335, "bike_id": "6e1a5190aecd6956c7f5ea094b0773aa", "name": "6e1a5190aecd6956c7f5ea094b0773aa", "is_reserved": 0, "fusion_lat": 0.0}, {"type": "electric_scooter", "rental_uris": {"ios": "https://dc.lft.to/lastmile_qr_scan", "android": "https://dc.lft.to/lastmile_qr_scan"}, "lon": -77.0276385, "fusion_lon": 0.0, "is_disabled": 0, "lat": 38.897350833333334, "bike_id": "0ba5ee00610055283ce247c67606086e", "name": "0ba5ee00610055283ce247c67606086e", "is_reserved": 0, "fusion_lat": 0.0}, {"type": "electric_scooter", "rental_uris": {"ios": "https://dc.lft.to/lastmile_qr_scan", "android": "https://dc.lft.to/lastmile_qr_scan"}, "lon": -77.01371233333333, "fusion_lon": 0.0, "is_disabled": 0, "lat": 38.89223483333333, "bike_id": "037c383b8ab690ea8246f5ef0ca39792", "name": "037c383b8ab690ea8246f5ef0ca39792", "is_reserved": 0, "fusion_lat": 0.0}, {"type": "electric_scooter", "rental_uris": {"ios": "https://dc.lft.to/lastmile_qr_scan", "android": "https://dc.lft.to/lastmile_qr_scan"}, "lon": -77.03343483333333, "fusion_lon": 0.0, "is_disabled": 0, "lat": 38.892255166666665, "bike_id": "d5a9bbf57fc456c4958345e518e560cf", "name": "d5a9bbf57fc456c4958345e518e560cf", "is_reserved": 0, "fusion_lat": 0.0}, {"type": "electric_scooter", "rental_uris": {"ios": "https://dc.lft.to/lastmile_qr_scan", "android": "https://dc.lft.to/lastmile_qr_scan"}, "lon": -77.003813, "fusion_lon": 0.0, "is_disabled": 0, "lat": 38.910654666666666, "bike_id": "5baf20ea136dfc02e0cf37fb71d34828", "name": "5baf20ea136dfc02e0cf37fb71d34828", "is_reserved": 0, "fusion_lat": 0.0}, {"type": "electric_scooter", "rental_uris": {"ios": "https://dc.lft.to/lastmile_qr_scan", "android": "https://dc.lft.to/lastmile_qr_scan"}, "lon": -76.989255, "fusion_lon": 0.0, "is_disabled": 0, "lat": 38.84077633333333, "bike_id": "c44f85bbc0a4b996a263596a5431b661", "name": "c44f85bbc0a4b996a263596a5431b661", "is_reserved": 0, "fusion_lat": 0.0}, {"type": "electric_bike", "rental_uris": {"ios": "https://dc.lft.to/lastmile_qr_scan", "android": "https://dc.lft.to/lastmile_qr_scan"}, "lon": -77.03149966666666, "fusion_lon": 0.0, "is_disabled": 0, "lat": 38.99445816666667, "bike_id": "b7132d0c4784cc44548e0161732479c9", "name": "b7132d0c4784cc44548e0161732479c9", "is_reserved": 0, "fusion_lat": 0.0}, {"type": "electric_bike", "rental_uris": {"ios": "https://dc.lft.to/lastmile_qr_scan", "android": "https://dc.lft.to/lastmile_qr_scan"}, "lon": -77.216481, "fusion_lon": 0.0, "is_disabled": 0, "lat": 38.9301425, "bike_id": "4a493034243b2504cbe4724e2f895e48", "name": "4a493034243b2504cbe4724e2f895e48", "is_reserved": 0, "fusion_lat": 0.0}, {"type": "electric_scooter", "rental_uris": {"ios": "https://dc.lft.to/lastmile_qr_scan", "android": "https://dc.lft.to/lastmile_qr_scan"}, "lon": -77.019461, "fusion_lon": 0.0, "is_disabled": 0, "lat": 38.948534, "bike_id": "f2a7591419de1acb432c9ae81f43f05d", "name": "f2a7591419de1acb432c9ae81f43f05d", "is_reserved": 0, "fusion_lat": 0.0}, {"type": "electric_bike", "rental_uris": {"ios": "https://dc.lft.to/lastmile_qr_scan", "android": "https://dc.lft.to/lastmile_qr_scan"}, "lon": -76.96067833333333, "fusion_lon": 0.0, "is_disabled": 0, "lat": 38.8840535, "bike_id": "0727ddf292737ef2bcfbc4255a1c3770", "name": "0727ddf292737ef2bcfbc4255a1c3770", "is_reserved": 0, "fusion_lat": 0.0}, {"type": "electric_scooter", "rental_uris": {"ios": "https://dc.lft.to/lastmile_qr_scan", "android": "https://dc.lft.to/lastmile_qr_scan"}, "lon": -77.024275, "fusion_lon": 0.0, "is_disabled": 0, "lat": 38.91854633333333, "bike_id": "d5c71272721f428ead9d2f3113783f0f", "name": "d5c71272721f428ead9d2f3113783f0f", "is_reserved": 0, "fusion_lat": 0.0}, {"type": "electric_scooter", "rental_uris": {"ios": "https://dc.lft.to/lastmile_qr_scan", "android": "https://dc.lft.to/lastmile_qr_scan"}, "lon": -77.02158983333334, "fusion_lon": 0.0, "is_disabled": 0, "lat": 38.92499433333333, "bike_id": "202d8b76287af3b056fc16567fbe7d32", "name": "202d8b76287af3b056fc16567fbe7d32", "is_reserved": 0, "fusion_lat": 0.0}, {"type": "electric_scooter", "rental_uris": {"ios": "https://dc.lft.to/lastmile_qr_scan", "android": "https://dc.lft.to/lastmile_qr_scan"}, "lon": -77.03972466666667, "fusion_lon": 0.0, "is_disabled": 0, "lat": 38.89906716666667, "bike_id": "25a699464335d6bf979c2b456f14a894", "name": "25a699464335d6bf979c2b456f14a894", "is_reserved": 0, "fusion_lat": 0.0}, {"type": "electric_scooter", "rental_uris": {"ios": "https://dc.lft.to/lastmile_qr_scan", "android": "https://dc.lft.to/lastmile_qr_scan"}, "lon": -77.02212533333334, "fusion_lon": 0.0, "is_disabled": 0, "lat": 38.8951095, "bike_id": "6f046bf5d116e647491c3c7b7676da2e", "name": "6f046bf5d116e647491c3c7b7676da2e", "is_reserved": 0, "fusion_lat": 0.0}, {"type": "electric_bike", "rental_uris": {"ios": "https://dc.lft.to/lastmile_qr_scan", "android": "https://dc.lft.to/lastmile_qr_scan"}, "lon": -77.05876283333333, "fusion_lon": 0.0, "is_disabled": 0, "lat": 38.958897666666665, "bike_id": "75129f838f37abf9efcffda43bcd90e3", "name": "75129f838f37abf9efcffda43bcd90e3", "is_reserved": 0, "fusion_lat": 0.0}, {"type": "electric_bike", "rental_uris": {"ios": "https://dc.lft.to/lastmile_qr_scan", "android": "https://dc.lft.to/lastmile_qr_scan"}, "lon": -76.95197216666666, "fusion_lon": 0.0, "is_disabled": 0, "lat": 38.936767833333334, "bike_id": "7c9f61a1a5c74ef30205c93bacd272b2", "name": "7c9f61a1a5c74ef30205c93bacd272b2", "is_reserved": 0, "fusion_lat": 0.0}, {"type": "electric_scooter", "rental_uris": {"ios": "https://dc.lft.to/lastmile_qr_scan", "android": "https://dc.lft.to/lastmile_qr_scan"}, "lon": -77.03638566666666, "fusion_lon": 0.0, "is_disabled": 0, "lat": 38.903156, "bike_id": "6382596b6d860bed23c7275601029168", "name": "6382596b6d860bed23c7275601029168", "is_reserved": 0, "fusion_lat": 0.0}, {"type": "electric_bike", "rental_uris": {"ios": "https://dc.lft.to/lastmile_qr_scan", "android": "https://dc.lft.to/lastmile_qr_scan"}, "lon": -76.972622, "fusion_lon": 0.0, "is_disabled": 0, "lat": 38.91964883333333, "bike_id": "b793e854763bf8a4d76e3db0076c61fd", "name": "b793e854763bf8a4d76e3db0076c61fd", "is_reserved": 0, "fusion_lat": 0.0}, {"type": "electric_scooter", "rental_uris": {"ios": "https://dc.lft.to/lastmile_qr_scan", "android": "https://dc.lft.to/lastmile_qr_scan"}, "lon": -77.04094916666666, "fusion_lon": 0.0, "is_disabled": 0, "lat": 38.899558166666665, "bike_id": "b9a2720b3757274c3e93c2289a4440f5", "name": "b9a2720b3757274c3e93c2289a4440f5", "is_reserved": 0, "fusion_lat": 0.0}, {"type": "electric_scooter", "rental_uris": {"ios": "https://dc.lft.to/lastmile_qr_scan", "android": "https://dc.lft.to/lastmile_qr_scan"}, "lon": -77.026194, "fusion_lon": 0.0, "is_disabled": 0, "lat": 38.94824366666667, "bike_id": "7320e0eb515bc458bf2e61e89827753a", "name": "7320e0eb515bc458bf2e61e89827753a", "is_reserved": 0, "fusion_lat": 0.0}, {"type": "electric_scooter", "rental_uris": {"ios": "https://dc.lft.to/lastmile_qr_scan", "android": "https://dc.lft.to/lastmile_qr_scan"}, "lon": -77.00071483333333, "fusion_lon": 0.0, "is_disabled": 0, "lat": 38.92550283333333, "bike_id": "b24e0973c0bf5040902220ab95144a55", "name": "b24e0973c0bf5040902220ab95144a55", "is_reserved": 0, "fusion_lat": 0.0}, {"type": "electric_scooter", "rental_uris": {"ios": "https://dc.lft.to/lastmile_qr_scan", "android": "https://dc.lft.to/lastmile_qr_scan"}, "lon": -77.00988166666667, "fusion_lon": 0.0, "is_disabled": 0, "lat": 38.872949166666665, "bike_id": "9f31e3b2f2d4b9eee8eb30dc1d3d1433", "name": "9f31e3b2f2d4b9eee8eb30dc1d3d1433", "is_reserved": 0, "fusion_lat": 0.0}, {"type": "electric_scooter", "rental_uris": {"ios": "https://dc.lft.to/lastmile_qr_scan", "android": "https://dc.lft.to/lastmile_qr_scan"}, "lon": -76.9949645, "fusion_lon": 0.0, "is_disabled": 0, "lat": 38.862460166666665, "bike_id": "83ff5759af6d65ef9c57d7903d687626", "name": "83ff5759af6d65ef9c57d7903d687626", "is_reserved": 0, "fusion_lat": 0.0}, {"type": "electric_scooter", "rental_uris": {"ios": "https://dc.lft.to/lastmile_qr_scan", "android": "https://dc.lft.to/lastmile_qr_scan"}, "lon": -77.03470566666667, "fusion_lon": 0.0, "is_disabled": 0, "lat": 38.90963766666667, "bike_id": "83fbf74a49778ba542db4f40578c695a", "name": "83fbf74a49778ba542db4f40578c695a", "is_reserved": 0, "fusion_lat": 0.0}, {"type": "electric_scooter", "rental_uris": {"ios": "https://dc.lft.to/lastmile_qr_scan", "android": "https://dc.lft.to/lastmile_qr_scan"}, "lon": -77.0400825, "fusion_lon": 0.0, "is_disabled": 0, "lat": 38.90778433333333, "bike_id": "3e4199068b540af7a95cd9c7b7bf20e0", "name": "3e4199068b540af7a95cd9c7b7bf20e0", "is_reserved": 0, "fusion_lat": 0.0}, {"type": "electric_scooter", "rental_uris": {"ios": "https://dc.lft.to/lastmile_qr_scan", "android": "https://dc.lft.to/lastmile_qr_scan"}, "lon": -77.0011815, "fusion_lon": 0.0, "is_disabled": 0, "lat": 38.91703566666666, "bike_id": "75e937f3e7d2a88badf48fd4c1eeab66", "name": "75e937f3e7d2a88badf48fd4c1eeab66", "is_reserved": 0, "fusion_lat": 0.0}, {"type": "electric_scooter", "rental_uris": {"ios": "https://dc.lft.to/lastmile_qr_scan", "android": "https://dc.lft.to/lastmile_qr_scan"}, "lon": -77.02497716666667, "fusion_lon": 0.0, "is_disabled": 0, "lat": 38.918085833333336, "bike_id": "769ec66020e73068536220239b2387f6", "name": "769ec66020e73068536220239b2387f6", "is_reserved": 0, "fusion_lat": 0.0}, {"type": "electric_scooter", "rental_uris": {"ios": "https://dc.lft.to/lastmile_qr_scan", "android": "https://dc.lft.to/lastmile_qr_scan"}, "lon": -77.02306683333333, "fusion_lon": 0.0, "is_disabled": 0, "lat": 38.91648416666666, "bike_id": "c4f658796bedf4f6f2f6faa265c3ff4c", "name": "c4f658796bedf4f6f2f6faa265c3ff4c", "is_reserved": 0, "fusion_lat": 0.0}, {"type": "electric_scooter", "rental_uris": {"ios": "https://dc.lft.to/lastmile_qr_scan", "android": "https://dc.lft.to/lastmile_qr_scan"}, "lon": -77.03412333333333, "fusion_lon": 0.0, "is_disabled": 0, "lat": 38.91922733333333, "bike_id": "6dac03a01c6e9e3abf2e41f8bc681c94", "name": "6dac03a01c6e9e3abf2e41f8bc681c94", "is_reserved": 0, "fusion_lat": 0.0}, {"type": "electric_scooter", "rental_uris": {"ios": "https://dc.lft.to/lastmile_qr_scan", "android": "https://dc.lft.to/lastmile_qr_scan"}, "lon": -77.031776, "fusion_lon": 0.0, "is_disabled": 0, "lat": 38.919233, "bike_id": "ad6c77c094b29cd252caba800d3b0a7b", "name": "ad6c77c094b29cd252caba800d3b0a7b", "is_reserved": 0, "fusion_lat": 0.0}, {"type": "electric_scooter", "rental_uris": {"ios": "https://dc.lft.to/lastmile_qr_scan", "android": "https://dc.lft.to/lastmile_qr_scan"}, "lon": -77.03346083333334, "fusion_lon": 0.0, "is_disabled": 0, "lat": 38.887593333333335, "bike_id": "6fc148349e8e4dfea8c91fd347c83d3d", "name": "6fc148349e8e4dfea8c91fd347c83d3d", "is_reserved": 0, "fusion_lat": 0.0}, {"type": "electric_scooter", "rental_uris": {"ios": "https://dc.lft.to/lastmile_qr_scan", "android": "https://dc.lft.to/lastmile_qr_scan"}, "lon": -77.03852383333333, "fusion_lon": 0.0, "is_disabled": 0, "lat": 38.91015733333333, "bike_id": "066b8b7d4e0120eef021a17f304dbd83", "name": "066b8b7d4e0120eef021a17f304dbd83", "is_reserved": 0, "fusion_lat": 0.0}, {"type": "electric_bike", "rental_uris": {"ios": "https://dc.lft.to/lastmile_qr_scan", "android": "https://dc.lft.to/lastmile_qr_scan"}, "lon": -77.13463533333334, "fusion_lon": 0.0, "is_disabled": 0, "lat": 38.85357233333333, "bike_id": "628215860403edaf981aad29360254e4", "name": "628215860403edaf981aad29360254e4", "is_reserved": 0, "fusion_lat": 0.0}, {"type": "electric_scooter", "rental_uris": {"ios": "https://dc.lft.to/lastmile_qr_scan", "android": "https://dc.lft.to/lastmile_qr_scan"}, "lon": -77.03207266666666, "fusion_lon": 0.0, "is_disabled": 0, "lat": 38.90893366666667, "bike_id": "360e135102547fe3f2339fd6e53bb332", "name": "360e135102547fe3f2339fd6e53bb332", "is_reserved": 0, "fusion_lat": 0.0}, {"type": "electric_bike", "rental_uris": {"ios": "https://dc.lft.to/lastmile_qr_scan", "android": "https://dc.lft.to/lastmile_qr_scan"}, "lon": -76.92480266666666, "fusion_lon": 0.0, "is_disabled": 0, "lat": 38.958943, "bike_id": "73546f5bf6b7923f7dbf631bf8375385", "name": "73546f5bf6b7923f7dbf631bf8375385", "is_reserved": 0, "fusion_lat": 0.0}, {"type": "electric_scooter", "rental_uris": {"ios": "https://dc.lft.to/lastmile_qr_scan", "android": "https://dc.lft.to/lastmile_qr_scan"}, "lon": -77.03253683333334, "fusion_lon": 0.0, "is_disabled": 0, "lat": 38.907234333333335, "bike_id": "89993e9179187b3e0ce4e2e4d5877e17", "name": "89993e9179187b3e0ce4e2e4d5877e17", "is_reserved": 0, "fusion_lat": 0.0}, {"type": "electric_scooter", "rental_uris": {"ios": "https://dc.lft.to/lastmile_qr_scan", "android": "https://dc.lft.to/lastmile_qr_scan"}, "lon": -77.01652, "fusion_lon": 0.0, "is_disabled": 0, "lat": 38.91055866666667, "bike_id": "6f85c1a70537380d167142f1e3c03e25", "name": "6f85c1a70537380d167142f1e3c03e25", "is_reserved": 0, "fusion_lat": 0.0}, {"type": "electric_bike", "rental_uris": {"ios": "https://dc.lft.to/lastmile_qr_scan", "android": "https://dc.lft.to/lastmile_qr_scan"}, "lon": -76.980193, "fusion_lon": 0.0, "is_disabled": 0, "lat": 38.957545, "bike_id": "29b0d73ce3b35fdd3bfa533ea46ca476", "name": "29b0d73ce3b35fdd3bfa533ea46ca476", "is_reserved": 0, "fusion_lat": 0.0}, {"type": "electric_scooter", "rental_uris": {"ios": "https://dc.lft.to/lastmile_qr_scan", "android": "https://dc.lft.to/lastmile_qr_scan"}, "lon": -76.93177716666666, "fusion_lon": 0.0, "is_disabled": 0, "lat": 38.898877666666664, "bike_id": "89e0fa1b1a1daf77f1003d6e180f7a46", "name": "89e0fa1b1a1daf77f1003d6e180f7a46", "is_reserved": 0, "fusion_lat": 0.0}, {"type": "electric_scooter", "rental_uris": {"ios": "https://dc.lft.to/lastmile_qr_scan", "android": "https://dc.lft.to/lastmile_qr_scan"}, "lon": -77.01217366666667, "fusion_lon": 0.0, "is_disabled": 0, "lat": 38.91502233333333, "bike_id": "870e2172d182e9070bf6a37372fd6915", "name": "870e2172d182e9070bf6a37372fd6915", "is_reserved": 0, "fusion_lat": 0.0}, {"type": "electric_scooter", "rental_uris": {"ios": "https://dc.lft.to/lastmile_qr_scan", "android": "https://dc.lft.to/lastmile_qr_scan"}, "lon": -77.033957, "fusion_lon": 0.0, "is_disabled": 0, "lat": 38.93125366666666, "bike_id": "189f7897d49437d3dca10035de809df7", "name": "189f7897d49437d3dca10035de809df7", "is_reserved": 0, "fusion_lat": 0.0}, {"type": "electric_scooter", "rental_uris": {"ios": "https://dc.lft.to/lastmile_qr_scan", "android": "https://dc.lft.to/lastmile_qr_scan"}, "lon": -77.04697316666666, "fusion_lon": 0.0, "is_disabled": 0, "lat": 38.909568666666665, "bike_id": "6b546598ca0d0253e1a97733e5f4fcf6", "name": "6b546598ca0d0253e1a97733e5f4fcf6", "is_reserved": 0, "fusion_lat": 0.0}, {"type": "electric_scooter", "rental_uris": {"ios": "https://dc.lft.to/lastmile_qr_scan", "android": "https://dc.lft.to/lastmile_qr_scan"}, "lon": -77.040178, "fusion_lon": 0.0, "is_disabled": 0, "lat": 38.9184165, "bike_id": "8869ed0721be0751467d86985a8806bd", "name": "8869ed0721be0751467d86985a8806bd", "is_reserved": 0, "fusion_lat": 0.0}, {"type": "electric_scooter", "rental_uris": {"ios": "https://dc.lft.to/lastmile_qr_scan", "android": "https://dc.lft.to/lastmile_qr_scan"}, "lon": -77.0267815, "fusion_lon": 0.0, "is_disabled": 0, "lat": 38.9169715, "bike_id": "68ac11322534a3ca7a5c76fed97dc1c8", "name": "68ac11322534a3ca7a5c76fed97dc1c8", "is_reserved": 0, "fusion_lat": 0.0}, {"type": "electric_scooter", "rental_uris": {"ios": "https://dc.lft.to/lastmile_qr_scan", "android": "https://dc.lft.to/lastmile_qr_scan"}, "lon": -77.03338333333333, "fusion_lon": 0.0, "is_disabled": 0, "lat": 38.892240666666666, "bike_id": "cf3234fd9f154b4f86ea20007e230045", "name": "cf3234fd9f154b4f86ea20007e230045", "is_reserved": 0, "fusion_lat": 0.0}, {"type": "electric_scooter", "rental_uris": {"ios": "https://dc.lft.to/lastmile_qr_scan", "android": "https://dc.lft.to/lastmile_qr_scan"}, "lon": -77.04106316666666, "fusion_lon": 0.0, "is_disabled": 0, "lat": 38.916982833333336, "bike_id": "37af10302561871927ceb4c17d620152", "name": "37af10302561871927ceb4c17d620152", "is_reserved": 0, "fusion_lat": 0.0}, {"type": "electric_scooter", "rental_uris": {"ios": "https://dc.lft.to/lastmile_qr_scan", "android": "https://dc.lft.to/lastmile_qr_scan"}, "lon": -77.03837733333333, "fusion_lon": 0.0, "is_disabled": 0, "lat": 38.91762816666667, "bike_id": "23ff5b576401c825622f69c102800ca3", "name": "23ff5b576401c825622f69c102800ca3", "is_reserved": 0, "fusion_lat": 0.0}, {"type": "electric_scooter", "rental_uris": {"ios": "https://dc.lft.to/lastmile_qr_scan", "android": "https://dc.lft.to/lastmile_qr_scan"}, "lon": -76.91908366666667, "fusion_lon": 0.0, "is_disabled": 0, "lat": 38.88578033333334, "bike_id": "da07e7901f9e68f6e6997c3c9ae7e888", "name": "da07e7901f9e68f6e6997c3c9ae7e888", "is_reserved": 0, "fusion_lat": 0.0}, {"type": "electric_scooter", "rental_uris": {"ios": "https://dc.lft.to/lastmile_qr_scan", "android": "https://dc.lft.to/lastmile_qr_scan"}, "lon": -77.0383825, "fusion_lon": 0.0, "is_disabled": 0, "lat": 38.917623, "bike_id": "b1dd409b8e8f78d9e35c54f3c61e34d9", "name": "b1dd409b8e8f78d9e35c54f3c61e34d9", "is_reserved": 0, "fusion_lat": 0.0}, {"type": "electric_scooter", "rental_uris": {"ios": "https://dc.lft.to/lastmile_qr_scan", "android": "https://dc.lft.to/lastmile_qr_scan"}, "lon": -77.03218066666666, "fusion_lon": 0.0, "is_disabled": 0, "lat": 38.892226666666666, "bike_id": "63d66b53d842d74fee0c2389bd4c7866", "name": "63d66b53d842d74fee0c2389bd4c7866", "is_reserved": 0, "fusion_lat": 0.0}, {"type": "electric_scooter", "rental_uris": {"ios": "https://dc.lft.to/lastmile_qr_scan", "android": "https://dc.lft.to/lastmile_qr_scan"}, "lon": -77.043534, "fusion_lon": 0.0, "is_disabled": 0, "lat": 38.9082175, "bike_id": "2c8295483e3ced5125b66b0c8efe09d2", "name": "2c8295483e3ced5125b66b0c8efe09d2", "is_reserved": 0, "fusion_lat": 0.0}, {"type": "electric_bike", "rental_uris": {"ios": "https://dc.lft.to/lastmile_qr_scan", "android": "https://dc.lft.to/lastmile_qr_scan"}, "lon": -77.11723, "fusion_lon": 0.0, "is_disabled": 0, "lat": 39.05456816666667, "bike_id": "2d461080d4465045b4cdfc907a0b8c37", "name": "2d461080d4465045b4cdfc907a0b8c37", "is_reserved": 0, "fusion_lat": 0.0}, {"type": "electric_scooter", "rental_uris": {"ios": "https://dc.lft.to/lastmile_qr_scan", "android": "https://dc.lft.to/lastmile_qr_scan"}, "lon": -77.02220033333333, "fusion_lon": 0.0, "is_disabled": 0, "lat": 38.892228333333335, "bike_id": "a205604bd81da1975816f589332832f9", "name": "a205604bd81da1975816f589332832f9", "is_reserved": 0, "fusion_lat": 0.0}, {"type": "electric_scooter", "rental_uris": {"ios": "https://dc.lft.to/lastmile_qr_scan", "android": "https://dc.lft.to/lastmile_qr_scan"}, "lon": -77.001974, "fusion_lon": 0.0, "is_disabled": 0, "lat": 38.900386, "bike_id": "c52d3e42324e42d1db0ee9d2e65e6cbc", "name": "c52d3e42324e42d1db0ee9d2e65e6cbc", "is_reserved": 0, "fusion_lat": 0.0}, {"type": "electric_scooter", "rental_uris": {"ios": "https://dc.lft.to/lastmile_qr_scan", "android": "https://dc.lft.to/lastmile_qr_scan"}, "lon": -77.02845266666667, "fusion_lon": 0.0, "is_disabled": 0, "lat": 38.93281133333333, "bike_id": "8a0a51143ce9a7be699ab8f3c2fecbf9", "name": "8a0a51143ce9a7be699ab8f3c2fecbf9", "is_reserved": 0, "fusion_lat": 0.0}, {"type": "electric_scooter", "rental_uris": {"ios": "https://dc.lft.to/lastmile_qr_scan", "android": "https://dc.lft.to/lastmile_qr_scan"}, "lon": -77.031184, "fusion_lon": 0.0, "is_disabled": 0, "lat": 38.92027433333333, "bike_id": "804706b064d352a0b3716161ec7e7e91", "name": "804706b064d352a0b3716161ec7e7e91", "is_reserved": 0, "fusion_lat": 0.0}, {"type": "electric_scooter", "rental_uris": {"ios": "https://dc.lft.to/lastmile_qr_scan", "android": "https://dc.lft.to/lastmile_qr_scan"}, "lon": -77.03913333333334, "fusion_lon": 0.0, "is_disabled": 0, "lat": 38.9182, "bike_id": "cdd44872a5da0d295296ac7ba08ffcfa", "name": "cdd44872a5da0d295296ac7ba08ffcfa", "is_reserved": 0, "fusion_lat": 0.0}, {"type": "electric_scooter", "rental_uris": {"ios": "https://dc.lft.to/lastmile_qr_scan", "android": "https://dc.lft.to/lastmile_qr_scan"}, "lon": -77.07684683333333, "fusion_lon": 0.0, "is_disabled": 0, "lat": 38.942279, "bike_id": "b7d3b668831511e2f00d83bf5af73cf8", "name": "b7d3b668831511e2f00d83bf5af73cf8", "is_reserved": 0, "fusion_lat": 0.0}, {"type": "electric_scooter", "rental_uris": {"ios": "https://dc.lft.to/lastmile_qr_scan", "android": "https://dc.lft.to/lastmile_qr_scan"}, "lon": -77.031844, "fusion_lon": 0.0, "is_disabled": 0, "lat": 38.892228, "bike_id": "76d2a65dcec1b41751e90b5b0a31c7da", "name": "76d2a65dcec1b41751e90b5b0a31c7da", "is_reserved": 0, "fusion_lat": 0.0}, {"type": "electric_scooter", "rental_uris": {"ios": "https://dc.lft.to/lastmile_qr_scan", "android": "https://dc.lft.to/lastmile_qr_scan"}, "lon": -77.02337433333334, "fusion_lon": 0.0, "is_disabled": 0, "lat": 38.917699166666665, "bike_id": "513fe74d7da450f9b89163cf02719d32", "name": "513fe74d7da450f9b89163cf02719d32", "is_reserved": 0, "fusion_lat": 0.0}, {"type": "electric_scooter", "rental_uris": {"ios": "https://dc.lft.to/lastmile_qr_scan", "android": "https://dc.lft.to/lastmile_qr_scan"}, "lon": -77.0365925, "fusion_lon": 0.0, "is_disabled": 0, "lat": 38.920268666666665, "bike_id": "6fdaec2f1afefa628e2e042c76c6ac45", "name": "6fdaec2f1afefa628e2e042c76c6ac45", "is_reserved": 0, "fusion_lat": 0.0}, {"type": "electric_scooter", "rental_uris": {"ios": "https://dc.lft.to/lastmile_qr_scan", "android": "https://dc.lft.to/lastmile_qr_scan"}, "lon": -77.04919783333334, "fusion_lon": 0.0, "is_disabled": 0, "lat": 38.900824, "bike_id": "ce7ec633fb826417c83986e026dff9bd", "name": "ce7ec633fb826417c83986e026dff9bd", "is_reserved": 0, "fusion_lat": 0.0}, {"type": "electric_scooter", "rental_uris": {"ios": "https://dc.lft.to/lastmile_qr_scan", "android": "https://dc.lft.to/lastmile_qr_scan"}, "lon": -76.99037533333333, "fusion_lon": 0.0, "is_disabled": 0, "lat": 38.891445166666664, "bike_id": "17db8b5f10f52cf43bfcb05f159ed0d6", "name": "17db8b5f10f52cf43bfcb05f159ed0d6", "is_reserved": 0, "fusion_lat": 0.0}, {"type": "electric_scooter", "rental_uris": {"ios": "https://dc.lft.to/lastmile_qr_scan", "android": "https://dc.lft.to/lastmile_qr_scan"}, "lon": -77.0407395, "fusion_lon": 0.0, "is_disabled": 0, "lat": 38.914173166666664, "bike_id": "1fad869af86b08325d8d86438710fda4", "name": "1fad869af86b08325d8d86438710fda4", "is_reserved": 0, "fusion_lat": 0.0}, {"type": "electric_scooter", "rental_uris": {"ios": "https://dc.lft.to/lastmile_qr_scan", "android": "https://dc.lft.to/lastmile_qr_scan"}, "lon": -77.04688733333333, "fusion_lon": 0.0, "is_disabled": 0, "lat": 38.915888333333335, "bike_id": "1bbb6235b22ca3b5978bbb4aa0c831bc", "name": "1bbb6235b22ca3b5978bbb4aa0c831bc", "is_reserved": 0, "fusion_lat": 0.0}, {"type": "electric_scooter", "rental_uris": {"ios": "https://dc.lft.to/lastmile_qr_scan", "android": "https://dc.lft.to/lastmile_qr_scan"}, "lon": -77.02978416666667, "fusion_lon": 0.0, "is_disabled": 0, "lat": 38.915656166666665, "bike_id": "a0a46b4ab7791562c84e5de58ab78bb1", "name": "a0a46b4ab7791562c84e5de58ab78bb1", "is_reserved": 0, "fusion_lat": 0.0}, {"type": "electric_scooter", "rental_uris": {"ios": "https://dc.lft.to/lastmile_qr_scan", "android": "https://dc.lft.to/lastmile_qr_scan"}, "lon": -77.01077183333334, "fusion_lon": 0.0, "is_disabled": 0, "lat": 38.916358833333334, "bike_id": "f545e14bbfc30efa428706948e897105", "name": "f545e14bbfc30efa428706948e897105", "is_reserved": 0, "fusion_lat": 0.0}, {"type": "electric_bike", "rental_uris": {"ios": "https://dc.lft.to/lastmile_qr_scan", "android": "https://dc.lft.to/lastmile_qr_scan"}, "lon": -77.09482383333334, "fusion_lon": 0.0, "is_disabled": 0, "lat": 39.03052683333333, "bike_id": "b8676ad0feb9a48ca9cb2c87bd6495b8", "name": "b8676ad0feb9a48ca9cb2c87bd6495b8", "is_reserved": 0, "fusion_lat": 0.0}, {"type": "electric_scooter", "rental_uris": {"ios": "https://dc.lft.to/lastmile_qr_scan", "android": "https://dc.lft.to/lastmile_qr_scan"}, "lon": -77.03047816666667, "fusion_lon": 0.0, "is_disabled": 0, "lat": 38.88437533333333, "bike_id": "346fab7764f70ffbfdac9a8cdcc744a2", "name": "346fab7764f70ffbfdac9a8cdcc744a2", "is_reserved": 0, "fusion_lat": 0.0}, {"type": "electric_scooter", "rental_uris": {"ios": "https://dc.lft.to/lastmile_qr_scan", "android": "https://dc.lft.to/lastmile_qr_scan"}, "lon": -77.02098616666666, "fusion_lon": 0.0, "is_disabled": 0, "lat": 38.875808666666664, "bike_id": "856a1f95761b01b56817f6073d3fb978", "name": "856a1f95761b01b56817f6073d3fb978", "is_reserved": 0, "fusion_lat": 0.0}, {"type": "electric_scooter", "rental_uris": {"ios": "https://dc.lft.to/lastmile_qr_scan", "android": "https://dc.lft.to/lastmile_qr_scan"}, "lon": -77.02971016666666, "fusion_lon": 0.0, "is_disabled": 0, "lat": 38.916877166666666, "bike_id": "184e8a462740ce6371d07c43f1b423eb", "name": "184e8a462740ce6371d07c43f1b423eb", "is_reserved": 0, "fusion_lat": 0.0}, {"type": "electric_scooter", "rental_uris": {"ios": "https://dc.lft.to/lastmile_qr_scan", "android": "https://dc.lft.to/lastmile_qr_scan"}, "lon": -77.04884883333334, "fusion_lon": 0.0, "is_disabled": 0, "lat": 38.91343, "bike_id": "104e16a9ff616bc6710f8925ca2d188d", "name": "104e16a9ff616bc6710f8925ca2d188d", "is_reserved": 0, "fusion_lat": 0.0}, {"type": "electric_scooter", "rental_uris": {"ios": "https://dc.lft.to/lastmile_qr_scan", "android": "https://dc.lft.to/lastmile_qr_scan"}, "lon": -77.04776683333333, "fusion_lon": 0.0, "is_disabled": 0, "lat": 38.902449833333336, "bike_id": "c71011a50661845b343197d841398b6c", "name": "c71011a50661845b343197d841398b6c", "is_reserved": 0, "fusion_lat": 0.0}, {"type": "electric_scooter", "rental_uris": {"ios": "https://dc.lft.to/lastmile_qr_scan", "android": "https://dc.lft.to/lastmile_qr_scan"}, "lon": -77.04056283333334, "fusion_lon": 0.0, "is_disabled": 0, "lat": 38.90392216666667, "bike_id": "d46134360be140c99f4658365896cd26", "name": "d46134360be140c99f4658365896cd26", "is_reserved": 0, "fusion_lat": 0.0}, {"type": "electric_scooter", "rental_uris": {"ios": "https://dc.lft.to/lastmile_qr_scan", "android": "https://dc.lft.to/lastmile_qr_scan"}, "lon": -77.07299533333334, "fusion_lon": 0.0, "is_disabled": 0, "lat": 38.9214525, "bike_id": "ff8ad013d81c5face89863b0b3642b08", "name": "ff8ad013d81c5face89863b0b3642b08", "is_reserved": 0, "fusion_lat": 0.0}, {"type": "electric_scooter", "rental_uris": {"ios": "https://dc.lft.to/lastmile_qr_scan", "android": "https://dc.lft.to/lastmile_qr_scan"}, "lon": -77.00122483333334, "fusion_lon": 0.0, "is_disabled": 0, "lat": 38.87800516666667, "bike_id": "f5e3c539763475342fade20a29e128c0", "name": "f5e3c539763475342fade20a29e128c0", "is_reserved": 0, "fusion_lat": 0.0}, {"type": "electric_scooter", "rental_uris": {"ios": "https://dc.lft.to/lastmile_qr_scan", "android": "https://dc.lft.to/lastmile_qr_scan"}, "lon": -76.972445, "fusion_lon": 0.0, "is_disabled": 0, "lat": 38.854562333333334, "bike_id": "01e023c814c7e58cdad086cdfee1e7b2", "name": "01e023c814c7e58cdad086cdfee1e7b2", "is_reserved": 0, "fusion_lat": 0.0}, {"type": "electric_scooter", "rental_uris": {"ios": "https://dc.lft.to/lastmile_qr_scan", "android": "https://dc.lft.to/lastmile_qr_scan"}, "lon": -77.06318083333333, "fusion_lon": 0.0, "is_disabled": 0, "lat": 38.90281, "bike_id": "c5f672cc8a1c5293a94a0d4e2791c171", "name": "c5f672cc8a1c5293a94a0d4e2791c171", "is_reserved": 0, "fusion_lat": 0.0}, {"type": "electric_scooter", "rental_uris": {"ios": "https://dc.lft.to/lastmile_qr_scan", "android": "https://dc.lft.to/lastmile_qr_scan"}, "lon": -77.00057666666666, "fusion_lon": 0.0, "is_disabled": 0, "lat": 38.905806, "bike_id": "b6d6bd4a1515e53c33169e6e955f0ee5", "name": "b6d6bd4a1515e53c33169e6e955f0ee5", "is_reserved": 0, "fusion_lat": 0.0}, {"type": "electric_bike", "rental_uris": {"ios": "https://dc.lft.to/lastmile_qr_scan", "android": "https://dc.lft.to/lastmile_qr_scan"}, "lon": -77.036278, "fusion_lon": 0.0, "is_disabled": 0, "lat": 38.932896, "bike_id": "f27850c49bcd419a52810a48816e88cf", "name": "f27850c49bcd419a52810a48816e88cf", "is_reserved": 0, "fusion_lat": 0.0}, {"type": "electric_scooter", "rental_uris": {"ios": "https://dc.lft.to/lastmile_qr_scan", "android": "https://dc.lft.to/lastmile_qr_scan"}, "lon": -77.050141, "fusion_lon": 0.0, "is_disabled": 0, "lat": 38.903288, "bike_id": "90dc1e2596982e34e8d15713bf54c2f9", "name": "90dc1e2596982e34e8d15713bf54c2f9", "is_reserved": 0, "fusion_lat": 0.0}, {"type": "electric_scooter", "rental_uris": {"ios": "https://dc.lft.to/lastmile_qr_scan", "android": "https://dc.lft.to/lastmile_qr_scan"}, "lon": -76.97326633333333, "fusion_lon": 0.0, "is_disabled": 0, "lat": 38.904105333333334, "bike_id": "1e6c42cc2b2da49e0ef4a88e2245e136", "name": "1e6c42cc2b2da49e0ef4a88e2245e136", "is_reserved": 0, "fusion_lat": 0.0}, {"type": "electric_scooter", "rental_uris": {"ios": "https://dc.lft.to/lastmile_qr_scan", "android": "https://dc.lft.to/lastmile_qr_scan"}, "lon": -77.044505, "fusion_lon": 0.0, "is_disabled": 0, "lat": 38.924229833333335, "bike_id": "0da63d2126cb11e9830c1c3309f268f0", "name": "0da63d2126cb11e9830c1c3309f268f0", "is_reserved": 0, "fusion_lat": 0.0}, {"type": "electric_scooter", "rental_uris": {"ios": "https://dc.lft.to/lastmile_qr_scan", "android": "https://dc.lft.to/lastmile_qr_scan"}, "lon": -77.07524083333334, "fusion_lon": 0.0, "is_disabled": 0, "lat": 38.939507, "bike_id": "ae86193024077858d5950a64446a0b02", "name": "ae86193024077858d5950a64446a0b02", "is_reserved": 0, "fusion_lat": 0.0}, {"type": "electric_scooter", "rental_uris": {"ios": "https://dc.lft.to/lastmile_qr_scan", "android": "https://dc.lft.to/lastmile_qr_scan"}, "lon": -77.021619, "fusion_lon": 0.0, "is_disabled": 0, "lat": 38.930764, "bike_id": "cfa6b3464cbc5f4794d0504a088eb70a", "name": "cfa6b3464cbc5f4794d0504a088eb70a", "is_reserved": 0, "fusion_lat": 0.0}, {"type": "electric_scooter", "rental_uris": {"ios": "https://dc.lft.to/lastmile_qr_scan", "android": "https://dc.lft.to/lastmile_qr_scan"}, "lon": -77.009231, "fusion_lon": 0.0, "is_disabled": 0, "lat": 38.895511166666665, "bike_id": "909e7c6bb132fe5f72b03a34a9e9c3ae", "name": "909e7c6bb132fe5f72b03a34a9e9c3ae", "is_reserved": 0, "fusion_lat": 0.0}, {"type": "electric_scooter", "rental_uris": {"ios": "https://dc.lft.to/lastmile_qr_scan", "android": "https://dc.lft.to/lastmile_qr_scan"}, "lon": -77.0269575, "fusion_lon": 0.0, "is_disabled": 0, "lat": 38.92585666666667, "bike_id": "4f529aacc0d16d5d2365976406a544fb", "name": "4f529aacc0d16d5d2365976406a544fb", "is_reserved": 0, "fusion_lat": 0.0}, {"type": "electric_scooter", "rental_uris": {"ios": "https://dc.lft.to/lastmile_qr_scan", "android": "https://dc.lft.to/lastmile_qr_scan"}, "lon": -76.99207566666666, "fusion_lon": 0.0, "is_disabled": 0, "lat": 38.9037055, "bike_id": "a38a92c1285b6d03a23680a702546f7c", "name": "a38a92c1285b6d03a23680a702546f7c", "is_reserved": 0, "fusion_lat": 0.0}, {"type": "electric_scooter", "rental_uris": {"ios": "https://dc.lft.to/lastmile_qr_scan", "android": "https://dc.lft.to/lastmile_qr_scan"}, "lon": -77.032095, "fusion_lon": 0.0, "is_disabled": 0, "lat": 38.91998983333333, "bike_id": "8c8fd958a277ed6a7f1e0e860e03b05b", "name": "8c8fd958a277ed6a7f1e0e860e03b05b", "is_reserved": 0, "fusion_lat": 0.0}, {"type": "electric_bike", "rental_uris": {"ios": "https://dc.lft.to/lastmile_qr_scan", "android": "https://dc.lft.to/lastmile_qr_scan"}, "lon": -77.02814816666667, "fusion_lon": 0.0, "is_disabled": 0, "lat": 38.931406, "bike_id": "f2f1dc61d9bae5b14b194608128ef985", "name": "f2f1dc61d9bae5b14b194608128ef985", "is_reserved": 0, "fusion_lat": 0.0}, {"type": "electric_scooter", "rental_uris": {"ios": "https://dc.lft.to/lastmile_qr_scan", "android": "https://dc.lft.to/lastmile_qr_scan"}, "lon": -77.0259, "fusion_lon": 0.0, "is_disabled": 0, "lat": 38.904193666666664, "bike_id": "ebd1b463d2e663909d60759bd140488e", "name": "ebd1b463d2e663909d60759bd140488e", "is_reserved": 0, "fusion_lat": 0.0}, {"type": "electric_bike", "rental_uris": {"ios": "https://dc.lft.to/lastmile_qr_scan", "android": "https://dc.lft.to/lastmile_qr_scan"}, "lon": -76.98550983333334, "fusion_lon": 0.0, "is_disabled": 0, "lat": 38.8520815, "bike_id": "210b88e9de25a5e75feebc9dc89dacc7", "name": "210b88e9de25a5e75feebc9dc89dacc7", "is_reserved": 0, "fusion_lat": 0.0}, {"type": "electric_scooter", "rental_uris": {"ios": "https://dc.lft.to/lastmile_qr_scan", "android": "https://dc.lft.to/lastmile_qr_scan"}, "lon": -77.05386533333333, "fusion_lon": 0.0, "is_disabled": 0, "lat": 38.9107575, "bike_id": "7aaca09d248712a63e756a9247802049", "name": "7aaca09d248712a63e756a9247802049", "is_reserved": 0, "fusion_lat": 0.0}, {"type": "electric_bike", "rental_uris": {"ios": "https://dc.lft.to/lastmile_qr_scan", "android": "https://dc.lft.to/lastmile_qr_scan"}, "lon": -76.904378, "fusion_lon": 0.0, "is_disabled": 0, "lat": 38.89765, "bike_id": "8439775279cbf92da3d3ba94522e040d", "name": "8439775279cbf92da3d3ba94522e040d", "is_reserved": 0, "fusion_lat": 0.0}, {"type": "electric_scooter", "rental_uris": {"ios": "https://dc.lft.to/lastmile_qr_scan", "android": "https://dc.lft.to/lastmile_qr_scan"}, "lon": -77.05745233333333, "fusion_lon": 0.0, "is_disabled": 0, "lat": 38.92575716666666, "bike_id": "900ac3b8455adf8021a9d69870fc3df1", "name": "900ac3b8455adf8021a9d69870fc3df1", "is_reserved": 0, "fusion_lat": 0.0}, {"type": "electric_scooter", "rental_uris": {"ios": "https://dc.lft.to/lastmile_qr_scan", "android": "https://dc.lft.to/lastmile_qr_scan"}, "lon": -77.03263383333334, "fusion_lon": 0.0, "is_disabled": 0, "lat": 38.93522383333333, "bike_id": "cd66595f823b6ee6f1504f9969585a6c", "name": "cd66595f823b6ee6f1504f9969585a6c", "is_reserved": 0, "fusion_lat": 0.0}, {"type": "electric_scooter", "rental_uris": {"ios": "https://dc.lft.to/lastmile_qr_scan", "android": "https://dc.lft.to/lastmile_qr_scan"}, "lon": -77.0134275, "fusion_lon": 0.0, "is_disabled": 0, "lat": 38.91917083333333, "bike_id": "f2e21dc723ea1cf1d93c8418a133098d", "name": "f2e21dc723ea1cf1d93c8418a133098d", "is_reserved": 0, "fusion_lat": 0.0}, {"type": "electric_scooter", "rental_uris": {"ios": "https://dc.lft.to/lastmile_qr_scan", "android": "https://dc.lft.to/lastmile_qr_scan"}, "lon": -77.02179733333334, "fusion_lon": 0.0, "is_disabled": 0, "lat": 38.8930085, "bike_id": "df3272ef9f27293a0d69b309652f8041", "name": "df3272ef9f27293a0d69b309652f8041", "is_reserved": 0, "fusion_lat": 0.0}, {"type": "electric_scooter", "rental_uris": {"ios": "https://dc.lft.to/lastmile_qr_scan", "android": "https://dc.lft.to/lastmile_qr_scan"}, "lon": -77.03158133333334, "fusion_lon": 0.0, "is_disabled": 0, "lat": 38.892223333333334, "bike_id": "1a7a3d9823d66c402eea76f080657f0e", "name": "1a7a3d9823d66c402eea76f080657f0e", "is_reserved": 0, "fusion_lat": 0.0}, {"type": "electric_scooter", "rental_uris": {"ios": "https://dc.lft.to/lastmile_qr_scan", "android": "https://dc.lft.to/lastmile_qr_scan"}, "lon": -77.0384075, "fusion_lon": 0.0, "is_disabled": 0, "lat": 38.91642616666667, "bike_id": "889d27bc6c8cbfc25295726848b7fa84", "name": "889d27bc6c8cbfc25295726848b7fa84", "is_reserved": 0, "fusion_lat": 0.0}, {"type": "electric_scooter", "rental_uris": {"ios": "https://dc.lft.to/lastmile_qr_scan", "android": "https://dc.lft.to/lastmile_qr_scan"}, "lon": -77.04177366666667, "fusion_lon": 0.0, "is_disabled": 0, "lat": 38.918363166666666, "bike_id": "ff7c46aca69a998867ec7019147ca7e4", "name": "ff7c46aca69a998867ec7019147ca7e4", "is_reserved": 0, "fusion_lat": 0.0}, {"type": "electric_scooter", "rental_uris": {"ios": "https://dc.lft.to/lastmile_qr_scan", "android": "https://dc.lft.to/lastmile_qr_scan"}, "lon": -77.02223266666667, "fusion_lon": 0.0, "is_disabled": 0, "lat": 38.892211333333336, "bike_id": "6a1eefdf774958def60a6239fe08bf3d", "name": "6a1eefdf774958def60a6239fe08bf3d", "is_reserved": 0, "fusion_lat": 0.0}, {"type": "electric_scooter", "rental_uris": {"ios": "https://dc.lft.to/lastmile_qr_scan", "android": "https://dc.lft.to/lastmile_qr_scan"}, "lon": -77.02483566666666, "fusion_lon": 0.0, "is_disabled": 0, "lat": 38.91946433333333, "bike_id": "77ebc1bfa9a19d6fa0f06077b2e2c732", "name": "77ebc1bfa9a19d6fa0f06077b2e2c732", "is_reserved": 0, "fusion_lat": 0.0}, {"type": "electric_scooter", "rental_uris": {"ios": "https://dc.lft.to/lastmile_qr_scan", "android": "https://dc.lft.to/lastmile_qr_scan"}, "lon": -77.02430533333333, "fusion_lon": 0.0, "is_disabled": 0, "lat": 38.90250433333333, "bike_id": "5a9c4f282f09d33f4c3d60c5f14d716a", "name": "5a9c4f282f09d33f4c3d60c5f14d716a", "is_reserved": 0, "fusion_lat": 0.0}, {"type": "electric_scooter", "rental_uris": {"ios": "https://dc.lft.to/lastmile_qr_scan", "android": "https://dc.lft.to/lastmile_qr_scan"}, "lon": -77.00484366666667, "fusion_lon": 0.0, "is_disabled": 0, "lat": 38.877892, "bike_id": "3503a19501094a8d73042f2e6dd7955b", "name": "3503a19501094a8d73042f2e6dd7955b", "is_reserved": 0, "fusion_lat": 0.0}, {"type": "electric_scooter", "rental_uris": {"ios": "https://dc.lft.to/lastmile_qr_scan", "android": "https://dc.lft.to/lastmile_qr_scan"}, "lon": -77.03353183333333, "fusion_lon": 0.0, "is_disabled": 0, "lat": 38.917093666666666, "bike_id": "44a07d98a016caf3f2390ff6627f1d05", "name": "44a07d98a016caf3f2390ff6627f1d05", "is_reserved": 0, "fusion_lat": 0.0}, {"type": "electric_scooter", "rental_uris": {"ios": "https://dc.lft.to/lastmile_qr_scan", "android": "https://dc.lft.to/lastmile_qr_scan"}, "lon": -77.02413833333334, "fusion_lon": 0.0, "is_disabled": 0, "lat": 38.933689, "bike_id": "f74b83cd47caa8f7329654aeae817da7", "name": "f74b83cd47caa8f7329654aeae817da7", "is_reserved": 0, "fusion_lat": 0.0}, {"type": "electric_scooter", "rental_uris": {"ios": "https://dc.lft.to/lastmile_qr_scan", "android": "https://dc.lft.to/lastmile_qr_scan"}, "lon": -77.00407666666666, "fusion_lon": 0.0, "is_disabled": 0, "lat": 38.87673183333333, "bike_id": "4c35f3f4d934198d09eae2aa52d80b61", "name": "4c35f3f4d934198d09eae2aa52d80b61", "is_reserved": 0, "fusion_lat": 0.0}, {"type": "electric_bike", "rental_uris": {"ios": "https://dc.lft.to/lastmile_qr_scan", "android": "https://dc.lft.to/lastmile_qr_scan"}, "lon": -76.93886216666667, "fusion_lon": 0.0, "is_disabled": 0, "lat": 38.956335333333335, "bike_id": "cea57213586449564bd94bc1e8d95f8e", "name": "cea57213586449564bd94bc1e8d95f8e", "is_reserved": 0, "fusion_lat": 0.0}, {"type": "electric_scooter", "rental_uris": {"ios": "https://dc.lft.to/lastmile_qr_scan", "android": "https://dc.lft.to/lastmile_qr_scan"}, "lon": -76.94633483333334, "fusion_lon": 0.0, "is_disabled": 0, "lat": 38.898459, "bike_id": "36bafa661219dbabc1a3c5f19691e963", "name": "36bafa661219dbabc1a3c5f19691e963", "is_reserved": 0, "fusion_lat": 0.0}, {"type": "electric_scooter", "rental_uris": {"ios": "https://dc.lft.to/lastmile_qr_scan", "android": "https://dc.lft.to/lastmile_qr_scan"}, "lon": -76.99609783333334, "fusion_lon": 0.0, "is_disabled": 0, "lat": 38.88721366666667, "bike_id": "266b72f986859762e072675f066a9189", "name": "266b72f986859762e072675f066a9189", "is_reserved": 0, "fusion_lat": 0.0}, {"type": "electric_scooter", "rental_uris": {"ios": "https://dc.lft.to/lastmile_qr_scan", "android": "https://dc.lft.to/lastmile_qr_scan"}, "lon": -76.99090033333333, "fusion_lon": 0.0, "is_disabled": 0, "lat": 38.929554833333334, "bike_id": "08225513a46743b33142134c4d363d89", "name": "08225513a46743b33142134c4d363d89", "is_reserved": 0, "fusion_lat": 0.0}, {"type": "electric_scooter", "rental_uris": {"ios": "https://dc.lft.to/lastmile_qr_scan", "android": "https://dc.lft.to/lastmile_qr_scan"}, "lon": -77.011741, "fusion_lon": 0.0, "is_disabled": 0, "lat": 38.9156495, "bike_id": "d17fbb26065466b97c95850e1405edd4", "name": "d17fbb26065466b97c95850e1405edd4", "is_reserved": 0, "fusion_lat": 0.0}, {"type": "electric_scooter", "rental_uris": {"ios": "https://dc.lft.to/lastmile_qr_scan", "android": "https://dc.lft.to/lastmile_qr_scan"}, "lon": -77.03182916666667, "fusion_lon": 0.0, "is_disabled": 0, "lat": 38.905212666666664, "bike_id": "655cfb66a621b3b936df1596ce2a2260", "name": "655cfb66a621b3b936df1596ce2a2260", "is_reserved": 0, "fusion_lat": 0.0}, {"type": "electric_scooter", "rental_uris": {"ios": "https://dc.lft.to/lastmile_qr_scan", "android": "https://dc.lft.to/lastmile_qr_scan"}, "lon": -77.04190333333334, "fusion_lon": 0.0, "is_disabled": 0, "lat": 38.920578, "bike_id": "2ca32ef2d9c34fd95c2aec26b7940ef8", "name": "2ca32ef2d9c34fd95c2aec26b7940ef8", "is_reserved": 0, "fusion_lat": 0.0}, {"type": "electric_scooter", "rental_uris": {"ios": "https://dc.lft.to/lastmile_qr_scan", "android": "https://dc.lft.to/lastmile_qr_scan"}, "lon": -76.99604366666667, "fusion_lon": 0.0, "is_disabled": 0, "lat": 38.909682, "bike_id": "39592052c6ade1c916554c9b1dcc72be", "name": "39592052c6ade1c916554c9b1dcc72be", "is_reserved": 0, "fusion_lat": 0.0}, {"type": "electric_scooter", "rental_uris": {"ios": "https://dc.lft.to/lastmile_qr_scan", "android": "https://dc.lft.to/lastmile_qr_scan"}, "lon": -77.01716066666667, "fusion_lon": 0.0, "is_disabled": 0, "lat": 38.9111215, "bike_id": "d0326d5c3795d3c2ed5b3e25a017b848", "name": "d0326d5c3795d3c2ed5b3e25a017b848", "is_reserved": 0, "fusion_lat": 0.0}, {"type": "electric_scooter", "rental_uris": {"ios": "https://dc.lft.to/lastmile_qr_scan", "android": "https://dc.lft.to/lastmile_qr_scan"}, "lon": -76.95852866666667, "fusion_lon": 0.0, "is_disabled": 0, "lat": 38.892872833333335, "bike_id": "7d4a612799b23b03d1c4f881215579c1", "name": "7d4a612799b23b03d1c4f881215579c1", "is_reserved": 0, "fusion_lat": 0.0}, {"type": "electric_scooter", "rental_uris": {"ios": "https://dc.lft.to/lastmile_qr_scan", "android": "https://dc.lft.to/lastmile_qr_scan"}, "lon": -77.024318, "fusion_lon": 0.0, "is_disabled": 0, "lat": 38.92261883333333, "bike_id": "f84d75aad2e4dc9bd567573ff8372357", "name": "f84d75aad2e4dc9bd567573ff8372357", "is_reserved": 0, "fusion_lat": 0.0}, {"type": "electric_scooter", "rental_uris": {"ios": "https://dc.lft.to/lastmile_qr_scan", "android": "https://dc.lft.to/lastmile_qr_scan"}, "lon": -77.04059233333334, "fusion_lon": 0.0, "is_disabled": 0, "lat": 38.912836166666665, "bike_id": "79d39e9ffaa9fea3f34c3e8a03525802", "name": "79d39e9ffaa9fea3f34c3e8a03525802", "is_reserved": 0, "fusion_lat": 0.0}, {"type": "electric_scooter", "rental_uris": {"ios": "https://dc.lft.to/lastmile_qr_scan", "android": "https://dc.lft.to/lastmile_qr_scan"}, "lon": -77.02320216666666, "fusion_lon": 0.0, "is_disabled": 0, "lat": 38.892229666666665, "bike_id": "6b0f5d1e2ff6fdf0ea800fd7c3b88c9d", "name": "6b0f5d1e2ff6fdf0ea800fd7c3b88c9d", "is_reserved": 0, "fusion_lat": 0.0}, {"type": "electric_scooter", "rental_uris": {"ios": "https://dc.lft.to/lastmile_qr_scan", "android": "https://dc.lft.to/lastmile_qr_scan"}, "lon": -77.02126166666666, "fusion_lon": 0.0, "is_disabled": 0, "lat": 38.887481666666666, "bike_id": "0ae52e0ccc24424e705df7a57680f8f6", "name": "0ae52e0ccc24424e705df7a57680f8f6", "is_reserved": 0, "fusion_lat": 0.0}, {"type": "electric_scooter", "rental_uris": {"ios": "https://dc.lft.to/lastmile_qr_scan", "android": "https://dc.lft.to/lastmile_qr_scan"}, "lon": -76.99702066666667, "fusion_lon": 0.0, "is_disabled": 0, "lat": 38.9083495, "bike_id": "36673c1244025ffe34c143af099bcaae", "name": "36673c1244025ffe34c143af099bcaae", "is_reserved": 0, "fusion_lat": 0.0}, {"type": "electric_scooter", "rental_uris": {"ios": "https://dc.lft.to/lastmile_qr_scan", "android": "https://dc.lft.to/lastmile_qr_scan"}, "lon": -77.03444416666666, "fusion_lon": 0.0, "is_disabled": 0, "lat": 38.908081833333334, "bike_id": "787d8ac9daa35e207db673d349e51c99", "name": "787d8ac9daa35e207db673d349e51c99", "is_reserved": 0, "fusion_lat": 0.0}, {"type": "electric_bike", "rental_uris": {"ios": "https://dc.lft.to/lastmile_qr_scan", "android": "https://dc.lft.to/lastmile_qr_scan"}, "lon": -77.2084115, "fusion_lon": 0.0, "is_disabled": 0, "lat": 38.9246905, "bike_id": "08a37fbae40479a0871d55f40c7edb11", "name": "08a37fbae40479a0871d55f40c7edb11", "is_reserved": 0, "fusion_lat": 0.0}, {"type": "electric_scooter", "rental_uris": {"ios": "https://dc.lft.to/lastmile_qr_scan", "android": "https://dc.lft.to/lastmile_qr_scan"}, "lon": -77.03910283333333, "fusion_lon": 0.0, "is_disabled": 0, "lat": 38.902569666666665, "bike_id": "6abc5945ea9fd069d4021043d0c6db91", "name": "6abc5945ea9fd069d4021043d0c6db91", "is_reserved": 0, "fusion_lat": 0.0}, {"type": "electric_scooter", "rental_uris": {"ios": "https://dc.lft.to/lastmile_qr_scan", "android": "https://dc.lft.to/lastmile_qr_scan"}, "lon": -77.03234916666666, "fusion_lon": 0.0, "is_disabled": 0, "lat": 38.921699333333336, "bike_id": "f9f295a40b438f471817d231c2be4198", "name": "f9f295a40b438f471817d231c2be4198", "is_reserved": 0, "fusion_lat": 0.0}, {"type": "electric_scooter", "rental_uris": {"ios": "https://dc.lft.to/lastmile_qr_scan", "android": "https://dc.lft.to/lastmile_qr_scan"}, "lon": -77.0366365, "fusion_lon": 0.0, "is_disabled": 0, "lat": 38.92254233333333, "bike_id": "88dc45d3c2cbbadfafa638cd9ee66979", "name": "88dc45d3c2cbbadfafa638cd9ee66979", "is_reserved": 0, "fusion_lat": 0.0}, {"type": "electric_scooter", "rental_uris": {"ios": "https://dc.lft.to/lastmile_qr_scan", "android": "https://dc.lft.to/lastmile_qr_scan"}, "lon": -77.03893433333333, "fusion_lon": 0.0, "is_disabled": 0, "lat": 38.91705133333333, "bike_id": "a3b3740b40a7cb849bce01bbf4506d1e", "name": "a3b3740b40a7cb849bce01bbf4506d1e", "is_reserved": 0, "fusion_lat": 0.0}, {"type": "electric_scooter", "rental_uris": {"ios": "https://dc.lft.to/lastmile_qr_scan", "android": "https://dc.lft.to/lastmile_qr_scan"}, "lon": -77.006094, "fusion_lon": 0.0, "is_disabled": 0, "lat": 38.871824333333336, "bike_id": "e47720feb45fa9bcdbd9091f1c0e76ba", "name": "e47720feb45fa9bcdbd9091f1c0e76ba", "is_reserved": 0, "fusion_lat": 0.0}, {"type": "electric_bike", "rental_uris": {"ios": "https://dc.lft.to/lastmile_qr_scan", "android": "https://dc.lft.to/lastmile_qr_scan"}, "lon": -77.12658683333333, "fusion_lon": 0.0, "is_disabled": 0, "lat": 38.81517516666667, "bike_id": "990521d4ace3f2e0335c55e28d889b52", "name": "990521d4ace3f2e0335c55e28d889b52", "is_reserved": 0, "fusion_lat": 0.0}, {"type": "electric_scooter", "rental_uris": {"ios": "https://dc.lft.to/lastmile_qr_scan", "android": "https://dc.lft.to/lastmile_qr_scan"}, "lon": -77.04007466666667, "fusion_lon": 0.0, "is_disabled": 0, "lat": 38.915652, "bike_id": "aeedc427da3a8e90210a1f163bddd12d", "name": "aeedc427da3a8e90210a1f163bddd12d", "is_reserved": 0, "fusion_lat": 0.0}, {"type": "electric_scooter", "rental_uris": {"ios": "https://dc.lft.to/lastmile_qr_scan", "android": "https://dc.lft.to/lastmile_qr_scan"}, "lon": -77.02192166666667, "fusion_lon": 0.0, "is_disabled": 0, "lat": 38.910891166666666, "bike_id": "15835bc5d29608260907a2cec09c5bd6", "name": "15835bc5d29608260907a2cec09c5bd6", "is_reserved": 0, "fusion_lat": 0.0}, {"type": "electric_scooter", "rental_uris": {"ios": "https://dc.lft.to/lastmile_qr_scan", "android": "https://dc.lft.to/lastmile_qr_scan"}, "lon": -77.03246816666666, "fusion_lon": 0.0, "is_disabled": 0, "lat": 38.9170915, "bike_id": "d5d55ec705f2a5910bffdc40c6606aad", "name": "d5d55ec705f2a5910bffdc40c6606aad", "is_reserved": 0, "fusion_lat": 0.0}, {"type": "electric_bike", "rental_uris": {"ios": "https://dc.lft.to/lastmile_qr_scan", "android": "https://dc.lft.to/lastmile_qr_scan"}, "lon": -77.11297833333333, "fusion_lon": 0.0, "is_disabled": 0, "lat": 38.831572333333334, "bike_id": "9899da7c2488673c55e9f4e6b7f7bcd9", "name": "9899da7c2488673c55e9f4e6b7f7bcd9", "is_reserved": 0, "fusion_lat": 0.0}, {"type": "electric_scooter", "rental_uris": {"ios": "https://dc.lft.to/lastmile_qr_scan", "android": "https://dc.lft.to/lastmile_qr_scan"}, "lon": -77.052347, "fusion_lon": 0.0, "is_disabled": 0, "lat": 38.924687666666664, "bike_id": "519ef8e9c871bdde942f4bc8dd9f940e", "name": "519ef8e9c871bdde942f4bc8dd9f940e", "is_reserved": 0, "fusion_lat": 0.0}, {"type": "electric_scooter", "rental_uris": {"ios": "https://dc.lft.to/lastmile_qr_scan", "android": "https://dc.lft.to/lastmile_qr_scan"}, "lon": -77.03490583333334, "fusion_lon": 0.0, "is_disabled": 0, "lat": 38.919282, "bike_id": "35929a3c804340546befc9b459ea1428", "name": "35929a3c804340546befc9b459ea1428", "is_reserved": 0, "fusion_lat": 0.0}, {"type": "electric_scooter", "rental_uris": {"ios": "https://dc.lft.to/lastmile_qr_scan", "android": "https://dc.lft.to/lastmile_qr_scan"}, "lon": -77.03166133333333, "fusion_lon": 0.0, "is_disabled": 0, "lat": 38.91566983333333, "bike_id": "9ce9c430006642fd48b5c3e8ca0d8a16", "name": "9ce9c430006642fd48b5c3e8ca0d8a16", "is_reserved": 0, "fusion_lat": 0.0}, {"type": "electric_scooter", "rental_uris": {"ios": "https://dc.lft.to/lastmile_qr_scan", "android": "https://dc.lft.to/lastmile_qr_scan"}, "lon": -77.05716533333333, "fusion_lon": 0.0, "is_disabled": 0, "lat": 38.933713833333336, "bike_id": "8f6486e883b2ccca6ad9adb6a8912c2c", "name": "8f6486e883b2ccca6ad9adb6a8912c2c", "is_reserved": 0, "fusion_lat": 0.0}, {"type": "electric_bike", "rental_uris": {"ios": "https://dc.lft.to/lastmile_qr_scan", "android": "https://dc.lft.to/lastmile_qr_scan"}, "lon": -76.98754, "fusion_lon": 0.0, "is_disabled": 0, "lat": 38.858026, "bike_id": "741d1fcd210c1a96e970a22155c72e38", "name": "741d1fcd210c1a96e970a22155c72e38", "is_reserved": 0, "fusion_lat": 0.0}, {"type": "electric_scooter", "rental_uris": {"ios": "https://dc.lft.to/lastmile_qr_scan", "android": "https://dc.lft.to/lastmile_qr_scan"}, "lon": -77.03676283333333, "fusion_lon": 0.0, "is_disabled": 0, "lat": 38.91808433333333, "bike_id": "c13f42b6bf40f5f17356142054966b05", "name": "c13f42b6bf40f5f17356142054966b05", "is_reserved": 0, "fusion_lat": 0.0}, {"type": "electric_scooter", "rental_uris": {"ios": "https://dc.lft.to/lastmile_qr_scan", "android": "https://dc.lft.to/lastmile_qr_scan"}, "lon": -77.02690033333333, "fusion_lon": 0.0, "is_disabled": 0, "lat": 38.911274666666664, "bike_id": "41b988ba3c059dcfc0ab5a9cf888aa5b", "name": "41b988ba3c059dcfc0ab5a9cf888aa5b", "is_reserved": 0, "fusion_lat": 0.0}, {"type": "electric_scooter", "rental_uris": {"ios": "https://dc.lft.to/lastmile_qr_scan", "android": "https://dc.lft.to/lastmile_qr_scan"}, "lon": -77.03206016666667, "fusion_lon": 0.0, "is_disabled": 0, "lat": 38.916846666666665, "bike_id": "c54374a46c1d29310164cd0ef51a1e4a", "name": "c54374a46c1d29310164cd0ef51a1e4a", "is_reserved": 0, "fusion_lat": 0.0}, {"type": "electric_scooter", "rental_uris": {"ios": "https://dc.lft.to/lastmile_qr_scan", "android": "https://dc.lft.to/lastmile_qr_scan"}, "lon": -77.00191266666667, "fusion_lon": 0.0, "is_disabled": 0, "lat": 38.900397166666664, "bike_id": "8ab196cacf7fa7fbaadb12bce8793ab0", "name": "8ab196cacf7fa7fbaadb12bce8793ab0", "is_reserved": 0, "fusion_lat": 0.0}, {"type": "electric_scooter", "rental_uris": {"ios": "https://dc.lft.to/lastmile_qr_scan", "android": "https://dc.lft.to/lastmile_qr_scan"}, "lon": -77.02765366666667, "fusion_lon": 0.0, "is_disabled": 0, "lat": 38.907287, "bike_id": "bcb2cd879673c8c00c89094b47ed5a48", "name": "bcb2cd879673c8c00c89094b47ed5a48", "is_reserved": 0, "fusion_lat": 0.0}, {"type": "electric_scooter", "rental_uris": {"ios": "https://dc.lft.to/lastmile_qr_scan", "android": "https://dc.lft.to/lastmile_qr_scan"}, "lon": -77.06309933333333, "fusion_lon": 0.0, "is_disabled": 0, "lat": 38.9033085, "bike_id": "680a5c8c5d2cb19db79818f0ad9a36ab", "name": "680a5c8c5d2cb19db79818f0ad9a36ab", "is_reserved": 0, "fusion_lat": 0.0}, {"type": "electric_scooter", "rental_uris": {"ios": "https://dc.lft.to/lastmile_qr_scan", "android": "https://dc.lft.to/lastmile_qr_scan"}, "lon": -77.03663133333333, "fusion_lon": 0.0, "is_disabled": 0, "lat": 38.923015166666666, "bike_id": "ffd52ed400cc938b1a226104bdb9a2bf", "name": "ffd52ed400cc938b1a226104bdb9a2bf", "is_reserved": 0, "fusion_lat": 0.0}, {"type": "electric_scooter", "rental_uris": {"ios": "https://dc.lft.to/lastmile_qr_scan", "android": "https://dc.lft.to/lastmile_qr_scan"}, "lon": -77.00476916666666, "fusion_lon": 0.0, "is_disabled": 0, "lat": 38.911448166666666, "bike_id": "e3c0122147c50f7cc66d810357cf9fda", "name": "e3c0122147c50f7cc66d810357cf9fda", "is_reserved": 0, "fusion_lat": 0.0}, {"type": "electric_bike", "rental_uris": {"ios": "https://dc.lft.to/lastmile_qr_scan", "android": "https://dc.lft.to/lastmile_qr_scan"}, "lon": -77.04928166666667, "fusion_lon": 0.0, "is_disabled": 0, "lat": 38.81348033333333, "bike_id": "46ab4b9ab341b4f1a53334188dfffb18", "name": "46ab4b9ab341b4f1a53334188dfffb18", "is_reserved": 0, "fusion_lat": 0.0}, {"type": "electric_scooter", "rental_uris": {"ios": "https://dc.lft.to/lastmile_qr_scan", "android": "https://dc.lft.to/lastmile_qr_scan"}, "lon": -77.05554316666667, "fusion_lon": 0.0, "is_disabled": 0, "lat": 38.934226, "bike_id": "aa807fba57abe38da24d78ffd72266e9", "name": "aa807fba57abe38da24d78ffd72266e9", "is_reserved": 0, "fusion_lat": 0.0}, {"type": "electric_scooter", "rental_uris": {"ios": "https://dc.lft.to/lastmile_qr_scan", "android": "https://dc.lft.to/lastmile_qr_scan"}, "lon": -77.00417266666666, "fusion_lon": 0.0, "is_disabled": 0, "lat": 38.876619, "bike_id": "9bfd69f47ecf11bc122f1fc56de626f3", "name": "9bfd69f47ecf11bc122f1fc56de626f3", "is_reserved": 0, "fusion_lat": 0.0}, {"type": "electric_scooter", "rental_uris": {"ios": "https://dc.lft.to/lastmile_qr_scan", "android": "https://dc.lft.to/lastmile_qr_scan"}, "lon": -77.02464333333333, "fusion_lon": 0.0, "is_disabled": 0, "lat": 38.9184365, "bike_id": "485ca419d732f2c55db122e2c89da6a3", "name": "485ca419d732f2c55db122e2c89da6a3", "is_reserved": 0, "fusion_lat": 0.0}, {"type": "electric_scooter", "rental_uris": {"ios": "https://dc.lft.to/lastmile_qr_scan", "android": "https://dc.lft.to/lastmile_qr_scan"}, "lon": -77.03225866666666, "fusion_lon": 0.0, "is_disabled": 0, "lat": 38.90962483333333, "bike_id": "d31a7e8ec84c4a07449993b94ea65e40", "name": "d31a7e8ec84c4a07449993b94ea65e40", "is_reserved": 0, "fusion_lat": 0.0}, {"type": "electric_scooter", "rental_uris": {"ios": "https://dc.lft.to/lastmile_qr_scan", "android": "https://dc.lft.to/lastmile_qr_scan"}, "lon": -77.02709833333333, "fusion_lon": 0.0, "is_disabled": 0, "lat": 38.904522, "bike_id": "557dcf1908cf26f579fc933062aa1e9b", "name": "557dcf1908cf26f579fc933062aa1e9b", "is_reserved": 0, "fusion_lat": 0.0}, {"type": "electric_scooter", "rental_uris": {"ios": "https://dc.lft.to/lastmile_qr_scan", "android": "https://dc.lft.to/lastmile_qr_scan"}, "lon": -77.0417605, "fusion_lon": 0.0, "is_disabled": 0, "lat": 38.91808666666667, "bike_id": "00367079fa6f536430839e2c8c34ebea", "name": "00367079fa6f536430839e2c8c34ebea", "is_reserved": 0, "fusion_lat": 0.0}, {"type": "electric_bike", "rental_uris": {"ios": "https://dc.lft.to/lastmile_qr_scan", "android": "https://dc.lft.to/lastmile_qr_scan"}, "lon": -76.97198383333334, "fusion_lon": 0.0, "is_disabled": 0, "lat": 38.917746666666666, "bike_id": "b66680a4ed4b29acc966b559cf72a839", "name": "b66680a4ed4b29acc966b559cf72a839", "is_reserved": 0, "fusion_lat": 0.0}, {"type": "electric_scooter", "rental_uris": {"ios": "https://dc.lft.to/lastmile_qr_scan", "android": "https://dc.lft.to/lastmile_qr_scan"}, "lon": -77.0390365, "fusion_lon": 0.0, "is_disabled": 0, "lat": 38.90287083333333, "bike_id": "a0ffd19545eb5e1ccd6c67fb0d69bf81", "name": "a0ffd19545eb5e1ccd6c67fb0d69bf81", "is_reserved": 0, "fusion_lat": 0.0}, {"type": "electric_scooter", "rental_uris": {"ios": "https://dc.lft.to/lastmile_qr_scan", "android": "https://dc.lft.to/lastmile_qr_scan"}, "lon": -77.04324833333334, "fusion_lon": 0.0, "is_disabled": 0, "lat": 38.89225616666667, "bike_id": "908dafa8989f7bb779778c9350bf6db7", "name": "908dafa8989f7bb779778c9350bf6db7", "is_reserved": 0, "fusion_lat": 0.0}, {"type": "electric_scooter", "rental_uris": {"ios": "https://dc.lft.to/lastmile_qr_scan", "android": "https://dc.lft.to/lastmile_qr_scan"}, "lon": -76.9820125, "fusion_lon": 0.0, "is_disabled": 0, "lat": 38.9019825, "bike_id": "269cf8ed29f3a53de0bd49f8e2ecf994", "name": "269cf8ed29f3a53de0bd49f8e2ecf994", "is_reserved": 0, "fusion_lat": 0.0}, {"type": "electric_scooter", "rental_uris": {"ios": "https://dc.lft.to/lastmile_qr_scan", "android": "https://dc.lft.to/lastmile_qr_scan"}, "lon": -77.0345295, "fusion_lon": 0.0, "is_disabled": 0, "lat": 38.91823316666667, "bike_id": "81f59d0526abe2be811ac028f11ba6b3", "name": "81f59d0526abe2be811ac028f11ba6b3", "is_reserved": 0, "fusion_lat": 0.0}, {"type": "electric_scooter", "rental_uris": {"ios": "https://dc.lft.to/lastmile_qr_scan", "android": "https://dc.lft.to/lastmile_qr_scan"}, "lon": -77.07321983333334, "fusion_lon": 0.0, "is_disabled": 0, "lat": 38.933532666666665, "bike_id": "6f85b535acbcf29390f26efb58e17b94", "name": "6f85b535acbcf29390f26efb58e17b94", "is_reserved": 0, "fusion_lat": 0.0}, {"type": "electric_scooter", "rental_uris": {"ios": "https://dc.lft.to/lastmile_qr_scan", "android": "https://dc.lft.to/lastmile_qr_scan"}, "lon": -77.0432575, "fusion_lon": 0.0, "is_disabled": 0, "lat": 38.89225116666667, "bike_id": "b74312bdaa4f7421a61b7b04276dfbc3", "name": "b74312bdaa4f7421a61b7b04276dfbc3", "is_reserved": 0, "fusion_lat": 0.0}, {"type": "electric_scooter", "rental_uris": {"ios": "https://dc.lft.to/lastmile_qr_scan", "android": "https://dc.lft.to/lastmile_qr_scan"}, "lon": -77.039844, "fusion_lon": 0.0, "is_disabled": 0, "lat": 38.89223, "bike_id": "c8da1f7d28b474ce1e5c7ee9533bf95c", "name": "c8da1f7d28b474ce1e5c7ee9533bf95c", "is_reserved": 0, "fusion_lat": 0.0}, {"type": "electric_scooter", "rental_uris": {"ios": "https://dc.lft.to/lastmile_qr_scan", "android": "https://dc.lft.to/lastmile_qr_scan"}, "lon": -77.01720716666667, "fusion_lon": 0.0, "is_disabled": 0, "lat": 38.915904, "bike_id": "3a6930423bb95c4495bffecf876734da", "name": "3a6930423bb95c4495bffecf876734da", "is_reserved": 0, "fusion_lat": 0.0}, {"type": "electric_scooter", "rental_uris": {"ios": "https://dc.lft.to/lastmile_qr_scan", "android": "https://dc.lft.to/lastmile_qr_scan"}, "lon": -77.05231783333333, "fusion_lon": 0.0, "is_disabled": 0, "lat": 38.92468, "bike_id": "0acb97c94749a3fcb25fb655ad1ebdf4", "name": "0acb97c94749a3fcb25fb655ad1ebdf4", "is_reserved": 0, "fusion_lat": 0.0}, {"type": "electric_scooter", "rental_uris": {"ios": "https://dc.lft.to/lastmile_qr_scan", "android": "https://dc.lft.to/lastmile_qr_scan"}, "lon": -77.051307, "fusion_lon": 0.0, "is_disabled": 0, "lat": 38.92363733333333, "bike_id": "71c234009cb8502de83ad236bfca98bb", "name": "71c234009cb8502de83ad236bfca98bb", "is_reserved": 0, "fusion_lat": 0.0}, {"type": "electric_scooter", "rental_uris": {"ios": "https://dc.lft.to/lastmile_qr_scan", "android": "https://dc.lft.to/lastmile_qr_scan"}, "lon": -77.044815, "fusion_lon": 0.0, "is_disabled": 0, "lat": 38.919304, "bike_id": "40cdd4856292173977d32de997de09ed", "name": "40cdd4856292173977d32de997de09ed", "is_reserved": 0, "fusion_lat": 0.0}, {"type": "electric_scooter", "rental_uris": {"ios": "https://dc.lft.to/lastmile_qr_scan", "android": "https://dc.lft.to/lastmile_qr_scan"}, "lon": -76.96520483333333, "fusion_lon": 0.0, "is_disabled": 0, "lat": 38.87624683333333, "bike_id": "b2eb34b98f6a8399282557c9f3fd5990", "name": "b2eb34b98f6a8399282557c9f3fd5990", "is_reserved": 0, "fusion_lat": 0.0}, {"type": "electric_scooter", "rental_uris": {"ios": "https://dc.lft.to/lastmile_qr_scan", "android": "https://dc.lft.to/lastmile_qr_scan"}, "lon": -77.01503666666666, "fusion_lon": 0.0, "is_disabled": 0, "lat": 38.943321166666664, "bike_id": "e7bbfac90fb163b894bcaa7eadec62bf", "name": "e7bbfac90fb163b894bcaa7eadec62bf", "is_reserved": 0, "fusion_lat": 0.0}, {"type": "electric_scooter", "rental_uris": {"ios": "https://dc.lft.to/lastmile_qr_scan", "android": "https://dc.lft.to/lastmile_qr_scan"}, "lon": -77.043313, "fusion_lon": 0.0, "is_disabled": 0, "lat": 38.89223883333333, "bike_id": "0035348b79f876760c26e5f57c82f3dc", "name": "0035348b79f876760c26e5f57c82f3dc", "is_reserved": 0, "fusion_lat": 0.0}, {"type": "electric_scooter", "rental_uris": {"ios": "https://dc.lft.to/lastmile_qr_scan", "android": "https://dc.lft.to/lastmile_qr_scan"}, "lon": -77.021812, "fusion_lon": 0.0, "is_disabled": 0, "lat": 38.8973735, "bike_id": "f180fedae98525cf61a51190291d1f99", "name": "f180fedae98525cf61a51190291d1f99", "is_reserved": 0, "fusion_lat": 0.0}, {"type": "electric_bike", "rental_uris": {"ios": "https://dc.lft.to/lastmile_qr_scan", "android": "https://dc.lft.to/lastmile_qr_scan"}, "lon": -76.98592683333334, "fusion_lon": 0.0, "is_disabled": 0, "lat": 38.9062095, "bike_id": "ea4f57f7ef3c4b3c3d3c2adaa048a3de", "name": "ea4f57f7ef3c4b3c3d3c2adaa048a3de", "is_reserved": 0, "fusion_lat": 0.0}, {"type": "electric_bike", "rental_uris": {"ios": "https://dc.lft.to/lastmile_qr_scan", "android": "https://dc.lft.to/lastmile_qr_scan"}, "lon": -76.90975466666667, "fusion_lon": 0.0, "is_disabled": 0, "lat": 38.854237166666664, "bike_id": "34477b04ed082a42ee035b9ad8f3cd45", "name": "34477b04ed082a42ee035b9ad8f3cd45", "is_reserved": 0, "fusion_lat": 0.0}, {"type": "electric_scooter", "rental_uris": {"ios": "https://dc.lft.to/lastmile_qr_scan", "android": "https://dc.lft.to/lastmile_qr_scan"}, "lon": -77.02851583333333, "fusion_lon": 0.0, "is_disabled": 0, "lat": 38.92768133333333, "bike_id": "5bb47533ccf84c53e4d9c8565ee1591a", "name": "5bb47533ccf84c53e4d9c8565ee1591a", "is_reserved": 0, "fusion_lat": 0.0}, {"type": "electric_scooter", "rental_uris": {"ios": "https://dc.lft.to/lastmile_qr_scan", "android": "https://dc.lft.to/lastmile_qr_scan"}, "lon": -76.99958866666667, "fusion_lon": 0.0, "is_disabled": 0, "lat": 38.901124, "bike_id": "832eba149a4131853b0b7634f758092c", "name": "832eba149a4131853b0b7634f758092c", "is_reserved": 0, "fusion_lat": 0.0}, {"type": "electric_scooter", "rental_uris": {"ios": "https://dc.lft.to/lastmile_qr_scan", "android": "https://dc.lft.to/lastmile_qr_scan"}, "lon": -76.9955865, "fusion_lon": 0.0, "is_disabled": 0, "lat": 38.900327833333336, "bike_id": "9a0bf792cffa0a3083e621c3115a528a", "name": "9a0bf792cffa0a3083e621c3115a528a", "is_reserved": 0, "fusion_lat": 0.0}, {"type": "electric_scooter", "rental_uris": {"ios": "https://dc.lft.to/lastmile_qr_scan", "android": "https://dc.lft.to/lastmile_qr_scan"}, "lon": -77.02466516666667, "fusion_lon": 0.0, "is_disabled": 0, "lat": 38.9330265, "bike_id": "96041320574e132205fedf54f677ec38", "name": "96041320574e132205fedf54f677ec38", "is_reserved": 0, "fusion_lat": 0.0}, {"type": "electric_bike", "rental_uris": {"ios": "https://dc.lft.to/lastmile_qr_scan", "android": "https://dc.lft.to/lastmile_qr_scan"}, "lon": -77.0282215, "fusion_lon": 0.0, "is_disabled": 0, "lat": 38.965072166666666, "bike_id": "160fe3770524352b48fc9ec0ed52f6a8", "name": "160fe3770524352b48fc9ec0ed52f6a8", "is_reserved": 0, "fusion_lat": 0.0}, {"type": "electric_scooter", "rental_uris": {"ios": "https://dc.lft.to/lastmile_qr_scan", "android": "https://dc.lft.to/lastmile_qr_scan"}, "lon": -77.03856416666666, "fusion_lon": 0.0, "is_disabled": 0, "lat": 38.91552016666667, "bike_id": "138979c3f5d8ea5f59d3a46a745fac3d", "name": "138979c3f5d8ea5f59d3a46a745fac3d", "is_reserved": 0, "fusion_lat": 0.0}, {"type": "electric_scooter", "rental_uris": {"ios": "https://dc.lft.to/lastmile_qr_scan", "android": "https://dc.lft.to/lastmile_qr_scan"}, "lon": -77.04439516666666, "fusion_lon": 0.0, "is_disabled": 0, "lat": 38.91270083333333, "bike_id": "134a174be47402aaba45314d2bf5befd", "name": "134a174be47402aaba45314d2bf5befd", "is_reserved": 0, "fusion_lat": 0.0}, {"type": "electric_scooter", "rental_uris": {"ios": "https://dc.lft.to/lastmile_qr_scan", "android": "https://dc.lft.to/lastmile_qr_scan"}, "lon": -77.00590816666667, "fusion_lon": 0.0, "is_disabled": 0, "lat": 38.905672, "bike_id": "af11d45ff582ffed055e94b3b32fe392", "name": "af11d45ff582ffed055e94b3b32fe392", "is_reserved": 0, "fusion_lat": 0.0}, {"type": "electric_scooter", "rental_uris": {"ios": "https://dc.lft.to/lastmile_qr_scan", "android": "https://dc.lft.to/lastmile_qr_scan"}, "lon": -77.0412715, "fusion_lon": 0.0, "is_disabled": 0, "lat": 38.93403566666667, "bike_id": "940185d4eeec8a8b7536cbcb02ad7b0f", "name": "940185d4eeec8a8b7536cbcb02ad7b0f", "is_reserved": 0, "fusion_lat": 0.0}, {"type": "electric_scooter", "rental_uris": {"ios": "https://dc.lft.to/lastmile_qr_scan", "android": "https://dc.lft.to/lastmile_qr_scan"}, "lon": -77.039749, "fusion_lon": 0.0, "is_disabled": 0, "lat": 38.89874116666667, "bike_id": "d07c2a65ddfbe6255ff7bc2a9907f8d8", "name": "d07c2a65ddfbe6255ff7bc2a9907f8d8", "is_reserved": 0, "fusion_lat": 0.0}, {"type": "electric_scooter", "rental_uris": {"ios": "https://dc.lft.to/lastmile_qr_scan", "android": "https://dc.lft.to/lastmile_qr_scan"}, "lon": -76.99836583333334, "fusion_lon": 0.0, "is_disabled": 0, "lat": 38.900035, "bike_id": "d04e2fe3bb9570eb1c70260a099a32e7", "name": "d04e2fe3bb9570eb1c70260a099a32e7", "is_reserved": 0, "fusion_lat": 0.0}, {"type": "electric_scooter", "rental_uris": {"ios": "https://dc.lft.to/lastmile_qr_scan", "android": "https://dc.lft.to/lastmile_qr_scan"}, "lon": -77.02222033333334, "fusion_lon": 0.0, "is_disabled": 0, "lat": 38.89222866666667, "bike_id": "e2ebbc95ddbf137adf5777de02455f4d", "name": "e2ebbc95ddbf137adf5777de02455f4d", "is_reserved": 0, "fusion_lat": 0.0}, {"type": "electric_scooter", "rental_uris": {"ios": "https://dc.lft.to/lastmile_qr_scan", "android": "https://dc.lft.to/lastmile_qr_scan"}, "lon": -77.03195016666666, "fusion_lon": 0.0, "is_disabled": 0, "lat": 38.913439333333336, "bike_id": "b14fe30dbbe6b66c9e879c8b0f4ead92", "name": "b14fe30dbbe6b66c9e879c8b0f4ead92", "is_reserved": 0, "fusion_lat": 0.0}, {"type": "electric_scooter", "rental_uris": {"ios": "https://dc.lft.to/lastmile_qr_scan", "android": "https://dc.lft.to/lastmile_qr_scan"}, "lon": -77.07274083333333, "fusion_lon": 0.0, "is_disabled": 0, "lat": 38.934884, "bike_id": "9af372810b98f3a80cdf3b5620e3c56c", "name": "9af372810b98f3a80cdf3b5620e3c56c", "is_reserved": 0, "fusion_lat": 0.0}, {"type": "electric_bike", "rental_uris": {"ios": "https://dc.lft.to/lastmile_qr_scan", "android": "https://dc.lft.to/lastmile_qr_scan"}, "lon": -77.03222583333333, "fusion_lon": 0.0, "is_disabled": 0, "lat": 38.9155755, "bike_id": "7d9c7ed5b3f3d65e4a89d2a447a114f2", "name": "7d9c7ed5b3f3d65e4a89d2a447a114f2", "is_reserved": 0, "fusion_lat": 0.0}, {"type": "electric_bike", "rental_uris": {"ios": "https://dc.lft.to/lastmile_qr_scan", "android": "https://dc.lft.to/lastmile_qr_scan"}, "lon": -77.04488516666666, "fusion_lon": 0.0, "is_disabled": 0, "lat": 38.842919, "bike_id": "6dc0cd48be788783cc3aa28c5f5b6823", "name": "6dc0cd48be788783cc3aa28c5f5b6823", "is_reserved": 0, "fusion_lat": 0.0}, {"type": "electric_scooter", "rental_uris": {"ios": "https://dc.lft.to/lastmile_qr_scan", "android": "https://dc.lft.to/lastmile_qr_scan"}, "lon": -77.02136466666667, "fusion_lon": 0.0, "is_disabled": 0, "lat": 38.92592916666667, "bike_id": "0dc30f3a4f090054ce2bac4715a254ac", "name": "0dc30f3a4f090054ce2bac4715a254ac", "is_reserved": 0, "fusion_lat": 0.0}, {"type": "electric_scooter", "rental_uris": {"ios": "https://dc.lft.to/lastmile_qr_scan", "android": "https://dc.lft.to/lastmile_qr_scan"}, "lon": -77.032875, "fusion_lon": 0.0, "is_disabled": 0, "lat": 38.94715583333333, "bike_id": "25fa6b45afb35653da3311803c1a179d", "name": "25fa6b45afb35653da3311803c1a179d", "is_reserved": 0, "fusion_lat": 0.0}, {"type": "electric_bike", "rental_uris": {"ios": "https://dc.lft.to/lastmile_qr_scan", "android": "https://dc.lft.to/lastmile_qr_scan"}, "lon": -77.00912516666666, "fusion_lon": 0.0, "is_disabled": 0, "lat": 38.827874333333334, "bike_id": "7df38425e30bd1e822e6570c4cdfc92d", "name": "7df38425e30bd1e822e6570c4cdfc92d", "is_reserved": 0, "fusion_lat": 0.0}, {"type": "electric_scooter", "rental_uris": {"ios": "https://dc.lft.to/lastmile_qr_scan", "android": "https://dc.lft.to/lastmile_qr_scan"}, "lon": -77.05128766666667, "fusion_lon": 0.0, "is_disabled": 0, "lat": 38.92366, "bike_id": "34cc2482382809c88ce58b1d211d917d", "name": "34cc2482382809c88ce58b1d211d917d", "is_reserved": 0, "fusion_lat": 0.0}, {"type": "electric_scooter", "rental_uris": {"ios": "https://dc.lft.to/lastmile_qr_scan", "android": "https://dc.lft.to/lastmile_qr_scan"}, "lon": -77.0276375, "fusion_lon": 0.0, "is_disabled": 0, "lat": 38.956134166666665, "bike_id": "11e3212962fa99558e26aabfce6630d6", "name": "11e3212962fa99558e26aabfce6630d6", "is_reserved": 0, "fusion_lat": 0.0}, {"type": "electric_scooter", "rental_uris": {"ios": "https://dc.lft.to/lastmile_qr_scan", "android": "https://dc.lft.to/lastmile_qr_scan"}, "lon": -77.01101383333334, "fusion_lon": 0.0, "is_disabled": 0, "lat": 38.8934815, "bike_id": "e29e7e69209d328163b3071679abd6e1", "name": "e29e7e69209d328163b3071679abd6e1", "is_reserved": 0, "fusion_lat": 0.0}, {"type": "electric_scooter", "rental_uris": {"ios": "https://dc.lft.to/lastmile_qr_scan", "android": "https://dc.lft.to/lastmile_qr_scan"}, "lon": -76.99211233333334, "fusion_lon": 0.0, "is_disabled": 0, "lat": 38.895232166666666, "bike_id": "3f03ae1adfdb4f2591b331ca6a4c6741", "name": "3f03ae1adfdb4f2591b331ca6a4c6741", "is_reserved": 0, "fusion_lat": 0.0}, {"type": "electric_scooter", "rental_uris": {"ios": "https://dc.lft.to/lastmile_qr_scan", "android": "https://dc.lft.to/lastmile_qr_scan"}, "lon": -76.98311883333334, "fusion_lon": 0.0, "is_disabled": 0, "lat": 38.86890916666667, "bike_id": "197d7a7673f110fd182aaf9f32d4d625", "name": "197d7a7673f110fd182aaf9f32d4d625", "is_reserved": 0, "fusion_lat": 0.0}, {"type": "electric_scooter", "rental_uris": {"ios": "https://dc.lft.to/lastmile_qr_scan", "android": "https://dc.lft.to/lastmile_qr_scan"}, "lon": -77.01739016666667, "fusion_lon": 0.0, "is_disabled": 0, "lat": 38.902662, "bike_id": "89dcbd26b8d71f3a155070b39e21e47f", "name": "89dcbd26b8d71f3a155070b39e21e47f", "is_reserved": 0, "fusion_lat": 0.0}, {"type": "electric_scooter", "rental_uris": {"ios": "https://dc.lft.to/lastmile_qr_scan", "android": "https://dc.lft.to/lastmile_qr_scan"}, "lon": -76.9903685, "fusion_lon": 0.0, "is_disabled": 0, "lat": 38.89853683333333, "bike_id": "1169be3d162900d5ef5ca055e068b0f3", "name": "1169be3d162900d5ef5ca055e068b0f3", "is_reserved": 0, "fusion_lat": 0.0}, {"type": "electric_scooter", "rental_uris": {"ios": "https://dc.lft.to/lastmile_qr_scan", "android": "https://dc.lft.to/lastmile_qr_scan"}, "lon": -77.07989983333333, "fusion_lon": 0.0, "is_disabled": 0, "lat": 38.919437333333335, "bike_id": "b1cff54093f2d7a41d85cb947f717e6d", "name": "b1cff54093f2d7a41d85cb947f717e6d", "is_reserved": 0, "fusion_lat": 0.0}, {"type": "electric_scooter", "rental_uris": {"ios": "https://dc.lft.to/lastmile_qr_scan", "android": "https://dc.lft.to/lastmile_qr_scan"}, "lon": -76.9317705, "fusion_lon": 0.0, "is_disabled": 0, "lat": 38.89884683333333, "bike_id": "5d2b9033fe9b597859d910b8225067ef", "name": "5d2b9033fe9b597859d910b8225067ef", "is_reserved": 0, "fusion_lat": 0.0}, {"type": "electric_scooter", "rental_uris": {"ios": "https://dc.lft.to/lastmile_qr_scan", "android": "https://dc.lft.to/lastmile_qr_scan"}, "lon": -76.99778216666667, "fusion_lon": 0.0, "is_disabled": 0, "lat": 38.844318, "bike_id": "4318874da013f3eab0a639c0d81cdcdb", "name": "4318874da013f3eab0a639c0d81cdcdb", "is_reserved": 0, "fusion_lat": 0.0}, {"type": "electric_scooter", "rental_uris": {"ios": "https://dc.lft.to/lastmile_qr_scan", "android": "https://dc.lft.to/lastmile_qr_scan"}, "lon": -77.028248, "fusion_lon": 0.0, "is_disabled": 0, "lat": 38.887375666666664, "bike_id": "44afd2cb139a9c8e4b181c6120c98733", "name": "44afd2cb139a9c8e4b181c6120c98733", "is_reserved": 0, "fusion_lat": 0.0}, {"type": "electric_scooter", "rental_uris": {"ios": "https://dc.lft.to/lastmile_qr_scan", "android": "https://dc.lft.to/lastmile_qr_scan"}, "lon": -77.02192033333333, "fusion_lon": 0.0, "is_disabled": 0, "lat": 38.9143265, "bike_id": "a8c21514b4898aece5d7ef3f4cda4923", "name": "a8c21514b4898aece5d7ef3f4cda4923", "is_reserved": 0, "fusion_lat": 0.0}, {"type": "electric_scooter", "rental_uris": {"ios": "https://dc.lft.to/lastmile_qr_scan", "android": "https://dc.lft.to/lastmile_qr_scan"}, "lon": -77.029948, "fusion_lon": 0.0, "is_disabled": 0, "lat": 38.920434666666665, "bike_id": "84c3a17342e763a6bf69962bb4c71a15", "name": "84c3a17342e763a6bf69962bb4c71a15", "is_reserved": 0, "fusion_lat": 0.0}, {"type": "electric_scooter", "rental_uris": {"ios": "https://dc.lft.to/lastmile_qr_scan", "android": "https://dc.lft.to/lastmile_qr_scan"}, "lon": -77.02170483333333, "fusion_lon": 0.0, "is_disabled": 0, "lat": 38.942886666666666, "bike_id": "ac9e4ab0d4ed61c4b082038fa54605fc", "name": "ac9e4ab0d4ed61c4b082038fa54605fc", "is_reserved": 0, "fusion_lat": 0.0}, {"type": "electric_scooter", "rental_uris": {"ios": "https://dc.lft.to/lastmile_qr_scan", "android": "https://dc.lft.to/lastmile_qr_scan"}, "lon": -77.05861, "fusion_lon": 0.0, "is_disabled": 0, "lat": 38.936089833333334, "bike_id": "96ad5a9b1520f5a7336fc82f617ee066", "name": "96ad5a9b1520f5a7336fc82f617ee066", "is_reserved": 0, "fusion_lat": 0.0}, {"type": "electric_scooter", "rental_uris": {"ios": "https://dc.lft.to/lastmile_qr_scan", "android": "https://dc.lft.to/lastmile_qr_scan"}, "lon": -76.96530066666666, "fusion_lon": 0.0, "is_disabled": 0, "lat": 38.876312166666665, "bike_id": "d76669f6fffc0a5ab9f30865fab16923", "name": "d76669f6fffc0a5ab9f30865fab16923", "is_reserved": 0, "fusion_lat": 0.0}, {"type": "electric_scooter", "rental_uris": {"ios": "https://dc.lft.to/lastmile_qr_scan", "android": "https://dc.lft.to/lastmile_qr_scan"}, "lon": -76.976268, "fusion_lon": 0.0, "is_disabled": 0, "lat": 38.898754833333335, "bike_id": "82280f268ff8d515c5d9a4022e0a9b85", "name": "82280f268ff8d515c5d9a4022e0a9b85", "is_reserved": 0, "fusion_lat": 0.0}, {"type": "electric_bike", "rental_uris": {"ios": "https://dc.lft.to/lastmile_qr_scan", "android": "https://dc.lft.to/lastmile_qr_scan"}, "lon": -76.92484016666667, "fusion_lon": 0.0, "is_disabled": 0, "lat": 38.95880416666667, "bike_id": "3e8a2242e3529f90fb5f701ef2f357b4", "name": "3e8a2242e3529f90fb5f701ef2f357b4", "is_reserved": 0, "fusion_lat": 0.0}, {"type": "electric_scooter", "rental_uris": {"ios": "https://dc.lft.to/lastmile_qr_scan", "android": "https://dc.lft.to/lastmile_qr_scan"}, "lon": -76.94155483333333, "fusion_lon": 0.0, "is_disabled": 0, "lat": 38.883639, "bike_id": "ee66e3a5aa6157eed20f821b42c912c7", "name": "ee66e3a5aa6157eed20f821b42c912c7", "is_reserved": 0, "fusion_lat": 0.0}, {"type": "electric_scooter", "rental_uris": {"ios": "https://dc.lft.to/lastmile_qr_scan", "android": "https://dc.lft.to/lastmile_qr_scan"}, "lon": -77.03972183333333, "fusion_lon": 0.0, "is_disabled": 0, "lat": 38.89882466666667, "bike_id": "11b49632c32c1a68dfd919f7ba00a648", "name": "11b49632c32c1a68dfd919f7ba00a648", "is_reserved": 0, "fusion_lat": 0.0}, {"type": "electric_scooter", "rental_uris": {"ios": "https://dc.lft.to/lastmile_qr_scan", "android": "https://dc.lft.to/lastmile_qr_scan"}, "lon": -77.00595233333334, "fusion_lon": 0.0, "is_disabled": 0, "lat": 38.90566333333334, "bike_id": "161239063a4a1b32e0977d326f1ba8cf", "name": "161239063a4a1b32e0977d326f1ba8cf", "is_reserved": 0, "fusion_lat": 0.0}, {"type": "electric_scooter", "rental_uris": {"ios": "https://dc.lft.to/lastmile_qr_scan", "android": "https://dc.lft.to/lastmile_qr_scan"}, "lon": -77.02635633333334, "fusion_lon": 0.0, "is_disabled": 0, "lat": 38.92537383333333, "bike_id": "9097d0024bba215fe9a8b192c7ade61a", "name": "9097d0024bba215fe9a8b192c7ade61a", "is_reserved": 0, "fusion_lat": 0.0}, {"type": "electric_scooter", "rental_uris": {"ios": "https://dc.lft.to/lastmile_qr_scan", "android": "https://dc.lft.to/lastmile_qr_scan"}, "lon": -77.029781, "fusion_lon": 0.0, "is_disabled": 0, "lat": 38.91696183333333, "bike_id": "45c39e6f5500badfac1a9bbd646e4f8e", "name": "45c39e6f5500badfac1a9bbd646e4f8e", "is_reserved": 0, "fusion_lat": 0.0}, {"type": "electric_scooter", "rental_uris": {"ios": "https://dc.lft.to/lastmile_qr_scan", "android": "https://dc.lft.to/lastmile_qr_scan"}, "lon": -77.0788615, "fusion_lon": 0.0, "is_disabled": 0, "lat": 38.920644333333335, "bike_id": "61d11abedc6a5549b8759cf48b1ad62a", "name": "61d11abedc6a5549b8759cf48b1ad62a", "is_reserved": 0, "fusion_lat": 0.0}, {"type": "electric_scooter", "rental_uris": {"ios": "https://dc.lft.to/lastmile_qr_scan", "android": "https://dc.lft.to/lastmile_qr_scan"}, "lon": -77.0058035, "fusion_lon": 0.0, "is_disabled": 0, "lat": 38.90565316666667, "bike_id": "cd2fc39ecd22a54bc6b323e566461d1d", "name": "cd2fc39ecd22a54bc6b323e566461d1d", "is_reserved": 0, "fusion_lat": 0.0}, {"type": "electric_scooter", "rental_uris": {"ios": "https://dc.lft.to/lastmile_qr_scan", "android": "https://dc.lft.to/lastmile_qr_scan"}, "lon": -77.02285283333333, "fusion_lon": 0.0, "is_disabled": 0, "lat": 38.9241295, "bike_id": "ae1bd2a1511f889d84c7ef8f827ce45d", "name": "ae1bd2a1511f889d84c7ef8f827ce45d", "is_reserved": 0, "fusion_lat": 0.0}, {"type": "electric_scooter", "rental_uris": {"ios": "https://dc.lft.to/lastmile_qr_scan", "android": "https://dc.lft.to/lastmile_qr_scan"}, "lon": -77.01217716666666, "fusion_lon": 0.0, "is_disabled": 0, "lat": 38.91503266666667, "bike_id": "549bdfb2833a1e234bf5249d2ac4b0f2", "name": "549bdfb2833a1e234bf5249d2ac4b0f2", "is_reserved": 0, "fusion_lat": 0.0}, {"type": "electric_scooter", "rental_uris": {"ios": "https://dc.lft.to/lastmile_qr_scan", "android": "https://dc.lft.to/lastmile_qr_scan"}, "lon": -77.02497766666667, "fusion_lon": 0.0, "is_disabled": 0, "lat": 38.91973516666667, "bike_id": "c4acf0246cd32d9ffcfe9454e2ea8010", "name": "c4acf0246cd32d9ffcfe9454e2ea8010", "is_reserved": 0, "fusion_lat": 0.0}, {"type": "electric_scooter", "rental_uris": {"ios": "https://dc.lft.to/lastmile_qr_scan", "android": "https://dc.lft.to/lastmile_qr_scan"}, "lon": -77.0391805, "fusion_lon": 0.0, "is_disabled": 0, "lat": 38.924734, "bike_id": "a39f21c3bd0c4ad83b8f6a87f09d2889", "name": "a39f21c3bd0c4ad83b8f6a87f09d2889", "is_reserved": 0, "fusion_lat": 0.0}, {"type": "electric_scooter", "rental_uris": {"ios": "https://dc.lft.to/lastmile_qr_scan", "android": "https://dc.lft.to/lastmile_qr_scan"}, "lon": -77.0575545, "fusion_lon": 0.0, "is_disabled": 0, "lat": 38.9246665, "bike_id": "619a94aa4bf1c423069b8fe25692a36d", "name": "619a94aa4bf1c423069b8fe25692a36d", "is_reserved": 0, "fusion_lat": 0.0}, {"type": "electric_scooter", "rental_uris": {"ios": "https://dc.lft.to/lastmile_qr_scan", "android": "https://dc.lft.to/lastmile_qr_scan"}, "lon": -77.0364245, "fusion_lon": 0.0, "is_disabled": 0, "lat": 38.916892, "bike_id": "6e28071a1bae862efaf7a76ead1188ae", "name": "6e28071a1bae862efaf7a76ead1188ae", "is_reserved": 0, "fusion_lat": 0.0}, {"type": "electric_scooter", "rental_uris": {"ios": "https://dc.lft.to/lastmile_qr_scan", "android": "https://dc.lft.to/lastmile_qr_scan"}, "lon": -77.03875166666667, "fusion_lon": 0.0, "is_disabled": 0, "lat": 38.91032833333333, "bike_id": "56628670f661650d2635867f59f06a0a", "name": "56628670f661650d2635867f59f06a0a", "is_reserved": 0, "fusion_lat": 0.0}, {"type": "electric_bike", "rental_uris": {"ios": "https://dc.lft.to/lastmile_qr_scan", "android": "https://dc.lft.to/lastmile_qr_scan"}, "lon": -77.03724966666667, "fusion_lon": 0.0, "is_disabled": 0, "lat": 38.92029566666667, "bike_id": "af362141d8b1636c01a776521c5433d5", "name": "af362141d8b1636c01a776521c5433d5", "is_reserved": 0, "fusion_lat": 0.0}, {"type": "electric_scooter", "rental_uris": {"ios": "https://dc.lft.to/lastmile_qr_scan", "android": "https://dc.lft.to/lastmile_qr_scan"}, "lon": -76.985229, "fusion_lon": 0.0, "is_disabled": 0, "lat": 38.91547416666667, "bike_id": "a399cb6b57972fc71684a0b1b5b31de2", "name": "a399cb6b57972fc71684a0b1b5b31de2", "is_reserved": 0, "fusion_lat": 0.0}, {"type": "electric_scooter", "rental_uris": {"ios": "https://dc.lft.to/lastmile_qr_scan", "android": "https://dc.lft.to/lastmile_qr_scan"}, "lon": -77.0297985, "fusion_lon": 0.0, "is_disabled": 0, "lat": 38.9050765, "bike_id": "f82966f8cf6de2e5ee514c07da999518", "name": "f82966f8cf6de2e5ee514c07da999518", "is_reserved": 0, "fusion_lat": 0.0}, {"type": "electric_scooter", "rental_uris": {"ios": "https://dc.lft.to/lastmile_qr_scan", "android": "https://dc.lft.to/lastmile_qr_scan"}, "lon": -77.05026883333333, "fusion_lon": 0.0, "is_disabled": 0, "lat": 38.906763, "bike_id": "5d0b471d58fb48cffb24ed038e602f13", "name": "5d0b471d58fb48cffb24ed038e602f13", "is_reserved": 0, "fusion_lat": 0.0}, {"type": "electric_scooter", "rental_uris": {"ios": "https://dc.lft.to/lastmile_qr_scan", "android": "https://dc.lft.to/lastmile_qr_scan"}, "lon": -77.01769766666666, "fusion_lon": 0.0, "is_disabled": 0, "lat": 38.88141616666667, "bike_id": "d135968cce373af4e634cb15ec7bb6f9", "name": "d135968cce373af4e634cb15ec7bb6f9", "is_reserved": 0, "fusion_lat": 0.0}, {"type": "electric_scooter", "rental_uris": {"ios": "https://dc.lft.to/lastmile_qr_scan", "android": "https://dc.lft.to/lastmile_qr_scan"}, "lon": -77.02825633333333, "fusion_lon": 0.0, "is_disabled": 0, "lat": 38.88737416666667, "bike_id": "2ec78c2b87c5df367e5077eda639ee40", "name": "2ec78c2b87c5df367e5077eda639ee40", "is_reserved": 0, "fusion_lat": 0.0}, {"type": "electric_scooter", "rental_uris": {"ios": "https://dc.lft.to/lastmile_qr_scan", "android": "https://dc.lft.to/lastmile_qr_scan"}, "lon": -77.04647216666666, "fusion_lon": 0.0, "is_disabled": 0, "lat": 38.892245833333334, "bike_id": "608dd8d0fb355bbd8a6f68aa7d07dd16", "name": "608dd8d0fb355bbd8a6f68aa7d07dd16", "is_reserved": 0, "fusion_lat": 0.0}, {"type": "electric_scooter", "rental_uris": {"ios": "https://dc.lft.to/lastmile_qr_scan", "android": "https://dc.lft.to/lastmile_qr_scan"}, "lon": -77.03858633333333, "fusion_lon": 0.0, "is_disabled": 0, "lat": 38.91180516666667, "bike_id": "7f902790acf1609249c137e9ff630dfc", "name": "7f902790acf1609249c137e9ff630dfc", "is_reserved": 0, "fusion_lat": 0.0}, {"type": "electric_scooter", "rental_uris": {"ios": "https://dc.lft.to/lastmile_qr_scan", "android": "https://dc.lft.to/lastmile_qr_scan"}, "lon": -77.05468116666667, "fusion_lon": 0.0, "is_disabled": 0, "lat": 38.896105, "bike_id": "3424e7fc84cfa483586fb9d300c4cc6c", "name": "3424e7fc84cfa483586fb9d300c4cc6c", "is_reserved": 0, "fusion_lat": 0.0}, {"type": "electric_scooter", "rental_uris": {"ios": "https://dc.lft.to/lastmile_qr_scan", "android": "https://dc.lft.to/lastmile_qr_scan"}, "lon": -77.02610333333334, "fusion_lon": 0.0, "is_disabled": 0, "lat": 38.91414183333333, "bike_id": "b4fea019d624e67f631edf040062e159", "name": "b4fea019d624e67f631edf040062e159", "is_reserved": 0, "fusion_lat": 0.0}, {"type": "electric_scooter", "rental_uris": {"ios": "https://dc.lft.to/lastmile_qr_scan", "android": "https://dc.lft.to/lastmile_qr_scan"}, "lon": -77.0255825, "fusion_lon": 0.0, "is_disabled": 0, "lat": 38.9243115, "bike_id": "d77ad25412d388f1dfe028375187b17f", "name": "d77ad25412d388f1dfe028375187b17f", "is_reserved": 0, "fusion_lat": 0.0}, {"type": "electric_scooter", "rental_uris": {"ios": "https://dc.lft.to/lastmile_qr_scan", "android": "https://dc.lft.to/lastmile_qr_scan"}, "lon": -77.04899166666667, "fusion_lon": 0.0, "is_disabled": 0, "lat": 38.89227183333333, "bike_id": "fc00c363f4c7bd45c63becdced0073e8", "name": "fc00c363f4c7bd45c63becdced0073e8", "is_reserved": 0, "fusion_lat": 0.0}, {"type": "electric_scooter", "rental_uris": {"ios": "https://dc.lft.to/lastmile_qr_scan", "android": "https://dc.lft.to/lastmile_qr_scan"}, "lon": -77.027975, "fusion_lon": 0.0, "is_disabled": 0, "lat": 38.91714983333333, "bike_id": "4341289c1d00e4ba6a284741561c784e", "name": "4341289c1d00e4ba6a284741561c784e", "is_reserved": 0, "fusion_lat": 0.0}, {"type": "electric_scooter", "rental_uris": {"ios": "https://dc.lft.to/lastmile_qr_scan", "android": "https://dc.lft.to/lastmile_qr_scan"}, "lon": -77.027224, "fusion_lon": 0.0, "is_disabled": 0, "lat": 38.95186133333333, "bike_id": "588df6b581e06b40526d9b387d8c65c1", "name": "588df6b581e06b40526d9b387d8c65c1", "is_reserved": 0, "fusion_lat": 0.0}, {"type": "electric_scooter", "rental_uris": {"ios": "https://dc.lft.to/lastmile_qr_scan", "android": "https://dc.lft.to/lastmile_qr_scan"}, "lon": -77.03664116666667, "fusion_lon": 0.0, "is_disabled": 0, "lat": 38.91721966666667, "bike_id": "6c8f6a2efab804125b49beb9b41e4767", "name": "6c8f6a2efab804125b49beb9b41e4767", "is_reserved": 0, "fusion_lat": 0.0}, {"type": "electric_scooter", "rental_uris": {"ios": "https://dc.lft.to/lastmile_qr_scan", "android": "https://dc.lft.to/lastmile_qr_scan"},