{"data": {"bikes": [{"rental_uris": {"ios": "https://dc.lft.to/lastmile_qr_scan", "android": "https://dc.lft.to/lastmile_qr_scan"}, "type": "electric_scooter", "name": "8c918a5c62fdf10609208e2c99469d36", "is_reserved": 0, "lon": -77.03812, "is_disabled": 0, "fusion_lat": 0.0, "lat": 38.9104145, "bike_id": "8c918a5c62fdf10609208e2c99469d36", "fusion_lon": 0.0}, {"rental_uris": {"ios": "https://dc.lft.to/lastmile_qr_scan", "android": "https://dc.lft.to/lastmile_qr_scan"}, "type": "electric_scooter", "name": "ca163967c9ee399f57ae14099760aa9b", "is_reserved": 0, "lon": -76.933582, "is_disabled": 0, "fusion_lat": 0.0, "lat": 38.89901966666667, "bike_id": "ca163967c9ee399f57ae14099760aa9b", "fusion_lon": 0.0}, {"rental_uris": {"ios": "https://dc.lft.to/lastmile_qr_scan", "android": "https://dc.lft.to/lastmile_qr_scan"}, "type": "electric_scooter", "name": "ca8a1164da212eff636456dd1423fab0", "is_reserved": 0, "lon": -77.0468125, "is_disabled": 0, "fusion_lat": 0.0, "lat": 38.902676666666665, "bike_id": "ca8a1164da212eff636456dd1423fab0", "fusion_lon": 0.0}, {"rental_uris": {"ios": "https://dc.lft.to/lastmile_qr_scan", "android": "https://dc.lft.to/lastmile_qr_scan"}, "type": "electric_scooter", "name": "69b2def4a1bb4bf426a8a172022f489c", "is_reserved": 0, "lon": -77.04884433333334, "is_disabled": 0, "fusion_lat": 0.0, "lat": 38.90048483333333, "bike_id": "69b2def4a1bb4bf426a8a172022f489c", "fusion_lon": 0.0}, {"rental_uris": {"ios": "https://dc.lft.to/lastmile_qr_scan", "android": "https://dc.lft.to/lastmile_qr_scan"}, "type": "electric_bike", "name": "6691c802b164848d9b5b8f96579d5f85", "is_reserved": 0, "lon": -77.1273805, "is_disabled": 0, "fusion_lat": 0.0, "lat": 38.8955835, "bike_id": "6691c802b164848d9b5b8f96579d5f85", "fusion_lon": 0.0}, {"rental_uris": {"ios": "https://dc.lft.to/lastmile_qr_scan", "android": "https://dc.lft.to/lastmile_qr_scan"}, "type": "electric_scooter", "name": "506e867e1ee063398f1e5c5710384e98", "is_reserved": 0, "lon": -77.06697833333334, "is_disabled": 0, "fusion_lat": 0.0, "lat": 38.9503535, "bike_id": "506e867e1ee063398f1e5c5710384e98", "fusion_lon": 0.0}, {"rental_uris": {"ios": "https://dc.lft.to/lastmile_qr_scan", "android": "https://dc.lft.to/lastmile_qr_scan"}, "type": "electric_scooter", "name": "6b55487defce93160e42b3fea3552070", "is_reserved": 0, "lon": -77.04162283333334, "is_disabled": 0, "fusion_lat": 0.0, "lat": 38.918314, "bike_id": "6b55487defce93160e42b3fea3552070", "fusion_lon": 0.0}, {"rental_uris": {"ios": "https://dc.lft.to/lastmile_qr_scan", "android": "https://dc.lft.to/lastmile_qr_scan"}, "type": "electric_scooter", "name": "5027779e001185c3ad577d5c1e088b54", "is_reserved": 0, "lon": -77.068588, "is_disabled": 0, "fusion_lat": 0.0, "lat": 38.904033166666665, "bike_id": "5027779e001185c3ad577d5c1e088b54", "fusion_lon": 0.0}, {"rental_uris": {"ios": "https://dc.lft.to/lastmile_qr_scan", "android": "https://dc.lft.to/lastmile_qr_scan"}, "type": "electric_scooter", "name": "90b8c92ce42f6e6cf9de3e1f9cd2dca3", "is_reserved": 0, "lon": -76.97329966666666, "is_disabled": 0, "fusion_lat": 0.0, "lat": 38.90411266666667, "bike_id": "90b8c92ce42f6e6cf9de3e1f9cd2dca3", "fusion_lon": 0.0}, {"rental_uris": {"ios": "https://dc.lft.to/lastmile_qr_scan", "android": "https://dc.lft.to/lastmile_qr_scan"}, "type": "electric_scooter", "name": "5f0f63c2fbed4cba49c8930cf2298e65", "is_reserved": 0, "lon": -77.061004, "is_disabled": 0, "fusion_lat": 0.0, "lat": 38.9398495, "bike_id": "5f0f63c2fbed4cba49c8930cf2298e65", "fusion_lon": 0.0}, {"rental_uris": {"ios": "https://dc.lft.to/lastmile_qr_scan", "android": "https://dc.lft.to/lastmile_qr_scan"}, "type": "electric_scooter", "name": "034c4801d32be7fe460f235665a5749e", "is_reserved": 0, "lon": -77.00128883333333, "is_disabled": 0, "fusion_lat": 0.0, "lat": 38.87503016666667, "bike_id": "034c4801d32be7fe460f235665a5749e", "fusion_lon": 0.0}, {"rental_uris": {"ios": "https://dc.lft.to/lastmile_qr_scan", "android": "https://dc.lft.to/lastmile_qr_scan"}, "type": "electric_bike", "name": "2b2e3e14876b2dfddf10538b2ae98e30", "is_reserved": 0, "lon": -77.06948883333334, "is_disabled": 0, "fusion_lat": 0.0, "lat": 38.8362975, "bike_id": "2b2e3e14876b2dfddf10538b2ae98e30", "fusion_lon": 0.0}, {"rental_uris": {"ios": "https://dc.lft.to/lastmile_qr_scan", "android": "https://dc.lft.to/lastmile_qr_scan"}, "type": "electric_scooter", "name": "dbb9d00ceea912bc6e9b48d00fb1dafc", "is_reserved": 0, "lon": -77.01153033333334, "is_disabled": 0, "fusion_lat": 0.0, "lat": 38.909621666666666, "bike_id": "dbb9d00ceea912bc6e9b48d00fb1dafc", "fusion_lon": 0.0}, {"rental_uris": {"ios": "https://dc.lft.to/lastmile_qr_scan", "android": "https://dc.lft.to/lastmile_qr_scan"}, "type": "electric_scooter", "name": "c51fd6f45921f1da7935e55403cdfd98", "is_reserved": 0, "lon": -77.04825483333333, "is_disabled": 0, "fusion_lat": 0.0, "lat": 38.9148935, "bike_id": "c51fd6f45921f1da7935e55403cdfd98", "fusion_lon": 0.0}, {"rental_uris": {"ios": "https://dc.lft.to/lastmile_qr_scan", "android": "https://dc.lft.to/lastmile_qr_scan"}, "type": "electric_scooter", "name": "c5e314b49544f91d8887aae85c729295", "is_reserved": 0, "lon": -77.03970166666667, "is_disabled": 0, "fusion_lat": 0.0, "lat": 38.93145616666666, "bike_id": "c5e314b49544f91d8887aae85c729295", "fusion_lon": 0.0}, {"rental_uris": {"ios": "https://dc.lft.to/lastmile_qr_scan", "android": "https://dc.lft.to/lastmile_qr_scan"}, "type": "electric_scooter", "name": "7e87f004893a993eb3d312ed8b3789e6", "is_reserved": 0, "lon": -77.02716916666667, "is_disabled": 0, "fusion_lat": 0.0, "lat": 38.917295833333334, "bike_id": "7e87f004893a993eb3d312ed8b3789e6", "fusion_lon": 0.0}, {"rental_uris": {"ios": "https://dc.lft.to/lastmile_qr_scan", "android": "https://dc.lft.to/lastmile_qr_scan"}, "type": "electric_scooter", "name": "947ec8ea576e97880685b16e4226aac3", "is_reserved": 0, "lon": -76.995909, "is_disabled": 0, "fusion_lat": 0.0, "lat": 38.90944233333333, "bike_id": "947ec8ea576e97880685b16e4226aac3", "fusion_lon": 0.0}, {"rental_uris": {"ios": "https://dc.lft.to/lastmile_qr_scan", "android": "https://dc.lft.to/lastmile_qr_scan"}, "type": "electric_scooter", "name": "f91431a14a18acac08aee36f9fac04cb", "is_reserved": 0, "lon": -77.03036766666666, "is_disabled": 0, "fusion_lat": 0.0, "lat": 38.8922555, "bike_id": "f91431a14a18acac08aee36f9fac04cb", "fusion_lon": 0.0}, {"rental_uris": {"ios": "https://dc.lft.to/lastmile_qr_scan", "android": "https://dc.lft.to/lastmile_qr_scan"}, "type": "electric_scooter", "name": "d035630c2dfe72ad31795802dd2d4607", "is_reserved": 0, "lon": -77.02381233333334, "is_disabled": 0, "fusion_lat": 0.0, "lat": 38.908446833333336, "bike_id": "d035630c2dfe72ad31795802dd2d4607", "fusion_lon": 0.0}, {"rental_uris": {"ios": "https://dc.lft.to/lastmile_qr_scan", "android": "https://dc.lft.to/lastmile_qr_scan"}, "type": "electric_scooter", "name": "c8642a4fe948c348ae68d8ea85f201d3", "is_reserved": 0, "lon": -77.049114, "is_disabled": 0, "fusion_lat": 0.0, "lat": 38.900748666666665, "bike_id": "c8642a4fe948c348ae68d8ea85f201d3", "fusion_lon": 0.0}, {"rental_uris": {"ios": "https://dc.lft.to/lastmile_qr_scan", "android": "https://dc.lft.to/lastmile_qr_scan"}, "type": "electric_scooter", "name": "3a72a8046db0edf03fbcaf2a8cfb3b51", "is_reserved": 0, "lon": -77.06830633333334, "is_disabled": 0, "fusion_lat": 0.0, "lat": 38.91728033333333, "bike_id": "3a72a8046db0edf03fbcaf2a8cfb3b51", "fusion_lon": 0.0}, {"rental_uris": {"ios": "https://dc.lft.to/lastmile_qr_scan", "android": "https://dc.lft.to/lastmile_qr_scan"}, "type": "electric_scooter", "name": "b1cd92a47169d7543a97f81e8d6a4b48", "is_reserved": 0, "lon": -76.98449516666666, "is_disabled": 0, "fusion_lat": 0.0, "lat": 38.914680833333335, "bike_id": "b1cd92a47169d7543a97f81e8d6a4b48", "fusion_lon": 0.0}, {"rental_uris": {"ios": "https://dc.lft.to/lastmile_qr_scan", "android": "https://dc.lft.to/lastmile_qr_scan"}, "type": "electric_scooter", "name": "2faa34281383ecd36e1001eb44913efe", "is_reserved": 0, "lon": -77.02486, "is_disabled": 0, "fusion_lat": 0.0, "lat": 38.93879966666667, "bike_id": "2faa34281383ecd36e1001eb44913efe", "fusion_lon": 0.0}, {"rental_uris": {"ios": "https://dc.lft.to/lastmile_qr_scan", "android": "https://dc.lft.to/lastmile_qr_scan"}, "type": "electric_scooter", "name": "71d52b961ca4f5e90c1ed80c62aec626", "is_reserved": 0, "lon": -77.04325516666667, "is_disabled": 0, "fusion_lat": 0.0, "lat": 38.934306666666664, "bike_id": "71d52b961ca4f5e90c1ed80c62aec626", "fusion_lon": 0.0}, {"rental_uris": {"ios": "https://dc.lft.to/lastmile_qr_scan", "android": "https://dc.lft.to/lastmile_qr_scan"}, "type": "electric_scooter", "name": "6102121c440fe1943bf376c9ee9f75bd", "is_reserved": 0, "lon": -77.04061733333333, "is_disabled": 0, "fusion_lat": 0.0, "lat": 38.9176845, "bike_id": "6102121c440fe1943bf376c9ee9f75bd", "fusion_lon": 0.0}, {"rental_uris": {"ios": "https://dc.lft.to/lastmile_qr_scan", "android": "https://dc.lft.to/lastmile_qr_scan"}, "type": "electric_scooter", "name": "85b8f2df139c1d3a07dff284ce76e813", "is_reserved": 0, "lon": -77.0628965, "is_disabled": 0, "fusion_lat": 0.0, "lat": 38.94345033333333, "bike_id": "85b8f2df139c1d3a07dff284ce76e813", "fusion_lon": 0.0}, {"rental_uris": {"ios": "https://dc.lft.to/lastmile_qr_scan", "android": "https://dc.lft.to/lastmile_qr_scan"}, "type": "electric_bike", "name": "47c85cd8a308239171f0f66c8b5a199f", "is_reserved": 0, "lon": -77.1140645, "is_disabled": 0, "fusion_lat": 0.0, "lat": 38.8732755, "bike_id": "47c85cd8a308239171f0f66c8b5a199f", "fusion_lon": 0.0}, {"rental_uris": {"ios": "https://dc.lft.to/lastmile_qr_scan", "android": "https://dc.lft.to/lastmile_qr_scan"}, "type": "electric_scooter", "name": "4c7b4f040d0611a8ffd87a6e9a08470f", "is_reserved": 0, "lon": -77.04877833333333, "is_disabled": 0, "fusion_lat": 0.0, "lat": 38.91049683333333, "bike_id": "4c7b4f040d0611a8ffd87a6e9a08470f", "fusion_lon": 0.0}, {"rental_uris": {"ios": "https://dc.lft.to/lastmile_qr_scan", "android": "https://dc.lft.to/lastmile_qr_scan"}, "type": "electric_scooter", "name": "2882de013b6f21e1e55132efda4c3931", "is_reserved": 0, "lon": -77.04858566666667, "is_disabled": 0, "fusion_lat": 0.0, "lat": 38.912684, "bike_id": "2882de013b6f21e1e55132efda4c3931", "fusion_lon": 0.0}, {"rental_uris": {"ios": "https://dc.lft.to/lastmile_qr_scan", "android": "https://dc.lft.to/lastmile_qr_scan"}, "type": "electric_scooter", "name": "615e7b9de009c8eefb2a7a2dbe617eea", "is_reserved": 0, "lon": -77.02830933333334, "is_disabled": 0, "fusion_lat": 0.0, "lat": 38.9026675, "bike_id": "615e7b9de009c8eefb2a7a2dbe617eea", "fusion_lon": 0.0}, {"rental_uris": {"ios": "https://dc.lft.to/lastmile_qr_scan", "android": "https://dc.lft.to/lastmile_qr_scan"}, "type": "electric_scooter", "name": "05c5b7d51b9a1703daf534f7bd297f73", "is_reserved": 0, "lon": -77.02838216666666, "is_disabled": 0, "fusion_lat": 0.0, "lat": 38.95731416666667, "bike_id": "05c5b7d51b9a1703daf534f7bd297f73", "fusion_lon": 0.0}, {"rental_uris": {"ios": "https://dc.lft.to/lastmile_qr_scan", "android": "https://dc.lft.to/lastmile_qr_scan"}, "type": "electric_scooter", "name": "259b4709cf8e518b7cf0d74d70822706", "is_reserved": 0, "lon": -76.983725, "is_disabled": 0, "fusion_lat": 0.0, "lat": 38.8913635, "bike_id": "259b4709cf8e518b7cf0d74d70822706", "fusion_lon": 0.0}, {"rental_uris": {"ios": "https://dc.lft.to/lastmile_qr_scan", "android": "https://dc.lft.to/lastmile_qr_scan"}, "type": "electric_scooter", "name": "dcc702ba90c4508b42d7b4bed7942fce", "is_reserved": 0, "lon": -77.03263116666666, "is_disabled": 0, "fusion_lat": 0.0, "lat": 38.904189333333335, "bike_id": "dcc702ba90c4508b42d7b4bed7942fce", "fusion_lon": 0.0}, {"rental_uris": {"ios": "https://dc.lft.to/lastmile_qr_scan", "android": "https://dc.lft.to/lastmile_qr_scan"}, "type": "electric_bike", "name": "d49076888b700c1e1d46fab4802cb828", "is_reserved": 0, "lon": -77.06531033333333, "is_disabled": 0, "fusion_lat": 0.0, "lat": 38.992307333333336, "bike_id": "d49076888b700c1e1d46fab4802cb828", "fusion_lon": 0.0}, {"rental_uris": {"ios": "https://dc.lft.to/lastmile_qr_scan", "android": "https://dc.lft.to/lastmile_qr_scan"}, "type": "electric_scooter", "name": "4cd26221b60dcde00b363720b2dab2f7", "is_reserved": 0, "lon": -77.04126733333334, "is_disabled": 0, "fusion_lat": 0.0, "lat": 38.933887, "bike_id": "4cd26221b60dcde00b363720b2dab2f7", "fusion_lon": 0.0}, {"rental_uris": {"ios": "https://dc.lft.to/lastmile_qr_scan", "android": "https://dc.lft.to/lastmile_qr_scan"}, "type": "electric_scooter", "name": "e63bf6f80f9e001187c3351a6254b950", "is_reserved": 0, "lon": -77.05516366666667, "is_disabled": 0, "fusion_lat": 0.0, "lat": 38.928317166666666, "bike_id": "e63bf6f80f9e001187c3351a6254b950", "fusion_lon": 0.0}, {"rental_uris": {"ios": "https://dc.lft.to/lastmile_qr_scan", "android": "https://dc.lft.to/lastmile_qr_scan"}, "type": "electric_scooter", "name": "21a893572cfb96193a3c00af9bb677a6", "is_reserved": 0, "lon": -77.0194525, "is_disabled": 0, "fusion_lat": 0.0, "lat": 38.93047883333333, "bike_id": "21a893572cfb96193a3c00af9bb677a6", "fusion_lon": 0.0}, {"rental_uris": {"ios": "https://dc.lft.to/lastmile_qr_scan", "android": "https://dc.lft.to/lastmile_qr_scan"}, "type": "electric_bike", "name": "622cf959d140a9e9ec1b5b76dc86d42a", "is_reserved": 0, "lon": -77.09725883333333, "is_disabled": 0, "fusion_lat": 0.0, "lat": 38.807399333333336, "bike_id": "622cf959d140a9e9ec1b5b76dc86d42a", "fusion_lon": 0.0}, {"rental_uris": {"ios": "https://dc.lft.to/lastmile_qr_scan", "android": "https://dc.lft.to/lastmile_qr_scan"}, "type": "electric_scooter", "name": "8a0060c5d7c99e07552dcb0d83361348", "is_reserved": 0, "lon": -77.01589783333333, "is_disabled": 0, "fusion_lat": 0.0, "lat": 38.87642366666667, "bike_id": "8a0060c5d7c99e07552dcb0d83361348", "fusion_lon": 0.0}, {"rental_uris": {"ios": "https://dc.lft.to/lastmile_qr_scan", "android": "https://dc.lft.to/lastmile_qr_scan"}, "type": "electric_bike", "name": "03b36a47b5e91c4796e015722d5f321e", "is_reserved": 0, "lon": -77.09778533333333, "is_disabled": 0, "fusion_lat": 0.0, "lat": 38.881832, "bike_id": "03b36a47b5e91c4796e015722d5f321e", "fusion_lon": 0.0}, {"rental_uris": {"ios": "https://dc.lft.to/lastmile_qr_scan", "android": "https://dc.lft.to/lastmile_qr_scan"}, "type": "electric_bike", "name": "685f28c214c5e4ced1ae88106b9eab3e", "is_reserved": 0, "lon": -77.023801, "is_disabled": 0, "fusion_lat": 0.0, "lat": 38.932264333333336, "bike_id": "685f28c214c5e4ced1ae88106b9eab3e", "fusion_lon": 0.0}, {"rental_uris": {"ios": "https://dc.lft.to/lastmile_qr_scan", "android": "https://dc.lft.to/lastmile_qr_scan"}, "type": "electric_scooter", "name": "88b63a54564dcfba727a67426216b1da", "is_reserved": 0, "lon": -77.03374733333334, "is_disabled": 0, "fusion_lat": 0.0, "lat": 38.89962383333334, "bike_id": "88b63a54564dcfba727a67426216b1da", "fusion_lon": 0.0}, {"rental_uris": {"ios": "https://dc.lft.to/lastmile_qr_scan", "android": "https://dc.lft.to/lastmile_qr_scan"}, "type": "electric_scooter", "name": "f665c7d3b522a0b03bc327bb888d846a", "is_reserved": 0, "lon": -77.017029, "is_disabled": 0, "fusion_lat": 0.0, "lat": 38.904806, "bike_id": "f665c7d3b522a0b03bc327bb888d846a", "fusion_lon": 0.0}, {"rental_uris": {"ios": "https://dc.lft.to/lastmile_qr_scan", "android": "https://dc.lft.to/lastmile_qr_scan"}, "type": "electric_scooter", "name": "0e707d4de886a09572339d49a29a7337", "is_reserved": 0, "lon": -77.01766433333333, "is_disabled": 0, "fusion_lat": 0.0, "lat": 38.886123166666664, "bike_id": "0e707d4de886a09572339d49a29a7337", "fusion_lon": 0.0}, {"rental_uris": {"ios": "https://dc.lft.to/lastmile_qr_scan", "android": "https://dc.lft.to/lastmile_qr_scan"}, "type": "electric_bike", "name": "977d9620c0c16bb4d274dc6b20a9550e", "is_reserved": 0, "lon": -76.960948, "is_disabled": 0, "fusion_lat": 0.0, "lat": 38.918695666666665, "bike_id": "977d9620c0c16bb4d274dc6b20a9550e", "fusion_lon": 0.0}, {"rental_uris": {"ios": "https://dc.lft.to/lastmile_qr_scan", "android": "https://dc.lft.to/lastmile_qr_scan"}, "type": "electric_scooter", "name": "38a3aff12741d7349717005b6f8569cd", "is_reserved": 0, "lon": -77.02781633333333, "is_disabled": 0, "fusion_lat": 0.0, "lat": 38.8974255, "bike_id": "38a3aff12741d7349717005b6f8569cd", "fusion_lon": 0.0}, {"rental_uris": {"ios": "https://dc.lft.to/lastmile_qr_scan", "android": "https://dc.lft.to/lastmile_qr_scan"}, "type": "electric_scooter", "name": "2bc042a3c9c8bd894e8fbe919dade6c8", "is_reserved": 0, "lon": -77.02351, "is_disabled": 0, "fusion_lat": 0.0, "lat": 38.935326833333335, "bike_id": "2bc042a3c9c8bd894e8fbe919dade6c8", "fusion_lon": 0.0}, {"rental_uris": {"ios": "https://dc.lft.to/lastmile_qr_scan", "android": "https://dc.lft.to/lastmile_qr_scan"}, "type": "electric_scooter", "name": "6a3e447c834014c53b433561581a637e", "is_reserved": 0, "lon": -77.048668, "is_disabled": 0, "fusion_lat": 0.0, "lat": 38.8922475, "bike_id": "6a3e447c834014c53b433561581a637e", "fusion_lon": 0.0}, {"rental_uris": {"ios": "https://dc.lft.to/lastmile_qr_scan", "android": "https://dc.lft.to/lastmile_qr_scan"}, "type": "electric_scooter", "name": "9be0f852e550a1f62f6d7051d461aa37", "is_reserved": 0, "lon": -77.04601866666667, "is_disabled": 0, "fusion_lat": 0.0, "lat": 38.92338916666667, "bike_id": "9be0f852e550a1f62f6d7051d461aa37", "fusion_lon": 0.0}, {"rental_uris": {"ios": "https://dc.lft.to/lastmile_qr_scan", "android": "https://dc.lft.to/lastmile_qr_scan"}, "type": "electric_scooter", "name": "4fc7727079f05990b7d6c1a46cd429e8", "is_reserved": 0, "lon": -77.0327245, "is_disabled": 0, "fusion_lat": 0.0, "lat": 38.9044825, "bike_id": "4fc7727079f05990b7d6c1a46cd429e8", "fusion_lon": 0.0}, {"rental_uris": {"ios": "https://dc.lft.to/lastmile_qr_scan", "android": "https://dc.lft.to/lastmile_qr_scan"}, "type": "electric_bike", "name": "a2c09d0cbe0733653b9f0ba1cb516b6e", "is_reserved": 0, "lon": -76.99917033333334, "is_disabled": 0, "fusion_lat": 0.0, "lat": 38.99470133333333, "bike_id": "a2c09d0cbe0733653b9f0ba1cb516b6e", "fusion_lon": 0.0}, {"rental_uris": {"ios": "https://dc.lft.to/lastmile_qr_scan", "android": "https://dc.lft.to/lastmile_qr_scan"}, "type": "electric_scooter", "name": "af1dd2373707544061ee68f201657d2c", "is_reserved": 0, "lon": -77.068693, "is_disabled": 0, "fusion_lat": 0.0, "lat": 38.95300833333334, "bike_id": "af1dd2373707544061ee68f201657d2c", "fusion_lon": 0.0}, {"rental_uris": {"ios": "https://dc.lft.to/lastmile_qr_scan", "android": "https://dc.lft.to/lastmile_qr_scan"}, "type": "electric_scooter", "name": "af1ec1ba37de15203bd636f888f2204b", "is_reserved": 0, "lon": -77.04756733333333, "is_disabled": 0, "fusion_lat": 0.0, "lat": 38.8959275, "bike_id": "af1ec1ba37de15203bd636f888f2204b", "fusion_lon": 0.0}, {"rental_uris": {"ios": "https://dc.lft.to/lastmile_qr_scan", "android": "https://dc.lft.to/lastmile_qr_scan"}, "type": "electric_bike", "name": "4e862968663f392a9d5204c4c035db25", "is_reserved": 0, "lon": -77.04070566666667, "is_disabled": 0, "fusion_lat": 0.0, "lat": 38.89529683333333, "bike_id": "4e862968663f392a9d5204c4c035db25", "fusion_lon": 0.0}, {"rental_uris": {"ios": "https://dc.lft.to/lastmile_qr_scan", "android": "https://dc.lft.to/lastmile_qr_scan"}, "type": "electric_scooter", "name": "1001c0403d3802f98d3fa9e915c87779", "is_reserved": 0, "lon": -77.03659583333334, "is_disabled": 0, "fusion_lat": 0.0, "lat": 38.921011, "bike_id": "1001c0403d3802f98d3fa9e915c87779", "fusion_lon": 0.0}, {"rental_uris": {"ios": "https://dc.lft.to/lastmile_qr_scan", "android": "https://dc.lft.to/lastmile_qr_scan"}, "type": "electric_scooter", "name": "9bdf7cddb1005aa87b978e68a77852e7", "is_reserved": 0, "lon": -77.06605683333333, "is_disabled": 0, "fusion_lat": 0.0, "lat": 38.91111716666666, "bike_id": "9bdf7cddb1005aa87b978e68a77852e7", "fusion_lon": 0.0}, {"rental_uris": {"ios": "https://dc.lft.to/lastmile_qr_scan", "android": "https://dc.lft.to/lastmile_qr_scan"}, "type": "electric_scooter", "name": "795db369c685fb30b3d901a687ba4b43", "is_reserved": 0, "lon": -77.0487495, "is_disabled": 0, "fusion_lat": 0.0, "lat": 38.9097755, "bike_id": "795db369c685fb30b3d901a687ba4b43", "fusion_lon": 0.0}, {"rental_uris": {"ios": "https://dc.lft.to/lastmile_qr_scan", "android": "https://dc.lft.to/lastmile_qr_scan"}, "type": "electric_scooter", "name": "0834c3b031a0e8f8825193d314bd309e", "is_reserved": 0, "lon": -77.030707, "is_disabled": 0, "fusion_lat": 0.0, "lat": 38.924839666666664, "bike_id": "0834c3b031a0e8f8825193d314bd309e", "fusion_lon": 0.0}, {"rental_uris": {"ios": "https://dc.lft.to/lastmile_qr_scan", "android": "https://dc.lft.to/lastmile_qr_scan"}, "type": "electric_scooter", "name": "16c5bd6d927e2eab7369050183653bc5", "is_reserved": 0, "lon": -77.02383933333333, "is_disabled": 0, "fusion_lat": 0.0, "lat": 38.91292283333333, "bike_id": "16c5bd6d927e2eab7369050183653bc5", "fusion_lon": 0.0}, {"rental_uris": {"ios": "https://dc.lft.to/lastmile_qr_scan", "android": "https://dc.lft.to/lastmile_qr_scan"}, "type": "electric_scooter", "name": "9ed5c3975951c6372f07e6e708806381", "is_reserved": 0, "lon": -77.0450675, "is_disabled": 0, "fusion_lat": 0.0, "lat": 38.8922725, "bike_id": "9ed5c3975951c6372f07e6e708806381", "fusion_lon": 0.0}, {"rental_uris": {"ios": "https://dc.lft.to/lastmile_qr_scan", "android": "https://dc.lft.to/lastmile_qr_scan"}, "type": "electric_scooter", "name": "3a15735a0f35905b17a1eaeb55e38ff8", "is_reserved": 0, "lon": -77.0434785, "is_disabled": 0, "fusion_lat": 0.0, "lat": 38.92175533333333, "bike_id": "3a15735a0f35905b17a1eaeb55e38ff8", "fusion_lon": 0.0}, {"rental_uris": {"ios": "https://dc.lft.to/lastmile_qr_scan", "android": "https://dc.lft.to/lastmile_qr_scan"}, "type": "electric_scooter", "name": "7dce4d9d8c27f3a6f215671501f4a2aa", "is_reserved": 0, "lon": -77.05050583333333, "is_disabled": 0, "fusion_lat": 0.0, "lat": 38.90078833333333, "bike_id": "7dce4d9d8c27f3a6f215671501f4a2aa", "fusion_lon": 0.0}, {"rental_uris": {"ios": "https://dc.lft.to/lastmile_qr_scan", "android": "https://dc.lft.to/lastmile_qr_scan"}, "type": "electric_scooter", "name": "8ee22d826b374119cc62e12336066da0", "is_reserved": 0, "lon": -76.991028, "is_disabled": 0, "fusion_lat": 0.0, "lat": 38.85727116666666, "bike_id": "8ee22d826b374119cc62e12336066da0", "fusion_lon": 0.0}, {"rental_uris": {"ios": "https://dc.lft.to/lastmile_qr_scan", "android": "https://dc.lft.to/lastmile_qr_scan"}, "type": "electric_scooter", "name": "63c92d8534cc40db8ed885e2a051307c", "is_reserved": 0, "lon": -77.0377605, "is_disabled": 0, "fusion_lat": 0.0, "lat": 38.90731016666667, "bike_id": "63c92d8534cc40db8ed885e2a051307c", "fusion_lon": 0.0}, {"rental_uris": {"ios": "https://dc.lft.to/lastmile_qr_scan", "android": "https://dc.lft.to/lastmile_qr_scan"}, "type": "electric_scooter", "name": "adf5a7d3e13c9d68a341ecbd439ec388", "is_reserved": 0, "lon": -76.98099833333333, "is_disabled": 0, "fusion_lat": 0.0, "lat": 38.857177166666666, "bike_id": "adf5a7d3e13c9d68a341ecbd439ec388", "fusion_lon": 0.0}, {"rental_uris": {"ios": "https://dc.lft.to/lastmile_qr_scan", "android": "https://dc.lft.to/lastmile_qr_scan"}, "type": "electric_scooter", "name": "b36df19ae722a697df28b83c92ef6de5", "is_reserved": 0, "lon": -77.04457116666667, "is_disabled": 0, "fusion_lat": 0.0, "lat": 38.92313816666667, "bike_id": "b36df19ae722a697df28b83c92ef6de5", "fusion_lon": 0.0}, {"rental_uris": {"ios": "https://dc.lft.to/lastmile_qr_scan", "android": "https://dc.lft.to/lastmile_qr_scan"}, "type": "electric_scooter", "name": "03b3c3dce38e70c158085a323aac5fe1", "is_reserved": 0, "lon": -77.04248266666667, "is_disabled": 0, "fusion_lat": 0.0, "lat": 38.922815166666666, "bike_id": "03b3c3dce38e70c158085a323aac5fe1", "fusion_lon": 0.0}, {"rental_uris": {"ios": "https://dc.lft.to/lastmile_qr_scan", "android": "https://dc.lft.to/lastmile_qr_scan"}, "type": "electric_scooter", "name": "1fe88f72abb3d0fa95dca3f038a2ebf1", "is_reserved": 0, "lon": -77.008979, "is_disabled": 0, "fusion_lat": 0.0, "lat": 38.896074, "bike_id": "1fe88f72abb3d0fa95dca3f038a2ebf1", "fusion_lon": 0.0}, {"rental_uris": {"ios": "https://dc.lft.to/lastmile_qr_scan", "android": "https://dc.lft.to/lastmile_qr_scan"}, "type": "electric_scooter", "name": "0387be3022070fad4391ae46c905d54f", "is_reserved": 0, "lon": -77.0321475, "is_disabled": 0, "fusion_lat": 0.0, "lat": 38.9249445, "bike_id": "0387be3022070fad4391ae46c905d54f", "fusion_lon": 0.0}, {"rental_uris": {"ios": "https://dc.lft.to/lastmile_qr_scan", "android": "https://dc.lft.to/lastmile_qr_scan"}, "type": "electric_scooter", "name": "34d90642cd78f015b864fb807ab8d3c0", "is_reserved": 0, "lon": -77.00060133333334, "is_disabled": 0, "fusion_lat": 0.0, "lat": 38.87669316666667, "bike_id": "34d90642cd78f015b864fb807ab8d3c0", "fusion_lon": 0.0}, {"rental_uris": {"ios": "https://dc.lft.to/lastmile_qr_scan", "android": "https://dc.lft.to/lastmile_qr_scan"}, "type": "electric_bike", "name": "99f05a68d6331771b314a06c486dd11a", "is_reserved": 0, "lon": -77.07238566666666, "is_disabled": 0, "fusion_lat": 0.0, "lat": 38.813622333333335, "bike_id": "99f05a68d6331771b314a06c486dd11a", "fusion_lon": 0.0}, {"rental_uris": {"ios": "https://dc.lft.to/lastmile_qr_scan", "android": "https://dc.lft.to/lastmile_qr_scan"}, "type": "electric_scooter", "name": "161d6b2a828a31666e7f5c1608b5a3bf", "is_reserved": 0, "lon": -77.05200333333333, "is_disabled": 0, "fusion_lat": 0.0, "lat": 38.924648166666664, "bike_id": "161d6b2a828a31666e7f5c1608b5a3bf", "fusion_lon": 0.0}, {"rental_uris": {"ios": "https://dc.lft.to/lastmile_qr_scan", "android": "https://dc.lft.to/lastmile_qr_scan"}, "type": "electric_scooter", "name": "5d7710368c756349b99f6bb16586e636", "is_reserved": 0, "lon": -77.03806533333334, "is_disabled": 0, "fusion_lat": 0.0, "lat": 38.925796, "bike_id": "5d7710368c756349b99f6bb16586e636", "fusion_lon": 0.0}, {"rental_uris": {"ios": "https://dc.lft.to/lastmile_qr_scan", "android": "https://dc.lft.to/lastmile_qr_scan"}, "type": "electric_scooter", "name": "4a90c06671b8b689588317f3a5b0c0cc", "is_reserved": 0, "lon": -76.99010933333334, "is_disabled": 0, "fusion_lat": 0.0, "lat": 38.9039835, "bike_id": "4a90c06671b8b689588317f3a5b0c0cc", "fusion_lon": 0.0}, {"rental_uris": {"ios": "https://dc.lft.to/lastmile_qr_scan", "android": "https://dc.lft.to/lastmile_qr_scan"}, "type": "electric_scooter", "name": "47148063f3e625969ee905805aec101d", "is_reserved": 0, "lon": -77.04250566666667, "is_disabled": 0, "fusion_lat": 0.0, "lat": 38.910720833333336, "bike_id": "47148063f3e625969ee905805aec101d", "fusion_lon": 0.0}, {"rental_uris": {"ios": "https://dc.lft.to/lastmile_qr_scan", "android": "https://dc.lft.to/lastmile_qr_scan"}, "type": "electric_scooter", "name": "aa0907eb7bc37127706202b63fa662b7", "is_reserved": 0, "lon": -77.02410883333333, "is_disabled": 0, "fusion_lat": 0.0, "lat": 38.909746, "bike_id": "aa0907eb7bc37127706202b63fa662b7", "fusion_lon": 0.0}, {"rental_uris": {"ios": "https://dc.lft.to/lastmile_qr_scan", "android": "https://dc.lft.to/lastmile_qr_scan"}, "type": "electric_scooter", "name": "0da2cdd529e0b2fca70ede4ea5a58fad", "is_reserved": 0, "lon": -77.03926866666667, "is_disabled": 0, "fusion_lat": 0.0, "lat": 38.90022583333333, "bike_id": "0da2cdd529e0b2fca70ede4ea5a58fad", "fusion_lon": 0.0}, {"rental_uris": {"ios": "https://dc.lft.to/lastmile_qr_scan", "android": "https://dc.lft.to/lastmile_qr_scan"}, "type": "electric_scooter", "name": "8d0ad3187035513a71429a6b441db257", "is_reserved": 0, "lon": -77.02300433333333, "is_disabled": 0, "fusion_lat": 0.0, "lat": 38.961308, "bike_id": "8d0ad3187035513a71429a6b441db257", "fusion_lon": 0.0}, {"rental_uris": {"ios": "https://dc.lft.to/lastmile_qr_scan", "android": "https://dc.lft.to/lastmile_qr_scan"}, "type": "electric_scooter", "name": "e08cbbc8b6461046b6ac82d635c43bbe", "is_reserved": 0, "lon": -77.06234183333333, "is_disabled": 0, "fusion_lat": 0.0, "lat": 38.90516433333333, "bike_id": "e08cbbc8b6461046b6ac82d635c43bbe", "fusion_lon": 0.0}, {"rental_uris": {"ios": "https://dc.lft.to/lastmile_qr_scan", "android": "https://dc.lft.to/lastmile_qr_scan"}, "type": "electric_scooter", "name": "3fd87430c1505cc683ab1caf0431e182", "is_reserved": 0, "lon": -77.03376133333333, "is_disabled": 0, "fusion_lat": 0.0, "lat": 38.91039333333333, "bike_id": "3fd87430c1505cc683ab1caf0431e182", "fusion_lon": 0.0}, {"rental_uris": {"ios": "https://dc.lft.to/lastmile_qr_scan", "android": "https://dc.lft.to/lastmile_qr_scan"}, "type": "electric_scooter", "name": "dfa409f94513675fbacfc192835b67f2", "is_reserved": 0, "lon": -77.01807533333333, "is_disabled": 0, "fusion_lat": 0.0, "lat": 38.9027405, "bike_id": "dfa409f94513675fbacfc192835b67f2", "fusion_lon": 0.0}, {"rental_uris": {"ios": "https://dc.lft.to/lastmile_qr_scan", "android": "https://dc.lft.to/lastmile_qr_scan"}, "type": "electric_bike", "name": "468bd030861a8204a0d9b3fbc20527eb", "is_reserved": 0, "lon": -77.00206883333334, "is_disabled": 0, "fusion_lat": 0.0, "lat": 38.988470666666664, "bike_id": "468bd030861a8204a0d9b3fbc20527eb", "fusion_lon": 0.0}, {"rental_uris": {"ios": "https://dc.lft.to/lastmile_qr_scan", "android": "https://dc.lft.to/lastmile_qr_scan"}, "type": "electric_scooter", "name": "6c354943fc1532c4d5196bf528f0c4fe", "is_reserved": 0, "lon": -77.00602233333333, "is_disabled": 0, "fusion_lat": 0.0, "lat": 38.87567633333333, "bike_id": "6c354943fc1532c4d5196bf528f0c4fe", "fusion_lon": 0.0}, {"rental_uris": {"ios": "https://dc.lft.to/lastmile_qr_scan", "android": "https://dc.lft.to/lastmile_qr_scan"}, "type": "electric_scooter", "name": "efd6bdff6b4a553e32a0deced3b3a05d", "is_reserved": 0, "lon": -77.0386595, "is_disabled": 0, "fusion_lat": 0.0, "lat": 38.9111305, "bike_id": "efd6bdff6b4a553e32a0deced3b3a05d", "fusion_lon": 0.0}, {"rental_uris": {"ios": "https://dc.lft.to/lastmile_qr_scan", "android": "https://dc.lft.to/lastmile_qr_scan"}, "type": "electric_scooter", "name": "df728c40d10eaf6b485381b3f965ce0e", "is_reserved": 0, "lon": -77.02820816666667, "is_disabled": 0, "fusion_lat": 0.0, "lat": 38.95647, "bike_id": "df728c40d10eaf6b485381b3f965ce0e", "fusion_lon": 0.0}, {"rental_uris": {"ios": "https://dc.lft.to/lastmile_qr_scan", "android": "https://dc.lft.to/lastmile_qr_scan"}, "type": "electric_scooter", "name": "781fac361144e1e8186ac6a65ab2aefd", "is_reserved": 0, "lon": -77.05316033333334, "is_disabled": 0, "fusion_lat": 0.0, "lat": 38.902232833333336, "bike_id": "781fac361144e1e8186ac6a65ab2aefd", "fusion_lon": 0.0}, {"rental_uris": {"ios": "https://dc.lft.to/lastmile_qr_scan", "android": "https://dc.lft.to/lastmile_qr_scan"}, "type": "electric_scooter", "name": "345323b1f5044d7e8040c392c80c9ffc", "is_reserved": 0, "lon": -77.01022333333333, "is_disabled": 0, "fusion_lat": 0.0, "lat": 38.912657833333334, "bike_id": "345323b1f5044d7e8040c392c80c9ffc", "fusion_lon": 0.0}, {"rental_uris": {"ios": "https://dc.lft.to/lastmile_qr_scan", "android": "https://dc.lft.to/lastmile_qr_scan"}, "type": "electric_scooter", "name": "7ae887cd9aa9527f0071c1b63e91d32e", "is_reserved": 0, "lon": -77.009201, "is_disabled": 0, "fusion_lat": 0.0, "lat": 38.91240616666666, "bike_id": "7ae887cd9aa9527f0071c1b63e91d32e", "fusion_lon": 0.0}, {"rental_uris": {"ios": "https://dc.lft.to/lastmile_qr_scan", "android": "https://dc.lft.to/lastmile_qr_scan"}, "type": "electric_scooter", "name": "76495bf22959d71d223c3adb35610026", "is_reserved": 0, "lon": -77.04729816666666, "is_disabled": 0, "fusion_lat": 0.0, "lat": 38.895530666666666, "bike_id": "76495bf22959d71d223c3adb35610026", "fusion_lon": 0.0}, {"rental_uris": {"ios": "https://dc.lft.to/lastmile_qr_scan", "android": "https://dc.lft.to/lastmile_qr_scan"}, "type": "electric_scooter", "name": "18c92bb87c54d5fc6ff6d85413a7794c", "is_reserved": 0, "lon": -77.03215533333334, "is_disabled": 0, "fusion_lat": 0.0, "lat": 38.9069505, "bike_id": "18c92bb87c54d5fc6ff6d85413a7794c", "fusion_lon": 0.0}, {"rental_uris": {"ios": "https://dc.lft.to/lastmile_qr_scan", "android": "https://dc.lft.to/lastmile_qr_scan"}, "type": "electric_scooter", "name": "4052ea21a4b7632701bbb62cd8e5c008", "is_reserved": 0, "lon": -77.021947, "is_disabled": 0, "fusion_lat": 0.0, "lat": 38.91047566666667, "bike_id": "4052ea21a4b7632701bbb62cd8e5c008", "fusion_lon": 0.0}, {"rental_uris": {"ios": "https://dc.lft.to/lastmile_qr_scan", "android": "https://dc.lft.to/lastmile_qr_scan"}, "type": "electric_scooter", "name": "43c4dfef239459d5861a6608c9dce0b7", "is_reserved": 0, "lon": -77.06342783333334, "is_disabled": 0, "fusion_lat": 0.0, "lat": 38.94367116666667, "bike_id": "43c4dfef239459d5861a6608c9dce0b7", "fusion_lon": 0.0}, {"rental_uris": {"ios": "https://dc.lft.to/lastmile_qr_scan", "android": "https://dc.lft.to/lastmile_qr_scan"}, "type": "electric_scooter", "name": "df5187fe2976efa17dcfe615bbc5f198", "is_reserved": 0, "lon": -77.036598, "is_disabled": 0, "fusion_lat": 0.0, "lat": 38.922887, "bike_id": "df5187fe2976efa17dcfe615bbc5f198", "fusion_lon": 0.0}, {"rental_uris": {"ios": "https://dc.lft.to/lastmile_qr_scan", "android": "https://dc.lft.to/lastmile_qr_scan"}, "type": "electric_scooter", "name": "ebb6492ed40e7f59dd8f49be9c57b5c5", "is_reserved": 0, "lon": -76.931859, "is_disabled": 0, "fusion_lat": 0.0, "lat": 38.89875583333333, "bike_id": "ebb6492ed40e7f59dd8f49be9c57b5c5", "fusion_lon": 0.0}, {"rental_uris": {"ios": "https://dc.lft.to/lastmile_qr_scan", "android": "https://dc.lft.to/lastmile_qr_scan"}, "type": "electric_scooter", "name": "e704504195ca643e95ad9795ae1812b6", "is_reserved": 0, "lon": -77.021924, "is_disabled": 0, "fusion_lat": 0.0, "lat": 38.91133, "bike_id": "e704504195ca643e95ad9795ae1812b6", "fusion_lon": 0.0}, {"rental_uris": {"ios": "https://dc.lft.to/lastmile_qr_scan", "android": "https://dc.lft.to/lastmile_qr_scan"}, "type": "electric_scooter", "name": "73c20668df436607e743d74ab77ba9c0", "is_reserved": 0, "lon": -77.05171666666666, "is_disabled": 0, "fusion_lat": 0.0, "lat": 38.903112666666665, "bike_id": "73c20668df436607e743d74ab77ba9c0", "fusion_lon": 0.0}, {"rental_uris": {"ios": "https://dc.lft.to/lastmile_qr_scan", "android": "https://dc.lft.to/lastmile_qr_scan"}, "type": "electric_scooter", "name": "4bea1b42b7e3e10354e780c78eb2316c", "is_reserved": 0, "lon": -77.02386483333333, "is_disabled": 0, "fusion_lat": 0.0, "lat": 38.91654466666667, "bike_id": "4bea1b42b7e3e10354e780c78eb2316c", "fusion_lon": 0.0}, {"rental_uris": {"ios": "https://dc.lft.to/lastmile_qr_scan", "android": "https://dc.lft.to/lastmile_qr_scan"}, "type": "electric_scooter", "name": "eca22a95a09aa6b041d9ae071034b897", "is_reserved": 0, "lon": -77.01834716666667, "is_disabled": 0, "fusion_lat": 0.0, "lat": 38.905315, "bike_id": "eca22a95a09aa6b041d9ae071034b897", "fusion_lon": 0.0}, {"rental_uris": {"ios": "https://dc.lft.to/lastmile_qr_scan", "android": "https://dc.lft.to/lastmile_qr_scan"}, "type": "electric_scooter", "name": "a1756a8e8f08edef1eac9e1e03cffeaa", "is_reserved": 0, "lon": -77.00158683333333, "is_disabled": 0, "fusion_lat": 0.0, "lat": 38.82132766666667, "bike_id": "a1756a8e8f08edef1eac9e1e03cffeaa", "fusion_lon": 0.0}, {"rental_uris": {"ios": "https://dc.lft.to/lastmile_qr_scan", "android": "https://dc.lft.to/lastmile_qr_scan"}, "type": "electric_scooter", "name": "4d7d75b7d0d3c0b536c2630acb6c7a12", "is_reserved": 0, "lon": -76.99947433333334, "is_disabled": 0, "fusion_lat": 0.0, "lat": 38.8909085, "bike_id": "4d7d75b7d0d3c0b536c2630acb6c7a12", "fusion_lon": 0.0}, {"rental_uris": {"ios": "https://dc.lft.to/lastmile_qr_scan", "android": "https://dc.lft.to/lastmile_qr_scan"}, "type": "electric_scooter", "name": "9b5044c0d9c1f3bd71326d6f28031ee3", "is_reserved": 0, "lon": -77.0756195, "is_disabled": 0, "fusion_lat": 0.0, "lat": 38.90621866666667, "bike_id": "9b5044c0d9c1f3bd71326d6f28031ee3", "fusion_lon": 0.0}, {"rental_uris": {"ios": "https://dc.lft.to/lastmile_qr_scan", "android": "https://dc.lft.to/lastmile_qr_scan"}, "type": "electric_scooter", "name": "6b2f0372ee232c2be61cad79aaf892a0", "is_reserved": 0, "lon": -77.0172765, "is_disabled": 0, "fusion_lat": 0.0, "lat": 38.8922735, "bike_id": "6b2f0372ee232c2be61cad79aaf892a0", "fusion_lon": 0.0}, {"rental_uris": {"ios": "https://dc.lft.to/lastmile_qr_scan", "android": "https://dc.lft.to/lastmile_qr_scan"}, "type": "electric_scooter", "name": "6014036818c8ba61cad212cc78c3c0ac", "is_reserved": 0, "lon": -77.02965016666667, "is_disabled": 0, "fusion_lat": 0.0, "lat": 38.89833316666667, "bike_id": "6014036818c8ba61cad212cc78c3c0ac", "fusion_lon": 0.0}, {"rental_uris": {"ios": "https://dc.lft.to/lastmile_qr_scan", "android": "https://dc.lft.to/lastmile_qr_scan"}, "type": "electric_scooter", "name": "1f1fc23a2ef23ad271344e1c8334b4ab", "is_reserved": 0, "lon": -77.07235166666666, "is_disabled": 0, "fusion_lat": 0.0, "lat": 38.934301166666664, "bike_id": "1f1fc23a2ef23ad271344e1c8334b4ab", "fusion_lon": 0.0}, {"rental_uris": {"ios": "https://dc.lft.to/lastmile_qr_scan", "android": "https://dc.lft.to/lastmile_qr_scan"}, "type": "electric_scooter", "name": "5b8f9f669f6f6a52159eb63a62a21aa6", "is_reserved": 0, "lon": -77.03072533333334, "is_disabled": 0, "fusion_lat": 0.0, "lat": 38.89873383333333, "bike_id": "5b8f9f669f6f6a52159eb63a62a21aa6", "fusion_lon": 0.0}, {"rental_uris": {"ios": "https://dc.lft.to/lastmile_qr_scan", "android": "https://dc.lft.to/lastmile_qr_scan"}, "type": "electric_bike", "name": "af6137be9488f8935280f5378d801cac", "is_reserved": 0, "lon": -76.97543666666667, "is_disabled": 0, "fusion_lat": 0.0, "lat": 38.90429833333334, "bike_id": "af6137be9488f8935280f5378d801cac", "fusion_lon": 0.0}, {"rental_uris": {"ios": "https://dc.lft.to/lastmile_qr_scan", "android": "https://dc.lft.to/lastmile_qr_scan"}, "type": "electric_bike", "name": "e564c25d62ef68c667ebd5d568c8f630", "is_reserved": 0, "lon": -76.95161016666667, "is_disabled": 0, "fusion_lat": 0.0, "lat": 39.0843975, "bike_id": "e564c25d62ef68c667ebd5d568c8f630", "fusion_lon": 0.0}, {"rental_uris": {"ios": "https://dc.lft.to/lastmile_qr_scan", "android": "https://dc.lft.to/lastmile_qr_scan"}, "type": "electric_scooter", "name": "971ee9a8855cbd247f9244c0839b6a9e", "is_reserved": 0, "lon": -77.01949066666667, "is_disabled": 0, "fusion_lat": 0.0, "lat": 38.95045833333333, "bike_id": "971ee9a8855cbd247f9244c0839b6a9e", "fusion_lon": 0.0}, {"rental_uris": {"ios": "https://dc.lft.to/lastmile_qr_scan", "android": "https://dc.lft.to/lastmile_qr_scan"}, "type": "electric_scooter", "name": "78fbe38fb6dfe692d055175b5175ec17", "is_reserved": 0, "lon": -77.000707, "is_disabled": 0, "fusion_lat": 0.0, "lat": 38.89485483333333, "bike_id": "78fbe38fb6dfe692d055175b5175ec17", "fusion_lon": 0.0}, {"rental_uris": {"ios": "https://dc.lft.to/lastmile_qr_scan", "android": "https://dc.lft.to/lastmile_qr_scan"}, "type": "electric_scooter", "name": "dec9d20d499a74b2fb01242002471573", "is_reserved": 0, "lon": -77.01760366666667, "is_disabled": 0, "fusion_lat": 0.0, "lat": 38.876815666666666, "bike_id": "dec9d20d499a74b2fb01242002471573", "fusion_lon": 0.0}, {"rental_uris": {"ios": "https://dc.lft.to/lastmile_qr_scan", "android": "https://dc.lft.to/lastmile_qr_scan"}, "type": "electric_scooter", "name": "5dc7385d697d040f9bafd6aa58a6776b", "is_reserved": 0, "lon": -77.05017, "is_disabled": 0, "fusion_lat": 0.0, "lat": 38.897342333333334, "bike_id": "5dc7385d697d040f9bafd6aa58a6776b", "fusion_lon": 0.0}, {"rental_uris": {"ios": "https://dc.lft.to/lastmile_qr_scan", "android": "https://dc.lft.to/lastmile_qr_scan"}, "type": "electric_scooter", "name": "dffbaacf4a4e638648cf802a11a8cbfc", "is_reserved": 0, "lon": -77.06418466666666, "is_disabled": 0, "fusion_lat": 0.0, "lat": 38.909136333333336, "bike_id": "dffbaacf4a4e638648cf802a11a8cbfc", "fusion_lon": 0.0}, {"rental_uris": {"ios": "https://dc.lft.to/lastmile_qr_scan", "android": "https://dc.lft.to/lastmile_qr_scan"}, "type": "electric_scooter", "name": "aa441030819f7bb461e837627cc443a8", "is_reserved": 0, "lon": -77.04426266666667, "is_disabled": 0, "fusion_lat": 0.0, "lat": 38.921292666666666, "bike_id": "aa441030819f7bb461e837627cc443a8", "fusion_lon": 0.0}, {"rental_uris": {"ios": "https://dc.lft.to/lastmile_qr_scan", "android": "https://dc.lft.to/lastmile_qr_scan"}, "type": "electric_bike", "name": "8acd31c6a107bfb10cd7486afae2fcc2", "is_reserved": 0, "lon": -76.97952216666667, "is_disabled": 0, "fusion_lat": 0.0, "lat": 38.95240033333333, "bike_id": "8acd31c6a107bfb10cd7486afae2fcc2", "fusion_lon": 0.0}, {"rental_uris": {"ios": "https://dc.lft.to/lastmile_qr_scan", "android": "https://dc.lft.to/lastmile_qr_scan"}, "type": "electric_scooter", "name": "3519a6ec343d73ec8ec90170758ad592", "is_reserved": 0, "lon": -77.03057233333334, "is_disabled": 0, "fusion_lat": 0.0, "lat": 38.92385383333333, "bike_id": "3519a6ec343d73ec8ec90170758ad592", "fusion_lon": 0.0}, {"rental_uris": {"ios": "https://dc.lft.to/lastmile_qr_scan", "android": "https://dc.lft.to/lastmile_qr_scan"}, "type": "electric_scooter", "name": "02231956353927e5ad013a210ce27a1e", "is_reserved": 0, "lon": -77.00484116666667, "is_disabled": 0, "fusion_lat": 0.0, "lat": 38.874633833333334, "bike_id": "02231956353927e5ad013a210ce27a1e", "fusion_lon": 0.0}, {"rental_uris": {"ios": "https://dc.lft.to/lastmile_qr_scan", "android": "https://dc.lft.to/lastmile_qr_scan"}, "type": "electric_bike", "name": "7b12e08c0f9bcf3fac49cb05ac6afe9c", "is_reserved": 0, "lon": -76.938718, "is_disabled": 0, "fusion_lat": 0.0, "lat": 38.9777155, "bike_id": "7b12e08c0f9bcf3fac49cb05ac6afe9c", "fusion_lon": 0.0}, {"rental_uris": {"ios": "https://dc.lft.to/lastmile_qr_scan", "android": "https://dc.lft.to/lastmile_qr_scan"}, "type": "electric_scooter", "name": "57a3116605bcd9eb07472bcbca86599c", "is_reserved": 0, "lon": -77.03302633333334, "is_disabled": 0, "fusion_lat": 0.0, "lat": 38.909626833333334, "bike_id": "57a3116605bcd9eb07472bcbca86599c", "fusion_lon": 0.0}, {"rental_uris": {"ios": "https://dc.lft.to/lastmile_qr_scan", "android": "https://dc.lft.to/lastmile_qr_scan"}, "type": "electric_scooter", "name": "1d91762823b033892eed092a4aef1863", "is_reserved": 0, "lon": -77.039388, "is_disabled": 0, "fusion_lat": 0.0, "lat": 38.9170695, "bike_id": "1d91762823b033892eed092a4aef1863", "fusion_lon": 0.0}, {"rental_uris": {"ios": "https://dc.lft.to/lastmile_qr_scan", "android": "https://dc.lft.to/lastmile_qr_scan"}, "type": "electric_scooter", "name": "67dbb3b08ac465f233bc328e52ce7c97", "is_reserved": 0, "lon": -76.99746783333333, "is_disabled": 0, "fusion_lat": 0.0, "lat": 38.90138116666667, "bike_id": "67dbb3b08ac465f233bc328e52ce7c97", "fusion_lon": 0.0}, {"rental_uris": {"ios": "https://dc.lft.to/lastmile_qr_scan", "android": "https://dc.lft.to/lastmile_qr_scan"}, "type": "electric_scooter", "name": "32c335d881171e3f23a2c24b45d51876", "is_reserved": 0, "lon": -77.03205016666666, "is_disabled": 0, "fusion_lat": 0.0, "lat": 38.89442783333333, "bike_id": "32c335d881171e3f23a2c24b45d51876", "fusion_lon": 0.0}, {"rental_uris": {"ios": "https://dc.lft.to/lastmile_qr_scan", "android": "https://dc.lft.to/lastmile_qr_scan"}, "type": "electric_scooter", "name": "9436b3fad576da574fb10c4aaaeb0907", "is_reserved": 0, "lon": -77.01115283333333, "is_disabled": 0, "fusion_lat": 0.0, "lat": 38.895377833333335, "bike_id": "9436b3fad576da574fb10c4aaaeb0907", "fusion_lon": 0.0}, {"rental_uris": {"ios": "https://dc.lft.to/lastmile_qr_scan", "android": "https://dc.lft.to/lastmile_qr_scan"}, "type": "electric_scooter", "name": "f2098b580d39b8c182ed01d02ec66cdc", "is_reserved": 0, "lon": -77.03729333333334, "is_disabled": 0, "fusion_lat": 0.0, "lat": 38.926459, "bike_id": "f2098b580d39b8c182ed01d02ec66cdc", "fusion_lon": 0.0}, {"rental_uris": {"ios": "https://dc.lft.to/lastmile_qr_scan", "android": "https://dc.lft.to/lastmile_qr_scan"}, "type": "electric_scooter", "name": "b30073cbf2cb786d4c7148c38c638fc0", "is_reserved": 0, "lon": -77.04494866666667, "is_disabled": 0, "fusion_lat": 0.0, "lat": 38.90010433333333, "bike_id": "b30073cbf2cb786d4c7148c38c638fc0", "fusion_lon": 0.0}, {"rental_uris": {"ios": "https://dc.lft.to/lastmile_qr_scan", "android": "https://dc.lft.to/lastmile_qr_scan"}, "type": "electric_bike", "name": "2b991435784500f65c5cda31cd62b21b", "is_reserved": 0, "lon": -76.9874775, "is_disabled": 0, "fusion_lat": 0.0, "lat": 38.857572166666664, "bike_id": "2b991435784500f65c5cda31cd62b21b", "fusion_lon": 0.0}, {"rental_uris": {"ios": "https://dc.lft.to/lastmile_qr_scan", "android": "https://dc.lft.to/lastmile_qr_scan"}, "type": "electric_scooter", "name": "15c8bec3f88e705bb9f4ee1a79338ce5", "is_reserved": 0, "lon": -77.01980716666667, "is_disabled": 0, "fusion_lat": 0.0, "lat": 38.887204, "bike_id": "15c8bec3f88e705bb9f4ee1a79338ce5", "fusion_lon": 0.0}, {"rental_uris": {"ios": "https://dc.lft.to/lastmile_qr_scan", "android": "https://dc.lft.to/lastmile_qr_scan"}, "type": "electric_scooter", "name": "bb693604e1355b8604b73656e1c87689", "is_reserved": 0, "lon": -76.9837665, "is_disabled": 0, "fusion_lat": 0.0, "lat": 38.899787, "bike_id": "bb693604e1355b8604b73656e1c87689", "fusion_lon": 0.0}, {"rental_uris": {"ios": "https://dc.lft.to/lastmile_qr_scan", "android": "https://dc.lft.to/lastmile_qr_scan"}, "type": "electric_scooter", "name": "9f08e5abbf8b967919027cb283b3070a", "is_reserved": 0, "lon": -77.0267495, "is_disabled": 0, "fusion_lat": 0.0, "lat": 38.895435166666665, "bike_id": "9f08e5abbf8b967919027cb283b3070a", "fusion_lon": 0.0}, {"rental_uris": {"ios": "https://dc.lft.to/lastmile_qr_scan", "android": "https://dc.lft.to/lastmile_qr_scan"}, "type": "electric_scooter", "name": "782b5c21ebc92b754ef188e8f01918cd", "is_reserved": 0, "lon": -77.02201533333333, "is_disabled": 0, "fusion_lat": 0.0, "lat": 38.91097233333333, "bike_id": "782b5c21ebc92b754ef188e8f01918cd", "fusion_lon": 0.0}, {"rental_uris": {"ios": "https://dc.lft.to/lastmile_qr_scan", "android": "https://dc.lft.to/lastmile_qr_scan"}, "type": "electric_scooter", "name": "599c37004998a1c571afef86decc0f6d", "is_reserved": 0, "lon": -77.0346005, "is_disabled": 0, "fusion_lat": 0.0, "lat": 38.9084535, "bike_id": "599c37004998a1c571afef86decc0f6d", "fusion_lon": 0.0}, {"rental_uris": {"ios": "https://dc.lft.to/lastmile_qr_scan", "android": "https://dc.lft.to/lastmile_qr_scan"}, "type": "electric_scooter", "name": "3ed92b06881555da06feb28678d4dac7", "is_reserved": 0, "lon": -77.04472183333333, "is_disabled": 0, "fusion_lat": 0.0, "lat": 38.924776666666666, "bike_id": "3ed92b06881555da06feb28678d4dac7", "fusion_lon": 0.0}, {"rental_uris": {"ios": "https://dc.lft.to/lastmile_qr_scan", "android": "https://dc.lft.to/lastmile_qr_scan"}, "type": "electric_scooter", "name": "f44021f3b0c48dd0d69bc7168e783b38", "is_reserved": 0, "lon": -77.04090833333333, "is_disabled": 0, "fusion_lat": 0.0, "lat": 38.920289333333336, "bike_id": "f44021f3b0c48dd0d69bc7168e783b38", "fusion_lon": 0.0}, {"rental_uris": {"ios": "https://dc.lft.to/lastmile_qr_scan", "android": "https://dc.lft.to/lastmile_qr_scan"}, "type": "electric_scooter", "name": "a2cad6a160fbc90626c9191ec978daee", "is_reserved": 0, "lon": -77.02889866666666, "is_disabled": 0, "fusion_lat": 0.0, "lat": 38.91720883333333, "bike_id": "a2cad6a160fbc90626c9191ec978daee", "fusion_lon": 0.0}, {"rental_uris": {"ios": "https://dc.lft.to/lastmile_qr_scan", "android": "https://dc.lft.to/lastmile_qr_scan"}, "type": "electric_scooter", "name": "dbc35ed6ac367b274e5e3ac53cd87ad2", "is_reserved": 0, "lon": -77.05208583333334, "is_disabled": 0, "fusion_lat": 0.0, "lat": 38.924816166666666, "bike_id": "dbc35ed6ac367b274e5e3ac53cd87ad2", "fusion_lon": 0.0}, {"rental_uris": {"ios": "https://dc.lft.to/lastmile_qr_scan", "android": "https://dc.lft.to/lastmile_qr_scan"}, "type": "electric_scooter", "name": "012ed8742dd4ab3fbf614eab2c09003e", "is_reserved": 0, "lon": -77.0220315, "is_disabled": 0, "fusion_lat": 0.0, "lat": 38.91100216666667, "bike_id": "012ed8742dd4ab3fbf614eab2c09003e", "fusion_lon": 0.0}, {"rental_uris": {"ios": "https://dc.lft.to/lastmile_qr_scan", "android": "https://dc.lft.to/lastmile_qr_scan"}, "type": "electric_scooter", "name": "2e4f3a6e9b76870f3d72b984cfd611d3", "is_reserved": 0, "lon": -77.0522455, "is_disabled": 0, "fusion_lat": 0.0, "lat": 38.924678666666665, "bike_id": "2e4f3a6e9b76870f3d72b984cfd611d3", "fusion_lon": 0.0}, {"rental_uris": {"ios": "https://dc.lft.to/lastmile_qr_scan", "android": "https://dc.lft.to/lastmile_qr_scan"}, "type": "electric_scooter", "name": "9fae76e2359f541172a43d0086a47718", "is_reserved": 0, "lon": -77.0236425, "is_disabled": 0, "fusion_lat": 0.0, "lat": 38.92084416666667, "bike_id": "9fae76e2359f541172a43d0086a47718", "fusion_lon": 0.0}, {"rental_uris": {"ios": "https://dc.lft.to/lastmile_qr_scan", "android": "https://dc.lft.to/lastmile_qr_scan"}, "type": "electric_scooter", "name": "79565639b152644a86201af423ff758d", "is_reserved": 0, "lon": -77.03182983333333, "is_disabled": 0, "fusion_lat": 0.0, "lat": 38.91655983333333, "bike_id": "79565639b152644a86201af423ff758d", "fusion_lon": 0.0}, {"rental_uris": {"ios": "https://dc.lft.to/lastmile_qr_scan", "android": "https://dc.lft.to/lastmile_qr_scan"}, "type": "electric_scooter", "name": "f54773c94314bf7a595ed3c51121595b", "is_reserved": 0, "lon": -76.93265583333333, "is_disabled": 0, "fusion_lat": 0.0, "lat": 38.88753533333333, "bike_id": "f54773c94314bf7a595ed3c51121595b", "fusion_lon": 0.0}, {"rental_uris": {"ios": "https://dc.lft.to/lastmile_qr_scan", "android": "https://dc.lft.to/lastmile_qr_scan"}, "type": "electric_scooter", "name": "da420d9bced354c45d8a9c16cb8ff661", "is_reserved": 0, "lon": -77.04046083333333, "is_disabled": 0, "fusion_lat": 0.0, "lat": 38.917899, "bike_id": "da420d9bced354c45d8a9c16cb8ff661", "fusion_lon": 0.0}, {"rental_uris": {"ios": "https://dc.lft.to/lastmile_qr_scan", "android": "https://dc.lft.to/lastmile_qr_scan"}, "type": "electric_scooter", "name": "6595fcdee6301f03f273ff903f60941b", "is_reserved": 0, "lon": -77.0160875, "is_disabled": 0, "fusion_lat": 0.0, "lat": 38.900462166666664, "bike_id": "6595fcdee6301f03f273ff903f60941b", "fusion_lon": 0.0}, {"rental_uris": {"ios": "https://dc.lft.to/lastmile_qr_scan", "android": "https://dc.lft.to/lastmile_qr_scan"}, "type": "electric_scooter", "name": "a33eecbe96a09d7585b57f966265adaf", "is_reserved": 0, "lon": -77.03183583333333, "is_disabled": 0, "fusion_lat": 0.0, "lat": 38.916636, "bike_id": "a33eecbe96a09d7585b57f966265adaf", "fusion_lon": 0.0}, {"rental_uris": {"ios": "https://dc.lft.to/lastmile_qr_scan", "android": "https://dc.lft.to/lastmile_qr_scan"}, "type": "electric_scooter", "name": "e87c82485a70813693d7c93fe1b00e10", "is_reserved": 0, "lon": -76.94665683333334, "is_disabled": 0, "fusion_lat": 0.0, "lat": 38.89870533333333, "bike_id": "e87c82485a70813693d7c93fe1b00e10", "fusion_lon": 0.0}, {"rental_uris": {"ios": "https://dc.lft.to/lastmile_qr_scan", "android": "https://dc.lft.to/lastmile_qr_scan"}, "type": "electric_scooter", "name": "ebc1b849ef3c95bed6276a136b351cb9", "is_reserved": 0, "lon": -77.00890583333333, "is_disabled": 0, "fusion_lat": 0.0, "lat": 38.896057666666664, "bike_id": "ebc1b849ef3c95bed6276a136b351cb9", "fusion_lon": 0.0}, {"rental_uris": {"ios": "https://dc.lft.to/lastmile_qr_scan", "android": "https://dc.lft.to/lastmile_qr_scan"}, "type": "electric_scooter", "name": "640454f9c576154fa87d35c80f57f22c", "is_reserved": 0, "lon": -77.03075033333333, "is_disabled": 0, "fusion_lat": 0.0, "lat": 38.91268066666667, "bike_id": "640454f9c576154fa87d35c80f57f22c", "fusion_lon": 0.0}, {"rental_uris": {"ios": "https://dc.lft.to/lastmile_qr_scan", "android": "https://dc.lft.to/lastmile_qr_scan"}, "type": "electric_scooter", "name": "f5e835067e9c92c4a1fb2503337b7922", "is_reserved": 0, "lon": -77.05721616666666, "is_disabled": 0, "fusion_lat": 0.0, "lat": 38.93358166666667, "bike_id": "f5e835067e9c92c4a1fb2503337b7922", "fusion_lon": 0.0}, {"rental_uris": {"ios": "https://dc.lft.to/lastmile_qr_scan", "android": "https://dc.lft.to/lastmile_qr_scan"}, "type": "electric_scooter", "name": "7e978cdb0f7a78513e04a8fe9953e619", "is_reserved": 0, "lon": -77.00060866666666, "is_disabled": 0, "fusion_lat": 0.0, "lat": 38.87683466666667, "bike_id": "7e978cdb0f7a78513e04a8fe9953e619", "fusion_lon": 0.0}, {"rental_uris": {"ios": "https://dc.lft.to/lastmile_qr_scan", "android": "https://dc.lft.to/lastmile_qr_scan"}, "type": "electric_scooter", "name": "d8f913f1251d4c88d6db63f19ce83369", "is_reserved": 0, "lon": -76.932125, "is_disabled": 0, "fusion_lat": 0.0, "lat": 38.88048533333333, "bike_id": "d8f913f1251d4c88d6db63f19ce83369", "fusion_lon": 0.0}, {"rental_uris": {"ios": "https://dc.lft.to/lastmile_qr_scan", "android": "https://dc.lft.to/lastmile_qr_scan"}, "type": "electric_scooter", "name": "7fa8cc0baf8f5408777e173edd322f32", "is_reserved": 0, "lon": -77.04134466666666, "is_disabled": 0, "fusion_lat": 0.0, "lat": 38.893466833333335, "bike_id": "7fa8cc0baf8f5408777e173edd322f32", "fusion_lon": 0.0}, {"rental_uris": {"ios": "https://dc.lft.to/lastmile_qr_scan", "android": "https://dc.lft.to/lastmile_qr_scan"}, "type": "electric_scooter", "name": "d342f95455610ddc90cb36d64368281b", "is_reserved": 0, "lon": -77.0250195, "is_disabled": 0, "fusion_lat": 0.0, "lat": 38.9202115, "bike_id": "d342f95455610ddc90cb36d64368281b", "fusion_lon": 0.0}, {"rental_uris": {"ios": "https://dc.lft.to/lastmile_qr_scan", "android": "https://dc.lft.to/lastmile_qr_scan"}, "type": "electric_scooter", "name": "51d31ca7196f1066c49d1dbe4e505d3b", "is_reserved": 0, "lon": -77.03444433333334, "is_disabled": 0, "fusion_lat": 0.0, "lat": 38.907401, "bike_id": "51d31ca7196f1066c49d1dbe4e505d3b", "fusion_lon": 0.0}, {"rental_uris": {"ios": "https://dc.lft.to/lastmile_qr_scan", "android": "https://dc.lft.to/lastmile_qr_scan"}, "type": "electric_bike", "name": "a9026316307137bb02c7a60ba11cc125", "is_reserved": 0, "lon": -77.0438615, "is_disabled": 0, "fusion_lat": 0.0, "lat": 38.90714533333333, "bike_id": "a9026316307137bb02c7a60ba11cc125", "fusion_lon": 0.0}, {"rental_uris": {"ios": "https://dc.lft.to/lastmile_qr_scan", "android": "https://dc.lft.to/lastmile_qr_scan"}, "type": "electric_scooter", "name": "0edbafd32eef8dbff76da24f31c0ecd4", "is_reserved": 0, "lon": -77.0290165, "is_disabled": 0, "fusion_lat": 0.0, "lat": 38.903341833333336, "bike_id": "0edbafd32eef8dbff76da24f31c0ecd4", "fusion_lon": 0.0}, {"rental_uris": {"ios": "https://dc.lft.to/lastmile_qr_scan", "android": "https://dc.lft.to/lastmile_qr_scan"}, "type": "electric_scooter", "name": "d9b762c5b5ee5a39a2f7f7a7fa6448ed", "is_reserved": 0, "lon": -77.092134, "is_disabled": 0, "fusion_lat": 0.0, "lat": 38.916917166666664, "bike_id": "d9b762c5b5ee5a39a2f7f7a7fa6448ed", "fusion_lon": 0.0}, {"rental_uris": {"ios": "https://dc.lft.to/lastmile_qr_scan", "android": "https://dc.lft.to/lastmile_qr_scan"}, "type": "electric_scooter", "name": "ed27b37570b2ce10f6d240dd217cb715", "is_reserved": 0, "lon": -77.02723766666666, "is_disabled": 0, "fusion_lat": 0.0, "lat": 38.89981016666667, "bike_id": "ed27b37570b2ce10f6d240dd217cb715", "fusion_lon": 0.0}, {"rental_uris": {"ios": "https://dc.lft.to/lastmile_qr_scan", "android": "https://dc.lft.to/lastmile_qr_scan"}, "type": "electric_scooter", "name": "ae4ea96a6e1e7e8bbf5eeea6e95d169c", "is_reserved": 0, "lon": -77.01440983333333, "is_disabled": 0, "fusion_lat": 0.0, "lat": 38.90241366666667, "bike_id": "ae4ea96a6e1e7e8bbf5eeea6e95d169c", "fusion_lon": 0.0}, {"rental_uris": {"ios": "https://dc.lft.to/lastmile_qr_scan", "android": "https://dc.lft.to/lastmile_qr_scan"}, "type": "electric_bike", "name": "e89ce6b5564fe1dd62f99d6f993b7763", "is_reserved": 0, "lon": -77.020329, "is_disabled": 0, "fusion_lat": 0.0, "lat": 38.96556966666667, "bike_id": "e89ce6b5564fe1dd62f99d6f993b7763", "fusion_lon": 0.0}, {"rental_uris": {"ios": "https://dc.lft.to/lastmile_qr_scan", "android": "https://dc.lft.to/lastmile_qr_scan"}, "type": "electric_scooter", "name": "177399a29213312eac74ad22e7406ad2", "is_reserved": 0, "lon": -77.05303983333333, "is_disabled": 0, "fusion_lat": 0.0, "lat": 38.9025605, "bike_id": "177399a29213312eac74ad22e7406ad2", "fusion_lon": 0.0}, {"rental_uris": {"ios": "https://dc.lft.to/lastmile_qr_scan", "android": "https://dc.lft.to/lastmile_qr_scan"}, "type": "electric_scooter", "name": "dad4dcbd03842253c8a0a9d614c66f7a", "is_reserved": 0, "lon": -77.029086, "is_disabled": 0, "fusion_lat": 0.0, "lat": 38.95296916666667, "bike_id": "dad4dcbd03842253c8a0a9d614c66f7a", "fusion_lon": 0.0}, {"rental_uris": {"ios": "https://dc.lft.to/lastmile_qr_scan", "android": "https://dc.lft.to/lastmile_qr_scan"}, "type": "electric_scooter", "name": "921bc0c2c90559b43665a5671daeb3fc", "is_reserved": 0, "lon": -77.03341316666666, "is_disabled": 0, "fusion_lat": 0.0, "lat": 38.917133666666665, "bike_id": "921bc0c2c90559b43665a5671daeb3fc", "fusion_lon": 0.0}, {"rental_uris": {"ios": "https://dc.lft.to/lastmile_qr_scan", "android": "https://dc.lft.to/lastmile_qr_scan"}, "type": "electric_scooter", "name": "da8175a2563c52c20832e4a4ede08db1", "is_reserved": 0, "lon": -76.99703633333333, "is_disabled": 0, "fusion_lat": 0.0, "lat": 38.88766966666667, "bike_id": "da8175a2563c52c20832e4a4ede08db1", "fusion_lon": 0.0}, {"rental_uris": {"ios": "https://dc.lft.to/lastmile_qr_scan", "android": "https://dc.lft.to/lastmile_qr_scan"}, "type": "electric_scooter", "name": "b523415e744284c8782ed87d0594ed63", "is_reserved": 0, "lon": -77.01972633333334, "is_disabled": 0, "fusion_lat": 0.0, "lat": 38.899529666666666, "bike_id": "b523415e744284c8782ed87d0594ed63", "fusion_lon": 0.0}, {"rental_uris": {"ios": "https://dc.lft.to/lastmile_qr_scan", "android": "https://dc.lft.to/lastmile_qr_scan"}, "type": "electric_scooter", "name": "e80b74ed8a68f5e9221d4c2cbf2e3d42", "is_reserved": 0, "lon": -77.03639133333333, "is_disabled": 0, "fusion_lat": 0.0, "lat": 38.90376966666667, "bike_id": "e80b74ed8a68f5e9221d4c2cbf2e3d42", "fusion_lon": 0.0}, {"rental_uris": {"ios": "https://dc.lft.to/lastmile_qr_scan", "android": "https://dc.lft.to/lastmile_qr_scan"}, "type": "electric_scooter", "name": "e24ddf7b9abdc7e943f0df8448f665a6", "is_reserved": 0, "lon": -77.03436666666667, "is_disabled": 0, "fusion_lat": 0.0, "lat": 38.90839316666667, "bike_id": "e24ddf7b9abdc7e943f0df8448f665a6", "fusion_lon": 0.0}, {"rental_uris": {"ios": "https://dc.lft.to/lastmile_qr_scan", "android": "https://dc.lft.to/lastmile_qr_scan"}, "type": "electric_scooter", "name": "00ee5db386af180f130f94296f76aaf1", "is_reserved": 0, "lon": -77.02604066666666, "is_disabled": 0, "fusion_lat": 0.0, "lat": 38.9081255, "bike_id": "00ee5db386af180f130f94296f76aaf1", "fusion_lon": 0.0}, {"rental_uris": {"ios": "https://dc.lft.to/lastmile_qr_scan", "android": "https://dc.lft.to/lastmile_qr_scan"}, "type": "electric_scooter", "name": "3d113d6d3fe32728ebc392a9e9269464", "is_reserved": 0, "lon": -76.99856316666667, "is_disabled": 0, "fusion_lat": 0.0, "lat": 38.900236, "bike_id": "3d113d6d3fe32728ebc392a9e9269464", "fusion_lon": 0.0}, {"rental_uris": {"ios": "https://dc.lft.to/lastmile_qr_scan", "android": "https://dc.lft.to/lastmile_qr_scan"}, "type": "electric_scooter", "name": "0de1c7bb27a299246dfef6685f0db844", "is_reserved": 0, "lon": -77.0745195, "is_disabled": 0, "fusion_lat": 0.0, "lat": 38.937818666666665, "bike_id": "0de1c7bb27a299246dfef6685f0db844", "fusion_lon": 0.0}, {"rental_uris": {"ios": "https://dc.lft.to/lastmile_qr_scan", "android": "https://dc.lft.to/lastmile_qr_scan"}, "type": "electric_scooter", "name": "72db48db439c49e3689fabfd7c41276f", "is_reserved": 0, "lon": -77.06399333333333, "is_disabled": 0, "fusion_lat": 0.0, "lat": 38.9086725, "bike_id": "72db48db439c49e3689fabfd7c41276f", "fusion_lon": 0.0}, {"rental_uris": {"ios": "https://dc.lft.to/lastmile_qr_scan", "android": "https://dc.lft.to/lastmile_qr_scan"}, "type": "electric_bike", "name": "ec040bb22a50e1fd3874ade26d1edfb3", "is_reserved": 0, "lon": -76.97322366666667, "is_disabled": 0, "fusion_lat": 0.0, "lat": 38.85784983333333, "bike_id": "ec040bb22a50e1fd3874ade26d1edfb3", "fusion_lon": 0.0}, {"rental_uris": {"ios": "https://dc.lft.to/lastmile_qr_scan", "android": "https://dc.lft.to/lastmile_qr_scan"}, "type": "electric_scooter", "name": "8fd8faf1e478b604a0abf3f3c7ee2d56", "is_reserved": 0, "lon": -77.04312166666666, "is_disabled": 0, "fusion_lat": 0.0, "lat": 38.923308166666665, "bike_id": "8fd8faf1e478b604a0abf3f3c7ee2d56", "fusion_lon": 0.0}, {"rental_uris": {"ios": "https://dc.lft.to/lastmile_qr_scan", "android": "https://dc.lft.to/lastmile_qr_scan"}, "type": "electric_scooter", "name": "b16d4cc20a4b31e082d67de4df57f9b3", "is_reserved": 0, "lon": -77.059962, "is_disabled": 0, "fusion_lat": 0.0, "lat": 38.90247383333333, "bike_id": "b16d4cc20a4b31e082d67de4df57f9b3", "fusion_lon": 0.0}, {"rental_uris": {"ios": "https://dc.lft.to/lastmile_qr_scan", "android": "https://dc.lft.to/lastmile_qr_scan"}, "type": "electric_scooter", "name": "bf9290128bf3e9313958a0ae6071be9f", "is_reserved": 0, "lon": -77.0170195, "is_disabled": 0, "fusion_lat": 0.0, "lat": 38.90463833333333, "bike_id": "bf9290128bf3e9313958a0ae6071be9f", "fusion_lon": 0.0}, {"rental_uris": {"ios": "https://dc.lft.to/lastmile_qr_scan", "android": "https://dc.lft.to/lastmile_qr_scan"}, "type": "electric_scooter", "name": "3b28a10907e8111fa04a1953e3b7ed4d", "is_reserved": 0, "lon": -76.9933855, "is_disabled": 0, "fusion_lat": 0.0, "lat": 38.920344166666666, "bike_id": "3b28a10907e8111fa04a1953e3b7ed4d", "fusion_lon": 0.0}, {"rental_uris": {"ios": "https://dc.lft.to/lastmile_qr_scan", "android": "https://dc.lft.to/lastmile_qr_scan"}, "type": "electric_bike", "name": "c5b04cceda01788e8205044a2c7785bd", "is_reserved": 0, "lon": -76.97857383333333, "is_disabled": 0, "fusion_lat": 0.0, "lat": 38.983804666666664, "bike_id": "c5b04cceda01788e8205044a2c7785bd", "fusion_lon": 0.0}, {"rental_uris": {"ios": "https://dc.lft.to/lastmile_qr_scan", "android": "https://dc.lft.to/lastmile_qr_scan"}, "type": "electric_scooter", "name": "4f04e0fc2981a8dd12f115031d28e8d5", "is_reserved": 0, "lon": -77.06340516666667, "is_disabled": 0, "fusion_lat": 0.0, "lat": 38.9436595, "bike_id": "4f04e0fc2981a8dd12f115031d28e8d5", "fusion_lon": 0.0}, {"rental_uris": {"ios": "https://dc.lft.to/lastmile_qr_scan", "android": "https://dc.lft.to/lastmile_qr_scan"}, "type": "electric_scooter", "name": "36e55d49342f980c47fb4d3b20d5aae6", "is_reserved": 0, "lon": -77.03275166666667, "is_disabled": 0, "fusion_lat": 0.0, "lat": 38.91992716666667, "bike_id": "36e55d49342f980c47fb4d3b20d5aae6", "fusion_lon": 0.0}, {"rental_uris": {"ios": "https://dc.lft.to/lastmile_qr_scan", "android": "https://dc.lft.to/lastmile_qr_scan"}, "type": "electric_scooter", "name": "765720275ecb5be6b60972ba5873ecb8", "is_reserved": 0, "lon": -76.97939916666667, "is_disabled": 0, "fusion_lat": 0.0, "lat": 38.916048333333336, "bike_id": "765720275ecb5be6b60972ba5873ecb8", "fusion_lon": 0.0}, {"rental_uris": {"ios": "https://dc.lft.to/lastmile_qr_scan", "android": "https://dc.lft.to/lastmile_qr_scan"}, "type": "electric_scooter", "name": "e55cdf35453e63f96460e88914229115", "is_reserved": 0, "lon": -77.01354133333334, "is_disabled": 0, "fusion_lat": 0.0, "lat": 38.919196166666666, "bike_id": "e55cdf35453e63f96460e88914229115", "fusion_lon": 0.0}, {"rental_uris": {"ios": "https://dc.lft.to/lastmile_qr_scan", "android": "https://dc.lft.to/lastmile_qr_scan"}, "type": "electric_bike", "name": "54b3f0896d56e18e9f6749f0f31ac83e", "is_reserved": 0, "lon": -77.09965266666667, "is_disabled": 0, "fusion_lat": 0.0, "lat": 38.857866666666666, "bike_id": "54b3f0896d56e18e9f6749f0f31ac83e", "fusion_lon": 0.0}, {"rental_uris": {"ios": "https://dc.lft.to/lastmile_qr_scan", "android": "https://dc.lft.to/lastmile_qr_scan"}, "type": "electric_scooter", "name": "3d670ded7c775e3c6d2ac4f6add26609", "is_reserved": 0, "lon": -77.00570483333334, "is_disabled": 0, "fusion_lat": 0.0, "lat": 38.8745565, "bike_id": "3d670ded7c775e3c6d2ac4f6add26609", "fusion_lon": 0.0}, {"rental_uris": {"ios": "https://dc.lft.to/lastmile_qr_scan", "android": "https://dc.lft.to/lastmile_qr_scan"}, "type": "electric_scooter", "name": "a58f5e337f4d42942067951de60b1999", "is_reserved": 0, "lon": -77.02643333333333, "is_disabled": 0, "fusion_lat": 0.0, "lat": 38.89596366666667, "bike_id": "a58f5e337f4d42942067951de60b1999", "fusion_lon": 0.0}, {"rental_uris": {"ios": "https://dc.lft.to/lastmile_qr_scan", "android": "https://dc.lft.to/lastmile_qr_scan"}, "type": "electric_scooter", "name": "dcc4093a77b6160e776758b0eea94d4b", "is_reserved": 0, "lon": -76.98701166666666, "is_disabled": 0, "fusion_lat": 0.0, "lat": 38.888428, "bike_id": "dcc4093a77b6160e776758b0eea94d4b", "fusion_lon": 0.0}, {"rental_uris": {"ios": "https://dc.lft.to/lastmile_qr_scan", "android": "https://dc.lft.to/lastmile_qr_scan"}, "type": "electric_scooter", "name": "468bb1398db3d9d983219a50c907c6b6", "is_reserved": 0, "lon": -77.03900933333334, "is_disabled": 0, "fusion_lat": 0.0, "lat": 38.931408, "bike_id": "468bb1398db3d9d983219a50c907c6b6", "fusion_lon": 0.0}, {"rental_uris": {"ios": "https://dc.lft.to/lastmile_qr_scan", "android": "https://dc.lft.to/lastmile_qr_scan"}, "type": "electric_scooter", "name": "adf4adac3fcf34976cfbab1d143c6c6c", "is_reserved": 0, "lon": -77.04204333333334, "is_disabled": 0, "fusion_lat": 0.0, "lat": 38.917067333333335, "bike_id": "adf4adac3fcf34976cfbab1d143c6c6c", "fusion_lon": 0.0}, {"rental_uris": {"ios": "https://dc.lft.to/lastmile_qr_scan", "android": "https://dc.lft.to/lastmile_qr_scan"}, "type": "electric_scooter", "name": "a1d84f9337b9da6b133f0e9b7a266ec5", "is_reserved": 0, "lon": -77.03200266666667, "is_disabled": 0, "fusion_lat": 0.0, "lat": 38.916213, "bike_id": "a1d84f9337b9da6b133f0e9b7a266ec5", "fusion_lon": 0.0}, {"rental_uris": {"ios": "https://dc.lft.to/lastmile_qr_scan", "android": "https://dc.lft.to/lastmile_qr_scan"}, "type": "electric_scooter", "name": "7da38247d0d6b96dda82c2eecf2f78bc", "is_reserved": 0, "lon": -77.00945766666666, "is_disabled": 0, "fusion_lat": 0.0, "lat": 38.912662, "bike_id": "7da38247d0d6b96dda82c2eecf2f78bc", "fusion_lon": 0.0}, {"rental_uris": {"ios": "https://dc.lft.to/lastmile_qr_scan", "android": "https://dc.lft.to/lastmile_qr_scan"}, "type": "electric_bike", "name": "befffe53f53016aa18c92131e5e9aedc", "is_reserved": 0, "lon": -76.91804666666667, "is_disabled": 0, "fusion_lat": 0.0, "lat": 39.00001533333333, "bike_id": "befffe53f53016aa18c92131e5e9aedc", "fusion_lon": 0.0}, {"rental_uris": {"ios": "https://dc.lft.to/lastmile_qr_scan", "android": "https://dc.lft.to/lastmile_qr_scan"}, "type": "electric_bike", "name": "b723068561a36883ecaaa0e99d697c0c", "is_reserved": 0, "lon": -77.0144545, "is_disabled": 0, "fusion_lat": 0.0, "lat": 38.876595, "bike_id": "b723068561a36883ecaaa0e99d697c0c", "fusion_lon": 0.0}, {"rental_uris": {"ios": "https://dc.lft.to/lastmile_qr_scan", "android": "https://dc.lft.to/lastmile_qr_scan"}, "type": "electric_scooter", "name": "aa77fa7b4ce051c474a202d25b022de8", "is_reserved": 0, "lon": -77.03653116666666, "is_disabled": 0, "fusion_lat": 0.0, "lat": 38.923077, "bike_id": "aa77fa7b4ce051c474a202d25b022de8", "fusion_lon": 0.0}, {"rental_uris": {"ios": "https://dc.lft.to/lastmile_qr_scan", "android": "https://dc.lft.to/lastmile_qr_scan"}, "type": "electric_scooter", "name": "e78098c8e1e38f73884b18f72f6a72c8", "is_reserved": 0, "lon": -76.99495383333333, "is_disabled": 0, "fusion_lat": 0.0, "lat": 38.88234083333333, "bike_id": "e78098c8e1e38f73884b18f72f6a72c8", "fusion_lon": 0.0}, {"rental_uris": {"ios": "https://dc.lft.to/lastmile_qr_scan", "android": "https://dc.lft.to/lastmile_qr_scan"}, "type": "electric_scooter", "name": "23414f4e6560d4352359448243603e96", "is_reserved": 0, "lon": -77.0348415, "is_disabled": 0, "fusion_lat": 0.0, "lat": 38.919167333333334, "bike_id": "23414f4e6560d4352359448243603e96", "fusion_lon": 0.0}, {"rental_uris": {"ios": "https://dc.lft.to/lastmile_qr_scan", "android": "https://dc.lft.to/lastmile_qr_scan"}, "type": "electric_scooter", "name": "687c3fc728575d0267ff3e6aa4ea2765", "is_reserved": 0, "lon": -77.04369, "is_disabled": 0, "fusion_lat": 0.0, "lat": 38.9224245, "bike_id": "687c3fc728575d0267ff3e6aa4ea2765", "fusion_lon": 0.0}, {"rental_uris": {"ios": "https://dc.lft.to/lastmile_qr_scan", "android": "https://dc.lft.to/lastmile_qr_scan"}, "type": "electric_scooter", "name": "96b73c07701ee499d1a0e7e0bd7424a3", "is_reserved": 0, "lon": -77.00658916666667, "is_disabled": 0, "fusion_lat": 0.0, "lat": 38.87657983333333, "bike_id": "96b73c07701ee499d1a0e7e0bd7424a3", "fusion_lon": 0.0}, {"rental_uris": {"ios": "https://dc.lft.to/lastmile_qr_scan", "android": "https://dc.lft.to/lastmile_qr_scan"}, "type": "electric_scooter", "name": "e6ccf2a66a58865a1caf5a0e28692f2c", "is_reserved": 0, "lon": -77.02191416666666, "is_disabled": 0, "fusion_lat": 0.0, "lat": 38.91088116666667, "bike_id": "e6ccf2a66a58865a1caf5a0e28692f2c", "fusion_lon": 0.0}, {"rental_uris": {"ios": "https://dc.lft.to/lastmile_qr_scan", "android": "https://dc.lft.to/lastmile_qr_scan"}, "type": "electric_bike", "name": "4618c155bceefc62bef2dda5b1abe0ea", "is_reserved": 0, "lon": -77.12908466666667, "is_disabled": 0, "fusion_lat": 0.0, "lat": 38.79969116666667, "bike_id": "4618c155bceefc62bef2dda5b1abe0ea", "fusion_lon": 0.0}, {"rental_uris": {"ios": "https://dc.lft.to/lastmile_qr_scan", "android": "https://dc.lft.to/lastmile_qr_scan"}, "type": "electric_scooter", "name": "97f8614c2033aacf53bce5ad7526373b", "is_reserved": 0, "lon": -77.054965, "is_disabled": 0, "fusion_lat": 0.0, "lat": 38.92977416666667, "bike_id": "97f8614c2033aacf53bce5ad7526373b", "fusion_lon": 0.0}, {"rental_uris": {"ios": "https://dc.lft.to/lastmile_qr_scan", "android": "https://dc.lft.to/lastmile_qr_scan"}, "type": "electric_scooter", "name": "14df4f251f0ddc42ae93e137f4a55ec4", "is_reserved": 0, "lon": -77.0212985, "is_disabled": 0, "fusion_lat": 0.0, "lat": 38.92800716666667, "bike_id": "14df4f251f0ddc42ae93e137f4a55ec4", "fusion_lon": 0.0}, {"rental_uris": {"ios": "https://dc.lft.to/lastmile_qr_scan", "android": "https://dc.lft.to/lastmile_qr_scan"}, "type": "electric_scooter", "name": "35b56f3c0aa5f3f3e20a444b79c47037", "is_reserved": 0, "lon": -77.0338025, "is_disabled": 0, "fusion_lat": 0.0, "lat": 38.89910833333333, "bike_id": "35b56f3c0aa5f3f3e20a444b79c47037", "fusion_lon": 0.0}, {"rental_uris": {"ios": "https://dc.lft.to/lastmile_qr_scan", "android": "https://dc.lft.to/lastmile_qr_scan"}, "type": "electric_scooter", "name": "1606c377bc23b4c315dbc1fe3de2b647", "is_reserved": 0, "lon": -77.06849433333333, "is_disabled": 0, "fusion_lat": 0.0, "lat": 38.904080666666665, "bike_id": "1606c377bc23b4c315dbc1fe3de2b647", "fusion_lon": 0.0}, {"rental_uris": {"ios": "https://dc.lft.to/lastmile_qr_scan", "android": "https://dc.lft.to/lastmile_qr_scan"}, "type": "electric_scooter", "name": "8fb1c49c17201213a2fdb4148fc103ee", "is_reserved": 0, "lon": -77.03468483333333, "is_disabled": 0, "fusion_lat": 0.0, "lat": 38.9215205, "bike_id": "8fb1c49c17201213a2fdb4148fc103ee", "fusion_lon": 0.0}, {"rental_uris": {"ios": "https://dc.lft.to/lastmile_qr_scan", "android": "https://dc.lft.to/lastmile_qr_scan"}, "type": "electric_scooter", "name": "9c29c2a7fe351845869676081e44c19c", "is_reserved": 0, "lon": -77.04590083333333, "is_disabled": 0, "fusion_lat": 0.0, "lat": 38.91452833333334, "bike_id": "9c29c2a7fe351845869676081e44c19c", "fusion_lon": 0.0}, {"rental_uris": {"ios": "https://dc.lft.to/lastmile_qr_scan", "android": "https://dc.lft.to/lastmile_qr_scan"}, "type": "electric_scooter", "name": "aa31d40578ed5d9f7271a9e7e3be2ba3", "is_reserved": 0, "lon": -77.0242365, "is_disabled": 0, "fusion_lat": 0.0, "lat": 38.937097333333334, "bike_id": "aa31d40578ed5d9f7271a9e7e3be2ba3", "fusion_lon": 0.0}, {"rental_uris": {"ios": "https://dc.lft.to/lastmile_qr_scan", "android": "https://dc.lft.to/lastmile_qr_scan"}, "type": "electric_bike", "name": "83f8c20aa91f2b69831e85ae435d7037", "is_reserved": 0, "lon": -77.01228466666667, "is_disabled": 0, "fusion_lat": 0.0, "lat": 38.950828, "bike_id": "83f8c20aa91f2b69831e85ae435d7037", "fusion_lon": 0.0}, {"rental_uris": {"ios": "https://dc.lft.to/lastmile_qr_scan", "android": "https://dc.lft.to/lastmile_qr_scan"}, "type": "electric_scooter", "name": "178be17b486e4637bfc6881b65581485", "is_reserved": 0, "lon": -77.0174585, "is_disabled": 0, "fusion_lat": 0.0, "lat": 38.887368333333335, "bike_id": "178be17b486e4637bfc6881b65581485", "fusion_lon": 0.0}, {"rental_uris": {"ios": "https://dc.lft.to/lastmile_qr_scan", "android": "https://dc.lft.to/lastmile_qr_scan"}, "type": "electric_scooter", "name": "67b94b051e9f665723cc22abe4317c67", "is_reserved": 0, "lon": -77.02759766666667, "is_disabled": 0, "fusion_lat": 0.0, "lat": 38.881589, "bike_id": "67b94b051e9f665723cc22abe4317c67", "fusion_lon": 0.0}, {"rental_uris": {"ios": "https://dc.lft.to/lastmile_qr_scan", "android": "https://dc.lft.to/lastmile_qr_scan"}, "type": "electric_scooter", "name": "07bfea20367e901b9e25fd2a8ec63e83", "is_reserved": 0, "lon": -77.02833866666667, "is_disabled": 0, "fusion_lat": 0.0, "lat": 38.8935875, "bike_id": "07bfea20367e901b9e25fd2a8ec63e83", "fusion_lon": 0.0}, {"rental_uris": {"ios": "https://dc.lft.to/lastmile_qr_scan", "android": "https://dc.lft.to/lastmile_qr_scan"}, "type": "electric_scooter", "name": "f55e867d1fa72455f99a9c8ed4da333a", "is_reserved": 0, "lon": -77.02197966666667, "is_disabled": 0, "fusion_lat": 0.0, "lat": 38.899252833333335, "bike_id": "f55e867d1fa72455f99a9c8ed4da333a", "fusion_lon": 0.0}, {"rental_uris": {"ios": "https://dc.lft.to/lastmile_qr_scan", "android": "https://dc.lft.to/lastmile_qr_scan"}, "type": "electric_scooter", "name": "16c612357dde7a143016c33e84a5ce30", "is_reserved": 0, "lon": -77.00539733333333, "is_disabled": 0, "fusion_lat": 0.0, "lat": 38.875456166666666, "bike_id": "16c612357dde7a143016c33e84a5ce30", "fusion_lon": 0.0}, {"rental_uris": {"ios": "https://dc.lft.to/lastmile_qr_scan", "android": "https://dc.lft.to/lastmile_qr_scan"}, "type": "electric_scooter", "name": "99a17e027fe81a90a650b17c342384f6", "is_reserved": 0, "lon": -77.031882, "is_disabled": 0, "fusion_lat": 0.0, "lat": 38.92489533333333, "bike_id": "99a17e027fe81a90a650b17c342384f6", "fusion_lon": 0.0}, {"rental_uris": {"ios": "https://dc.lft.to/lastmile_qr_scan", "android": "https://dc.lft.to/lastmile_qr_scan"}, "type": "electric_bike", "name": "bb3bb6e0659474cadb2a9e1df31cdaa6", "is_reserved": 0, "lon": -76.98370733333333, "is_disabled": 0, "fusion_lat": 0.0, "lat": 38.899830666666666, "bike_id": "bb3bb6e0659474cadb2a9e1df31cdaa6", "fusion_lon": 0.0}, {"rental_uris": {"ios": "https://dc.lft.to/lastmile_qr_scan", "android": "https://dc.lft.to/lastmile_qr_scan"}, "type": "electric_bike", "name": "c7f75079dfda29bd944595b354d9d106", "is_reserved": 0, "lon": -77.0366275, "is_disabled": 0, "fusion_lat": 0.0, "lat": 38.91048283333333, "bike_id": "c7f75079dfda29bd944595b354d9d106", "fusion_lon": 0.0}, {"rental_uris": {"ios": "https://dc.lft.to/lastmile_qr_scan", "android": "https://dc.lft.to/lastmile_qr_scan"}, "type": "electric_scooter", "name": "2debaaa28502b5a4d29bedbad279eca0", "is_reserved": 0, "lon": -76.99034466666667, "is_disabled": 0, "fusion_lat": 0.0, "lat": 38.888771, "bike_id": "2debaaa28502b5a4d29bedbad279eca0", "fusion_lon": 0.0}, {"rental_uris": {"ios": "https://dc.lft.to/lastmile_qr_scan", "android": "https://dc.lft.to/lastmile_qr_scan"}, "type": "electric_scooter", "name": "52efee3154d22e7067952a6d65263ae6", "is_reserved": 0, "lon": -77.06805483333333, "is_disabled": 0, "fusion_lat": 0.0, "lat": 38.905182333333336, "bike_id": "52efee3154d22e7067952a6d65263ae6", "fusion_lon": 0.0}, {"rental_uris": {"ios": "https://dc.lft.to/lastmile_qr_scan", "android": "https://dc.lft.to/lastmile_qr_scan"}, "type": "electric_scooter", "name": "44c7f112ffa1640450b510980f7b5ec3", "is_reserved": 0, "lon": -77.023403, "is_disabled": 0, "fusion_lat": 0.0, "lat": 38.8813675, "bike_id": "44c7f112ffa1640450b510980f7b5ec3", "fusion_lon": 0.0}, {"rental_uris": {"ios": "https://dc.lft.to/lastmile_qr_scan", "android": "https://dc.lft.to/lastmile_qr_scan"}, "type": "electric_scooter", "name": "455bc82e49b3f70f91acc19b03107a13", "is_reserved": 0, "lon": -77.00487616666666, "is_disabled": 0, "fusion_lat": 0.0, "lat": 38.87463066666667, "bike_id": "455bc82e49b3f70f91acc19b03107a13", "fusion_lon": 0.0}, {"rental_uris": {"ios": "https://dc.lft.to/lastmile_qr_scan", "android": "https://dc.lft.to/lastmile_qr_scan"}, "type": "electric_scooter", "name": "dc8e656655e0b0cc263ebcae3f0aec11", "is_reserved": 0, "lon": -77.04135716666667, "is_disabled": 0, "fusion_lat": 0.0, "lat": 38.9211435, "bike_id": "dc8e656655e0b0cc263ebcae3f0aec11", "fusion_lon": 0.0}, {"rental_uris": {"ios": "https://dc.lft.to/lastmile_qr_scan", "android": "https://dc.lft.to/lastmile_qr_scan"}, "type": "electric_scooter", "name": "ec0b77ddef5d9a093dda5244b92dd112", "is_reserved": 0, "lon": -77.01640816666666, "is_disabled": 0, "fusion_lat": 0.0, "lat": 38.91594683333334, "bike_id": "ec0b77ddef5d9a093dda5244b92dd112", "fusion_lon": 0.0}, {"rental_uris": {"ios": "https://dc.lft.to/lastmile_qr_scan", "android": "https://dc.lft.to/lastmile_qr_scan"}, "type": "electric_scooter", "name": "c93d9640f708b12602e1e0276347d4c0", "is_reserved": 0, "lon": -77.04618883333333, "is_disabled": 0, "fusion_lat": 0.0, "lat": 38.90109233333333, "bike_id": "c93d9640f708b12602e1e0276347d4c0", "fusion_lon": 0.0}, {"rental_uris": {"ios": "https://dc.lft.to/lastmile_qr_scan", "android": "https://dc.lft.to/lastmile_qr_scan"}, "type": "electric_scooter", "name": "63d5a8b55ab8080ed6d708d11155dfd2", "is_reserved": 0, "lon": -77.03691183333333, "is_disabled": 0, "fusion_lat": 0.0, "lat": 38.9168215, "bike_id": "63d5a8b55ab8080ed6d708d11155dfd2", "fusion_lon": 0.0}, {"rental_uris": {"ios": "https://dc.lft.to/lastmile_qr_scan", "android": "https://dc.lft.to/lastmile_qr_scan"}, "type": "electric_scooter", "name": "3709725a8e573bf461e723fafb83d91f", "is_reserved": 0, "lon": -77.005922, "is_disabled": 0, "fusion_lat": 0.0, "lat": 38.900402666666665, "bike_id": "3709725a8e573bf461e723fafb83d91f", "fusion_lon": 0.0}, {"rental_uris": {"ios": "https://dc.lft.to/lastmile_qr_scan", "android": "https://dc.lft.to/lastmile_qr_scan"}, "type": "electric_scooter", "name": "23e2da94b413d96ee4777a1f9fca1067", "is_reserved": 0, "lon": -77.04002466666667, "is_disabled": 0, "fusion_lat": 0.0, "lat": 38.934246, "bike_id": "23e2da94b413d96ee4777a1f9fca1067", "fusion_lon": 0.0}, {"rental_uris": {"ios": "https://dc.lft.to/lastmile_qr_scan", "android": "https://dc.lft.to/lastmile_qr_scan"}, "type": "electric_scooter", "name": "b436d3a08593111bfc3344c566ae4144", "is_reserved": 0, "lon": -76.99627516666666, "is_disabled": 0, "fusion_lat": 0.0, "lat": 38.90003383333333, "bike_id": "b436d3a08593111bfc3344c566ae4144", "fusion_lon": 0.0}, {"rental_uris": {"ios": "https://dc.lft.to/lastmile_qr_scan", "android": "https://dc.lft.to/lastmile_qr_scan"}, "type": "electric_bike", "name": "6c71f9ad53953060db9e049123daf16e", "is_reserved": 0, "lon": -76.96889566666667, "is_disabled": 0, "fusion_lat": 0.0, "lat": 38.869861666666665, "bike_id": "6c71f9ad53953060db9e049123daf16e", "fusion_lon": 0.0}, {"rental_uris": {"ios": "https://dc.lft.to/lastmile_qr_scan", "android": "https://dc.lft.to/lastmile_qr_scan"}, "type": "electric_scooter", "name": "73851639c61a1dfc4c153a118e411b17", "is_reserved": 0, "lon": -77.01974366666667, "is_disabled": 0, "fusion_lat": 0.0, "lat": 38.89970433333333, "bike_id": "73851639c61a1dfc4c153a118e411b17", "fusion_lon": 0.0}, {"rental_uris": {"ios": "https://dc.lft.to/lastmile_qr_scan", "android": "https://dc.lft.to/lastmile_qr_scan"}, "type": "electric_scooter", "name": "3835ed59416ad6f9ba7b3a8550c1e673", "is_reserved": 0, "lon": -77.02201216666667, "is_disabled": 0, "fusion_lat": 0.0, "lat": 38.910985, "bike_id": "3835ed59416ad6f9ba7b3a8550c1e673", "fusion_lon": 0.0}, {"rental_uris": {"ios": "https://dc.lft.to/lastmile_qr_scan", "android": "https://dc.lft.to/lastmile_qr_scan"}, "type": "electric_scooter", "name": "b9e86f97338b473dfa22ce79570413ec", "is_reserved": 0, "lon": -77.00924633333334, "is_disabled": 0, "fusion_lat": 0.0, "lat": 38.874492833333335, "bike_id": "b9e86f97338b473dfa22ce79570413ec", "fusion_lon": 0.0}, {"rental_uris": {"ios": "https://dc.lft.to/lastmile_qr_scan", "android": "https://dc.lft.to/lastmile_qr_scan"}, "type": "electric_scooter", "name": "6028badf935a8b4eb35c35aa788f1cf9", "is_reserved": 0, "lon": -77.03551666666667, "is_disabled": 0, "fusion_lat": 0.0, "lat": 38.927345333333335, "bike_id": "6028badf935a8b4eb35c35aa788f1cf9", "fusion_lon": 0.0}, {"rental_uris": {"ios": "https://dc.lft.to/lastmile_qr_scan", "android": "https://dc.lft.to/lastmile_qr_scan"}, "type": "electric_scooter", "name": "8f840d32086c7848faa0ef77400c1732", "is_reserved": 0, "lon": -76.99145283333333, "is_disabled": 0, "fusion_lat": 0.0, "lat": 38.873420833333334, "bike_id": "8f840d32086c7848faa0ef77400c1732", "fusion_lon": 0.0}, {"rental_uris": {"ios": "https://dc.lft.to/lastmile_qr_scan", "android": "https://dc.lft.to/lastmile_qr_scan"}, "type": "electric_bike", "name": "301ac5e611826111b220de54544f5e04", "is_reserved": 0, "lon": -77.1289105, "is_disabled": 0, "fusion_lat": 0.0, "lat": 38.90614016666667, "bike_id": "301ac5e611826111b220de54544f5e04", "fusion_lon": 0.0}, {"rental_uris": {"ios": "https://dc.lft.to/lastmile_qr_scan", "android": "https://dc.lft.to/lastmile_qr_scan"}, "type": "electric_scooter", "name": "797438d43ea0976e37c629e04a6306e9", "is_reserved": 0, "lon": -77.01875666666666, "is_disabled": 0, "fusion_lat": 0.0, "lat": 38.90247433333333, "bike_id": "797438d43ea0976e37c629e04a6306e9", "fusion_lon": 0.0}, {"rental_uris": {"ios": "https://dc.lft.to/lastmile_qr_scan", "android": "https://dc.lft.to/lastmile_qr_scan"}, "type": "electric_scooter", "name": "a1e0c3fcd2bb86ca5db2a69bbf1df810", "is_reserved": 0, "lon": -77.04476266666667, "is_disabled": 0, "fusion_lat": 0.0, "lat": 38.903745666666666, "bike_id": "a1e0c3fcd2bb86ca5db2a69bbf1df810", "fusion_lon": 0.0}, {"rental_uris": {"ios": "https://dc.lft.to/lastmile_qr_scan", "android": "https://dc.lft.to/lastmile_qr_scan"}, "type": "electric_scooter", "name": "3d4a9c1eee09e2d9237c605e996722ba", "is_reserved": 0, "lon": -76.98537683333333, "is_disabled": 0, "fusion_lat": 0.0, "lat": 38.879729, "bike_id": "3d4a9c1eee09e2d9237c605e996722ba", "fusion_lon": 0.0}, {"rental_uris": {"ios": "https://dc.lft.to/lastmile_qr_scan", "android": "https://dc.lft.to/lastmile_qr_scan"}, "type": "electric_scooter", "name": "af35331280b2e96b40455fee4a6e0c7b", "is_reserved": 0, "lon": -76.9986125, "is_disabled": 0, "fusion_lat": 0.0, "lat": 38.900278, "bike_id": "af35331280b2e96b40455fee4a6e0c7b", "fusion_lon": 0.0}, {"rental_uris": {"ios": "https://dc.lft.to/lastmile_qr_scan", "android": "https://dc.lft.to/lastmile_qr_scan"}, "type": "electric_scooter", "name": "25a1d3cde9906675973345da896575fd", "is_reserved": 0, "lon": -77.06474083333333, "is_disabled": 0, "fusion_lat": 0.0, "lat": 38.927034666666664, "bike_id": "25a1d3cde9906675973345da896575fd", "fusion_lon": 0.0}, {"rental_uris": {"ios": "https://dc.lft.to/lastmile_qr_scan", "android": "https://dc.lft.to/lastmile_qr_scan"}, "type": "electric_scooter", "name": "8b40ec067f6594ca01014600b048ef80", "is_reserved": 0, "lon": -77.01024783333334, "is_disabled": 0, "fusion_lat": 0.0, "lat": 38.914174, "bike_id": "8b40ec067f6594ca01014600b048ef80", "fusion_lon": 0.0}, {"rental_uris": {"ios": "https://dc.lft.to/lastmile_qr_scan", "android": "https://dc.lft.to/lastmile_qr_scan"}, "type": "electric_scooter", "name": "b3b72fbdb6b862c204a44d372fac8052", "is_reserved": 0, "lon": -76.99380766666667, "is_disabled": 0, "fusion_lat": 0.0, "lat": 38.893431, "bike_id": "b3b72fbdb6b862c204a44d372fac8052", "fusion_lon": 0.0}, {"rental_uris": {"ios": "https://dc.lft.to/lastmile_qr_scan", "android": "https://dc.lft.to/lastmile_qr_scan"}, "type": "electric_scooter", "name": "e103d21c56b89b0e0c08f8895a9cb453", "is_reserved": 0, "lon": -77.02335783333334, "is_disabled": 0, "fusion_lat": 0.0, "lat": 38.91666566666667, "bike_id": "e103d21c56b89b0e0c08f8895a9cb453", "fusion_lon": 0.0}, {"rental_uris": {"ios": "https://dc.lft.to/lastmile_qr_scan", "android": "https://dc.lft.to/lastmile_qr_scan"}, "type": "electric_scooter", "name": "db72d20302b93e5756c583a21e237a23", "is_reserved": 0, "lon": -77.045305, "is_disabled": 0, "fusion_lat": 0.0, "lat": 38.91130916666667, "bike_id": "db72d20302b93e5756c583a21e237a23", "fusion_lon": 0.0}, {"rental_uris": {"ios": "https://dc.lft.to/lastmile_qr_scan", "android": "https://dc.lft.to/lastmile_qr_scan"}, "type": "electric_scooter", "name": "c50f820748e3753886f597721406b7b9", "is_reserved": 0, "lon": -76.99165266666667, "is_disabled": 0, "fusion_lat": 0.0, "lat": 38.888138166666664, "bike_id": "c50f820748e3753886f597721406b7b9", "fusion_lon": 0.0}, {"rental_uris": {"ios": "https://dc.lft.to/lastmile_qr_scan", "android": "https://dc.lft.to/lastmile_qr_scan"}, "type": "electric_scooter", "name": "7f7800e533eeb8316152c781a459b574", "is_reserved": 0, "lon": -76.98455133333333, "is_disabled": 0, "fusion_lat": 0.0, "lat": 38.90025983333334, "bike_id": "7f7800e533eeb8316152c781a459b574", "fusion_lon": 0.0}, {"rental_uris": {"ios": "https://dc.lft.to/lastmile_qr_scan", "android": "https://dc.lft.to/lastmile_qr_scan"}, "type": "electric_scooter", "name": "8e7186e113bc927d0e73a874f9e3e1e9", "is_reserved": 0, "lon": -77.00062966666667, "is_disabled": 0, "fusion_lat": 0.0, "lat": 38.874585333333336, "bike_id": "8e7186e113bc927d0e73a874f9e3e1e9", "fusion_lon": 0.0}, {"rental_uris": {"ios": "https://dc.lft.to/lastmile_qr_scan", "android": "https://dc.lft.to/lastmile_qr_scan"}, "type": "electric_scooter", "name": "117943570885bb3297e0062ddfe6b2e1", "is_reserved": 0, "lon": -77.018067, "is_disabled": 0, "fusion_lat": 0.0, "lat": 38.921137333333334, "bike_id": "117943570885bb3297e0062ddfe6b2e1", "fusion_lon": 0.0}, {"rental_uris": {"ios": "https://dc.lft.to/lastmile_qr_scan", "android": "https://dc.lft.to/lastmile_qr_scan"}, "type": "electric_scooter", "name": "6fb84b6af53addf4d05bc862c10d47a5", "is_reserved": 0, "lon": -77.04413566666666, "is_disabled": 0, "fusion_lat": 0.0, "lat": 38.895929, "bike_id": "6fb84b6af53addf4d05bc862c10d47a5", "fusion_lon": 0.0}, {"rental_uris": {"ios": "https://dc.lft.to/lastmile_qr_scan", "android": "https://dc.lft.to/lastmile_qr_scan"}, "type": "electric_scooter", "name": "e70e82cd3ee77a4357fba3f8f0e8bcd3", "is_reserved": 0, "lon": -77.02203483333334, "is_disabled": 0, "fusion_lat": 0.0, "lat": 38.951575166666665, "bike_id": "e70e82cd3ee77a4357fba3f8f0e8bcd3", "fusion_lon": 0.0}, {"rental_uris": {"ios": "https://dc.lft.to/lastmile_qr_scan", "android": "https://dc.lft.to/lastmile_qr_scan"}, "type": "electric_bike", "name": "1e683deedc9eb745d8c70f91b8b1bb08", "is_reserved": 0, "lon": -77.0728285, "is_disabled": 0, "fusion_lat": 0.0, "lat": 38.91760516666667, "bike_id": "1e683deedc9eb745d8c70f91b8b1bb08", "fusion_lon": 0.0}, {"rental_uris": {"ios": "https://dc.lft.to/lastmile_qr_scan", "android": "https://dc.lft.to/lastmile_qr_scan"}, "type": "electric_scooter", "name": "0917c66eb05458ec507cb7ed9944b1bd", "is_reserved": 0, "lon": -76.92924816666667, "is_disabled": 0, "fusion_lat": 0.0, "lat": 38.8920775, "bike_id": "0917c66eb05458ec507cb7ed9944b1bd", "fusion_lon": 0.0}, {"rental_uris": {"ios": "https://dc.lft.to/lastmile_qr_scan", "android": "https://dc.lft.to/lastmile_qr_scan"}, "type": "electric_scooter", "name": "38b92abeb3dea6eb6d4f30fedafae741", "is_reserved": 0, "lon": -77.04274266666667, "is_disabled": 0, "fusion_lat": 0.0, "lat": 38.9223795, "bike_id": "38b92abeb3dea6eb6d4f30fedafae741", "fusion_lon": 0.0}, {"rental_uris": {"ios": "https://dc.lft.to/lastmile_qr_scan", "android": "https://dc.lft.to/lastmile_qr_scan"}, "type": "electric_scooter", "name": "6e9d6cc7d5d518d92f81be1bc74e413f", "is_reserved": 0, "lon": -77.02395583333333, "is_disabled": 0, "fusion_lat": 0.0, "lat": 38.915921, "bike_id": "6e9d6cc7d5d518d92f81be1bc74e413f", "fusion_lon": 0.0}, {"rental_uris": {"ios": "https://dc.lft.to/lastmile_qr_scan", "android": "https://dc.lft.to/lastmile_qr_scan"}, "type": "electric_scooter", "name": "537165063b002b9df7ba0bc564296629", "is_reserved": 0, "lon": -77.0211425, "is_disabled": 0, "fusion_lat": 0.0, "lat": 38.90941183333333, "bike_id": "537165063b002b9df7ba0bc564296629", "fusion_lon": 0.0}, {"rental_uris": {"ios": "https://dc.lft.to/lastmile_qr_scan", "android": "https://dc.lft.to/lastmile_qr_scan"}, "type": "electric_bike", "name": "aa9f164425073ed6592dd6b536c01dd2", "is_reserved": 0, "lon": -77.085675, "is_disabled": 0, "fusion_lat": 0.0, "lat": 38.874239333333335, "bike_id": "aa9f164425073ed6592dd6b536c01dd2", "fusion_lon": 0.0}, {"rental_uris": {"ios": "https://dc.lft.to/lastmile_qr_scan", "android": "https://dc.lft.to/lastmile_qr_scan"}, "type": "electric_scooter", "name": "8393c0b00fd81aa44fc7cd0244aedf2f", "is_reserved": 0, "lon": -77.01463916666667, "is_disabled": 0, "fusion_lat": 0.0, "lat": 38.87934466666667, "bike_id": "8393c0b00fd81aa44fc7cd0244aedf2f", "fusion_lon": 0.0}, {"rental_uris": {"ios": "https://dc.lft.to/lastmile_qr_scan", "android": "https://dc.lft.to/lastmile_qr_scan"}, "type": "electric_scooter", "name": "c0a84bf4e82f35e8531e5bcc6affc72b", "is_reserved": 0, "lon": -77.02000066666666, "is_disabled": 0, "fusion_lat": 0.0, "lat": 38.90505433333333, "bike_id": "c0a84bf4e82f35e8531e5bcc6affc72b", "fusion_lon": 0.0}, {"rental_uris": {"ios": "https://dc.lft.to/lastmile_qr_scan", "android": "https://dc.lft.to/lastmile_qr_scan"}, "type": "electric_scooter", "name": "d10fa2652e319c91db0c0fb9e84ec672", "is_reserved": 0, "lon": -76.97213783333333, "is_disabled": 0, "fusion_lat": 0.0, "lat": 38.917198166666665, "bike_id": "d10fa2652e319c91db0c0fb9e84ec672", "fusion_lon": 0.0}, {"rental_uris": {"ios": "https://dc.lft.to/lastmile_qr_scan", "android": "https://dc.lft.to/lastmile_qr_scan"}, "type": "electric_scooter", "name": "c46c8ce4f6c032f2268807c5b8f4282c", "is_reserved": 0, "lon": -77.01379533333333, "is_disabled": 0, "fusion_lat": 0.0, "lat": 38.8982835, "bike_id": "c46c8ce4f6c032f2268807c5b8f4282c", "fusion_lon": 0.0}, {"rental_uris": {"ios": "https://dc.lft.to/lastmile_qr_scan", "android": "https://dc.lft.to/lastmile_qr_scan"}, "type": "electric_bike", "name": "affba5e174c763c738c7788abe7fb88b", "is_reserved": 0, "lon": -77.09450283333334, "is_disabled": 0, "fusion_lat": 0.0, "lat": 38.80755116666667, "bike_id": "affba5e174c763c738c7788abe7fb88b", "fusion_lon": 0.0}, {"rental_uris": {"ios": "https://dc.lft.to/lastmile_qr_scan", "android": "https://dc.lft.to/lastmile_qr_scan"}, "type": "electric_scooter", "name": "f60e2d573a199131457c5d3df8630e86", "is_reserved": 0, "lon": -77.03199516666666, "is_disabled": 0, "fusion_lat": 0.0, "lat": 38.91581983333333, "bike_id": "f60e2d573a199131457c5d3df8630e86", "fusion_lon": 0.0}, {"rental_uris": {"ios": "https://dc.lft.to/lastmile_qr_scan", "android": "https://dc.lft.to/lastmile_qr_scan"}, "type": "electric_scooter", "name": "ad8e8064be979aa932f3b0b328f8bce4", "is_reserved": 0, "lon": -77.02665066666667, "is_disabled": 0, "fusion_lat": 0.0, "lat": 38.92221, "bike_id": "ad8e8064be979aa932f3b0b328f8bce4", "fusion_lon": 0.0}, {"rental_uris": {"ios": "https://dc.lft.to/lastmile_qr_scan", "android": "https://dc.lft.to/lastmile_qr_scan"}, "type": "electric_scooter", "name": "02e22555b35abb59dc4923498d9bde80", "is_reserved": 0, "lon": -77.06556933333333, "is_disabled": 0, "fusion_lat": 0.0, "lat": 38.91173216666667, "bike_id": "02e22555b35abb59dc4923498d9bde80", "fusion_lon": 0.0}, {"rental_uris": {"ios": "https://dc.lft.to/lastmile_qr_scan", "android": "https://dc.lft.to/lastmile_qr_scan"}, "type": "electric_scooter", "name": "a6b756b9f03fc0b344bb483269ee2c23", "is_reserved": 0, "lon": -77.04721116666667, "is_disabled": 0, "fusion_lat": 0.0, "lat": 38.917887, "bike_id": "a6b756b9f03fc0b344bb483269ee2c23", "fusion_lon": 0.0}, {"rental_uris": {"ios": "https://dc.lft.to/lastmile_qr_scan", "android": "https://dc.lft.to/lastmile_qr_scan"}, "type": "electric_scooter", "name": "3b7ae87ccd4da9159e49b4aceeab4599", "is_reserved": 0, "lon": -77.021414, "is_disabled": 0, "fusion_lat": 0.0, "lat": 38.8974185, "bike_id": "3b7ae87ccd4da9159e49b4aceeab4599", "fusion_lon": 0.0}, {"rental_uris": {"ios": "https://dc.lft.to/lastmile_qr_scan", "android": "https://dc.lft.to/lastmile_qr_scan"}, "type": "electric_scooter", "name": "5b85106e051fce55b1fbfa7e97413cba", "is_reserved": 0, "lon": -77.043461, "is_disabled": 0, "fusion_lat": 0.0, "lat": 38.92350116666667, "bike_id": "5b85106e051fce55b1fbfa7e97413cba", "fusion_lon": 0.0}, {"rental_uris": {"ios": "https://dc.lft.to/lastmile_qr_scan", "android": "https://dc.lft.to/lastmile_qr_scan"}, "type": "electric_scooter", "name": "6820223da10f5c52444c36c5632d2590", "is_reserved": 0, "lon": -76.97892416666667, "is_disabled": 0, "fusion_lat": 0.0, "lat": 38.885435, "bike_id": "6820223da10f5c52444c36c5632d2590", "fusion_lon": 0.0}, {"rental_uris": {"ios": "https://dc.lft.to/lastmile_qr_scan", "android": "https://dc.lft.to/lastmile_qr_scan"}, "type": "electric_bike", "name": "8c0207f015631526fbe9ae712b0dbee2", "is_reserved": 0, "lon": -77.02009516666666, "is_disabled": 0, "fusion_lat": 0.0, "lat": 38.964400833333336, "bike_id": "8c0207f015631526fbe9ae712b0dbee2", "fusion_lon": 0.0}, {"rental_uris": {"ios": "https://dc.lft.to/lastmile_qr_scan", "android": "https://dc.lft.to/lastmile_qr_scan"}, "type": "electric_scooter", "name": "e5d2050454602fc6705a8e21dd8f4f81", "is_reserved": 0, "lon": -77.02608566666666, "is_disabled": 0, "fusion_lat": 0.0, "lat": 38.9169015, "bike_id": "e5d2050454602fc6705a8e21dd8f4f81", "fusion_lon": 0.0}, {"rental_uris": {"ios": "https://dc.lft.to/lastmile_qr_scan", "android": "https://dc.lft.to/lastmile_qr_scan"}, "type": "electric_scooter", "name": "e96f36e202572960459aa637297c55fb", "is_reserved": 0, "lon": -77.023403, "is_disabled": 0, "fusion_lat": 0.0, "lat": 38.922962166666665, "bike_id": "e96f36e202572960459aa637297c55fb", "fusion_lon": 0.0}, {"rental_uris": {"ios": "https://dc.lft.to/lastmile_qr_scan", "android": "https://dc.lft.to/lastmile_qr_scan"}, "type": "electric_scooter", "name": "2d87134fec37695f5947faede1436246", "is_reserved": 0, "lon": -76.98261766666667, "is_disabled": 0, "fusion_lat": 0.0, "lat": 38.86630383333333, "bike_id": "2d87134fec37695f5947faede1436246", "fusion_lon": 0.0}, {"rental_uris": {"ios": "https://dc.lft.to/lastmile_qr_scan", "android": "https://dc.lft.to/lastmile_qr_scan"}, "type": "electric_scooter", "name": "5d8f7e6d20a36dda515f4f43b0e66a2b", "is_reserved": 0, "lon": -77.036018, "is_disabled": 0, "fusion_lat": 0.0, "lat": 38.92786916666667, "bike_id": "5d8f7e6d20a36dda515f4f43b0e66a2b", "fusion_lon": 0.0}, {"rental_uris": {"ios": "https://dc.lft.to/lastmile_qr_scan", "android": "https://dc.lft.to/lastmile_qr_scan"}, "type": "electric_bike", "name": "f0768fc46625525ea7df97f60f007f45", "is_reserved": 0, "lon": -76.95244766666667, "is_disabled": 0, "fusion_lat": 0.0, "lat": 38.90704566666667, "bike_id": "f0768fc46625525ea7df97f60f007f45", "fusion_lon": 0.0}, {"rental_uris": {"ios": "https://dc.lft.to/lastmile_qr_scan", "android": "https://dc.lft.to/lastmile_qr_scan"}, "type": "electric_scooter", "name": "505566e9731d1a96cfab4082ec45e42c", "is_reserved": 0, "lon": -77.031907, "is_disabled": 0, "fusion_lat": 0.0, "lat": 38.91567583333333, "bike_id": "505566e9731d1a96cfab4082ec45e42c", "fusion_lon": 0.0}, {"rental_uris": {"ios": "https://dc.lft.to/lastmile_qr_scan", "android": "https://dc.lft.to/lastmile_qr_scan"}, "type": "electric_scooter", "name": "6fd7613fc3c70ccebf503855e7992e56", "is_reserved": 0, "lon": -77.01389416666666, "is_disabled": 0, "fusion_lat": 0.0, "lat": 38.91111316666667, "bike_id": "6fd7613fc3c70ccebf503855e7992e56", "fusion_lon": 0.0}, {"rental_uris": {"ios": "https://dc.lft.to/lastmile_qr_scan", "android": "https://dc.lft.to/lastmile_qr_scan"}, "type": "electric_bike", "name": "61b452a1b84812d8f6151f92487eb7f2", "is_reserved": 0, "lon": -77.02458716666666, "is_disabled": 0, "fusion_lat": 0.0, "lat": 38.957432833333336, "bike_id": "61b452a1b84812d8f6151f92487eb7f2", "fusion_lon": 0.0}, {"rental_uris": {"ios": "https://dc.lft.to/lastmile_qr_scan", "android": "https://dc.lft.to/lastmile_qr_scan"}, "type": "electric_scooter", "name": "ef11aadb0c224caf0167584213f44cfd", "is_reserved": 0, "lon": -77.02258933333333, "is_disabled": 0, "fusion_lat": 0.0, "lat": 38.900122333333336, "bike_id": "ef11aadb0c224caf0167584213f44cfd", "fusion_lon": 0.0}, {"rental_uris": {"ios": "https://dc.lft.to/lastmile_qr_scan", "android": "https://dc.lft.to/lastmile_qr_scan"}, "type": "electric_bike", "name": "d7fdf110b0d66316cfe010be29cc3eb5", "is_reserved": 0, "lon": -76.971351, "is_disabled": 0, "fusion_lat": 0.0, "lat": 38.923557833333334, "bike_id": "d7fdf110b0d66316cfe010be29cc3eb5", "fusion_lon": 0.0}, {"rental_uris": {"ios": "https://dc.lft.to/lastmile_qr_scan", "android": "https://dc.lft.to/lastmile_qr_scan"}, "type": "electric_scooter", "name": "49304273fadcbdb981c4dc4b12cf7c5e", "is_reserved": 0, "lon": -76.98807866666667, "is_disabled": 0, "fusion_lat": 0.0, "lat": 38.8936, "bike_id": "49304273fadcbdb981c4dc4b12cf7c5e", "fusion_lon": 0.0}, {"rental_uris": {"ios": "https://dc.lft.to/lastmile_qr_scan", "android": "https://dc.lft.to/lastmile_qr_scan"}, "type": "electric_bike", "name": "29940cafc1f55d5bef832c2b3ead4f4c", "is_reserved": 0, "lon": -77.1265005, "is_disabled": 0, "fusion_lat": 0.0, "lat": 38.81910883333333, "bike_id": "29940cafc1f55d5bef832c2b3ead4f4c", "fusion_lon": 0.0}, {"rental_uris": {"ios": "https://dc.lft.to/lastmile_qr_scan", "android": "https://dc.lft.to/lastmile_qr_scan"}, "type": "electric_scooter", "name": "a11f5e1ebc075a2f40431da9f5c39f81", "is_reserved": 0, "lon": -76.97650633333333, "is_disabled": 0, "fusion_lat": 0.0, "lat": 38.887498666666666, "bike_id": "a11f5e1ebc075a2f40431da9f5c39f81", "fusion_lon": 0.0}, {"rental_uris": {"ios": "https://dc.lft.to/lastmile_qr_scan", "android": "https://dc.lft.to/lastmile_qr_scan"}, "type": "electric_scooter", "name": "ba60be5b0cb66084f04ef031c6820d68", "is_reserved": 0, "lon": -77.06373, "is_disabled": 0, "fusion_lat": 0.0, "lat": 38.9356355, "bike_id": "ba60be5b0cb66084f04ef031c6820d68", "fusion_lon": 0.0}, {"rental_uris": {"ios": "https://dc.lft.to/lastmile_qr_scan", "android": "https://dc.lft.to/lastmile_qr_scan"}, "type": "electric_scooter", "name": "3e1d81d047d8a7c8fb9ef0f93d7aa46a", "is_reserved": 0, "lon": -77.00627016666667, "is_disabled": 0, "fusion_lat": 0.0, "lat": 38.87172616666667, "bike_id": "3e1d81d047d8a7c8fb9ef0f93d7aa46a", "fusion_lon": 0.0}, {"rental_uris": {"ios": "https://dc.lft.to/lastmile_qr_scan", "android": "https://dc.lft.to/lastmile_qr_scan"}, "type": "electric_scooter", "name": "96926299eb79d70d0e65e68ac7cd687f", "is_reserved": 0, "lon": -76.97959516666667, "is_disabled": 0, "fusion_lat": 0.0, "lat": 38.897953666666666, "bike_id": "96926299eb79d70d0e65e68ac7cd687f", "fusion_lon": 0.0}, {"rental_uris": {"ios": "https://dc.lft.to/lastmile_qr_scan", "android": "https://dc.lft.to/lastmile_qr_scan"}, "type": "electric_scooter", "name": "b238e511067e8d9a815eabee59e80026", "is_reserved": 0, "lon": -77.02378566666667, "is_disabled": 0, "fusion_lat": 0.0, "lat": 38.920011833333334, "bike_id": "b238e511067e8d9a815eabee59e80026", "fusion_lon": 0.0}, {"rental_uris": {"ios": "https://dc.lft.to/lastmile_qr_scan", "android": "https://dc.lft.to/lastmile_qr_scan"}, "type": "electric_scooter", "name": "3ecff7fd65d2db1356169b2d8e60e72d", "is_reserved": 0, "lon": -76.98359733333334, "is_disabled": 0, "fusion_lat": 0.0, "lat": 38.8874765, "bike_id": "3ecff7fd65d2db1356169b2d8e60e72d", "fusion_lon": 0.0}, {"rental_uris": {"ios": "https://dc.lft.to/lastmile_qr_scan", "android": "https://dc.lft.to/lastmile_qr_scan"}, "type": "electric_scooter", "name": "08bda6707fb6b0f8fb340a5c4c5704e4", "is_reserved": 0, "lon": -77.048696, "is_disabled": 0, "fusion_lat": 0.0, "lat": 38.911075, "bike_id": "08bda6707fb6b0f8fb340a5c4c5704e4", "fusion_lon": 0.0}, {"rental_uris": {"ios": "https://dc.lft.to/lastmile_qr_scan", "android": "https://dc.lft.to/lastmile_qr_scan"},