{"data": {"bikes": [{"lon": -77.04472466666667, "name": "b7cf7302aa17dd47d8bdfbd09614635c", "lat": 38.912016666666666, "fusion_lon": 0.0, "rental_uris": {"ios": "https://dc.lft.to/lastmile_qr_scan", "android": "https://dc.lft.to/lastmile_qr_scan"}, "bike_id": "b7cf7302aa17dd47d8bdfbd09614635c", "type": "electric_scooter", "fusion_lat": 0.0, "is_disabled": 0, "is_reserved": 0}, {"lon": -77.03903283333334, "name": "09279bc3e4721eadbf5db75fe9b40e32", "lat": 38.902476, "fusion_lon": 0.0, "rental_uris": {"ios": "https://dc.lft.to/lastmile_qr_scan", "android": "https://dc.lft.to/lastmile_qr_scan"}, "bike_id": "09279bc3e4721eadbf5db75fe9b40e32", "type": "electric_scooter", "fusion_lat": 0.0, "is_disabled": 0, "is_reserved": 0}, {"lon": -76.94979733333334, "name": "067329029190f0d3869173f2335ba952", "lat": 38.90068616666667, "fusion_lon": 0.0, "rental_uris": {"ios": "https://dc.lft.to/lastmile_qr_scan", "android": "https://dc.lft.to/lastmile_qr_scan"}, "bike_id": "067329029190f0d3869173f2335ba952", "type": "electric_scooter", "fusion_lat": 0.0, "is_disabled": 0, "is_reserved": 0}, {"lon": -76.98264566666667, "name": "536d1489e91e0b6c68719c8a39f81526", "lat": 38.953398, "fusion_lon": 0.0, "rental_uris": {"ios": "https://dc.lft.to/lastmile_qr_scan", "android": "https://dc.lft.to/lastmile_qr_scan"}, "bike_id": "536d1489e91e0b6c68719c8a39f81526", "type": "electric_bike", "fusion_lat": 0.0, "is_disabled": 0, "is_reserved": 0}, {"lon": -77.02008566666666, "name": "e5f6e22e7293e6d49e20c9592c83c206", "lat": 38.915808166666665, "fusion_lon": 0.0, "rental_uris": {"ios": "https://dc.lft.to/lastmile_qr_scan", "android": "https://dc.lft.to/lastmile_qr_scan"}, "bike_id": "e5f6e22e7293e6d49e20c9592c83c206", "type": "electric_scooter", "fusion_lat": 0.0, "is_disabled": 0, "is_reserved": 0}, {"lon": -76.99156816666667, "name": "d399aeda7aaa4fb6a469f72fb8c930ef", "lat": 38.90051483333333, "fusion_lon": 0.0, "rental_uris": {"ios": "https://dc.lft.to/lastmile_qr_scan", "android": "https://dc.lft.to/lastmile_qr_scan"}, "bike_id": "d399aeda7aaa4fb6a469f72fb8c930ef", "type": "electric_scooter", "fusion_lat": 0.0, "is_disabled": 0, "is_reserved": 0}, {"lon": -76.98531966666667, "name": "18c4cf7957a58e891d725023431f4ed4", "lat": 38.89952866666667, "fusion_lon": 0.0, "rental_uris": {"ios": "https://dc.lft.to/lastmile_qr_scan", "android": "https://dc.lft.to/lastmile_qr_scan"}, "bike_id": "18c4cf7957a58e891d725023431f4ed4", "type": "electric_scooter", "fusion_lat": 0.0, "is_disabled": 0, "is_reserved": 0}, {"lon": -76.9951295, "name": "c1f1a4331c5c7ad0ddafe6d51c8ad889", "lat": 38.8837335, "fusion_lon": 0.0, "rental_uris": {"ios": "https://dc.lft.to/lastmile_qr_scan", "android": "https://dc.lft.to/lastmile_qr_scan"}, "bike_id": "c1f1a4331c5c7ad0ddafe6d51c8ad889", "type": "electric_scooter", "fusion_lat": 0.0, "is_disabled": 0, "is_reserved": 0}, {"lon": -77.00748616666667, "name": "f0680c419099d01fe9415f00deaaa551", "lat": 38.903771666666664, "fusion_lon": 0.0, "rental_uris": {"ios": "https://dc.lft.to/lastmile_qr_scan", "android": "https://dc.lft.to/lastmile_qr_scan"}, "bike_id": "f0680c419099d01fe9415f00deaaa551", "type": "electric_scooter", "fusion_lat": 0.0, "is_disabled": 0, "is_reserved": 0}, {"lon": -77.03018833333333, "name": "06e57addd66690a0aa9f2333f306d953", "lat": 38.89227066666667, "fusion_lon": 0.0, "rental_uris": {"ios": "https://dc.lft.to/lastmile_qr_scan", "android": "https://dc.lft.to/lastmile_qr_scan"}, "bike_id": "06e57addd66690a0aa9f2333f306d953", "type": "electric_scooter", "fusion_lat": 0.0, "is_disabled": 0, "is_reserved": 0}, {"lon": -77.07262133333333, "name": "4b78f9bd5b698c2e1cdc216e5f7e0c6e", "lat": 38.93348133333333, "fusion_lon": 0.0, "rental_uris": {"ios": "https://dc.lft.to/lastmile_qr_scan", "android": "https://dc.lft.to/lastmile_qr_scan"}, "bike_id": "4b78f9bd5b698c2e1cdc216e5f7e0c6e", "type": "electric_scooter", "fusion_lat": 0.0, "is_disabled": 0, "is_reserved": 0}, {"lon": -77.05080483333333, "name": "0a52c81167364ef5cc64b5165366747f", "lat": 38.896103333333336, "fusion_lon": 0.0, "rental_uris": {"ios": "https://dc.lft.to/lastmile_qr_scan", "android": "https://dc.lft.to/lastmile_qr_scan"}, "bike_id": "0a52c81167364ef5cc64b5165366747f", "type": "electric_scooter", "fusion_lat": 0.0, "is_disabled": 0, "is_reserved": 0}, {"lon": -77.00611466666666, "name": "0b10855ffc37a2a521b39ce9df3f7aac", "lat": 38.875669333333335, "fusion_lon": 0.0, "rental_uris": {"ios": "https://dc.lft.to/lastmile_qr_scan", "android": "https://dc.lft.to/lastmile_qr_scan"}, "bike_id": "0b10855ffc37a2a521b39ce9df3f7aac", "type": "electric_scooter", "fusion_lat": 0.0, "is_disabled": 0, "is_reserved": 0}, {"lon": -77.00942966666666, "name": "a3d9332cb6283f6932e5976f4cc5ccaf", "lat": 38.921316, "fusion_lon": 0.0, "rental_uris": {"ios": "https://dc.lft.to/lastmile_qr_scan", "android": "https://dc.lft.to/lastmile_qr_scan"}, "bike_id": "a3d9332cb6283f6932e5976f4cc5ccaf", "type": "electric_scooter", "fusion_lat": 0.0, "is_disabled": 0, "is_reserved": 0}, {"lon": -77.03361533333333, "name": "a69339b6d3d45d81324cf401fe3c9866", "lat": 38.89536233333333, "fusion_lon": 0.0, "rental_uris": {"ios": "https://dc.lft.to/lastmile_qr_scan", "android": "https://dc.lft.to/lastmile_qr_scan"}, "bike_id": "a69339b6d3d45d81324cf401fe3c9866", "type": "electric_scooter", "fusion_lat": 0.0, "is_disabled": 0, "is_reserved": 0}, {"lon": -77.023271, "name": "3405b46149a8d5542168d8410dd0f290", "lat": 38.9414315, "fusion_lon": 0.0, "rental_uris": {"ios": "https://dc.lft.to/lastmile_qr_scan", "android": "https://dc.lft.to/lastmile_qr_scan"}, "bike_id": "3405b46149a8d5542168d8410dd0f290", "type": "electric_scooter", "fusion_lat": 0.0, "is_disabled": 0, "is_reserved": 0}, {"lon": -77.03218283333334, "name": "10466ffe0c04b4f0cc3fc40d9ec8e457", "lat": 38.933157, "fusion_lon": 0.0, "rental_uris": {"ios": "https://dc.lft.to/lastmile_qr_scan", "android": "https://dc.lft.to/lastmile_qr_scan"}, "bike_id": "10466ffe0c04b4f0cc3fc40d9ec8e457", "type": "electric_bike", "fusion_lat": 0.0, "is_disabled": 0, "is_reserved": 0}, {"lon": -76.9806905, "name": "00da7d48097dd3837285304e7b383e34", "lat": 38.90178616666667, "fusion_lon": 0.0, "rental_uris": {"ios": "https://dc.lft.to/lastmile_qr_scan", "android": "https://dc.lft.to/lastmile_qr_scan"}, "bike_id": "00da7d48097dd3837285304e7b383e34", "type": "electric_scooter", "fusion_lat": 0.0, "is_disabled": 0, "is_reserved": 0}, {"lon": -77.0247845, "name": "c1b3de62ec99ef1e32b627acb3788953", "lat": 38.897365666666666, "fusion_lon": 0.0, "rental_uris": {"ios": "https://dc.lft.to/lastmile_qr_scan", "android": "https://dc.lft.to/lastmile_qr_scan"}, "bike_id": "c1b3de62ec99ef1e32b627acb3788953", "type": "electric_scooter", "fusion_lat": 0.0, "is_disabled": 0, "is_reserved": 0}, {"lon": -77.03435133333333, "name": "9687ef381fb7d171d1c01b49b8820af6", "lat": 38.966241, "fusion_lon": 0.0, "rental_uris": {"ios": "https://dc.lft.to/lastmile_qr_scan", "android": "https://dc.lft.to/lastmile_qr_scan"}, "bike_id": "9687ef381fb7d171d1c01b49b8820af6", "type": "electric_bike", "fusion_lat": 0.0, "is_disabled": 0, "is_reserved": 0}, {"lon": -77.05335233333334, "name": "e65c26d1cd787fcfd82ad6d969a7ab43", "lat": 38.92793966666667, "fusion_lon": 0.0, "rental_uris": {"ios": "https://dc.lft.to/lastmile_qr_scan", "android": "https://dc.lft.to/lastmile_qr_scan"}, "bike_id": "e65c26d1cd787fcfd82ad6d969a7ab43", "type": "electric_scooter", "fusion_lat": 0.0, "is_disabled": 0, "is_reserved": 0}, {"lon": -77.03916083333333, "name": "11c54f8148e3e95bc24a75025bb96352", "lat": 38.8991895, "fusion_lon": 0.0, "rental_uris": {"ios": "https://dc.lft.to/lastmile_qr_scan", "android": "https://dc.lft.to/lastmile_qr_scan"}, "bike_id": "11c54f8148e3e95bc24a75025bb96352", "type": "electric_scooter", "fusion_lat": 0.0, "is_disabled": 0, "is_reserved": 0}, {"lon": -77.00321566666666, "name": "b7cd32db68a4d4a5e14cd883ad1e3030", "lat": 38.92436516666667, "fusion_lon": 0.0, "rental_uris": {"ios": "https://dc.lft.to/lastmile_qr_scan", "android": "https://dc.lft.to/lastmile_qr_scan"}, "bike_id": "b7cd32db68a4d4a5e14cd883ad1e3030", "type": "electric_scooter", "fusion_lat": 0.0, "is_disabled": 0, "is_reserved": 0}, {"lon": -76.93907616666667, "name": "0c319c3e6eee74ab4355b498f7aa1167", "lat": 38.8970475, "fusion_lon": 0.0, "rental_uris": {"ios": "https://dc.lft.to/lastmile_qr_scan", "android": "https://dc.lft.to/lastmile_qr_scan"}, "bike_id": "0c319c3e6eee74ab4355b498f7aa1167", "type": "electric_scooter", "fusion_lat": 0.0, "is_disabled": 0, "is_reserved": 0}, {"lon": -77.0436545, "name": "13b99eca8892114b1afaed0d24ad3b06", "lat": 38.91120083333333, "fusion_lon": 0.0, "rental_uris": {"ios": "https://dc.lft.to/lastmile_qr_scan", "android": "https://dc.lft.to/lastmile_qr_scan"}, "bike_id": "13b99eca8892114b1afaed0d24ad3b06", "type": "electric_scooter", "fusion_lat": 0.0, "is_disabled": 0, "is_reserved": 0}, {"lon": -76.986809, "name": "38ac531e32fcdf2909cefcb4fb14149f", "lat": 38.859422333333335, "fusion_lon": 0.0, "rental_uris": {"ios": "https://dc.lft.to/lastmile_qr_scan", "android": "https://dc.lft.to/lastmile_qr_scan"}, "bike_id": "38ac531e32fcdf2909cefcb4fb14149f", "type": "electric_scooter", "fusion_lat": 0.0, "is_disabled": 0, "is_reserved": 0}, {"lon": -76.9962965, "name": "7a8e0539b2fb6451fd1c1da39f242758", "lat": 38.88409766666667, "fusion_lon": 0.0, "rental_uris": {"ios": "https://dc.lft.to/lastmile_qr_scan", "android": "https://dc.lft.to/lastmile_qr_scan"}, "bike_id": "7a8e0539b2fb6451fd1c1da39f242758", "type": "electric_scooter", "fusion_lat": 0.0, "is_disabled": 0, "is_reserved": 0}, {"lon": -76.97067333333334, "name": "c4d190bbf84818e4282fd57d2fb55f57", "lat": 38.95887783333333, "fusion_lon": 0.0, "rental_uris": {"ios": "https://dc.lft.to/lastmile_qr_scan", "android": "https://dc.lft.to/lastmile_qr_scan"}, "bike_id": "c4d190bbf84818e4282fd57d2fb55f57", "type": "electric_bike", "fusion_lat": 0.0, "is_disabled": 0, "is_reserved": 0}, {"lon": -77.023728, "name": "a4828a09781915c372fb8507224cd2f2", "lat": 38.89844216666667, "fusion_lon": 0.0, "rental_uris": {"ios": "https://dc.lft.to/lastmile_qr_scan", "android": "https://dc.lft.to/lastmile_qr_scan"}, "bike_id": "a4828a09781915c372fb8507224cd2f2", "type": "electric_scooter", "fusion_lat": 0.0, "is_disabled": 0, "is_reserved": 0}, {"lon": -77.04118883333334, "name": "457fbffe687a59af4ce4aa9aeae7e8b8", "lat": 38.92097166666667, "fusion_lon": 0.0, "rental_uris": {"ios": "https://dc.lft.to/lastmile_qr_scan", "android": "https://dc.lft.to/lastmile_qr_scan"}, "bike_id": "457fbffe687a59af4ce4aa9aeae7e8b8", "type": "electric_scooter", "fusion_lat": 0.0, "is_disabled": 0, "is_reserved": 0}, {"lon": -77.0446185, "name": "e36d464dd4e3a261b6ad0a5d92aeda39", "lat": 38.910191833333336, "fusion_lon": 0.0, "rental_uris": {"ios": "https://dc.lft.to/lastmile_qr_scan", "android": "https://dc.lft.to/lastmile_qr_scan"}, "bike_id": "e36d464dd4e3a261b6ad0a5d92aeda39", "type": "electric_scooter", "fusion_lat": 0.0, "is_disabled": 0, "is_reserved": 0}, {"lon": -77.04677333333333, "name": "85b2fd2a6c474a36dc18cc1d0775d899", "lat": 38.89369533333333, "fusion_lon": 0.0, "rental_uris": {"ios": "https://dc.lft.to/lastmile_qr_scan", "android": "https://dc.lft.to/lastmile_qr_scan"}, "bike_id": "85b2fd2a6c474a36dc18cc1d0775d899", "type": "electric_scooter", "fusion_lat": 0.0, "is_disabled": 0, "is_reserved": 0}, {"lon": -77.0745605, "name": "086d5036f6526384919c710999fc26d9", "lat": 38.995375, "fusion_lon": 0.0, "rental_uris": {"ios": "https://dc.lft.to/lastmile_qr_scan", "android": "https://dc.lft.to/lastmile_qr_scan"}, "bike_id": "086d5036f6526384919c710999fc26d9", "type": "electric_bike", "fusion_lat": 0.0, "is_disabled": 0, "is_reserved": 0}, {"lon": -77.03363283333333, "name": "cf0b99351e702792686e98297534dd89", "lat": 38.92881416666667, "fusion_lon": 0.0, "rental_uris": {"ios": "https://dc.lft.to/lastmile_qr_scan", "android": "https://dc.lft.to/lastmile_qr_scan"}, "bike_id": "cf0b99351e702792686e98297534dd89", "type": "electric_bike", "fusion_lat": 0.0, "is_disabled": 0, "is_reserved": 0}, {"lon": -77.04522183333333, "name": "c3df39bb8e351dce388273f7efcbbf52", "lat": 38.9097635, "fusion_lon": 0.0, "rental_uris": {"ios": "https://dc.lft.to/lastmile_qr_scan", "android": "https://dc.lft.to/lastmile_qr_scan"}, "bike_id": "c3df39bb8e351dce388273f7efcbbf52", "type": "electric_scooter", "fusion_lat": 0.0, "is_disabled": 0, "is_reserved": 0}, {"lon": -77.02394166666667, "name": "e4daff8258e7c213d9a80847a6829039", "lat": 38.91277783333334, "fusion_lon": 0.0, "rental_uris": {"ios": "https://dc.lft.to/lastmile_qr_scan", "android": "https://dc.lft.to/lastmile_qr_scan"}, "bike_id": "e4daff8258e7c213d9a80847a6829039", "type": "electric_scooter", "fusion_lat": 0.0, "is_disabled": 0, "is_reserved": 0}, {"lon": -77.07325283333333, "name": "a953b82c6524a74bc89a1c94d4895dee", "lat": 38.922531166666666, "fusion_lon": 0.0, "rental_uris": {"ios": "https://dc.lft.to/lastmile_qr_scan", "android": "https://dc.lft.to/lastmile_qr_scan"}, "bike_id": "a953b82c6524a74bc89a1c94d4895dee", "type": "electric_scooter", "fusion_lat": 0.0, "is_disabled": 0, "is_reserved": 0}, {"lon": -76.98149, "name": "a9455f644f7a9e463bfdedccfd82dbb9", "lat": 39.007242, "fusion_lon": 0.0, "rental_uris": {"ios": "https://dc.lft.to/lastmile_qr_scan", "android": "https://dc.lft.to/lastmile_qr_scan"}, "bike_id": "a9455f644f7a9e463bfdedccfd82dbb9", "type": "electric_bike", "fusion_lat": 0.0, "is_disabled": 0, "is_reserved": 0}, {"lon": -77.057437, "name": "06a9b109045b75b11ae91c692a43f139", "lat": 38.93395183333333, "fusion_lon": 0.0, "rental_uris": {"ios": "https://dc.lft.to/lastmile_qr_scan", "android": "https://dc.lft.to/lastmile_qr_scan"}, "bike_id": "06a9b109045b75b11ae91c692a43f139", "type": "electric_scooter", "fusion_lat": 0.0, "is_disabled": 0, "is_reserved": 0}, {"lon": -77.0176415, "name": "0384fe19cce50b0c70e491b989e1410c", "lat": 38.897324166666664, "fusion_lon": 0.0, "rental_uris": {"ios": "https://dc.lft.to/lastmile_qr_scan", "android": "https://dc.lft.to/lastmile_qr_scan"}, "bike_id": "0384fe19cce50b0c70e491b989e1410c", "type": "electric_scooter", "fusion_lat": 0.0, "is_disabled": 0, "is_reserved": 0}, {"lon": -77.06628416666666, "name": "e1d8eae0317f9e9830e3cb12efb3c758", "lat": 38.8678415, "fusion_lon": 0.0, "rental_uris": {"ios": "https://dc.lft.to/lastmile_qr_scan", "android": "https://dc.lft.to/lastmile_qr_scan"}, "bike_id": "e1d8eae0317f9e9830e3cb12efb3c758", "type": "electric_bike", "fusion_lat": 0.0, "is_disabled": 0, "is_reserved": 0}, {"lon": -77.041837, "name": "1705dbbb12335db23b2db4aac9a9b31f", "lat": 38.91862, "fusion_lon": 0.0, "rental_uris": {"ios": "https://dc.lft.to/lastmile_qr_scan", "android": "https://dc.lft.to/lastmile_qr_scan"}, "bike_id": "1705dbbb12335db23b2db4aac9a9b31f", "type": "electric_scooter", "fusion_lat": 0.0, "is_disabled": 0, "is_reserved": 0}, {"lon": -76.99689466666666, "name": "e661aa6e33d250301f3183b47885cd59", "lat": 38.921913333333336, "fusion_lon": 0.0, "rental_uris": {"ios": "https://dc.lft.to/lastmile_qr_scan", "android": "https://dc.lft.to/lastmile_qr_scan"}, "bike_id": "e661aa6e33d250301f3183b47885cd59", "type": "electric_scooter", "fusion_lat": 0.0, "is_disabled": 0, "is_reserved": 0}, {"lon": -77.04371133333333, "name": "d8cf3143c9dfa8d76bd32443d15b8ad7", "lat": 38.911221166666664, "fusion_lon": 0.0, "rental_uris": {"ios": "https://dc.lft.to/lastmile_qr_scan", "android": "https://dc.lft.to/lastmile_qr_scan"}, "bike_id": "d8cf3143c9dfa8d76bd32443d15b8ad7", "type": "electric_scooter", "fusion_lat": 0.0, "is_disabled": 0, "is_reserved": 0}, {"lon": -77.04296133333334, "name": "417488a5e270cdc26a2413fa32f19a72", "lat": 38.91270183333334, "fusion_lon": 0.0, "rental_uris": {"ios": "https://dc.lft.to/lastmile_qr_scan", "android": "https://dc.lft.to/lastmile_qr_scan"}, "bike_id": "417488a5e270cdc26a2413fa32f19a72", "type": "electric_scooter", "fusion_lat": 0.0, "is_disabled": 0, "is_reserved": 0}, {"lon": -77.04011383333334, "name": "97dd28a3223adb097315abae2f2dd343", "lat": 38.908528833333335, "fusion_lon": 0.0, "rental_uris": {"ios": "https://dc.lft.to/lastmile_qr_scan", "android": "https://dc.lft.to/lastmile_qr_scan"}, "bike_id": "97dd28a3223adb097315abae2f2dd343", "type": "electric_bike", "fusion_lat": 0.0, "is_disabled": 0, "is_reserved": 0}, {"lon": -77.04350866666667, "name": "12875a8ad42ec6004214fd3d91170990", "lat": 38.896452, "fusion_lon": 0.0, "rental_uris": {"ios": "https://dc.lft.to/lastmile_qr_scan", "android": "https://dc.lft.to/lastmile_qr_scan"}, "bike_id": "12875a8ad42ec6004214fd3d91170990", "type": "electric_scooter", "fusion_lat": 0.0, "is_disabled": 0, "is_reserved": 0}, {"lon": -76.93747633333334, "name": "57176f2075f8db7363fbc3bf134a65ab", "lat": 38.912523166666666, "fusion_lon": 0.0, "rental_uris": {"ios": "https://dc.lft.to/lastmile_qr_scan", "android": "https://dc.lft.to/lastmile_qr_scan"}, "bike_id": "57176f2075f8db7363fbc3bf134a65ab", "type": "electric_scooter", "fusion_lat": 0.0, "is_disabled": 0, "is_reserved": 0}, {"lon": -77.02232883333333, "name": "b21b3969ff9a3ce39634a65f57c9a851", "lat": 38.887492333333334, "fusion_lon": 0.0, "rental_uris": {"ios": "https://dc.lft.to/lastmile_qr_scan", "android": "https://dc.lft.to/lastmile_qr_scan"}, "bike_id": "b21b3969ff9a3ce39634a65f57c9a851", "type": "electric_scooter", "fusion_lat": 0.0, "is_disabled": 0, "is_reserved": 0}, {"lon": -77.021426, "name": "4be6984205b2b0e3b87da4736f4388c0", "lat": 38.924859833333336, "fusion_lon": 0.0, "rental_uris": {"ios": "https://dc.lft.to/lastmile_qr_scan", "android": "https://dc.lft.to/lastmile_qr_scan"}, "bike_id": "4be6984205b2b0e3b87da4736f4388c0", "type": "electric_scooter", "fusion_lat": 0.0, "is_disabled": 0, "is_reserved": 0}, {"lon": -77.026903, "name": "a4a1b048fbd9cf8467b0fbec8d9ede28", "lat": 38.902396833333334, "fusion_lon": 0.0, "rental_uris": {"ios": "https://dc.lft.to/lastmile_qr_scan", "android": "https://dc.lft.to/lastmile_qr_scan"}, "bike_id": "a4a1b048fbd9cf8467b0fbec8d9ede28", "type": "electric_scooter", "fusion_lat": 0.0, "is_disabled": 0, "is_reserved": 0}, {"lon": -76.98108683333334, "name": "2215f4c0588cabd15b7664bd0fe92c7c", "lat": 38.898354833333336, "fusion_lon": 0.0, "rental_uris": {"ios": "https://dc.lft.to/lastmile_qr_scan", "android": "https://dc.lft.to/lastmile_qr_scan"}, "bike_id": "2215f4c0588cabd15b7664bd0fe92c7c", "type": "electric_scooter", "fusion_lat": 0.0, "is_disabled": 0, "is_reserved": 0}, {"lon": -77.02153516666667, "name": "983d932f047b3e2cdb2e61a2b1f44aca", "lat": 38.92440083333334, "fusion_lon": 0.0, "rental_uris": {"ios": "https://dc.lft.to/lastmile_qr_scan", "android": "https://dc.lft.to/lastmile_qr_scan"}, "bike_id": "983d932f047b3e2cdb2e61a2b1f44aca", "type": "electric_scooter", "fusion_lat": 0.0, "is_disabled": 0, "is_reserved": 0}, {"lon": -77.02825683333333, "name": "f30f3f2c9421594f2b103d886486c392", "lat": 38.9040145, "fusion_lon": 0.0, "rental_uris": {"ios": "https://dc.lft.to/lastmile_qr_scan", "android": "https://dc.lft.to/lastmile_qr_scan"}, "bike_id": "f30f3f2c9421594f2b103d886486c392", "type": "electric_scooter", "fusion_lat": 0.0, "is_disabled": 0, "is_reserved": 0}, {"lon": -77.02413633333333, "name": "de05bd5b228735363e7ef35dcf7630ac", "lat": 38.917635833333335, "fusion_lon": 0.0, "rental_uris": {"ios": "https://dc.lft.to/lastmile_qr_scan", "android": "https://dc.lft.to/lastmile_qr_scan"}, "bike_id": "de05bd5b228735363e7ef35dcf7630ac", "type": "electric_scooter", "fusion_lat": 0.0, "is_disabled": 0, "is_reserved": 0}, {"lon": -77.02519316666667, "name": "74f2f923f1a49b04963aef598fcdeff2", "lat": 38.92083866666667, "fusion_lon": 0.0, "rental_uris": {"ios": "https://dc.lft.to/lastmile_qr_scan", "android": "https://dc.lft.to/lastmile_qr_scan"}, "bike_id": "74f2f923f1a49b04963aef598fcdeff2", "type": "electric_scooter", "fusion_lat": 0.0, "is_disabled": 0, "is_reserved": 0}, {"lon": -76.991878, "name": "89498159799351abb0eaebef9e58b4c5", "lat": 38.85535433333333, "fusion_lon": 0.0, "rental_uris": {"ios": "https://dc.lft.to/lastmile_qr_scan", "android": "https://dc.lft.to/lastmile_qr_scan"}, "bike_id": "89498159799351abb0eaebef9e58b4c5", "type": "electric_scooter", "fusion_lat": 0.0, "is_disabled": 0, "is_reserved": 0}, {"lon": -77.11761116666666, "name": "55a76a2093d3da074e4b5e68ca051c3e", "lat": 38.87520033333333, "fusion_lon": 0.0, "rental_uris": {"ios": "https://dc.lft.to/lastmile_qr_scan", "android": "https://dc.lft.to/lastmile_qr_scan"}, "bike_id": "55a76a2093d3da074e4b5e68ca051c3e", "type": "electric_bike", "fusion_lat": 0.0, "is_disabled": 0, "is_reserved": 0}, {"lon": -77.03354266666666, "name": "0e45601bdc273ca399ef5bd1071bafa6", "lat": 38.917220666666665, "fusion_lon": 0.0, "rental_uris": {"ios": "https://dc.lft.to/lastmile_qr_scan", "android": "https://dc.lft.to/lastmile_qr_scan"}, "bike_id": "0e45601bdc273ca399ef5bd1071bafa6", "type": "electric_scooter", "fusion_lat": 0.0, "is_disabled": 0, "is_reserved": 0}, {"lon": -77.03479366666667, "name": "4b965ebfa05eb302b3d03e86fdcc247d", "lat": 38.92337066666666, "fusion_lon": 0.0, "rental_uris": {"ios": "https://dc.lft.to/lastmile_qr_scan", "android": "https://dc.lft.to/lastmile_qr_scan"}, "bike_id": "4b965ebfa05eb302b3d03e86fdcc247d", "type": "electric_scooter", "fusion_lat": 0.0, "is_disabled": 0, "is_reserved": 0}, {"lon": -77.044091, "name": "3e1843c4810856a28fdbc1c6128348be", "lat": 38.909036, "fusion_lon": 0.0, "rental_uris": {"ios": "https://dc.lft.to/lastmile_qr_scan", "android": "https://dc.lft.to/lastmile_qr_scan"}, "bike_id": "3e1843c4810856a28fdbc1c6128348be", "type": "electric_scooter", "fusion_lat": 0.0, "is_disabled": 0, "is_reserved": 0}, {"lon": -77.032867, "name": "51f8dfca58b5d8014a45f6d5a9ea33e7", "lat": 38.92839383333333, "fusion_lon": 0.0, "rental_uris": {"ios": "https://dc.lft.to/lastmile_qr_scan", "android": "https://dc.lft.to/lastmile_qr_scan"}, "bike_id": "51f8dfca58b5d8014a45f6d5a9ea33e7", "type": "electric_scooter", "fusion_lat": 0.0, "is_disabled": 0, "is_reserved": 0}, {"lon": -77.00770783333333, "name": "9550a7dc5418d4bf67fd26195259dc80", "lat": 38.92698633333333, "fusion_lon": 0.0, "rental_uris": {"ios": "https://dc.lft.to/lastmile_qr_scan", "android": "https://dc.lft.to/lastmile_qr_scan"}, "bike_id": "9550a7dc5418d4bf67fd26195259dc80", "type": "electric_scooter", "fusion_lat": 0.0, "is_disabled": 0, "is_reserved": 0}, {"lon": -77.0874795, "name": "21f0b9eaf592c9c32a20b9e81a83adf5", "lat": 38.985701166666665, "fusion_lon": 0.0, "rental_uris": {"ios": "https://dc.lft.to/lastmile_qr_scan", "android": "https://dc.lft.to/lastmile_qr_scan"}, "bike_id": "21f0b9eaf592c9c32a20b9e81a83adf5", "type": "electric_bike", "fusion_lat": 0.0, "is_disabled": 0, "is_reserved": 0}, {"lon": -77.0278845, "name": "ba18d78ff416f472977f1eb87f951a45", "lat": 38.8922485, "fusion_lon": 0.0, "rental_uris": {"ios": "https://dc.lft.to/lastmile_qr_scan", "android": "https://dc.lft.to/lastmile_qr_scan"}, "bike_id": "ba18d78ff416f472977f1eb87f951a45", "type": "electric_scooter", "fusion_lat": 0.0, "is_disabled": 0, "is_reserved": 0}, {"lon": -76.95059433333333, "name": "fda4f8dcb4a002563d5b021ad5c242b9", "lat": 38.904791, "fusion_lon": 0.0, "rental_uris": {"ios": "https://dc.lft.to/lastmile_qr_scan", "android": "https://dc.lft.to/lastmile_qr_scan"}, "bike_id": "fda4f8dcb4a002563d5b021ad5c242b9", "type": "electric_scooter", "fusion_lat": 0.0, "is_disabled": 0, "is_reserved": 0}, {"lon": -77.0217385, "name": "c46af61074116347c9e4d0557300ad8b", "lat": 38.92011, "fusion_lon": 0.0, "rental_uris": {"ios": "https://dc.lft.to/lastmile_qr_scan", "android": "https://dc.lft.to/lastmile_qr_scan"}, "bike_id": "c46af61074116347c9e4d0557300ad8b", "type": "electric_scooter", "fusion_lat": 0.0, "is_disabled": 0, "is_reserved": 0}, {"lon": -77.005402, "name": "ad658bbc5c0e6deaba0e7ddcea99b94a", "lat": 38.879176666666666, "fusion_lon": 0.0, "rental_uris": {"ios": "https://dc.lft.to/lastmile_qr_scan", "android": "https://dc.lft.to/lastmile_qr_scan"}, "bike_id": "ad658bbc5c0e6deaba0e7ddcea99b94a", "type": "electric_bike", "fusion_lat": 0.0, "is_disabled": 0, "is_reserved": 0}, {"lon": -77.02239233333333, "name": "c980be8704b55fa5f1b51063b5a06f3f", "lat": 38.924408166666666, "fusion_lon": 0.0, "rental_uris": {"ios": "https://dc.lft.to/lastmile_qr_scan", "android": "https://dc.lft.to/lastmile_qr_scan"}, "bike_id": "c980be8704b55fa5f1b51063b5a06f3f", "type": "electric_scooter", "fusion_lat": 0.0, "is_disabled": 0, "is_reserved": 0}, {"lon": -77.06279983333333, "name": "3aa3fbf6fd689f987bd3684c30e540d9", "lat": 38.906175833333336, "fusion_lon": 0.0, "rental_uris": {"ios": "https://dc.lft.to/lastmile_qr_scan", "android": "https://dc.lft.to/lastmile_qr_scan"}, "bike_id": "3aa3fbf6fd689f987bd3684c30e540d9", "type": "electric_scooter", "fusion_lat": 0.0, "is_disabled": 0, "is_reserved": 0}, {"lon": -77.038603, "name": "b93ef4f6c5c9402d98532db303025350", "lat": 38.9135535, "fusion_lon": 0.0, "rental_uris": {"ios": "https://dc.lft.to/lastmile_qr_scan", "android": "https://dc.lft.to/lastmile_qr_scan"}, "bike_id": "b93ef4f6c5c9402d98532db303025350", "type": "electric_scooter", "fusion_lat": 0.0, "is_disabled": 0, "is_reserved": 0}, {"lon": -76.94154416666666, "name": "08f01c56a94189d7f282654634c25492", "lat": 38.90179216666667, "fusion_lon": 0.0, "rental_uris": {"ios": "https://dc.lft.to/lastmile_qr_scan", "android": "https://dc.lft.to/lastmile_qr_scan"}, "bike_id": "08f01c56a94189d7f282654634c25492", "type": "electric_scooter", "fusion_lat": 0.0, "is_disabled": 0, "is_reserved": 0}, {"lon": -77.0076605, "name": "a30949e23b55a05887d8077d2535c9a9", "lat": 38.9268325, "fusion_lon": 0.0, "rental_uris": {"ios": "https://dc.lft.to/lastmile_qr_scan", "android": "https://dc.lft.to/lastmile_qr_scan"}, "bike_id": "a30949e23b55a05887d8077d2535c9a9", "type": "electric_scooter", "fusion_lat": 0.0, "is_disabled": 0, "is_reserved": 0}, {"lon": -77.05386716666666, "name": "aec91a895f83e253cbad3e9489489911", "lat": 38.847621, "fusion_lon": 0.0, "rental_uris": {"ios": "https://dc.lft.to/lastmile_qr_scan", "android": "https://dc.lft.to/lastmile_qr_scan"}, "bike_id": "aec91a895f83e253cbad3e9489489911", "type": "electric_bike", "fusion_lat": 0.0, "is_disabled": 0, "is_reserved": 0}, {"lon": -77.003311, "name": "ab8f018d55cc60ab5831d1bf6a8ab072", "lat": 38.915672, "fusion_lon": 0.0, "rental_uris": {"ios": "https://dc.lft.to/lastmile_qr_scan", "android": "https://dc.lft.to/lastmile_qr_scan"}, "bike_id": "ab8f018d55cc60ab5831d1bf6a8ab072", "type": "electric_scooter", "fusion_lat": 0.0, "is_disabled": 0, "is_reserved": 0}, {"lon": -77.02452066666666, "name": "42151097b6f1c656018a29cb7835183f", "lat": 38.9319535, "fusion_lon": 0.0, "rental_uris": {"ios": "https://dc.lft.to/lastmile_qr_scan", "android": "https://dc.lft.to/lastmile_qr_scan"}, "bike_id": "42151097b6f1c656018a29cb7835183f", "type": "electric_scooter", "fusion_lat": 0.0, "is_disabled": 0, "is_reserved": 0}, {"lon": -77.03478983333333, "name": "e5f9947191bf53b725c60099586d9b27", "lat": 38.9155595, "fusion_lon": 0.0, "rental_uris": {"ios": "https://dc.lft.to/lastmile_qr_scan", "android": "https://dc.lft.to/lastmile_qr_scan"}, "bike_id": "e5f9947191bf53b725c60099586d9b27", "type": "electric_scooter", "fusion_lat": 0.0, "is_disabled": 0, "is_reserved": 0}, {"lon": -77.06242566666667, "name": "75e079c2a6db6f95f71e1a2a42eb6bf4", "lat": 38.902138666666666, "fusion_lon": 0.0, "rental_uris": {"ios": "https://dc.lft.to/lastmile_qr_scan", "android": "https://dc.lft.to/lastmile_qr_scan"}, "bike_id": "75e079c2a6db6f95f71e1a2a42eb6bf4", "type": "electric_scooter", "fusion_lat": 0.0, "is_disabled": 0, "is_reserved": 0}, {"lon": -77.0569295, "name": "054b4272e6e3d396e1e5754ed96dc1c7", "lat": 38.905317333333336, "fusion_lon": 0.0, "rental_uris": {"ios": "https://dc.lft.to/lastmile_qr_scan", "android": "https://dc.lft.to/lastmile_qr_scan"}, "bike_id": "054b4272e6e3d396e1e5754ed96dc1c7", "type": "electric_scooter", "fusion_lat": 0.0, "is_disabled": 0, "is_reserved": 0}, {"lon": -76.93179266666667, "name": "a9166fdaac08db737b92e362565f24ed", "lat": 38.90221733333333, "fusion_lon": 0.0, "rental_uris": {"ios": "https://dc.lft.to/lastmile_qr_scan", "android": "https://dc.lft.to/lastmile_qr_scan"}, "bike_id": "a9166fdaac08db737b92e362565f24ed", "type": "electric_bike", "fusion_lat": 0.0, "is_disabled": 0, "is_reserved": 0}, {"lon": -77.0382035, "name": "d944072b0f867cf3795e94080f0fd7a4", "lat": 38.924778, "fusion_lon": 0.0, "rental_uris": {"ios": "https://dc.lft.to/lastmile_qr_scan", "android": "https://dc.lft.to/lastmile_qr_scan"}, "bike_id": "d944072b0f867cf3795e94080f0fd7a4", "type": "electric_scooter", "fusion_lat": 0.0, "is_disabled": 0, "is_reserved": 0}, {"lon": -77.027133, "name": "f4b170f6702f8ba5de5a84ef9f367eba", "lat": 38.924705, "fusion_lon": 0.0, "rental_uris": {"ios": "https://dc.lft.to/lastmile_qr_scan", "android": "https://dc.lft.to/lastmile_qr_scan"}, "bike_id": "f4b170f6702f8ba5de5a84ef9f367eba", "type": "electric_scooter", "fusion_lat": 0.0, "is_disabled": 0, "is_reserved": 0}, {"lon": -77.05001816666666, "name": "e39fd506fbd3f652e81d6ebd00d412f2", "lat": 38.8939125, "fusion_lon": 0.0, "rental_uris": {"ios": "https://dc.lft.to/lastmile_qr_scan", "android": "https://dc.lft.to/lastmile_qr_scan"}, "bike_id": "e39fd506fbd3f652e81d6ebd00d412f2", "type": "electric_scooter", "fusion_lat": 0.0, "is_disabled": 0, "is_reserved": 0}, {"lon": -77.02032233333334, "name": "4e0e410839f86d7cc92f0388c12404a5", "lat": 38.921680333333335, "fusion_lon": 0.0, "rental_uris": {"ios": "https://dc.lft.to/lastmile_qr_scan", "android": "https://dc.lft.to/lastmile_qr_scan"}, "bike_id": "4e0e410839f86d7cc92f0388c12404a5", "type": "electric_scooter", "fusion_lat": 0.0, "is_disabled": 0, "is_reserved": 0}, {"lon": -77.060493, "name": "ca0853194cb04dc96bdc77be3ba1df14", "lat": 38.90524666666666, "fusion_lon": 0.0, "rental_uris": {"ios": "https://dc.lft.to/lastmile_qr_scan", "android": "https://dc.lft.to/lastmile_qr_scan"}, "bike_id": "ca0853194cb04dc96bdc77be3ba1df14", "type": "electric_scooter", "fusion_lat": 0.0, "is_disabled": 0, "is_reserved": 0}, {"lon": -77.02360316666666, "name": "18597df42562bce81b583b14a8a16939", "lat": 38.93536433333333, "fusion_lon": 0.0, "rental_uris": {"ios": "https://dc.lft.to/lastmile_qr_scan", "android": "https://dc.lft.to/lastmile_qr_scan"}, "bike_id": "18597df42562bce81b583b14a8a16939", "type": "electric_scooter", "fusion_lat": 0.0, "is_disabled": 0, "is_reserved": 0}, {"lon": -77.05571566666667, "name": "eb3c27de38e9f9bf17c0219e46b3f4f8", "lat": 38.90024183333333, "fusion_lon": 0.0, "rental_uris": {"ios": "https://dc.lft.to/lastmile_qr_scan", "android": "https://dc.lft.to/lastmile_qr_scan"}, "bike_id": "eb3c27de38e9f9bf17c0219e46b3f4f8", "type": "electric_scooter", "fusion_lat": 0.0, "is_disabled": 0, "is_reserved": 0}, {"lon": -76.99707616666667, "name": "8011b99539f378791fae7fdf009e266e", "lat": 38.8386735, "fusion_lon": 0.0, "rental_uris": {"ios": "https://dc.lft.to/lastmile_qr_scan", "android": "https://dc.lft.to/lastmile_qr_scan"}, "bike_id": "8011b99539f378791fae7fdf009e266e", "type": "electric_bike", "fusion_lat": 0.0, "is_disabled": 0, "is_reserved": 0}, {"lon": -77.0320505, "name": "3e6649e7b9c0a07b6283c72ac9969706", "lat": 38.916732333333336, "fusion_lon": 0.0, "rental_uris": {"ios": "https://dc.lft.to/lastmile_qr_scan", "android": "https://dc.lft.to/lastmile_qr_scan"}, "bike_id": "3e6649e7b9c0a07b6283c72ac9969706", "type": "electric_scooter", "fusion_lat": 0.0, "is_disabled": 0, "is_reserved": 0}, {"lon": -76.97935116666666, "name": "a2c72efff435d1537c29d1ccebf7de37", "lat": 38.90682, "fusion_lon": 0.0, "rental_uris": {"ios": "https://dc.lft.to/lastmile_qr_scan", "android": "https://dc.lft.to/lastmile_qr_scan"}, "bike_id": "a2c72efff435d1537c29d1ccebf7de37", "type": "electric_scooter", "fusion_lat": 0.0, "is_disabled": 0, "is_reserved": 0}, {"lon": -77.0186945, "name": "98984562d91978db768f25dcc08b9f2d", "lat": 38.93200266666667, "fusion_lon": 0.0, "rental_uris": {"ios": "https://dc.lft.to/lastmile_qr_scan", "android": "https://dc.lft.to/lastmile_qr_scan"}, "bike_id": "98984562d91978db768f25dcc08b9f2d", "type": "electric_scooter", "fusion_lat": 0.0, "is_disabled": 0, "is_reserved": 0}, {"lon": -77.00111266666667, "name": "a2d14d8171f2bdea6e8f54ae31df4162", "lat": 38.92138533333333, "fusion_lon": 0.0, "rental_uris": {"ios": "https://dc.lft.to/lastmile_qr_scan", "android": "https://dc.lft.to/lastmile_qr_scan"}, "bike_id": "a2d14d8171f2bdea6e8f54ae31df4162", "type": "electric_scooter", "fusion_lat": 0.0, "is_disabled": 0, "is_reserved": 0}, {"lon": -77.0466, "name": "3ce1118578cee4b070b764e187cfe905", "lat": 38.9002765, "fusion_lon": 0.0, "rental_uris": {"ios": "https://dc.lft.to/lastmile_qr_scan", "android": "https://dc.lft.to/lastmile_qr_scan"}, "bike_id": "3ce1118578cee4b070b764e187cfe905", "type": "electric_scooter", "fusion_lat": 0.0, "is_disabled": 0, "is_reserved": 0}, {"lon": -77.01846866666666, "name": "89230ea0cd29d6aac0367751b9bb0515", "lat": 38.902605, "fusion_lon": 0.0, "rental_uris": {"ios": "https://dc.lft.to/lastmile_qr_scan", "android": "https://dc.lft.to/lastmile_qr_scan"}, "bike_id": "89230ea0cd29d6aac0367751b9bb0515", "type": "electric_scooter", "fusion_lat": 0.0, "is_disabled": 0, "is_reserved": 0}, {"lon": -77.03629466666666, "name": "1a8ce3d37c3633537cb4d2afd48c0fb7", "lat": 38.956387666666664, "fusion_lon": 0.0, "rental_uris": {"ios": "https://dc.lft.to/lastmile_qr_scan", "android": "https://dc.lft.to/lastmile_qr_scan"}, "bike_id": "1a8ce3d37c3633537cb4d2afd48c0fb7", "type": "electric_scooter", "fusion_lat": 0.0, "is_disabled": 0, "is_reserved": 0}, {"lon": -77.0159305, "name": "3e9a96289020567db725fd154411ad4b", "lat": 38.8783455, "fusion_lon": 0.0, "rental_uris": {"ios": "https://dc.lft.to/lastmile_qr_scan", "android": "https://dc.lft.to/lastmile_qr_scan"}, "bike_id": "3e9a96289020567db725fd154411ad4b", "type": "electric_scooter", "fusion_lat": 0.0, "is_disabled": 0, "is_reserved": 0}, {"lon": -77.0424695, "name": "dcee61e6ea7274d045ab8a6a2ae5afe6", "lat": 38.92238033333334, "fusion_lon": 0.0, "rental_uris": {"ios": "https://dc.lft.to/lastmile_qr_scan", "android": "https://dc.lft.to/lastmile_qr_scan"}, "bike_id": "dcee61e6ea7274d045ab8a6a2ae5afe6", "type": "electric_scooter", "fusion_lat": 0.0, "is_disabled": 0, "is_reserved": 0}, {"lon": -76.9547525, "name": "4f96156810580edb6bc38f6208ec1cca", "lat": 38.89084233333333, "fusion_lon": 0.0, "rental_uris": {"ios": "https://dc.lft.to/lastmile_qr_scan", "android": "https://dc.lft.to/lastmile_qr_scan"}, "bike_id": "4f96156810580edb6bc38f6208ec1cca", "type": "electric_bike", "fusion_lat": 0.0, "is_disabled": 0, "is_reserved": 0}, {"lon": -77.022883, "name": "897ec9b3e949d1450c0eb71ba8a9adbd", "lat": 38.91691933333333, "fusion_lon": 0.0, "rental_uris": {"ios": "https://dc.lft.to/lastmile_qr_scan", "android": "https://dc.lft.to/lastmile_qr_scan"}, "bike_id": "897ec9b3e949d1450c0eb71ba8a9adbd", "type": "electric_scooter", "fusion_lat": 0.0, "is_disabled": 0, "is_reserved": 0}, {"lon": -77.02112333333334, "name": "52a90671f94f855ad6566adcbb8dd6fa", "lat": 38.894897666666665, "fusion_lon": 0.0, "rental_uris": {"ios": "https://dc.lft.to/lastmile_qr_scan", "android": "https://dc.lft.to/lastmile_qr_scan"}, "bike_id": "52a90671f94f855ad6566adcbb8dd6fa", "type": "electric_scooter", "fusion_lat": 0.0, "is_disabled": 0, "is_reserved": 0}, {"lon": -77.033673, "name": "e31be8903332afcfd900db7ec9e92b29", "lat": 38.89997966666667, "fusion_lon": 0.0, "rental_uris": {"ios": "https://dc.lft.to/lastmile_qr_scan", "android": "https://dc.lft.to/lastmile_qr_scan"}, "bike_id": "e31be8903332afcfd900db7ec9e92b29", "type": "electric_scooter", "fusion_lat": 0.0, "is_disabled": 0, "is_reserved": 0}, {"lon": -77.030675, "name": "33ea9c609024e3fd98c5454adc059b42", "lat": 38.924721166666664, "fusion_lon": 0.0, "rental_uris": {"ios": "https://dc.lft.to/lastmile_qr_scan", "android": "https://dc.lft.to/lastmile_qr_scan"}, "bike_id": "33ea9c609024e3fd98c5454adc059b42", "type": "electric_scooter", "fusion_lat": 0.0, "is_disabled": 0, "is_reserved": 0}, {"lon": -77.040584, "name": "a04f7ef7ea97cd2fa126265abe3a5fc2", "lat": 38.91193666666667, "fusion_lon": 0.0, "rental_uris": {"ios": "https://dc.lft.to/lastmile_qr_scan", "android": "https://dc.lft.to/lastmile_qr_scan"}, "bike_id": "a04f7ef7ea97cd2fa126265abe3a5fc2", "type": "electric_scooter", "fusion_lat": 0.0, "is_disabled": 0, "is_reserved": 0}, {"lon": -77.0333545, "name": "ce3975d1925a1d3cff1ccfc36d84fa2c", "lat": 38.928812, "fusion_lon": 0.0, "rental_uris": {"ios": "https://dc.lft.to/lastmile_qr_scan", "android": "https://dc.lft.to/lastmile_qr_scan"}, "bike_id": "ce3975d1925a1d3cff1ccfc36d84fa2c", "type": "electric_scooter", "fusion_lat": 0.0, "is_disabled": 0, "is_reserved": 0}, {"lon": -77.03210866666667, "name": "710ec2f4981f3e5e261191ac68e46be6", "lat": 38.91392583333333, "fusion_lon": 0.0, "rental_uris": {"ios": "https://dc.lft.to/lastmile_qr_scan", "android": "https://dc.lft.to/lastmile_qr_scan"}, "bike_id": "710ec2f4981f3e5e261191ac68e46be6", "type": "electric_scooter", "fusion_lat": 0.0, "is_disabled": 0, "is_reserved": 0}, {"lon": -77.0051205, "name": "2ec8cb68b3910d631a4d1827b05c37c7", "lat": 38.960516166666665, "fusion_lon": 0.0, "rental_uris": {"ios": "https://dc.lft.to/lastmile_qr_scan", "android": "https://dc.lft.to/lastmile_qr_scan"}, "bike_id": "2ec8cb68b3910d631a4d1827b05c37c7", "type": "electric_scooter", "fusion_lat": 0.0, "is_disabled": 0, "is_reserved": 0}, {"lon": -77.043329, "name": "0e12eeb06fd6f3e9926afeb7e768f388", "lat": 38.9305905, "fusion_lon": 0.0, "rental_uris": {"ios": "https://dc.lft.to/lastmile_qr_scan", "android": "https://dc.lft.to/lastmile_qr_scan"}, "bike_id": "0e12eeb06fd6f3e9926afeb7e768f388", "type": "electric_scooter", "fusion_lat": 0.0, "is_disabled": 0, "is_reserved": 0}, {"lon": -76.93260933333333, "name": "1e696839d5515569e4051715956e26d2", "lat": 38.8877265, "fusion_lon": 0.0, "rental_uris": {"ios": "https://dc.lft.to/lastmile_qr_scan", "android": "https://dc.lft.to/lastmile_qr_scan"}, "bike_id": "1e696839d5515569e4051715956e26d2", "type": "electric_scooter", "fusion_lat": 0.0, "is_disabled": 0, "is_reserved": 0}, {"lon": -77.02197533333333, "name": "523534f2dbcf108bae1a79744e54523a", "lat": 38.907058166666665, "fusion_lon": 0.0, "rental_uris": {"ios": "https://dc.lft.to/lastmile_qr_scan", "android": "https://dc.lft.to/lastmile_qr_scan"}, "bike_id": "523534f2dbcf108bae1a79744e54523a", "type": "electric_scooter", "fusion_lat": 0.0, "is_disabled": 0, "is_reserved": 0}, {"lon": -77.04749583333333, "name": "99471a19c39f2df1c4bbb023940ff9b5", "lat": 38.92007616666667, "fusion_lon": 0.0, "rental_uris": {"ios": "https://dc.lft.to/lastmile_qr_scan", "android": "https://dc.lft.to/lastmile_qr_scan"}, "bike_id": "99471a19c39f2df1c4bbb023940ff9b5", "type": "electric_scooter", "fusion_lat": 0.0, "is_disabled": 0, "is_reserved": 0}, {"lon": -76.93971516666667, "name": "70dfe2463702f51dfdf6b4b9b2e38682", "lat": 38.900486, "fusion_lon": 0.0, "rental_uris": {"ios": "https://dc.lft.to/lastmile_qr_scan", "android": "https://dc.lft.to/lastmile_qr_scan"}, "bike_id": "70dfe2463702f51dfdf6b4b9b2e38682", "type": "electric_bike", "fusion_lat": 0.0, "is_disabled": 0, "is_reserved": 0}, {"lon": -77.0331205, "name": "ab7a35351860175fef67f3b7f9fb2f00", "lat": 38.909749, "fusion_lon": 0.0, "rental_uris": {"ios": "https://dc.lft.to/lastmile_qr_scan", "android": "https://dc.lft.to/lastmile_qr_scan"}, "bike_id": "ab7a35351860175fef67f3b7f9fb2f00", "type": "electric_scooter", "fusion_lat": 0.0, "is_disabled": 0, "is_reserved": 0}, {"lon": -77.03893633333334, "name": "5d1b0b5aff8a820adc3e796325d2295d", "lat": 38.917546, "fusion_lon": 0.0, "rental_uris": {"ios": "https://dc.lft.to/lastmile_qr_scan", "android": "https://dc.lft.to/lastmile_qr_scan"}, "bike_id": "5d1b0b5aff8a820adc3e796325d2295d", "type": "electric_scooter", "fusion_lat": 0.0, "is_disabled": 0, "is_reserved": 0}, {"lon": -76.95764466666667, "name": "26f5a162ad059411a7941bb1a419ba1f", "lat": 38.883958166666666, "fusion_lon": 0.0, "rental_uris": {"ios": "https://dc.lft.to/lastmile_qr_scan", "android": "https://dc.lft.to/lastmile_qr_scan"}, "bike_id": "26f5a162ad059411a7941bb1a419ba1f", "type": "electric_scooter", "fusion_lat": 0.0, "is_disabled": 0, "is_reserved": 0}, {"lon": -77.02811283333334, "name": "6b979e2369f37631945720e4dcb7eca4", "lat": 38.9236625, "fusion_lon": 0.0, "rental_uris": {"ios": "https://dc.lft.to/lastmile_qr_scan", "android": "https://dc.lft.to/lastmile_qr_scan"}, "bike_id": "6b979e2369f37631945720e4dcb7eca4", "type": "electric_scooter", "fusion_lat": 0.0, "is_disabled": 0, "is_reserved": 0}, {"lon": -77.02519933333333, "name": "5750aaee01fd07db67e97ecfe94bd01c", "lat": 38.9208325, "fusion_lon": 0.0, "rental_uris": {"ios": "https://dc.lft.to/lastmile_qr_scan", "android": "https://dc.lft.to/lastmile_qr_scan"}, "bike_id": "5750aaee01fd07db67e97ecfe94bd01c", "type": "electric_scooter", "fusion_lat": 0.0, "is_disabled": 0, "is_reserved": 0}, {"lon": -77.05276916666666, "name": "fdc7055e1cba13c4a8a1774cd9f18e47", "lat": 38.910267833333336, "fusion_lon": 0.0, "rental_uris": {"ios": "https://dc.lft.to/lastmile_qr_scan", "android": "https://dc.lft.to/lastmile_qr_scan"}, "bike_id": "fdc7055e1cba13c4a8a1774cd9f18e47", "type": "electric_scooter", "fusion_lat": 0.0, "is_disabled": 0, "is_reserved": 0}, {"lon": -77.042085, "name": "81f5f34d7481f806abe64089c86e2563", "lat": 38.924533833333335, "fusion_lon": 0.0, "rental_uris": {"ios": "https://dc.lft.to/lastmile_qr_scan", "android": "https://dc.lft.to/lastmile_qr_scan"}, "bike_id": "81f5f34d7481f806abe64089c86e2563", "type": "electric_scooter", "fusion_lat": 0.0, "is_disabled": 0, "is_reserved": 0}, {"lon": -76.9900685, "name": "70c434bfe0e75ba6b333fec627805dfe", "lat": 38.9039235, "fusion_lon": 0.0, "rental_uris": {"ios": "https://dc.lft.to/lastmile_qr_scan", "android": "https://dc.lft.to/lastmile_qr_scan"}, "bike_id": "70c434bfe0e75ba6b333fec627805dfe", "type": "electric_scooter", "fusion_lat": 0.0, "is_disabled": 0, "is_reserved": 0}, {"lon": -77.04806483333333, "name": "c3045eb5ab561c1c4c3901415e277a50", "lat": 38.90048816666667, "fusion_lon": 0.0, "rental_uris": {"ios": "https://dc.lft.to/lastmile_qr_scan", "android": "https://dc.lft.to/lastmile_qr_scan"}, "bike_id": "c3045eb5ab561c1c4c3901415e277a50", "type": "electric_scooter", "fusion_lat": 0.0, "is_disabled": 0, "is_reserved": 0}, {"lon": -77.00072716666666, "name": "2472bf93a79cfd199a5290ba11be80a0", "lat": 38.92400883333333, "fusion_lon": 0.0, "rental_uris": {"ios": "https://dc.lft.to/lastmile_qr_scan", "android": "https://dc.lft.to/lastmile_qr_scan"}, "bike_id": "2472bf93a79cfd199a5290ba11be80a0", "type": "electric_scooter", "fusion_lat": 0.0, "is_disabled": 0, "is_reserved": 0}, {"lon": -77.05334416666666, "name": "42fac11dc540c12c930c3db236fd3136", "lat": 38.9041845, "fusion_lon": 0.0, "rental_uris": {"ios": "https://dc.lft.to/lastmile_qr_scan", "android": "https://dc.lft.to/lastmile_qr_scan"}, "bike_id": "42fac11dc540c12c930c3db236fd3136", "type": "electric_scooter", "fusion_lat": 0.0, "is_disabled": 0, "is_reserved": 0}, {"lon": -77.0312455, "name": "21ab633d3685cdb47656d1ab4c4f771a", "lat": 38.95934866666666, "fusion_lon": 0.0, "rental_uris": {"ios": "https://dc.lft.to/lastmile_qr_scan", "android": "https://dc.lft.to/lastmile_qr_scan"}, "bike_id": "21ab633d3685cdb47656d1ab4c4f771a", "type": "electric_scooter", "fusion_lat": 0.0, "is_disabled": 0, "is_reserved": 0}, {"lon": -77.0229745, "name": "affbb2e07efd51ef35f05efa4212ade5", "lat": 38.965677, "fusion_lon": 0.0, "rental_uris": {"ios": "https://dc.lft.to/lastmile_qr_scan", "android": "https://dc.lft.to/lastmile_qr_scan"}, "bike_id": "affbb2e07efd51ef35f05efa4212ade5", "type": "electric_bike", "fusion_lat": 0.0, "is_disabled": 0, "is_reserved": 0}, {"lon": -77.04178716666667, "name": "f2814b8bed8a62781e9b9bbd7d862356", "lat": 38.91516, "fusion_lon": 0.0, "rental_uris": {"ios": "https://dc.lft.to/lastmile_qr_scan", "android": "https://dc.lft.to/lastmile_qr_scan"}, "bike_id": "f2814b8bed8a62781e9b9bbd7d862356", "type": "electric_scooter", "fusion_lat": 0.0, "is_disabled": 0, "is_reserved": 0}, {"lon": -77.043332, "name": "41e8dc1e632b2cdfe33f4f6b409dbedb", "lat": 38.892256333333336, "fusion_lon": 0.0, "rental_uris": {"ios": "https://dc.lft.to/lastmile_qr_scan", "android": "https://dc.lft.to/lastmile_qr_scan"}, "bike_id": "41e8dc1e632b2cdfe33f4f6b409dbedb", "type": "electric_scooter", "fusion_lat": 0.0, "is_disabled": 0, "is_reserved": 0}, {"lon": -77.021747, "name": "c5f21a68f26520e01e449654170ba125", "lat": 38.94246183333333, "fusion_lon": 0.0, "rental_uris": {"ios": "https://dc.lft.to/lastmile_qr_scan", "android": "https://dc.lft.to/lastmile_qr_scan"}, "bike_id": "c5f21a68f26520e01e449654170ba125", "type": "electric_scooter", "fusion_lat": 0.0, "is_disabled": 0, "is_reserved": 0}, {"lon": -77.02698116666667, "name": "57079fd29fba8dc2cafd774f252b19ff", "lat": 38.897208166666665, "fusion_lon": 0.0, "rental_uris": {"ios": "https://dc.lft.to/lastmile_qr_scan", "android": "https://dc.lft.to/lastmile_qr_scan"}, "bike_id": "57079fd29fba8dc2cafd774f252b19ff", "type": "electric_scooter", "fusion_lat": 0.0, "is_disabled": 0, "is_reserved": 0}, {"lon": -76.97934683333334, "name": "201413c7c6c2c97438fea5c27fefe784", "lat": 38.906854333333335, "fusion_lon": 0.0, "rental_uris": {"ios": "https://dc.lft.to/lastmile_qr_scan", "android": "https://dc.lft.to/lastmile_qr_scan"}, "bike_id": "201413c7c6c2c97438fea5c27fefe784", "type": "electric_scooter", "fusion_lat": 0.0, "is_disabled": 0, "is_reserved": 0}, {"lon": -76.98034466666667, "name": "ffcdf67b5ecbf672fe53d0d13919ade7", "lat": 38.9001585, "fusion_lon": 0.0, "rental_uris": {"ios": "https://dc.lft.to/lastmile_qr_scan", "android": "https://dc.lft.to/lastmile_qr_scan"}, "bike_id": "ffcdf67b5ecbf672fe53d0d13919ade7", "type": "electric_scooter", "fusion_lat": 0.0, "is_disabled": 0, "is_reserved": 0}, {"lon": -77.02383016666667, "name": "32a4ebaca48a26597ced404ad01f1621", "lat": 38.892345, "fusion_lon": 0.0, "rental_uris": {"ios": "https://dc.lft.to/lastmile_qr_scan", "android": "https://dc.lft.to/lastmile_qr_scan"}, "bike_id": "32a4ebaca48a26597ced404ad01f1621", "type": "electric_scooter", "fusion_lat": 0.0, "is_disabled": 0, "is_reserved": 0}, {"lon": -77.0021195, "name": "1436d4a83bddfbd2f93367a4fbdfcadf", "lat": 38.911700333333336, "fusion_lon": 0.0, "rental_uris": {"ios": "https://dc.lft.to/lastmile_qr_scan", "android": "https://dc.lft.to/lastmile_qr_scan"}, "bike_id": "1436d4a83bddfbd2f93367a4fbdfcadf", "type": "electric_scooter", "fusion_lat": 0.0, "is_disabled": 0, "is_reserved": 0}, {"lon": -77.02205566666666, "name": "976de0959ba21657e088fb3f89b8d289", "lat": 38.894434833333335, "fusion_lon": 0.0, "rental_uris": {"ios": "https://dc.lft.to/lastmile_qr_scan", "android": "https://dc.lft.to/lastmile_qr_scan"}, "bike_id": "976de0959ba21657e088fb3f89b8d289", "type": "electric_scooter", "fusion_lat": 0.0, "is_disabled": 0, "is_reserved": 0}, {"lon": -77.03526683333334, "name": "312c23acc3dc0e70cdb04c4275d7182d", "lat": 38.922393666666665, "fusion_lon": 0.0, "rental_uris": {"ios": "https://dc.lft.to/lastmile_qr_scan", "android": "https://dc.lft.to/lastmile_qr_scan"}, "bike_id": "312c23acc3dc0e70cdb04c4275d7182d", "type": "electric_scooter", "fusion_lat": 0.0, "is_disabled": 0, "is_reserved": 0}, {"lon": -77.0441005, "name": "c802cfef809df3e4aad0bd539e5efa31", "lat": 38.9097935, "fusion_lon": 0.0, "rental_uris": {"ios": "https://dc.lft.to/lastmile_qr_scan", "android": "https://dc.lft.to/lastmile_qr_scan"}, "bike_id": "c802cfef809df3e4aad0bd539e5efa31", "type": "electric_scooter", "fusion_lat": 0.0, "is_disabled": 0, "is_reserved": 0}, {"lon": -77.031373, "name": "cf4a5677a095e6ef7efafc16945e88b4", "lat": 38.91267933333334, "fusion_lon": 0.0, "rental_uris": {"ios": "https://dc.lft.to/lastmile_qr_scan", "android": "https://dc.lft.to/lastmile_qr_scan"}, "bike_id": "cf4a5677a095e6ef7efafc16945e88b4", "type": "electric_scooter", "fusion_lat": 0.0, "is_disabled": 0, "is_reserved": 0}, {"lon": -77.01804616666666, "name": "8a327baa06b057fcd5eb1a5a1d976ac6", "lat": 38.994158666666664, "fusion_lon": 0.0, "rental_uris": {"ios": "https://dc.lft.to/lastmile_qr_scan", "android": "https://dc.lft.to/lastmile_qr_scan"}, "bike_id": "8a327baa06b057fcd5eb1a5a1d976ac6", "type": "electric_bike", "fusion_lat": 0.0, "is_disabled": 0, "is_reserved": 0}, {"lon": -77.03281866666667, "name": "75683f65811f9d519e0b108879081f8b", "lat": 38.9613075, "fusion_lon": 0.0, "rental_uris": {"ios": "https://dc.lft.to/lastmile_qr_scan", "android": "https://dc.lft.to/lastmile_qr_scan"}, "bike_id": "75683f65811f9d519e0b108879081f8b", "type": "electric_bike", "fusion_lat": 0.0, "is_disabled": 0, "is_reserved": 0}, {"lon": -76.99654183333334, "name": "29e682da3e9192044197f5a0daf87ded", "lat": 38.96780616666667, "fusion_lon": 0.0, "rental_uris": {"ios": "https://dc.lft.to/lastmile_qr_scan", "android": "https://dc.lft.to/lastmile_qr_scan"}, "bike_id": "29e682da3e9192044197f5a0daf87ded", "type": "electric_bike", "fusion_lat": 0.0, "is_disabled": 0, "is_reserved": 0}, {"lon": -77.02298083333334, "name": "2446b0c98cb226018d92a3afc0c6c531", "lat": 38.916828833333334, "fusion_lon": 0.0, "rental_uris": {"ios": "https://dc.lft.to/lastmile_qr_scan", "android": "https://dc.lft.to/lastmile_qr_scan"}, "bike_id": "2446b0c98cb226018d92a3afc0c6c531", "type": "electric_scooter", "fusion_lat": 0.0, "is_disabled": 0, "is_reserved": 0}, {"lon": -77.0469085, "name": "81ed9ec3a621d6d7c308472406ae3100", "lat": 38.89224933333333, "fusion_lon": 0.0, "rental_uris": {"ios": "https://dc.lft.to/lastmile_qr_scan", "android": "https://dc.lft.to/lastmile_qr_scan"}, "bike_id": "81ed9ec3a621d6d7c308472406ae3100", "type": "electric_scooter", "fusion_lat": 0.0, "is_disabled": 0, "is_reserved": 0}, {"lon": -76.98998333333333, "name": "5ba5ee0f348f56e8579c3b5dc72dee44", "lat": 38.858121833333335, "fusion_lon": 0.0, "rental_uris": {"ios": "https://dc.lft.to/lastmile_qr_scan", "android": "https://dc.lft.to/lastmile_qr_scan"}, "bike_id": "5ba5ee0f348f56e8579c3b5dc72dee44", "type": "electric_scooter", "fusion_lat": 0.0, "is_disabled": 0, "is_reserved": 0}, {"lon": -76.98853833333334, "name": "1341e1ecd928a854176b2892c58c806a", "lat": 38.90047466666667, "fusion_lon": 0.0, "rental_uris": {"ios": "https://dc.lft.to/lastmile_qr_scan", "android": "https://dc.lft.to/lastmile_qr_scan"}, "bike_id": "1341e1ecd928a854176b2892c58c806a", "type": "electric_scooter", "fusion_lat": 0.0, "is_disabled": 0, "is_reserved": 0}, {"lon": -77.06758983333333, "name": "87fc49ca324c7979b0c87fdea76ea921", "lat": 38.9496775, "fusion_lon": 0.0, "rental_uris": {"ios": "https://dc.lft.to/lastmile_qr_scan", "android": "https://dc.lft.to/lastmile_qr_scan"}, "bike_id": "87fc49ca324c7979b0c87fdea76ea921", "type": "electric_scooter", "fusion_lat": 0.0, "is_disabled": 0, "is_reserved": 0}, {"lon": -77.02830666666667, "name": "6a3fa637076206d70890631206e3747a", "lat": 38.908571333333335, "fusion_lon": 0.0, "rental_uris": {"ios": "https://dc.lft.to/lastmile_qr_scan", "android": "https://dc.lft.to/lastmile_qr_scan"}, "bike_id": "6a3fa637076206d70890631206e3747a", "type": "electric_scooter", "fusion_lat": 0.0, "is_disabled": 0, "is_reserved": 0}, {"lon": -77.03870316666666, "name": "bf33756e5a0d20f694df2b0dce5524bb", "lat": 38.9129355, "fusion_lon": 0.0, "rental_uris": {"ios": "https://dc.lft.to/lastmile_qr_scan", "android": "https://dc.lft.to/lastmile_qr_scan"}, "bike_id": "bf33756e5a0d20f694df2b0dce5524bb", "type": "electric_scooter", "fusion_lat": 0.0, "is_disabled": 0, "is_reserved": 0}, {"lon": -77.02237333333333, "name": "a9015bc48bc980298804d228203de0a8", "lat": 38.956869166666664, "fusion_lon": 0.0, "rental_uris": {"ios": "https://dc.lft.to/lastmile_qr_scan", "android": "https://dc.lft.to/lastmile_qr_scan"}, "bike_id": "a9015bc48bc980298804d228203de0a8", "type": "electric_scooter", "fusion_lat": 0.0, "is_disabled": 0, "is_reserved": 0}, {"lon": -77.02408166666666, "name": "4c5b593b019398c866984ccaf9b30829", "lat": 38.95734366666667, "fusion_lon": 0.0, "rental_uris": {"ios": "https://dc.lft.to/lastmile_qr_scan", "android": "https://dc.lft.to/lastmile_qr_scan"}, "bike_id": "4c5b593b019398c866984ccaf9b30829", "type": "electric_scooter", "fusion_lat": 0.0, "is_disabled": 0, "is_reserved": 0}, {"lon": -77.03217016666666, "name": "d7d87263456494fcafd1f9ac0030d0a1", "lat": 38.91228666666667, "fusion_lon": 0.0, "rental_uris": {"ios": "https://dc.lft.to/lastmile_qr_scan", "android": "https://dc.lft.to/lastmile_qr_scan"}, "bike_id": "d7d87263456494fcafd1f9ac0030d0a1", "type": "electric_scooter", "fusion_lat": 0.0, "is_disabled": 0, "is_reserved": 0}, {"lon": -77.00070983333333, "name": "f7ef6cc65ee3241688f3e9defcb469e3", "lat": 38.92442966666667, "fusion_lon": 0.0, "rental_uris": {"ios": "https://dc.lft.to/lastmile_qr_scan", "android": "https://dc.lft.to/lastmile_qr_scan"}, "bike_id": "f7ef6cc65ee3241688f3e9defcb469e3", "type": "electric_scooter", "fusion_lat": 0.0, "is_disabled": 0, "is_reserved": 0}, {"lon": -77.0007495, "name": "11159785d2e6b3afb83d18a7c1d8c5f6", "lat": 38.876847, "fusion_lon": 0.0, "rental_uris": {"ios": "https://dc.lft.to/lastmile_qr_scan", "android": "https://dc.lft.to/lastmile_qr_scan"}, "bike_id": "11159785d2e6b3afb83d18a7c1d8c5f6", "type": "electric_scooter", "fusion_lat": 0.0, "is_disabled": 0, "is_reserved": 0}, {"lon": -76.98577666666667, "name": "989044595bc8e0fab1f06ca855502c07", "lat": 38.880232, "fusion_lon": 0.0, "rental_uris": {"ios": "https://dc.lft.to/lastmile_qr_scan", "android": "https://dc.lft.to/lastmile_qr_scan"}, "bike_id": "989044595bc8e0fab1f06ca855502c07", "type": "electric_scooter", "fusion_lat": 0.0, "is_disabled": 0, "is_reserved": 0}, {"lon": -77.0219345, "name": "70f9957b811de2f94ed80ac4c53ba29f", "lat": 38.910549833333334, "fusion_lon": 0.0, "rental_uris": {"ios": "https://dc.lft.to/lastmile_qr_scan", "android": "https://dc.lft.to/lastmile_qr_scan"}, "bike_id": "70f9957b811de2f94ed80ac4c53ba29f", "type": "electric_scooter", "fusion_lat": 0.0, "is_disabled": 0, "is_reserved": 0}, {"lon": -77.08419216666667, "name": "901fce6dbf4ebc6e9d6ccd4b64d02fca", "lat": 38.832987833333334, "fusion_lon": 0.0, "rental_uris": {"ios": "https://dc.lft.to/lastmile_qr_scan", "android": "https://dc.lft.to/lastmile_qr_scan"}, "bike_id": "901fce6dbf4ebc6e9d6ccd4b64d02fca", "type": "electric_bike", "fusion_lat": 0.0, "is_disabled": 0, "is_reserved": 0}, {"lon": -77.0214795, "name": "b7673f251c4fa2d808f8d4711552d585", "lat": 38.927534333333334, "fusion_lon": 0.0, "rental_uris": {"ios": "https://dc.lft.to/lastmile_qr_scan", "android": "https://dc.lft.to/lastmile_qr_scan"}, "bike_id": "b7673f251c4fa2d808f8d4711552d585", "type": "electric_scooter", "fusion_lat": 0.0, "is_disabled": 0, "is_reserved": 0}, {"lon": -77.04162316666667, "name": "68c783eb467f64de47bd9c869038711f", "lat": 38.91826916666667, "fusion_lon": 0.0, "rental_uris": {"ios": "https://dc.lft.to/lastmile_qr_scan", "android": "https://dc.lft.to/lastmile_qr_scan"}, "bike_id": "68c783eb467f64de47bd9c869038711f", "type": "electric_scooter", "fusion_lat": 0.0, "is_disabled": 0, "is_reserved": 0}, {"lon": -77.02910116666666, "name": "75572ccc54f6f4ac65e656e43f99fd7c", "lat": 38.923195166666666, "fusion_lon": 0.0, "rental_uris": {"ios": "https://dc.lft.to/lastmile_qr_scan", "android": "https://dc.lft.to/lastmile_qr_scan"}, "bike_id": "75572ccc54f6f4ac65e656e43f99fd7c", "type": "electric_scooter", "fusion_lat": 0.0, "is_disabled": 0, "is_reserved": 0}, {"lon": -77.03795133333334, "name": "4dfef62f08fc842915cadd4208aa7cc4", "lat": 38.922011166666664, "fusion_lon": 0.0, "rental_uris": {"ios": "https://dc.lft.to/lastmile_qr_scan", "android": "https://dc.lft.to/lastmile_qr_scan"}, "bike_id": "4dfef62f08fc842915cadd4208aa7cc4", "type": "electric_scooter", "fusion_lat": 0.0, "is_disabled": 0, "is_reserved": 0}, {"lon": -77.02211416666667, "name": "b6554eca5991d33b20addf0e4aedc81a", "lat": 38.88736033333333, "fusion_lon": 0.0, "rental_uris": {"ios": "https://dc.lft.to/lastmile_qr_scan", "android": "https://dc.lft.to/lastmile_qr_scan"}, "bike_id": "b6554eca5991d33b20addf0e4aedc81a", "type": "electric_scooter", "fusion_lat": 0.0, "is_disabled": 0, "is_reserved": 0}, {"lon": -77.019553, "name": "b7fc2bd55498ab00e684dfce73a798d9", "lat": 38.924237166666664, "fusion_lon": 0.0, "rental_uris": {"ios": "https://dc.lft.to/lastmile_qr_scan", "android": "https://dc.lft.to/lastmile_qr_scan"}, "bike_id": "b7fc2bd55498ab00e684dfce73a798d9", "type": "electric_scooter", "fusion_lat": 0.0, "is_disabled": 0, "is_reserved": 0}, {"lon": -77.0397195, "name": "e1950c2a92da8c38f155e4ab3df30d1d", "lat": 38.90142566666667, "fusion_lon": 0.0, "rental_uris": {"ios": "https://dc.lft.to/lastmile_qr_scan", "android": "https://dc.lft.to/lastmile_qr_scan"}, "bike_id": "e1950c2a92da8c38f155e4ab3df30d1d", "type": "electric_scooter", "fusion_lat": 0.0, "is_disabled": 0, "is_reserved": 0}, {"lon": -77.032347, "name": "aaa5312df494f4e6a48eaa752ee36a3d", "lat": 38.92066166666667, "fusion_lon": 0.0, "rental_uris": {"ios": "https://dc.lft.to/lastmile_qr_scan", "android": "https://dc.lft.to/lastmile_qr_scan"}, "bike_id": "aaa5312df494f4e6a48eaa752ee36a3d", "type": "electric_scooter", "fusion_lat": 0.0, "is_disabled": 0, "is_reserved": 0}, {"lon": -77.191152, "name": "18c59a10e253a7d5e3c839033f5f94cb", "lat": 38.894676, "fusion_lon": 0.0, "rental_uris": {"ios": "https://dc.lft.to/lastmile_qr_scan", "android": "https://dc.lft.to/lastmile_qr_scan"}, "bike_id": "18c59a10e253a7d5e3c839033f5f94cb", "type": "electric_bike", "fusion_lat": 0.0, "is_disabled": 0, "is_reserved": 0}, {"lon": -77.01747433333334, "name": "4b2af62fa08ebbd7eee394ac02071004", "lat": 38.8819195, "fusion_lon": 0.0, "rental_uris": {"ios": "https://dc.lft.to/lastmile_qr_scan", "android": "https://dc.lft.to/lastmile_qr_scan"}, "bike_id": "4b2af62fa08ebbd7eee394ac02071004", "type": "electric_scooter", "fusion_lat": 0.0, "is_disabled": 0, "is_reserved": 0}, {"lon": -77.062717, "name": "2aee4d09c6698b293be6a7bce679465a", "lat": 38.9062365, "fusion_lon": 0.0, "rental_uris": {"ios": "https://dc.lft.to/lastmile_qr_scan", "android": "https://dc.lft.to/lastmile_qr_scan"}, "bike_id": "2aee4d09c6698b293be6a7bce679465a", "type": "electric_scooter", "fusion_lat": 0.0, "is_disabled": 0, "is_reserved": 0}, {"lon": -77.0267355, "name": "a5cad3df1d75c4b72a636ca88a6c237e", "lat": 38.921778333333336, "fusion_lon": 0.0, "rental_uris": {"ios": "https://dc.lft.to/lastmile_qr_scan", "android": "https://dc.lft.to/lastmile_qr_scan"}, "bike_id": "a5cad3df1d75c4b72a636ca88a6c237e", "type": "electric_scooter", "fusion_lat": 0.0, "is_disabled": 0, "is_reserved": 0}, {"lon": -76.99153816666667, "name": "a5625e508911a8798cf4877da5259d58", "lat": 38.90047583333333, "fusion_lon": 0.0, "rental_uris": {"ios": "https://dc.lft.to/lastmile_qr_scan", "android": "https://dc.lft.to/lastmile_qr_scan"}, "bike_id": "a5625e508911a8798cf4877da5259d58", "type": "electric_scooter", "fusion_lat": 0.0, "is_disabled": 0, "is_reserved": 0}, {"lon": -77.0180635, "name": "aff41e0ca723bf184067f185b7ce3cc7", "lat": 38.919924333333334, "fusion_lon": 0.0, "rental_uris": {"ios": "https://dc.lft.to/lastmile_qr_scan", "android": "https://dc.lft.to/lastmile_qr_scan"}, "bike_id": "aff41e0ca723bf184067f185b7ce3cc7", "type": "electric_scooter", "fusion_lat": 0.0, "is_disabled": 0, "is_reserved": 0}, {"lon": -77.03212866666667, "name": "8b330bb9ef6a7788091ece590142d3e3", "lat": 38.892295833333336, "fusion_lon": 0.0, "rental_uris": {"ios": "https://dc.lft.to/lastmile_qr_scan", "android": "https://dc.lft.to/lastmile_qr_scan"}, "bike_id": "8b330bb9ef6a7788091ece590142d3e3", "type": "electric_scooter", "fusion_lat": 0.0, "is_disabled": 0, "is_reserved": 0}, {"lon": -77.03503116666667, "name": "1c152a1ea9a05d45ad07d928be4dc3b2", "lat": 38.928714, "fusion_lon": 0.0, "rental_uris": {"ios": "https://dc.lft.to/lastmile_qr_scan", "android": "https://dc.lft.to/lastmile_qr_scan"}, "bike_id": "1c152a1ea9a05d45ad07d928be4dc3b2", "type": "electric_scooter", "fusion_lat": 0.0, "is_disabled": 0, "is_reserved": 0}, {"lon": -77.02281083333334, "name": "36480dac851f0b41e3b9179ba001280e", "lat": 38.9184145, "fusion_lon": 0.0, "rental_uris": {"ios": "https://dc.lft.to/lastmile_qr_scan", "android": "https://dc.lft.to/lastmile_qr_scan"}, "bike_id": "36480dac851f0b41e3b9179ba001280e", "type": "electric_scooter", "fusion_lat": 0.0, "is_disabled": 0, "is_reserved": 0}, {"lon": -77.04414183333333, "name": "b436d1e1cb1dfb218d149d411ee3b810", "lat": 38.896290666666665, "fusion_lon": 0.0, "rental_uris": {"ios": "https://dc.lft.to/lastmile_qr_scan", "android": "https://dc.lft.to/lastmile_qr_scan"}, "bike_id": "b436d1e1cb1dfb218d149d411ee3b810", "type": "electric_scooter", "fusion_lat": 0.0, "is_disabled": 0, "is_reserved": 0}, {"lon": -77.04648283333333, "name": "0f0f07aa3148e47fb191d011c9c3122c", "lat": 38.9158355, "fusion_lon": 0.0, "rental_uris": {"ios": "https://dc.lft.to/lastmile_qr_scan", "android": "https://dc.lft.to/lastmile_qr_scan"}, "bike_id": "0f0f07aa3148e47fb191d011c9c3122c", "type": "electric_scooter", "fusion_lat": 0.0, "is_disabled": 0, "is_reserved": 0}, {"lon": -77.04787483333334, "name": "29caeeb2ce0423515b8f0a2379377c0a", "lat": 38.900909, "fusion_lon": 0.0, "rental_uris": {"ios": "https://dc.lft.to/lastmile_qr_scan", "android": "https://dc.lft.to/lastmile_qr_scan"}, "bike_id": "29caeeb2ce0423515b8f0a2379377c0a", "type": "electric_scooter", "fusion_lat": 0.0, "is_disabled": 0, "is_reserved": 0}, {"lon": -77.020174, "name": "f8a525bc7155f00e32e0213333212cfe", "lat": 38.92427766666667, "fusion_lon": 0.0, "rental_uris": {"ios": "https://dc.lft.to/lastmile_qr_scan", "android": "https://dc.lft.to/lastmile_qr_scan"}, "bike_id": "f8a525bc7155f00e32e0213333212cfe", "type": "electric_scooter", "fusion_lat": 0.0, "is_disabled": 0, "is_reserved": 0}, {"lon": -77.0435425, "name": "358d06f1cde73852d275329fc69a45c6", "lat": 38.896273666666666, "fusion_lon": 0.0, "rental_uris": {"ios": "https://dc.lft.to/lastmile_qr_scan", "android": "https://dc.lft.to/lastmile_qr_scan"}, "bike_id": "358d06f1cde73852d275329fc69a45c6", "type": "electric_scooter", "fusion_lat": 0.0, "is_disabled": 0, "is_reserved": 0}, {"lon": -77.01516966666667, "name": "a548ca478b736eb07928da5821c3b5a0", "lat": 38.926728833333335, "fusion_lon": 0.0, "rental_uris": {"ios": "https://dc.lft.to/lastmile_qr_scan", "android": "https://dc.lft.to/lastmile_qr_scan"}, "bike_id": "a548ca478b736eb07928da5821c3b5a0", "type": "electric_scooter", "fusion_lat": 0.0, "is_disabled": 0, "is_reserved": 0}, {"lon": -77.03612983333333, "name": "e51ee2c66acdb704d4632528a4c9b646", "lat": 38.92858233333333, "fusion_lon": 0.0, "rental_uris": {"ios": "https://dc.lft.to/lastmile_qr_scan", "android": "https://dc.lft.to/lastmile_qr_scan"}, "bike_id": "e51ee2c66acdb704d4632528a4c9b646", "type": "electric_scooter", "fusion_lat": 0.0, "is_disabled": 0, "is_reserved": 0}, {"lon": -76.98353466666667, "name": "55759660810a64c618d350408096a85a", "lat": 38.862673666666666, "fusion_lon": 0.0, "rental_uris": {"ios": "https://dc.lft.to/lastmile_qr_scan", "android": "https://dc.lft.to/lastmile_qr_scan"}, "bike_id": "55759660810a64c618d350408096a85a", "type": "electric_bike", "fusion_lat": 0.0, "is_disabled": 0, "is_reserved": 0}, {"lon": -77.018904, "name": "2e2995842eb034bf72f28c19967dcd47", "lat": 38.915113166666664, "fusion_lon": 0.0, "rental_uris": {"ios": "https://dc.lft.to/lastmile_qr_scan", "android": "https://dc.lft.to/lastmile_qr_scan"}, "bike_id": "2e2995842eb034bf72f28c19967dcd47", "type": "electric_scooter", "fusion_lat": 0.0, "is_disabled": 0, "is_reserved": 0}, {"lon": -77.005778, "name": "8c7f156446933d5d657d8889693e9493", "lat": 38.906999166666665, "fusion_lon": 0.0, "rental_uris": {"ios": "https://dc.lft.to/lastmile_qr_scan", "android": "https://dc.lft.to/lastmile_qr_scan"}, "bike_id": "8c7f156446933d5d657d8889693e9493", "type": "electric_scooter", "fusion_lat": 0.0, "is_disabled": 0, "is_reserved": 0}, {"lon": -77.05388083333334, "name": "aa16370ee6e47ab700787eb9c2c61b3f", "lat": 38.91067316666667, "fusion_lon": 0.0, "rental_uris": {"ios": "https://dc.lft.to/lastmile_qr_scan", "android": "https://dc.lft.to/lastmile_qr_scan"}, "bike_id": "aa16370ee6e47ab700787eb9c2c61b3f", "type": "electric_scooter", "fusion_lat": 0.0, "is_disabled": 0, "is_reserved": 0}, {"lon": -77.04386933333333, "name": "8c82a36a1e08ad56e6f3a08d1ed50fd8", "lat": 38.892028333333336, "fusion_lon": 0.0, "rental_uris": {"ios": "https://dc.lft.to/lastmile_qr_scan", "android": "https://dc.lft.to/lastmile_qr_scan"}, "bike_id": "8c82a36a1e08ad56e6f3a08d1ed50fd8", "type": "electric_scooter", "fusion_lat": 0.0, "is_disabled": 0, "is_reserved": 0}, {"lon": -77.036702, "name": "bbd7ae198b94253888c6896ddf5c1ec7", "lat": 38.9114055, "fusion_lon": 0.0, "rental_uris": {"ios": "https://dc.lft.to/lastmile_qr_scan", "android": "https://dc.lft.to/lastmile_qr_scan"}, "bike_id": "bbd7ae198b94253888c6896ddf5c1ec7", "type": "electric_scooter", "fusion_lat": 0.0, "is_disabled": 0, "is_reserved": 0}, {"lon": -76.9806835, "name": "0531608cd9d5d9713fd2ce780d9a3d35", "lat": 38.9017125, "fusion_lon": 0.0, "rental_uris": {"ios": "https://dc.lft.to/lastmile_qr_scan", "android": "https://dc.lft.to/lastmile_qr_scan"}, "bike_id": "0531608cd9d5d9713fd2ce780d9a3d35", "type": "electric_scooter", "fusion_lat": 0.0, "is_disabled": 0, "is_reserved": 0}, {"lon": -77.02722, "name": "8656336c4340c26642a7407ee7b9b551", "lat": 38.924737, "fusion_lon": 0.0, "rental_uris": {"ios": "https://dc.lft.to/lastmile_qr_scan", "android": "https://dc.lft.to/lastmile_qr_scan"}, "bike_id": "8656336c4340c26642a7407ee7b9b551", "type": "electric_scooter", "fusion_lat": 0.0, "is_disabled": 0, "is_reserved": 0}, {"lon": -77.0319845, "name": "a2f4cc47a8249654f01aba6a1629ebed", "lat": 38.915817, "fusion_lon": 0.0, "rental_uris": {"ios": "https://dc.lft.to/lastmile_qr_scan", "android": "https://dc.lft.to/lastmile_qr_scan"}, "bike_id": "a2f4cc47a8249654f01aba6a1629ebed", "type": "electric_scooter", "fusion_lat": 0.0, "is_disabled": 0, "is_reserved": 0}, {"lon": -77.02043333333333, "name": "9edeea7a982331432aa24c8440863b4c", "lat": 38.9245225, "fusion_lon": 0.0, "rental_uris": {"ios": "https://dc.lft.to/lastmile_qr_scan", "android": "https://dc.lft.to/lastmile_qr_scan"}, "bike_id": "9edeea7a982331432aa24c8440863b4c", "type": "electric_scooter", "fusion_lat": 0.0, "is_disabled": 0, "is_reserved": 0}, {"lon": -77.0121505, "name": "d2a489aef1a628ebd5fb820332593356", "lat": 38.89762183333333, "fusion_lon": 0.0, "rental_uris": {"ios": "https://dc.lft.to/lastmile_qr_scan", "android": "https://dc.lft.to/lastmile_qr_scan"}, "bike_id": "d2a489aef1a628ebd5fb820332593356", "type": "electric_scooter", "fusion_lat": 0.0, "is_disabled": 0, "is_reserved": 0}, {"lon": -77.04519716666667, "name": "77ff300e01d2d0dd156c81fc3a54c6e8", "lat": 38.8996365, "fusion_lon": 0.0, "rental_uris": {"ios": "https://dc.lft.to/lastmile_qr_scan", "android": "https://dc.lft.to/lastmile_qr_scan"}, "bike_id": "77ff300e01d2d0dd156c81fc3a54c6e8", "type": "electric_scooter", "fusion_lat": 0.0, "is_disabled": 0, "is_reserved": 0}, {"lon": -76.99251866666667, "name": "b18f86b821c2e2659e941656d8df9eb6", "lat": 38.80734866666667, "fusion_lon": 0.0, "rental_uris": {"ios": "https://dc.lft.to/lastmile_qr_scan", "android": "https://dc.lft.to/lastmile_qr_scan"}, "bike_id": "b18f86b821c2e2659e941656d8df9eb6", "type": "electric_bike", "fusion_lat": 0.0, "is_disabled": 0, "is_reserved": 0}, {"lon": -77.03363866666666, "name": "c6bb87be4a03db0b85bc9ba8d2d4efa7", "lat": 38.9000465, "fusion_lon": 0.0, "rental_uris": {"ios": "https://dc.lft.to/lastmile_qr_scan", "android": "https://dc.lft.to/lastmile_qr_scan"}, "bike_id": "c6bb87be4a03db0b85bc9ba8d2d4efa7", "type": "electric_scooter", "fusion_lat": 0.0, "is_disabled": 0, "is_reserved": 0}, {"lon": -77.01973566666666, "name": "e88081da0985347b84a211c9f87e6244", "lat": 38.9154575, "fusion_lon": 0.0, "rental_uris": {"ios": "https://dc.lft.to/lastmile_qr_scan", "android": "https://dc.lft.to/lastmile_qr_scan"}, "bike_id": "e88081da0985347b84a211c9f87e6244", "type": "electric_scooter", "fusion_lat": 0.0, "is_disabled": 0, "is_reserved": 0}, {"lon": -77.02330933333333, "name": "23a9599ae2c27d9732b09780f26d7285", "lat": 38.8948925, "fusion_lon": 0.0, "rental_uris": {"ios": "https://dc.lft.to/lastmile_qr_scan", "android": "https://dc.lft.to/lastmile_qr_scan"}, "bike_id": "23a9599ae2c27d9732b09780f26d7285", "type": "electric_scooter", "fusion_lat": 0.0, "is_disabled": 0, "is_reserved": 0}, {"lon": -77.01854083333333, "name": "4968b6ced270f0db638590adaa58c840", "lat": 38.949252333333334, "fusion_lon": 0.0, "rental_uris": {"ios": "https://dc.lft.to/lastmile_qr_scan", "android": "https://dc.lft.to/lastmile_qr_scan"}, "bike_id": "4968b6ced270f0db638590adaa58c840", "type": "electric_scooter", "fusion_lat": 0.0, "is_disabled": 0, "is_reserved": 0}, {"lon": -77.0464175, "name": "361a21cfb9fc035f74b5af7609325df6", "lat": 38.89224016666667, "fusion_lon": 0.0, "rental_uris": {"ios": "https://dc.lft.to/lastmile_qr_scan", "android": "https://dc.lft.to/lastmile_qr_scan"}, "bike_id": "361a21cfb9fc035f74b5af7609325df6", "type": "electric_scooter", "fusion_lat": 0.0, "is_disabled": 0, "is_reserved": 0}, {"lon": -76.996284, "name": "35e93b3f220f53a451b3dfbcc2373a30", "lat": 38.900676833333335, "fusion_lon": 0.0, "rental_uris": {"ios": "https://dc.lft.to/lastmile_qr_scan", "android": "https://dc.lft.to/lastmile_qr_scan"}, "bike_id": "35e93b3f220f53a451b3dfbcc2373a30", "type": "electric_scooter", "fusion_lat": 0.0, "is_disabled": 0, "is_reserved": 0}, {"lon": -77.02503183333333, "name": "310a3e4932a792d11f874d7ee6db44af", "lat": 38.89745083333333, "fusion_lon": 0.0, "rental_uris": {"ios": "https://dc.lft.to/lastmile_qr_scan", "android": "https://dc.lft.to/lastmile_qr_scan"}, "bike_id": "310a3e4932a792d11f874d7ee6db44af", "type": "electric_scooter", "fusion_lat": 0.0, "is_disabled": 0, "is_reserved": 0}, {"lon": -77.053375, "name": "c3da6b37946fc1285fdd6e3e44bd08c0", "lat": 38.904085, "fusion_lon": 0.0, "rental_uris": {"ios": "https://dc.lft.to/lastmile_qr_scan", "android": "https://dc.lft.to/lastmile_qr_scan"}, "bike_id": "c3da6b37946fc1285fdd6e3e44bd08c0", "type": "electric_scooter", "fusion_lat": 0.0, "is_disabled": 0, "is_reserved": 0}, {"lon": -77.04182866666666, "name": "367b8085c4a682d09bd25be54f46d30d", "lat": 38.8923875, "fusion_lon": 0.0, "rental_uris": {"ios": "https://dc.lft.to/lastmile_qr_scan", "android": "https://dc.lft.to/lastmile_qr_scan"}, "bike_id": "367b8085c4a682d09bd25be54f46d30d", "type": "electric_scooter", "fusion_lat": 0.0, "is_disabled": 0, "is_reserved": 0}, {"lon": -77.01245533333334, "name": "c82b09b727549f7015ef0425b141dcb8", "lat": 38.901390666666664, "fusion_lon": 0.0, "rental_uris": {"ios": "https://dc.lft.to/lastmile_qr_scan", "android": "https://dc.lft.to/lastmile_qr_scan"}, "bike_id": "c82b09b727549f7015ef0425b141dcb8", "type": "electric_scooter", "fusion_lat": 0.0, "is_disabled": 0, "is_reserved": 0}, {"lon": -77.03167966666666, "name": "585b5eb17adefbe3d8481de6d227fbf2", "lat": 38.9126125, "fusion_lon": 0.0, "rental_uris": {"ios": "https://dc.lft.to/lastmile_qr_scan", "android": "https://dc.lft.to/lastmile_qr_scan"}, "bike_id": "585b5eb17adefbe3d8481de6d227fbf2", "type": "electric_scooter", "fusion_lat": 0.0, "is_disabled": 0, "is_reserved": 0}, {"lon": -77.0207155, "name": "56f22d1cc6b9d9eabc5a67fc85882e1c", "lat": 38.921235, "fusion_lon": 0.0, "rental_uris": {"ios": "https://dc.lft.to/lastmile_qr_scan", "android": "https://dc.lft.to/lastmile_qr_scan"}, "bike_id": "56f22d1cc6b9d9eabc5a67fc85882e1c", "type": "electric_scooter", "fusion_lat": 0.0, "is_disabled": 0, "is_reserved": 0}, {"lon": -77.0248915, "name": "86eafaaa7a480a1cf153862e50b3c924", "lat": 38.91742933333333, "fusion_lon": 0.0, "rental_uris": {"ios": "https://dc.lft.to/lastmile_qr_scan", "android": "https://dc.lft.to/lastmile_qr_scan"}, "bike_id": "86eafaaa7a480a1cf153862e50b3c924", "type": "electric_scooter", "fusion_lat": 0.0, "is_disabled": 0, "is_reserved": 0}, {"lon": -76.97133166666667, "name": "981e893e74cfca5f963bd8a9fa904eba", "lat": 38.874189333333334, "fusion_lon": 0.0, "rental_uris": {"ios": "https://dc.lft.to/lastmile_qr_scan", "android": "https://dc.lft.to/lastmile_qr_scan"}, "bike_id": "981e893e74cfca5f963bd8a9fa904eba", "type": "electric_scooter", "fusion_lat": 0.0, "is_disabled": 0, "is_reserved": 0}, {"lon": -77.024121, "name": "7781b5ea0f3e01e96b82abca1cb7941b", "lat": 38.91572816666667, "fusion_lon": 0.0, "rental_uris": {"ios": "https://dc.lft.to/lastmile_qr_scan", "android": "https://dc.lft.to/lastmile_qr_scan"}, "bike_id": "7781b5ea0f3e01e96b82abca1cb7941b", "type": "electric_scooter", "fusion_lat": 0.0, "is_disabled": 0, "is_reserved": 0}, {"lon": -77.09693333333334, "name": "133de2e2f5b19de0c7f1266df061e55c", "lat": 38.8073955, "fusion_lon": 0.0, "rental_uris": {"ios": "https://dc.lft.to/lastmile_qr_scan", "android": "https://dc.lft.to/lastmile_qr_scan"}, "bike_id": "133de2e2f5b19de0c7f1266df061e55c", "type": "electric_bike", "fusion_lat": 0.0, "is_disabled": 0, "is_reserved": 0}, {"lon": -77.0222125, "name": "ca62c28cd661e1ed8bb6fede24f349da", "lat": 38.89223166666667, "fusion_lon": 0.0, "rental_uris": {"ios": "https://dc.lft.to/lastmile_qr_scan", "android": "https://dc.lft.to/lastmile_qr_scan"}, "bike_id": "ca62c28cd661e1ed8bb6fede24f349da", "type": "electric_scooter", "fusion_lat": 0.0, "is_disabled": 0, "is_reserved": 0}, {"lon": -77.0235735, "name": "4edcfebe579b699f69b1c66b00d8a086", "lat": 38.9353775, "fusion_lon": 0.0, "rental_uris": {"ios": "https://dc.lft.to/lastmile_qr_scan", "android": "https://dc.lft.to/lastmile_qr_scan"}, "bike_id": "4edcfebe579b699f69b1c66b00d8a086", "type": "electric_scooter", "fusion_lat": 0.0, "is_disabled": 0, "is_reserved": 0}, {"lon": -76.96262116666666, "name": "ceba049676cdd4e6c1702f58d0416ae6", "lat": 38.882486, "fusion_lon": 0.0, "rental_uris": {"ios": "https://dc.lft.to/lastmile_qr_scan", "android": "https://dc.lft.to/lastmile_qr_scan"}, "bike_id": "ceba049676cdd4e6c1702f58d0416ae6", "type": "electric_bike", "fusion_lat": 0.0, "is_disabled": 0, "is_reserved": 0}, {"lon": -77.01282066666667, "name": "c2f88cb1ac08ee0f5373de61eae92de9", "lat": 38.915395, "fusion_lon": 0.0, "rental_uris": {"ios": "https://dc.lft.to/lastmile_qr_scan", "android": "https://dc.lft.to/lastmile_qr_scan"}, "bike_id": "c2f88cb1ac08ee0f5373de61eae92de9", "type": "electric_scooter", "fusion_lat": 0.0, "is_disabled": 0, "is_reserved": 0}, {"lon": -77.0038995, "name": "62e849b602944ba908d9f37a920bc233", "lat": 38.877745833333336, "fusion_lon": 0.0, "rental_uris": {"ios": "https://dc.lft.to/lastmile_qr_scan", "android": "https://dc.lft.to/lastmile_qr_scan"}, "bike_id": "62e849b602944ba908d9f37a920bc233", "type": "electric_scooter", "fusion_lat": 0.0, "is_disabled": 0, "is_reserved": 0}, {"lon": -77.00739483333334, "name": "a68fa00209afe0e1afd1b25df3383b1a", "lat": 38.876502, "fusion_lon": 0.0, "rental_uris": {"ios": "https://dc.lft.to/lastmile_qr_scan", "android": "https://dc.lft.to/lastmile_qr_scan"}, "bike_id": "a68fa00209afe0e1afd1b25df3383b1a", "type": "electric_scooter", "fusion_lat": 0.0, "is_disabled": 0, "is_reserved": 0}, {"lon": -77.06033766666667, "name": "5d831ad1612f7c81d5ad278e8ab9f103", "lat": 38.902335, "fusion_lon": 0.0, "rental_uris": {"ios": "https://dc.lft.to/lastmile_qr_scan", "android": "https://dc.lft.to/lastmile_qr_scan"}, "bike_id": "5d831ad1612f7c81d5ad278e8ab9f103", "type": "electric_scooter", "fusion_lat": 0.0, "is_disabled": 0, "is_reserved": 0}, {"lon": -77.02612316666666, "name": "fd5ca38031e0de3ec317f6458e4c964d", "lat": 38.925894166666666, "fusion_lon": 0.0, "rental_uris": {"ios": "https://dc.lft.to/lastmile_qr_scan", "android": "https://dc.lft.to/lastmile_qr_scan"}, "bike_id": "fd5ca38031e0de3ec317f6458e4c964d", "type": "electric_scooter", "fusion_lat": 0.0, "is_disabled": 0, "is_reserved": 0}, {"lon": -77.03263833333334, "name": "e3fcd5a44c89ccda6f941de8d47808d8", "lat": 38.880813, "fusion_lon": 0.0, "rental_uris": {"ios": "https://dc.lft.to/lastmile_qr_scan", "android": "https://dc.lft.to/lastmile_qr_scan"}, "bike_id": "e3fcd5a44c89ccda6f941de8d47808d8", "type": "electric_bike", "fusion_lat": 0.0, "is_disabled": 0, "is_reserved": 0}, {"lon": -77.0286035, "name": "a1e76cec71dbf5e29e2459e307dfe39a", "lat": 38.88203383333333, "fusion_lon": 0.0, "rental_uris": {"ios": "https://dc.lft.to/lastmile_qr_scan", "android": "https://dc.lft.to/lastmile_qr_scan"}, "bike_id": "a1e76cec71dbf5e29e2459e307dfe39a", "type": "electric_scooter", "fusion_lat": 0.0, "is_disabled": 0, "is_reserved": 0}, {"lon": -77.00756483333333, "name": "586b6b0cf042f6e227ed7cc490413ccd", "lat": 38.900584, "fusion_lon": 0.0, "rental_uris": {"ios": "https://dc.lft.to/lastmile_qr_scan", "android": "https://dc.lft.to/lastmile_qr_scan"}, "bike_id": "586b6b0cf042f6e227ed7cc490413ccd", "type": "electric_scooter", "fusion_lat": 0.0, "is_disabled": 0, "is_reserved": 0}, {"lon": -77.028255, "name": "8b855500c1f220c65e01e6fa60a70382", "lat": 38.895587666666664, "fusion_lon": 0.0, "rental_uris": {"ios": "https://dc.lft.to/lastmile_qr_scan", "android": "https://dc.lft.to/lastmile_qr_scan"}, "bike_id": "8b855500c1f220c65e01e6fa60a70382", "type": "electric_scooter", "fusion_lat": 0.0, "is_disabled": 0, "is_reserved": 0}, {"lon": -77.03859033333333, "name": "2772ae4f00a0af0c562fca4c404bdacc", "lat": 38.916075, "fusion_lon": 0.0, "rental_uris": {"ios": "https://dc.lft.to/lastmile_qr_scan", "android": "https://dc.lft.to/lastmile_qr_scan"}, "bike_id": "2772ae4f00a0af0c562fca4c404bdacc", "type": "electric_scooter", "fusion_lat": 0.0, "is_disabled": 0, "is_reserved": 0}, {"lon": -77.005339, "name": "82d680d7dc2c81ee06012a23518be421", "lat": 38.879299333333336, "fusion_lon": 0.0, "rental_uris": {"ios": "https://dc.lft.to/lastmile_qr_scan", "android": "https://dc.lft.to/lastmile_qr_scan"}, "bike_id": "82d680d7dc2c81ee06012a23518be421", "type": "electric_scooter", "fusion_lat": 0.0, "is_disabled": 0, "is_reserved": 0}, {"lon": -77.00541716666666, "name": "54143de255b1357706575683ba8de4c0", "lat": 38.927516, "fusion_lon": 0.0, "rental_uris": {"ios": "https://dc.lft.to/lastmile_qr_scan", "android": "https://dc.lft.to/lastmile_qr_scan"}, "bike_id": "54143de255b1357706575683ba8de4c0", "type": "electric_scooter", "fusion_lat": 0.0, "is_disabled": 0, "is_reserved": 0}, {"lon": -77.04413533333333, "name": "04be81b2a88ff1b58e0af0ac07069979", "lat": 38.896214666666665, "fusion_lon": 0.0, "rental_uris": {"ios": "https://dc.lft.to/lastmile_qr_scan", "android": "https://dc.lft.to/lastmile_qr_scan"}, "bike_id": "04be81b2a88ff1b58e0af0ac07069979", "type": "electric_scooter", "fusion_lat": 0.0, "is_disabled": 0, "is_reserved": 0}, {"lon": -77.03167883333333, "name": "6fc208a0a2f31efb976459ad1aab5975", "lat": 38.8922295, "fusion_lon": 0.0, "rental_uris": {"ios": "https://dc.lft.to/lastmile_qr_scan", "android": "https://dc.lft.to/lastmile_qr_scan"}, "bike_id": "6fc208a0a2f31efb976459ad1aab5975", "type": "electric_scooter", "fusion_lat": 0.0, "is_disabled": 0, "is_reserved": 0}, {"lon": -77.03788333333334, "name": "a804b7a0b1dfbbd47f184a7031c1d038", "lat": 38.9282825, "fusion_lon": 0.0, "rental_uris": {"ios": "https://dc.lft.to/lastmile_qr_scan", "android": "https://dc.lft.to/lastmile_qr_scan"}, "bike_id": "a804b7a0b1dfbbd47f184a7031c1d038", "type": "electric_scooter", "fusion_lat": 0.0, "is_disabled": 0, "is_reserved": 0}, {"lon": -77.05694833333334, "name": "c83f5aa366e37039b6807ddf83b1086b", "lat": 38.9056555, "fusion_lon": 0.0, "rental_uris": {"ios": "https://dc.lft.to/lastmile_qr_scan", "android": "https://dc.lft.to/lastmile_qr_scan"}, "bike_id": "c83f5aa366e37039b6807ddf83b1086b", "type": "electric_bike", "fusion_lat": 0.0, "is_disabled": 0, "is_reserved": 0}, {"lon": -77.04291683333334, "name": "a5ee6714db385e3d017b7a48eab59293", "lat": 38.911874833333336, "fusion_lon": 0.0, "rental_uris": {"ios": "https://dc.lft.to/lastmile_qr_scan", "android": "https://dc.lft.to/lastmile_qr_scan"}, "bike_id": "a5ee6714db385e3d017b7a48eab59293", "type": "electric_scooter", "fusion_lat": 0.0, "is_disabled": 0, "is_reserved": 0}, {"lon": -77.06273916666666, "name": "5024eaaf6af17ff774a8c5ce8297d396", "lat": 38.904416, "fusion_lon": 0.0, "rental_uris": {"ios": "https://dc.lft.to/lastmile_qr_scan", "android": "https://dc.lft.to/lastmile_qr_scan"}, "bike_id": "5024eaaf6af17ff774a8c5ce8297d396", "type": "electric_scooter", "fusion_lat": 0.0, "is_disabled": 0, "is_reserved": 0}, {"lon": -77.00215983333334, "name": "f77f31bdbf3127bf779fd75f2a881505", "lat": 38.9146995, "fusion_lon": 0.0, "rental_uris": {"ios": "https://dc.lft.to/lastmile_qr_scan", "android": "https://dc.lft.to/lastmile_qr_scan"}, "bike_id": "f77f31bdbf3127bf779fd75f2a881505", "type": "electric_scooter", "fusion_lat": 0.0, "is_disabled": 0, "is_reserved": 0}, {"lon": -77.024013, "name": "4b9600db621fcc4b1f08bfc89345d3a8", "lat": 38.937036166666665, "fusion_lon": 0.0, "rental_uris": {"ios": "https://dc.lft.to/lastmile_qr_scan", "android": "https://dc.lft.to/lastmile_qr_scan"}, "bike_id": "4b9600db621fcc4b1f08bfc89345d3a8", "type": "electric_scooter", "fusion_lat": 0.0, "is_disabled": 0, "is_reserved": 0}, {"lon": -76.99836483333333, "name": "b8e13c7e3c361e7a43d361201cad9b96", "lat": 38.91821816666667, "fusion_lon": 0.0, "rental_uris": {"ios": "https://dc.lft.to/lastmile_qr_scan", "android": "https://dc.lft.to/lastmile_qr_scan"}, "bike_id": "b8e13c7e3c361e7a43d361201cad9b96", "type": "electric_bike", "fusion_lat": 0.0, "is_disabled": 0, "is_reserved": 0}, {"lon": -77.016138, "name": "bf184c2ebfe6532bdf9cd551c311e223", "lat": 38.89965566666667, "fusion_lon": 0.0, "rental_uris": {"ios": "https://dc.lft.to/lastmile_qr_scan", "android": "https://dc.lft.to/lastmile_qr_scan"}, "bike_id": "bf184c2ebfe6532bdf9cd551c311e223", "type": "electric_scooter", "fusion_lat": 0.0, "is_disabled": 0, "is_reserved": 0}, {"lon": -77.04620733333333, "name": "be9fadbdebc51c173397bd0b9b7e442d", "lat": 38.9170945, "fusion_lon": 0.0, "rental_uris": {"ios": "https://dc.lft.to/lastmile_qr_scan", "android": "https://dc.lft.to/lastmile_qr_scan"}, "bike_id": "be9fadbdebc51c173397bd0b9b7e442d", "type": "electric_scooter", "fusion_lat": 0.0, "is_disabled": 0, "is_reserved": 0}, {"lon": -77.02703516666666, "name": "47a5df7bb2e65d729b4aa74c0a0ee497", "lat": 38.905745333333336, "fusion_lon": 0.0, "rental_uris": {"ios": "https://dc.lft.to/lastmile_qr_scan", "android": "https://dc.lft.to/lastmile_qr_scan"}, "bike_id": "47a5df7bb2e65d729b4aa74c0a0ee497", "type": "electric_scooter", "fusion_lat": 0.0, "is_disabled": 0, "is_reserved": 0}, {"lon": -77.00206766666666, "name": "5096aa044e8c4c4651c03b4c48ec5481", "lat": 38.902426, "fusion_lon": 0.0, "rental_uris": {"ios": "https://dc.lft.to/lastmile_qr_scan", "android": "https://dc.lft.to/lastmile_qr_scan"}, "bike_id": "5096aa044e8c4c4651c03b4c48ec5481", "type": "electric_scooter", "fusion_lat": 0.0, "is_disabled": 0, "is_reserved": 0}, {"lon": -77.0341535, "name": "1e6c89b1e19d16e28513813ae00c3b52", "lat": 38.92866983333333, "fusion_lon": 0.0, "rental_uris": {"ios": "https://dc.lft.to/lastmile_qr_scan", "android": "https://dc.lft.to/lastmile_qr_scan"}, "bike_id": "1e6c89b1e19d16e28513813ae00c3b52", "type": "electric_scooter", "fusion_lat": 0.0, "is_disabled": 0, "is_reserved": 0}, {"lon": -77.03846483333334, "name": "2153d59b176a874081c4d1555fd7ebca", "lat": 38.9033685, "fusion_lon": 0.0, "rental_uris": {"ios": "https://dc.lft.to/lastmile_qr_scan", "android": "https://dc.lft.to/lastmile_qr_scan"}, "bike_id": "2153d59b176a874081c4d1555fd7ebca", "type": "electric_scooter", "fusion_lat": 0.0, "is_disabled": 0, "is_reserved": 0}, {"lon": -77.03859433333334, "name": "15771f81048e41434d25d4dfcb2929cd", "lat": 38.923155666666666, "fusion_lon": 0.0, "rental_uris": {"ios": "https://dc.lft.to/lastmile_qr_scan", "android": "https://dc.lft.to/lastmile_qr_scan"}, "bike_id": "15771f81048e41434d25d4dfcb2929cd", "type": "electric_scooter", "fusion_lat": 0.0, "is_disabled": 0, "is_reserved": 0}, {"lon": -77.009571, "name": "ff5426ad8f17528bea77f89a06ef8899", "lat": 38.914842666666665, "fusion_lon": 0.0, "rental_uris": {"ios": "https://dc.lft.to/lastmile_qr_scan", "android": "https://dc.lft.to/lastmile_qr_scan"}, "bike_id": "ff5426ad8f17528bea77f89a06ef8899", "type": "electric_scooter", "fusion_lat": 0.0, "is_disabled": 0, "is_reserved": 0}, {"lon": -77.03845266666667, "name": "d672132fff5b18be346d205f77e38881", "lat": 38.911495, "fusion_lon": 0.0, "rental_uris": {"ios": "https://dc.lft.to/lastmile_qr_scan", "android": "https://dc.lft.to/lastmile_qr_scan"}, "bike_id": "d672132fff5b18be346d205f77e38881", "type": "electric_scooter", "fusion_lat": 0.0, "is_disabled": 0, "is_reserved": 0}, {"lon": -77.0296995, "name": "0a11285e8aa6f625c7e61147b66544af", "lat": 38.898722666666664, "fusion_lon": 0.0, "rental_uris": {"ios": "https://dc.lft.to/lastmile_qr_scan", "android": "https://dc.lft.to/lastmile_qr_scan"}, "bike_id": "0a11285e8aa6f625c7e61147b66544af", "type": "electric_scooter", "fusion_lat": 0.0, "is_disabled": 0, "is_reserved": 0}, {"lon": -77.04648733333333, "name": "375a5e26e2ae9c186e007788d4ccdc14", "lat": 38.89972, "fusion_lon": 0.0, "rental_uris": {"ios": "https://dc.lft.to/lastmile_qr_scan", "android": "https://dc.lft.to/lastmile_qr_scan"}, "bike_id": "375a5e26e2ae9c186e007788d4ccdc14", "type": "electric_scooter", "fusion_lat": 0.0, "is_disabled": 0, "is_reserved": 0}, {"lon": -77.037845, "name": "a49854925ed42916dd4fd0952f70483b", "lat": 38.996807833333335, "fusion_lon": 0.0, "rental_uris": {"ios": "https://dc.lft.to/lastmile_qr_scan", "android": "https://dc.lft.to/lastmile_qr_scan"}, "bike_id": "a49854925ed42916dd4fd0952f70483b", "type": "electric_bike", "fusion_lat": 0.0, "is_disabled": 0, "is_reserved": 0}, {"lon": -77.05000133333333, "name": "c6d50e7861fc26f0642369123c1afde3", "lat": 38.8923025, "fusion_lon": 0.0, "rental_uris": {"ios": "https://dc.lft.to/lastmile_qr_scan", "android": "https://dc.lft.to/lastmile_qr_scan"}, "bike_id": "c6d50e7861fc26f0642369123c1afde3", "type": "electric_scooter", "fusion_lat": 0.0, "is_disabled": 0, "is_reserved": 0}, {"lon": -77.04214733333333, "name": "8cf02d4b743322a557f4e3400445c2b6", "lat": 38.919677166666666, "fusion_lon": 0.0, "rental_uris": {"ios": "https://dc.lft.to/lastmile_qr_scan", "android": "https://dc.lft.to/lastmile_qr_scan"}, "bike_id": "8cf02d4b743322a557f4e3400445c2b6", "type": "electric_bike", "fusion_lat": 0.0, "is_disabled": 0, "is_reserved": 0}, {"lon": -77.0370535, "name": "06dbcc28082d69308e892e72c8c619a0", "lat": 38.92835316666667, "fusion_lon": 0.0, "rental_uris": {"ios": "https://dc.lft.to/lastmile_qr_scan", "android": "https://dc.lft.to/lastmile_qr_scan"}, "bike_id": "06dbcc28082d69308e892e72c8c619a0", "type": "electric_scooter", "fusion_lat": 0.0, "is_disabled": 0, "is_reserved": 0}, {"lon": -77.0157915, "name": "6f588072cca0c40a3c27f23aeb2b3a10", "lat": 38.9510915, "fusion_lon": 0.0, "rental_uris": {"ios": "https://dc.lft.to/lastmile_qr_scan", "android": "https://dc.lft.to/lastmile_qr_scan"}, "bike_id": "6f588072cca0c40a3c27f23aeb2b3a10", "type": "electric_scooter", "fusion_lat": 0.0, "is_disabled": 0, "is_reserved": 0}, {"lon": -77.03072483333334, "name": "81aa9a2df84a7e653c360f733a87ca5a", "lat": 38.90713816666667, "fusion_lon": 0.0, "rental_uris": {"ios": "https://dc.lft.to/lastmile_qr_scan", "android": "https://dc.lft.to/lastmile_qr_scan"}, "bike_id": "81aa9a2df84a7e653c360f733a87ca5a", "type": "electric_scooter", "fusion_lat": 0.0, "is_disabled": 0, "is_reserved": 0}, {"lon": -77.08964016666667, "name": "d91e04d5e7cb178bbdf92a6d5789bce1", "lat": 38.93451616666667, "fusion_lon": 0.0, "rental_uris": {"ios": "https://dc.lft.to/lastmile_qr_scan", "android": "https://dc.lft.to/lastmile_qr_scan"}, "bike_id": "d91e04d5e7cb178bbdf92a6d5789bce1", "type": "electric_scooter", "fusion_lat": 0.0, "is_disabled": 0, "is_reserved": 0}, {"lon": -77.02721616666666, "name": "362a0235bf15cca92c84bd5625cdc690", "lat": 38.896225333333334, "fusion_lon": 0.0, "rental_uris": {"ios": "https://dc.lft.to/lastmile_qr_scan", "android": "https://dc.lft.to/lastmile_qr_scan"}, "bike_id": "362a0235bf15cca92c84bd5625cdc690", "type": "electric_scooter", "fusion_lat": 0.0, "is_disabled": 0, "is_reserved": 0}, {"lon": -77.0021635, "name": "1bb937c35b7d049ec30e5d318b65ee5e", "lat": 38.908216, "fusion_lon": 0.0, "rental_uris": {"ios": "https://dc.lft.to/lastmile_qr_scan", "android": "https://dc.lft.to/lastmile_qr_scan"}, "bike_id": "1bb937c35b7d049ec30e5d318b65ee5e", "type": "electric_scooter", "fusion_lat": 0.0, "is_disabled": 0, "is_reserved": 0}, {"lon": -77.04658133333334, "name": "458ceb84ffb514ecdd01766550ff7ce4", "lat": 38.90017616666667, "fusion_lon": 0.0, "rental_uris": {"ios": "https://dc.lft.to/lastmile_qr_scan", "android": "https://dc.lft.to/lastmile_qr_scan"}, "bike_id": "458ceb84ffb514ecdd01766550ff7ce4", "type": "electric_scooter", "fusion_lat": 0.0, "is_disabled": 0, "is_reserved": 0}, {"lon": -77.04201066666667, "name": "9445ec1e85f81e5f585ca06b71fa6ce0", "lat": 38.89267066666667, "fusion_lon": 0.0, "rental_uris": {"ios": "https://dc.lft.to/lastmile_qr_scan", "android": "https://dc.lft.to/lastmile_qr_scan"}, "bike_id": "9445ec1e85f81e5f585ca06b71fa6ce0", "type": "electric_scooter", "fusion_lat": 0.0, "is_disabled": 0, "is_reserved": 0}, {"lon": -77.034075, "name": "9735cbae213104454ff7f0bac5c7a7b3", "lat": 38.92439783333333, "fusion_lon": 0.0, "rental_uris": {"ios": "https://dc.lft.to/lastmile_qr_scan", "android": "https://dc.lft.to/lastmile_qr_scan"}, "bike_id": "9735cbae213104454ff7f0bac5c7a7b3", "type": "electric_scooter", "fusion_lat": 0.0, "is_disabled": 0, "is_reserved": 0}, {"lon": -77.0249135, "name": "df6f415e4f97507e17b75f16eca95387", "lat": 38.9391185, "fusion_lon": 0.0, "rental_uris": {"ios": "https://dc.lft.to/lastmile_qr_scan", "android": "https://dc.lft.to/lastmile_qr_scan"}, "bike_id": "df6f415e4f97507e17b75f16eca95387", "type": "electric_scooter", "fusion_lat": 0.0, "is_disabled": 0, "is_reserved": 0}, {"lon": -77.01185816666667, "name": "8302fe7d8bbe0464ae54c6bdd8b1c83e", "lat": 38.90026016666667, "fusion_lon": 0.0, "rental_uris": {"ios": "https://dc.lft.to/lastmile_qr_scan", "android": "https://dc.lft.to/lastmile_qr_scan"}, "bike_id": "8302fe7d8bbe0464ae54c6bdd8b1c83e", "type": "electric_scooter", "fusion_lat": 0.0, "is_disabled": 0, "is_reserved": 0}, {"lon": -77.02326016666666, "name": "40a38a452781af28ef3c7fd67e212ab5", "lat": 38.91947666666667, "fusion_lon": 0.0, "rental_uris": {"ios": "https://dc.lft.to/lastmile_qr_scan", "android": "https://dc.lft.to/lastmile_qr_scan"}, "bike_id": "40a38a452781af28ef3c7fd67e212ab5", "type": "electric_scooter", "fusion_lat": 0.0, "is_disabled": 0, "is_reserved": 0}, {"lon": -76.98490616666666, "name": "46cd01fa6947c79ed7c8d7c81892944a", "lat": 38.910054, "fusion_lon": 0.0, "rental_uris": {"ios": "https://dc.lft.to/lastmile_qr_scan", "android": "https://dc.lft.to/lastmile_qr_scan"}, "bike_id": "46cd01fa6947c79ed7c8d7c81892944a", "type": "electric_scooter", "fusion_lat": 0.0, "is_disabled": 0, "is_reserved": 0}, {"lon": -76.99149733333333, "name": "53d049399fcd6d89e15179e9e1c6346c", "lat": 38.90053783333333, "fusion_lon": 0.0, "rental_uris": {"ios": "https://dc.lft.to/lastmile_qr_scan", "android": "https://dc.lft.to/lastmile_qr_scan"}, "bike_id": "53d049399fcd6d89e15179e9e1c6346c", "type": "electric_scooter", "fusion_lat": 0.0, "is_disabled": 0, "is_reserved": 0}, {"lon": -77.03198616666667, "name": "981fa33e2b51a25d935a88ea58fab563", "lat": 38.910755, "fusion_lon": 0.0, "rental_uris": {"ios": "https://dc.lft.to/lastmile_qr_scan", "android": "https://dc.lft.to/lastmile_qr_scan"}, "bike_id": "981fa33e2b51a25d935a88ea58fab563", "type": "electric_scooter", "fusion_lat": 0.0, "is_disabled": 0, "is_reserved": 0}, {"lon": -76.94529266666666, "name": "ccf7ce2fe723db378fd900bea8ef1473", "lat": 38.862879, "fusion_lon": 0.0, "rental_uris": {"ios": "https://dc.lft.to/lastmile_qr_scan", "android": "https://dc.lft.to/lastmile_qr_scan"}, "bike_id": "ccf7ce2fe723db378fd900bea8ef1473", "type": "electric_bike", "fusion_lat": 0.0, "is_disabled": 0, "is_reserved": 0}, {"lon": -77.0250455, "name": "23f3cbf40ad6071b87ede2b3bf628a8e", "lat": 38.9192955, "fusion_lon": 0.0, "rental_uris": {"ios": "https://dc.lft.to/lastmile_qr_scan", "android": "https://dc.lft.to/lastmile_qr_scan"}, "bike_id": "23f3cbf40ad6071b87ede2b3bf628a8e", "type": "electric_scooter", "fusion_lat": 0.0, "is_disabled": 0, "is_reserved": 0}, {"lon": -77.04831466666667, "name": "0a96c778bfa60e09f944ed24788b82e4", "lat": 38.90069183333333, "fusion_lon": 0.0, "rental_uris": {"ios": "https://dc.lft.to/lastmile_qr_scan", "android": "https://dc.lft.to/lastmile_qr_scan"}, "bike_id": "0a96c778bfa60e09f944ed24788b82e4", "type": "electric_scooter", "fusion_lat": 0.0, "is_disabled": 0, "is_reserved": 0}, {"lon": -77.02953666666667, "name": "75977b734a4f48ca527e4a8cbe12652d", "lat": 38.90507083333333, "fusion_lon": 0.0, "rental_uris": {"ios": "https://dc.lft.to/lastmile_qr_scan", "android": "https://dc.lft.to/lastmile_qr_scan"}, "bike_id": "75977b734a4f48ca527e4a8cbe12652d", "type": "electric_scooter", "fusion_lat": 0.0, "is_disabled": 0, "is_reserved": 0}, {"lon": -77.02716166666667, "name": "047c3439c2974d7845d814d77ff8fdb2", "lat": 38.90672433333334, "fusion_lon": 0.0, "rental_uris": {"ios": "https://dc.lft.to/lastmile_qr_scan", "android": "https://dc.lft.to/lastmile_qr_scan"}, "bike_id": "047c3439c2974d7845d814d77ff8fdb2", "type": "electric_scooter", "fusion_lat": 0.0, "is_disabled": 0, "is_reserved": 0}, {"lon": -77.04651983333333, "name": "79f34399fcec3241e97ff1b6bca15c3a", "lat": 38.915821, "fusion_lon": 0.0, "rental_uris": {"ios": "https://dc.lft.to/lastmile_qr_scan", "android": "https://dc.lft.to/lastmile_qr_scan"}, "bike_id": "79f34399fcec3241e97ff1b6bca15c3a", "type": "electric_scooter", "fusion_lat": 0.0, "is_disabled": 0, "is_reserved": 0}, {"lon": -77.02404083333333, "name": "f4a2c9c0d68af4f85752f8952775feaf", "lat": 38.8992055, "fusion_lon": 0.0, "rental_uris": {"ios": "https://dc.lft.to/lastmile_qr_scan", "android": "https://dc.lft.to/lastmile_qr_scan"}, "bike_id": "f4a2c9c0d68af4f85752f8952775feaf", "type": "electric_scooter", "fusion_lat": 0.0, "is_disabled": 0, "is_reserved": 0}, {"lon": -77.02412883333334, "name": "081a9c8028adfd0c2f41a60ade40acd0", "lat": 38.89665383333333, "fusion_lon": 0.0, "rental_uris": {"ios": "https://dc.lft.to/lastmile_qr_scan", "android": "https://dc.lft.to/lastmile_qr_scan"}, "bike_id": "081a9c8028adfd0c2f41a60ade40acd0", "type": "electric_scooter", "fusion_lat": 0.0, "is_disabled": 0, "is_reserved": 0}, {"lon": -76.9608055, "name": "8589b04e4a626118ab821485851e7e8d", "lat": 38.92706066666667, "fusion_lon": 0.0, "rental_uris": {"ios": "https://dc.lft.to/lastmile_qr_scan", "android": "https://dc.lft.to/lastmile_qr_scan"}, "bike_id": "8589b04e4a626118ab821485851e7e8d", "type": "electric_scooter", "fusion_lat": 0.0, "is_disabled": 0, "is_reserved": 0}, {"lon": -76.92669266666667, "name": "2dd48fb26c20e2e1e27b3ba5b891352b", "lat": 38.89544383333333, "fusion_lon": 0.0, "rental_uris": {"ios": "https://dc.lft.to/lastmile_qr_scan", "android": "https://dc.lft.to/lastmile_qr_scan"}, "bike_id": "2dd48fb26c20e2e1e27b3ba5b891352b", "type": "electric_scooter", "fusion_lat": 0.0, "is_disabled": 0, "is_reserved": 0}, {"lon": -77.02533366666667, "name": "46b114e52b272127f72dc077190e32e1", "lat": 38.91819433333333, "fusion_lon": 0.0, "rental_uris": {"ios": "https://dc.lft.to/lastmile_qr_scan", "android": "https://dc.lft.to/lastmile_qr_scan"}, "bike_id": "46b114e52b272127f72dc077190e32e1", "type": "electric_scooter", "fusion_lat": 0.0, "is_disabled": 0, "is_reserved": 0}, {"lon": -76.99881, "name": "85fa493aed834209a09794caa7ec16dc", "lat": 38.89213016666667, "fusion_lon": 0.0, "rental_uris": {"ios": "https://dc.lft.to/lastmile_qr_scan", "android": "https://dc.lft.to/lastmile_qr_scan"}, "bike_id": "85fa493aed834209a09794caa7ec16dc", "type": "electric_bike", "fusion_lat": 0.0, "is_disabled": 0, "is_reserved": 0}, {"lon": -77.02404283333334, "name": "03be936308a590bb3e7bc7a549496b5a", "lat": 38.8982215, "fusion_lon": 0.0, "rental_uris": {"ios": "https://dc.lft.to/lastmile_qr_scan", "android": "https://dc.lft.to/lastmile_qr_scan"}, "bike_id": "03be936308a590bb3e7bc7a549496b5a", "type": "electric_scooter", "fusion_lat": 0.0, "is_disabled": 0, "is_reserved": 0}, {"lon": -77.01233116666667, "name": "13ad92bb76a148f2ba6fbac4ed01de6f", "lat": 38.87527583333333, "fusion_lon": 0.0, "rental_uris": {"ios": "https://dc.lft.to/lastmile_qr_scan", "android": "https://dc.lft.to/lastmile_qr_scan"}, "bike_id": "13ad92bb76a148f2ba6fbac4ed01de6f", "type": "electric_scooter", "fusion_lat": 0.0, "is_disabled": 0, "is_reserved": 0}, {"lon": -77.02080116666667, "name": "77b129e20db1342027656d5b26a0d32a", "lat": 38.9491395, "fusion_lon": 0.0, "rental_uris": {"ios": "https://dc.lft.to/lastmile_qr_scan", "android": "https://dc.lft.to/lastmile_qr_scan"}, "bike_id": "77b129e20db1342027656d5b26a0d32a", "type": "electric_scooter", "fusion_lat": 0.0, "is_disabled": 0, "is_reserved": 0}, {"lon": -77.01865016666666, "name": "e4c1cfc9ce53413e7588b8111df53f7f", "lat": 38.902685, "fusion_lon": 0.0, "rental_uris": {"ios": "https://dc.lft.to/lastmile_qr_scan", "android": "https://dc.lft.to/lastmile_qr_scan"}, "bike_id": "e4c1cfc9ce53413e7588b8111df53f7f", "type": "electric_scooter", "fusion_lat": 0.0, "is_disabled": 0, "is_reserved": 0}, {"lon": -77.039775, "name": "9579fa1868406f1ba22a1794ce56e106", "lat": 38.903223, "fusion_lon": 0.0, "rental_uris": {"ios": "https://dc.lft.to/lastmile_qr_scan", "android": "https://dc.lft.to/lastmile_qr_scan"}, "bike_id": "9579fa1868406f1ba22a1794ce56e106", "type": "electric_scooter", "fusion_lat": 0.0, "is_disabled": 0, "is_reserved": 0}, {"lon": -77.0119225, "name": "3565758d7fdf438bd048c8772592a558", "lat": 38.900272666666666, "fusion_lon": 0.0, "rental_uris": {"ios": "https://dc.lft.to/lastmile_qr_scan", "android": "https://dc.lft.to/lastmile_qr_scan"}, "bike_id": "3565758d7fdf438bd048c8772592a558", "type": "electric_scooter", "fusion_lat": 0.0, "is_disabled": 0, "is_reserved": 0}, {"lon": -77.038044, "name": "5a108ec5c2f85f887d7ea55a784350fc", "lat": 38.916988833333335, "fusion_lon": 0.0, "rental_uris": {"ios": "https://dc.lft.to/lastmile_qr_scan", "android": "https://dc.lft.to/lastmile_qr_scan"}, "bike_id": "5a108ec5c2f85f887d7ea55a784350fc", "type": "electric_scooter", "fusion_lat": 0.0, "is_disabled": 0, "is_reserved": 0}, {"lon": -77.01788633333334, "name": "bdad135093ef3a46ea020157233b5f07", "lat": 38.91995633333333, "fusion_lon": 0.0, "rental_uris": {"ios": "https://dc.lft.to/lastmile_qr_scan", "android": "https://dc.lft.to/lastmile_qr_scan"}, "bike_id": "bdad135093ef3a46ea020157233b5f07", "type": "electric_scooter", "fusion_lat": 0.0, "is_disabled": 0, "is_reserved": 0}, {"lon": -77.0288055, "name": "b1a699e746bf7814be5d537710204622", "lat": 38.9730185, "fusion_lon": 0.0, "rental_uris": {"ios": "https://dc.lft.to/lastmile_qr_scan", "android": "https://dc.lft.to/lastmile_qr_scan"}, "bike_id": "b1a699e746bf7814be5d537710204622", "type": "electric_bike", "fusion_lat": 0.0, "is_disabled": 0, "is_reserved": 0}, {"lon": -77.0200285, "name": "a017c99b46482f3ac2e5422efe28e417", "lat": 38.885879, "fusion_lon": 0.0, "rental_uris": {"ios": "https://dc.lft.to/lastmile_qr_scan", "android": "https://dc.lft.to/lastmile_qr_scan"}, "bike_id": "a017c99b46482f3ac2e5422efe28e417", "type": "electric_scooter", "fusion_lat": 0.0, "is_disabled": 0, "is_reserved": 0}, {"lon": -77.04249416666667, "name": "7f1912605816ded5717b55787cc0e368", "lat": 38.92218866666666, "fusion_lon": 0.0, "rental_uris": {"ios": "https://dc.lft.to/lastmile_qr_scan", "android": "https://dc.lft.to/lastmile_qr_scan"}, "bike_id": "7f1912605816ded5717b55787cc0e368", "type": "electric_scooter", "fusion_lat": 0.0, "is_disabled": 0, "is_reserved": 0},