{"data": {"bikes": [{"fusion_lon": 0.0, "bike_id": "380b85aaf7194b3cf7b4e5ea9fb5d869", "name": "380b85aaf7194b3cf7b4e5ea9fb5d869", "type": "electric_scooter", "lon": -76.94883866666666, "rental_uris": {"android": "https://dc.lft.to/lastmile_qr_scan", "ios": "https://dc.lft.to/lastmile_qr_scan"}, "lat": 38.895114166666666, "is_reserved": 0, "is_disabled": 0, "fusion_lat": 0.0}, {"fusion_lon": 0.0, "bike_id": "1db16fcbed9e0a5d86f7bb6250053aaa", "name": "1db16fcbed9e0a5d86f7bb6250053aaa", "type": "electric_scooter", "lon": -77.00279733333333, "rental_uris": {"android": "https://dc.lft.to/lastmile_qr_scan", "ios": "https://dc.lft.to/lastmile_qr_scan"}, "lat": 38.93921116666667, "is_reserved": 0, "is_disabled": 0, "fusion_lat": 0.0}, {"fusion_lon": 0.0, "bike_id": "cfdf7c02aab424af4ab57ca4290ff274", "name": "cfdf7c02aab424af4ab57ca4290ff274", "type": "electric_scooter", "lon": -77.01478316666666, "rental_uris": {"android": "https://dc.lft.to/lastmile_qr_scan", "ios": "https://dc.lft.to/lastmile_qr_scan"}, "lat": 38.87628216666667, "is_reserved": 0, "is_disabled": 0, "fusion_lat": 0.0}, {"fusion_lon": 0.0, "bike_id": "54ccb2ae8434a5167c392f79f815b31e", "name": "54ccb2ae8434a5167c392f79f815b31e", "type": "electric_scooter", "lon": -77.00509516666666, "rental_uris": {"android": "https://dc.lft.to/lastmile_qr_scan", "ios": "https://dc.lft.to/lastmile_qr_scan"}, "lat": 38.874675833333335, "is_reserved": 0, "is_disabled": 0, "fusion_lat": 0.0}, {"fusion_lon": 0.0, "bike_id": "c563eec13504ba9bec3c7206767e56fa", "name": "c563eec13504ba9bec3c7206767e56fa", "type": "electric_scooter", "lon": -77.04705933333334, "rental_uris": {"android": "https://dc.lft.to/lastmile_qr_scan", "ios": "https://dc.lft.to/lastmile_qr_scan"}, "lat": 38.9126655, "is_reserved": 0, "is_disabled": 0, "fusion_lat": 0.0}, {"fusion_lon": 0.0, "bike_id": "4834f1bf707a64129a3e4068666ff6f1", "name": "4834f1bf707a64129a3e4068666ff6f1", "type": "electric_scooter", "lon": -77.01439683333334, "rental_uris": {"android": "https://dc.lft.to/lastmile_qr_scan", "ios": "https://dc.lft.to/lastmile_qr_scan"}, "lat": 38.9125175, "is_reserved": 0, "is_disabled": 0, "fusion_lat": 0.0}, {"fusion_lon": 0.0, "bike_id": "a5240053380ed864a66c56d0a0bf7d2e", "name": "a5240053380ed864a66c56d0a0bf7d2e", "type": "electric_scooter", "lon": -76.993821, "rental_uris": {"android": "https://dc.lft.to/lastmile_qr_scan", "ios": "https://dc.lft.to/lastmile_qr_scan"}, "lat": 38.920998, "is_reserved": 0, "is_disabled": 0, "fusion_lat": 0.0}, {"fusion_lon": 0.0, "bike_id": "c1356c274dccda3c4c277536413ae184", "name": "c1356c274dccda3c4c277536413ae184", "type": "electric_scooter", "lon": -76.98845633333333, "rental_uris": {"android": "https://dc.lft.to/lastmile_qr_scan", "ios": "https://dc.lft.to/lastmile_qr_scan"}, "lat": 38.90027966666667, "is_reserved": 0, "is_disabled": 0, "fusion_lat": 0.0}, {"fusion_lon": 0.0, "bike_id": "0805497a4935e7eab5992046b964091b", "name": "0805497a4935e7eab5992046b964091b", "type": "electric_scooter", "lon": -77.04231716666666, "rental_uris": {"android": "https://dc.lft.to/lastmile_qr_scan", "ios": "https://dc.lft.to/lastmile_qr_scan"}, "lat": 38.92174116666666, "is_reserved": 0, "is_disabled": 0, "fusion_lat": 0.0}, {"fusion_lon": 0.0, "bike_id": "b718f638fab9b0a295fabb8b8ded76b3", "name": "b718f638fab9b0a295fabb8b8ded76b3", "type": "electric_scooter", "lon": -77.02396183333333, "rental_uris": {"android": "https://dc.lft.to/lastmile_qr_scan", "ios": "https://dc.lft.to/lastmile_qr_scan"}, "lat": 38.905839666666665, "is_reserved": 0, "is_disabled": 0, "fusion_lat": 0.0}, {"fusion_lon": 0.0, "bike_id": "209b57417348890066d573854f64753b", "name": "209b57417348890066d573854f64753b", "type": "electric_scooter", "lon": -77.04148966666666, "rental_uris": {"android": "https://dc.lft.to/lastmile_qr_scan", "ios": "https://dc.lft.to/lastmile_qr_scan"}, "lat": 38.917883, "is_reserved": 0, "is_disabled": 0, "fusion_lat": 0.0}, {"fusion_lon": 0.0, "bike_id": "48bb961982b4ffc20e7253a8cbf298e5", "name": "48bb961982b4ffc20e7253a8cbf298e5", "type": "electric_scooter", "lon": -77.027079, "rental_uris": {"android": "https://dc.lft.to/lastmile_qr_scan", "ios": "https://dc.lft.to/lastmile_qr_scan"}, "lat": 38.90978466666667, "is_reserved": 0, "is_disabled": 0, "fusion_lat": 0.0}, {"fusion_lon": 0.0, "bike_id": "2e6d9e828922ac4e1119b5090e6b4762", "name": "2e6d9e828922ac4e1119b5090e6b4762", "type": "electric_scooter", "lon": -76.98554366666667, "rental_uris": {"android": "https://dc.lft.to/lastmile_qr_scan", "ios": "https://dc.lft.to/lastmile_qr_scan"}, "lat": 38.900396666666666, "is_reserved": 0, "is_disabled": 0, "fusion_lat": 0.0}, {"fusion_lon": 0.0, "bike_id": "70e5fc78a4ff7023a352dab1d78096a2", "name": "70e5fc78a4ff7023a352dab1d78096a2", "type": "electric_scooter", "lon": -77.00076633333333, "rental_uris": {"android": "https://dc.lft.to/lastmile_qr_scan", "ios": "https://dc.lft.to/lastmile_qr_scan"}, "lat": 38.919607666666664, "is_reserved": 0, "is_disabled": 0, "fusion_lat": 0.0}, {"fusion_lon": 0.0, "bike_id": "cf29667e7242e7b19f0e498f7248edec", "name": "cf29667e7242e7b19f0e498f7248edec", "type": "electric_scooter", "lon": -76.9965505, "rental_uris": {"android": "https://dc.lft.to/lastmile_qr_scan", "ios": "https://dc.lft.to/lastmile_qr_scan"}, "lat": 38.932222, "is_reserved": 0, "is_disabled": 0, "fusion_lat": 0.0}, {"fusion_lon": 0.0, "bike_id": "5ab69042e2fe2cd45b51f568a3b5c47c", "name": "5ab69042e2fe2cd45b51f568a3b5c47c", "type": "electric_scooter", "lon": -77.02813016666667, "rental_uris": {"android": "https://dc.lft.to/lastmile_qr_scan", "ios": "https://dc.lft.to/lastmile_qr_scan"}, "lat": 38.91631, "is_reserved": 0, "is_disabled": 0, "fusion_lat": 0.0}, {"fusion_lon": 0.0, "bike_id": "3d5de9d4ec44ed9238bb76785424277d", "name": "3d5de9d4ec44ed9238bb76785424277d", "type": "electric_scooter", "lon": -77.010105, "rental_uris": {"android": "https://dc.lft.to/lastmile_qr_scan", "ios": "https://dc.lft.to/lastmile_qr_scan"}, "lat": 38.879665833333334, "is_reserved": 0, "is_disabled": 0, "fusion_lat": 0.0}, {"fusion_lon": 0.0, "bike_id": "c6ea5f04ea2532a7f862b532867ec74c", "name": "c6ea5f04ea2532a7f862b532867ec74c", "type": "electric_scooter", "lon": -77.00737383333333, "rental_uris": {"android": "https://dc.lft.to/lastmile_qr_scan", "ios": "https://dc.lft.to/lastmile_qr_scan"}, "lat": 38.87685416666667, "is_reserved": 0, "is_disabled": 0, "fusion_lat": 0.0}, {"fusion_lon": 0.0, "bike_id": "c8e33990903dcafc9b90f60ef054be36", "name": "c8e33990903dcafc9b90f60ef054be36", "type": "electric_scooter", "lon": -76.99056183333333, "rental_uris": {"android": "https://dc.lft.to/lastmile_qr_scan", "ios": "https://dc.lft.to/lastmile_qr_scan"}, "lat": 38.8636285, "is_reserved": 0, "is_disabled": 0, "fusion_lat": 0.0}, {"fusion_lon": 0.0, "bike_id": "dd5f1869d2bbe9356135b89d176f8779", "name": "dd5f1869d2bbe9356135b89d176f8779", "type": "electric_scooter", "lon": -76.99351933333334, "rental_uris": {"android": "https://dc.lft.to/lastmile_qr_scan", "ios": "https://dc.lft.to/lastmile_qr_scan"}, "lat": 38.896107666666666, "is_reserved": 0, "is_disabled": 0, "fusion_lat": 0.0}, {"fusion_lon": 0.0, "bike_id": "b3757373d2d3c88d8d329443f2d7fa81", "name": "b3757373d2d3c88d8d329443f2d7fa81", "type": "electric_scooter", "lon": -77.03378633333334, "rental_uris": {"android": "https://dc.lft.to/lastmile_qr_scan", "ios": "https://dc.lft.to/lastmile_qr_scan"}, "lat": 38.90966316666667, "is_reserved": 0, "is_disabled": 0, "fusion_lat": 0.0}, {"fusion_lon": 0.0, "bike_id": "77dfcdf597458925323aa91779370b97", "name": "77dfcdf597458925323aa91779370b97", "type": "electric_scooter", "lon": -77.0274195, "rental_uris": {"android": "https://dc.lft.to/lastmile_qr_scan", "ios": "https://dc.lft.to/lastmile_qr_scan"}, "lat": 38.932013, "is_reserved": 0, "is_disabled": 0, "fusion_lat": 0.0}, {"fusion_lon": 0.0, "bike_id": "9109ab01d62f67959bc6795c149604e5", "name": "9109ab01d62f67959bc6795c149604e5", "type": "electric_scooter", "lon": -77.0511755, "rental_uris": {"android": "https://dc.lft.to/lastmile_qr_scan", "ios": "https://dc.lft.to/lastmile_qr_scan"}, "lat": 38.923448666666665, "is_reserved": 0, "is_disabled": 0, "fusion_lat": 0.0}, {"fusion_lon": 0.0, "bike_id": "9c4cdfa16d73787eac6a3f40270b756f", "name": "9c4cdfa16d73787eac6a3f40270b756f", "type": "electric_scooter", "lon": -77.051622, "rental_uris": {"android": "https://dc.lft.to/lastmile_qr_scan", "ios": "https://dc.lft.to/lastmile_qr_scan"}, "lat": 38.9008245, "is_reserved": 0, "is_disabled": 0, "fusion_lat": 0.0}, {"fusion_lon": 0.0, "bike_id": "93882ce23cb369eaeea4c021d27b165c", "name": "93882ce23cb369eaeea4c021d27b165c", "type": "electric_scooter", "lon": -76.94473133333334, "rental_uris": {"android": "https://dc.lft.to/lastmile_qr_scan", "ios": "https://dc.lft.to/lastmile_qr_scan"}, "lat": 38.90283816666667, "is_reserved": 0, "is_disabled": 0, "fusion_lat": 0.0}, {"fusion_lon": 0.0, "bike_id": "15a82bda5f7165a0ca56b11518ea0733", "name": "15a82bda5f7165a0ca56b11518ea0733", "type": "electric_scooter", "lon": -76.994122, "rental_uris": {"android": "https://dc.lft.to/lastmile_qr_scan", "ios": "https://dc.lft.to/lastmile_qr_scan"}, "lat": 38.933084666666666, "is_reserved": 0, "is_disabled": 0, "fusion_lat": 0.0}, {"fusion_lon": 0.0, "bike_id": "f9812f8f3996c8102b80e5706df9606c", "name": "f9812f8f3996c8102b80e5706df9606c", "type": "electric_scooter", "lon": -77.041361, "rental_uris": {"android": "https://dc.lft.to/lastmile_qr_scan", "ios": "https://dc.lft.to/lastmile_qr_scan"}, "lat": 38.9168255, "is_reserved": 0, "is_disabled": 0, "fusion_lat": 0.0}, {"fusion_lon": 0.0, "bike_id": "db17c1d1004b80c0358a4cd3991e7317", "name": "db17c1d1004b80c0358a4cd3991e7317", "type": "electric_scooter", "lon": -77.0260235, "rental_uris": {"android": "https://dc.lft.to/lastmile_qr_scan", "ios": "https://dc.lft.to/lastmile_qr_scan"}, "lat": 38.91426766666667, "is_reserved": 0, "is_disabled": 0, "fusion_lat": 0.0}, {"fusion_lon": 0.0, "bike_id": "09ef4f3c307dc067b7d81b98eb2693ec", "name": "09ef4f3c307dc067b7d81b98eb2693ec", "type": "electric_scooter", "lon": -77.02160783333333, "rental_uris": {"android": "https://dc.lft.to/lastmile_qr_scan", "ios": "https://dc.lft.to/lastmile_qr_scan"}, "lat": 38.899898666666665, "is_reserved": 0, "is_disabled": 0, "fusion_lat": 0.0}, {"fusion_lon": 0.0, "bike_id": "9bde2926413e372b46b2205d3d9ea907", "name": "9bde2926413e372b46b2205d3d9ea907", "type": "electric_scooter", "lon": -77.05077833333333, "rental_uris": {"android": "https://dc.lft.to/lastmile_qr_scan", "ios": "https://dc.lft.to/lastmile_qr_scan"}, "lat": 38.900863, "is_reserved": 0, "is_disabled": 0, "fusion_lat": 0.0}, {"fusion_lon": 0.0, "bike_id": "c598799ac61d4bc175b21cded6c35371", "name": "c598799ac61d4bc175b21cded6c35371", "type": "electric_bike", "lon": -76.92914016666667, "rental_uris": {"android": "https://dc.lft.to/lastmile_qr_scan", "ios": "https://dc.lft.to/lastmile_qr_scan"}, "lat": 38.98025833333333, "is_reserved": 0, "is_disabled": 0, "fusion_lat": 0.0}, {"fusion_lon": 0.0, "bike_id": "8b167f6b697f975c15a6b4c9df28a668", "name": "8b167f6b697f975c15a6b4c9df28a668", "type": "electric_scooter", "lon": -77.03433566666666, "rental_uris": {"android": "https://dc.lft.to/lastmile_qr_scan", "ios": "https://dc.lft.to/lastmile_qr_scan"}, "lat": 38.910327833333334, "is_reserved": 0, "is_disabled": 0, "fusion_lat": 0.0}, {"fusion_lon": 0.0, "bike_id": "7fddb54e47ee4692d1a1214d7b3104ab", "name": "7fddb54e47ee4692d1a1214d7b3104ab", "type": "electric_scooter", "lon": -77.024863, "rental_uris": {"android": "https://dc.lft.to/lastmile_qr_scan", "ios": "https://dc.lft.to/lastmile_qr_scan"}, "lat": 38.917497166666664, "is_reserved": 0, "is_disabled": 0, "fusion_lat": 0.0}, {"fusion_lon": 0.0, "bike_id": "5e95607d0a6c6818014ad17dede76c3b", "name": "5e95607d0a6c6818014ad17dede76c3b", "type": "electric_scooter", "lon": -77.02487683333334, "rental_uris": {"android": "https://dc.lft.to/lastmile_qr_scan", "ios": "https://dc.lft.to/lastmile_qr_scan"}, "lat": 38.94182166666667, "is_reserved": 0, "is_disabled": 0, "fusion_lat": 0.0}, {"fusion_lon": 0.0, "bike_id": "29612f33a4259f3a16ce3686e08c5d11", "name": "29612f33a4259f3a16ce3686e08c5d11", "type": "electric_scooter", "lon": -77.0431035, "rental_uris": {"android": "https://dc.lft.to/lastmile_qr_scan", "ios": "https://dc.lft.to/lastmile_qr_scan"}, "lat": 38.9187835, "is_reserved": 0, "is_disabled": 0, "fusion_lat": 0.0}, {"fusion_lon": 0.0, "bike_id": "e9b19c03a960cf55a9eeeebf8ab74270", "name": "e9b19c03a960cf55a9eeeebf8ab74270", "type": "electric_scooter", "lon": -77.0578945, "rental_uris": {"android": "https://dc.lft.to/lastmile_qr_scan", "ios": "https://dc.lft.to/lastmile_qr_scan"}, "lat": 38.93474766666667, "is_reserved": 0, "is_disabled": 0, "fusion_lat": 0.0}, {"fusion_lon": 0.0, "bike_id": "51b412877591ddadba830b2a7921251a", "name": "51b412877591ddadba830b2a7921251a", "type": "electric_scooter", "lon": -76.998069, "rental_uris": {"android": "https://dc.lft.to/lastmile_qr_scan", "ios": "https://dc.lft.to/lastmile_qr_scan"}, "lat": 38.876682333333335, "is_reserved": 0, "is_disabled": 0, "fusion_lat": 0.0}, {"fusion_lon": 0.0, "bike_id": "9276c1d590eb2bb195b8fc21cace5aa9", "name": "9276c1d590eb2bb195b8fc21cace5aa9", "type": "electric_scooter", "lon": -76.94633366666666, "rental_uris": {"android": "https://dc.lft.to/lastmile_qr_scan", "ios": "https://dc.lft.to/lastmile_qr_scan"}, "lat": 38.898428, "is_reserved": 0, "is_disabled": 0, "fusion_lat": 0.0}, {"fusion_lon": 0.0, "bike_id": "48b73486d059ae9fd82e509ddd7a7c6c", "name": "48b73486d059ae9fd82e509ddd7a7c6c", "type": "electric_scooter", "lon": -77.00286816666667, "rental_uris": {"android": "https://dc.lft.to/lastmile_qr_scan", "ios": "https://dc.lft.to/lastmile_qr_scan"}, "lat": 38.9089755, "is_reserved": 0, "is_disabled": 0, "fusion_lat": 0.0}, {"fusion_lon": 0.0, "bike_id": "9b1dad40d4aa246f865aef17ca3c7f97", "name": "9b1dad40d4aa246f865aef17ca3c7f97", "type": "electric_scooter", "lon": -76.9944705, "rental_uris": {"android": "https://dc.lft.to/lastmile_qr_scan", "ios": "https://dc.lft.to/lastmile_qr_scan"}, "lat": 38.90510666666667, "is_reserved": 0, "is_disabled": 0, "fusion_lat": 0.0}, {"fusion_lon": 0.0, "bike_id": "5af52b74689389f8937bffdbd1c681ba", "name": "5af52b74689389f8937bffdbd1c681ba", "type": "electric_scooter", "lon": -76.95512566666666, "rental_uris": {"android": "https://dc.lft.to/lastmile_qr_scan", "ios": "https://dc.lft.to/lastmile_qr_scan"}, "lat": 38.8905275, "is_reserved": 0, "is_disabled": 0, "fusion_lat": 0.0}, {"fusion_lon": 0.0, "bike_id": "8d847371719d9db538f0bc9358f76200", "name": "8d847371719d9db538f0bc9358f76200", "type": "electric_scooter", "lon": -77.04482716666666, "rental_uris": {"android": "https://dc.lft.to/lastmile_qr_scan", "ios": "https://dc.lft.to/lastmile_qr_scan"}, "lat": 38.906566166666664, "is_reserved": 0, "is_disabled": 0, "fusion_lat": 0.0}, {"fusion_lon": 0.0, "bike_id": "327545b4d73cb7f898716d0db550a992", "name": "327545b4d73cb7f898716d0db550a992", "type": "electric_scooter", "lon": -77.03296883333333, "rental_uris": {"android": "https://dc.lft.to/lastmile_qr_scan", "ios": "https://dc.lft.to/lastmile_qr_scan"}, "lat": 38.91116483333333, "is_reserved": 0, "is_disabled": 0, "fusion_lat": 0.0}, {"fusion_lon": 0.0, "bike_id": "ce57b44bc99613ed5f9fb159b68815d9", "name": "ce57b44bc99613ed5f9fb159b68815d9", "type": "electric_scooter", "lon": -77.04157183333334, "rental_uris": {"android": "https://dc.lft.to/lastmile_qr_scan", "ios": "https://dc.lft.to/lastmile_qr_scan"}, "lat": 38.91335333333333, "is_reserved": 0, "is_disabled": 0, "fusion_lat": 0.0}, {"fusion_lon": 0.0, "bike_id": "385c59529270d3c0e91c19b6287ef1a9", "name": "385c59529270d3c0e91c19b6287ef1a9", "type": "electric_scooter", "lon": -77.01566933333334, "rental_uris": {"android": "https://dc.lft.to/lastmile_qr_scan", "ios": "https://dc.lft.to/lastmile_qr_scan"}, "lat": 38.87257116666667, "is_reserved": 0, "is_disabled": 0, "fusion_lat": 0.0}, {"fusion_lon": 0.0, "bike_id": "59a6287cd31e14027f2550303613a084", "name": "59a6287cd31e14027f2550303613a084", "type": "electric_scooter", "lon": -76.97549433333333, "rental_uris": {"android": "https://dc.lft.to/lastmile_qr_scan", "ios": "https://dc.lft.to/lastmile_qr_scan"}, "lat": 38.902565, "is_reserved": 0, "is_disabled": 0, "fusion_lat": 0.0}, {"fusion_lon": 0.0, "bike_id": "61f4d1e1d9c9eb1135eb9169abaada1e", "name": "61f4d1e1d9c9eb1135eb9169abaada1e", "type": "electric_scooter", "lon": -77.023993, "rental_uris": {"android": "https://dc.lft.to/lastmile_qr_scan", "ios": "https://dc.lft.to/lastmile_qr_scan"}, "lat": 38.93102783333333, "is_reserved": 0, "is_disabled": 0, "fusion_lat": 0.0}, {"fusion_lon": 0.0, "bike_id": "50e6a56505a522e19b0b5cf636ccd383", "name": "50e6a56505a522e19b0b5cf636ccd383", "type": "electric_scooter", "lon": -77.0488675, "rental_uris": {"android": "https://dc.lft.to/lastmile_qr_scan", "ios": "https://dc.lft.to/lastmile_qr_scan"}, "lat": 38.903669, "is_reserved": 0, "is_disabled": 0, "fusion_lat": 0.0}, {"fusion_lon": 0.0, "bike_id": "eb8538022aa70ba29464c8b7a903a4e1", "name": "eb8538022aa70ba29464c8b7a903a4e1", "type": "electric_scooter", "lon": -77.03855716666666, "rental_uris": {"android": "https://dc.lft.to/lastmile_qr_scan", "ios": "https://dc.lft.to/lastmile_qr_scan"}, "lat": 38.911954333333334, "is_reserved": 0, "is_disabled": 0, "fusion_lat": 0.0}, {"fusion_lon": 0.0, "bike_id": "2205b907608cad9dc29d307aa7d4dbc1", "name": "2205b907608cad9dc29d307aa7d4dbc1", "type": "electric_bike", "lon": -77.0398895, "rental_uris": {"android": "https://dc.lft.to/lastmile_qr_scan", "ios": "https://dc.lft.to/lastmile_qr_scan"}, "lat": 38.802999, "is_reserved": 0, "is_disabled": 0, "fusion_lat": 0.0}, {"fusion_lon": 0.0, "bike_id": "a986446ce8ad7f5780bb4350d5ba19ba", "name": "a986446ce8ad7f5780bb4350d5ba19ba", "type": "electric_scooter", "lon": -77.02398933333333, "rental_uris": {"android": "https://dc.lft.to/lastmile_qr_scan", "ios": "https://dc.lft.to/lastmile_qr_scan"}, "lat": 38.907436833333335, "is_reserved": 0, "is_disabled": 0, "fusion_lat": 0.0}, {"fusion_lon": 0.0, "bike_id": "025483a644691ec103f7eb96ff367e72", "name": "025483a644691ec103f7eb96ff367e72", "type": "electric_scooter", "lon": -77.05260833333334, "rental_uris": {"android": "https://dc.lft.to/lastmile_qr_scan", "ios": "https://dc.lft.to/lastmile_qr_scan"}, "lat": 38.925725, "is_reserved": 0, "is_disabled": 0, "fusion_lat": 0.0}, {"fusion_lon": 0.0, "bike_id": "dbebef2dd6f20d6c1eb757d265c1a6bf", "name": "dbebef2dd6f20d6c1eb757d265c1a6bf", "type": "electric_scooter", "lon": -77.04175, "rental_uris": {"android": "https://dc.lft.to/lastmile_qr_scan", "ios": "https://dc.lft.to/lastmile_qr_scan"}, "lat": 38.906412833333334, "is_reserved": 0, "is_disabled": 0, "fusion_lat": 0.0}, {"fusion_lon": 0.0, "bike_id": "37337ccb4a451afa47fde082be23e6e6", "name": "37337ccb4a451afa47fde082be23e6e6", "type": "electric_scooter", "lon": -77.00169516666666, "rental_uris": {"android": "https://dc.lft.to/lastmile_qr_scan", "ios": "https://dc.lft.to/lastmile_qr_scan"}, "lat": 38.9073495, "is_reserved": 0, "is_disabled": 0, "fusion_lat": 0.0}, {"fusion_lon": 0.0, "bike_id": "de01732932017c450860a8e59b415b19", "name": "de01732932017c450860a8e59b415b19", "type": "electric_scooter", "lon": -76.98614033333334, "rental_uris": {"android": "https://dc.lft.to/lastmile_qr_scan", "ios": "https://dc.lft.to/lastmile_qr_scan"}, "lat": 38.854622166666665, "is_reserved": 0, "is_disabled": 0, "fusion_lat": 0.0}, {"fusion_lon": 0.0, "bike_id": "da2655dc37a042954ac2965b6498aa6b", "name": "da2655dc37a042954ac2965b6498aa6b", "type": "electric_scooter", "lon": -77.04565533333333, "rental_uris": {"android": "https://dc.lft.to/lastmile_qr_scan", "ios": "https://dc.lft.to/lastmile_qr_scan"}, "lat": 38.920777333333334, "is_reserved": 0, "is_disabled": 0, "fusion_lat": 0.0}, {"fusion_lon": 0.0, "bike_id": "c47865bd488ec8c4670b509ab7b1bdd3", "name": "c47865bd488ec8c4670b509ab7b1bdd3", "type": "electric_scooter", "lon": -77.00710683333334, "rental_uris": {"android": "https://dc.lft.to/lastmile_qr_scan", "ios": "https://dc.lft.to/lastmile_qr_scan"}, "lat": 38.88488916666667, "is_reserved": 0, "is_disabled": 0, "fusion_lat": 0.0}, {"fusion_lon": 0.0, "bike_id": "58533147df2cc2eb23f7848d4494f276", "name": "58533147df2cc2eb23f7848d4494f276", "type": "electric_scooter", "lon": -76.98482283333334, "rental_uris": {"android": "https://dc.lft.to/lastmile_qr_scan", "ios": "https://dc.lft.to/lastmile_qr_scan"}, "lat": 38.92892883333333, "is_reserved": 0, "is_disabled": 0, "fusion_lat": 0.0}, {"fusion_lon": 0.0, "bike_id": "4e6641a928435a03f6785e923a9fa45e", "name": "4e6641a928435a03f6785e923a9fa45e", "type": "electric_scooter", "lon": -77.03066666666666, "rental_uris": {"android": "https://dc.lft.to/lastmile_qr_scan", "ios": "https://dc.lft.to/lastmile_qr_scan"}, "lat": 38.880445, "is_reserved": 0, "is_disabled": 0, "fusion_lat": 0.0}, {"fusion_lon": 0.0, "bike_id": "ecb2a3fe9470ec320e440bf5a4ca469f", "name": "ecb2a3fe9470ec320e440bf5a4ca469f", "type": "electric_scooter", "lon": -77.01766783333333, "rental_uris": {"android": "https://dc.lft.to/lastmile_qr_scan", "ios": "https://dc.lft.to/lastmile_qr_scan"}, "lat": 38.90269133333334, "is_reserved": 0, "is_disabled": 0, "fusion_lat": 0.0}, {"fusion_lon": 0.0, "bike_id": "1c6e151f9b2250f603e11178d1a2af54", "name": "1c6e151f9b2250f603e11178d1a2af54", "type": "electric_scooter", "lon": -77.01191566666667, "rental_uris": {"android": "https://dc.lft.to/lastmile_qr_scan", "ios": "https://dc.lft.to/lastmile_qr_scan"}, "lat": 38.871581666666664, "is_reserved": 0, "is_disabled": 0, "fusion_lat": 0.0}, {"fusion_lon": 0.0, "bike_id": "dcecf3a11478b0e9645d49204edd5b97", "name": "dcecf3a11478b0e9645d49204edd5b97", "type": "electric_scooter", "lon": -77.0469825, "rental_uris": {"android": "https://dc.lft.to/lastmile_qr_scan", "ios": "https://dc.lft.to/lastmile_qr_scan"}, "lat": 38.9028835, "is_reserved": 0, "is_disabled": 0, "fusion_lat": 0.0}, {"fusion_lon": 0.0, "bike_id": "d440dd3f60b0db94f0aa28df334682ec", "name": "d440dd3f60b0db94f0aa28df334682ec", "type": "electric_scooter", "lon": -76.92948166666666, "rental_uris": {"android": "https://dc.lft.to/lastmile_qr_scan", "ios": "https://dc.lft.to/lastmile_qr_scan"}, "lat": 38.898810833333336, "is_reserved": 0, "is_disabled": 0, "fusion_lat": 0.0}, {"fusion_lon": 0.0, "bike_id": "b9f3082d514dd5dc35fad769c15522c5", "name": "b9f3082d514dd5dc35fad769c15522c5", "type": "electric_scooter", "lon": -77.02965333333333, "rental_uris": {"android": "https://dc.lft.to/lastmile_qr_scan", "ios": "https://dc.lft.to/lastmile_qr_scan"}, "lat": 38.92269566666667, "is_reserved": 0, "is_disabled": 0, "fusion_lat": 0.0}, {"fusion_lon": 0.0, "bike_id": "1cc0ca66d51c5ff2637e2f4e4ddbc331", "name": "1cc0ca66d51c5ff2637e2f4e4ddbc331", "type": "electric_scooter", "lon": -77.02476516666667, "rental_uris": {"android": "https://dc.lft.to/lastmile_qr_scan", "ios": "https://dc.lft.to/lastmile_qr_scan"}, "lat": 38.90412833333333, "is_reserved": 0, "is_disabled": 0, "fusion_lat": 0.0}, {"fusion_lon": 0.0, "bike_id": "306aa3f8341880dd831d603a9dbe39a3", "name": "306aa3f8341880dd831d603a9dbe39a3", "type": "electric_scooter", "lon": -77.038684, "rental_uris": {"android": "https://dc.lft.to/lastmile_qr_scan", "ios": "https://dc.lft.to/lastmile_qr_scan"}, "lat": 38.919766833333334, "is_reserved": 0, "is_disabled": 0, "fusion_lat": 0.0}, {"fusion_lon": 0.0, "bike_id": "d79a4eaf7222fd98d28f1aa0bfdcf881", "name": "d79a4eaf7222fd98d28f1aa0bfdcf881", "type": "electric_scooter", "lon": -76.99146816666666, "rental_uris": {"android": "https://dc.lft.to/lastmile_qr_scan", "ios": "https://dc.lft.to/lastmile_qr_scan"}, "lat": 38.87902716666667, "is_reserved": 0, "is_disabled": 0, "fusion_lat": 0.0}, {"fusion_lon": 0.0, "bike_id": "b4a0c17dcc9c0e3b285041b4605826c2", "name": "b4a0c17dcc9c0e3b285041b4605826c2", "type": "electric_scooter", "lon": -77.04670483333334, "rental_uris": {"android": "https://dc.lft.to/lastmile_qr_scan", "ios": "https://dc.lft.to/lastmile_qr_scan"}, "lat": 38.90328516666667, "is_reserved": 0, "is_disabled": 0, "fusion_lat": 0.0}, {"fusion_lon": 0.0, "bike_id": "d5f01683445a2e7be09f6c63e0449eb3", "name": "d5f01683445a2e7be09f6c63e0449eb3", "type": "electric_scooter", "lon": -77.04175816666667, "rental_uris": {"android": "https://dc.lft.to/lastmile_qr_scan", "ios": "https://dc.lft.to/lastmile_qr_scan"}, "lat": 38.915777166666665, "is_reserved": 0, "is_disabled": 0, "fusion_lat": 0.0}, {"fusion_lon": 0.0, "bike_id": "efa360b8546e474d82d27023f3bb7943", "name": "efa360b8546e474d82d27023f3bb7943", "type": "electric_bike", "lon": -76.99763033333333, "rental_uris": {"android": "https://dc.lft.to/lastmile_qr_scan", "ios": "https://dc.lft.to/lastmile_qr_scan"}, "lat": 39.0059535, "is_reserved": 0, "is_disabled": 0, "fusion_lat": 0.0}, {"fusion_lon": 0.0, "bike_id": "6f57dfa67ba1e7706808e34e85d6d7db", "name": "6f57dfa67ba1e7706808e34e85d6d7db", "type": "electric_bike", "lon": -77.02650383333334, "rental_uris": {"android": "https://dc.lft.to/lastmile_qr_scan", "ios": "https://dc.lft.to/lastmile_qr_scan"}, "lat": 38.988194166666666, "is_reserved": 0, "is_disabled": 0, "fusion_lat": 0.0}, {"fusion_lon": 0.0, "bike_id": "b2561e5b8c71c026a4a25af3ea9e2aee", "name": "b2561e5b8c71c026a4a25af3ea9e2aee", "type": "electric_scooter", "lon": -77.03419216666667, "rental_uris": {"android": "https://dc.lft.to/lastmile_qr_scan", "ios": "https://dc.lft.to/lastmile_qr_scan"}, "lat": 38.929454166666666, "is_reserved": 0, "is_disabled": 0, "fusion_lat": 0.0}, {"fusion_lon": 0.0, "bike_id": "5cac0bd2a4953dad9d4e364fdcb6253e", "name": "5cac0bd2a4953dad9d4e364fdcb6253e", "type": "electric_bike", "lon": -77.1317685, "rental_uris": {"android": "https://dc.lft.to/lastmile_qr_scan", "ios": "https://dc.lft.to/lastmile_qr_scan"}, "lat": 38.86905383333333, "is_reserved": 0, "is_disabled": 0, "fusion_lat": 0.0}, {"fusion_lon": 0.0, "bike_id": "19b686ed8f700d66d54b00429546dbe9", "name": "19b686ed8f700d66d54b00429546dbe9", "type": "electric_scooter", "lon": -77.02777883333333, "rental_uris": {"android": "https://dc.lft.to/lastmile_qr_scan", "ios": "https://dc.lft.to/lastmile_qr_scan"}, "lat": 38.8815675, "is_reserved": 0, "is_disabled": 0, "fusion_lat": 0.0}, {"fusion_lon": 0.0, "bike_id": "6fecb57b3e5c172883365dd3653f6d1b", "name": "6fecb57b3e5c172883365dd3653f6d1b", "type": "electric_scooter", "lon": -77.03291983333334, "rental_uris": {"android": "https://dc.lft.to/lastmile_qr_scan", "ios": "https://dc.lft.to/lastmile_qr_scan"}, "lat": 38.938803666666665, "is_reserved": 0, "is_disabled": 0, "fusion_lat": 0.0}, {"fusion_lon": 0.0, "bike_id": "f24ac9e24019e79f2a0f814433bd529e", "name": "f24ac9e24019e79f2a0f814433bd529e", "type": "electric_scooter", "lon": -77.03769866666667, "rental_uris": {"android": "https://dc.lft.to/lastmile_qr_scan", "ios": "https://dc.lft.to/lastmile_qr_scan"}, "lat": 38.924882833333335, "is_reserved": 0, "is_disabled": 0, "fusion_lat": 0.0}, {"fusion_lon": 0.0, "bike_id": "6a81f56065ab4b09249e76b5078b6cb9", "name": "6a81f56065ab4b09249e76b5078b6cb9", "type": "electric_bike", "lon": -77.01940183333333, "rental_uris": {"android": "https://dc.lft.to/lastmile_qr_scan", "ios": "https://dc.lft.to/lastmile_qr_scan"}, "lat": 38.88322183333333, "is_reserved": 0, "is_disabled": 0, "fusion_lat": 0.0}, {"fusion_lon": 0.0, "bike_id": "d4b18426a918f1843543e17ea374327f", "name": "d4b18426a918f1843543e17ea374327f", "type": "electric_scooter", "lon": -77.028012, "rental_uris": {"android": "https://dc.lft.to/lastmile_qr_scan", "ios": "https://dc.lft.to/lastmile_qr_scan"}, "lat": 38.90622416666667, "is_reserved": 0, "is_disabled": 0, "fusion_lat": 0.0}, {"fusion_lon": 0.0, "bike_id": "328c45cec79c87be52a48943b3a4d210", "name": "328c45cec79c87be52a48943b3a4d210", "type": "electric_scooter", "lon": -77.01595116666667, "rental_uris": {"android": "https://dc.lft.to/lastmile_qr_scan", "ios": "https://dc.lft.to/lastmile_qr_scan"}, "lat": 38.90109483333333, "is_reserved": 0, "is_disabled": 0, "fusion_lat": 0.0}, {"fusion_lon": 0.0, "bike_id": "d648f48f6126486a6be9217b1ef95ec0", "name": "d648f48f6126486a6be9217b1ef95ec0", "type": "electric_scooter", "lon": -77.023823, "rental_uris": {"android": "https://dc.lft.to/lastmile_qr_scan", "ios": "https://dc.lft.to/lastmile_qr_scan"}, "lat": 38.90729783333333, "is_reserved": 0, "is_disabled": 0, "fusion_lat": 0.0}, {"fusion_lon": 0.0, "bike_id": "141fc2ee30a0c15629099a74939531f8", "name": "141fc2ee30a0c15629099a74939531f8", "type": "electric_scooter", "lon": -77.03939333333334, "rental_uris": {"android": "https://dc.lft.to/lastmile_qr_scan", "ios": "https://dc.lft.to/lastmile_qr_scan"}, "lat": 38.924982166666666, "is_reserved": 0, "is_disabled": 0, "fusion_lat": 0.0}, {"fusion_lon": 0.0, "bike_id": "4a0f08756771b573457ff5f49250d5de", "name": "4a0f08756771b573457ff5f49250d5de", "type": "electric_scooter", "lon": -77.03377883333333, "rental_uris": {"android": "https://dc.lft.to/lastmile_qr_scan", "ios": "https://dc.lft.to/lastmile_qr_scan"}, "lat": 38.925353666666666, "is_reserved": 0, "is_disabled": 0, "fusion_lat": 0.0}, {"fusion_lon": 0.0, "bike_id": "6dc585b99f92ee829726795c83617f95", "name": "6dc585b99f92ee829726795c83617f95", "type": "electric_scooter", "lon": -77.0333655, "rental_uris": {"android": "https://dc.lft.to/lastmile_qr_scan", "ios": "https://dc.lft.to/lastmile_qr_scan"}, "lat": 38.919151, "is_reserved": 0, "is_disabled": 0, "fusion_lat": 0.0}, {"fusion_lon": 0.0, "bike_id": "961b42ceee0a0cec771f5fdcc53039ef", "name": "961b42ceee0a0cec771f5fdcc53039ef", "type": "electric_scooter", "lon": -77.02554933333333, "rental_uris": {"android": "https://dc.lft.to/lastmile_qr_scan", "ios": "https://dc.lft.to/lastmile_qr_scan"}, "lat": 38.90171216666667, "is_reserved": 0, "is_disabled": 0, "fusion_lat": 0.0}, {"fusion_lon": 0.0, "bike_id": "2c259a48cdf162adff77e9b43e25f1a2", "name": "2c259a48cdf162adff77e9b43e25f1a2", "type": "electric_scooter", "lon": -76.9819445, "rental_uris": {"android": "https://dc.lft.to/lastmile_qr_scan", "ios": "https://dc.lft.to/lastmile_qr_scan"}, "lat": 38.90206883333333, "is_reserved": 0, "is_disabled": 0, "fusion_lat": 0.0}, {"fusion_lon": 0.0, "bike_id": "99984b0d204f99803363467cc4242bcc", "name": "99984b0d204f99803363467cc4242bcc", "type": "electric_scooter", "lon": -77.01193316666667, "rental_uris": {"android": "https://dc.lft.to/lastmile_qr_scan", "ios": "https://dc.lft.to/lastmile_qr_scan"}, "lat": 38.90026916666667, "is_reserved": 0, "is_disabled": 0, "fusion_lat": 0.0}, {"fusion_lon": 0.0, "bike_id": "b4ed22c2bbba91f4bb104ca1ed3ea91d", "name": "b4ed22c2bbba91f4bb104ca1ed3ea91d", "type": "electric_scooter", "lon": -77.01616416666667, "rental_uris": {"android": "https://dc.lft.to/lastmile_qr_scan", "ios": "https://dc.lft.to/lastmile_qr_scan"}, "lat": 38.899696, "is_reserved": 0, "is_disabled": 0, "fusion_lat": 0.0}, {"fusion_lon": 0.0, "bike_id": "8bd5387e3daa7f03ab7016ffce8b9283", "name": "8bd5387e3daa7f03ab7016ffce8b9283", "type": "electric_scooter", "lon": -77.02465183333334, "rental_uris": {"android": "https://dc.lft.to/lastmile_qr_scan", "ios": "https://dc.lft.to/lastmile_qr_scan"}, "lat": 38.90311283333333, "is_reserved": 0, "is_disabled": 0, "fusion_lat": 0.0}, {"fusion_lon": 0.0, "bike_id": "2a6b6b622f8605219476f0e8961426ca", "name": "2a6b6b622f8605219476f0e8961426ca", "type": "electric_bike", "lon": -77.1122395, "rental_uris": {"android": "https://dc.lft.to/lastmile_qr_scan", "ios": "https://dc.lft.to/lastmile_qr_scan"}, "lat": 38.828719666666665, "is_reserved": 0, "is_disabled": 0, "fusion_lat": 0.0}, {"fusion_lon": 0.0, "bike_id": "af2ac26c23030fdc6d1f417144936c23", "name": "af2ac26c23030fdc6d1f417144936c23", "type": "electric_bike", "lon": -76.87494016666666, "rental_uris": {"android": "https://dc.lft.to/lastmile_qr_scan", "ios": "https://dc.lft.to/lastmile_qr_scan"}, "lat": 38.99090966666667, "is_reserved": 0, "is_disabled": 0, "fusion_lat": 0.0}, {"fusion_lon": 0.0, "bike_id": "6871a739d8770f036e58e7be5a7e90dd", "name": "6871a739d8770f036e58e7be5a7e90dd", "type": "electric_scooter", "lon": -76.9866155, "rental_uris": {"android": "https://dc.lft.to/lastmile_qr_scan", "ios": "https://dc.lft.to/lastmile_qr_scan"}, "lat": 38.90145733333333, "is_reserved": 0, "is_disabled": 0, "fusion_lat": 0.0}, {"fusion_lon": 0.0, "bike_id": "68a536204efed949af700f519c0c4e0c", "name": "68a536204efed949af700f519c0c4e0c", "type": "electric_scooter", "lon": -77.0420135, "rental_uris": {"android": "https://dc.lft.to/lastmile_qr_scan", "ios": "https://dc.lft.to/lastmile_qr_scan"}, "lat": 38.917053333333335, "is_reserved": 0, "is_disabled": 0, "fusion_lat": 0.0}, {"fusion_lon": 0.0, "bike_id": "f23416086a3d40f8c8bbed0ecba674ad", "name": "f23416086a3d40f8c8bbed0ecba674ad", "type": "electric_scooter", "lon": -76.931854, "rental_uris": {"android": "https://dc.lft.to/lastmile_qr_scan", "ios": "https://dc.lft.to/lastmile_qr_scan"}, "lat": 38.8987695, "is_reserved": 0, "is_disabled": 0, "fusion_lat": 0.0}, {"fusion_lon": 0.0, "bike_id": "e57c1bb5de6b87c024371b28086d820b", "name": "e57c1bb5de6b87c024371b28086d820b", "type": "electric_scooter", "lon": -77.073036, "rental_uris": {"android": "https://dc.lft.to/lastmile_qr_scan", "ios": "https://dc.lft.to/lastmile_qr_scan"}, "lat": 38.921602166666666, "is_reserved": 0, "is_disabled": 0, "fusion_lat": 0.0}, {"fusion_lon": 0.0, "bike_id": "55bd4500d4be7271c820d71f0f444906", "name": "55bd4500d4be7271c820d71f0f444906", "type": "electric_scooter", "lon": -77.01820533333333, "rental_uris": {"android": "https://dc.lft.to/lastmile_qr_scan", "ios": "https://dc.lft.to/lastmile_qr_scan"}, "lat": 38.922015, "is_reserved": 0, "is_disabled": 0, "fusion_lat": 0.0}, {"fusion_lon": 0.0, "bike_id": "9e5653261cb128b1818e5b0e427d1069", "name": "9e5653261cb128b1818e5b0e427d1069", "type": "electric_bike", "lon": -77.0430915, "rental_uris": {"android": "https://dc.lft.to/lastmile_qr_scan", "ios": "https://dc.lft.to/lastmile_qr_scan"}, "lat": 39.054522666666664, "is_reserved": 0, "is_disabled": 0, "fusion_lat": 0.0}, {"fusion_lon": 0.0, "bike_id": "61cea2b3118c3f62b7d5548290e61a94", "name": "61cea2b3118c3f62b7d5548290e61a94", "type": "electric_bike", "lon": -77.17845633333333, "rental_uris": {"android": "https://dc.lft.to/lastmile_qr_scan", "ios": "https://dc.lft.to/lastmile_qr_scan"}, "lat": 39.089049333333335, "is_reserved": 0, "is_disabled": 0, "fusion_lat": 0.0}, {"fusion_lon": 0.0, "bike_id": "6f9bcd859465c2092cac882a9b15b8ba", "name": "6f9bcd859465c2092cac882a9b15b8ba", "type": "electric_scooter", "lon": -76.99858266666666, "rental_uris": {"android": "https://dc.lft.to/lastmile_qr_scan", "ios": "https://dc.lft.to/lastmile_qr_scan"}, "lat": 38.908970833333335, "is_reserved": 0, "is_disabled": 0, "fusion_lat": 0.0}, {"fusion_lon": 0.0, "bike_id": "9bb75bbaa84be0bc3688c295a7868327", "name": "9bb75bbaa84be0bc3688c295a7868327", "type": "electric_scooter", "lon": -77.00187716666667, "rental_uris": {"android": "https://dc.lft.to/lastmile_qr_scan", "ios": "https://dc.lft.to/lastmile_qr_scan"}, "lat": 38.911668666666664, "is_reserved": 0, "is_disabled": 0, "fusion_lat": 0.0}, {"fusion_lon": 0.0, "bike_id": "85086694fb562df9cca99a4f02f8f4a0", "name": "85086694fb562df9cca99a4f02f8f4a0", "type": "electric_scooter", "lon": -76.94854433333333, "rental_uris": {"android": "https://dc.lft.to/lastmile_qr_scan", "ios": "https://dc.lft.to/lastmile_qr_scan"}, "lat": 38.882994, "is_reserved": 0, "is_disabled": 0, "fusion_lat": 0.0}, {"fusion_lon": 0.0, "bike_id": "b92567090bf049bd6262ef486ec15d4d", "name": "b92567090bf049bd6262ef486ec15d4d", "type": "electric_scooter", "lon": -76.99029716666666, "rental_uris": {"android": "https://dc.lft.to/lastmile_qr_scan", "ios": "https://dc.lft.to/lastmile_qr_scan"}, "lat": 38.86076933333333, "is_reserved": 0, "is_disabled": 0, "fusion_lat": 0.0}, {"fusion_lon": 0.0, "bike_id": "672a95cde8123ab53c3b6f522a3e914e", "name": "672a95cde8123ab53c3b6f522a3e914e", "type": "electric_scooter", "lon": -77.01774833333333, "rental_uris": {"android": "https://dc.lft.to/lastmile_qr_scan", "ios": "https://dc.lft.to/lastmile_qr_scan"}, "lat": 38.902676166666666, "is_reserved": 0, "is_disabled": 0, "fusion_lat": 0.0}, {"fusion_lon": 0.0, "bike_id": "b168a27574f84d22caab490e1d438306", "name": "b168a27574f84d22caab490e1d438306", "type": "electric_bike", "lon": -77.34405833333334, "rental_uris": {"android": "https://dc.lft.to/lastmile_qr_scan", "ios": "https://dc.lft.to/lastmile_qr_scan"}, "lat": 38.945879, "is_reserved": 0, "is_disabled": 0, "fusion_lat": 0.0}, {"fusion_lon": 0.0, "bike_id": "56e702629ee19f9f3898a2a15bdba198", "name": "56e702629ee19f9f3898a2a15bdba198", "type": "electric_bike", "lon": -77.1432315, "rental_uris": {"android": "https://dc.lft.to/lastmile_qr_scan", "ios": "https://dc.lft.to/lastmile_qr_scan"}, "lat": 39.054562, "is_reserved": 0, "is_disabled": 0, "fusion_lat": 0.0}, {"fusion_lon": 0.0, "bike_id": "5dee2993a01f198dc8446bfe937b3a99", "name": "5dee2993a01f198dc8446bfe937b3a99", "type": "electric_scooter", "lon": -77.01377766666667, "rental_uris": {"android": "https://dc.lft.to/lastmile_qr_scan", "ios": "https://dc.lft.to/lastmile_qr_scan"}, "lat": 38.886445, "is_reserved": 0, "is_disabled": 0, "fusion_lat": 0.0}, {"fusion_lon": 0.0, "bike_id": "b8362504d1f1c3ca9b4248369cf595fe", "name": "b8362504d1f1c3ca9b4248369cf595fe", "type": "electric_scooter", "lon": -77.06191266666667, "rental_uris": {"android": "https://dc.lft.to/lastmile_qr_scan", "ios": "https://dc.lft.to/lastmile_qr_scan"}, "lat": 38.9301575, "is_reserved": 0, "is_disabled": 0, "fusion_lat": 0.0}, {"fusion_lon": 0.0, "bike_id": "b8f20c56744b1daf282370e26ff37124", "name": "b8f20c56744b1daf282370e26ff37124", "type": "electric_scooter", "lon": -77.03413816666666, "rental_uris": {"android": "https://dc.lft.to/lastmile_qr_scan", "ios": "https://dc.lft.to/lastmile_qr_scan"}, "lat": 38.919314, "is_reserved": 0, "is_disabled": 0, "fusion_lat": 0.0}, {"fusion_lon": 0.0, "bike_id": "960179b8c10cc29fac2fbd64b22e2ed7", "name": "960179b8c10cc29fac2fbd64b22e2ed7", "type": "electric_scooter", "lon": -77.0352085, "rental_uris": {"android": "https://dc.lft.to/lastmile_qr_scan", "ios": "https://dc.lft.to/lastmile_qr_scan"}, "lat": 38.927304666666664, "is_reserved": 0, "is_disabled": 0, "fusion_lat": 0.0}, {"fusion_lon": 0.0, "bike_id": "a14746e3c2ac1f6628f4202b6b3a9178", "name": "a14746e3c2ac1f6628f4202b6b3a9178", "type": "electric_scooter", "lon": -77.02849666666667, "rental_uris": {"android": "https://dc.lft.to/lastmile_qr_scan", "ios": "https://dc.lft.to/lastmile_qr_scan"}, "lat": 38.92378183333334, "is_reserved": 0, "is_disabled": 0, "fusion_lat": 0.0}, {"fusion_lon": 0.0, "bike_id": "74d8e2bb43de8496300514efe3dea96c", "name": "74d8e2bb43de8496300514efe3dea96c", "type": "electric_scooter", "lon": -77.00603616666666, "rental_uris": {"android": "https://dc.lft.to/lastmile_qr_scan", "ios": "https://dc.lft.to/lastmile_qr_scan"}, "lat": 38.911157333333335, "is_reserved": 0, "is_disabled": 0, "fusion_lat": 0.0}, {"fusion_lon": 0.0, "bike_id": "8a1f837e4a88564dfce7a457ac84b40a", "name": "8a1f837e4a88564dfce7a457ac84b40a", "type": "electric_scooter", "lon": -77.03763266666667, "rental_uris": {"android": "https://dc.lft.to/lastmile_qr_scan", "ios": "https://dc.lft.to/lastmile_qr_scan"}, "lat": 38.9358395, "is_reserved": 0, "is_disabled": 0, "fusion_lat": 0.0}, {"fusion_lon": 0.0, "bike_id": "573b9434243e322ab6ae0ad0874c0e29", "name": "573b9434243e322ab6ae0ad0874c0e29", "type": "electric_scooter", "lon": -76.98882916666666, "rental_uris": {"android": "https://dc.lft.to/lastmile_qr_scan", "ios": "https://dc.lft.to/lastmile_qr_scan"}, "lat": 38.866726166666666, "is_reserved": 0, "is_disabled": 0, "fusion_lat": 0.0}, {"fusion_lon": 0.0, "bike_id": "c4bb31dd2a58d58f92f7f5b04a950c3d", "name": "c4bb31dd2a58d58f92f7f5b04a950c3d", "type": "electric_scooter", "lon": -77.04069366666667, "rental_uris": {"android": "https://dc.lft.to/lastmile_qr_scan", "ios": "https://dc.lft.to/lastmile_qr_scan"}, "lat": 38.90148166666667, "is_reserved": 0, "is_disabled": 0, "fusion_lat": 0.0}, {"fusion_lon": 0.0, "bike_id": "8eb8f81033966dce4a1c6eb961ee4fd6", "name": "8eb8f81033966dce4a1c6eb961ee4fd6", "type": "electric_scooter", "lon": -77.04160583333334, "rental_uris": {"android": "https://dc.lft.to/lastmile_qr_scan", "ios": "https://dc.lft.to/lastmile_qr_scan"}, "lat": 38.91606316666667, "is_reserved": 0, "is_disabled": 0, "fusion_lat": 0.0}, {"fusion_lon": 0.0, "bike_id": "6eb27e4c69d526d0ea9554aa107f5ae5", "name": "6eb27e4c69d526d0ea9554aa107f5ae5", "type": "electric_scooter", "lon": -77.012619, "rental_uris": {"android": "https://dc.lft.to/lastmile_qr_scan", "ios": "https://dc.lft.to/lastmile_qr_scan"}, "lat": 38.900589333333336, "is_reserved": 0, "is_disabled": 0, "fusion_lat": 0.0}, {"fusion_lon": 0.0, "bike_id": "c13d6bb384976d0a49e3483b43b1bb3b", "name": "c13d6bb384976d0a49e3483b43b1bb3b", "type": "electric_scooter", "lon": -77.03942133333334, "rental_uris": {"android": "https://dc.lft.to/lastmile_qr_scan", "ios": "https://dc.lft.to/lastmile_qr_scan"}, "lat": 38.918149666666665, "is_reserved": 0, "is_disabled": 0, "fusion_lat": 0.0}, {"fusion_lon": 0.0, "bike_id": "5c4853c6fce4e46d92b723dbcd5971be", "name": "5c4853c6fce4e46d92b723dbcd5971be", "type": "electric_scooter", "lon": -77.02319783333333, "rental_uris": {"android": "https://dc.lft.to/lastmile_qr_scan", "ios": "https://dc.lft.to/lastmile_qr_scan"}, "lat": 38.90722316666667, "is_reserved": 0, "is_disabled": 0, "fusion_lat": 0.0}, {"fusion_lon": 0.0, "bike_id": "eb5d88a5f0e7d636ae08505e433c057c", "name": "eb5d88a5f0e7d636ae08505e433c057c", "type": "electric_scooter", "lon": -77.05987983333333, "rental_uris": {"android": "https://dc.lft.to/lastmile_qr_scan", "ios": "https://dc.lft.to/lastmile_qr_scan"}, "lat": 38.91193166666667, "is_reserved": 0, "is_disabled": 0, "fusion_lat": 0.0}, {"fusion_lon": 0.0, "bike_id": "8a0a88d8881b43c5b5b86d631c7e8d5a", "name": "8a0a88d8881b43c5b5b86d631c7e8d5a", "type": "electric_scooter", "lon": -76.98213833333334, "rental_uris": {"android": "https://dc.lft.to/lastmile_qr_scan", "ios": "https://dc.lft.to/lastmile_qr_scan"}, "lat": 38.90207616666667, "is_reserved": 0, "is_disabled": 0, "fusion_lat": 0.0}, {"fusion_lon": 0.0, "bike_id": "94c6ff7ef3ed45941b96cfd5a0ba9c0e", "name": "94c6ff7ef3ed45941b96cfd5a0ba9c0e", "type": "electric_scooter", "lon": -77.0340975, "rental_uris": {"android": "https://dc.lft.to/lastmile_qr_scan", "ios": "https://dc.lft.to/lastmile_qr_scan"}, "lat": 38.92154166666667, "is_reserved": 0, "is_disabled": 0, "fusion_lat": 0.0}, {"fusion_lon": 0.0, "bike_id": "3d528a246f2f1e7a62e231d776a136bb", "name": "3d528a246f2f1e7a62e231d776a136bb", "type": "electric_scooter", "lon": -77.07743316666667, "rental_uris": {"android": "https://dc.lft.to/lastmile_qr_scan", "ios": "https://dc.lft.to/lastmile_qr_scan"}, "lat": 38.94370966666666, "is_reserved": 0, "is_disabled": 0, "fusion_lat": 0.0}, {"fusion_lon": 0.0, "bike_id": "715556cb67a9feb43cd767671b06dd7b", "name": "715556cb67a9feb43cd767671b06dd7b", "type": "electric_scooter", "lon": -76.99830983333334, "rental_uris": {"android": "https://dc.lft.to/lastmile_qr_scan", "ios": "https://dc.lft.to/lastmile_qr_scan"}, "lat": 38.9086795, "is_reserved": 0, "is_disabled": 0, "fusion_lat": 0.0}, {"fusion_lon": 0.0, "bike_id": "293f9fbfd07bbf8ecbcdc0a3149da5fe", "name": "293f9fbfd07bbf8ecbcdc0a3149da5fe", "type": "electric_scooter", "lon": -76.99605383333333, "rental_uris": {"android": "https://dc.lft.to/lastmile_qr_scan", "ios": "https://dc.lft.to/lastmile_qr_scan"}, "lat": 38.884918, "is_reserved": 0, "is_disabled": 0, "fusion_lat": 0.0}, {"fusion_lon": 0.0, "bike_id": "946e1c929367eab9bed14707551d6a40", "name": "946e1c929367eab9bed14707551d6a40", "type": "electric_scooter", "lon": -77.03201366666667, "rental_uris": {"android": "https://dc.lft.to/lastmile_qr_scan", "ios": "https://dc.lft.to/lastmile_qr_scan"}, "lat": 38.91922683333333, "is_reserved": 0, "is_disabled": 0, "fusion_lat": 0.0}, {"fusion_lon": 0.0, "bike_id": "9cbd9c1ab5a8fdbb8baf79213aafc678", "name": "9cbd9c1ab5a8fdbb8baf79213aafc678", "type": "electric_scooter", "lon": -77.02002533333334, "rental_uris": {"android": "https://dc.lft.to/lastmile_qr_scan", "ios": "https://dc.lft.to/lastmile_qr_scan"}, "lat": 38.878934, "is_reserved": 0, "is_disabled": 0, "fusion_lat": 0.0}, {"fusion_lon": 0.0, "bike_id": "0afc8547439c5545b2d1e860ba96442e", "name": "0afc8547439c5545b2d1e860ba96442e", "type": "electric_scooter", "lon": -77.072297, "rental_uris": {"android": "https://dc.lft.to/lastmile_qr_scan", "ios": "https://dc.lft.to/lastmile_qr_scan"}, "lat": 38.93458366666667, "is_reserved": 0, "is_disabled": 0, "fusion_lat": 0.0}, {"fusion_lon": 0.0, "bike_id": "54544125adcdfffa016399d2dc1a404c", "name": "54544125adcdfffa016399d2dc1a404c", "type": "electric_bike", "lon": -76.93021033333333, "rental_uris": {"android": "https://dc.lft.to/lastmile_qr_scan", "ios": "https://dc.lft.to/lastmile_qr_scan"}, "lat": 38.9664955, "is_reserved": 0, "is_disabled": 0, "fusion_lat": 0.0}, {"fusion_lon": 0.0, "bike_id": "22cd963095fd96e75900e9c821908389", "name": "22cd963095fd96e75900e9c821908389", "type": "electric_scooter", "lon": -77.03273, "rental_uris": {"android": "https://dc.lft.to/lastmile_qr_scan", "ios": "https://dc.lft.to/lastmile_qr_scan"}, "lat": 38.91931266666667, "is_reserved": 0, "is_disabled": 0, "fusion_lat": 0.0}, {"fusion_lon": 0.0, "bike_id": "aca79d023a76a171ace23fe3235e80e2", "name": "aca79d023a76a171ace23fe3235e80e2", "type": "electric_bike", "lon": -77.01795566666667, "rental_uris": {"android": "https://dc.lft.to/lastmile_qr_scan", "ios": "https://dc.lft.to/lastmile_qr_scan"}, "lat": 38.98990716666667, "is_reserved": 0, "is_disabled": 0, "fusion_lat": 0.0}, {"fusion_lon": 0.0, "bike_id": "8930869fbc573f47a6ddb89555f069ec", "name": "8930869fbc573f47a6ddb89555f069ec", "type": "electric_scooter", "lon": -77.04176116666666, "rental_uris": {"android": "https://dc.lft.to/lastmile_qr_scan", "ios": "https://dc.lft.to/lastmile_qr_scan"}, "lat": 38.91648966666666, "is_reserved": 0, "is_disabled": 0, "fusion_lat": 0.0}, {"fusion_lon": 0.0, "bike_id": "26198cc01d644234aee5e212cda17498", "name": "26198cc01d644234aee5e212cda17498", "type": "electric_scooter", "lon": -77.03865166666667, "rental_uris": {"android": "https://dc.lft.to/lastmile_qr_scan", "ios": "https://dc.lft.to/lastmile_qr_scan"}, "lat": 38.908064333333336, "is_reserved": 0, "is_disabled": 0, "fusion_lat": 0.0}, {"fusion_lon": 0.0, "bike_id": "ffb84febcc2a4effc38c22d9a535731e", "name": "ffb84febcc2a4effc38c22d9a535731e", "type": "electric_scooter", "lon": -76.91872483333333, "rental_uris": {"android": "https://dc.lft.to/lastmile_qr_scan", "ios": "https://dc.lft.to/lastmile_qr_scan"}, "lat": 38.89083083333333, "is_reserved": 0, "is_disabled": 0, "fusion_lat": 0.0}, {"fusion_lon": 0.0, "bike_id": "6028be4497071422961250d9bb018b10", "name": "6028be4497071422961250d9bb018b10", "type": "electric_scooter", "lon": -77.04887716666667, "rental_uris": {"android": "https://dc.lft.to/lastmile_qr_scan", "ios": "https://dc.lft.to/lastmile_qr_scan"}, "lat": 38.89809433333333, "is_reserved": 0, "is_disabled": 0, "fusion_lat": 0.0}, {"fusion_lon": 0.0, "bike_id": "1922ab6f4e1b2dffd5ceb92caf665569", "name": "1922ab6f4e1b2dffd5ceb92caf665569", "type": "electric_scooter", "lon": -77.00453883333333, "rental_uris": {"android": "https://dc.lft.to/lastmile_qr_scan", "ios": "https://dc.lft.to/lastmile_qr_scan"}, "lat": 38.911891833333335, "is_reserved": 0, "is_disabled": 0, "fusion_lat": 0.0}, {"fusion_lon": 0.0, "bike_id": "fe276112706d52674717bdd2f991a41c", "name": "fe276112706d52674717bdd2f991a41c", "type": "electric_scooter", "lon": -76.99848783333333, "rental_uris": {"android": "https://dc.lft.to/lastmile_qr_scan", "ios": "https://dc.lft.to/lastmile_qr_scan"}, "lat": 38.90030433333333, "is_reserved": 0, "is_disabled": 0, "fusion_lat": 0.0}, {"fusion_lon": 0.0, "bike_id": "ba34daad1e951c41225dd3b0f916ddb4", "name": "ba34daad1e951c41225dd3b0f916ddb4", "type": "electric_bike", "lon": -77.02492166666667, "rental_uris": {"android": "https://dc.lft.to/lastmile_qr_scan", "ios": "https://dc.lft.to/lastmile_qr_scan"}, "lat": 38.97368733333333, "is_reserved": 0, "is_disabled": 0, "fusion_lat": 0.0}, {"fusion_lon": 0.0, "bike_id": "a0b594e805f175a3a82fdce69b22e2f1", "name": "a0b594e805f175a3a82fdce69b22e2f1", "type": "electric_scooter", "lon": -76.96573183333334, "rental_uris": {"android": "https://dc.lft.to/lastmile_qr_scan", "ios": "https://dc.lft.to/lastmile_qr_scan"}, "lat": 38.871369333333334, "is_reserved": 0, "is_disabled": 0, "fusion_lat": 0.0}, {"fusion_lon": 0.0, "bike_id": "9b66c805dca82f84dca1ff4b48bed807", "name": "9b66c805dca82f84dca1ff4b48bed807", "type": "electric_scooter", "lon": -76.99630916666666, "rental_uris": {"android": "https://dc.lft.to/lastmile_qr_scan", "ios": "https://dc.lft.to/lastmile_qr_scan"}, "lat": 38.84620283333334, "is_reserved": 0, "is_disabled": 0, "fusion_lat": 0.0}, {"fusion_lon": 0.0, "bike_id": "49926e55829bdcda14dde0c0cfe9499e", "name": "49926e55829bdcda14dde0c0cfe9499e", "type": "electric_scooter", "lon": -77.01148333333333, "rental_uris": {"android": "https://dc.lft.to/lastmile_qr_scan", "ios": "https://dc.lft.to/lastmile_qr_scan"}, "lat": 38.89606533333333, "is_reserved": 0, "is_disabled": 0, "fusion_lat": 0.0}, {"fusion_lon": 0.0, "bike_id": "4d4074607368edb68f47afbe8c685e21", "name": "4d4074607368edb68f47afbe8c685e21", "type": "electric_scooter", "lon": -77.02377833333334, "rental_uris": {"android": "https://dc.lft.to/lastmile_qr_scan", "ios": "https://dc.lft.to/lastmile_qr_scan"}, "lat": 38.919593666666664, "is_reserved": 0, "is_disabled": 0, "fusion_lat": 0.0}, {"fusion_lon": 0.0, "bike_id": "5d92b8bb61c61d5535c3c23b55f35f51", "name": "5d92b8bb61c61d5535c3c23b55f35f51", "type": "electric_scooter", "lon": -76.95748916666666, "rental_uris": {"android": "https://dc.lft.to/lastmile_qr_scan", "ios": "https://dc.lft.to/lastmile_qr_scan"}, "lat": 38.8842725, "is_reserved": 0, "is_disabled": 0, "fusion_lat": 0.0}, {"fusion_lon": 0.0, "bike_id": "c034187ae662aecf59dd179e8f813c1e", "name": "c034187ae662aecf59dd179e8f813c1e", "type": "electric_scooter", "lon": -77.04228766666667, "rental_uris": {"android": "https://dc.lft.to/lastmile_qr_scan", "ios": "https://dc.lft.to/lastmile_qr_scan"}, "lat": 38.92068366666667, "is_reserved": 0, "is_disabled": 0, "fusion_lat": 0.0}, {"fusion_lon": 0.0, "bike_id": "ad417912d1846a9fbb1f4bc81917b387", "name": "ad417912d1846a9fbb1f4bc81917b387", "type": "electric_scooter", "lon": -77.02489733333333, "rental_uris": {"android": "https://dc.lft.to/lastmile_qr_scan", "ios": "https://dc.lft.to/lastmile_qr_scan"}, "lat": 38.94185933333333, "is_reserved": 0, "is_disabled": 0, "fusion_lat": 0.0}, {"fusion_lon": 0.0, "bike_id": "592122fd5394b43c51860d71298a9d13", "name": "592122fd5394b43c51860d71298a9d13", "type": "electric_scooter", "lon": -77.04513533333333, "rental_uris": {"android": "https://dc.lft.to/lastmile_qr_scan", "ios": "https://dc.lft.to/lastmile_qr_scan"}, "lat": 38.9078125, "is_reserved": 0, "is_disabled": 0, "fusion_lat": 0.0}, {"fusion_lon": 0.0, "bike_id": "06797e898424e5bf8fac0edeaf101d4f", "name": "06797e898424e5bf8fac0edeaf101d4f", "type": "electric_scooter", "lon": -76.99008416666666, "rental_uris": {"android": "https://dc.lft.to/lastmile_qr_scan", "ios": "https://dc.lft.to/lastmile_qr_scan"}, "lat": 38.86106983333333, "is_reserved": 0, "is_disabled": 0, "fusion_lat": 0.0}, {"fusion_lon": 0.0, "bike_id": "187ad0e14f2fefdb6927cfbf49ea0a61", "name": "187ad0e14f2fefdb6927cfbf49ea0a61", "type": "electric_scooter", "lon": -76.99386216666667, "rental_uris": {"android": "https://dc.lft.to/lastmile_qr_scan", "ios": "https://dc.lft.to/lastmile_qr_scan"}, "lat": 38.884516166666664, "is_reserved": 0, "is_disabled": 0, "fusion_lat": 0.0}, {"fusion_lon": 0.0, "bike_id": "21524727fbd882f94f112a170991325d", "name": "21524727fbd882f94f112a170991325d", "type": "electric_scooter", "lon": -77.0710395, "rental_uris": {"android": "https://dc.lft.to/lastmile_qr_scan", "ios": "https://dc.lft.to/lastmile_qr_scan"}, "lat": 38.91989933333333, "is_reserved": 0, "is_disabled": 0, "fusion_lat": 0.0}, {"fusion_lon": 0.0, "bike_id": "4dfb2ba9c4534dbbe91f3b2ddf154ff9", "name": "4dfb2ba9c4534dbbe91f3b2ddf154ff9", "type": "electric_scooter", "lon": -77.03848716666667, "rental_uris": {"android": "https://dc.lft.to/lastmile_qr_scan", "ios": "https://dc.lft.to/lastmile_qr_scan"}, "lat": 38.921676, "is_reserved": 0, "is_disabled": 0, "fusion_lat": 0.0}, {"fusion_lon": 0.0, "bike_id": "055aac4d61b7dfb76de9dfd5ff814ebc", "name": "055aac4d61b7dfb76de9dfd5ff814ebc", "type": "electric_scooter", "lon": -77.0215735, "rental_uris": {"android": "https://dc.lft.to/lastmile_qr_scan", "ios": "https://dc.lft.to/lastmile_qr_scan"}, "lat": 38.92612116666667, "is_reserved": 0, "is_disabled": 0, "fusion_lat": 0.0}, {"fusion_lon": 0.0, "bike_id": "4a0196db0f4536be4bd26f59e2d50b0d", "name": "4a0196db0f4536be4bd26f59e2d50b0d", "type": "electric_scooter", "lon": -77.04001166666667, "rental_uris": {"android": "https://dc.lft.to/lastmile_qr_scan", "ios": "https://dc.lft.to/lastmile_qr_scan"}, "lat": 38.924375833333336, "is_reserved": 0, "is_disabled": 0, "fusion_lat": 0.0}, {"fusion_lon": 0.0, "bike_id": "6f2a0f2a8987ddcb2a8d50fec118cb4a", "name": "6f2a0f2a8987ddcb2a8d50fec118cb4a", "type": "electric_scooter", "lon": -77.03904566666667, "rental_uris": {"android": "https://dc.lft.to/lastmile_qr_scan", "ios": "https://dc.lft.to/lastmile_qr_scan"}, "lat": 38.914221166666664, "is_reserved": 0, "is_disabled": 0, "fusion_lat": 0.0}, {"fusion_lon": 0.0, "bike_id": "f8bb80ad09ff248ec3d39dc1d6c4392e", "name": "f8bb80ad09ff248ec3d39dc1d6c4392e", "type": "electric_scooter", "lon": -77.02313783333334, "rental_uris": {"android": "https://dc.lft.to/lastmile_qr_scan", "ios": "https://dc.lft.to/lastmile_qr_scan"}, "lat": 38.9178005, "is_reserved": 0, "is_disabled": 0, "fusion_lat": 0.0}, {"fusion_lon": 0.0, "bike_id": "c0a40cc52189393261d4e3a01571c442", "name": "c0a40cc52189393261d4e3a01571c442", "type": "electric_scooter", "lon": -77.01849366666667, "rental_uris": {"android": "https://dc.lft.to/lastmile_qr_scan", "ios": "https://dc.lft.to/lastmile_qr_scan"}, "lat": 38.95432366666667, "is_reserved": 0, "is_disabled": 0, "fusion_lat": 0.0}, {"fusion_lon": 0.0, "bike_id": "a8f86fc29d4be3f3c1d63ef2194c695e", "name": "a8f86fc29d4be3f3c1d63ef2194c695e", "type": "electric_scooter", "lon": -77.01907916666667, "rental_uris": {"android": "https://dc.lft.to/lastmile_qr_scan", "ios": "https://dc.lft.to/lastmile_qr_scan"}, "lat": 38.90248616666667, "is_reserved": 0, "is_disabled": 0, "fusion_lat": 0.0}, {"fusion_lon": 0.0, "bike_id": "b6f1bc515ec858d2b0e114db4d6e2979", "name": "b6f1bc515ec858d2b0e114db4d6e2979", "type": "electric_scooter", "lon": -77.03148983333334, "rental_uris": {"android": "https://dc.lft.to/lastmile_qr_scan", "ios": "https://dc.lft.to/lastmile_qr_scan"}, "lat": 38.88305716666667, "is_reserved": 0, "is_disabled": 0, "fusion_lat": 0.0}, {"fusion_lon": 0.0, "bike_id": "61119e5532f0d8a7aa29eb78b6b12c1d", "name": "61119e5532f0d8a7aa29eb78b6b12c1d", "type": "electric_scooter", "lon": -77.03184466666667, "rental_uris": {"android": "https://dc.lft.to/lastmile_qr_scan", "ios": "https://dc.lft.to/lastmile_qr_scan"}, "lat": 38.91194083333333, "is_reserved": 0, "is_disabled": 0, "fusion_lat": 0.0}, {"fusion_lon": 0.0, "bike_id": "a7b2dc209ae68a72070f5b8c60b34e41", "name": "a7b2dc209ae68a72070f5b8c60b34e41", "type": "electric_scooter", "lon": -77.00586533333333, "rental_uris": {"android": "https://dc.lft.to/lastmile_qr_scan", "ios": "https://dc.lft.to/lastmile_qr_scan"}, "lat": 38.92755066666667, "is_reserved": 0, "is_disabled": 0, "fusion_lat": 0.0}, {"fusion_lon": 0.0, "bike_id": "63e4f2a8b9345b9e0fc2dca0e824dff9", "name": "63e4f2a8b9345b9e0fc2dca0e824dff9", "type": "electric_scooter", "lon": -77.0652735, "rental_uris": {"android": "https://dc.lft.to/lastmile_qr_scan", "ios": "https://dc.lft.to/lastmile_qr_scan"}, "lat": 38.911292, "is_reserved": 0, "is_disabled": 0, "fusion_lat": 0.0}, {"fusion_lon": 0.0, "bike_id": "53c956789f1d71ab7ef2ade4332cadc0", "name": "53c956789f1d71ab7ef2ade4332cadc0", "type": "electric_bike", "lon": -77.09959583333334, "rental_uris": {"android": "https://dc.lft.to/lastmile_qr_scan", "ios": "https://dc.lft.to/lastmile_qr_scan"}, "lat": 38.85787283333333, "is_reserved": 0, "is_disabled": 0, "fusion_lat": 0.0}, {"fusion_lon": 0.0, "bike_id": "a7c10caea3770f9746245e41613f5d23", "name": "a7c10caea3770f9746245e41613f5d23", "type": "electric_scooter", "lon": -77.034371, "rental_uris": {"android": "https://dc.lft.to/lastmile_qr_scan", "ios": "https://dc.lft.to/lastmile_qr_scan"}, "lat": 38.91807516666667, "is_reserved": 0, "is_disabled": 0, "fusion_lat": 0.0}, {"fusion_lon": 0.0, "bike_id": "9190d370ab61cc337475d4d919ee6bf6", "name": "9190d370ab61cc337475d4d919ee6bf6", "type": "electric_scooter", "lon": -76.94195516666667, "rental_uris": {"android": "https://dc.lft.to/lastmile_qr_scan", "ios": "https://dc.lft.to/lastmile_qr_scan"}, "lat": 38.893749, "is_reserved": 0, "is_disabled": 0, "fusion_lat": 0.0}, {"fusion_lon": 0.0, "bike_id": "bb5f8af91887888d9f4854954204cb8f", "name": "bb5f8af91887888d9f4854954204cb8f", "type": "electric_scooter", "lon": -77.02646716666666, "rental_uris": {"android": "https://dc.lft.to/lastmile_qr_scan", "ios": "https://dc.lft.to/lastmile_qr_scan"}, "lat": 38.93867866666667, "is_reserved": 0, "is_disabled": 0, "fusion_lat": 0.0}, {"fusion_lon": 0.0, "bike_id": "3cdaff030a2ed227473bad59bba04968", "name": "3cdaff030a2ed227473bad59bba04968", "type": "electric_scooter", "lon": -77.03887333333333, "rental_uris": {"android": "https://dc.lft.to/lastmile_qr_scan", "ios": "https://dc.lft.to/lastmile_qr_scan"}, "lat": 38.905938, "is_reserved": 0, "is_disabled": 0, "fusion_lat": 0.0}, {"fusion_lon": 0.0, "bike_id": "b9e4ba61b6087d87ad050e65d76efbb9", "name": "b9e4ba61b6087d87ad050e65d76efbb9", "type": "electric_scooter", "lon": -77.03206516666667, "rental_uris": {"android": "https://dc.lft.to/lastmile_qr_scan", "ios": "https://dc.lft.to/lastmile_qr_scan"}, "lat": 38.913976, "is_reserved": 0, "is_disabled": 0, "fusion_lat": 0.0}, {"fusion_lon": 0.0, "bike_id": "53f68d1cbf3a69efeb2fed8f07585e9c", "name": "53f68d1cbf3a69efeb2fed8f07585e9c", "type": "electric_bike", "lon": -76.93199116666666, "rental_uris": {"android": "https://dc.lft.to/lastmile_qr_scan", "ios": "https://dc.lft.to/lastmile_qr_scan"}, "lat": 38.87235733333333, "is_reserved": 0, "is_disabled": 0, "fusion_lat": 0.0}, {"fusion_lon": 0.0, "bike_id": "b173d22524bca9eca6c1588de0c072bf", "name": "b173d22524bca9eca6c1588de0c072bf", "type": "electric_scooter", "lon": -77.02299533333333, "rental_uris": {"android": "https://dc.lft.to/lastmile_qr_scan", "ios": "https://dc.lft.to/lastmile_qr_scan"}, "lat": 38.9172115, "is_reserved": 0, "is_disabled": 0, "fusion_lat": 0.0}, {"fusion_lon": 0.0, "bike_id": "5b7407549a488de5596de400c62a84dd", "name": "5b7407549a488de5596de400c62a84dd", "type": "electric_scooter", "lon": -77.04393416666667, "rental_uris": {"android": "https://dc.lft.to/lastmile_qr_scan", "ios": "https://dc.lft.to/lastmile_qr_scan"}, "lat": 38.91089066666667, "is_reserved": 0, "is_disabled": 0, "fusion_lat": 0.0}, {"fusion_lon": 0.0, "bike_id": "556db6c693cf685605d4e138cd6c4af2", "name": "556db6c693cf685605d4e138cd6c4af2", "type": "electric_bike", "lon": -76.96558116666667, "rental_uris": {"android": "https://dc.lft.to/lastmile_qr_scan", "ios": "https://dc.lft.to/lastmile_qr_scan"}, "lat": 38.950905666666664, "is_reserved": 0, "is_disabled": 0, "fusion_lat": 0.0}, {"fusion_lon": 0.0, "bike_id": "241612c2850d21dc980ac9f91af2cf47", "name": "241612c2850d21dc980ac9f91af2cf47", "type": "electric_scooter", "lon": -77.04095016666666, "rental_uris": {"android": "https://dc.lft.to/lastmile_qr_scan", "ios": "https://dc.lft.to/lastmile_qr_scan"}, "lat": 38.90797833333333, "is_reserved": 0, "is_disabled": 0, "fusion_lat": 0.0}, {"fusion_lon": 0.0, "bike_id": "bd19671ab70cf2f31a2ba07c13279da2", "name": "bd19671ab70cf2f31a2ba07c13279da2", "type": "electric_scooter", "lon": -77.0460295, "rental_uris": {"android": "https://dc.lft.to/lastmile_qr_scan", "ios": "https://dc.lft.to/lastmile_qr_scan"}, "lat": 38.916979166666664, "is_reserved": 0, "is_disabled": 0, "fusion_lat": 0.0}, {"fusion_lon": 0.0, "bike_id": "19b84c72373107361b8f1722a7228e40", "name": "19b84c72373107361b8f1722a7228e40", "type": "electric_scooter", "lon": -77.0400835, "rental_uris": {"android": "https://dc.lft.to/lastmile_qr_scan", "ios": "https://dc.lft.to/lastmile_qr_scan"}, "lat": 38.88928416666667, "is_reserved": 0, "is_disabled": 0, "fusion_lat": 0.0}, {"fusion_lon": 0.0, "bike_id": "7f85c86bc6dc14f65a631699f6d57640", "name": "7f85c86bc6dc14f65a631699f6d57640", "type": "electric_scooter", "lon": -77.03340016666667, "rental_uris": {"android": "https://dc.lft.to/lastmile_qr_scan", "ios": "https://dc.lft.to/lastmile_qr_scan"}, "lat": 38.9001825, "is_reserved": 0, "is_disabled": 0, "fusion_lat": 0.0}, {"fusion_lon": 0.0, "bike_id": "9141e34542555da4dd0e535df87283ec", "name": "9141e34542555da4dd0e535df87283ec", "type": "electric_scooter", "lon": -77.07229983333333, "rental_uris": {"android": "https://dc.lft.to/lastmile_qr_scan", "ios": "https://dc.lft.to/lastmile_qr_scan"}, "lat": 38.93459516666667, "is_reserved": 0, "is_disabled": 0, "fusion_lat": 0.0}, {"fusion_lon": 0.0, "bike_id": "07c2ec977208903924b0317a7221712b", "name": "07c2ec977208903924b0317a7221712b", "type": "electric_bike", "lon": -77.08914366666667, "rental_uris": {"android": "https://dc.lft.to/lastmile_qr_scan", "ios": "https://dc.lft.to/lastmile_qr_scan"}, "lat": 38.84095816666667, "is_reserved": 0, "is_disabled": 0, "fusion_lat": 0.0}, {"fusion_lon": 0.0, "bike_id": "034352ecfd0bbdcfc1641a8dbb13728e", "name": "034352ecfd0bbdcfc1641a8dbb13728e", "type": "electric_scooter", "lon": -76.9428395, "rental_uris": {"android": "https://dc.lft.to/lastmile_qr_scan", "ios": "https://dc.lft.to/lastmile_qr_scan"}, "lat": 38.883043666666666, "is_reserved": 0, "is_disabled": 0, "fusion_lat": 0.0}, {"fusion_lon": 0.0, "bike_id": "120aa6836138e463a3cd41fd4b690e54", "name": "120aa6836138e463a3cd41fd4b690e54", "type": "electric_scooter", "lon": -77.03432533333333, "rental_uris": {"android": "https://dc.lft.to/lastmile_qr_scan", "ios": "https://dc.lft.to/lastmile_qr_scan"}, "lat": 38.9171305, "is_reserved": 0, "is_disabled": 0, "fusion_lat": 0.0}, {"fusion_lon": 0.0, "bike_id": "98eda3f0f82c8f16aa06f77144bb8ecf", "name": "98eda3f0f82c8f16aa06f77144bb8ecf", "type": "electric_scooter", "lon": -77.03844833333333, "rental_uris": {"android": "https://dc.lft.to/lastmile_qr_scan", "ios": "https://dc.lft.to/lastmile_qr_scan"}, "lat": 38.915625666666664, "is_reserved": 0, "is_disabled": 0, "fusion_lat": 0.0}, {"fusion_lon": 0.0, "bike_id": "427abc0ffffe710a84c0a3db09b3381b", "name": "427abc0ffffe710a84c0a3db09b3381b", "type": "electric_scooter", "lon": -77.05087633333333, "rental_uris": {"android": "https://dc.lft.to/lastmile_qr_scan", "ios": "https://dc.lft.to/lastmile_qr_scan"}, "lat": 38.905371333333335, "is_reserved": 0, "is_disabled": 0, "fusion_lat": 0.0}, {"fusion_lon": 0.0, "bike_id": "b09ad9c735b7ea737523277851abbe72", "name": "b09ad9c735b7ea737523277851abbe72", "type": "electric_scooter", "lon": -77.04643766666666, "rental_uris": {"android": "https://dc.lft.to/lastmile_qr_scan", "ios": "https://dc.lft.to/lastmile_qr_scan"}, "lat": 38.90426583333333, "is_reserved": 0, "is_disabled": 0, "fusion_lat": 0.0}, {"fusion_lon": 0.0, "bike_id": "ff6f5cc4dfb673a8ebe32e432c841b96", "name": "ff6f5cc4dfb673a8ebe32e432c841b96", "type": "electric_scooter", "lon": -77.02692116666667, "rental_uris": {"android": "https://dc.lft.to/lastmile_qr_scan", "ios": "https://dc.lft.to/lastmile_qr_scan"}, "lat": 38.90736616666667, "is_reserved": 0, "is_disabled": 0, "fusion_lat": 0.0}, {"fusion_lon": 0.0, "bike_id": "f342734d8f02807750496cc660f43ee8", "name": "f342734d8f02807750496cc660f43ee8", "type": "electric_scooter", "lon": -77.00829316666666, "rental_uris": {"android": "https://dc.lft.to/lastmile_qr_scan", "ios": "https://dc.lft.to/lastmile_qr_scan"}, "lat": 38.876319, "is_reserved": 0, "is_disabled": 0, "fusion_lat": 0.0}, {"fusion_lon": 0.0, "bike_id": "97f84ba26dcd4cfc56ac05a96a6e1fa6", "name": "97f84ba26dcd4cfc56ac05a96a6e1fa6", "type": "electric_bike", "lon": -76.9756635, "rental_uris": {"android": "https://dc.lft.to/lastmile_qr_scan", "ios": "https://dc.lft.to/lastmile_qr_scan"}, "lat": 38.924599666666666, "is_reserved": 0, "is_disabled": 0, "fusion_lat": 0.0}, {"fusion_lon": 0.0, "bike_id": "7dac9455cc8657e541bf6dcdf54bfb17", "name": "7dac9455cc8657e541bf6dcdf54bfb17", "type": "electric_scooter", "lon": -77.048898, "rental_uris": {"android": "https://dc.lft.to/lastmile_qr_scan", "ios": "https://dc.lft.to/lastmile_qr_scan"}, "lat": 38.892504833333334, "is_reserved": 0, "is_disabled": 0, "fusion_lat": 0.0}, {"fusion_lon": 0.0, "bike_id": "b802bb392941599d7f8423ed480d6575", "name": "b802bb392941599d7f8423ed480d6575", "type": "electric_scooter", "lon": -76.98712116666667, "rental_uris": {"android": "https://dc.lft.to/lastmile_qr_scan", "ios": "https://dc.lft.to/lastmile_qr_scan"}, "lat": 38.8669855, "is_reserved": 0, "is_disabled": 0, "fusion_lat": 0.0}, {"fusion_lon": 0.0, "bike_id": "23e41718cc93a8809d7983ef82022b70", "name": "23e41718cc93a8809d7983ef82022b70", "type": "electric_scooter", "lon": -77.0439895, "rental_uris": {"android": "https://dc.lft.to/lastmile_qr_scan", "ios": "https://dc.lft.to/lastmile_qr_scan"}, "lat": 38.92282466666666, "is_reserved": 0, "is_disabled": 0, "fusion_lat": 0.0}, {"fusion_lon": 0.0, "bike_id": "cf31838effc6d46d63038ea65f455660", "name": "cf31838effc6d46d63038ea65f455660", "type": "electric_scooter", "lon": -77.03859433333334, "rental_uris": {"android": "https://dc.lft.to/lastmile_qr_scan", "ios": "https://dc.lft.to/lastmile_qr_scan"}, "lat": 38.90785316666667, "is_reserved": 0, "is_disabled": 0, "fusion_lat": 0.0}, {"fusion_lon": 0.0, "bike_id": "516a69ce10d6cc9fe99691df2df79437", "name": "516a69ce10d6cc9fe99691df2df79437", "type": "electric_scooter", "lon": -76.985962, "rental_uris": {"android": "https://dc.lft.to/lastmile_qr_scan", "ios": "https://dc.lft.to/lastmile_qr_scan"}, "lat": 38.90650216666667, "is_reserved": 0, "is_disabled": 0, "fusion_lat": 0.0}, {"fusion_lon": 0.0, "bike_id": "6a01b86acea5aa948a88c9392e815f02", "name": "6a01b86acea5aa948a88c9392e815f02", "type": "electric_scooter", "lon": -76.99853933333333, "rental_uris": {"android": "https://dc.lft.to/lastmile_qr_scan", "ios": "https://dc.lft.to/lastmile_qr_scan"}, "lat": 38.900297, "is_reserved": 0, "is_disabled": 0, "fusion_lat": 0.0}, {"fusion_lon": 0.0, "bike_id": "add91b31bf9d521960d3f06341021095", "name": "add91b31bf9d521960d3f06341021095", "type": "electric_scooter", "lon": -77.032094, "rental_uris": {"android": "https://dc.lft.to/lastmile_qr_scan", "ios": "https://dc.lft.to/lastmile_qr_scan"}, "lat": 38.909701166666665, "is_reserved": 0, "is_disabled": 0, "fusion_lat": 0.0}, {"fusion_lon": 0.0, "bike_id": "13917bd6736c76d046a271ac66a6fc72", "name": "13917bd6736c76d046a271ac66a6fc72", "type": "electric_scooter", "lon": -77.04705316666667, "rental_uris": {"android": "https://dc.lft.to/lastmile_qr_scan", "ios": "https://dc.lft.to/lastmile_qr_scan"}, "lat": 38.9168215, "is_reserved": 0, "is_disabled": 0, "fusion_lat": 0.0}, {"fusion_lon": 0.0, "bike_id": "33a6fe43bb7ed073439dfe219cfbf9d6", "name": "33a6fe43bb7ed073439dfe219cfbf9d6", "type": "electric_scooter", "lon": -77.02897566666667, "rental_uris": {"android": "https://dc.lft.to/lastmile_qr_scan", "ios": "https://dc.lft.to/lastmile_qr_scan"}, "lat": 38.9045005, "is_reserved": 0, "is_disabled": 0, "fusion_lat": 0.0}, {"fusion_lon": 0.0, "bike_id": "6dff43169e96575d60305dc46e14cf10", "name": "6dff43169e96575d60305dc46e14cf10", "type": "electric_scooter", "lon": -77.03518566666666, "rental_uris": {"android": "https://dc.lft.to/lastmile_qr_scan", "ios": "https://dc.lft.to/lastmile_qr_scan"}, "lat": 38.91835716666667, "is_reserved": 0, "is_disabled": 0, "fusion_lat": 0.0}, {"fusion_lon": 0.0, "bike_id": "a4b2469225b7433a0e7f43038c3f578d", "name": "a4b2469225b7433a0e7f43038c3f578d", "type": "electric_scooter", "lon": -77.03090066666667, "rental_uris": {"android": "https://dc.lft.to/lastmile_qr_scan", "ios": "https://dc.lft.to/lastmile_qr_scan"}, "lat": 38.917004166666665, "is_reserved": 0, "is_disabled": 0, "fusion_lat": 0.0}, {"fusion_lon": 0.0, "bike_id": "6d5e5ff44363e3ac198df42c5005eba5", "name": "6d5e5ff44363e3ac198df42c5005eba5", "type": "electric_scooter", "lon": -77.06022566666667, "rental_uris": {"android": "https://dc.lft.to/lastmile_qr_scan", "ios": "https://dc.lft.to/lastmile_qr_scan"}, "lat": 38.939352166666666, "is_reserved": 0, "is_disabled": 0, "fusion_lat": 0.0}, {"fusion_lon": 0.0, "bike_id": "f5ea99e36b77800fbff332743e69c173", "name": "f5ea99e36b77800fbff332743e69c173", "type": "electric_bike", "lon": -77.02098516666666, "rental_uris": {"android": "https://dc.lft.to/lastmile_qr_scan", "ios": "https://dc.lft.to/lastmile_qr_scan"}, "lat": 39.02297166666666, "is_reserved": 0, "is_disabled": 0, "fusion_lat": 0.0}, {"fusion_lon": 0.0, "bike_id": "d03d08bfd991e491869a15869516a405", "name": "d03d08bfd991e491869a15869516a405", "type": "electric_bike", "lon": -77.1289815, "rental_uris": {"android": "https://dc.lft.to/lastmile_qr_scan", "ios": "https://dc.lft.to/lastmile_qr_scan"}, "lat": 38.86379616666667, "is_reserved": 0, "is_disabled": 0, "fusion_lat": 0.0}, {"fusion_lon": 0.0, "bike_id": "fe7b6848566ed222beef3219712e4c0c", "name": "fe7b6848566ed222beef3219712e4c0c", "type": "electric_scooter", "lon": -77.03932116666667, "rental_uris": {"android": "https://dc.lft.to/lastmile_qr_scan", "ios": "https://dc.lft.to/lastmile_qr_scan"}, "lat": 38.90943633333333, "is_reserved": 0, "is_disabled": 0, "fusion_lat": 0.0}, {"fusion_lon": 0.0, "bike_id": "41281eba7687c19d7d1709342e1b57b8", "name": "41281eba7687c19d7d1709342e1b57b8", "type": "electric_scooter", "lon": -77.04777583333333, "rental_uris": {"android": "https://dc.lft.to/lastmile_qr_scan", "ios": "https://dc.lft.to/lastmile_qr_scan"}, "lat": 38.90239, "is_reserved": 0, "is_disabled": 0, "fusion_lat": 0.0}, {"fusion_lon": 0.0, "bike_id": "dc4937a2351588f8bea7059797375aef", "name": "dc4937a2351588f8bea7059797375aef", "type": "electric_scooter", "lon": -77.074246, "rental_uris": {"android": "https://dc.lft.to/lastmile_qr_scan", "ios": "https://dc.lft.to/lastmile_qr_scan"}, "lat": 38.910894166666665, "is_reserved": 0, "is_disabled": 0, "fusion_lat": 0.0}, {"fusion_lon": 0.0, "bike_id": "4989315a78d06f9cd3cad9514219d900", "name": "4989315a78d06f9cd3cad9514219d900", "type": "electric_scooter", "lon": -77.0272195, "rental_uris": {"android": "https://dc.lft.to/lastmile_qr_scan", "ios": "https://dc.lft.to/lastmile_qr_scan"}, "lat": 38.94084766666667, "is_reserved": 0, "is_disabled": 0, "fusion_lat": 0.0}, {"fusion_lon": 0.0, "bike_id": "e83d9765b76577d8f5eb2a6f98ac4518", "name": "e83d9765b76577d8f5eb2a6f98ac4518", "type": "electric_scooter", "lon": -77.00916333333333, "rental_uris": {"android": "https://dc.lft.to/lastmile_qr_scan", "ios": "https://dc.lft.to/lastmile_qr_scan"}, "lat": 38.95953516666667, "is_reserved": 0, "is_disabled": 0, "fusion_lat": 0.0}, {"fusion_lon": 0.0, "bike_id": "4a70465f8b54187d2269bd35c63a0031", "name": "4a70465f8b54187d2269bd35c63a0031", "type": "electric_scooter", "lon": -77.05014416666667, "rental_uris": {"android": "https://dc.lft.to/lastmile_qr_scan", "ios": "https://dc.lft.to/lastmile_qr_scan"}, "lat": 38.90531416666666, "is_reserved": 0, "is_disabled": 0, "fusion_lat": 0.0}, {"fusion_lon": 0.0, "bike_id": "b879d9d9849e74f24d003cef17749de5", "name": "b879d9d9849e74f24d003cef17749de5", "type": "electric_scooter", "lon": -76.99956216666666, "rental_uris": {"android": "https://dc.lft.to/lastmile_qr_scan", "ios": "https://dc.lft.to/lastmile_qr_scan"}, "lat": 38.90385, "is_reserved": 0, "is_disabled": 0, "fusion_lat": 0.0}, {"fusion_lon": 0.0, "bike_id": "f44aa65bf1c69dca68bc08c20cd49cf5", "name": "f44aa65bf1c69dca68bc08c20cd49cf5", "type": "electric_scooter", "lon": -76.9718285, "rental_uris": {"android": "https://dc.lft.to/lastmile_qr_scan", "ios": "https://dc.lft.to/lastmile_qr_scan"}, "lat": 38.912640333333336, "is_reserved": 0, "is_disabled": 0, "fusion_lat": 0.0}, {"fusion_lon": 0.0, "bike_id": "aa5e435c30f9eccb848da4e6718ddd9c", "name": "aa5e435c30f9eccb848da4e6718ddd9c", "type": "electric_scooter", "lon": -76.99829766666667, "rental_uris": {"android": "https://dc.lft.to/lastmile_qr_scan", "ios": "https://dc.lft.to/lastmile_qr_scan"}, "lat": 38.9002615, "is_reserved": 0, "is_disabled": 0, "fusion_lat": 0.0}, {"fusion_lon": 0.0, "bike_id": "28b5ada2eb03d7f41267c937b8b31813", "name": "28b5ada2eb03d7f41267c937b8b31813", "type": "electric_scooter", "lon": -76.98808333333334, "rental_uris": {"android": "https://dc.lft.to/lastmile_qr_scan", "ios": "https://dc.lft.to/lastmile_qr_scan"}, "lat": 38.908267, "is_reserved": 0, "is_disabled": 0, "fusion_lat": 0.0}, {"fusion_lon": 0.0, "bike_id": "0e2219cd2b0ceed558bedddb7aedd4bb", "name": "0e2219cd2b0ceed558bedddb7aedd4bb", "type": "electric_scooter", "lon": -76.91230566666667, "rental_uris": {"android": "https://dc.lft.to/lastmile_qr_scan", "ios": "https://dc.lft.to/lastmile_qr_scan"}, "lat": 38.89393, "is_reserved": 0, "is_disabled": 0, "fusion_lat": 0.0}, {"fusion_lon": 0.0, "bike_id": "db0d8a473b4674bc20bfad538744704f", "name": "db0d8a473b4674bc20bfad538744704f", "type": "electric_scooter", "lon": -77.0220195, "rental_uris": {"android": "https://dc.lft.to/lastmile_qr_scan", "ios": "https://dc.lft.to/lastmile_qr_scan"}, "lat": 38.91535366666667, "is_reserved": 0, "is_disabled": 0, "fusion_lat": 0.0}, {"fusion_lon": 0.0, "bike_id": "d5cae7fce2c7b36e62d980325e7e1019", "name": "d5cae7fce2c7b36e62d980325e7e1019", "type": "electric_scooter", "lon": -77.03791166666667, "rental_uris": {"android": "https://dc.lft.to/lastmile_qr_scan", "ios": "https://dc.lft.to/lastmile_qr_scan"}, "lat": 38.936003166666666, "is_reserved": 0, "is_disabled": 0, "fusion_lat": 0.0}, {"fusion_lon": 0.0, "bike_id": "7354a8106202a3f6f85570fe6bc3d7ac", "name": "7354a8106202a3f6f85570fe6bc3d7ac", "type": "electric_scooter", "lon": -77.040811, "rental_uris": {"android": "https://dc.lft.to/lastmile_qr_scan", "ios": "https://dc.lft.to/lastmile_qr_scan"}, "lat": 38.917001, "is_reserved": 0, "is_disabled": 0, "fusion_lat": 0.0}, {"fusion_lon": 0.0, "bike_id": "32dce7d149f17aa9fdd929e349085974", "name": "32dce7d149f17aa9fdd929e349085974", "type": "electric_scooter", "lon": -77.02329966666667, "rental_uris": {"android": "https://dc.lft.to/lastmile_qr_scan", "ios": "https://dc.lft.to/lastmile_qr_scan"}, "lat": 38.92717183333333, "is_reserved": 0, "is_disabled": 0, "fusion_lat": 0.0}, {"fusion_lon": 0.0, "bike_id": "d3f920d519c0213bf59ff303663b336d", "name": "d3f920d519c0213bf59ff303663b336d", "type": "electric_scooter", "lon": -77.0168405, "rental_uris": {"android": "https://dc.lft.to/lastmile_qr_scan", "ios": "https://dc.lft.to/lastmile_qr_scan"}, "lat": 38.88325366666667, "is_reserved": 0, "is_disabled": 0, "fusion_lat": 0.0}, {"fusion_lon": 0.0, "bike_id": "4530a6cc68675fdadfee9812facf6bb6", "name": "4530a6cc68675fdadfee9812facf6bb6", "type": "electric_scooter", "lon": -77.02394383333333, "rental_uris": {"android": "https://dc.lft.to/lastmile_qr_scan", "ios": "https://dc.lft.to/lastmile_qr_scan"}, "lat": 38.9058885, "is_reserved": 0, "is_disabled": 0, "fusion_lat": 0.0}, {"fusion_lon": 0.0, "bike_id": "f8bc80a2389e80735f2c54d20387331b", "name": "f8bc80a2389e80735f2c54d20387331b", "type": "electric_scooter", "lon": -76.99610116666666, "rental_uris": {"android": "https://dc.lft.to/lastmile_qr_scan", "ios": "https://dc.lft.to/lastmile_qr_scan"}, "lat": 38.864630166666664, "is_reserved": 0, "is_disabled": 0, "fusion_lat": 0.0}, {"fusion_lon": 0.0, "bike_id": "06f86519e13f8b48cb02bc59fd408ac9", "name": "06f86519e13f8b48cb02bc59fd408ac9", "type": "electric_scooter", "lon": -77.05031766666667, "rental_uris": {"android": "https://dc.lft.to/lastmile_qr_scan", "ios": "https://dc.lft.to/lastmile_qr_scan"}, "lat": 38.89825583333333, "is_reserved": 0, "is_disabled": 0, "fusion_lat": 0.0}, {"fusion_lon": 0.0, "bike_id": "48494908c1ea291d25a1ae017b06e0c8", "name": "48494908c1ea291d25a1ae017b06e0c8", "type": "electric_scooter", "lon": -77.03430616666667, "rental_uris": {"android": "https://dc.lft.to/lastmile_qr_scan", "ios": "https://dc.lft.to/lastmile_qr_scan"}, "lat": 38.905686333333335, "is_reserved": 0, "is_disabled": 0, "fusion_lat": 0.0}, {"fusion_lon": 0.0, "bike_id": "9261ca9d2dbd4ffa241dc1bab41689f3", "name": "9261ca9d2dbd4ffa241dc1bab41689f3", "type": "electric_scooter", "lon": -77.02161633333333, "rental_uris": {"android": "https://dc.lft.to/lastmile_qr_scan", "ios": "https://dc.lft.to/lastmile_qr_scan"}, "lat": 38.9004405, "is_reserved": 0, "is_disabled": 0, "fusion_lat": 0.0}, {"fusion_lon": 0.0, "bike_id": "1b6b9379bd71ae4ce0a04bd5cd323905", "name": "1b6b9379bd71ae4ce0a04bd5cd323905", "type": "electric_scooter", "lon": -77.00816483333334, "rental_uris": {"android": "https://dc.lft.to/lastmile_qr_scan", "ios": "https://dc.lft.to/lastmile_qr_scan"}, "lat": 38.87639716666666, "is_reserved": 0, "is_disabled": 0, "fusion_lat": 0.0}, {"fusion_lon": 0.0, "bike_id": "b98d611615d68673be74ebc380805b25", "name": "b98d611615d68673be74ebc380805b25", "type": "electric_scooter", "lon": -76.99505816666667, "rental_uris": {"android": "https://dc.lft.to/lastmile_qr_scan", "ios": "https://dc.lft.to/lastmile_qr_scan"}, "lat": 38.88581033333333, "is_reserved": 0, "is_disabled": 0, "fusion_lat": 0.0}, {"fusion_lon": 0.0, "bike_id": "6a6c0a548fbd9baa1c6abe0000703ca2", "name": "6a6c0a548fbd9baa1c6abe0000703ca2", "type": "electric_scooter", "lon": -77.01618283333333, "rental_uris": {"android": "https://dc.lft.to/lastmile_qr_scan", "ios": "https://dc.lft.to/lastmile_qr_scan"}, "lat": 38.905991, "is_reserved": 0, "is_disabled": 0, "fusion_lat": 0.0}, {"fusion_lon": 0.0, "bike_id": "a77b137eab0621b7bb1041b742aa8687", "name": "a77b137eab0621b7bb1041b742aa8687", "type": "electric_scooter", "lon": -77.01387666666666, "rental_uris": {"android": "https://dc.lft.to/lastmile_qr_scan", "ios": "https://dc.lft.to/lastmile_qr_scan"}, "lat": 38.880227833333336, "is_reserved": 0, "is_disabled": 0, "fusion_lat": 0.0}, {"fusion_lon": 0.0, "bike_id": "0d96a78ca7f4399d187a46d1894fa0bd", "name": "0d96a78ca7f4399d187a46d1894fa0bd", "type": "electric_scooter", "lon": -77.00580983333333, "rental_uris": {"android": "https://dc.lft.to/lastmile_qr_scan", "ios": "https://dc.lft.to/lastmile_qr_scan"}, "lat": 38.9055615, "is_reserved": 0, "is_disabled": 0, "fusion_lat": 0.0}, {"fusion_lon": 0.0, "bike_id": "6852122ceb1632e2de6b542ae3173389", "name": "6852122ceb1632e2de6b542ae3173389", "type": "electric_bike", "lon": -77.06952266666667, "rental_uris": {"android": "https://dc.lft.to/lastmile_qr_scan", "ios": "https://dc.lft.to/lastmile_qr_scan"}, "lat": 38.990416333333336, "is_reserved": 0, "is_disabled": 0, "fusion_lat": 0.0}, {"fusion_lon": 0.0, "bike_id": "afe51a4fb4b1cb3b05f6946e73d688f3", "name": "afe51a4fb4b1cb3b05f6946e73d688f3", "type": "electric_scooter", "lon": -77.00201833333334, "rental_uris": {"android": "https://dc.lft.to/lastmile_qr_scan", "ios": "https://dc.lft.to/lastmile_qr_scan"}, "lat": 38.90003816666667, "is_reserved": 0, "is_disabled": 0, "fusion_lat": 0.0}, {"fusion_lon": 0.0, "bike_id": "3557027d7006a41752c5bab450100875", "name": "3557027d7006a41752c5bab450100875", "type": "electric_scooter", "lon": -77.07080566666667, "rental_uris": {"android": "https://dc.lft.to/lastmile_qr_scan", "ios": "https://dc.lft.to/lastmile_qr_scan"}, "lat": 38.9390445, "is_reserved": 0, "is_disabled": 0, "fusion_lat": 0.0}, {"fusion_lon": 0.0, "bike_id": "3aa2a336f4b8156a6d03ff20dddbc87f", "name": "3aa2a336f4b8156a6d03ff20dddbc87f", "type": "electric_scooter", "lon": -77.032082, "rental_uris": {"android": "https://dc.lft.to/lastmile_qr_scan", "ios": "https://dc.lft.to/lastmile_qr_scan"}, "lat": 38.9092275, "is_reserved": 0, "is_disabled": 0, "fusion_lat": 0.0}, {"fusion_lon": 0.0, "bike_id": "184c8d5cc08e8d4aeb37fb9c6857fa07", "name": "184c8d5cc08e8d4aeb37fb9c6857fa07", "type": "electric_scooter", "lon": -77.04577216666667, "rental_uris": {"android": "https://dc.lft.to/lastmile_qr_scan", "ios": "https://dc.lft.to/lastmile_qr_scan"}, "lat": 38.92414483333334, "is_reserved": 0, "is_disabled": 0, "fusion_lat": 0.0}, {"fusion_lon": 0.0, "bike_id": "ed3d6fbcc86221f80769b9e4f00e1606", "name": "ed3d6fbcc86221f80769b9e4f00e1606", "type": "electric_scooter", "lon": -77.02801983333333, "rental_uris": {"android": "https://dc.lft.to/lastmile_qr_scan", "ios": "https://dc.lft.to/lastmile_qr_scan"}, "lat": 38.91682266666667, "is_reserved": 0, "is_disabled": 0, "fusion_lat": 0.0}, {"fusion_lon": 0.0, "bike_id": "147e582ddb542c81a8a92e2771fdb24c", "name": "147e582ddb542c81a8a92e2771fdb24c", "type": "electric_scooter", "lon": -77.01997083333333, "rental_uris": {"android": "https://dc.lft.to/lastmile_qr_scan", "ios": "https://dc.lft.to/lastmile_qr_scan"}, "lat": 38.96629466666667, "is_reserved": 0, "is_disabled": 0, "fusion_lat": 0.0}, {"fusion_lon": 0.0, "bike_id": "df9399995130ace15f75ab1a0c92d7f6", "name": "df9399995130ace15f75ab1a0c92d7f6", "type": "electric_bike", "lon": -76.94803233333333, "rental_uris": {"android": "https://dc.lft.to/lastmile_qr_scan", "ios": "https://dc.lft.to/lastmile_qr_scan"}, "lat": 38.86198433333333, "is_reserved": 0, "is_disabled": 0, "fusion_lat": 0.0}, {"fusion_lon": 0.0, "bike_id": "b73585ca18153e05c3031551412ec218", "name": "b73585ca18153e05c3031551412ec218", "type": "electric_bike", "lon": -76.98006416666666, "rental_uris": {"android": "https://dc.lft.to/lastmile_qr_scan", "ios": "https://dc.lft.to/lastmile_qr_scan"}, "lat": 38.85323233333333, "is_reserved": 0, "is_disabled": 0, "fusion_lat": 0.0}, {"fusion_lon": 0.0, "bike_id": "fca448b2a3ec16a466ef50d6b59ecb91", "name": "fca448b2a3ec16a466ef50d6b59ecb91", "type": "electric_scooter", "lon": -77.03863083333333, "rental_uris": {"android": "https://dc.lft.to/lastmile_qr_scan", "ios": "https://dc.lft.to/lastmile_qr_scan"}, "lat": 38.915547833333335, "is_reserved": 0, "is_disabled": 0, "fusion_lat": 0.0}, {"fusion_lon": 0.0, "bike_id": "298fcdf1268fd27a2b17e9cba8f0af9a", "name": "298fcdf1268fd27a2b17e9cba8f0af9a", "type": "electric_scooter", "lon": -77.02124033333334, "rental_uris": {"android": "https://dc.lft.to/lastmile_qr_scan", "ios": "https://dc.lft.to/lastmile_qr_scan"}, "lat": 38.894904833333335, "is_reserved": 0, "is_disabled": 0, "fusion_lat": 0.0}, {"fusion_lon": 0.0, "bike_id": "b4ebf4cb628015a3f69adca696803a0b", "name": "b4ebf4cb628015a3f69adca696803a0b", "type": "electric_scooter", "lon": -77.02801866666667, "rental_uris": {"android": "https://dc.lft.to/lastmile_qr_scan", "ios": "https://dc.lft.to/lastmile_qr_scan"}, "lat": 38.911030333333336, "is_reserved": 0, "is_disabled": 0, "fusion_lat": 0.0}, {"fusion_lon": 0.0, "bike_id": "910cc810485f466a883853275d8782b5", "name": "910cc810485f466a883853275d8782b5", "type": "electric_scooter", "lon": -77.03261116666667, "rental_uris": {"android": "https://dc.lft.to/lastmile_qr_scan", "ios": "https://dc.lft.to/lastmile_qr_scan"}, "lat": 38.932651666666665, "is_reserved": 0, "is_disabled": 0, "fusion_lat": 0.0}, {"fusion_lon": 0.0, "bike_id": "9345a9cde690281100b8894897b7e045", "name": "9345a9cde690281100b8894897b7e045", "type": "electric_scooter", "lon": -77.03183083333333, "rental_uris": {"android": "https://dc.lft.to/lastmile_qr_scan", "ios": "https://dc.lft.to/lastmile_qr_scan"}, "lat": 38.907953, "is_reserved": 0, "is_disabled": 0, "fusion_lat": 0.0}, {"fusion_lon": 0.0, "bike_id": "1d515e99a45deae4ba9f1cfc6e9b4fd4", "name": "1d515e99a45deae4ba9f1cfc6e9b4fd4", "type": "electric_scooter", "lon": -77.04174083333334, "rental_uris": {"android": "https://dc.lft.to/lastmile_qr_scan", "ios": "https://dc.lft.to/lastmile_qr_scan"}, "lat": 38.920121, "is_reserved": 0, "is_disabled": 0, "fusion_lat": 0.0}, {"fusion_lon": 0.0, "bike_id": "35bfc73e08ad13c6a219837644ff6729", "name": "35bfc73e08ad13c6a219837644ff6729", "type": "electric_scooter", "lon": -77.03439216666666, "rental_uris": {"android": "https://dc.lft.to/lastmile_qr_scan", "ios": "https://dc.lft.to/lastmile_qr_scan"}, "lat": 38.90723783333333, "is_reserved": 0, "is_disabled": 0, "fusion_lat": 0.0}, {"fusion_lon": 0.0, "bike_id": "4718bc77d2841adf8c930668bd3ad427", "name": "4718bc77d2841adf8c930668bd3ad427", "type": "electric_scooter", "lon": -77.01101383333334, "rental_uris": {"android": "https://dc.lft.to/lastmile_qr_scan", "ios": "https://dc.lft.to/lastmile_qr_scan"}, "lat": 38.90971166666667, "is_reserved": 0, "is_disabled": 0, "fusion_lat": 0.0}, {"fusion_lon": 0.0, "bike_id": "74dd20550259233cfab3247d6cd4a851", "name": "74dd20550259233cfab3247d6cd4a851", "type": "electric_scooter", "lon": -77.03108016666667, "rental_uris": {"android": "https://dc.lft.to/lastmile_qr_scan", "ios": "https://dc.lft.to/lastmile_qr_scan"}, "lat": 38.92020816666667, "is_reserved": 0, "is_disabled": 0, "fusion_lat": 0.0}, {"fusion_lon": 0.0, "bike_id": "c11626ed34daf9cb17254022f90ede15", "name": "c11626ed34daf9cb17254022f90ede15", "type": "electric_scooter", "lon": -77.02350783333333, "rental_uris": {"android": "https://dc.lft.to/lastmile_qr_scan", "ios": "https://dc.lft.to/lastmile_qr_scan"}, "lat": 38.935326333333336, "is_reserved": 0, "is_disabled": 0, "fusion_lat": 0.0}, {"fusion_lon": 0.0, "bike_id": "be8191cd16617646e43fd08cf14045af", "name": "be8191cd16617646e43fd08cf14045af", "type": "electric_scooter", "lon": -77.01761833333333, "rental_uris": {"android": "https://dc.lft.to/lastmile_qr_scan", "ios": "https://dc.lft.to/lastmile_qr_scan"}, "lat": 38.87711133333333, "is_reserved": 0, "is_disabled": 0, "fusion_lat": 0.0}, {"fusion_lon": 0.0, "bike_id": "822ae1573f0d0768e305539850e8cc20", "name": "822ae1573f0d0768e305539850e8cc20", "type": "electric_scooter", "lon": -77.04039433333334, "rental_uris": {"android": "https://dc.lft.to/lastmile_qr_scan", "ios": "https://dc.lft.to/lastmile_qr_scan"}, "lat": 38.90560633333333, "is_reserved": 0, "is_disabled": 0, "fusion_lat": 0.0}, {"fusion_lon": 0.0, "bike_id": "9923a2b8fa59e4b43445f7f858d00fa2", "name": "9923a2b8fa59e4b43445f7f858d00fa2", "type": "electric_scooter", "lon": -77.04289, "rental_uris": {"android": "https://dc.lft.to/lastmile_qr_scan", "ios": "https://dc.lft.to/lastmile_qr_scan"}, "lat": 38.91331733333333, "is_reserved": 0, "is_disabled": 0, "fusion_lat": 0.0}, {"fusion_lon": 0.0, "bike_id": "1841ba99ef547db7b251b25bf9cfc582", "name": "1841ba99ef547db7b251b25bf9cfc582", "type": "electric_scooter", "lon": -77.00934466666666, "rental_uris": {"android": "https://dc.lft.to/lastmile_qr_scan", "ios": "https://dc.lft.to/lastmile_qr_scan"}, "lat": 38.8765995, "is_reserved": 0, "is_disabled": 0, "fusion_lat": 0.0}, {"fusion_lon": 0.0, "bike_id": "a7acf34f23f4058b1bce0169e059ee80", "name": "a7acf34f23f4058b1bce0169e059ee80", "type": "electric_scooter", "lon": -77.04357016666667, "rental_uris": {"android": "https://dc.lft.to/lastmile_qr_scan", "ios": "https://dc.lft.to/lastmile_qr_scan"}, "lat": 38.918806333333336, "is_reserved": 0, "is_disabled": 0, "fusion_lat": 0.0}, {"fusion_lon": 0.0, "bike_id": "071974c397fd06e7c95e4c498c6bdfd6", "name": "071974c397fd06e7c95e4c498c6bdfd6", "type": "electric_scooter", "lon": -77.00828566666667, "rental_uris": {"android": "https://dc.lft.to/lastmile_qr_scan", "ios": "https://dc.lft.to/lastmile_qr_scan"}, "lat": 38.876444166666666, "is_reserved": 0, "is_disabled": 0, "fusion_lat": 0.0}, {"fusion_lon": 0.0, "bike_id": "5ecae81ac126bb5cb05da21b71078b41", "name": "5ecae81ac126bb5cb05da21b71078b41", "type": "electric_scooter", "lon": -77.07703933333333, "rental_uris": {"android": "https://dc.lft.to/lastmile_qr_scan", "ios": "https://dc.lft.to/lastmile_qr_scan"}, "lat": 38.9429175, "is_reserved": 0, "is_disabled": 0, "fusion_lat": 0.0}, {"fusion_lon": 0.0, "bike_id": "0603245fcea30414d7c5653549aa8f64", "name": "0603245fcea30414d7c5653549aa8f64", "type": "electric_scooter", "lon": -77.02111816666667, "rental_uris": {"android": "https://dc.lft.to/lastmile_qr_scan", "ios": "https://dc.lft.to/lastmile_qr_scan"}, "lat": 38.897494, "is_reserved": 0, "is_disabled": 0, "fusion_lat": 0.0}, {"fusion_lon": 0.0, "bike_id": "86cd1443e063332d0b3127a2f898ece6", "name": "86cd1443e063332d0b3127a2f898ece6", "type": "electric_scooter", "lon": -77.04154583333333, "rental_uris": {"android": "https://dc.lft.to/lastmile_qr_scan", "ios": "https://dc.lft.to/lastmile_qr_scan"}, "lat": 38.9148005, "is_reserved": 0, "is_disabled": 0, "fusion_lat": 0.0}, {"fusion_lon": 0.0, "bike_id": "b53ee3da7e99ef1f1a588d6f22844072", "name": "b53ee3da7e99ef1f1a588d6f22844072", "type": "electric_scooter", "lon": -77.0108945, "rental_uris": {"android": "https://dc.lft.to/lastmile_qr_scan", "ios": "https://dc.lft.to/lastmile_qr_scan"}, "lat": 38.89600766666667, "is_reserved": 0, "is_disabled": 0, "fusion_lat": 0.0}, {"fusion_lon": 0.0, "bike_id": "eeeac614caae5440989c515ae051de48", "name": "eeeac614caae5440989c515ae051de48", "type": "electric_scooter", "lon": -77.042429, "rental_uris": {"android": "https://dc.lft.to/lastmile_qr_scan", "ios": "https://dc.lft.to/lastmile_qr_scan"}, "lat": 38.919255666666665, "is_reserved": 0, "is_disabled": 0, "fusion_lat": 0.0}, {"fusion_lon": 0.0, "bike_id": "3f003f2ef3b11a0c2ab12ff9b6405037", "name": "3f003f2ef3b11a0c2ab12ff9b6405037", "type": "electric_scooter", "lon": -77.04889783333333, "rental_uris": {"android": "https://dc.lft.to/lastmile_qr_scan", "ios": "https://dc.lft.to/lastmile_qr_scan"}, "lat": 38.901912, "is_reserved": 0, "is_disabled": 0, "fusion_lat": 0.0}, {"fusion_lon": 0.0, "bike_id": "8973189165266b01b4543527dfec0dd3", "name": "8973189165266b01b4543527dfec0dd3", "type": "electric_scooter", "lon": -77.03174516666667, "rental_uris": {"android": "https://dc.lft.to/lastmile_qr_scan", "ios": "https://dc.lft.to/lastmile_qr_scan"}, "lat": 38.914054166666666, "is_reserved": 0, "is_disabled": 0, "fusion_lat": 0.0}, {"fusion_lon": 0.0, "bike_id": "3c1e50291660a408ecbdf7b4ded26ee4", "name": "3c1e50291660a408ecbdf7b4ded26ee4", "type": "electric_bike", "lon": -76.98656666666666, "rental_uris": {"android": "https://dc.lft.to/lastmile_qr_scan", "ios": "https://dc.lft.to/lastmile_qr_scan"}, "lat": 38.93971366666667, "is_reserved": 0, "is_disabled": 0, "fusion_lat": 0.0}, {"fusion_lon": 0.0, "bike_id": "f89b35bc53c33451b0e4ca9586da2ca2", "name": "f89b35bc53c33451b0e4ca9586da2ca2", "type": "electric_scooter", "lon": -76.996427, "rental_uris": {"android": "https://dc.lft.to/lastmile_qr_scan", "ios": "https://dc.lft.to/lastmile_qr_scan"}, "lat": 38.887228666666665, "is_reserved": 0, "is_disabled": 0, "fusion_lat": 0.0}, {"fusion_lon": 0.0, "bike_id": "895ad87dc08bd23e0bbe35361c6017d2", "name": "895ad87dc08bd23e0bbe35361c6017d2", "type": "electric_scooter", "lon": -77.02803083333333, "rental_uris": {"android": "https://dc.lft.to/lastmile_qr_scan", "ios": "https://dc.lft.to/lastmile_qr_scan"}, "lat": 38.898304833333334, "is_reserved": 0, "is_disabled": 0, "fusion_lat": 0.0}, {"fusion_lon": 0.0, "bike_id": "64e0d9032e617f42d50a4e0a90ee6c0c", "name": "64e0d9032e617f42d50a4e0a90ee6c0c", "type": "electric_scooter", "lon": -76.99605216666667, "rental_uris": {"android": "https://dc.lft.to/lastmile_qr_scan", "ios": "https://dc.lft.to/lastmile_qr_scan"}, "lat": 38.88036183333333, "is_reserved": 0, "is_disabled": 0, "fusion_lat": 0.0}, {"fusion_lon": 0.0, "bike_id": "cb6dd2635a30d079fd27cc27c56c127f", "name": "cb6dd2635a30d079fd27cc27c56c127f", "type": "electric_scooter", "lon": -77.038553, "rental_uris": {"android": "https://dc.lft.to/lastmile_qr_scan", "ios": "https://dc.lft.to/lastmile_qr_scan"}, "lat": 38.9183785, "is_reserved": 0, "is_disabled": 0, "fusion_lat": 0.0}, {"fusion_lon": 0.0, "bike_id": "5ab49040dd79d9861bcbe6e76389ddfb", "name": "5ab49040dd79d9861bcbe6e76389ddfb", "type": "electric_scooter", "lon": -77.00043033333333, "rental_uris": {"android": "https://dc.lft.to/lastmile_qr_scan", "ios": "https://dc.lft.to/lastmile_qr_scan"}, "lat": 38.918973, "is_reserved": 0, "is_disabled": 0, "fusion_lat": 0.0}, {"fusion_lon": 0.0, "bike_id": "9985cb8b770463ec8df7205c87b4fc34", "name": "9985cb8b770463ec8df7205c87b4fc34", "type": "electric_scooter", "lon": -77.0362125, "rental_uris": {"android": "https://dc.lft.to/lastmile_qr_scan", "ios": "https://dc.lft.to/lastmile_qr_scan"}, "lat": 38.924560666666665, "is_reserved": 0, "is_disabled": 0, "fusion_lat": 0.0}, {"fusion_lon": 0.0, "bike_id": "681b8ae6e36d748f23d77506fd56ab88", "name": "681b8ae6e36d748f23d77506fd56ab88", "type": "electric_scooter", "lon": -77.08190666666667, "rental_uris": {"android": "https://dc.lft.to/lastmile_qr_scan", "ios": "https://dc.lft.to/lastmile_qr_scan"}, "lat": 38.93563983333333, "is_reserved": 0, "is_disabled": 0, "fusion_lat": 0.0}, {"fusion_lon": 0.0, "bike_id": "20bbdbcd2fa034c8257ced4c82c17455", "name": "20bbdbcd2fa034c8257ced4c82c17455", "type": "electric_scooter", "lon": -77.04152883333333, "rental_uris": {"android": "https://dc.lft.to/lastmile_qr_scan", "ios": "https://dc.lft.to/lastmile_qr_scan"}, "lat": 38.9171745, "is_reserved": 0, "is_disabled": 0, "fusion_lat": 0.0}, {"fusion_lon": 0.0, "bike_id": "f29414b9602de41cd42f9dd586781bbc", "name": "f29414b9602de41cd42f9dd586781bbc", "type": "electric_scooter", "lon": -77.03394666666667, "rental_uris": {"android": "https://dc.lft.to/lastmile_qr_scan", "ios": "https://dc.lft.to/lastmile_qr_scan"}, "lat": 38.91921933333333, "is_reserved": 0, "is_disabled": 0, "fusion_lat": 0.0}, {"fusion_lon": 0.0, "bike_id": "503c7b7e22b0393a081e9d1b2efb7718", "name": "503c7b7e22b0393a081e9d1b2efb7718", "type": "electric_scooter", "lon": -77.02096033333333, "rental_uris": {"android": "https://dc.lft.to/lastmile_qr_scan", "ios": "https://dc.lft.to/lastmile_qr_scan"}, "lat": 38.934504, "is_reserved": 0, "is_disabled": 0, "fusion_lat": 0.0}, {"fusion_lon": 0.0, "bike_id": "14c37bc2007d5dadbd7521cd98bb2d31", "name": "14c37bc2007d5dadbd7521cd98bb2d31", "type": "electric_scooter", "lon": -77.00193216666666, "rental_uris": {"android": "https://dc.lft.to/lastmile_qr_scan", "ios": "https://dc.lft.to/lastmile_qr_scan"}, "lat": 38.9147535, "is_reserved": 0, "is_disabled": 0, "fusion_lat": 0.0}, {"fusion_lon": 0.0, "bike_id": "b8201eecd7d13d6f3a746b12616ca12e", "name": "b8201eecd7d13d6f3a746b12616ca12e", "type": "electric_scooter", "lon": -77.05705516666667, "rental_uris": {"android": "https://dc.lft.to/lastmile_qr_scan", "ios": "https://dc.lft.to/lastmile_qr_scan"}, "lat": 38.910603, "is_reserved": 0, "is_disabled": 0, "fusion_lat": 0.0}, {"fusion_lon": 0.0, "bike_id": "af940e2eeed623c961fe7e56b57e3471", "name": "af940e2eeed623c961fe7e56b57e3471", "type": "electric_scooter", "lon": -76.933494, "rental_uris": {"android": "https://dc.lft.to/lastmile_qr_scan", "ios": "https://dc.lft.to/lastmile_qr_scan"}, "lat": 38.8990435, "is_reserved": 0, "is_disabled": 0, "fusion_lat": 0.0}, {"fusion_lon": 0.0, "bike_id": "bae76def14f0b8b84911db211d507f36", "name": "bae76def14f0b8b84911db211d507f36", "type": "electric_scooter", "lon": -77.01210683333333, "rental_uris": {"android": "https://dc.lft.to/lastmile_qr_scan", "ios": "https://dc.lft.to/lastmile_qr_scan"}, "lat": 38.89334766666666, "is_reserved": 0, "is_disabled": 0, "fusion_lat": 0.0}, {"fusion_lon": 0.0, "bike_id": "c01e8e3247d1fc79ff70961b277256ca", "name": "c01e8e3247d1fc79ff70961b277256ca", "type": "electric_scooter", "lon": -77.036403, "rental_uris": {"android": "https://dc.lft.to/lastmile_qr_scan", "ios": "https://dc.lft.to/lastmile_qr_scan"}, "lat": 38.915932833333336, "is_reserved": 0, "is_disabled": 0, "fusion_lat": 0.0}, {"fusion_lon": 0.0, "bike_id": "3d8da7a80a86b006108bf66ed688e962", "name": "3d8da7a80a86b006108bf66ed688e962", "type": "electric_bike", "lon": -76.98157666666667, "rental_uris": {"android": "https://dc.lft.to/lastmile_qr_scan", "ios": "https://dc.lft.to/lastmile_qr_scan"}, "lat": 38.95964433333333, "is_reserved": 0, "is_disabled": 0, "fusion_lat": 0.0}, {"fusion_lon": 0.0, "bike_id": "7c17fc55d37383abcedd14614cc43f1d", "name": "7c17fc55d37383abcedd14614cc43f1d", "type": "electric_scooter", "lon": -77.0118805, "rental_uris": {"android": "https://dc.lft.to/lastmile_qr_scan", "ios": "https://dc.lft.to/lastmile_qr_scan"}, "lat": 38.906557666666664, "is_reserved": 0, "is_disabled": 0, "fusion_lat": 0.0}, {"fusion_lon": 0.0, "bike_id": "c3d53412892347a3170e15cc2a028bde", "name": "c3d53412892347a3170e15cc2a028bde", "type": "electric_scooter", "lon": -77.01893066666666, "rental_uris": {"android": "https://dc.lft.to/lastmile_qr_scan", "ios": "https://dc.lft.to/lastmile_qr_scan"}, "lat": 38.9492855, "is_reserved": 0, "is_disabled": 0, "fusion_lat": 0.0}, {"fusion_lon": 0.0, "bike_id": "cf7a7ca20d376962bdae8a511c10652d", "name": "cf7a7ca20d376962bdae8a511c10652d", "type": "electric_scooter", "lon": -77.0021715, "rental_uris": {"android": "https://dc.lft.to/lastmile_qr_scan", "ios": "https://dc.lft.to/lastmile_qr_scan"}, "lat": 38.900316333333336, "is_reserved": 0, "is_disabled": 0, "fusion_lat": 0.0}, {"fusion_lon": 0.0, "bike_id": "94f0c7ffa0ddc4d1a1d9b05b5758a051", "name": "94f0c7ffa0ddc4d1a1d9b05b5758a051", "type": "electric_scooter", "lon": -77.035364, "rental_uris": {"android": "https://dc.lft.to/lastmile_qr_scan", "ios": "https://dc.lft.to/lastmile_qr_scan"}, "lat": 38.9359985, "is_reserved": 0, "is_disabled": 0, "fusion_lat": 0.0}, {"fusion_lon": 0.0, "bike_id": "91349fcca5fff23702792bbbc83f237f", "name": "91349fcca5fff23702792bbbc83f237f", "type": "electric_scooter", "lon": -76.98449633333334, "rental_uris": {"android": "https://dc.lft.to/lastmile_qr_scan", "ios": "https://dc.lft.to/lastmile_qr_scan"}, "lat": 38.879942666666665, "is_reserved": 0, "is_disabled": 0, "fusion_lat": 0.0}, {"fusion_lon": 0.0, "bike_id": "3178da73422b3282a8668c8ad3ea95c8", "name": "3178da73422b3282a8668c8ad3ea95c8", "type": "electric_scooter", "lon": -77.04159666666666, "rental_uris": {"android": "https://dc.lft.to/lastmile_qr_scan", "ios": "https://dc.lft.to/lastmile_qr_scan"}, "lat": 38.91092166666667, "is_reserved": 0, "is_disabled": 0, "fusion_lat": 0.0}, {"fusion_lon": 0.0, "bike_id": "fa57e616d4f8f25aed6eb8228544e122", "name": "fa57e616d4f8f25aed6eb8228544e122", "type": "electric_scooter", "lon": -77.04154733333333, "rental_uris": {"android": "https://dc.lft.to/lastmile_qr_scan", "ios": "https://dc.lft.to/lastmile_qr_scan"}, "lat": 38.916042833333336, "is_reserved": 0, "is_disabled": 0, "fusion_lat": 0.0}, {"fusion_lon": 0.0, "bike_id": "ef77e9f0164bd5480aa12f1d63e361ff", "name": "ef77e9f0164bd5480aa12f1d63e361ff", "type": "electric_scooter", "lon": -76.991847, "rental_uris": {"android": "https://dc.lft.to/lastmile_qr_scan", "ios": "https://dc.lft.to/lastmile_qr_scan"}, "lat": 38.92598233333333, "is_reserved": 0, "is_disabled": 0, "fusion_lat": 0.0}, {"fusion_lon": 0.0, "bike_id": "0cffbfbbe80d4e940f5030b94dd0ee2d", "name": "0cffbfbbe80d4e940f5030b94dd0ee2d", "type": "electric_scooter", "lon": -77.04713516666666, "rental_uris": {"android": "https://dc.lft.to/lastmile_qr_scan", "ios": "https://dc.lft.to/lastmile_qr_scan"}, "lat": 38.899424, "is_reserved": 0, "is_disabled": 0, "fusion_lat": 0.0}, {"fusion_lon": 0.0, "bike_id": "663c7af598e19e170cb74078f1057891", "name": "663c7af598e19e170cb74078f1057891", "type": "electric_bike", "lon": -77.15266416666667, "rental_uris": {"android": "https://dc.lft.to/lastmile_qr_scan", "ios": "https://dc.lft.to/lastmile_qr_scan"}, "lat": 39.1056635, "is_reserved": 0, "is_disabled": 0, "fusion_lat": 0.0},