{"data": {"bikes": [{"type": "electric_scooter", "fusion_lon": 0.0, "bike_id": "91df1aa3f342647d05a7f7be1ac19704", "is_disabled": 0, "lat": 38.93830766666667, "rental_uris": {"ios": "https://dc.lft.to/lastmile_qr_scan", "android": "https://dc.lft.to/lastmile_qr_scan"}, "is_reserved": 0, "lon": -77.06171783333333, "fusion_lat": 0.0, "name": "91df1aa3f342647d05a7f7be1ac19704"}, {"type": "electric_scooter", "fusion_lon": 0.0, "bike_id": "828709eb82b382d85f9b83b89269550e", "is_disabled": 0, "lat": 38.89910066666667, "rental_uris": {"ios": "https://dc.lft.to/lastmile_qr_scan", "android": "https://dc.lft.to/lastmile_qr_scan"}, "is_reserved": 0, "lon": -76.9338105, "fusion_lat": 0.0, "name": "828709eb82b382d85f9b83b89269550e"}, {"type": "electric_bike", "fusion_lon": 0.0, "bike_id": "54e0a19f61aebeb76698b0e81079f7a5", "is_disabled": 0, "lat": 38.9441525, "rental_uris": {"ios": "https://dc.lft.to/lastmile_qr_scan", "android": "https://dc.lft.to/lastmile_qr_scan"}, "is_reserved": 0, "lon": -77.05512733333333, "fusion_lat": 0.0, "name": "54e0a19f61aebeb76698b0e81079f7a5"}, {"type": "electric_scooter", "fusion_lon": 0.0, "bike_id": "6f385b4a1990c4f2737e5f9b8ad96be9", "is_disabled": 0, "lat": 38.88604983333333, "rental_uris": {"ios": "https://dc.lft.to/lastmile_qr_scan", "android": "https://dc.lft.to/lastmile_qr_scan"}, "is_reserved": 0, "lon": -77.0179245, "fusion_lat": 0.0, "name": "6f385b4a1990c4f2737e5f9b8ad96be9"}, {"type": "electric_scooter", "fusion_lon": 0.0, "bike_id": "8a51a236ebe816f79afb5c8e7be506e8", "is_disabled": 0, "lat": 38.945167, "rental_uris": {"ios": "https://dc.lft.to/lastmile_qr_scan", "android": "https://dc.lft.to/lastmile_qr_scan"}, "is_reserved": 0, "lon": -77.03356933333333, "fusion_lat": 0.0, "name": "8a51a236ebe816f79afb5c8e7be506e8"}, {"type": "electric_scooter", "fusion_lon": 0.0, "bike_id": "91173b8dd9f78a9ed1e608db22aa6585", "is_disabled": 0, "lat": 38.894239166666665, "rental_uris": {"ios": "https://dc.lft.to/lastmile_qr_scan", "android": "https://dc.lft.to/lastmile_qr_scan"}, "is_reserved": 0, "lon": -76.9995755, "fusion_lat": 0.0, "name": "91173b8dd9f78a9ed1e608db22aa6585"}, {"type": "electric_scooter", "fusion_lon": 0.0, "bike_id": "b6697f018b57e5ce51cd9c412d642e0a", "is_disabled": 0, "lat": 38.934289666666665, "rental_uris": {"ios": "https://dc.lft.to/lastmile_qr_scan", "android": "https://dc.lft.to/lastmile_qr_scan"}, "is_reserved": 0, "lon": -77.04002083333333, "fusion_lat": 0.0, "name": "b6697f018b57e5ce51cd9c412d642e0a"}, {"type": "electric_scooter", "fusion_lon": 0.0, "bike_id": "9122cf153155df49b62afcf532995e5d", "is_disabled": 0, "lat": 38.9418865, "rental_uris": {"ios": "https://dc.lft.to/lastmile_qr_scan", "android": "https://dc.lft.to/lastmile_qr_scan"}, "is_reserved": 0, "lon": -77.023853, "fusion_lat": 0.0, "name": "9122cf153155df49b62afcf532995e5d"}, {"type": "electric_scooter", "fusion_lon": 0.0, "bike_id": "a782c0b718da609d8cb44f3963f3ab66", "is_disabled": 0, "lat": 38.8666145, "rental_uris": {"ios": "https://dc.lft.to/lastmile_qr_scan", "android": "https://dc.lft.to/lastmile_qr_scan"}, "is_reserved": 0, "lon": -76.98879683333334, "fusion_lat": 0.0, "name": "a782c0b718da609d8cb44f3963f3ab66"}, {"type": "electric_bike", "fusion_lon": 0.0, "bike_id": "a216e248b600b776cbe57d1684089853", "is_disabled": 0, "lat": 39.002956, "rental_uris": {"ios": "https://dc.lft.to/lastmile_qr_scan", "android": "https://dc.lft.to/lastmile_qr_scan"}, "is_reserved": 0, "lon": -76.90301133333334, "fusion_lat": 0.0, "name": "a216e248b600b776cbe57d1684089853"}, {"type": "electric_scooter", "fusion_lon": 0.0, "bike_id": "ac01ea123c0fe6013e77e836582aa2af", "is_disabled": 0, "lat": 38.91753416666667, "rental_uris": {"ios": "https://dc.lft.to/lastmile_qr_scan", "android": "https://dc.lft.to/lastmile_qr_scan"}, "is_reserved": 0, "lon": -77.03658716666666, "fusion_lat": 0.0, "name": "ac01ea123c0fe6013e77e836582aa2af"}, {"type": "electric_scooter", "fusion_lon": 0.0, "bike_id": "abfc2c249027e9284b8a4e57e2421be8", "is_disabled": 0, "lat": 38.887447, "rental_uris": {"ios": "https://dc.lft.to/lastmile_qr_scan", "android": "https://dc.lft.to/lastmile_qr_scan"}, "is_reserved": 0, "lon": -77.02568016666666, "fusion_lat": 0.0, "name": "abfc2c249027e9284b8a4e57e2421be8"}, {"type": "electric_scooter", "fusion_lon": 0.0, "bike_id": "cee9751cc3337403673b12689deab789", "is_disabled": 0, "lat": 38.9060205, "rental_uris": {"ios": "https://dc.lft.to/lastmile_qr_scan", "android": "https://dc.lft.to/lastmile_qr_scan"}, "is_reserved": 0, "lon": -77.04710816666666, "fusion_lat": 0.0, "name": "cee9751cc3337403673b12689deab789"}, {"type": "electric_scooter", "fusion_lon": 0.0, "bike_id": "5de9d18e1c0b04637a5e0291a320c745", "is_disabled": 0, "lat": 38.92773533333333, "rental_uris": {"ios": "https://dc.lft.to/lastmile_qr_scan", "android": "https://dc.lft.to/lastmile_qr_scan"}, "is_reserved": 0, "lon": -77.03237733333333, "fusion_lat": 0.0, "name": "5de9d18e1c0b04637a5e0291a320c745"}, {"type": "electric_bike", "fusion_lon": 0.0, "bike_id": "af4623a2f9c9c68abc23dd11ffed6fc0", "is_disabled": 0, "lat": 38.842785, "rental_uris": {"ios": "https://dc.lft.to/lastmile_qr_scan", "android": "https://dc.lft.to/lastmile_qr_scan"}, "is_reserved": 0, "lon": -76.98840583333333, "fusion_lat": 0.0, "name": "af4623a2f9c9c68abc23dd11ffed6fc0"}, {"type": "electric_scooter", "fusion_lon": 0.0, "bike_id": "a3b5523d5ac8500f834e38c847dc236c", "is_disabled": 0, "lat": 38.917601, "rental_uris": {"ios": "https://dc.lft.to/lastmile_qr_scan", "android": "https://dc.lft.to/lastmile_qr_scan"}, "is_reserved": 0, "lon": -77.0281805, "fusion_lat": 0.0, "name": "a3b5523d5ac8500f834e38c847dc236c"}, {"type": "electric_scooter", "fusion_lon": 0.0, "bike_id": "10a2a3c5b9cb2ec9441163d0c4a7d927", "is_disabled": 0, "lat": 38.937373, "rental_uris": {"ios": "https://dc.lft.to/lastmile_qr_scan", "android": "https://dc.lft.to/lastmile_qr_scan"}, "is_reserved": 0, "lon": -77.03262366666667, "fusion_lat": 0.0, "name": "10a2a3c5b9cb2ec9441163d0c4a7d927"}, {"type": "electric_scooter", "fusion_lon": 0.0, "bike_id": "77bd96e8af3fc6b62631e6eafe90260f", "is_disabled": 0, "lat": 38.8922295, "rental_uris": {"ios": "https://dc.lft.to/lastmile_qr_scan", "android": "https://dc.lft.to/lastmile_qr_scan"}, "is_reserved": 0, "lon": -77.0321845, "fusion_lat": 0.0, "name": "77bd96e8af3fc6b62631e6eafe90260f"}, {"type": "electric_bike", "fusion_lon": 0.0, "bike_id": "62426a036db46f3033ddde1d72a8c174", "is_disabled": 0, "lat": 38.79987066666666, "rental_uris": {"ios": "https://dc.lft.to/lastmile_qr_scan", "android": "https://dc.lft.to/lastmile_qr_scan"}, "is_reserved": 0, "lon": -77.129764, "fusion_lat": 0.0, "name": "62426a036db46f3033ddde1d72a8c174"}, {"type": "electric_scooter", "fusion_lon": 0.0, "bike_id": "21c501c02cdec891ce30812b8634fd58", "is_disabled": 0, "lat": 38.9273565, "rental_uris": {"ios": "https://dc.lft.to/lastmile_qr_scan", "android": "https://dc.lft.to/lastmile_qr_scan"}, "is_reserved": 0, "lon": -77.05249766666667, "fusion_lat": 0.0, "name": "21c501c02cdec891ce30812b8634fd58"}, {"type": "electric_scooter", "fusion_lon": 0.0, "bike_id": "d3bbca315cb5ef2c403d0a3a1251911f", "is_disabled": 0, "lat": 38.90585216666667, "rental_uris": {"ios": "https://dc.lft.to/lastmile_qr_scan", "android": "https://dc.lft.to/lastmile_qr_scan"}, "is_reserved": 0, "lon": -77.00789433333334, "fusion_lat": 0.0, "name": "d3bbca315cb5ef2c403d0a3a1251911f"}, {"type": "electric_scooter", "fusion_lon": 0.0, "bike_id": "d464e13c0343a32618d475888fc4a4d5", "is_disabled": 0, "lat": 38.9038415, "rental_uris": {"ios": "https://dc.lft.to/lastmile_qr_scan", "android": "https://dc.lft.to/lastmile_qr_scan"}, "is_reserved": 0, "lon": -77.03439883333333, "fusion_lat": 0.0, "name": "d464e13c0343a32618d475888fc4a4d5"}, {"type": "electric_scooter", "fusion_lon": 0.0, "bike_id": "ef21b0c68159bea7d360ac4273e73122", "is_disabled": 0, "lat": 38.918397, "rental_uris": {"ios": "https://dc.lft.to/lastmile_qr_scan", "android": "https://dc.lft.to/lastmile_qr_scan"}, "is_reserved": 0, "lon": -77.02274016666667, "fusion_lat": 0.0, "name": "ef21b0c68159bea7d360ac4273e73122"}, {"type": "electric_scooter", "fusion_lon": 0.0, "bike_id": "c6eabfd318fe18c35181f71d07c7349f", "is_disabled": 0, "lat": 38.931557, "rental_uris": {"ios": "https://dc.lft.to/lastmile_qr_scan", "android": "https://dc.lft.to/lastmile_qr_scan"}, "is_reserved": 0, "lon": -77.02877916666667, "fusion_lat": 0.0, "name": "c6eabfd318fe18c35181f71d07c7349f"}, {"type": "electric_scooter", "fusion_lon": 0.0, "bike_id": "b9aad5f532ff1243c6050e39d23c2f5f", "is_disabled": 0, "lat": 38.89506183333334, "rental_uris": {"ios": "https://dc.lft.to/lastmile_qr_scan", "android": "https://dc.lft.to/lastmile_qr_scan"}, "is_reserved": 0, "lon": -76.93474416666666, "fusion_lat": 0.0, "name": "b9aad5f532ff1243c6050e39d23c2f5f"}, {"type": "electric_scooter", "fusion_lon": 0.0, "bike_id": "76891a7182af34fb6db733f9dcc01f6a", "is_disabled": 0, "lat": 38.90267383333333, "rental_uris": {"ios": "https://dc.lft.to/lastmile_qr_scan", "android": "https://dc.lft.to/lastmile_qr_scan"}, "is_reserved": 0, "lon": -77.04609466666666, "fusion_lat": 0.0, "name": "76891a7182af34fb6db733f9dcc01f6a"}, {"type": "electric_scooter", "fusion_lon": 0.0, "bike_id": "f1b5bd224b9eeaf8adca2580d41bb7e7", "is_disabled": 0, "lat": 38.8974035, "rental_uris": {"ios": "https://dc.lft.to/lastmile_qr_scan", "android": "https://dc.lft.to/lastmile_qr_scan"}, "is_reserved": 0, "lon": -77.0302435, "fusion_lat": 0.0, "name": "f1b5bd224b9eeaf8adca2580d41bb7e7"}, {"type": "electric_scooter", "fusion_lon": 0.0, "bike_id": "5508d7ae4314599fae0483d4aa84cb21", "is_disabled": 0, "lat": 38.917358666666665, "rental_uris": {"ios": "https://dc.lft.to/lastmile_qr_scan", "android": "https://dc.lft.to/lastmile_qr_scan"}, "is_reserved": 0, "lon": -77.04087816666667, "fusion_lat": 0.0, "name": "5508d7ae4314599fae0483d4aa84cb21"}, {"type": "electric_scooter", "fusion_lon": 0.0, "bike_id": "c834dac222045d46221109a8ae36ef93", "is_disabled": 0, "lat": 38.900154, "rental_uris": {"ios": "https://dc.lft.to/lastmile_qr_scan", "android": "https://dc.lft.to/lastmile_qr_scan"}, "is_reserved": 0, "lon": -76.9889315, "fusion_lat": 0.0, "name": "c834dac222045d46221109a8ae36ef93"}, {"type": "electric_bike", "fusion_lon": 0.0, "bike_id": "ffc759b6d20238de44da9050784cd278", "is_disabled": 0, "lat": 38.89782016666667, "rental_uris": {"ios": "https://dc.lft.to/lastmile_qr_scan", "android": "https://dc.lft.to/lastmile_qr_scan"}, "is_reserved": 0, "lon": -77.0135925, "fusion_lat": 0.0, "name": "ffc759b6d20238de44da9050784cd278"}, {"type": "electric_scooter", "fusion_lon": 0.0, "bike_id": "34972e8174dd6d5ec2cc626ec8ff03ca", "is_disabled": 0, "lat": 38.892274666666665, "rental_uris": {"ios": "https://dc.lft.to/lastmile_qr_scan", "android": "https://dc.lft.to/lastmile_qr_scan"}, "is_reserved": 0, "lon": -77.0262045, "fusion_lat": 0.0, "name": "34972e8174dd6d5ec2cc626ec8ff03ca"}, {"type": "electric_scooter", "fusion_lon": 0.0, "bike_id": "faa7760ad64d492fe28137938403755a", "is_disabled": 0, "lat": 38.859477, "rental_uris": {"ios": "https://dc.lft.to/lastmile_qr_scan", "android": "https://dc.lft.to/lastmile_qr_scan"}, "is_reserved": 0, "lon": -76.95877033333333, "fusion_lat": 0.0, "name": "faa7760ad64d492fe28137938403755a"}, {"type": "electric_scooter", "fusion_lon": 0.0, "bike_id": "3de0c83f18fd1b1834256eb53004a42b", "is_disabled": 0, "lat": 38.923306, "rental_uris": {"ios": "https://dc.lft.to/lastmile_qr_scan", "android": "https://dc.lft.to/lastmile_qr_scan"}, "is_reserved": 0, "lon": -77.01956466666667, "fusion_lat": 0.0, "name": "3de0c83f18fd1b1834256eb53004a42b"}, {"type": "electric_scooter", "fusion_lon": 0.0, "bike_id": "289634043d016326ade9be0323ea61b6", "is_disabled": 0, "lat": 38.90367583333333, "rental_uris": {"ios": "https://dc.lft.to/lastmile_qr_scan", "android": "https://dc.lft.to/lastmile_qr_scan"}, "is_reserved": 0, "lon": -77.033939, "fusion_lat": 0.0, "name": "289634043d016326ade9be0323ea61b6"}, {"type": "electric_scooter", "fusion_lon": 0.0, "bike_id": "53fac5b7020ee1ac1bf83bd1a51b44b4", "is_disabled": 0, "lat": 38.92109633333333, "rental_uris": {"ios": "https://dc.lft.to/lastmile_qr_scan", "android": "https://dc.lft.to/lastmile_qr_scan"}, "is_reserved": 0, "lon": -77.04828816666667, "fusion_lat": 0.0, "name": "53fac5b7020ee1ac1bf83bd1a51b44b4"}, {"type": "electric_scooter", "fusion_lon": 0.0, "bike_id": "8e99c32458b7e64dcdb8d918de21390b", "is_disabled": 0, "lat": 38.91065716666667, "rental_uris": {"ios": "https://dc.lft.to/lastmile_qr_scan", "android": "https://dc.lft.to/lastmile_qr_scan"}, "is_reserved": 0, "lon": -77.02654833333334, "fusion_lat": 0.0, "name": "8e99c32458b7e64dcdb8d918de21390b"}, {"type": "electric_scooter", "fusion_lon": 0.0, "bike_id": "e8f6abf48e4ab918de7eb2dbb7e9def7", "is_disabled": 0, "lat": 38.90651033333333, "rental_uris": {"ios": "https://dc.lft.to/lastmile_qr_scan", "android": "https://dc.lft.to/lastmile_qr_scan"}, "is_reserved": 0, "lon": -77.0113525, "fusion_lat": 0.0, "name": "e8f6abf48e4ab918de7eb2dbb7e9def7"}, {"type": "electric_scooter", "fusion_lon": 0.0, "bike_id": "61a1020a7b6f2e7cc847b6b463c79b43", "is_disabled": 0, "lat": 38.944179, "rental_uris": {"ios": "https://dc.lft.to/lastmile_qr_scan", "android": "https://dc.lft.to/lastmile_qr_scan"}, "is_reserved": 0, "lon": -77.0049645, "fusion_lat": 0.0, "name": "61a1020a7b6f2e7cc847b6b463c79b43"}, {"type": "electric_scooter", "fusion_lon": 0.0, "bike_id": "2a4eff26cd9acaf885cbdd20750952e5", "is_disabled": 0, "lat": 38.899569666666665, "rental_uris": {"ios": "https://dc.lft.to/lastmile_qr_scan", "android": "https://dc.lft.to/lastmile_qr_scan"}, "is_reserved": 0, "lon": -76.98904516666667, "fusion_lat": 0.0, "name": "2a4eff26cd9acaf885cbdd20750952e5"}, {"type": "electric_bike", "fusion_lon": 0.0, "bike_id": "0073cd2f372c16f98c5625a1b4888948", "is_disabled": 0, "lat": 38.883014333333335, "rental_uris": {"ios": "https://dc.lft.to/lastmile_qr_scan", "android": "https://dc.lft.to/lastmile_qr_scan"}, "is_reserved": 0, "lon": -76.94973066666667, "fusion_lat": 0.0, "name": "0073cd2f372c16f98c5625a1b4888948"}, {"type": "electric_scooter", "fusion_lon": 0.0, "bike_id": "18ac222d109218342d45cb335fe1f093", "is_disabled": 0, "lat": 38.926294166666665, "rental_uris": {"ios": "https://dc.lft.to/lastmile_qr_scan", "android": "https://dc.lft.to/lastmile_qr_scan"}, "is_reserved": 0, "lon": -77.02267266666667, "fusion_lat": 0.0, "name": "18ac222d109218342d45cb335fe1f093"}, {"type": "electric_scooter", "fusion_lon": 0.0, "bike_id": "dae4ec559dddcd0260a7e834f05f867a", "is_disabled": 0, "lat": 38.9077845, "rental_uris": {"ios": "https://dc.lft.to/lastmile_qr_scan", "android": "https://dc.lft.to/lastmile_qr_scan"}, "is_reserved": 0, "lon": -77.07167466666667, "fusion_lat": 0.0, "name": "dae4ec559dddcd0260a7e834f05f867a"}, {"type": "electric_scooter", "fusion_lon": 0.0, "bike_id": "a731a85f171247983920f846b727316a", "is_disabled": 0, "lat": 38.900322, "rental_uris": {"ios": "https://dc.lft.to/lastmile_qr_scan", "android": "https://dc.lft.to/lastmile_qr_scan"}, "is_reserved": 0, "lon": -76.9975515, "fusion_lat": 0.0, "name": "a731a85f171247983920f846b727316a"}, {"type": "electric_scooter", "fusion_lon": 0.0, "bike_id": "ae28185b2dba55e4b9fe30d683e47bda", "is_disabled": 0, "lat": 38.92460783333333, "rental_uris": {"ios": "https://dc.lft.to/lastmile_qr_scan", "android": "https://dc.lft.to/lastmile_qr_scan"}, "is_reserved": 0, "lon": -77.0403085, "fusion_lat": 0.0, "name": "ae28185b2dba55e4b9fe30d683e47bda"}, {"type": "electric_scooter", "fusion_lon": 0.0, "bike_id": "109910a717bc92081332fa41aa2acff5", "is_disabled": 0, "lat": 38.895353666666665, "rental_uris": {"ios": "https://dc.lft.to/lastmile_qr_scan", "android": "https://dc.lft.to/lastmile_qr_scan"}, "is_reserved": 0, "lon": -77.01608383333334, "fusion_lat": 0.0, "name": "109910a717bc92081332fa41aa2acff5"}, {"type": "electric_scooter", "fusion_lon": 0.0, "bike_id": "d1f7be2093b8563b5b73ececbc3f6c92", "is_disabled": 0, "lat": 38.892259833333334, "rental_uris": {"ios": "https://dc.lft.to/lastmile_qr_scan", "android": "https://dc.lft.to/lastmile_qr_scan"}, "is_reserved": 0, "lon": -77.02416916666667, "fusion_lat": 0.0, "name": "d1f7be2093b8563b5b73ececbc3f6c92"}, {"type": "electric_scooter", "fusion_lon": 0.0, "bike_id": "80679bdd38baafbb9f7bdf2fe5ace397", "is_disabled": 0, "lat": 38.91992533333333, "rental_uris": {"ios": "https://dc.lft.to/lastmile_qr_scan", "android": "https://dc.lft.to/lastmile_qr_scan"}, "is_reserved": 0, "lon": -77.02395283333334, "fusion_lat": 0.0, "name": "80679bdd38baafbb9f7bdf2fe5ace397"}, {"type": "electric_scooter", "fusion_lon": 0.0, "bike_id": "2217b94898ebf4729dfec19eeb05c837", "is_disabled": 0, "lat": 38.89206883333333, "rental_uris": {"ios": "https://dc.lft.to/lastmile_qr_scan", "android": "https://dc.lft.to/lastmile_qr_scan"}, "is_reserved": 0, "lon": -76.95695266666667, "fusion_lat": 0.0, "name": "2217b94898ebf4729dfec19eeb05c837"}, {"type": "electric_scooter", "fusion_lon": 0.0, "bike_id": "adae382c22f364d8367083c8f43a5d6e", "is_disabled": 0, "lat": 38.90258133333333, "rental_uris": {"ios": "https://dc.lft.to/lastmile_qr_scan", "android": "https://dc.lft.to/lastmile_qr_scan"}, "is_reserved": 0, "lon": -77.04342466666667, "fusion_lat": 0.0, "name": "adae382c22f364d8367083c8f43a5d6e"}, {"type": "electric_scooter", "fusion_lon": 0.0, "bike_id": "fb9dfe1102cfcfdf366a8f2906539fc5", "is_disabled": 0, "lat": 38.931718000000004, "rental_uris": {"ios": "https://dc.lft.to/lastmile_qr_scan", "android": "https://dc.lft.to/lastmile_qr_scan"}, "is_reserved": 0, "lon": -77.036663, "fusion_lat": 0.0, "name": "fb9dfe1102cfcfdf366a8f2906539fc5"}, {"type": "electric_scooter", "fusion_lon": 0.0, "bike_id": "3bd3fe0b1af8527927e46195d235769c", "is_disabled": 0, "lat": 38.87479416666667, "rental_uris": {"ios": "https://dc.lft.to/lastmile_qr_scan", "android": "https://dc.lft.to/lastmile_qr_scan"}, "is_reserved": 0, "lon": -77.00399716666666, "fusion_lat": 0.0, "name": "3bd3fe0b1af8527927e46195d235769c"}, {"type": "electric_scooter", "fusion_lon": 0.0, "bike_id": "7abd53303a5484fe5f173960dcefff24", "is_disabled": 0, "lat": 38.91365016666666, "rental_uris": {"ios": "https://dc.lft.to/lastmile_qr_scan", "android": "https://dc.lft.to/lastmile_qr_scan"}, "is_reserved": 0, "lon": -77.020481, "fusion_lat": 0.0, "name": "7abd53303a5484fe5f173960dcefff24"}, {"type": "electric_scooter", "fusion_lon": 0.0, "bike_id": "4e52275c167909f1da4a35103d4bd073", "is_disabled": 0, "lat": 38.897302333333336, "rental_uris": {"ios": "https://dc.lft.to/lastmile_qr_scan", "android": "https://dc.lft.to/lastmile_qr_scan"}, "is_reserved": 0, "lon": -77.0191295, "fusion_lat": 0.0, "name": "4e52275c167909f1da4a35103d4bd073"}, {"type": "electric_scooter", "fusion_lon": 0.0, "bike_id": "0660d79632b5d227e04ff9538201ec68", "is_disabled": 0, "lat": 38.9232235, "rental_uris": {"ios": "https://dc.lft.to/lastmile_qr_scan", "android": "https://dc.lft.to/lastmile_qr_scan"}, "is_reserved": 0, "lon": -77.0303845, "fusion_lat": 0.0, "name": "0660d79632b5d227e04ff9538201ec68"}, {"type": "electric_scooter", "fusion_lon": 0.0, "bike_id": "6ff558ad2125f398f7fafe5198d9e85a", "is_disabled": 0, "lat": 38.871557333333335, "rental_uris": {"ios": "https://dc.lft.to/lastmile_qr_scan", "android": "https://dc.lft.to/lastmile_qr_scan"}, "is_reserved": 0, "lon": -77.0067545, "fusion_lat": 0.0, "name": "6ff558ad2125f398f7fafe5198d9e85a"}, {"type": "electric_bike", "fusion_lon": 0.0, "bike_id": "50711ef09c148d2ad4efac8c693068a6", "is_disabled": 0, "lat": 38.87757633333333, "rental_uris": {"ios": "https://dc.lft.to/lastmile_qr_scan", "android": "https://dc.lft.to/lastmile_qr_scan"}, "is_reserved": 0, "lon": -77.00746416666667, "fusion_lat": 0.0, "name": "50711ef09c148d2ad4efac8c693068a6"}, {"type": "electric_bike", "fusion_lon": 0.0, "bike_id": "8dfa0c10cd0ccee7f40eb910e30c1cff", "is_disabled": 0, "lat": 38.86202566666667, "rental_uris": {"ios": "https://dc.lft.to/lastmile_qr_scan", "android": "https://dc.lft.to/lastmile_qr_scan"}, "is_reserved": 0, "lon": -76.99536783333333, "fusion_lat": 0.0, "name": "8dfa0c10cd0ccee7f40eb910e30c1cff"}, {"type": "electric_scooter", "fusion_lon": 0.0, "bike_id": "08d07c59fe1acc9d82faafc24676194f", "is_disabled": 0, "lat": 38.87664783333334, "rental_uris": {"ios": "https://dc.lft.to/lastmile_qr_scan", "android": "https://dc.lft.to/lastmile_qr_scan"}, "is_reserved": 0, "lon": -77.00058166666666, "fusion_lat": 0.0, "name": "08d07c59fe1acc9d82faafc24676194f"}, {"type": "electric_scooter", "fusion_lon": 0.0, "bike_id": "430d992524b1a389eceeef7be3e9fff6", "is_disabled": 0, "lat": 38.91569416666667, "rental_uris": {"ios": "https://dc.lft.to/lastmile_qr_scan", "android": "https://dc.lft.to/lastmile_qr_scan"}, "is_reserved": 0, "lon": -77.0417185, "fusion_lat": 0.0, "name": "430d992524b1a389eceeef7be3e9fff6"}, {"type": "electric_scooter", "fusion_lon": 0.0, "bike_id": "f20a7c7ba59da44af2bbdfcebef3c2e0", "is_disabled": 0, "lat": 38.906456666666664, "rental_uris": {"ios": "https://dc.lft.to/lastmile_qr_scan", "android": "https://dc.lft.to/lastmile_qr_scan"}, "is_reserved": 0, "lon": -77.01762016666666, "fusion_lat": 0.0, "name": "f20a7c7ba59da44af2bbdfcebef3c2e0"}, {"type": "electric_scooter", "fusion_lon": 0.0, "bike_id": "875ac765497b23ac225ade33ec877e57", "is_disabled": 0, "lat": 38.9051555, "rental_uris": {"ios": "https://dc.lft.to/lastmile_qr_scan", "android": "https://dc.lft.to/lastmile_qr_scan"}, "is_reserved": 0, "lon": -77.03457233333333, "fusion_lat": 0.0, "name": "875ac765497b23ac225ade33ec877e57"}, {"type": "electric_scooter", "fusion_lon": 0.0, "bike_id": "5a6c49f03f72fb5a0b39bb8fa4980d0e", "is_disabled": 0, "lat": 38.908788333333334, "rental_uris": {"ios": "https://dc.lft.to/lastmile_qr_scan", "android": "https://dc.lft.to/lastmile_qr_scan"}, "is_reserved": 0, "lon": -76.9981755, "fusion_lat": 0.0, "name": "5a6c49f03f72fb5a0b39bb8fa4980d0e"}, {"type": "electric_scooter", "fusion_lon": 0.0, "bike_id": "8748475bd90496cecbe3f77b20fc73f2", "is_disabled": 0, "lat": 38.9141595, "rental_uris": {"ios": "https://dc.lft.to/lastmile_qr_scan", "android": "https://dc.lft.to/lastmile_qr_scan"}, "is_reserved": 0, "lon": -77.0322375, "fusion_lat": 0.0, "name": "8748475bd90496cecbe3f77b20fc73f2"}, {"type": "electric_scooter", "fusion_lon": 0.0, "bike_id": "c03c3f3318bec5c46eac4c9d66bb5d66", "is_disabled": 0, "lat": 38.924012833333336, "rental_uris": {"ios": "https://dc.lft.to/lastmile_qr_scan", "android": "https://dc.lft.to/lastmile_qr_scan"}, "is_reserved": 0, "lon": -77.0269385, "fusion_lat": 0.0, "name": "c03c3f3318bec5c46eac4c9d66bb5d66"}, {"type": "electric_scooter", "fusion_lon": 0.0, "bike_id": "bccf864c1ec6e1422f48bedf6308a51a", "is_disabled": 0, "lat": 38.90578583333333, "rental_uris": {"ios": "https://dc.lft.to/lastmile_qr_scan", "android": "https://dc.lft.to/lastmile_qr_scan"}, "is_reserved": 0, "lon": -77.03062766666666, "fusion_lat": 0.0, "name": "bccf864c1ec6e1422f48bedf6308a51a"}, {"type": "electric_scooter", "fusion_lon": 0.0, "bike_id": "4f280191360f02de10b5d6ac99cf59fa", "is_disabled": 0, "lat": 38.91962316666667, "rental_uris": {"ios": "https://dc.lft.to/lastmile_qr_scan", "android": "https://dc.lft.to/lastmile_qr_scan"}, "is_reserved": 0, "lon": -77.01887866666667, "fusion_lat": 0.0, "name": "4f280191360f02de10b5d6ac99cf59fa"}, {"type": "electric_scooter", "fusion_lon": 0.0, "bike_id": "86e63683652ac3fc992ffe93b916c861", "is_disabled": 0, "lat": 38.923554333333335, "rental_uris": {"ios": "https://dc.lft.to/lastmile_qr_scan", "android": "https://dc.lft.to/lastmile_qr_scan"}, "is_reserved": 0, "lon": -77.04149833333334, "fusion_lat": 0.0, "name": "86e63683652ac3fc992ffe93b916c861"}, {"type": "electric_scooter", "fusion_lon": 0.0, "bike_id": "1e67bc1e996322d2183f2a6dbf6650a6", "is_disabled": 0, "lat": 38.9083705, "rental_uris": {"ios": "https://dc.lft.to/lastmile_qr_scan", "android": "https://dc.lft.to/lastmile_qr_scan"}, "is_reserved": 0, "lon": -77.03362633333333, "fusion_lat": 0.0, "name": "1e67bc1e996322d2183f2a6dbf6650a6"}, {"type": "electric_scooter", "fusion_lon": 0.0, "bike_id": "9648f38403899b470dd8d452b942d2d8", "is_disabled": 0, "lat": 38.918190333333335, "rental_uris": {"ios": "https://dc.lft.to/lastmile_qr_scan", "android": "https://dc.lft.to/lastmile_qr_scan"}, "is_reserved": 0, "lon": -77.0325475, "fusion_lat": 0.0, "name": "9648f38403899b470dd8d452b942d2d8"}, {"type": "electric_scooter", "fusion_lon": 0.0, "bike_id": "5c575141d5fdf09016a3bc60c7802f7d", "is_disabled": 0, "lat": 38.91950333333333, "rental_uris": {"ios": "https://dc.lft.to/lastmile_qr_scan", "android": "https://dc.lft.to/lastmile_qr_scan"}, "is_reserved": 0, "lon": -77.017748, "fusion_lat": 0.0, "name": "5c575141d5fdf09016a3bc60c7802f7d"}, {"type": "electric_bike", "fusion_lon": 0.0, "bike_id": "5f95dc916a790406f67c831a37d974e7", "is_disabled": 0, "lat": 38.846865, "rental_uris": {"ios": "https://dc.lft.to/lastmile_qr_scan", "android": "https://dc.lft.to/lastmile_qr_scan"}, "is_reserved": 0, "lon": -76.98288116666667, "fusion_lat": 0.0, "name": "5f95dc916a790406f67c831a37d974e7"}, {"type": "electric_scooter", "fusion_lon": 0.0, "bike_id": "a2569928de77c849c86c87a6a0996727", "is_disabled": 0, "lat": 38.89347133333333, "rental_uris": {"ios": "https://dc.lft.to/lastmile_qr_scan", "android": "https://dc.lft.to/lastmile_qr_scan"}, "is_reserved": 0, "lon": -76.95229966666666, "fusion_lat": 0.0, "name": "a2569928de77c849c86c87a6a0996727"}, {"type": "electric_scooter", "fusion_lon": 0.0, "bike_id": "b602c53cd1f114ec3a83b9ec44d0793e", "is_disabled": 0, "lat": 38.89731233333333, "rental_uris": {"ios": "https://dc.lft.to/lastmile_qr_scan", "android": "https://dc.lft.to/lastmile_qr_scan"}, "is_reserved": 0, "lon": -77.019148, "fusion_lat": 0.0, "name": "b602c53cd1f114ec3a83b9ec44d0793e"}, {"type": "electric_scooter", "fusion_lon": 0.0, "bike_id": "bc824736558a1080ebdaa420271918f5", "is_disabled": 0, "lat": 38.9126965, "rental_uris": {"ios": "https://dc.lft.to/lastmile_qr_scan", "android": "https://dc.lft.to/lastmile_qr_scan"}, "is_reserved": 0, "lon": -77.0415675, "fusion_lat": 0.0, "name": "bc824736558a1080ebdaa420271918f5"}, {"type": "electric_bike", "fusion_lon": 0.0, "bike_id": "d9597d1ba3d74d4e56f84a41fe18bc37", "is_disabled": 0, "lat": 38.935673, "rental_uris": {"ios": "https://dc.lft.to/lastmile_qr_scan", "android": "https://dc.lft.to/lastmile_qr_scan"}, "is_reserved": 0, "lon": -77.10610066666666, "fusion_lat": 0.0, "name": "d9597d1ba3d74d4e56f84a41fe18bc37"}, {"type": "electric_scooter", "fusion_lon": 0.0, "bike_id": "eca3e77625fee477f77340eba9c8d103", "is_disabled": 0, "lat": 38.904550666666665, "rental_uris": {"ios": "https://dc.lft.to/lastmile_qr_scan", "android": "https://dc.lft.to/lastmile_qr_scan"}, "is_reserved": 0, "lon": -77.058058, "fusion_lat": 0.0, "name": "eca3e77625fee477f77340eba9c8d103"}, {"type": "electric_scooter", "fusion_lon": 0.0, "bike_id": "58b694dcd8d90ee02b752348d71e6edf", "is_disabled": 0, "lat": 38.97214533333333, "rental_uris": {"ios": "https://dc.lft.to/lastmile_qr_scan", "android": "https://dc.lft.to/lastmile_qr_scan"}, "is_reserved": 0, "lon": -77.03336533333334, "fusion_lat": 0.0, "name": "58b694dcd8d90ee02b752348d71e6edf"}, {"type": "electric_scooter", "fusion_lon": 0.0, "bike_id": "936718a5c71399247b1fd4e6f761955a", "is_disabled": 0, "lat": 38.87666683333333, "rental_uris": {"ios": "https://dc.lft.to/lastmile_qr_scan", "android": "https://dc.lft.to/lastmile_qr_scan"}, "is_reserved": 0, "lon": -76.99623883333334, "fusion_lat": 0.0, "name": "936718a5c71399247b1fd4e6f761955a"}, {"type": "electric_scooter", "fusion_lon": 0.0, "bike_id": "326db660eadca817d98b1c75d9e61b46", "is_disabled": 0, "lat": 38.901456833333334, "rental_uris": {"ios": "https://dc.lft.to/lastmile_qr_scan", "android": "https://dc.lft.to/lastmile_qr_scan"}, "is_reserved": 0, "lon": -77.04184566666666, "fusion_lat": 0.0, "name": "326db660eadca817d98b1c75d9e61b46"}, {"type": "electric_scooter", "fusion_lon": 0.0, "bike_id": "df9422f0c1957833fa2465b8d694bc44", "is_disabled": 0, "lat": 38.920923, "rental_uris": {"ios": "https://dc.lft.to/lastmile_qr_scan", "android": "https://dc.lft.to/lastmile_qr_scan"}, "is_reserved": 0, "lon": -77.07551483333333, "fusion_lat": 0.0, "name": "df9422f0c1957833fa2465b8d694bc44"}, {"type": "electric_scooter", "fusion_lon": 0.0, "bike_id": "8d467635db16d257874a0a477734e38f", "is_disabled": 0, "lat": 38.902289333333336, "rental_uris": {"ios": "https://dc.lft.to/lastmile_qr_scan", "android": "https://dc.lft.to/lastmile_qr_scan"}, "is_reserved": 0, "lon": -76.94197383333334, "fusion_lat": 0.0, "name": "8d467635db16d257874a0a477734e38f"}, {"type": "electric_scooter", "fusion_lon": 0.0, "bike_id": "473431cf6a55d80d5022222233154d46", "is_disabled": 0, "lat": 38.90251766666667, "rental_uris": {"ios": "https://dc.lft.to/lastmile_qr_scan", "android": "https://dc.lft.to/lastmile_qr_scan"}, "is_reserved": 0, "lon": -77.03881833333334, "fusion_lat": 0.0, "name": "473431cf6a55d80d5022222233154d46"}, {"type": "electric_scooter", "fusion_lon": 0.0, "bike_id": "e5f399403795929855bd674e6a1f8941", "is_disabled": 0, "lat": 38.9195595, "rental_uris": {"ios": "https://dc.lft.to/lastmile_qr_scan", "android": "https://dc.lft.to/lastmile_qr_scan"}, "is_reserved": 0, "lon": -77.02511766666667, "fusion_lat": 0.0, "name": "e5f399403795929855bd674e6a1f8941"}, {"type": "electric_scooter", "fusion_lon": 0.0, "bike_id": "be8a7387693cd6065025f6864c499412", "is_disabled": 0, "lat": 38.90170666666667, "rental_uris": {"ios": "https://dc.lft.to/lastmile_qr_scan", "android": "https://dc.lft.to/lastmile_qr_scan"}, "is_reserved": 0, "lon": -77.02510866666667, "fusion_lat": 0.0, "name": "be8a7387693cd6065025f6864c499412"}, {"type": "electric_scooter", "fusion_lon": 0.0, "bike_id": "75b8b8ed33740a36df893c12e3b90b28", "is_disabled": 0, "lat": 38.88693766666667, "rental_uris": {"ios": "https://dc.lft.to/lastmile_qr_scan", "android": "https://dc.lft.to/lastmile_qr_scan"}, "is_reserved": 0, "lon": -76.9763695, "fusion_lat": 0.0, "name": "75b8b8ed33740a36df893c12e3b90b28"}, {"type": "electric_scooter", "fusion_lon": 0.0, "bike_id": "4e1b42269ab6651297461daf2343d8cc", "is_disabled": 0, "lat": 38.90556133333333, "rental_uris": {"ios": "https://dc.lft.to/lastmile_qr_scan", "android": "https://dc.lft.to/lastmile_qr_scan"}, "is_reserved": 0, "lon": -76.99465383333333, "fusion_lat": 0.0, "name": "4e1b42269ab6651297461daf2343d8cc"}, {"type": "electric_scooter", "fusion_lon": 0.0, "bike_id": "155436b252368332cee5a8e7bee6e599", "is_disabled": 0, "lat": 38.900758333333336, "rental_uris": {"ios": "https://dc.lft.to/lastmile_qr_scan", "android": "https://dc.lft.to/lastmile_qr_scan"}, "is_reserved": 0, "lon": -77.05137716666667, "fusion_lat": 0.0, "name": "155436b252368332cee5a8e7bee6e599"}, {"type": "electric_scooter", "fusion_lon": 0.0, "bike_id": "b50b05aea6e1126d7e488c054b38825b", "is_disabled": 0, "lat": 38.914447, "rental_uris": {"ios": "https://dc.lft.to/lastmile_qr_scan", "android": "https://dc.lft.to/lastmile_qr_scan"}, "is_reserved": 0, "lon": -77.04172716666666, "fusion_lat": 0.0, "name": "b50b05aea6e1126d7e488c054b38825b"}, {"type": "electric_scooter", "fusion_lon": 0.0, "bike_id": "b8b24b6fe822db413e8f260b7c6aac44", "is_disabled": 0, "lat": 38.905258, "rental_uris": {"ios": "https://dc.lft.to/lastmile_qr_scan", "android": "https://dc.lft.to/lastmile_qr_scan"}, "is_reserved": 0, "lon": -77.034592, "fusion_lat": 0.0, "name": "b8b24b6fe822db413e8f260b7c6aac44"}, {"type": "electric_scooter", "fusion_lon": 0.0, "bike_id": "f6cc64d26f69db8a2a61eebf3bdfafb6", "is_disabled": 0, "lat": 38.905969666666664, "rental_uris": {"ios": "https://dc.lft.to/lastmile_qr_scan", "android": "https://dc.lft.to/lastmile_qr_scan"}, "is_reserved": 0, "lon": -77.065603, "fusion_lat": 0.0, "name": "f6cc64d26f69db8a2a61eebf3bdfafb6"}, {"type": "electric_scooter", "fusion_lon": 0.0, "bike_id": "14d6e8838990582e1ebac33d3976472d", "is_disabled": 0, "lat": 38.89346283333333, "rental_uris": {"ios": "https://dc.lft.to/lastmile_qr_scan", "android": "https://dc.lft.to/lastmile_qr_scan"}, "is_reserved": 0, "lon": -76.9342475, "fusion_lat": 0.0, "name": "14d6e8838990582e1ebac33d3976472d"}, {"type": "electric_scooter", "fusion_lon": 0.0, "bike_id": "74e02bfa512adff1ff6837650562b468", "is_disabled": 0, "lat": 38.92109083333333, "rental_uris": {"ios": "https://dc.lft.to/lastmile_qr_scan", "android": "https://dc.lft.to/lastmile_qr_scan"}, "is_reserved": 0, "lon": -77.0176685, "fusion_lat": 0.0, "name": "74e02bfa512adff1ff6837650562b468"}, {"type": "electric_scooter", "fusion_lon": 0.0, "bike_id": "8e3c0d74eeb6144e2d93837002676365", "is_disabled": 0, "lat": 38.8922375, "rental_uris": {"ios": "https://dc.lft.to/lastmile_qr_scan", "android": "https://dc.lft.to/lastmile_qr_scan"}, "is_reserved": 0, "lon": -77.04685233333333, "fusion_lat": 0.0, "name": "8e3c0d74eeb6144e2d93837002676365"}, {"type": "electric_scooter", "fusion_lon": 0.0, "bike_id": "b2219eee7bd94129e208a473b2f3fcda", "is_disabled": 0, "lat": 38.89193866666667, "rental_uris": {"ios": "https://dc.lft.to/lastmile_qr_scan", "android": "https://dc.lft.to/lastmile_qr_scan"}, "is_reserved": 0, "lon": -76.95271, "fusion_lat": 0.0, "name": "b2219eee7bd94129e208a473b2f3fcda"}, {"type": "electric_scooter", "fusion_lon": 0.0, "bike_id": "98728a336931a13d5d680ad78156b546", "is_disabled": 0, "lat": 38.904482, "rental_uris": {"ios": "https://dc.lft.to/lastmile_qr_scan", "android": "https://dc.lft.to/lastmile_qr_scan"}, "is_reserved": 0, "lon": -77.03213766666667, "fusion_lat": 0.0, "name": "98728a336931a13d5d680ad78156b546"}, {"type": "electric_scooter", "fusion_lon": 0.0, "bike_id": "4c64b7a811b12cb2c71a12630b4c2cc9", "is_disabled": 0, "lat": 38.908052833333336, "rental_uris": {"ios": "https://dc.lft.to/lastmile_qr_scan", "android": "https://dc.lft.to/lastmile_qr_scan"}, "is_reserved": 0, "lon": -77.0450985, "fusion_lat": 0.0, "name": "4c64b7a811b12cb2c71a12630b4c2cc9"}, {"type": "electric_scooter", "fusion_lon": 0.0, "bike_id": "edf1aef0a7fdad87e9a02b4c131750eb", "is_disabled": 0, "lat": 38.897193333333334, "rental_uris": {"ios": "https://dc.lft.to/lastmile_qr_scan", "android": "https://dc.lft.to/lastmile_qr_scan"}, "is_reserved": 0, "lon": -77.00795083333334, "fusion_lat": 0.0, "name": "edf1aef0a7fdad87e9a02b4c131750eb"}, {"type": "electric_scooter", "fusion_lon": 0.0, "bike_id": "8728a4a32380131b5fda09c9f1c16943", "is_disabled": 0, "lat": 38.930479, "rental_uris": {"ios": "https://dc.lft.to/lastmile_qr_scan", "android": "https://dc.lft.to/lastmile_qr_scan"}, "is_reserved": 0, "lon": -77.02462433333334, "fusion_lat": 0.0, "name": "8728a4a32380131b5fda09c9f1c16943"}, {"type": "electric_bike", "fusion_lon": 0.0, "bike_id": "3fcd3989d8b6fdfd63882ffca12ddc6c", "is_disabled": 0, "lat": 38.95080033333333, "rental_uris": {"ios": "https://dc.lft.to/lastmile_qr_scan", "android": "https://dc.lft.to/lastmile_qr_scan"}, "is_reserved": 0, "lon": -77.01227416666667, "fusion_lat": 0.0, "name": "3fcd3989d8b6fdfd63882ffca12ddc6c"}, {"type": "electric_scooter", "fusion_lon": 0.0, "bike_id": "8a70dad1d5c777dfcf5aba78c78925f9", "is_disabled": 0, "lat": 38.97225233333333, "rental_uris": {"ios": "https://dc.lft.to/lastmile_qr_scan", "android": "https://dc.lft.to/lastmile_qr_scan"}, "is_reserved": 0, "lon": -77.02715483333333, "fusion_lat": 0.0, "name": "8a70dad1d5c777dfcf5aba78c78925f9"}, {"type": "electric_bike", "fusion_lon": 0.0, "bike_id": "e69097b6fae5fb507b5cdc44863fbbdc", "is_disabled": 0, "lat": 38.83842116666667, "rental_uris": {"ios": "https://dc.lft.to/lastmile_qr_scan", "android": "https://dc.lft.to/lastmile_qr_scan"}, "is_reserved": 0, "lon": -76.99654833333334, "fusion_lat": 0.0, "name": "e69097b6fae5fb507b5cdc44863fbbdc"}, {"type": "electric_scooter", "fusion_lon": 0.0, "bike_id": "1b3f0fa06504fc6538a61f7129ff7f0b", "is_disabled": 0, "lat": 38.8922325, "rental_uris": {"ios": "https://dc.lft.to/lastmile_qr_scan", "android": "https://dc.lft.to/lastmile_qr_scan"}, "is_reserved": 0, "lon": -77.03340233333333, "fusion_lat": 0.0, "name": "1b3f0fa06504fc6538a61f7129ff7f0b"}, {"type": "electric_bike", "fusion_lon": 0.0, "bike_id": "4a649f093ab729d20ea59139080335f2", "is_disabled": 0, "lat": 38.86230483333333, "rental_uris": {"ios": "https://dc.lft.to/lastmile_qr_scan", "android": "https://dc.lft.to/lastmile_qr_scan"}, "is_reserved": 0, "lon": -76.99584233333333, "fusion_lat": 0.0, "name": "4a649f093ab729d20ea59139080335f2"}, {"type": "electric_scooter", "fusion_lon": 0.0, "bike_id": "a4f4040f47ab04b045a83ee26f62653f", "is_disabled": 0, "lat": 38.9277235, "rental_uris": {"ios": "https://dc.lft.to/lastmile_qr_scan", "android": "https://dc.lft.to/lastmile_qr_scan"}, "is_reserved": 0, "lon": -77.0293805, "fusion_lat": 0.0, "name": "a4f4040f47ab04b045a83ee26f62653f"}, {"type": "electric_scooter", "fusion_lon": 0.0, "bike_id": "f31c413672163b74a9ec705d785ff1cb", "is_disabled": 0, "lat": 38.90851, "rental_uris": {"ios": "https://dc.lft.to/lastmile_qr_scan", "android": "https://dc.lft.to/lastmile_qr_scan"}, "is_reserved": 0, "lon": -76.99685666666667, "fusion_lat": 0.0, "name": "f31c413672163b74a9ec705d785ff1cb"}, {"type": "electric_scooter", "fusion_lon": 0.0, "bike_id": "c409d7d33cb9d46f687c2af02da93b4d", "is_disabled": 0, "lat": 38.900404333333334, "rental_uris": {"ios": "https://dc.lft.to/lastmile_qr_scan", "android": "https://dc.lft.to/lastmile_qr_scan"}, "is_reserved": 0, "lon": -77.02415616666667, "fusion_lat": 0.0, "name": "c409d7d33cb9d46f687c2af02da93b4d"}, {"type": "electric_scooter", "fusion_lon": 0.0, "bike_id": "286949600b3b9c4126046424b26c1147", "is_disabled": 0, "lat": 38.90569766666667, "rental_uris": {"ios": "https://dc.lft.to/lastmile_qr_scan", "android": "https://dc.lft.to/lastmile_qr_scan"}, "is_reserved": 0, "lon": -77.04614166666667, "fusion_lat": 0.0, "name": "286949600b3b9c4126046424b26c1147"}, {"type": "electric_scooter", "fusion_lon": 0.0, "bike_id": "404369fc10ed1614c936e00345c1429e", "is_disabled": 0, "lat": 38.877869, "rental_uris": {"ios": "https://dc.lft.to/lastmile_qr_scan", "android": "https://dc.lft.to/lastmile_qr_scan"}, "is_reserved": 0, "lon": -76.99406716666667, "fusion_lat": 0.0, "name": "404369fc10ed1614c936e00345c1429e"}, {"type": "electric_scooter", "fusion_lon": 0.0, "bike_id": "6f4d8d894a99abf3a64ac6eae3b65aed", "is_disabled": 0, "lat": 38.88348116666667, "rental_uris": {"ios": "https://dc.lft.to/lastmile_qr_scan", "android": "https://dc.lft.to/lastmile_qr_scan"}, "is_reserved": 0, "lon": -76.99507283333334, "fusion_lat": 0.0, "name": "6f4d8d894a99abf3a64ac6eae3b65aed"}, {"type": "electric_bike", "fusion_lon": 0.0, "bike_id": "6b6c581600d975510413a4e53a33f544", "is_disabled": 0, "lat": 38.922145666666665, "rental_uris": {"ios": "https://dc.lft.to/lastmile_qr_scan", "android": "https://dc.lft.to/lastmile_qr_scan"}, "is_reserved": 0, "lon": -77.08185433333334, "fusion_lat": 0.0, "name": "6b6c581600d975510413a4e53a33f544"}, {"type": "electric_scooter", "fusion_lon": 0.0, "bike_id": "78ee9cab87f4682e6fab7aeb13d0d71c", "is_disabled": 0, "lat": 38.89560683333333, "rental_uris": {"ios": "https://dc.lft.to/lastmile_qr_scan", "android": "https://dc.lft.to/lastmile_qr_scan"}, "is_reserved": 0, "lon": -77.04673516666666, "fusion_lat": 0.0, "name": "78ee9cab87f4682e6fab7aeb13d0d71c"}, {"type": "electric_scooter", "fusion_lon": 0.0, "bike_id": "1521b1e53ffcf676a9352d9fcd12c42e", "is_disabled": 0, "lat": 38.908448666666665, "rental_uris": {"ios": "https://dc.lft.to/lastmile_qr_scan", "android": "https://dc.lft.to/lastmile_qr_scan"}, "is_reserved": 0, "lon": -77.03452116666666, "fusion_lat": 0.0, "name": "1521b1e53ffcf676a9352d9fcd12c42e"}, {"type": "electric_scooter", "fusion_lon": 0.0, "bike_id": "e78894530ccaf87d189b2874a2fd9ddb", "is_disabled": 0, "lat": 38.917629, "rental_uris": {"ios": "https://dc.lft.to/lastmile_qr_scan", "android": "https://dc.lft.to/lastmile_qr_scan"}, "is_reserved": 0, "lon": -77.02339783333333, "fusion_lat": 0.0, "name": "e78894530ccaf87d189b2874a2fd9ddb"}, {"type": "electric_scooter", "fusion_lon": 0.0, "bike_id": "fbddaebc97e7fe178796abc443d94fa0", "is_disabled": 0, "lat": 38.902488, "rental_uris": {"ios": "https://dc.lft.to/lastmile_qr_scan", "android": "https://dc.lft.to/lastmile_qr_scan"}, "is_reserved": 0, "lon": -77.0459435, "fusion_lat": 0.0, "name": "fbddaebc97e7fe178796abc443d94fa0"}, {"type": "electric_scooter", "fusion_lon": 0.0, "bike_id": "74fd20daadeb955c08f6d2028146ea51", "is_disabled": 0, "lat": 38.876762, "rental_uris": {"ios": "https://dc.lft.to/lastmile_qr_scan", "android": "https://dc.lft.to/lastmile_qr_scan"}, "is_reserved": 0, "lon": -77.00933633333334, "fusion_lat": 0.0, "name": "74fd20daadeb955c08f6d2028146ea51"}, {"type": "electric_scooter", "fusion_lon": 0.0, "bike_id": "24a5492aea18a01a2a732804e6aa7550", "is_disabled": 0, "lat": 38.91103833333333, "rental_uris": {"ios": "https://dc.lft.to/lastmile_qr_scan", "android": "https://dc.lft.to/lastmile_qr_scan"}, "is_reserved": 0, "lon": -77.04468633333333, "fusion_lat": 0.0, "name": "24a5492aea18a01a2a732804e6aa7550"}, {"type": "electric_scooter", "fusion_lon": 0.0, "bike_id": "8d9e2da20ce680420f871894808295a8", "is_disabled": 0, "lat": 38.922494666666665, "rental_uris": {"ios": "https://dc.lft.to/lastmile_qr_scan", "android": "https://dc.lft.to/lastmile_qr_scan"}, "is_reserved": 0, "lon": -77.07298866666666, "fusion_lat": 0.0, "name": "8d9e2da20ce680420f871894808295a8"}, {"type": "electric_bike", "fusion_lon": 0.0, "bike_id": "a8ddd8037baaca6525a5c1514442f0b7", "is_disabled": 0, "lat": 38.910419166666664, "rental_uris": {"ios": "https://dc.lft.to/lastmile_qr_scan", "android": "https://dc.lft.to/lastmile_qr_scan"}, "is_reserved": 0, "lon": -77.07554216666666, "fusion_lat": 0.0, "name": "a8ddd8037baaca6525a5c1514442f0b7"}, {"type": "electric_scooter", "fusion_lon": 0.0, "bike_id": "44b75fc522429f9dca60c9318cf4c0ad", "is_disabled": 0, "lat": 38.904261166666664, "rental_uris": {"ios": "https://dc.lft.to/lastmile_qr_scan", "android": "https://dc.lft.to/lastmile_qr_scan"}, "is_reserved": 0, "lon": -77.02935116666667, "fusion_lat": 0.0, "name": "44b75fc522429f9dca60c9318cf4c0ad"}, {"type": "electric_scooter", "fusion_lon": 0.0, "bike_id": "907707aca68d8ad8e50e8a7f5cbf6549", "is_disabled": 0, "lat": 38.898044166666665, "rental_uris": {"ios": "https://dc.lft.to/lastmile_qr_scan", "android": "https://dc.lft.to/lastmile_qr_scan"}, "is_reserved": 0, "lon": -76.9794895, "fusion_lat": 0.0, "name": "907707aca68d8ad8e50e8a7f5cbf6549"}, {"type": "electric_scooter", "fusion_lon": 0.0, "bike_id": "e4cbdb054a28f98e208d2bfcfaefff84", "is_disabled": 0, "lat": 38.90478316666667, "rental_uris": {"ios": "https://dc.lft.to/lastmile_qr_scan", "android": "https://dc.lft.to/lastmile_qr_scan"}, "is_reserved": 0, "lon": -77.04876433333334, "fusion_lat": 0.0, "name": "e4cbdb054a28f98e208d2bfcfaefff84"}, {"type": "electric_scooter", "fusion_lon": 0.0, "bike_id": "dfbb8387b37fb4d529bc031ddce975cc", "is_disabled": 0, "lat": 38.87380316666667, "rental_uris": {"ios": "https://dc.lft.to/lastmile_qr_scan", "android": "https://dc.lft.to/lastmile_qr_scan"}, "is_reserved": 0, "lon": -77.0013705, "fusion_lat": 0.0, "name": "dfbb8387b37fb4d529bc031ddce975cc"}, {"type": "electric_scooter", "fusion_lon": 0.0, "bike_id": "f93c0e51b5ac61125c4f65b64098e42f", "is_disabled": 0, "lat": 38.87388116666666, "rental_uris": {"ios": "https://dc.lft.to/lastmile_qr_scan", "android": "https://dc.lft.to/lastmile_qr_scan"}, "is_reserved": 0, "lon": -77.001303, "fusion_lat": 0.0, "name": "f93c0e51b5ac61125c4f65b64098e42f"}, {"type": "electric_scooter", "fusion_lon": 0.0, "bike_id": "a06d6e5e195b681afd9aded095f0f66a", "is_disabled": 0, "lat": 38.87666333333333, "rental_uris": {"ios": "https://dc.lft.to/lastmile_qr_scan", "android": "https://dc.lft.to/lastmile_qr_scan"}, "is_reserved": 0, "lon": -77.00939583333333, "fusion_lat": 0.0, "name": "a06d6e5e195b681afd9aded095f0f66a"}, {"type": "electric_scooter", "fusion_lon": 0.0, "bike_id": "c05f1704720e71137f307a1b92814cb1", "is_disabled": 0, "lat": 38.89225283333333, "rental_uris": {"ios": "https://dc.lft.to/lastmile_qr_scan", "android": "https://dc.lft.to/lastmile_qr_scan"}, "is_reserved": 0, "lon": -77.02622516666666, "fusion_lat": 0.0, "name": "c05f1704720e71137f307a1b92814cb1"}, {"type": "electric_scooter", "fusion_lon": 0.0, "bike_id": "594d37acf16a8a1f24c079f4cc36ecf5", "is_disabled": 0, "lat": 38.90888416666667, "rental_uris": {"ios": "https://dc.lft.to/lastmile_qr_scan", "android": "https://dc.lft.to/lastmile_qr_scan"}, "is_reserved": 0, "lon": -77.04294683333333, "fusion_lat": 0.0, "name": "594d37acf16a8a1f24c079f4cc36ecf5"}, {"type": "electric_scooter", "fusion_lon": 0.0, "bike_id": "11eda06b8e7319f37809e1af8a4e6218", "is_disabled": 0, "lat": 38.8924625, "rental_uris": {"ios": "https://dc.lft.to/lastmile_qr_scan", "android": "https://dc.lft.to/lastmile_qr_scan"}, "is_reserved": 0, "lon": -77.03344583333333, "fusion_lat": 0.0, "name": "11eda06b8e7319f37809e1af8a4e6218"}, {"type": "electric_scooter", "fusion_lon": 0.0, "bike_id": "d10013fb8745f00b71e0931178750700", "is_disabled": 0, "lat": 38.93398583333333, "rental_uris": {"ios": "https://dc.lft.to/lastmile_qr_scan", "android": "https://dc.lft.to/lastmile_qr_scan"}, "is_reserved": 0, "lon": -77.05740516666667, "fusion_lat": 0.0, "name": "d10013fb8745f00b71e0931178750700"}, {"type": "electric_scooter", "fusion_lon": 0.0, "bike_id": "04004b2af9b7b033b6737a4a44b3fcfd", "is_disabled": 0, "lat": 38.917895333333334, "rental_uris": {"ios": "https://dc.lft.to/lastmile_qr_scan", "android": "https://dc.lft.to/lastmile_qr_scan"}, "is_reserved": 0, "lon": -77.0440895, "fusion_lat": 0.0, "name": "04004b2af9b7b033b6737a4a44b3fcfd"}, {"type": "electric_scooter", "fusion_lon": 0.0, "bike_id": "3b4b0800f167111b8de6f693e59e6c90", "is_disabled": 0, "lat": 38.89993233333333, "rental_uris": {"ios": "https://dc.lft.to/lastmile_qr_scan", "android": "https://dc.lft.to/lastmile_qr_scan"}, "is_reserved": 0, "lon": -77.0210245, "fusion_lat": 0.0, "name": "3b4b0800f167111b8de6f693e59e6c90"}, {"type": "electric_scooter", "fusion_lon": 0.0, "bike_id": "4cc456d480ccbb8682d4183793ed5d5f", "is_disabled": 0, "lat": 38.883719166666666, "rental_uris": {"ios": "https://dc.lft.to/lastmile_qr_scan", "android": "https://dc.lft.to/lastmile_qr_scan"}, "is_reserved": 0, "lon": -76.9570725, "fusion_lat": 0.0, "name": "4cc456d480ccbb8682d4183793ed5d5f"}, {"type": "electric_scooter", "fusion_lon": 0.0, "bike_id": "0ab6b177bdbfdeffa4ceeb6d499ba9b4", "is_disabled": 0, "lat": 38.90965716666667, "rental_uris": {"ios": "https://dc.lft.to/lastmile_qr_scan", "android": "https://dc.lft.to/lastmile_qr_scan"}, "is_reserved": 0, "lon": -77.00737866666667, "fusion_lat": 0.0, "name": "0ab6b177bdbfdeffa4ceeb6d499ba9b4"}, {"type": "electric_scooter", "fusion_lon": 0.0, "bike_id": "50a65f4a0af064fd08281017a4e3aff7", "is_disabled": 0, "lat": 38.910098833333336, "rental_uris": {"ios": "https://dc.lft.to/lastmile_qr_scan", "android": "https://dc.lft.to/lastmile_qr_scan"}, "is_reserved": 0, "lon": -77.04007666666666, "fusion_lat": 0.0, "name": "50a65f4a0af064fd08281017a4e3aff7"}, {"type": "electric_scooter", "fusion_lon": 0.0, "bike_id": "b11221db0c25f020b31a8cfd3dd67b75", "is_disabled": 0, "lat": 38.892227, "rental_uris": {"ios": "https://dc.lft.to/lastmile_qr_scan", "android": "https://dc.lft.to/lastmile_qr_scan"}, "is_reserved": 0, "lon": -77.0468285, "fusion_lat": 0.0, "name": "b11221db0c25f020b31a8cfd3dd67b75"}, {"type": "electric_scooter", "fusion_lon": 0.0, "bike_id": "e4e3438445e814194988b081169b8c3f", "is_disabled": 0, "lat": 38.89219966666667, "rental_uris": {"ios": "https://dc.lft.to/lastmile_qr_scan", "android": "https://dc.lft.to/lastmile_qr_scan"}, "is_reserved": 0, "lon": -77.03219833333333, "fusion_lat": 0.0, "name": "e4e3438445e814194988b081169b8c3f"}, {"type": "electric_scooter", "fusion_lon": 0.0, "bike_id": "85daf189128c372586d6d4d5a0699f03", "is_disabled": 0, "lat": 38.880882, "rental_uris": {"ios": "https://dc.lft.to/lastmile_qr_scan", "android": "https://dc.lft.to/lastmile_qr_scan"}, "is_reserved": 0, "lon": -76.98501866666666, "fusion_lat": 0.0, "name": "85daf189128c372586d6d4d5a0699f03"}, {"type": "electric_scooter", "fusion_lon": 0.0, "bike_id": "656e1ca7a0cd1d799562c3f197566cf8", "is_disabled": 0, "lat": 38.90768083333333, "rental_uris": {"ios": "https://dc.lft.to/lastmile_qr_scan", "android": "https://dc.lft.to/lastmile_qr_scan"}, "is_reserved": 0, "lon": -77.03738866666667, "fusion_lat": 0.0, "name": "656e1ca7a0cd1d799562c3f197566cf8"}, {"type": "electric_scooter", "fusion_lon": 0.0, "bike_id": "d0bada89b99cc7a1e04fcfd01f62022f", "is_disabled": 0, "lat": 38.89522633333333, "rental_uris": {"ios": "https://dc.lft.to/lastmile_qr_scan", "android": "https://dc.lft.to/lastmile_qr_scan"}, "is_reserved": 0, "lon": -77.02191933333333, "fusion_lat": 0.0, "name": "d0bada89b99cc7a1e04fcfd01f62022f"}, {"type": "electric_scooter", "fusion_lon": 0.0, "bike_id": "8baf2446c8a108a2c880910d49aef4fc", "is_disabled": 0, "lat": 38.90574566666667, "rental_uris": {"ios": "https://dc.lft.to/lastmile_qr_scan", "android": "https://dc.lft.to/lastmile_qr_scan"}, "is_reserved": 0, "lon": -77.0241145, "fusion_lat": 0.0, "name": "8baf2446c8a108a2c880910d49aef4fc"}, {"type": "electric_scooter", "fusion_lon": 0.0, "bike_id": "c3c0f78d5eda1739f37d8698bfac35e7", "is_disabled": 0, "lat": 38.89221966666667, "rental_uris": {"ios": "https://dc.lft.to/lastmile_qr_scan", "android": "https://dc.lft.to/lastmile_qr_scan"}, "is_reserved": 0, "lon": -77.03164766666667, "fusion_lat": 0.0, "name": "c3c0f78d5eda1739f37d8698bfac35e7"}, {"type": "electric_scooter", "fusion_lon": 0.0, "bike_id": "b99a952c64895ac9836178dd56d54693", "is_disabled": 0, "lat": 38.942406, "rental_uris": {"ios": "https://dc.lft.to/lastmile_qr_scan", "android": "https://dc.lft.to/lastmile_qr_scan"}, "is_reserved": 0, "lon": -77.058679, "fusion_lat": 0.0, "name": "b99a952c64895ac9836178dd56d54693"}, {"type": "electric_scooter", "fusion_lon": 0.0, "bike_id": "4b5b4bd06612c99d3e3f5c6579933163", "is_disabled": 0, "lat": 38.935266666666664, "rental_uris": {"ios": "https://dc.lft.to/lastmile_qr_scan", "android": "https://dc.lft.to/lastmile_qr_scan"}, "is_reserved": 0, "lon": -77.0544745, "fusion_lat": 0.0, "name": "4b5b4bd06612c99d3e3f5c6579933163"}, {"type": "electric_scooter", "fusion_lon": 0.0, "bike_id": "e236d6cb63624fc7040d74d63ded43bd", "is_disabled": 0, "lat": 38.87767566666667, "rental_uris": {"ios": "https://dc.lft.to/lastmile_qr_scan", "android": "https://dc.lft.to/lastmile_qr_scan"}, "is_reserved": 0, "lon": -76.99604216666667, "fusion_lat": 0.0, "name": "e236d6cb63624fc7040d74d63ded43bd"}, {"type": "electric_scooter", "fusion_lon": 0.0, "bike_id": "859f68678ad9d22a7de5cbef14f4bf8b", "is_disabled": 0, "lat": 38.90177633333333, "rental_uris": {"ios": "https://dc.lft.to/lastmile_qr_scan", "android": "https://dc.lft.to/lastmile_qr_scan"}, "is_reserved": 0, "lon": -77.02486816666666, "fusion_lat": 0.0, "name": "859f68678ad9d22a7de5cbef14f4bf8b"}, {"type": "electric_scooter", "fusion_lon": 0.0, "bike_id": "bd7b465917ebe33cd0fd34dde3b6b2ca", "is_disabled": 0, "lat": 38.905271, "rental_uris": {"ios": "https://dc.lft.to/lastmile_qr_scan", "android": "https://dc.lft.to/lastmile_qr_scan"}, "is_reserved": 0, "lon": -77.05080166666667, "fusion_lat": 0.0, "name": "bd7b465917ebe33cd0fd34dde3b6b2ca"}, {"type": "electric_scooter", "fusion_lon": 0.0, "bike_id": "43f7b9ec5315884b8fbb0ab207a96e27", "is_disabled": 0, "lat": 38.94985366666667, "rental_uris": {"ios": "https://dc.lft.to/lastmile_qr_scan", "android": "https://dc.lft.to/lastmile_qr_scan"}, "is_reserved": 0, "lon": -77.024412, "fusion_lat": 0.0, "name": "43f7b9ec5315884b8fbb0ab207a96e27"}, {"type": "electric_scooter", "fusion_lon": 0.0, "bike_id": "06c9fe1b23ee553356b215d0a86a9a63", "is_disabled": 0, "lat": 38.92658633333333, "rental_uris": {"ios": "https://dc.lft.to/lastmile_qr_scan", "android": "https://dc.lft.to/lastmile_qr_scan"}, "is_reserved": 0, "lon": -77.0243215, "fusion_lat": 0.0, "name": "06c9fe1b23ee553356b215d0a86a9a63"}, {"type": "electric_scooter", "fusion_lon": 0.0, "bike_id": "aa399cff08d71046a4e7158b9f37eeee", "is_disabled": 0, "lat": 38.92256283333333, "rental_uris": {"ios": "https://dc.lft.to/lastmile_qr_scan", "android": "https://dc.lft.to/lastmile_qr_scan"}, "is_reserved": 0, "lon": -77.0195325, "fusion_lat": 0.0, "name": "aa399cff08d71046a4e7158b9f37eeee"}, {"type": "electric_scooter", "fusion_lon": 0.0, "bike_id": "9d9896f369e1bf25490c309f8c4a0e26", "is_disabled": 0, "lat": 38.928791833333335, "rental_uris": {"ios": "https://dc.lft.to/lastmile_qr_scan", "android": "https://dc.lft.to/lastmile_qr_scan"}, "is_reserved": 0, "lon": -77.03356316666667, "fusion_lat": 0.0, "name": "9d9896f369e1bf25490c309f8c4a0e26"}, {"type": "electric_bike", "fusion_lon": 0.0, "bike_id": "6d07b2e0ef342447bc1e3cffc5aa6afa", "is_disabled": 0, "lat": 38.9003755, "rental_uris": {"ios": "https://dc.lft.to/lastmile_qr_scan", "android": "https://dc.lft.to/lastmile_qr_scan"}, "is_reserved": 0, "lon": -76.97226633333334, "fusion_lat": 0.0, "name": "6d07b2e0ef342447bc1e3cffc5aa6afa"}, {"type": "electric_scooter", "fusion_lon": 0.0, "bike_id": "7d5724f4f44aeb2092022a51f356c6a7", "is_disabled": 0, "lat": 38.904155, "rental_uris": {"ios": "https://dc.lft.to/lastmile_qr_scan", "android": "https://dc.lft.to/lastmile_qr_scan"}, "is_reserved": 0, "lon": -77.06771066666667, "fusion_lat": 0.0, "name": "7d5724f4f44aeb2092022a51f356c6a7"}, {"type": "electric_scooter", "fusion_lon": 0.0, "bike_id": "4a178a742f32d2ac6845ee5be45e45e6", "is_disabled": 0, "lat": 38.957692, "rental_uris": {"ios": "https://dc.lft.to/lastmile_qr_scan", "android": "https://dc.lft.to/lastmile_qr_scan"}, "is_reserved": 0, "lon": -77.0149745, "fusion_lat": 0.0, "name": "4a178a742f32d2ac6845ee5be45e45e6"}, {"type": "electric_scooter", "fusion_lon": 0.0, "bike_id": "f7d47ac3a8fc4bee5b0e35ef98353da9", "is_disabled": 0, "lat": 38.901549333333335, "rental_uris": {"ios": "https://dc.lft.to/lastmile_qr_scan", "android": "https://dc.lft.to/lastmile_qr_scan"}, "is_reserved": 0, "lon": -77.05911066666667, "fusion_lat": 0.0, "name": "f7d47ac3a8fc4bee5b0e35ef98353da9"}, {"type": "electric_scooter", "fusion_lon": 0.0, "bike_id": "bc6a2296a469db0b9544f672c4ed9656", "is_disabled": 0, "lat": 38.87670966666667, "rental_uris": {"ios": "https://dc.lft.to/lastmile_qr_scan", "android": "https://dc.lft.to/lastmile_qr_scan"}, "is_reserved": 0, "lon": -76.93122883333334, "fusion_lat": 0.0, "name": "bc6a2296a469db0b9544f672c4ed9656"}, {"type": "electric_scooter", "fusion_lon": 0.0, "bike_id": "b4d4f9b83a3cb01ec10a1e51ff46af14", "is_disabled": 0, "lat": 38.9245125, "rental_uris": {"ios": "https://dc.lft.to/lastmile_qr_scan", "android": "https://dc.lft.to/lastmile_qr_scan"}, "is_reserved": 0, "lon": -77.038982, "fusion_lat": 0.0, "name": "b4d4f9b83a3cb01ec10a1e51ff46af14"}, {"type": "electric_scooter", "fusion_lon": 0.0, "bike_id": "d60515bd68a0ec41e7dbe2066d6db2fd", "is_disabled": 0, "lat": 38.897378333333336, "rental_uris": {"ios": "https://dc.lft.to/lastmile_qr_scan", "android": "https://dc.lft.to/lastmile_qr_scan"}, "is_reserved": 0, "lon": -77.00750133333334, "fusion_lat": 0.0, "name": "d60515bd68a0ec41e7dbe2066d6db2fd"}, {"type": "electric_scooter", "fusion_lon": 0.0, "bike_id": "b833e23344bbf310b88c176e7d68d7de", "is_disabled": 0, "lat": 38.89224, "rental_uris": {"ios": "https://dc.lft.to/lastmile_qr_scan", "android": "https://dc.lft.to/lastmile_qr_scan"}, "is_reserved": 0, "lon": -77.01371933333333, "fusion_lat": 0.0, "name": "b833e23344bbf310b88c176e7d68d7de"}, {"type": "electric_bike", "fusion_lon": 0.0, "bike_id": "fedd6cdf8ee6c60938a2c7a655eb06ca", "is_disabled": 0, "lat": 38.935439333333335, "rental_uris": {"ios": "https://dc.lft.to/lastmile_qr_scan", "android": "https://dc.lft.to/lastmile_qr_scan"}, "is_reserved": 0, "lon": -77.072952, "fusion_lat": 0.0, "name": "fedd6cdf8ee6c60938a2c7a655eb06ca"}, {"type": "electric_scooter", "fusion_lon": 0.0, "bike_id": "df85b755f4f6614a6a2344585acd17e5", "is_disabled": 0, "lat": 38.8874485, "rental_uris": {"ios": "https://dc.lft.to/lastmile_qr_scan", "android": "https://dc.lft.to/lastmile_qr_scan"}, "is_reserved": 0, "lon": -77.022047, "fusion_lat": 0.0, "name": "df85b755f4f6614a6a2344585acd17e5"}, {"type": "electric_scooter", "fusion_lon": 0.0, "bike_id": "1e5b747a4b8d95f32c28b75426a53e7e", "is_disabled": 0, "lat": 38.910154166666665, "rental_uris": {"ios": "https://dc.lft.to/lastmile_qr_scan", "android": "https://dc.lft.to/lastmile_qr_scan"}, "is_reserved": 0, "lon": -76.99385683333334, "fusion_lat": 0.0, "name": "1e5b747a4b8d95f32c28b75426a53e7e"}, {"type": "electric_scooter", "fusion_lon": 0.0, "bike_id": "0da7942fdd16d0979e452fa00163452d", "is_disabled": 0, "lat": 38.908278333333335, "rental_uris": {"ios": "https://dc.lft.to/lastmile_qr_scan", "android": "https://dc.lft.to/lastmile_qr_scan"}, "is_reserved": 0, "lon": -77.03556066666667, "fusion_lat": 0.0, "name": "0da7942fdd16d0979e452fa00163452d"}, {"type": "electric_scooter", "fusion_lon": 0.0, "bike_id": "24f59ffe6ea6e122e8e5f7421a75c5d6", "is_disabled": 0, "lat": 38.95737333333334, "rental_uris": {"ios": "https://dc.lft.to/lastmile_qr_scan", "android": "https://dc.lft.to/lastmile_qr_scan"}, "is_reserved": 0, "lon": -77.02399766666667, "fusion_lat": 0.0, "name": "24f59ffe6ea6e122e8e5f7421a75c5d6"}, {"type": "electric_scooter", "fusion_lon": 0.0, "bike_id": "1c4f4343a964208fffe2be480d918ec4", "is_disabled": 0, "lat": 38.89224933333333, "rental_uris": {"ios": "https://dc.lft.to/lastmile_qr_scan", "android": "https://dc.lft.to/lastmile_qr_scan"}, "is_reserved": 0, "lon": -77.02218133333334, "fusion_lat": 0.0, "name": "1c4f4343a964208fffe2be480d918ec4"}, {"type": "electric_scooter", "fusion_lon": 0.0, "bike_id": "f4ace89d94b2d84bb12f3bc613110af0", "is_disabled": 0, "lat": 38.915194, "rental_uris": {"ios": "https://dc.lft.to/lastmile_qr_scan", "android": "https://dc.lft.to/lastmile_qr_scan"}, "is_reserved": 0, "lon": -77.046101, "fusion_lat": 0.0, "name": "f4ace89d94b2d84bb12f3bc613110af0"}, {"type": "electric_scooter", "fusion_lon": 0.0, "bike_id": "98a5eadae1a3e58fc486403d7a2c9b43", "is_disabled": 0, "lat": 38.899066833333336, "rental_uris": {"ios": "https://dc.lft.to/lastmile_qr_scan", "android": "https://dc.lft.to/lastmile_qr_scan"}, "is_reserved": 0, "lon": -77.048809, "fusion_lat": 0.0, "name": "98a5eadae1a3e58fc486403d7a2c9b43"}, {"type": "electric_scooter", "fusion_lon": 0.0, "bike_id": "43fa054968818cb9e8afb16a80ce4106", "is_disabled": 0, "lat": 38.90891966666667, "rental_uris": {"ios": "https://dc.lft.to/lastmile_qr_scan", "android": "https://dc.lft.to/lastmile_qr_scan"}, "is_reserved": 0, "lon": -77.02286283333333, "fusion_lat": 0.0, "name": "43fa054968818cb9e8afb16a80ce4106"}, {"type": "electric_bike", "fusion_lon": 0.0, "bike_id": "6962a767f6a3fc8d0b00551350dbe8be", "is_disabled": 0, "lat": 38.88853816666666, "rental_uris": {"ios": "https://dc.lft.to/lastmile_qr_scan", "android": "https://dc.lft.to/lastmile_qr_scan"}, "is_reserved": 0, "lon": -76.957464, "fusion_lat": 0.0, "name": "6962a767f6a3fc8d0b00551350dbe8be"}, {"type": "electric_scooter", "fusion_lon": 0.0, "bike_id": "9d5b95085e13a66bf35a14fa071501da", "is_disabled": 0, "lat": 38.93711916666667, "rental_uris": {"ios": "https://dc.lft.to/lastmile_qr_scan", "android": "https://dc.lft.to/lastmile_qr_scan"}, "is_reserved": 0, "lon": -77.02426016666666, "fusion_lat": 0.0, "name": "9d5b95085e13a66bf35a14fa071501da"}, {"type": "electric_scooter", "fusion_lon": 0.0, "bike_id": "7bf75e6b156f097f6a3ebd3a2628ba96", "is_disabled": 0, "lat": 38.905929666666665, "rental_uris": {"ios": "https://dc.lft.to/lastmile_qr_scan", "android": "https://dc.lft.to/lastmile_qr_scan"}, "is_reserved": 0, "lon": -77.04353016666667, "fusion_lat": 0.0, "name": "7bf75e6b156f097f6a3ebd3a2628ba96"}, {"type": "electric_scooter", "fusion_lon": 0.0, "bike_id": "07d499821b5259a05cdef25be3606ad2", "is_disabled": 0, "lat": 38.90764516666667, "rental_uris": {"ios": "https://dc.lft.to/lastmile_qr_scan", "android": "https://dc.lft.to/lastmile_qr_scan"}, "is_reserved": 0, "lon": -77.0386155, "fusion_lat": 0.0, "name": "07d499821b5259a05cdef25be3606ad2"}, {"type": "electric_scooter", "fusion_lon": 0.0, "bike_id": "ada96894e46c0280e990c721f88cb99e", "is_disabled": 0, "lat": 38.892394, "rental_uris": {"ios": "https://dc.lft.to/lastmile_qr_scan", "android": "https://dc.lft.to/lastmile_qr_scan"}, "is_reserved": 0, "lon": -77.024177, "fusion_lat": 0.0, "name": "ada96894e46c0280e990c721f88cb99e"}, {"type": "electric_scooter", "fusion_lon": 0.0, "bike_id": "91f4a0ed3f10943b676ba0d079040aab", "is_disabled": 0, "lat": 38.902662166666666, "rental_uris": {"ios": "https://dc.lft.to/lastmile_qr_scan", "android": "https://dc.lft.to/lastmile_qr_scan"}, "is_reserved": 0, "lon": -77.02662866666667, "fusion_lat": 0.0, "name": "91f4a0ed3f10943b676ba0d079040aab"}, {"type": "electric_scooter", "fusion_lon": 0.0, "bike_id": "39ab435043161fe13c0485a585d44a42", "is_disabled": 0, "lat": 38.909642, "rental_uris": {"ios": "https://dc.lft.to/lastmile_qr_scan", "android": "https://dc.lft.to/lastmile_qr_scan"}, "is_reserved": 0, "lon": -77.03499616666667, "fusion_lat": 0.0, "name": "39ab435043161fe13c0485a585d44a42"}, {"type": "electric_scooter", "fusion_lon": 0.0, "bike_id": "712b01e8df3b77404ec275444c15035f", "is_disabled": 0, "lat": 38.919527, "rental_uris": {"ios": "https://dc.lft.to/lastmile_qr_scan", "android": "https://dc.lft.to/lastmile_qr_scan"}, "is_reserved": 0, "lon": -77.02592583333333, "fusion_lat": 0.0, "name": "712b01e8df3b77404ec275444c15035f"}, {"type": "electric_scooter", "fusion_lon": 0.0, "bike_id": "0dc8a266f6dd1ef0c8e03ed8a9b740c7", "is_disabled": 0, "lat": 38.908855, "rental_uris": {"ios": "https://dc.lft.to/lastmile_qr_scan", "android": "https://dc.lft.to/lastmile_qr_scan"}, "is_reserved": 0, "lon": -77.06769516666667, "fusion_lat": 0.0, "name": "0dc8a266f6dd1ef0c8e03ed8a9b740c7"}, {"type": "electric_scooter", "fusion_lon": 0.0, "bike_id": "3f978d055d915f1e056ba7cf52a45d50", "is_disabled": 0, "lat": 38.9012575, "rental_uris": {"ios": "https://dc.lft.to/lastmile_qr_scan", "android": "https://dc.lft.to/lastmile_qr_scan"}, "is_reserved": 0, "lon": -77.00891333333334, "fusion_lat": 0.0, "name": "3f978d055d915f1e056ba7cf52a45d50"}, {"type": "electric_scooter", "fusion_lon": 0.0, "bike_id": "304ed4b5160328b9ccbe23c05ae6f39e", "is_disabled": 0, "lat": 38.88769583333333, "rental_uris": {"ios": "https://dc.lft.to/lastmile_qr_scan", "android": "https://dc.lft.to/lastmile_qr_scan"}, "is_reserved": 0, "lon": -77.03354816666666, "fusion_lat": 0.0, "name": "304ed4b5160328b9ccbe23c05ae6f39e"}, {"type": "electric_scooter", "fusion_lon": 0.0, "bike_id": "ea8e3bcaf54338d1db8e7992f0682414", "is_disabled": 0, "lat": 38.92031716666666, "rental_uris": {"ios": "https://dc.lft.to/lastmile_qr_scan", "android": "https://dc.lft.to/lastmile_qr_scan"}, "is_reserved": 0, "lon": -77.01434283333333, "fusion_lat": 0.0, "name": "ea8e3bcaf54338d1db8e7992f0682414"}, {"type": "electric_scooter", "fusion_lon": 0.0, "bike_id": "a2ebc1597ea0f330721080db1110a6df", "is_disabled": 0, "lat": 38.923255833333336, "rental_uris": {"ios": "https://dc.lft.to/lastmile_qr_scan", "android": "https://dc.lft.to/lastmile_qr_scan"}, "is_reserved": 0, "lon": -77.01951733333334, "fusion_lat": 0.0, "name": "a2ebc1597ea0f330721080db1110a6df"}, {"type": "electric_scooter", "fusion_lon": 0.0, "bike_id": "e73285d6decadd2511d1c238ea6e7940", "is_disabled": 0, "lat": 38.897873, "rental_uris": {"ios": "https://dc.lft.to/lastmile_qr_scan", "android": "https://dc.lft.to/lastmile_qr_scan"}, "is_reserved": 0, "lon": -77.02188416666667, "fusion_lat": 0.0, "name": "e73285d6decadd2511d1c238ea6e7940"}, {"type": "electric_scooter", "fusion_lon": 0.0, "bike_id": "46798474294e802a0d4a806c914bfe0d", "is_disabled": 0, "lat": 38.926071, "rental_uris": {"ios": "https://dc.lft.to/lastmile_qr_scan", "android": "https://dc.lft.to/lastmile_qr_scan"}, "is_reserved": 0, "lon": -77.02154116666667, "fusion_lat": 0.0, "name": "46798474294e802a0d4a806c914bfe0d"}, {"type": "electric_bike", "fusion_lon": 0.0, "bike_id": "263867ac897f254b485cd66a868a0173", "is_disabled": 0, "lat": 38.92663266666667, "rental_uris": {"ios": "https://dc.lft.to/lastmile_qr_scan", "android": "https://dc.lft.to/lastmile_qr_scan"}, "is_reserved": 0, "lon": -77.090047, "fusion_lat": 0.0, "name": "263867ac897f254b485cd66a868a0173"}, {"type": "electric_scooter", "fusion_lon": 0.0, "bike_id": "9ad248a1774e0c55216ecae3a597de07", "is_disabled": 0, "lat": 38.8621495, "rental_uris": {"ios": "https://dc.lft.to/lastmile_qr_scan", "android": "https://dc.lft.to/lastmile_qr_scan"}, "is_reserved": 0, "lon": -76.9947765, "fusion_lat": 0.0, "name": "9ad248a1774e0c55216ecae3a597de07"}, {"type": "electric_scooter", "fusion_lon": 0.0, "bike_id": "702f68843da602f6a2b21be51d5fa38f", "is_disabled": 0, "lat": 38.911302666666664, "rental_uris": {"ios": "https://dc.lft.to/lastmile_qr_scan", "android": "https://dc.lft.to/lastmile_qr_scan"}, "is_reserved": 0, "lon": -77.0217815, "fusion_lat": 0.0, "name": "702f68843da602f6a2b21be51d5fa38f"}, {"type": "electric_scooter", "fusion_lon": 0.0, "bike_id": "a997ed7aeb8c3b946beecb1df56da6ec", "is_disabled": 0, "lat": 38.89962933333334, "rental_uris": {"ios": "https://dc.lft.to/lastmile_qr_scan", "android": "https://dc.lft.to/lastmile_qr_scan"}, "is_reserved": 0, "lon": -77.02005233333334, "fusion_lat": 0.0, "name": "a997ed7aeb8c3b946beecb1df56da6ec"}, {"type": "electric_scooter", "fusion_lon": 0.0, "bike_id": "f695aa10ec027f354d9ed7bc940d0be6", "is_disabled": 0, "lat": 38.88486, "rental_uris": {"ios": "https://dc.lft.to/lastmile_qr_scan", "android": "https://dc.lft.to/lastmile_qr_scan"}, "is_reserved": 0, "lon": -77.01536416666667, "fusion_lat": 0.0, "name": "f695aa10ec027f354d9ed7bc940d0be6"}, {"type": "electric_scooter", "fusion_lon": 0.0, "bike_id": "fc2f6a10f932120bbe9298fadbc17663", "is_disabled": 0, "lat": 38.91508616666667, "rental_uris": {"ios": "https://dc.lft.to/lastmile_qr_scan", "android": "https://dc.lft.to/lastmile_qr_scan"}, "is_reserved": 0, "lon": -77.04599116666667, "fusion_lat": 0.0, "name": "fc2f6a10f932120bbe9298fadbc17663"}, {"type": "electric_scooter", "fusion_lon": 0.0, "bike_id": "3c7a74a8bd42d79b6ea234770f23c75a", "is_disabled": 0, "lat": 38.8864665, "rental_uris": {"ios": "https://dc.lft.to/lastmile_qr_scan", "android": "https://dc.lft.to/lastmile_qr_scan"}, "is_reserved": 0, "lon": -77.02129833333333, "fusion_lat": 0.0, "name": "3c7a74a8bd42d79b6ea234770f23c75a"}, {"type": "electric_bike", "fusion_lon": 0.0, "bike_id": "19aed4c023125338711e7a3b25967db6", "is_disabled": 0, "lat": 38.85096883333333, "rental_uris": {"ios": "https://dc.lft.to/lastmile_qr_scan", "android": "https://dc.lft.to/lastmile_qr_scan"}, "is_reserved": 0, "lon": -76.95695383333333, "fusion_lat": 0.0, "name": "19aed4c023125338711e7a3b25967db6"}, {"type": "electric_scooter", "fusion_lon": 0.0, "bike_id": "4f0776f9eb8556bc374798a2764f04b0", "is_disabled": 0, "lat": 38.918178833333336, "rental_uris": {"ios": "https://dc.lft.to/lastmile_qr_scan", "android": "https://dc.lft.to/lastmile_qr_scan"}, "is_reserved": 0, "lon": -77.025309, "fusion_lat": 0.0, "name": "4f0776f9eb8556bc374798a2764f04b0"}, {"type": "electric_bike", "fusion_lon": 0.0, "bike_id": "91a21a66438ce8fb19e36077ee243b62", "is_disabled": 0, "lat": 38.981058166666664, "rental_uris": {"ios": "https://dc.lft.to/lastmile_qr_scan", "android": "https://dc.lft.to/lastmile_qr_scan"}, "is_reserved": 0, "lon": -77.00753183333333, "fusion_lat": 0.0, "name": "91a21a66438ce8fb19e36077ee243b62"}, {"type": "electric_bike", "fusion_lon": 0.0, "bike_id": "4943a0a16ebb616d659dcd52a0d6ed99", "is_disabled": 0, "lat": 38.88031516666667, "rental_uris": {"ios": "https://dc.lft.to/lastmile_qr_scan", "android": "https://dc.lft.to/lastmile_qr_scan"}, "is_reserved": 0, "lon": -76.9171935, "fusion_lat": 0.0, "name": "4943a0a16ebb616d659dcd52a0d6ed99"}, {"type": "electric_scooter", "fusion_lon": 0.0, "bike_id": "32706164e4b4146bf6e6998176bb7a64", "is_disabled": 0, "lat": 38.917905, "rental_uris": {"ios": "https://dc.lft.to/lastmile_qr_scan", "android": "https://dc.lft.to/lastmile_qr_scan"}, "is_reserved": 0, "lon": -77.0346095, "fusion_lat": 0.0, "name": "32706164e4b4146bf6e6998176bb7a64"}, {"type": "electric_scooter", "fusion_lon": 0.0, "bike_id": "194612f5c34a071fdb5ddcfefba5158f", "is_disabled": 0, "lat": 38.921374166666666, "rental_uris": {"ios": "https://dc.lft.to/lastmile_qr_scan", "android": "https://dc.lft.to/lastmile_qr_scan"}, "is_reserved": 0, "lon": -77.062979, "fusion_lat": 0.0, "name": "194612f5c34a071fdb5ddcfefba5158f"}, {"type": "electric_scooter", "fusion_lon": 0.0, "bike_id": "c970b82d1af0ad77946c1d85bbb40d13", "is_disabled": 0, "lat": 38.922558333333335, "rental_uris": {"ios": "https://dc.lft.to/lastmile_qr_scan", "android": "https://dc.lft.to/lastmile_qr_scan"}, "is_reserved": 0, "lon": -77.02116616666666, "fusion_lat": 0.0, "name": "c970b82d1af0ad77946c1d85bbb40d13"}, {"type": "electric_scooter", "fusion_lon": 0.0, "bike_id": "8b0dc729f39de36b92c9f9a9d776680e", "is_disabled": 0, "lat": 38.924011166666666, "rental_uris": {"ios": "https://dc.lft.to/lastmile_qr_scan", "android": "https://dc.lft.to/lastmile_qr_scan"}, "is_reserved": 0, "lon": -77.0243235, "fusion_lat": 0.0, "name": "8b0dc729f39de36b92c9f9a9d776680e"}, {"type": "electric_scooter", "fusion_lon": 0.0, "bike_id": "39ded59364b6c0ae7628eb0c8adcf934", "is_disabled": 0, "lat": 38.917804833333335, "rental_uris": {"ios": "https://dc.lft.to/lastmile_qr_scan", "android": "https://dc.lft.to/lastmile_qr_scan"}, "is_reserved": 0, "lon": -77.023104, "fusion_lat": 0.0, "name": "39ded59364b6c0ae7628eb0c8adcf934"}, {"type": "electric_scooter", "fusion_lon": 0.0, "bike_id": "d27b560a9c6d097979e76af79dd186f9", "is_disabled": 0, "lat": 38.92243783333333, "rental_uris": {"ios": "https://dc.lft.to/lastmile_qr_scan", "android": "https://dc.lft.to/lastmile_qr_scan"}, "is_reserved": 0, "lon": -77.03874516666667, "fusion_lat": 0.0, "name": "d27b560a9c6d097979e76af79dd186f9"}, {"type": "electric_scooter", "fusion_lon": 0.0, "bike_id": "2d8eb918953fab8b00e8fc7cbfc6085d", "is_disabled": 0, "lat": 38.899856666666665, "rental_uris": {"ios": "https://dc.lft.to/lastmile_qr_scan", "android": "https://dc.lft.to/lastmile_qr_scan"}, "is_reserved": 0, "lon": -77.02224733333334, "fusion_lat": 0.0, "name": "2d8eb918953fab8b00e8fc7cbfc6085d"}, {"type": "electric_scooter", "fusion_lon": 0.0, "bike_id": "fa8f831054e6bd7cafc02fa85a140745", "is_disabled": 0, "lat": 38.901914166666664, "rental_uris": {"ios": "https://dc.lft.to/lastmile_qr_scan", "android": "https://dc.lft.to/lastmile_qr_scan"}, "is_reserved": 0, "lon": -76.92633516666666, "fusion_lat": 0.0, "name": "fa8f831054e6bd7cafc02fa85a140745"}, {"type": "electric_scooter", "fusion_lon": 0.0, "bike_id": "686b6ea20e9de24543bdacabe5790c60", "is_disabled": 0, "lat": 38.924787, "rental_uris": {"ios": "https://dc.lft.to/lastmile_qr_scan", "android": "https://dc.lft.to/lastmile_qr_scan"}, "is_reserved": 0, "lon": -77.02211216666667, "fusion_lat": 0.0, "name": "686b6ea20e9de24543bdacabe5790c60"}, {"type": "electric_scooter", "fusion_lon": 0.0, "bike_id": "21e482f393755fbc1a3cd8fd53ca86ac", "is_disabled": 0, "lat": 38.91556, "rental_uris": {"ios": "https://dc.lft.to/lastmile_qr_scan", "android": "https://dc.lft.to/lastmile_qr_scan"}, "is_reserved": 0, "lon": -77.03239183333334, "fusion_lat": 0.0, "name": "21e482f393755fbc1a3cd8fd53ca86ac"}, {"type": "electric_scooter", "fusion_lon": 0.0, "bike_id": "22d7369894ac9be76fd4e1de15b1d634", "is_disabled": 0, "lat": 38.90565016666667, "rental_uris": {"ios": "https://dc.lft.to/lastmile_qr_scan", "android": "https://dc.lft.to/lastmile_qr_scan"}, "is_reserved": 0, "lon": -77.046093, "fusion_lat": 0.0, "name": "22d7369894ac9be76fd4e1de15b1d634"}, {"type": "electric_scooter", "fusion_lon": 0.0, "bike_id": "fb6ec6dc80244d728ecf9fd0b39fc5c1", "is_disabled": 0, "lat": 38.90585016666667, "rental_uris": {"ios": "https://dc.lft.to/lastmile_qr_scan", "android": "https://dc.lft.to/lastmile_qr_scan"}, "is_reserved": 0, "lon": -77.00067166666666, "fusion_lat": 0.0, "name": "fb6ec6dc80244d728ecf9fd0b39fc5c1"}, {"type": "electric_scooter", "fusion_lon": 0.0, "bike_id": "42329f3cb1a2efb5f00255086e0c4d9a", "is_disabled": 0, "lat": 38.86473616666667, "rental_uris": {"ios": "https://dc.lft.to/lastmile_qr_scan", "android": "https://dc.lft.to/lastmile_qr_scan"}, "is_reserved": 0, "lon": -76.98228283333333, "fusion_lat": 0.0, "name": "42329f3cb1a2efb5f00255086e0c4d9a"}, {"type": "electric_scooter", "fusion_lon": 0.0, "bike_id": "8da8b80498feada8894727dbba640262", "is_disabled": 0, "lat": 38.91929533333333, "rental_uris": {"ios": "https://dc.lft.to/lastmile_qr_scan", "android": "https://dc.lft.to/lastmile_qr_scan"}, "is_reserved": 0, "lon": -77.02495833333333, "fusion_lat": 0.0, "name": "8da8b80498feada8894727dbba640262"}, {"type": "electric_scooter", "fusion_lon": 0.0, "bike_id": "eaca08ecd9b0798fb9f8cb91e1a31803", "is_disabled": 0, "lat": 38.927847, "rental_uris": {"ios": "https://dc.lft.to/lastmile_qr_scan", "android": "https://dc.lft.to/lastmile_qr_scan"}, "is_reserved": 0, "lon": -77.01532366666666, "fusion_lat": 0.0, "name": "eaca08ecd9b0798fb9f8cb91e1a31803"}, {"type": "electric_scooter", "fusion_lon": 0.0, "bike_id": "66403b7935a9618fad7b28e5ee1591b1", "is_disabled": 0, "lat": 38.909567333333335, "rental_uris": {"ios": "https://dc.lft.to/lastmile_qr_scan", "android": "https://dc.lft.to/lastmile_qr_scan"}, "is_reserved": 0, "lon": -77.04891966666666, "fusion_lat": 0.0, "name": "66403b7935a9618fad7b28e5ee1591b1"}, {"type": "electric_scooter", "fusion_lon": 0.0, "bike_id": "a230689c8da505c9eaf61dfd4d3c59a5", "is_disabled": 0, "lat": 38.900161, "rental_uris": {"ios": "https://dc.lft.to/lastmile_qr_scan", "android": "https://dc.lft.to/lastmile_qr_scan"}, "is_reserved": 0, "lon": -77.040252, "fusion_lat": 0.0, "name": "a230689c8da505c9eaf61dfd4d3c59a5"}, {"type": "electric_scooter", "fusion_lon": 0.0, "bike_id": "99fa4810ba0d5137190f288a05924823", "is_disabled": 0, "lat": 38.922647166666664, "rental_uris": {"ios": "https://dc.lft.to/lastmile_qr_scan", "android": "https://dc.lft.to/lastmile_qr_scan"}, "is_reserved": 0, "lon": -77.0429005, "fusion_lat": 0.0, "name": "99fa4810ba0d5137190f288a05924823"}, {"type": "electric_scooter", "fusion_lon": 0.0, "bike_id": "15eea3e9068cfa8a0f0b3a27e42d10c4", "is_disabled": 0, "lat": 38.90392833333333, "rental_uris": {"ios": "https://dc.lft.to/lastmile_qr_scan", "android": "https://dc.lft.to/lastmile_qr_scan"}, "is_reserved": 0, "lon": -76.984865, "fusion_lat": 0.0, "name": "15eea3e9068cfa8a0f0b3a27e42d10c4"}, {"type": "electric_scooter", "fusion_lon": 0.0, "bike_id": "6e2fb2fb9527d330587c529edd13c0b3", "is_disabled": 0, "lat": 38.918349166666665, "rental_uris": {"ios": "https://dc.lft.to/lastmile_qr_scan", "android": "https://dc.lft.to/lastmile_qr_scan"}, "is_reserved": 0, "lon": -77.01786433333334, "fusion_lat": 0.0, "name": "6e2fb2fb9527d330587c529edd13c0b3"}, {"type": "electric_scooter", "fusion_lon": 0.0, "bike_id": "34d7e9d50a8fa094e48fecb0f51742e5", "is_disabled": 0, "lat": 38.89040266666667, "rental_uris": {"ios": "https://dc.lft.to/lastmile_qr_scan", "android": "https://dc.lft.to/lastmile_qr_scan"}, "is_reserved": 0, "lon": -76.93758266666667, "fusion_lat": 0.0, "name": "34d7e9d50a8fa094e48fecb0f51742e5"}, {"type": "electric_scooter", "fusion_lon": 0.0, "bike_id": "2509df14de5a6599be071ba5882de697", "is_disabled": 0, "lat": 38.8641935, "rental_uris": {"ios": "https://dc.lft.to/lastmile_qr_scan", "android": "https://dc.lft.to/lastmile_qr_scan"}, "is_reserved": 0, "lon": -77.013631, "fusion_lat": 0.0, "name": "2509df14de5a6599be071ba5882de697"}, {"type": "electric_bike", "fusion_lon": 0.0, "bike_id": "2243ba4a16814256fac9b37cd824f886", "is_disabled": 0, "lat": 38.94153983333333, "rental_uris": {"ios": "https://dc.lft.to/lastmile_qr_scan", "android": "https://dc.lft.to/lastmile_qr_scan"}, "is_reserved": 0, "lon": -77.00196016666666, "fusion_lat": 0.0, "name": "2243ba4a16814256fac9b37cd824f886"}, {"type": "electric_scooter", "fusion_lon": 0.0, "bike_id": "88dde18d644789003380039303e75e7e", "is_disabled": 0, "lat": 38.8961195, "rental_uris": {"ios": "https://dc.lft.to/lastmile_qr_scan", "android": "https://dc.lft.to/lastmile_qr_scan"}, "is_reserved": 0, "lon": -76.98095283333333, "fusion_lat": 0.0, "name": "88dde18d644789003380039303e75e7e"}, {"type": "electric_scooter", "fusion_lon": 0.0, "bike_id": "17ebf58cc46b9505d181e5329c3a031d", "is_disabled": 0, "lat": 38.89791016666667, "rental_uris": {"ios": "https://dc.lft.to/lastmile_qr_scan", "android": "https://dc.lft.to/lastmile_qr_scan"}, "is_reserved": 0, "lon": -77.02726883333334, "fusion_lat": 0.0, "name": "17ebf58cc46b9505d181e5329c3a031d"}, {"type": "electric_scooter", "fusion_lon": 0.0, "bike_id": "8261b84e8af2078b7a2a6d67d7508b1e", "is_disabled": 0, "lat": 38.9009315, "rental_uris": {"ios": "https://dc.lft.to/lastmile_qr_scan", "android": "https://dc.lft.to/lastmile_qr_scan"}, "is_reserved": 0, "lon": -77.04971816666666, "fusion_lat": 0.0, "name": "8261b84e8af2078b7a2a6d67d7508b1e"}, {"type": "electric_scooter", "fusion_lon": 0.0, "bike_id": "780702a4ffe270675cc425c4a8f8c527", "is_disabled": 0, "lat": 38.909614, "rental_uris": {"ios": "https://dc.lft.to/lastmile_qr_scan", "android": "https://dc.lft.to/lastmile_qr_scan"}, "is_reserved": 0, "lon": -77.044603, "fusion_lat": 0.0, "name": "780702a4ffe270675cc425c4a8f8c527"}, {"type": "electric_scooter", "fusion_lon": 0.0, "bike_id": "2a968af0f629cb08c2bd1a1c08ad3ab0", "is_disabled": 0, "lat": 38.934693333333335, "rental_uris": {"ios": "https://dc.lft.to/lastmile_qr_scan", "android": "https://dc.lft.to/lastmile_qr_scan"}, "is_reserved": 0, "lon": -77.04134516666667, "fusion_lat": 0.0, "name": "2a968af0f629cb08c2bd1a1c08ad3ab0"}, {"type": "electric_scooter", "fusion_lon": 0.0, "bike_id": "ebacba10df565d80afe6c1e4e495171a", "is_disabled": 0, "lat": 38.90684733333333, "rental_uris": {"ios": "https://dc.lft.to/lastmile_qr_scan", "android": "https://dc.lft.to/lastmile_qr_scan"}, "is_reserved": 0, "lon": -77.00613483333333, "fusion_lat": 0.0, "name": "ebacba10df565d80afe6c1e4e495171a"}, {"type": "electric_scooter", "fusion_lon": 0.0, "bike_id": "8ccc52183c1417247ba8de469d0d1782", "is_disabled": 0, "lat": 38.90557416666667, "rental_uris": {"ios": "https://dc.lft.to/lastmile_qr_scan", "android": "https://dc.lft.to/lastmile_qr_scan"}, "is_reserved": 0, "lon": -77.0397735, "fusion_lat": 0.0, "name": "8ccc52183c1417247ba8de469d0d1782"}, {"type": "electric_scooter", "fusion_lon": 0.0, "bike_id": "10904a49e778fca4d8d7339110a0282b", "is_disabled": 0, "lat": 38.8961355, "rental_uris": {"ios": "https://dc.lft.to/lastmile_qr_scan", "android": "https://dc.lft.to/lastmile_qr_scan"}, "is_reserved": 0, "lon": -77.021321, "fusion_lat": 0.0, "name": "10904a49e778fca4d8d7339110a0282b"}, {"type": "electric_scooter", "fusion_lon": 0.0, "bike_id": "32abf5f568ff162485db2fc36c67fc4e", "is_disabled": 0, "lat": 38.902396833333334, "rental_uris": {"ios": "https://dc.lft.to/lastmile_qr_scan", "android": "https://dc.lft.to/lastmile_qr_scan"}, "is_reserved": 0, "lon": -77.0166255, "fusion_lat": 0.0, "name": "32abf5f568ff162485db2fc36c67fc4e"}, {"type": "electric_scooter", "fusion_lon": 0.0, "bike_id": "fcd1ae7ec35bbfcbaff0e127ffe815cd", "is_disabled": 0, "lat": 38.93542016666667, "rental_uris": {"ios": "https://dc.lft.to/lastmile_qr_scan", "android": "https://dc.lft.to/lastmile_qr_scan"}, "is_reserved": 0, "lon": -77.03419433333333, "fusion_lat": 0.0, "name": "fcd1ae7ec35bbfcbaff0e127ffe815cd"}, {"type": "electric_scooter", "fusion_lon": 0.0, "bike_id": "6f9c0ac482fe94585f60e7e8cc8f4b75", "is_disabled": 0, "lat": 38.88745516666667, "rental_uris": {"ios": "https://dc.lft.to/lastmile_qr_scan", "android": "https://dc.lft.to/lastmile_qr_scan"}, "is_reserved": 0, "lon": -77.0257145, "fusion_lat": 0.0, "name": "6f9c0ac482fe94585f60e7e8cc8f4b75"}, {"type": "electric_scooter", "fusion_lon": 0.0, "bike_id": "9391e7f0b673e38b9ee0ee039a058b26", "is_disabled": 0, "lat": 38.94192416666667, "rental_uris": {"ios": "https://dc.lft.to/lastmile_qr_scan", "android": "https://dc.lft.to/lastmile_qr_scan"}, "is_reserved": 0, "lon": -77.0384425, "fusion_lat": 0.0, "name": "9391e7f0b673e38b9ee0ee039a058b26"}, {"type": "electric_scooter", "fusion_lon": 0.0, "bike_id": "2fe50407c1ea307077bf5d65b360afdb", "is_disabled": 0, "lat": 38.90694533333333, "rental_uris": {"ios": "https://dc.lft.to/lastmile_qr_scan", "android": "https://dc.lft.to/lastmile_qr_scan"}, "is_reserved": 0, "lon": -76.98505216666666, "fusion_lat": 0.0, "name": "2fe50407c1ea307077bf5d65b360afdb"}, {"type": "electric_scooter", "fusion_lon": 0.0, "bike_id": "f39d91eea099c2fa55c67cadd16addb3", "is_disabled": 0, "lat": 38.91191283333333, "rental_uris": {"ios": "https://dc.lft.to/lastmile_qr_scan", "android": "https://dc.lft.to/lastmile_qr_scan"}, "is_reserved": 0, "lon": -77.0379755, "fusion_lat": 0.0, "name": "f39d91eea099c2fa55c67cadd16addb3"}, {"type": "electric_scooter", "fusion_lon": 0.0, "bike_id": "0ca8416e6bd529b21a2eeed64979f0cf", "is_disabled": 0, "lat": 38.920568, "rental_uris": {"ios": "https://dc.lft.to/lastmile_qr_scan", "android": "https://dc.lft.to/lastmile_qr_scan"}, "is_reserved": 0, "lon": -77.041873, "fusion_lat": 0.0, "name": "0ca8416e6bd529b21a2eeed64979f0cf"}, {"type": "electric_scooter", "fusion_lon": 0.0, "bike_id": "a11650c1f507bbe2b8605eac4e30a7fc", "is_disabled": 0, "lat": 38.92019466666667, "rental_uris": {"ios": "https://dc.lft.to/lastmile_qr_scan", "android": "https://dc.lft.to/lastmile_qr_scan"}, "is_reserved": 0, "lon": -77.031414, "fusion_lat": 0.0, "name": "a11650c1f507bbe2b8605eac4e30a7fc"}, {"type": "electric_scooter", "fusion_lon": 0.0, "bike_id": "9557c0bd7dd3863e88d30d8f40e0468e", "is_disabled": 0, "lat": 38.924602666666665, "rental_uris": {"ios": "https://dc.lft.to/lastmile_qr_scan", "android": "https://dc.lft.to/lastmile_qr_scan"}, "is_reserved": 0, "lon": -77.03292483333334, "fusion_lat": 0.0, "name": "9557c0bd7dd3863e88d30d8f40e0468e"}, {"type": "electric_scooter", "fusion_lon": 0.0, "bike_id": "ae39b672473fff28fd785f6d70dc36b0", "is_disabled": 0, "lat": 38.90968616666667, "rental_uris": {"ios": "https://dc.lft.to/lastmile_qr_scan", "android": "https://dc.lft.to/lastmile_qr_scan"}, "is_reserved": 0, "lon": -77.03842216666666, "fusion_lat": 0.0, "name": "ae39b672473fff28fd785f6d70dc36b0"}, {"type": "electric_scooter", "fusion_lon": 0.0, "bike_id": "d111ec2ca536046e9dbc42ec3a4eb486", "is_disabled": 0, "lat": 38.892907666666666, "rental_uris": {"ios": "https://dc.lft.to/lastmile_qr_scan", "android": "https://dc.lft.to/lastmile_qr_scan"}, "is_reserved": 0, "lon": -76.9511325, "fusion_lat": 0.0, "name": "d111ec2ca536046e9dbc42ec3a4eb486"}, {"type": "electric_scooter", "fusion_lon": 0.0, "bike_id": "721ce2eaec4d67d61d76466aa06a1fe4", "is_disabled": 0, "lat": 38.908558666666664, "rental_uris": {"ios": "https://dc.lft.to/lastmile_qr_scan", "android": "https://dc.lft.to/lastmile_qr_scan"}, "is_reserved": 0, "lon": -77.03647983333333, "fusion_lat": 0.0, "name": "721ce2eaec4d67d61d76466aa06a1fe4"}, {"type": "electric_scooter", "fusion_lon": 0.0, "bike_id": "2fa0e7a704a1d05c156872eb0d3aff7a", "is_disabled": 0, "lat": 38.905910166666665, "rental_uris": {"ios": "https://dc.lft.to/lastmile_qr_scan", "android": "https://dc.lft.to/lastmile_qr_scan"}, "is_reserved": 0, "lon": -77.06518333333334, "fusion_lat": 0.0, "name": "2fa0e7a704a1d05c156872eb0d3aff7a"}, {"type": "electric_scooter", "fusion_lon": 0.0, "bike_id": "90e98651add3efa3a8cc46050f5a16d0", "is_disabled": 0, "lat": 38.9172595, "rental_uris": {"ios": "https://dc.lft.to/lastmile_qr_scan", "android": "https://dc.lft.to/lastmile_qr_scan"}, "is_reserved": 0, "lon": -77.04597766666667, "fusion_lat": 0.0, "name": "90e98651add3efa3a8cc46050f5a16d0"}, {"type": "electric_scooter", "fusion_lon": 0.0, "bike_id": "4af72a609ed9e44a1227cf051202722b", "is_disabled": 0, "lat": 38.92820483333333, "rental_uris": {"ios": "https://dc.lft.to/lastmile_qr_scan", "android": "https://dc.lft.to/lastmile_qr_scan"}, "is_reserved": 0, "lon": -77.02255616666666, "fusion_lat": 0.0, "name": "4af72a609ed9e44a1227cf051202722b"}, {"type": "electric_scooter", "fusion_lon": 0.0, "bike_id": "383693104c34d6f4f28d1732d6ed4f0c", "is_disabled": 0, "lat": 38.9195865, "rental_uris": {"ios": "https://dc.lft.to/lastmile_qr_scan", "android": "https://dc.lft.to/lastmile_qr_scan"}, "is_reserved": 0, "lon": -77.02511166666666, "fusion_lat": 0.0, "name": "383693104c34d6f4f28d1732d6ed4f0c"}, {"type": "electric_scooter", "fusion_lon": 0.0, "bike_id": "b2332656655f6ef5b0f389bee2acaaa0", "is_disabled": 0, "lat": 38.88497516666666, "rental_uris": {"ios": "https://dc.lft.to/lastmile_qr_scan", "android": "https://dc.lft.to/lastmile_qr_scan"}, "is_reserved": 0, "lon": -77.02070133333334, "fusion_lat": 0.0, "name": "b2332656655f6ef5b0f389bee2acaaa0"}, {"type": "electric_scooter", "fusion_lon": 0.0, "bike_id": "6f7ba2829e383673d66e45a72297fd17", "is_disabled": 0, "lat": 38.922731666666664, "rental_uris": {"ios": "https://dc.lft.to/lastmile_qr_scan", "android": "https://dc.lft.to/lastmile_qr_scan"}, "is_reserved": 0, "lon": -77.01928133333334, "fusion_lat": 0.0, "name": "6f7ba2829e383673d66e45a72297fd17"}, {"type": "electric_scooter", "fusion_lon": 0.0, "bike_id": "bb0334c80e830cb324f7d6109ca0e7c7", "is_disabled": 0, "lat": 38.892221666666664, "rental_uris": {"ios": "https://dc.lft.to/lastmile_qr_scan", "android": "https://dc.lft.to/lastmile_qr_scan"}, "is_reserved": 0, "lon": -77.04856866666667, "fusion_lat": 0.0, "name": "bb0334c80e830cb324f7d6109ca0e7c7"}, {"type": "electric_scooter", "fusion_lon": 0.0, "bike_id": "b83f7b68d81a525f702190e586c363db", "is_disabled": 0, "lat": 38.936780666666664, "rental_uris": {"ios": "https://dc.lft.to/lastmile_qr_scan", "android": "https://dc.lft.to/lastmile_qr_scan"}, "is_reserved": 0, "lon": -77.0363195, "fusion_lat": 0.0, "name": "b83f7b68d81a525f702190e586c363db"}, {"type": "electric_bike", "fusion_lon": 0.0, "bike_id": "e0d971c8ec1ab6068be41f5141f43453", "is_disabled": 0, "lat": 38.841116666666665, "rental_uris": {"ios": "https://dc.lft.to/lastmile_qr_scan", "android": "https://dc.lft.to/lastmile_qr_scan"}, "is_reserved": 0, "lon": -77.0701355, "fusion_lat": 0.0, "name": "e0d971c8ec1ab6068be41f5141f43453"}, {"type": "electric_scooter", "fusion_lon": 0.0, "bike_id": "33b5aa6b6ddbf147b67f46be3bea62bc", "is_disabled": 0, "lat": 38.938970166666664, "rental_uris": {"ios": "https://dc.lft.to/lastmile_qr_scan", "android": "https://dc.lft.to/lastmile_qr_scan"}, "is_reserved": 0, "lon": -77.01762016666666, "fusion_lat": 0.0, "name": "33b5aa6b6ddbf147b67f46be3bea62bc"}, {"type": "electric_scooter", "fusion_lon": 0.0, "bike_id": "24895335cdbcdfe1d477a8a6f1cc7e92", "is_disabled": 0, "lat": 38.876457333333335, "rental_uris": {"ios": "https://dc.lft.to/lastmile_qr_scan", "android": "https://dc.lft.to/lastmile_qr_scan"}, "is_reserved": 0, "lon": -76.96508116666666, "fusion_lat": 0.0, "name": "24895335cdbcdfe1d477a8a6f1cc7e92"}, {"type": "electric_scooter", "fusion_lon": 0.0, "bike_id": "303e03eadb4ca6eea32d08a27fbef7cd", "is_disabled": 0, "lat": 38.898978666666665, "rental_uris": {"ios": "https://dc.lft.to/lastmile_qr_scan", "android": "https://dc.lft.to/lastmile_qr_scan"}, "is_reserved": 0, "lon": -77.04896333333333, "fusion_lat": 0.0, "name": "303e03eadb4ca6eea32d08a27fbef7cd"}, {"type": "electric_scooter", "fusion_lon": 0.0, "bike_id": "5aa158d57d8f9e04c9c19dd5420a5bd5", "is_disabled": 0, "lat": 38.892267833333335, "rental_uris": {"ios": "https://dc.lft.to/lastmile_qr_scan", "android": "https://dc.lft.to/lastmile_qr_scan"}, "is_reserved": 0, "lon": -77.044967, "fusion_lat": 0.0, "name": "5aa158d57d8f9e04c9c19dd5420a5bd5"}, {"type": "electric_scooter", "fusion_lon": 0.0, "bike_id": "7101f28bbd08459d0b42a4b6b3806fe0", "is_disabled": 0, "lat": 38.957111833333336, "rental_uris": {"ios": "https://dc.lft.to/lastmile_qr_scan", "android": "https://dc.lft.to/lastmile_qr_scan"}, "is_reserved": 0, "lon": -77.02398316666667, "fusion_lat": 0.0, "name": "7101f28bbd08459d0b42a4b6b3806fe0"}, {"type": "electric_scooter", "fusion_lon": 0.0, "bike_id": "1c9c50aca2a55d4d57f186be81a75640", "is_disabled": 0, "lat": 38.8738755, "rental_uris": {"ios": "https://dc.lft.to/lastmile_qr_scan", "android": "https://dc.lft.to/lastmile_qr_scan"}, "is_reserved": 0, "lon": -76.96982916666667, "fusion_lat": 0.0, "name": "1c9c50aca2a55d4d57f186be81a75640"}, {"type": "electric_scooter", "fusion_lon": 0.0, "bike_id": "d169005e9f55340132394d7762262619", "is_disabled": 0, "lat": 38.9295395, "rental_uris": {"ios": "https://dc.lft.to/lastmile_qr_scan", "android": "https://dc.lft.to/lastmile_qr_scan"}, "is_reserved": 0, "lon": -77.0440165, "fusion_lat": 0.0, "name": "d169005e9f55340132394d7762262619"}, {"type": "electric_scooter", "fusion_lon": 0.0, "bike_id": "20653b5227961c7d75bf36135f1967a8", "is_disabled": 0, "lat": 38.923339166666665, "rental_uris": {"ios": "https://dc.lft.to/lastmile_qr_scan", "android": "https://dc.lft.to/lastmile_qr_scan"}, "is_reserved": 0, "lon": -77.0361345, "fusion_lat": 0.0, "name": "20653b5227961c7d75bf36135f1967a8"}, {"type": "electric_scooter", "fusion_lon": 0.0, "bike_id": "3b8630bbad9c8676145d17818d186619", "is_disabled": 0, "lat": 38.923866833333335, "rental_uris": {"ios": "https://dc.lft.to/lastmile_qr_scan", "android": "https://dc.lft.to/lastmile_qr_scan"}, "is_reserved": 0, "lon": -77.03658416666667, "fusion_lat": 0.0, "name": "3b8630bbad9c8676145d17818d186619"}, {"type": "electric_bike", "fusion_lon": 0.0, "bike_id": "10ee24b643d3a3bd9cf0bf59852e1159", "is_disabled": 0, "lat": 38.973108, "rental_uris": {"ios": "https://dc.lft.to/lastmile_qr_scan", "android": "https://dc.lft.to/lastmile_qr_scan"}, "is_reserved": 0, "lon": -77.0131375, "fusion_lat": 0.0, "name": "10ee24b643d3a3bd9cf0bf59852e1159"}, {"type": "electric_scooter", "fusion_lon": 0.0, "bike_id": "54856b89a125fb5a811fac698aac38ab", "is_disabled": 0, "lat": 38.92068366666667, "rental_uris": {"ios": "https://dc.lft.to/lastmile_qr_scan", "android": "https://dc.lft.to/lastmile_qr_scan"}, "is_reserved": 0, "lon": -77.04250266666666, "fusion_lat": 0.0, "name": "54856b89a125fb5a811fac698aac38ab"}, {"type": "electric_scooter", "fusion_lon": 0.0, "bike_id": "fdb7d327763cef8f18728ad0d88af969", "is_disabled": 0, "lat": 38.90003316666667, "rental_uris": {"ios": "https://dc.lft.to/lastmile_qr_scan", "android": "https://dc.lft.to/lastmile_qr_scan"}, "is_reserved": 0, "lon": -77.01591966666666, "fusion_lat": 0.0, "name": "fdb7d327763cef8f18728ad0d88af969"}, {"type": "electric_bike", "fusion_lon": 0.0, "bike_id": "2a5a38de6ea332d01107a72b1458f935", "is_disabled": 0, "lat": 38.9389665, "rental_uris": {"ios": "https://dc.lft.to/lastmile_qr_scan", "android": "https://dc.lft.to/lastmile_qr_scan"}, "is_reserved": 0, "lon": -76.96318766666667, "fusion_lat": 0.0, "name": "2a5a38de6ea332d01107a72b1458f935"}, {"type": "electric_bike", "fusion_lon": 0.0, "bike_id": "d9abc0ae061b44bef18fcac91d94e272", "is_disabled": 0, "lat": 38.844358, "rental_uris": {"ios": "https://dc.lft.to/lastmile_qr_scan", "android": "https://dc.lft.to/lastmile_qr_scan"}, "is_reserved": 0, "lon": -76.98840733333333, "fusion_lat": 0.0, "name": "d9abc0ae061b44bef18fcac91d94e272"}, {"type": "electric_bike", "fusion_lon": 0.0, "bike_id": "5add6278a05ef6906a79ffe2d91bdac4", "is_disabled": 0, "lat": 38.8230185, "rental_uris": {"ios": "https://dc.lft.to/lastmile_qr_scan", "android": "https://dc.lft.to/lastmile_qr_scan"}, "is_reserved": 0, "lon": -77.08139, "fusion_lat": 0.0, "name": "5add6278a05ef6906a79ffe2d91bdac4"}, {"type": "electric_scooter", "fusion_lon": 0.0, "bike_id": "db60c6570671d11198d3c9ede6747eb2", "is_disabled": 0, "lat": 38.93227066666667, "rental_uris": {"ios": "https://dc.lft.to/lastmile_qr_scan", "android": "https://dc.lft.to/lastmile_qr_scan"}, "is_reserved": 0, "lon": -77.0335495, "fusion_lat": 0.0, "name": "db60c6570671d11198d3c9ede6747eb2"}, {"type": "electric_scooter", "fusion_lon": 0.0, "bike_id": "ce82035aeb67d9c2652d63b3d245d2ec", "is_disabled": 0, "lat": 38.93416466666667, "rental_uris": {"ios": "https://dc.lft.to/lastmile_qr_scan", "android": "https://dc.lft.to/lastmile_qr_scan"}, "is_reserved": 0, "lon": -77.089889, "fusion_lat": 0.0, "name": "ce82035aeb67d9c2652d63b3d245d2ec"}, {"type": "electric_scooter", "fusion_lon": 0.0, "bike_id": "47483fac548c31f9ba2dea20ee1cd775", "is_disabled": 0, "lat": 38.9181125, "rental_uris": {"ios": "https://dc.lft.to/lastmile_qr_scan", "android": "https://dc.lft.to/lastmile_qr_scan"}, "is_reserved": 0, "lon": -77.0317585, "fusion_lat": 0.0, "name": "47483fac548c31f9ba2dea20ee1cd775"}, {"type": "electric_scooter", "fusion_lon": 0.0, "bike_id": "a8c4855cc8ddb9b80a8dfc1f2c284c7c", "is_disabled": 0, "lat": 38.89223333333333, "rental_uris": {"ios": "https://dc.lft.to/lastmile_qr_scan", "android": "https://dc.lft.to/lastmile_qr_scan"}, "is_reserved": 0, "lon": -77.04869016666666, "fusion_lat": 0.0, "name": "a8c4855cc8ddb9b80a8dfc1f2c284c7c"}, {"type": "electric_scooter", "fusion_lon": 0.0, "bike_id": "526a72bf630077c130cdfa7dcd5f187a", "is_disabled": 0, "lat": 38.931461, "rental_uris": {"ios": "https://dc.lft.to/lastmile_qr_scan", "android": "https://dc.lft.to/lastmile_qr_scan"}, "is_reserved": 0, "lon": -77.07853716666666, "fusion_lat": 0.0, "name": "526a72bf630077c130cdfa7dcd5f187a"}, {"type": "electric_scooter", "fusion_lon": 0.0, "bike_id": "2ccbf4bcc540ff37658b464d2639ee73", "is_disabled": 0, "lat": 38.892262333333335, "rental_uris": {"ios": "https://dc.lft.to/lastmile_qr_scan", "android": "https://dc.lft.to/lastmile_qr_scan"}, "is_reserved": 0, "lon": -77.04465433333333, "fusion_lat": 0.0, "name": "2ccbf4bcc540ff37658b464d2639ee73"}, {"type": "electric_scooter", "fusion_lon": 0.0, "bike_id": "ed5aa6ed4dcc5d7e66e1a5794feab28e", "is_disabled": 0, "lat": 38.91830016666667, "rental_uris": {"ios": "https://dc.lft.to/lastmile_qr_scan", "android": "https://dc.lft.to/lastmile_qr_scan"}, "is_reserved": 0, "lon": -77.03182016666666, "fusion_lat": 0.0, "name": "ed5aa6ed4dcc5d7e66e1a5794feab28e"}, {"type": "electric_scooter", "fusion_lon": 0.0, "bike_id": "4d6d8b9ef056ca35af1ec9b4b7e657d5", "is_disabled": 0, "lat": 38.92412266666667, "rental_uris": {"ios": "https://dc.lft.to/lastmile_qr_scan", "android": "https://dc.lft.to/lastmile_qr_scan"}, "is_reserved": 0, "lon": -77.020316, "fusion_lat": 0.0, "name": "4d6d8b9ef056ca35af1ec9b4b7e657d5"}, {"type": "electric_scooter", "fusion_lon": 0.0, "bike_id": "bab2ebe04310b435a3e60c1a88b5afca", "is_disabled": 0, "lat": 38.901629666666665, "rental_uris": {"ios": "https://dc.lft.to/lastmile_qr_scan", "android": "https://dc.lft.to/lastmile_qr_scan"}, "is_reserved": 0, "lon": -77.03936733333333, "fusion_lat": 0.0, "name": "bab2ebe04310b435a3e60c1a88b5afca"}, {"type": "electric_scooter", "fusion_lon": 0.0, "bike_id": "46679327da764965a7a147c84b9af46b", "is_disabled": 0, "lat": 38.92098716666667, "rental_uris": {"ios": "https://dc.lft.to/lastmile_qr_scan", "android": "https://dc.lft.to/lastmile_qr_scan"}, "is_reserved": 0, "lon": -77.036553, "fusion_lat": 0.0, "name": "46679327da764965a7a147c84b9af46b"}, {"type": "electric_scooter", "fusion_lon": 0.0, "bike_id": "92c80198e48fd87f49d54d06533d8e28", "is_disabled": 0, "lat": 38.917169, "rental_uris": {"ios": "https://dc.lft.to/lastmile_qr_scan", "android": "https://dc.lft.to/lastmile_qr_scan"}, "is_reserved": 0, "lon": -77.0240695, "fusion_lat": 0.0, "name": "92c80198e48fd87f49d54d06533d8e28"}, {"type": "electric_scooter", "fusion_lon": 0.0, "bike_id": "95030ba1411e907050acc2bfcc62dd61", "is_disabled": 0, "lat": 38.937984166666666, "rental_uris": {"ios": "https://dc.lft.to/lastmile_qr_scan", "android": "https://dc.lft.to/lastmile_qr_scan"}, "is_reserved": 0, "lon": -77.03281966666667, "fusion_lat": 0.0, "name": "95030ba1411e907050acc2bfcc62dd61"}, {"type": "electric_scooter", "fusion_lon": 0.0, "bike_id": "8108afd19824759cf53f14fe74a80bc9", "is_disabled": 0, "lat": 38.892242333333336, "rental_uris": {"ios": "https://dc.lft.to/lastmile_qr_scan", "android": "https://dc.lft.to/lastmile_qr_scan"}, "is_reserved": 0, "lon": -77.02217516666667, "fusion_lat": 0.0, "name": "8108afd19824759cf53f14fe74a80bc9"}, {"type": "electric_scooter", "fusion_lon": 0.0, "bike_id": "00f86bf0b6f5d99a5b9e76b4a6312800", "is_disabled": 0, "lat": 38.91889833333333, "rental_uris": {"ios": "https://dc.lft.to/lastmile_qr_scan", "android": "https://dc.lft.to/lastmile_qr_scan"}, "is_reserved": 0, "lon": -77.03823333333334, "fusion_lat": 0.0, "name": "00f86bf0b6f5d99a5b9e76b4a6312800"}, {"type": "electric_scooter", "fusion_lon": 0.0, "bike_id": "6308c619db49aeb5d8971714c8cd7065", "is_disabled": 0, "lat": 38.9042725, "rental_uris": {"ios": "https://dc.lft.to/lastmile_qr_scan", "android": "https://dc.lft.to/lastmile_qr_scan"}, "is_reserved": 0, "lon": -77.042645, "fusion_lat": 0.0, "name": "6308c619db49aeb5d8971714c8cd7065"}, {"type": "electric_scooter", "fusion_lon": 0.0, "bike_id": "7c7c73154444fa678697cd63cc0bfc53", "is_disabled": 0, "lat": 38.972163, "rental_uris": {"ios": "https://dc.lft.to/lastmile_qr_scan", "android": "https://dc.lft.to/lastmile_qr_scan"}, "is_reserved": 0, "lon": -77.03331383333334, "fusion_lat": 0.0, "name": "7c7c73154444fa678697cd63cc0bfc53"}, {"type": "electric_scooter", "fusion_lon": 0.0, "bike_id": "6163afb8cbe67cc7c30d27ed391049e4", "is_disabled": 0, "lat": 38.90003883333333, "rental_uris": {"ios": "https://dc.lft.to/lastmile_qr_scan", "android": "https://dc.lft.to/lastmile_qr_scan"}, "is_reserved": 0, "lon": -77.05237016666666, "fusion_lat": 0.0, "name": "6163afb8cbe67cc7c30d27ed391049e4"}, {"type": "electric_bike", "fusion_lon": 0.0, "bike_id": "22c78a5a8e6a3f28dd1c78a71a32442d", "is_disabled": 0, "lat": 38.87135583333333, "rental_uris": {"ios": "https://dc.lft.to/lastmile_qr_scan", "android": "https://dc.lft.to/lastmile_qr_scan"}, "is_reserved": 0, "lon": -76.93728533333334, "fusion_lat": 0.0, "name": "22c78a5a8e6a3f28dd1c78a71a32442d"}, {"type": "electric_scooter", "fusion_lon": 0.0, "bike_id": "0aaab1e7ee9197b9edecec8a17de022f", "is_disabled": 0, "lat": 38.900173, "rental_uris": {"ios": "https://dc.lft.to/lastmile_qr_scan", "android": "https://dc.lft.to/lastmile_qr_scan"}, "is_reserved": 0, "lon": -77.00674883333333, "fusion_lat": 0.0, "name": "0aaab1e7ee9197b9edecec8a17de022f"}, {"type": "electric_scooter", "fusion_lon": 0.0, "bike_id": "96b9486964d93b42fb4c1b61baa1c785", "is_disabled": 0, "lat": 38.919527, "rental_uris": {"ios": "https://dc.lft.to/lastmile_qr_scan", "android": "https://dc.lft.to/lastmile_qr_scan"}, "is_reserved": 0, "lon": -77.01782233333333, "fusion_lat": 0.0, "name": "96b9486964d93b42fb4c1b61baa1c785"}, {"type": "electric_scooter", "fusion_lon": 0.0, "bike_id": "a48e4516910d22b9d23192dcae571ccd", "is_disabled": 0, "lat": 38.8998675, "rental_uris": {"ios": "https://dc.lft.to/lastmile_qr_scan", "android": "https://dc.lft.to/lastmile_qr_scan"}, "is_reserved": 0, "lon": -77.02223583333334, "fusion_lat": 0.0, "name": "a48e4516910d22b9d23192dcae571ccd"}, {"type": "electric_scooter", "fusion_lon": 0.0, "bike_id": "076b5261c1521d23e3ef6559d1763e03", "is_disabled": 0, "lat": 38.92087083333333, "rental_uris": {"ios": "https://dc.lft.to/lastmile_qr_scan", "android": "https://dc.lft.to/lastmile_qr_scan"}, "is_reserved": 0, "lon": -77.02523266666667, "fusion_lat": 0.0, "name": "076b5261c1521d23e3ef6559d1763e03"}, {"type": "electric_scooter", "fusion_lon": 0.0, "bike_id": "d156b1b7e1d6182d562e973155119ef8", "is_disabled": 0, "lat": 38.890608666666665, "rental_uris": {"ios": "https://dc.lft.to/lastmile_qr_scan", "android": "https://dc.lft.to/lastmile_qr_scan"}, "is_reserved": 0, "lon": -76.9375675, "fusion_lat": 0.0, "name": "d156b1b7e1d6182d562e973155119ef8"},