{"data": {"bikes": [{"name": "f01cc91bf8297d2478224f17e4f6c841", "fusion_lat": 0.0, "type": "electric_scooter", "lat": 38.8429155, "is_reserved": 0, "is_disabled": 0, "fusion_lon": 0.0, "bike_id": "f01cc91bf8297d2478224f17e4f6c841", "lon": -76.9994555, "rental_uris": {"ios": "https://dc.lft.to/lastmile_qr_scan", "android": "https://dc.lft.to/lastmile_qr_scan"}}, {"name": "6bffbd48b676ed4b9609979ad6955960", "fusion_lat": 0.0, "type": "electric_scooter", "lat": 38.90262766666667, "is_reserved": 0, "is_disabled": 0, "fusion_lon": 0.0, "bike_id": "6bffbd48b676ed4b9609979ad6955960", "lon": -77.0384605, "rental_uris": {"ios": "https://dc.lft.to/lastmile_qr_scan", "android": "https://dc.lft.to/lastmile_qr_scan"}}, {"name": "65329204d31fba1c04ed77a5c8b92c0d", "fusion_lat": 0.0, "type": "electric_scooter", "lat": 38.914078, "is_reserved": 0, "is_disabled": 0, "fusion_lon": 0.0, "bike_id": "65329204d31fba1c04ed77a5c8b92c0d", "lon": -77.02729716666667, "rental_uris": {"ios": "https://dc.lft.to/lastmile_qr_scan", "android": "https://dc.lft.to/lastmile_qr_scan"}}, {"name": "bf00819516728b50b8ffe034ff500dfc", "fusion_lat": 0.0, "type": "electric_scooter", "lat": 38.91810916666667, "is_reserved": 0, "is_disabled": 0, "fusion_lon": 0.0, "bike_id": "bf00819516728b50b8ffe034ff500dfc", "lon": -77.04018333333333, "rental_uris": {"ios": "https://dc.lft.to/lastmile_qr_scan", "android": "https://dc.lft.to/lastmile_qr_scan"}}, {"name": "b297f3d308605bf6dddc9ec969c1c17b", "fusion_lat": 0.0, "type": "electric_scooter", "lat": 38.90741666666667, "is_reserved": 0, "is_disabled": 0, "fusion_lon": 0.0, "bike_id": "b297f3d308605bf6dddc9ec969c1c17b", "lon": -77.0447735, "rental_uris": {"ios": "https://dc.lft.to/lastmile_qr_scan", "android": "https://dc.lft.to/lastmile_qr_scan"}}, {"name": "5b75cc596aaeb9497dea9e527bc6011c", "fusion_lat": 0.0, "type": "electric_scooter", "lat": 38.93477816666667, "is_reserved": 0, "is_disabled": 0, "fusion_lon": 0.0, "bike_id": "5b75cc596aaeb9497dea9e527bc6011c", "lon": -77.02843133333333, "rental_uris": {"ios": "https://dc.lft.to/lastmile_qr_scan", "android": "https://dc.lft.to/lastmile_qr_scan"}}, {"name": "05b6e198c0860062a2d0a6f9abf5283b", "fusion_lat": 0.0, "type": "electric_bike", "lat": 38.85251016666667, "is_reserved": 0, "is_disabled": 0, "fusion_lon": 0.0, "bike_id": "05b6e198c0860062a2d0a6f9abf5283b", "lon": -77.11424333333333, "rental_uris": {"ios": "https://dc.lft.to/lastmile_qr_scan", "android": "https://dc.lft.to/lastmile_qr_scan"}}, {"name": "921f045c35eb8527df025b4d63007a91", "fusion_lat": 0.0, "type": "electric_scooter", "lat": 38.922356, "is_reserved": 0, "is_disabled": 0, "fusion_lon": 0.0, "bike_id": "921f045c35eb8527df025b4d63007a91", "lon": -77.04247166666667, "rental_uris": {"ios": "https://dc.lft.to/lastmile_qr_scan", "android": "https://dc.lft.to/lastmile_qr_scan"}}, {"name": "9b40a88d0124e4a68781548b94b796f2", "fusion_lat": 0.0, "type": "electric_scooter", "lat": 38.915685333333336, "is_reserved": 0, "is_disabled": 0, "fusion_lon": 0.0, "bike_id": "9b40a88d0124e4a68781548b94b796f2", "lon": -77.03194333333333, "rental_uris": {"ios": "https://dc.lft.to/lastmile_qr_scan", "android": "https://dc.lft.to/lastmile_qr_scan"}}, {"name": "8b5711e5deee67b708c4ea638b0a01f7", "fusion_lat": 0.0, "type": "electric_scooter", "lat": 38.95873666666667, "is_reserved": 0, "is_disabled": 0, "fusion_lon": 0.0, "bike_id": "8b5711e5deee67b708c4ea638b0a01f7", "lon": -77.0205135, "rental_uris": {"ios": "https://dc.lft.to/lastmile_qr_scan", "android": "https://dc.lft.to/lastmile_qr_scan"}}, {"name": "b680992ec14e67a9c27f88adf8078a91", "fusion_lat": 0.0, "type": "electric_scooter", "lat": 38.90963833333333, "is_reserved": 0, "is_disabled": 0, "fusion_lon": 0.0, "bike_id": "b680992ec14e67a9c27f88adf8078a91", "lon": -77.04135183333334, "rental_uris": {"ios": "https://dc.lft.to/lastmile_qr_scan", "android": "https://dc.lft.to/lastmile_qr_scan"}}, {"name": "a965c8b032087eec4d90a135de5d3685", "fusion_lat": 0.0, "type": "electric_scooter", "lat": 38.929084333333336, "is_reserved": 0, "is_disabled": 0, "fusion_lon": 0.0, "bike_id": "a965c8b032087eec4d90a135de5d3685", "lon": -77.02611783333333, "rental_uris": {"ios": "https://dc.lft.to/lastmile_qr_scan", "android": "https://dc.lft.to/lastmile_qr_scan"}}, {"name": "99b5cdab342e1409248f6134289f7630", "fusion_lat": 0.0, "type": "electric_bike", "lat": 38.83240116666666, "is_reserved": 0, "is_disabled": 0, "fusion_lon": 0.0, "bike_id": "99b5cdab342e1409248f6134289f7630", "lon": -76.94624433333334, "rental_uris": {"ios": "https://dc.lft.to/lastmile_qr_scan", "android": "https://dc.lft.to/lastmile_qr_scan"}}, {"name": "bc287a22b6c0bfa9cd2615dfdf182ae6", "fusion_lat": 0.0, "type": "electric_scooter", "lat": 38.8909135, "is_reserved": 0, "is_disabled": 0, "fusion_lon": 0.0, "bike_id": "bc287a22b6c0bfa9cd2615dfdf182ae6", "lon": -76.99152216666667, "rental_uris": {"ios": "https://dc.lft.to/lastmile_qr_scan", "android": "https://dc.lft.to/lastmile_qr_scan"}}, {"name": "d9e3df3e883ed0f53da1d2e7af56db37", "fusion_lat": 0.0, "type": "electric_scooter", "lat": 38.93962466666667, "is_reserved": 0, "is_disabled": 0, "fusion_lon": 0.0, "bike_id": "d9e3df3e883ed0f53da1d2e7af56db37", "lon": -77.0275165, "rental_uris": {"ios": "https://dc.lft.to/lastmile_qr_scan", "android": "https://dc.lft.to/lastmile_qr_scan"}}, {"name": "6f238d129ee6c186fe34e13743539975", "fusion_lat": 0.0, "type": "electric_scooter", "lat": 38.892997666666666, "is_reserved": 0, "is_disabled": 0, "fusion_lon": 0.0, "bike_id": "6f238d129ee6c186fe34e13743539975", "lon": -76.93926016666667, "rental_uris": {"ios": "https://dc.lft.to/lastmile_qr_scan", "android": "https://dc.lft.to/lastmile_qr_scan"}}, {"name": "99b07bb95c2a1678166c9d4bfd21c5d3", "fusion_lat": 0.0, "type": "electric_scooter", "lat": 38.901271333333334, "is_reserved": 0, "is_disabled": 0, "fusion_lon": 0.0, "bike_id": "99b07bb95c2a1678166c9d4bfd21c5d3", "lon": -77.02374283333333, "rental_uris": {"ios": "https://dc.lft.to/lastmile_qr_scan", "android": "https://dc.lft.to/lastmile_qr_scan"}}, {"name": "c617af6fb2713fca4202ba7e64d1e98a", "fusion_lat": 0.0, "type": "electric_scooter", "lat": 38.9098975, "is_reserved": 0, "is_disabled": 0, "fusion_lon": 0.0, "bike_id": "c617af6fb2713fca4202ba7e64d1e98a", "lon": -77.04868366666666, "rental_uris": {"ios": "https://dc.lft.to/lastmile_qr_scan", "android": "https://dc.lft.to/lastmile_qr_scan"}}, {"name": "fc8898c38349c6ffc3d5c615e367f007", "fusion_lat": 0.0, "type": "electric_scooter", "lat": 38.92074566666667, "is_reserved": 0, "is_disabled": 0, "fusion_lon": 0.0, "bike_id": "fc8898c38349c6ffc3d5c615e367f007", "lon": -77.02390383333334, "rental_uris": {"ios": "https://dc.lft.to/lastmile_qr_scan", "android": "https://dc.lft.to/lastmile_qr_scan"}}, {"name": "5a7d9dad3aff22c342a4ac0495f2f98c", "fusion_lat": 0.0, "type": "electric_scooter", "lat": 38.90922066666667, "is_reserved": 0, "is_disabled": 0, "fusion_lon": 0.0, "bike_id": "5a7d9dad3aff22c342a4ac0495f2f98c", "lon": -77.03184533333334, "rental_uris": {"ios": "https://dc.lft.to/lastmile_qr_scan", "android": "https://dc.lft.to/lastmile_qr_scan"}}, {"name": "2d11afc337436b74b249ee4cecad6a5d", "fusion_lat": 0.0, "type": "electric_scooter", "lat": 38.907846, "is_reserved": 0, "is_disabled": 0, "fusion_lon": 0.0, "bike_id": "2d11afc337436b74b249ee4cecad6a5d", "lon": -77.03864566666667, "rental_uris": {"ios": "https://dc.lft.to/lastmile_qr_scan", "android": "https://dc.lft.to/lastmile_qr_scan"}}, {"name": "2f7ad25a390d32c6880f9480896b943b", "fusion_lat": 0.0, "type": "electric_scooter", "lat": 38.903211166666665, "is_reserved": 0, "is_disabled": 0, "fusion_lon": 0.0, "bike_id": "2f7ad25a390d32c6880f9480896b943b", "lon": -77.03827516666666, "rental_uris": {"ios": "https://dc.lft.to/lastmile_qr_scan", "android": "https://dc.lft.to/lastmile_qr_scan"}}, {"name": "27761c0f525d1e4e7c4ca5729592a719", "fusion_lat": 0.0, "type": "electric_scooter", "lat": 38.91803016666667, "is_reserved": 0, "is_disabled": 0, "fusion_lon": 0.0, "bike_id": "27761c0f525d1e4e7c4ca5729592a719", "lon": -77.02817366666666, "rental_uris": {"ios": "https://dc.lft.to/lastmile_qr_scan", "android": "https://dc.lft.to/lastmile_qr_scan"}}, {"name": "f1f27c63215f535c68fbd3572b98a23c", "fusion_lat": 0.0, "type": "electric_scooter", "lat": 38.92218166666667, "is_reserved": 0, "is_disabled": 0, "fusion_lon": 0.0, "bike_id": "f1f27c63215f535c68fbd3572b98a23c", "lon": -77.042315, "rental_uris": {"ios": "https://dc.lft.to/lastmile_qr_scan", "android": "https://dc.lft.to/lastmile_qr_scan"}}, {"name": "a67a89ee09184d43d550a5e2fefb53c8", "fusion_lat": 0.0, "type": "electric_bike", "lat": 38.973285, "is_reserved": 0, "is_disabled": 0, "fusion_lon": 0.0, "bike_id": "a67a89ee09184d43d550a5e2fefb53c8", "lon": -77.0214575, "rental_uris": {"ios": "https://dc.lft.to/lastmile_qr_scan", "android": "https://dc.lft.to/lastmile_qr_scan"}}, {"name": "2cede768db4ac8d9cb576144cc0d86a6", "fusion_lat": 0.0, "type": "electric_scooter", "lat": 38.9396585, "is_reserved": 0, "is_disabled": 0, "fusion_lon": 0.0, "bike_id": "2cede768db4ac8d9cb576144cc0d86a6", "lon": -77.03283833333333, "rental_uris": {"ios": "https://dc.lft.to/lastmile_qr_scan", "android": "https://dc.lft.to/lastmile_qr_scan"}}, {"name": "132ed7327c8fb87739a14e3ad26a5736", "fusion_lat": 0.0, "type": "electric_scooter", "lat": 38.930895666666665, "is_reserved": 0, "is_disabled": 0, "fusion_lon": 0.0, "bike_id": "132ed7327c8fb87739a14e3ad26a5736", "lon": -77.024033, "rental_uris": {"ios": "https://dc.lft.to/lastmile_qr_scan", "android": "https://dc.lft.to/lastmile_qr_scan"}}, {"name": "43554f5ad094eb83b1eef6aa1c326ee2", "fusion_lat": 0.0, "type": "electric_scooter", "lat": 38.9014455, "is_reserved": 0, "is_disabled": 0, "fusion_lon": 0.0, "bike_id": "43554f5ad094eb83b1eef6aa1c326ee2", "lon": -76.99970283333333, "rental_uris": {"ios": "https://dc.lft.to/lastmile_qr_scan", "android": "https://dc.lft.to/lastmile_qr_scan"}}, {"name": "68d8c8b46634af4eaee1a03c69b9c167", "fusion_lat": 0.0, "type": "electric_bike", "lat": 38.838652, "is_reserved": 0, "is_disabled": 0, "fusion_lon": 0.0, "bike_id": "68d8c8b46634af4eaee1a03c69b9c167", "lon": -77.08869666666666, "rental_uris": {"ios": "https://dc.lft.to/lastmile_qr_scan", "android": "https://dc.lft.to/lastmile_qr_scan"}}, {"name": "480c6e492d1083405b2c33944744d90b", "fusion_lat": 0.0, "type": "electric_scooter", "lat": 38.88937883333333, "is_reserved": 0, "is_disabled": 0, "fusion_lon": 0.0, "bike_id": "480c6e492d1083405b2c33944744d90b", "lon": -76.94782083333334, "rental_uris": {"ios": "https://dc.lft.to/lastmile_qr_scan", "android": "https://dc.lft.to/lastmile_qr_scan"}}, {"name": "84d205894a3799ce270a53b4b663f429", "fusion_lat": 0.0, "type": "electric_scooter", "lat": 38.902959333333335, "is_reserved": 0, "is_disabled": 0, "fusion_lon": 0.0, "bike_id": "84d205894a3799ce270a53b4b663f429", "lon": -77.03186283333334, "rental_uris": {"ios": "https://dc.lft.to/lastmile_qr_scan", "android": "https://dc.lft.to/lastmile_qr_scan"}}, {"name": "b34bd78f92f5cfe71b13174a11fdd12a", "fusion_lat": 0.0, "type": "electric_scooter", "lat": 38.914222333333335, "is_reserved": 0, "is_disabled": 0, "fusion_lon": 0.0, "bike_id": "b34bd78f92f5cfe71b13174a11fdd12a", "lon": -77.0260645, "rental_uris": {"ios": "https://dc.lft.to/lastmile_qr_scan", "android": "https://dc.lft.to/lastmile_qr_scan"}}, {"name": "a44c94b3e9a9e95bedf4458075cb74bd", "fusion_lat": 0.0, "type": "electric_scooter", "lat": 38.90245983333333, "is_reserved": 0, "is_disabled": 0, "fusion_lon": 0.0, "bike_id": "a44c94b3e9a9e95bedf4458075cb74bd", "lon": -77.0269125, "rental_uris": {"ios": "https://dc.lft.to/lastmile_qr_scan", "android": "https://dc.lft.to/lastmile_qr_scan"}}, {"name": "c93660cf896b1d354b4355d7860ddf26", "fusion_lat": 0.0, "type": "electric_scooter", "lat": 38.9232095, "is_reserved": 0, "is_disabled": 0, "fusion_lon": 0.0, "bike_id": "c93660cf896b1d354b4355d7860ddf26", "lon": -77.03972366666666, "rental_uris": {"ios": "https://dc.lft.to/lastmile_qr_scan", "android": "https://dc.lft.to/lastmile_qr_scan"}}, {"name": "6327a20103e70c31cac904849f8ea15c", "fusion_lat": 0.0, "type": "electric_scooter", "lat": 38.895263, "is_reserved": 0, "is_disabled": 0, "fusion_lon": 0.0, "bike_id": "6327a20103e70c31cac904849f8ea15c", "lon": -76.9921495, "rental_uris": {"ios": "https://dc.lft.to/lastmile_qr_scan", "android": "https://dc.lft.to/lastmile_qr_scan"}}, {"name": "6022fc3776612729be6b475e7dcccc4f", "fusion_lat": 0.0, "type": "electric_scooter", "lat": 38.9062745, "is_reserved": 0, "is_disabled": 0, "fusion_lon": 0.0, "bike_id": "6022fc3776612729be6b475e7dcccc4f", "lon": -77.029721, "rental_uris": {"ios": "https://dc.lft.to/lastmile_qr_scan", "android": "https://dc.lft.to/lastmile_qr_scan"}}, {"name": "8b828828285bad19df7845a6b427dbc4", "fusion_lat": 0.0, "type": "electric_scooter", "lat": 38.92816933333334, "is_reserved": 0, "is_disabled": 0, "fusion_lon": 0.0, "bike_id": "8b828828285bad19df7845a6b427dbc4", "lon": -77.03632366666666, "rental_uris": {"ios": "https://dc.lft.to/lastmile_qr_scan", "android": "https://dc.lft.to/lastmile_qr_scan"}}, {"name": "95f19b2fa6f78df8fdf478661b4cd9f9", "fusion_lat": 0.0, "type": "electric_scooter", "lat": 38.924608, "is_reserved": 0, "is_disabled": 0, "fusion_lon": 0.0, "bike_id": "95f19b2fa6f78df8fdf478661b4cd9f9", "lon": -77.03638916666667, "rental_uris": {"ios": "https://dc.lft.to/lastmile_qr_scan", "android": "https://dc.lft.to/lastmile_qr_scan"}}, {"name": "869490e096c69b06109294adb55fba35", "fusion_lat": 0.0, "type": "electric_scooter", "lat": 38.90341933333333, "is_reserved": 0, "is_disabled": 0, "fusion_lon": 0.0, "bike_id": "869490e096c69b06109294adb55fba35", "lon": -77.05414783333333, "rental_uris": {"ios": "https://dc.lft.to/lastmile_qr_scan", "android": "https://dc.lft.to/lastmile_qr_scan"}}, {"name": "7b0427ef0ea29f4070746c8e898ce4fd", "fusion_lat": 0.0, "type": "electric_scooter", "lat": 38.918850666666664, "is_reserved": 0, "is_disabled": 0, "fusion_lon": 0.0, "bike_id": "7b0427ef0ea29f4070746c8e898ce4fd", "lon": -77.04312133333333, "rental_uris": {"ios": "https://dc.lft.to/lastmile_qr_scan", "android": "https://dc.lft.to/lastmile_qr_scan"}}, {"name": "dffc9d7fe3195a64a7f0b659f741f8a7", "fusion_lat": 0.0, "type": "electric_scooter", "lat": 38.923361666666665, "is_reserved": 0, "is_disabled": 0, "fusion_lon": 0.0, "bike_id": "dffc9d7fe3195a64a7f0b659f741f8a7", "lon": -77.03531683333334, "rental_uris": {"ios": "https://dc.lft.to/lastmile_qr_scan", "android": "https://dc.lft.to/lastmile_qr_scan"}}, {"name": "65eaa487a135b3c9ed80be25fafaf4c3", "fusion_lat": 0.0, "type": "electric_scooter", "lat": 38.9008225, "is_reserved": 0, "is_disabled": 0, "fusion_lon": 0.0, "bike_id": "65eaa487a135b3c9ed80be25fafaf4c3", "lon": -77.04986366666667, "rental_uris": {"ios": "https://dc.lft.to/lastmile_qr_scan", "android": "https://dc.lft.to/lastmile_qr_scan"}}, {"name": "4e7b049d79abe637443c29ff97a2775c", "fusion_lat": 0.0, "type": "electric_scooter", "lat": 38.87868533333334, "is_reserved": 0, "is_disabled": 0, "fusion_lon": 0.0, "bike_id": "4e7b049d79abe637443c29ff97a2775c", "lon": -76.96526266666666, "rental_uris": {"ios": "https://dc.lft.to/lastmile_qr_scan", "android": "https://dc.lft.to/lastmile_qr_scan"}}, {"name": "7393f297533bd1d702771b03ac53a7f7", "fusion_lat": 0.0, "type": "electric_scooter", "lat": 38.9210655, "is_reserved": 0, "is_disabled": 0, "fusion_lon": 0.0, "bike_id": "7393f297533bd1d702771b03ac53a7f7", "lon": -77.0469695, "rental_uris": {"ios": "https://dc.lft.to/lastmile_qr_scan", "android": "https://dc.lft.to/lastmile_qr_scan"}}, {"name": "58c974fcbce765dda27cd1aad470b36e", "fusion_lat": 0.0, "type": "electric_scooter", "lat": 38.912127166666664, "is_reserved": 0, "is_disabled": 0, "fusion_lon": 0.0, "bike_id": "58c974fcbce765dda27cd1aad470b36e", "lon": -77.03631733333333, "rental_uris": {"ios": "https://dc.lft.to/lastmile_qr_scan", "android": "https://dc.lft.to/lastmile_qr_scan"}}, {"name": "0fbc33ae97bbe8ac9bb71841879bdd05", "fusion_lat": 0.0, "type": "electric_bike", "lat": 39.088587833333335, "is_reserved": 0, "is_disabled": 0, "fusion_lon": 0.0, "bike_id": "0fbc33ae97bbe8ac9bb71841879bdd05", "lon": -77.17841166666666, "rental_uris": {"ios": "https://dc.lft.to/lastmile_qr_scan", "android": "https://dc.lft.to/lastmile_qr_scan"}}, {"name": "e93ec874e6ffb1a2998f10adca1b2826", "fusion_lat": 0.0, "type": "electric_scooter", "lat": 38.956552333333335, "is_reserved": 0, "is_disabled": 0, "fusion_lon": 0.0, "bike_id": "e93ec874e6ffb1a2998f10adca1b2826", "lon": -77.0329125, "rental_uris": {"ios": "https://dc.lft.to/lastmile_qr_scan", "android": "https://dc.lft.to/lastmile_qr_scan"}}, {"name": "3e097a2f756ca78d8a5235fc0e0bb8f7", "fusion_lat": 0.0, "type": "electric_bike", "lat": 39.05360966666667, "is_reserved": 0, "is_disabled": 0, "fusion_lon": 0.0, "bike_id": "3e097a2f756ca78d8a5235fc0e0bb8f7", "lon": -77.0471945, "rental_uris": {"ios": "https://dc.lft.to/lastmile_qr_scan", "android": "https://dc.lft.to/lastmile_qr_scan"}}, {"name": "ae048d4260b2518fbfe4403a4818ad02", "fusion_lat": 0.0, "type": "electric_scooter", "lat": 38.90717033333333, "is_reserved": 0, "is_disabled": 0, "fusion_lon": 0.0, "bike_id": "ae048d4260b2518fbfe4403a4818ad02", "lon": -77.032556, "rental_uris": {"ios": "https://dc.lft.to/lastmile_qr_scan", "android": "https://dc.lft.to/lastmile_qr_scan"}}, {"name": "98ca8c81dbb2e4e12d7d8f18b7a71e1a", "fusion_lat": 0.0, "type": "electric_bike", "lat": 38.935238, "is_reserved": 0, "is_disabled": 0, "fusion_lon": 0.0, "bike_id": "98ca8c81dbb2e4e12d7d8f18b7a71e1a", "lon": -76.95064116666667, "rental_uris": {"ios": "https://dc.lft.to/lastmile_qr_scan", "android": "https://dc.lft.to/lastmile_qr_scan"}}, {"name": "31df442a2e63f0e905e2831100937297", "fusion_lat": 0.0, "type": "electric_scooter", "lat": 38.902793, "is_reserved": 0, "is_disabled": 0, "fusion_lon": 0.0, "bike_id": "31df442a2e63f0e905e2831100937297", "lon": -77.03657883333334, "rental_uris": {"ios": "https://dc.lft.to/lastmile_qr_scan", "android": "https://dc.lft.to/lastmile_qr_scan"}}, {"name": "80e92d27603a02df2f1a5177ce539932", "fusion_lat": 0.0, "type": "electric_scooter", "lat": 38.9225155, "is_reserved": 0, "is_disabled": 0, "fusion_lon": 0.0, "bike_id": "80e92d27603a02df2f1a5177ce539932", "lon": -76.9939775, "rental_uris": {"ios": "https://dc.lft.to/lastmile_qr_scan", "android": "https://dc.lft.to/lastmile_qr_scan"}}, {"name": "53503fc5bbef5fcb25b00482fa368791", "fusion_lat": 0.0, "type": "electric_scooter", "lat": 38.90567, "is_reserved": 0, "is_disabled": 0, "fusion_lon": 0.0, "bike_id": "53503fc5bbef5fcb25b00482fa368791", "lon": -77.02226816666666, "rental_uris": {"ios": "https://dc.lft.to/lastmile_qr_scan", "android": "https://dc.lft.to/lastmile_qr_scan"}}, {"name": "22d1f8883779d8921331c900bfc4bfc9", "fusion_lat": 0.0, "type": "electric_scooter", "lat": 38.86538766666666, "is_reserved": 0, "is_disabled": 0, "fusion_lon": 0.0, "bike_id": "22d1f8883779d8921331c900bfc4bfc9", "lon": -76.9870655, "rental_uris": {"ios": "https://dc.lft.to/lastmile_qr_scan", "android": "https://dc.lft.to/lastmile_qr_scan"}}, {"name": "04eceffa8e3c0884c313a7cc31a4f6fc", "fusion_lat": 0.0, "type": "electric_bike", "lat": 38.92855633333333, "is_reserved": 0, "is_disabled": 0, "fusion_lon": 0.0, "bike_id": "04eceffa8e3c0884c313a7cc31a4f6fc", "lon": -77.222192, "rental_uris": {"ios": "https://dc.lft.to/lastmile_qr_scan", "android": "https://dc.lft.to/lastmile_qr_scan"}}, {"name": "90602ddcf4a4e1efc22102272a493ffe", "fusion_lat": 0.0, "type": "electric_scooter", "lat": 38.9012695, "is_reserved": 0, "is_disabled": 0, "fusion_lon": 0.0, "bike_id": "90602ddcf4a4e1efc22102272a493ffe", "lon": -77.0421525, "rental_uris": {"ios": "https://dc.lft.to/lastmile_qr_scan", "android": "https://dc.lft.to/lastmile_qr_scan"}}, {"name": "19a7e68c0afeb348e06c0636c96522ba", "fusion_lat": 0.0, "type": "electric_scooter", "lat": 38.90277616666667, "is_reserved": 0, "is_disabled": 0, "fusion_lon": 0.0, "bike_id": "19a7e68c0afeb348e06c0636c96522ba", "lon": -76.98716566666667, "rental_uris": {"ios": "https://dc.lft.to/lastmile_qr_scan", "android": "https://dc.lft.to/lastmile_qr_scan"}}, {"name": "fc4e010777d4003b5d483767fb01e085", "fusion_lat": 0.0, "type": "electric_scooter", "lat": 38.9140445, "is_reserved": 0, "is_disabled": 0, "fusion_lon": 0.0, "bike_id": "fc4e010777d4003b5d483767fb01e085", "lon": -77.02227616666667, "rental_uris": {"ios": "https://dc.lft.to/lastmile_qr_scan", "android": "https://dc.lft.to/lastmile_qr_scan"}}, {"name": "a6b9ddaad40b4474fbada7e3521bbd33", "fusion_lat": 0.0, "type": "electric_scooter", "lat": 38.9353845, "is_reserved": 0, "is_disabled": 0, "fusion_lon": 0.0, "bike_id": "a6b9ddaad40b4474fbada7e3521bbd33", "lon": -77.0341645, "rental_uris": {"ios": "https://dc.lft.to/lastmile_qr_scan", "android": "https://dc.lft.to/lastmile_qr_scan"}}, {"name": "401152b89b9a371f8100e764c7356f3d", "fusion_lat": 0.0, "type": "electric_scooter", "lat": 38.895069666666664, "is_reserved": 0, "is_disabled": 0, "fusion_lon": 0.0, "bike_id": "401152b89b9a371f8100e764c7356f3d", "lon": -77.011132, "rental_uris": {"ios": "https://dc.lft.to/lastmile_qr_scan", "android": "https://dc.lft.to/lastmile_qr_scan"}}, {"name": "4634bb15ad6c28b3bd1264feb8ebb6a8", "fusion_lat": 0.0, "type": "electric_scooter", "lat": 38.92635716666667, "is_reserved": 0, "is_disabled": 0, "fusion_lon": 0.0, "bike_id": "4634bb15ad6c28b3bd1264feb8ebb6a8", "lon": -77.03790166666667, "rental_uris": {"ios": "https://dc.lft.to/lastmile_qr_scan", "android": "https://dc.lft.to/lastmile_qr_scan"}}, {"name": "1dce08fac2844cf6095443251076c109", "fusion_lat": 0.0, "type": "electric_scooter", "lat": 38.9076515, "is_reserved": 0, "is_disabled": 0, "fusion_lon": 0.0, "bike_id": "1dce08fac2844cf6095443251076c109", "lon": -77.05982383333334, "rental_uris": {"ios": "https://dc.lft.to/lastmile_qr_scan", "android": "https://dc.lft.to/lastmile_qr_scan"}}, {"name": "3d4a5334497c106146f5438122786f45", "fusion_lat": 0.0, "type": "electric_scooter", "lat": 38.905581166666664, "is_reserved": 0, "is_disabled": 0, "fusion_lon": 0.0, "bike_id": "3d4a5334497c106146f5438122786f45", "lon": -77.005737, "rental_uris": {"ios": "https://dc.lft.to/lastmile_qr_scan", "android": "https://dc.lft.to/lastmile_qr_scan"}}, {"name": "87f08467d467a08415dc43a934e9fea8", "fusion_lat": 0.0, "type": "electric_scooter", "lat": 38.92354183333333, "is_reserved": 0, "is_disabled": 0, "fusion_lon": 0.0, "bike_id": "87f08467d467a08415dc43a934e9fea8", "lon": -77.0339025, "rental_uris": {"ios": "https://dc.lft.to/lastmile_qr_scan", "android": "https://dc.lft.to/lastmile_qr_scan"}}, {"name": "5057d2b99937a63c39fb1ae057a0bbbd", "fusion_lat": 0.0, "type": "electric_bike", "lat": 38.97093366666667, "is_reserved": 0, "is_disabled": 0, "fusion_lon": 0.0, "bike_id": "5057d2b99937a63c39fb1ae057a0bbbd", "lon": -77.06967383333334, "rental_uris": {"ios": "https://dc.lft.to/lastmile_qr_scan", "android": "https://dc.lft.to/lastmile_qr_scan"}}, {"name": "68c496f6e288017c34d5d124329dc38b", "fusion_lat": 0.0, "type": "electric_scooter", "lat": 38.907326166666664, "is_reserved": 0, "is_disabled": 0, "fusion_lon": 0.0, "bike_id": "68c496f6e288017c34d5d124329dc38b", "lon": -77.04890016666667, "rental_uris": {"ios": "https://dc.lft.to/lastmile_qr_scan", "android": "https://dc.lft.to/lastmile_qr_scan"}}, {"name": "6f71e5d8c477711714bf86fb5afa3427", "fusion_lat": 0.0, "type": "electric_scooter", "lat": 38.9133325, "is_reserved": 0, "is_disabled": 0, "fusion_lon": 0.0, "bike_id": "6f71e5d8c477711714bf86fb5afa3427", "lon": -77.04868333333333, "rental_uris": {"ios": "https://dc.lft.to/lastmile_qr_scan", "android": "https://dc.lft.to/lastmile_qr_scan"}}, {"name": "4b234c0680893ac82ec7caf4b56eba6a", "fusion_lat": 0.0, "type": "electric_scooter", "lat": 38.9270695, "is_reserved": 0, "is_disabled": 0, "fusion_lon": 0.0, "bike_id": "4b234c0680893ac82ec7caf4b56eba6a", "lon": -77.024315, "rental_uris": {"ios": "https://dc.lft.to/lastmile_qr_scan", "android": "https://dc.lft.to/lastmile_qr_scan"}}, {"name": "b58d4f492b847d2f200370eda18570df", "fusion_lat": 0.0, "type": "electric_bike", "lat": 38.910157833333336, "is_reserved": 0, "is_disabled": 0, "fusion_lon": 0.0, "bike_id": "b58d4f492b847d2f200370eda18570df", "lon": -77.06161116666667, "rental_uris": {"ios": "https://dc.lft.to/lastmile_qr_scan", "android": "https://dc.lft.to/lastmile_qr_scan"}}, {"name": "903fc3137dd22287b887be6e1074eade", "fusion_lat": 0.0, "type": "electric_scooter", "lat": 38.90000833333333, "is_reserved": 0, "is_disabled": 0, "fusion_lon": 0.0, "bike_id": "903fc3137dd22287b887be6e1074eade", "lon": -77.05570216666666, "rental_uris": {"ios": "https://dc.lft.to/lastmile_qr_scan", "android": "https://dc.lft.to/lastmile_qr_scan"}}, {"name": "32b302cdc27c259eb258cf5c27b444a4", "fusion_lat": 0.0, "type": "electric_scooter", "lat": 38.9158795, "is_reserved": 0, "is_disabled": 0, "fusion_lon": 0.0, "bike_id": "32b302cdc27c259eb258cf5c27b444a4", "lon": -77.01720216666666, "rental_uris": {"ios": "https://dc.lft.to/lastmile_qr_scan", "android": "https://dc.lft.to/lastmile_qr_scan"}}, {"name": "560affd8e02d7ffa9e06920e17f11958", "fusion_lat": 0.0, "type": "electric_scooter", "lat": 38.912042, "is_reserved": 0, "is_disabled": 0, "fusion_lon": 0.0, "bike_id": "560affd8e02d7ffa9e06920e17f11958", "lon": -77.04545083333333, "rental_uris": {"ios": "https://dc.lft.to/lastmile_qr_scan", "android": "https://dc.lft.to/lastmile_qr_scan"}}, {"name": "1159e7fa844528a14d679b1d50e48e8e", "fusion_lat": 0.0, "type": "electric_scooter", "lat": 38.912766833333336, "is_reserved": 0, "is_disabled": 0, "fusion_lon": 0.0, "bike_id": "1159e7fa844528a14d679b1d50e48e8e", "lon": -77.0450615, "rental_uris": {"ios": "https://dc.lft.to/lastmile_qr_scan", "android": "https://dc.lft.to/lastmile_qr_scan"}}, {"name": "8c675514518c3ea46ed68cd7d9673d54", "fusion_lat": 0.0, "type": "electric_scooter", "lat": 38.91216816666667, "is_reserved": 0, "is_disabled": 0, "fusion_lon": 0.0, "bike_id": "8c675514518c3ea46ed68cd7d9673d54", "lon": -77.0319085, "rental_uris": {"ios": "https://dc.lft.to/lastmile_qr_scan", "android": "https://dc.lft.to/lastmile_qr_scan"}}, {"name": "e14d09245fad461db387e809d2fbfaf3", "fusion_lat": 0.0, "type": "electric_bike", "lat": 38.919577833333335, "is_reserved": 0, "is_disabled": 0, "fusion_lon": 0.0, "bike_id": "e14d09245fad461db387e809d2fbfaf3", "lon": -77.023825, "rental_uris": {"ios": "https://dc.lft.to/lastmile_qr_scan", "android": "https://dc.lft.to/lastmile_qr_scan"}}, {"name": "a97346ff5907cb62d581b9569a4c17fb", "fusion_lat": 0.0, "type": "electric_scooter", "lat": 38.892204, "is_reserved": 0, "is_disabled": 0, "fusion_lon": 0.0, "bike_id": "a97346ff5907cb62d581b9569a4c17fb", "lon": -77.02230416666667, "rental_uris": {"ios": "https://dc.lft.to/lastmile_qr_scan", "android": "https://dc.lft.to/lastmile_qr_scan"}}, {"name": "6c415e66d0b04afd44ff9b6d8f57a120", "fusion_lat": 0.0, "type": "electric_scooter", "lat": 38.89594783333333, "is_reserved": 0, "is_disabled": 0, "fusion_lon": 0.0, "bike_id": "6c415e66d0b04afd44ff9b6d8f57a120", "lon": -76.9936595, "rental_uris": {"ios": "https://dc.lft.to/lastmile_qr_scan", "android": "https://dc.lft.to/lastmile_qr_scan"}}, {"name": "3677b8d4e6503335976c347d3c19ecde", "fusion_lat": 0.0, "type": "electric_bike", "lat": 38.862661833333334, "is_reserved": 0, "is_disabled": 0, "fusion_lon": 0.0, "bike_id": "3677b8d4e6503335976c347d3c19ecde", "lon": -77.05954566666666, "rental_uris": {"ios": "https://dc.lft.to/lastmile_qr_scan", "android": "https://dc.lft.to/lastmile_qr_scan"}}, {"name": "11ca43e3bfe3445b16dbcc4be65079fa", "fusion_lat": 0.0, "type": "electric_bike", "lat": 38.839896333333336, "is_reserved": 0, "is_disabled": 0, "fusion_lon": 0.0, "bike_id": "11ca43e3bfe3445b16dbcc4be65079fa", "lon": -77.00563216666667, "rental_uris": {"ios": "https://dc.lft.to/lastmile_qr_scan", "android": "https://dc.lft.to/lastmile_qr_scan"}}, {"name": "93c36e72d86650f398621fe2dddae40e", "fusion_lat": 0.0, "type": "electric_scooter", "lat": 38.929872, "is_reserved": 0, "is_disabled": 0, "fusion_lon": 0.0, "bike_id": "93c36e72d86650f398621fe2dddae40e", "lon": -77.01450366666667, "rental_uris": {"ios": "https://dc.lft.to/lastmile_qr_scan", "android": "https://dc.lft.to/lastmile_qr_scan"}}, {"name": "978f6ff8696ba61aeac906876c1f147b", "fusion_lat": 0.0, "type": "electric_scooter", "lat": 38.94315433333333, "is_reserved": 0, "is_disabled": 0, "fusion_lon": 0.0, "bike_id": "978f6ff8696ba61aeac906876c1f147b", "lon": -77.024921, "rental_uris": {"ios": "https://dc.lft.to/lastmile_qr_scan", "android": "https://dc.lft.to/lastmile_qr_scan"}}, {"name": "908f2fc5aec458cddc3d0883ac1b9e83", "fusion_lat": 0.0, "type": "electric_scooter", "lat": 38.912500333333334, "is_reserved": 0, "is_disabled": 0, "fusion_lon": 0.0, "bike_id": "908f2fc5aec458cddc3d0883ac1b9e83", "lon": -77.03841916666667, "rental_uris": {"ios": "https://dc.lft.to/lastmile_qr_scan", "android": "https://dc.lft.to/lastmile_qr_scan"}}, {"name": "0ff4fae0664c1f09817c184df0347264", "fusion_lat": 0.0, "type": "electric_scooter", "lat": 38.86252833333333, "is_reserved": 0, "is_disabled": 0, "fusion_lon": 0.0, "bike_id": "0ff4fae0664c1f09817c184df0347264", "lon": -76.99531866666666, "rental_uris": {"ios": "https://dc.lft.to/lastmile_qr_scan", "android": "https://dc.lft.to/lastmile_qr_scan"}}, {"name": "b77d3dd37a31ea6a3bf70507a7262a23", "fusion_lat": 0.0, "type": "electric_scooter", "lat": 38.900806833333334, "is_reserved": 0, "is_disabled": 0, "fusion_lon": 0.0, "bike_id": "b77d3dd37a31ea6a3bf70507a7262a23", "lon": -77.05070383333333, "rental_uris": {"ios": "https://dc.lft.to/lastmile_qr_scan", "android": "https://dc.lft.to/lastmile_qr_scan"}}, {"name": "587e0ee6a9121c9d3efbda11f75602eb", "fusion_lat": 0.0, "type": "electric_scooter", "lat": 38.888406833333335, "is_reserved": 0, "is_disabled": 0, "fusion_lon": 0.0, "bike_id": "587e0ee6a9121c9d3efbda11f75602eb", "lon": -77.04902183333333, "rental_uris": {"ios": "https://dc.lft.to/lastmile_qr_scan", "android": "https://dc.lft.to/lastmile_qr_scan"}}, {"name": "12b0b524eb2d64293eb603b0f7bfa07a", "fusion_lat": 0.0, "type": "electric_scooter", "lat": 38.912696833333335, "is_reserved": 0, "is_disabled": 0, "fusion_lon": 0.0, "bike_id": "12b0b524eb2d64293eb603b0f7bfa07a", "lon": -77.0382735, "rental_uris": {"ios": "https://dc.lft.to/lastmile_qr_scan", "android": "https://dc.lft.to/lastmile_qr_scan"}}, {"name": "e0249a553b42470ccaf3a15274be05f3", "fusion_lat": 0.0, "type": "electric_scooter", "lat": 38.88370533333333, "is_reserved": 0, "is_disabled": 0, "fusion_lon": 0.0, "bike_id": "e0249a553b42470ccaf3a15274be05f3", "lon": -77.03178333333334, "rental_uris": {"ios": "https://dc.lft.to/lastmile_qr_scan", "android": "https://dc.lft.to/lastmile_qr_scan"}}, {"name": "ae4ed52489700a91f1d3c57fab08f374", "fusion_lat": 0.0, "type": "electric_scooter", "lat": 38.936878666666665, "is_reserved": 0, "is_disabled": 0, "fusion_lon": 0.0, "bike_id": "ae4ed52489700a91f1d3c57fab08f374", "lon": -77.03166266666666, "rental_uris": {"ios": "https://dc.lft.to/lastmile_qr_scan", "android": "https://dc.lft.to/lastmile_qr_scan"}}, {"name": "4f07c31e038e655431160bb1f3689724", "fusion_lat": 0.0, "type": "electric_scooter", "lat": 38.900475166666666, "is_reserved": 0, "is_disabled": 0, "fusion_lon": 0.0, "bike_id": "4f07c31e038e655431160bb1f3689724", "lon": -77.00187266666667, "rental_uris": {"ios": "https://dc.lft.to/lastmile_qr_scan", "android": "https://dc.lft.to/lastmile_qr_scan"}}, {"name": "b722ef67a72061ff57d98fdd0c2200d0", "fusion_lat": 0.0, "type": "electric_scooter", "lat": 38.89982116666667, "is_reserved": 0, "is_disabled": 0, "fusion_lon": 0.0, "bike_id": "b722ef67a72061ff57d98fdd0c2200d0", "lon": -77.01607066666666, "rental_uris": {"ios": "https://dc.lft.to/lastmile_qr_scan", "android": "https://dc.lft.to/lastmile_qr_scan"}}, {"name": "5902e0388c4f0b7d2fced984dbb43111", "fusion_lat": 0.0, "type": "electric_bike", "lat": 38.966260166666665, "is_reserved": 0, "is_disabled": 0, "fusion_lon": 0.0, "bike_id": "5902e0388c4f0b7d2fced984dbb43111", "lon": -76.976691, "rental_uris": {"ios": "https://dc.lft.to/lastmile_qr_scan", "android": "https://dc.lft.to/lastmile_qr_scan"}}, {"name": "328ffc50a42b44d62b6c45662f2db20b", "fusion_lat": 0.0, "type": "electric_scooter", "lat": 38.912586166666664, "is_reserved": 0, "is_disabled": 0, "fusion_lon": 0.0, "bike_id": "328ffc50a42b44d62b6c45662f2db20b", "lon": -77.00954466666667, "rental_uris": {"ios": "https://dc.lft.to/lastmile_qr_scan", "android": "https://dc.lft.to/lastmile_qr_scan"}}, {"name": "1d1867c048385259e55dfc96836553c7", "fusion_lat": 0.0, "type": "electric_scooter", "lat": 38.8923605, "is_reserved": 0, "is_disabled": 0, "fusion_lon": 0.0, "bike_id": "1d1867c048385259e55dfc96836553c7", "lon": -77.05000016666666, "rental_uris": {"ios": "https://dc.lft.to/lastmile_qr_scan", "android": "https://dc.lft.to/lastmile_qr_scan"}}, {"name": "1b85622e65ab1f7212beb1c5da294437", "fusion_lat": 0.0, "type": "electric_scooter", "lat": 38.933002333333334, "is_reserved": 0, "is_disabled": 0, "fusion_lon": 0.0, "bike_id": "1b85622e65ab1f7212beb1c5da294437", "lon": -77.02807033333333, "rental_uris": {"ios": "https://dc.lft.to/lastmile_qr_scan", "android": "https://dc.lft.to/lastmile_qr_scan"}}, {"name": "e0b30ea7a79c713e2ad20c77f7057c4e", "fusion_lat": 0.0, "type": "electric_scooter", "lat": 38.93527733333333, "is_reserved": 0, "is_disabled": 0, "fusion_lon": 0.0, "bike_id": "e0b30ea7a79c713e2ad20c77f7057c4e", "lon": -77.02854733333334, "rental_uris": {"ios": "https://dc.lft.to/lastmile_qr_scan", "android": "https://dc.lft.to/lastmile_qr_scan"}}, {"name": "9315d9f98375437a64de7a0d4bf63a52", "fusion_lat": 0.0, "type": "electric_scooter", "lat": 38.907464166666664, "is_reserved": 0, "is_disabled": 0, "fusion_lon": 0.0, "bike_id": "9315d9f98375437a64de7a0d4bf63a52", "lon": -77.03197083333333, "rental_uris": {"ios": "https://dc.lft.to/lastmile_qr_scan", "android": "https://dc.lft.to/lastmile_qr_scan"}}, {"name": "7ddbb7de6ba6b85c6f910cf4b45ff7d0", "fusion_lat": 0.0, "type": "electric_bike", "lat": 38.894417, "is_reserved": 0, "is_disabled": 0, "fusion_lon": 0.0, "bike_id": "7ddbb7de6ba6b85c6f910cf4b45ff7d0", "lon": -76.98355483333333, "rental_uris": {"ios": "https://dc.lft.to/lastmile_qr_scan", "android": "https://dc.lft.to/lastmile_qr_scan"}}, {"name": "344e28778fd6a2bac728463b8026642e", "fusion_lat": 0.0, "type": "electric_scooter", "lat": 38.918111333333336, "is_reserved": 0, "is_disabled": 0, "fusion_lon": 0.0, "bike_id": "344e28778fd6a2bac728463b8026642e", "lon": -77.03545433333333, "rental_uris": {"ios": "https://dc.lft.to/lastmile_qr_scan", "android": "https://dc.lft.to/lastmile_qr_scan"}}, {"name": "b7f35599c09831acd6a19904d9e85265", "fusion_lat": 0.0, "type": "electric_scooter", "lat": 38.924215333333336, "is_reserved": 0, "is_disabled": 0, "fusion_lon": 0.0, "bike_id": "b7f35599c09831acd6a19904d9e85265", "lon": -77.01947266666667, "rental_uris": {"ios": "https://dc.lft.to/lastmile_qr_scan", "android": "https://dc.lft.to/lastmile_qr_scan"}}, {"name": "caf1090ce87560c71b0598c468243c66", "fusion_lat": 0.0, "type": "electric_scooter", "lat": 38.9181965, "is_reserved": 0, "is_disabled": 0, "fusion_lon": 0.0, "bike_id": "caf1090ce87560c71b0598c468243c66", "lon": -77.04000716666667, "rental_uris": {"ios": "https://dc.lft.to/lastmile_qr_scan", "android": "https://dc.lft.to/lastmile_qr_scan"}}, {"name": "133540f04810f3fa329a3bf2cf68f81a", "fusion_lat": 0.0, "type": "electric_scooter", "lat": 38.877505, "is_reserved": 0, "is_disabled": 0, "fusion_lon": 0.0, "bike_id": "133540f04810f3fa329a3bf2cf68f81a", "lon": -77.0198595, "rental_uris": {"ios": "https://dc.lft.to/lastmile_qr_scan", "android": "https://dc.lft.to/lastmile_qr_scan"}}, {"name": "bdfe8a2a3fb8469d46e40b0c95695b48", "fusion_lat": 0.0, "type": "electric_scooter", "lat": 38.92488183333333, "is_reserved": 0, "is_disabled": 0, "fusion_lon": 0.0, "bike_id": "bdfe8a2a3fb8469d46e40b0c95695b48", "lon": -77.028402, "rental_uris": {"ios": "https://dc.lft.to/lastmile_qr_scan", "android": "https://dc.lft.to/lastmile_qr_scan"}}, {"name": "bd529d5be5933b9a29134bd4806974f9", "fusion_lat": 0.0, "type": "electric_scooter", "lat": 38.901521, "is_reserved": 0, "is_disabled": 0, "fusion_lon": 0.0, "bike_id": "bd529d5be5933b9a29134bd4806974f9", "lon": -77.00070983333333, "rental_uris": {"ios": "https://dc.lft.to/lastmile_qr_scan", "android": "https://dc.lft.to/lastmile_qr_scan"}}, {"name": "3f794e2881817fc9f4f64326c0ff6e52", "fusion_lat": 0.0, "type": "electric_scooter", "lat": 38.936119166666664, "is_reserved": 0, "is_disabled": 0, "fusion_lon": 0.0, "bike_id": "3f794e2881817fc9f4f64326c0ff6e52", "lon": -77.0320575, "rental_uris": {"ios": "https://dc.lft.to/lastmile_qr_scan", "android": "https://dc.lft.to/lastmile_qr_scan"}}, {"name": "34984beefcd72468f19f15416d1d4f9e", "fusion_lat": 0.0, "type": "electric_scooter", "lat": 38.9195005, "is_reserved": 0, "is_disabled": 0, "fusion_lon": 0.0, "bike_id": "34984beefcd72468f19f15416d1d4f9e", "lon": -77.01392066666666, "rental_uris": {"ios": "https://dc.lft.to/lastmile_qr_scan", "android": "https://dc.lft.to/lastmile_qr_scan"}}, {"name": "f4d0b3c94803785876f2aab7f4da9392", "fusion_lat": 0.0, "type": "electric_bike", "lat": 38.91099483333333, "is_reserved": 0, "is_disabled": 0, "fusion_lon": 0.0, "bike_id": "f4d0b3c94803785876f2aab7f4da9392", "lon": -77.00491283333334, "rental_uris": {"ios": "https://dc.lft.to/lastmile_qr_scan", "android": "https://dc.lft.to/lastmile_qr_scan"}}, {"name": "906466e4d6e8e4a41cea88510765f205", "fusion_lat": 0.0, "type": "electric_scooter", "lat": 38.928432, "is_reserved": 0, "is_disabled": 0, "fusion_lon": 0.0, "bike_id": "906466e4d6e8e4a41cea88510765f205", "lon": -76.99616616666667, "rental_uris": {"ios": "https://dc.lft.to/lastmile_qr_scan", "android": "https://dc.lft.to/lastmile_qr_scan"}}, {"name": "143566e46f9e5c0823125a2cec8f2142", "fusion_lat": 0.0, "type": "electric_scooter", "lat": 38.892282333333334, "is_reserved": 0, "is_disabled": 0, "fusion_lon": 0.0, "bike_id": "143566e46f9e5c0823125a2cec8f2142", "lon": -77.05002233333333, "rental_uris": {"ios": "https://dc.lft.to/lastmile_qr_scan", "android": "https://dc.lft.to/lastmile_qr_scan"}}, {"name": "d01e2ee94a87edb3db2a3b27929e2dc3", "fusion_lat": 0.0, "type": "electric_scooter", "lat": 38.89738, "is_reserved": 0, "is_disabled": 0, "fusion_lon": 0.0, "bike_id": "d01e2ee94a87edb3db2a3b27929e2dc3", "lon": -76.938491, "rental_uris": {"ios": "https://dc.lft.to/lastmile_qr_scan", "android": "https://dc.lft.to/lastmile_qr_scan"}}, {"name": "333d20cb6f10374d9b9cd11b1aa0e04f", "fusion_lat": 0.0, "type": "electric_bike", "lat": 38.8965615, "is_reserved": 0, "is_disabled": 0, "fusion_lon": 0.0, "bike_id": "333d20cb6f10374d9b9cd11b1aa0e04f", "lon": -77.086389, "rental_uris": {"ios": "https://dc.lft.to/lastmile_qr_scan", "android": "https://dc.lft.to/lastmile_qr_scan"}}, {"name": "4db34b4aa7b8d15997c898f26c7642f2", "fusion_lat": 0.0, "type": "electric_scooter", "lat": 38.93792533333333, "is_reserved": 0, "is_disabled": 0, "fusion_lon": 0.0, "bike_id": "4db34b4aa7b8d15997c898f26c7642f2", "lon": -77.0600055, "rental_uris": {"ios": "https://dc.lft.to/lastmile_qr_scan", "android": "https://dc.lft.to/lastmile_qr_scan"}}, {"name": "083ca826dfdf445ebbc9220397b04b39", "fusion_lat": 0.0, "type": "electric_scooter", "lat": 38.90045466666667, "is_reserved": 0, "is_disabled": 0, "fusion_lon": 0.0, "bike_id": "083ca826dfdf445ebbc9220397b04b39", "lon": -77.0018645, "rental_uris": {"ios": "https://dc.lft.to/lastmile_qr_scan", "android": "https://dc.lft.to/lastmile_qr_scan"}}, {"name": "fc276cdbbbfbbe5cd648b5ad45dd8191", "fusion_lat": 0.0, "type": "electric_bike", "lat": 38.83828533333333, "is_reserved": 0, "is_disabled": 0, "fusion_lon": 0.0, "bike_id": "fc276cdbbbfbbe5cd648b5ad45dd8191", "lon": -76.9968445, "rental_uris": {"ios": "https://dc.lft.to/lastmile_qr_scan", "android": "https://dc.lft.to/lastmile_qr_scan"}}, {"name": "bc1fe56e59176072bdcad6ac257f3b07", "fusion_lat": 0.0, "type": "electric_scooter", "lat": 38.88575616666667, "is_reserved": 0, "is_disabled": 0, "fusion_lon": 0.0, "bike_id": "bc1fe56e59176072bdcad6ac257f3b07", "lon": -76.996261, "rental_uris": {"ios": "https://dc.lft.to/lastmile_qr_scan", "android": "https://dc.lft.to/lastmile_qr_scan"}}, {"name": "c5eb73fb37d3787ccaeae6be87ebdbed", "fusion_lat": 0.0, "type": "electric_scooter", "lat": 38.911192666666665, "is_reserved": 0, "is_disabled": 0, "fusion_lon": 0.0, "bike_id": "c5eb73fb37d3787ccaeae6be87ebdbed", "lon": -77.0315045, "rental_uris": {"ios": "https://dc.lft.to/lastmile_qr_scan", "android": "https://dc.lft.to/lastmile_qr_scan"}}, {"name": "c53c033f68dd981bab13246e8c7de51e", "fusion_lat": 0.0, "type": "electric_scooter", "lat": 38.92167833333333, "is_reserved": 0, "is_disabled": 0, "fusion_lon": 0.0, "bike_id": "c53c033f68dd981bab13246e8c7de51e", "lon": -77.04216716666667, "rental_uris": {"ios": "https://dc.lft.to/lastmile_qr_scan", "android": "https://dc.lft.to/lastmile_qr_scan"}}, {"name": "8e3d684505fb9fb284fe0ebe7d193f5f", "fusion_lat": 0.0, "type": "electric_scooter", "lat": 38.858504, "is_reserved": 0, "is_disabled": 0, "fusion_lon": 0.0, "bike_id": "8e3d684505fb9fb284fe0ebe7d193f5f", "lon": -76.95885716666666, "rental_uris": {"ios": "https://dc.lft.to/lastmile_qr_scan", "android": "https://dc.lft.to/lastmile_qr_scan"}}, {"name": "21b04a620ab83cd0b8244717b022be26", "fusion_lat": 0.0, "type": "electric_scooter", "lat": 38.8869075, "is_reserved": 0, "is_disabled": 0, "fusion_lon": 0.0, "bike_id": "21b04a620ab83cd0b8244717b022be26", "lon": -76.95762916666666, "rental_uris": {"ios": "https://dc.lft.to/lastmile_qr_scan", "android": "https://dc.lft.to/lastmile_qr_scan"}}, {"name": "1f5141fe90360b93fc28313a05af15c6", "fusion_lat": 0.0, "type": "electric_scooter", "lat": 38.911856, "is_reserved": 0, "is_disabled": 0, "fusion_lon": 0.0, "bike_id": "1f5141fe90360b93fc28313a05af15c6", "lon": -77.04498966666667, "rental_uris": {"ios": "https://dc.lft.to/lastmile_qr_scan", "android": "https://dc.lft.to/lastmile_qr_scan"}}, {"name": "7ae4a48e561b0001e66f3858073fdcf5", "fusion_lat": 0.0, "type": "electric_scooter", "lat": 38.89464566666667, "is_reserved": 0, "is_disabled": 0, "fusion_lon": 0.0, "bike_id": "7ae4a48e561b0001e66f3858073fdcf5", "lon": -77.019263, "rental_uris": {"ios": "https://dc.lft.to/lastmile_qr_scan", "android": "https://dc.lft.to/lastmile_qr_scan"}}, {"name": "de015113466ed39b2ffc06da5db03da9", "fusion_lat": 0.0, "type": "electric_scooter", "lat": 38.9329175, "is_reserved": 0, "is_disabled": 0, "fusion_lon": 0.0, "bike_id": "de015113466ed39b2ffc06da5db03da9", "lon": -77.03981166666667, "rental_uris": {"ios": "https://dc.lft.to/lastmile_qr_scan", "android": "https://dc.lft.to/lastmile_qr_scan"}}, {"name": "6800b7c3e0283caf4fc9cc762d6e1412", "fusion_lat": 0.0, "type": "electric_bike", "lat": 38.94233283333333, "is_reserved": 0, "is_disabled": 0, "fusion_lon": 0.0, "bike_id": "6800b7c3e0283caf4fc9cc762d6e1412", "lon": -77.01386816666667, "rental_uris": {"ios": "https://dc.lft.to/lastmile_qr_scan", "android": "https://dc.lft.to/lastmile_qr_scan"}}, {"name": "9a0ff105e0785729e26b66a99c548e8f", "fusion_lat": 0.0, "type": "electric_scooter", "lat": 38.90780733333333, "is_reserved": 0, "is_disabled": 0, "fusion_lon": 0.0, "bike_id": "9a0ff105e0785729e26b66a99c548e8f", "lon": -77.071715, "rental_uris": {"ios": "https://dc.lft.to/lastmile_qr_scan", "android": "https://dc.lft.to/lastmile_qr_scan"}}, {"name": "60d3f137a33b0c1f74d398f1dfb5c3cb", "fusion_lat": 0.0, "type": "electric_scooter", "lat": 38.90587, "is_reserved": 0, "is_disabled": 0, "fusion_lon": 0.0, "bike_id": "60d3f137a33b0c1f74d398f1dfb5c3cb", "lon": -77.007719, "rental_uris": {"ios": "https://dc.lft.to/lastmile_qr_scan", "android": "https://dc.lft.to/lastmile_qr_scan"}}, {"name": "da796baeabfdc7287d6daf495824fe49", "fusion_lat": 0.0, "type": "electric_scooter", "lat": 38.930730833333335, "is_reserved": 0, "is_disabled": 0, "fusion_lon": 0.0, "bike_id": "da796baeabfdc7287d6daf495824fe49", "lon": -77.0340685, "rental_uris": {"ios": "https://dc.lft.to/lastmile_qr_scan", "android": "https://dc.lft.to/lastmile_qr_scan"}}, {"name": "f05e9f264c9998fef48388c97808a17b", "fusion_lat": 0.0, "type": "electric_scooter", "lat": 38.865127, "is_reserved": 0, "is_disabled": 0, "fusion_lon": 0.0, "bike_id": "f05e9f264c9998fef48388c97808a17b", "lon": -76.973371, "rental_uris": {"ios": "https://dc.lft.to/lastmile_qr_scan", "android": "https://dc.lft.to/lastmile_qr_scan"}}, {"name": "eb1eed7d6323060b8f599543760333eb", "fusion_lat": 0.0, "type": "electric_scooter", "lat": 38.883498, "is_reserved": 0, "is_disabled": 0, "fusion_lon": 0.0, "bike_id": "eb1eed7d6323060b8f599543760333eb", "lon": -77.03170083333333, "rental_uris": {"ios": "https://dc.lft.to/lastmile_qr_scan", "android": "https://dc.lft.to/lastmile_qr_scan"}}, {"name": "5092b51cc59130137de5c2ee014e15b9", "fusion_lat": 0.0, "type": "electric_scooter", "lat": 38.902755166666665, "is_reserved": 0, "is_disabled": 0, "fusion_lon": 0.0, "bike_id": "5092b51cc59130137de5c2ee014e15b9", "lon": -77.00326683333333, "rental_uris": {"ios": "https://dc.lft.to/lastmile_qr_scan", "android": "https://dc.lft.to/lastmile_qr_scan"}}, {"name": "d6988fcecf708ccaa9dbee66d43785d4", "fusion_lat": 0.0, "type": "electric_scooter", "lat": 38.89856733333333, "is_reserved": 0, "is_disabled": 0, "fusion_lon": 0.0, "bike_id": "d6988fcecf708ccaa9dbee66d43785d4", "lon": -76.97546483333333, "rental_uris": {"ios": "https://dc.lft.to/lastmile_qr_scan", "android": "https://dc.lft.to/lastmile_qr_scan"}}, {"name": "acf96de5e79ea8a4034897e07a7db2c5", "fusion_lat": 0.0, "type": "electric_bike", "lat": 38.93977916666667, "is_reserved": 0, "is_disabled": 0, "fusion_lon": 0.0, "bike_id": "acf96de5e79ea8a4034897e07a7db2c5", "lon": -76.9865285, "rental_uris": {"ios": "https://dc.lft.to/lastmile_qr_scan", "android": "https://dc.lft.to/lastmile_qr_scan"}}, {"name": "26691aa889054ab992be206f70eecf02", "fusion_lat": 0.0, "type": "electric_bike", "lat": 38.87238683333333, "is_reserved": 0, "is_disabled": 0, "fusion_lon": 0.0, "bike_id": "26691aa889054ab992be206f70eecf02", "lon": -77.011651, "rental_uris": {"ios": "https://dc.lft.to/lastmile_qr_scan", "android": "https://dc.lft.to/lastmile_qr_scan"}}, {"name": "ebf851d7db394d581d0d26d5709d29af", "fusion_lat": 0.0, "type": "electric_scooter", "lat": 38.90145166666667, "is_reserved": 0, "is_disabled": 0, "fusion_lon": 0.0, "bike_id": "ebf851d7db394d581d0d26d5709d29af", "lon": -77.044791, "rental_uris": {"ios": "https://dc.lft.to/lastmile_qr_scan", "android": "https://dc.lft.to/lastmile_qr_scan"}}, {"name": "89d16081854f2bf85c7fc2740ae2d8a1", "fusion_lat": 0.0, "type": "electric_scooter", "lat": 38.96112466666666, "is_reserved": 0, "is_disabled": 0, "fusion_lon": 0.0, "bike_id": "89d16081854f2bf85c7fc2740ae2d8a1", "lon": -77.0281425, "rental_uris": {"ios": "https://dc.lft.to/lastmile_qr_scan", "android": "https://dc.lft.to/lastmile_qr_scan"}}, {"name": "391b3c933400410825c80fa6fd6279cf", "fusion_lat": 0.0, "type": "electric_scooter", "lat": 38.902155666666665, "is_reserved": 0, "is_disabled": 0, "fusion_lon": 0.0, "bike_id": "391b3c933400410825c80fa6fd6279cf", "lon": -76.98189533333333, "rental_uris": {"ios": "https://dc.lft.to/lastmile_qr_scan", "android": "https://dc.lft.to/lastmile_qr_scan"}}, {"name": "a9a07bc701927a0b1c2f1d510348a030", "fusion_lat": 0.0, "type": "electric_scooter", "lat": 38.92578533333333, "is_reserved": 0, "is_disabled": 0, "fusion_lon": 0.0, "bike_id": "a9a07bc701927a0b1c2f1d510348a030", "lon": -77.02837233333334, "rental_uris": {"ios": "https://dc.lft.to/lastmile_qr_scan", "android": "https://dc.lft.to/lastmile_qr_scan"}}, {"name": "74aaba9d7a87c73131bc149338578262", "fusion_lat": 0.0, "type": "electric_scooter", "lat": 38.89474283333333, "is_reserved": 0, "is_disabled": 0, "fusion_lon": 0.0, "bike_id": "74aaba9d7a87c73131bc149338578262", "lon": -76.9840465, "rental_uris": {"ios": "https://dc.lft.to/lastmile_qr_scan", "android": "https://dc.lft.to/lastmile_qr_scan"}}, {"name": "b89b2dd39886d470e61b1b3ff592d0b6", "fusion_lat": 0.0, "type": "electric_scooter", "lat": 38.9103965, "is_reserved": 0, "is_disabled": 0, "fusion_lon": 0.0, "bike_id": "b89b2dd39886d470e61b1b3ff592d0b6", "lon": -77.04872466666667, "rental_uris": {"ios": "https://dc.lft.to/lastmile_qr_scan", "android": "https://dc.lft.to/lastmile_qr_scan"}}, {"name": "89bae0d915a03015fead146cf4e0ab09", "fusion_lat": 0.0, "type": "electric_scooter", "lat": 38.89921483333333, "is_reserved": 0, "is_disabled": 0, "fusion_lon": 0.0, "bike_id": "89bae0d915a03015fead146cf4e0ab09", "lon": -76.933836, "rental_uris": {"ios": "https://dc.lft.to/lastmile_qr_scan", "android": "https://dc.lft.to/lastmile_qr_scan"}}, {"name": "843fd5b40ced67e69201652e11c7c644", "fusion_lat": 0.0, "type": "electric_scooter", "lat": 38.9432185, "is_reserved": 0, "is_disabled": 0, "fusion_lon": 0.0, "bike_id": "843fd5b40ced67e69201652e11c7c644", "lon": -77.05915766666666, "rental_uris": {"ios": "https://dc.lft.to/lastmile_qr_scan", "android": "https://dc.lft.to/lastmile_qr_scan"}}, {"name": "b9bcb82c4d58c8d492d82b0d68efccbd", "fusion_lat": 0.0, "type": "electric_bike", "lat": 38.851600166666664, "is_reserved": 0, "is_disabled": 0, "fusion_lon": 0.0, "bike_id": "b9bcb82c4d58c8d492d82b0d68efccbd", "lon": -77.12878133333334, "rental_uris": {"ios": "https://dc.lft.to/lastmile_qr_scan", "android": "https://dc.lft.to/lastmile_qr_scan"}}, {"name": "991cb0911eabae508bf880cc31532e55", "fusion_lat": 0.0, "type": "electric_scooter", "lat": 38.903133833333335, "is_reserved": 0, "is_disabled": 0, "fusion_lon": 0.0, "bike_id": "991cb0911eabae508bf880cc31532e55", "lon": -77.04988183333333, "rental_uris": {"ios": "https://dc.lft.to/lastmile_qr_scan", "android": "https://dc.lft.to/lastmile_qr_scan"}}, {"name": "25a13a32bd0695e475f466a005a73939", "fusion_lat": 0.0, "type": "electric_scooter", "lat": 38.9056415, "is_reserved": 0, "is_disabled": 0, "fusion_lon": 0.0, "bike_id": "25a13a32bd0695e475f466a005a73939", "lon": -77.02969983333334, "rental_uris": {"ios": "https://dc.lft.to/lastmile_qr_scan", "android": "https://dc.lft.to/lastmile_qr_scan"}}, {"name": "935b4e890c614813c4fec3d64e97a65a", "fusion_lat": 0.0, "type": "electric_scooter", "lat": 38.93912183333333, "is_reserved": 0, "is_disabled": 0, "fusion_lon": 0.0, "bike_id": "935b4e890c614813c4fec3d64e97a65a", "lon": -77.06045666666667, "rental_uris": {"ios": "https://dc.lft.to/lastmile_qr_scan", "android": "https://dc.lft.to/lastmile_qr_scan"}}, {"name": "3d68b2f54b896a68ce4802993801b4d2", "fusion_lat": 0.0, "type": "electric_scooter", "lat": 38.9006935, "is_reserved": 0, "is_disabled": 0, "fusion_lon": 0.0, "bike_id": "3d68b2f54b896a68ce4802993801b4d2", "lon": -77.04502633333334, "rental_uris": {"ios": "https://dc.lft.to/lastmile_qr_scan", "android": "https://dc.lft.to/lastmile_qr_scan"}}, {"name": "9b6cdc2695feb655a1218083e3fe376e", "fusion_lat": 0.0, "type": "electric_scooter", "lat": 38.9187705, "is_reserved": 0, "is_disabled": 0, "fusion_lon": 0.0, "bike_id": "9b6cdc2695feb655a1218083e3fe376e", "lon": -77.041427, "rental_uris": {"ios": "https://dc.lft.to/lastmile_qr_scan", "android": "https://dc.lft.to/lastmile_qr_scan"}}, {"name": "adeffd5e4ccada5184131005e94f26a4", "fusion_lat": 0.0, "type": "electric_scooter", "lat": 38.92057916666667, "is_reserved": 0, "is_disabled": 0, "fusion_lon": 0.0, "bike_id": "adeffd5e4ccada5184131005e94f26a4", "lon": -77.03439683333333, "rental_uris": {"ios": "https://dc.lft.to/lastmile_qr_scan", "android": "https://dc.lft.to/lastmile_qr_scan"}}, {"name": "b67a5aaaf2cf2ffe2e6eaa179c983eac", "fusion_lat": 0.0, "type": "electric_bike", "lat": 39.038869, "is_reserved": 0, "is_disabled": 0, "fusion_lon": 0.0, "bike_id": "b67a5aaaf2cf2ffe2e6eaa179c983eac", "lon": -76.990403, "rental_uris": {"ios": "https://dc.lft.to/lastmile_qr_scan", "android": "https://dc.lft.to/lastmile_qr_scan"}}, {"name": "932c565be89449b8c18faab6fb87bb65", "fusion_lat": 0.0, "type": "electric_scooter", "lat": 38.91418916666667, "is_reserved": 0, "is_disabled": 0, "fusion_lon": 0.0, "bike_id": "932c565be89449b8c18faab6fb87bb65", "lon": -77.02642983333334, "rental_uris": {"ios": "https://dc.lft.to/lastmile_qr_scan", "android": "https://dc.lft.to/lastmile_qr_scan"}}, {"name": "872428fcffba52bce96cf11c7452d47e", "fusion_lat": 0.0, "type": "electric_bike", "lat": 38.93486166666667, "is_reserved": 0, "is_disabled": 0, "fusion_lon": 0.0, "bike_id": "872428fcffba52bce96cf11c7452d47e", "lon": -77.02976916666667, "rental_uris": {"ios": "https://dc.lft.to/lastmile_qr_scan", "android": "https://dc.lft.to/lastmile_qr_scan"}}, {"name": "1c3c043c85b2692b7d4d4ba0603bd712", "fusion_lat": 0.0, "type": "electric_scooter", "lat": 38.905735166666666, "is_reserved": 0, "is_disabled": 0, "fusion_lon": 0.0, "bike_id": "1c3c043c85b2692b7d4d4ba0603bd712", "lon": -77.029763, "rental_uris": {"ios": "https://dc.lft.to/lastmile_qr_scan", "android": "https://dc.lft.to/lastmile_qr_scan"}}, {"name": "54ceca41079daa0e3d90e0fe0d157db3", "fusion_lat": 0.0, "type": "electric_scooter", "lat": 38.932536, "is_reserved": 0, "is_disabled": 0, "fusion_lon": 0.0, "bike_id": "54ceca41079daa0e3d90e0fe0d157db3", "lon": -77.02384166666667, "rental_uris": {"ios": "https://dc.lft.to/lastmile_qr_scan", "android": "https://dc.lft.to/lastmile_qr_scan"}}, {"name": "b1a6387449d4320cebddbcb21b8c4dbb", "fusion_lat": 0.0, "type": "electric_bike", "lat": 38.82447966666667, "is_reserved": 0, "is_disabled": 0, "fusion_lon": 0.0, "bike_id": "b1a6387449d4320cebddbcb21b8c4dbb", "lon": -77.07049733333334, "rental_uris": {"ios": "https://dc.lft.to/lastmile_qr_scan", "android": "https://dc.lft.to/lastmile_qr_scan"}}, {"name": "28019a2caed4cd8d545e5c01366eb0f0", "fusion_lat": 0.0, "type": "electric_scooter", "lat": 38.90762466666666, "is_reserved": 0, "is_disabled": 0, "fusion_lon": 0.0, "bike_id": "28019a2caed4cd8d545e5c01366eb0f0", "lon": -77.02793216666667, "rental_uris": {"ios": "https://dc.lft.to/lastmile_qr_scan", "android": "https://dc.lft.to/lastmile_qr_scan"}}, {"name": "d95c315ea6ae0c4c52a0bf9716232ca2", "fusion_lat": 0.0, "type": "electric_scooter", "lat": 38.884313, "is_reserved": 0, "is_disabled": 0, "fusion_lon": 0.0, "bike_id": "d95c315ea6ae0c4c52a0bf9716232ca2", "lon": -77.03048283333334, "rental_uris": {"ios": "https://dc.lft.to/lastmile_qr_scan", "android": "https://dc.lft.to/lastmile_qr_scan"}}, {"name": "d7760a3b81cf8e111906a559c488020a", "fusion_lat": 0.0, "type": "electric_bike", "lat": 38.881296666666664, "is_reserved": 0, "is_disabled": 0, "fusion_lon": 0.0, "bike_id": "d7760a3b81cf8e111906a559c488020a", "lon": -77.01638483333333, "rental_uris": {"ios": "https://dc.lft.to/lastmile_qr_scan", "android": "https://dc.lft.to/lastmile_qr_scan"}}, {"name": "f236a17395a61c6d1b9ffca1f43cec49", "fusion_lat": 0.0, "type": "electric_scooter", "lat": 38.91723966666667, "is_reserved": 0, "is_disabled": 0, "fusion_lon": 0.0, "bike_id": "f236a17395a61c6d1b9ffca1f43cec49", "lon": -77.03839583333334, "rental_uris": {"ios": "https://dc.lft.to/lastmile_qr_scan", "android": "https://dc.lft.to/lastmile_qr_scan"}}, {"name": "ba908cfb64602bb8900ce0390fb437c4", "fusion_lat": 0.0, "type": "electric_scooter", "lat": 38.9029275, "is_reserved": 0, "is_disabled": 0, "fusion_lon": 0.0, "bike_id": "ba908cfb64602bb8900ce0390fb437c4", "lon": -77.039964, "rental_uris": {"ios": "https://dc.lft.to/lastmile_qr_scan", "android": "https://dc.lft.to/lastmile_qr_scan"}}, {"name": "4b78c53e3490021c23bc3dcf74370466", "fusion_lat": 0.0, "type": "electric_scooter", "lat": 38.901659, "is_reserved": 0, "is_disabled": 0, "fusion_lon": 0.0, "bike_id": "4b78c53e3490021c23bc3dcf74370466", "lon": -77.0217115, "rental_uris": {"ios": "https://dc.lft.to/lastmile_qr_scan", "android": "https://dc.lft.to/lastmile_qr_scan"}}, {"name": "c0119531f5fb72f5940183e421bd386f", "fusion_lat": 0.0, "type": "electric_scooter", "lat": 38.899218166666664, "is_reserved": 0, "is_disabled": 0, "fusion_lon": 0.0, "bike_id": "c0119531f5fb72f5940183e421bd386f", "lon": -76.9338155, "rental_uris": {"ios": "https://dc.lft.to/lastmile_qr_scan", "android": "https://dc.lft.to/lastmile_qr_scan"}}, {"name": "c1889ad37623cab56ca9b279ded37345", "fusion_lat": 0.0, "type": "electric_scooter", "lat": 38.90323, "is_reserved": 0, "is_disabled": 0, "fusion_lon": 0.0, "bike_id": "c1889ad37623cab56ca9b279ded37345", "lon": -77.05175916666667, "rental_uris": {"ios": "https://dc.lft.to/lastmile_qr_scan", "android": "https://dc.lft.to/lastmile_qr_scan"}}, {"name": "f951f815b57816121193fc69ad67563f", "fusion_lat": 0.0, "type": "electric_scooter", "lat": 38.923449833333336, "is_reserved": 0, "is_disabled": 0, "fusion_lon": 0.0, "bike_id": "f951f815b57816121193fc69ad67563f", "lon": -77.0353805, "rental_uris": {"ios": "https://dc.lft.to/lastmile_qr_scan", "android": "https://dc.lft.to/lastmile_qr_scan"}}, {"name": "c34fbdfa5c8bf7222afc5d8141960bb7", "fusion_lat": 0.0, "type": "electric_bike", "lat": 38.918594666666664, "is_reserved": 0, "is_disabled": 0, "fusion_lon": 0.0, "bike_id": "c34fbdfa5c8bf7222afc5d8141960bb7", "lon": -76.96092566666667, "rental_uris": {"ios": "https://dc.lft.to/lastmile_qr_scan", "android": "https://dc.lft.to/lastmile_qr_scan"}}, {"name": "596fe1d1ea810debf4268893c06f0ec8", "fusion_lat": 0.0, "type": "electric_scooter", "lat": 38.8974225, "is_reserved": 0, "is_disabled": 0, "fusion_lon": 0.0, "bike_id": "596fe1d1ea810debf4268893c06f0ec8", "lon": -77.0465385, "rental_uris": {"ios": "https://dc.lft.to/lastmile_qr_scan", "android": "https://dc.lft.to/lastmile_qr_scan"}}, {"name": "4afb623a3a758be430a03e6f2d250d64", "fusion_lat": 0.0, "type": "electric_scooter", "lat": 38.923148833333336, "is_reserved": 0, "is_disabled": 0, "fusion_lon": 0.0, "bike_id": "4afb623a3a758be430a03e6f2d250d64", "lon": -77.0297555, "rental_uris": {"ios": "https://dc.lft.to/lastmile_qr_scan", "android": "https://dc.lft.to/lastmile_qr_scan"}}, {"name": "4a2692d84fbe61afeef2e244e0050df7", "fusion_lat": 0.0, "type": "electric_scooter", "lat": 38.90242933333333, "is_reserved": 0, "is_disabled": 0, "fusion_lon": 0.0, "bike_id": "4a2692d84fbe61afeef2e244e0050df7", "lon": -77.01535466666667, "rental_uris": {"ios": "https://dc.lft.to/lastmile_qr_scan", "android": "https://dc.lft.to/lastmile_qr_scan"}}, {"name": "9f5848363d90bba2c5f9f50d6d82f5a8", "fusion_lat": 0.0, "type": "electric_scooter", "lat": 38.938762, "is_reserved": 0, "is_disabled": 0, "fusion_lon": 0.0, "bike_id": "9f5848363d90bba2c5f9f50d6d82f5a8", "lon": -77.032188, "rental_uris": {"ios": "https://dc.lft.to/lastmile_qr_scan", "android": "https://dc.lft.to/lastmile_qr_scan"}}, {"name": "c792e0a942af2090627ee5fba3457ad4", "fusion_lat": 0.0, "type": "electric_scooter", "lat": 38.905133, "is_reserved": 0, "is_disabled": 0, "fusion_lon": 0.0, "bike_id": "c792e0a942af2090627ee5fba3457ad4", "lon": -77.06939816666667, "rental_uris": {"ios": "https://dc.lft.to/lastmile_qr_scan", "android": "https://dc.lft.to/lastmile_qr_scan"}}, {"name": "c7a3d43d412b9ad5ad6958e3842cf0e9", "fusion_lat": 0.0, "type": "electric_scooter", "lat": 38.895677666666664, "is_reserved": 0, "is_disabled": 0, "fusion_lon": 0.0, "bike_id": "c7a3d43d412b9ad5ad6958e3842cf0e9", "lon": -77.0111615, "rental_uris": {"ios": "https://dc.lft.to/lastmile_qr_scan", "android": "https://dc.lft.to/lastmile_qr_scan"}}, {"name": "91370b0b55df1dd3030e253d82da77ac", "fusion_lat": 0.0, "type": "electric_scooter", "lat": 38.907413, "is_reserved": 0, "is_disabled": 0, "fusion_lon": 0.0, "bike_id": "91370b0b55df1dd3030e253d82da77ac", "lon": -77.04667416666666, "rental_uris": {"ios": "https://dc.lft.to/lastmile_qr_scan", "android": "https://dc.lft.to/lastmile_qr_scan"}}, {"name": "8c06af3043d9a7e7db0353d0eebc0d8c", "fusion_lat": 0.0, "type": "electric_scooter", "lat": 38.892481, "is_reserved": 0, "is_disabled": 0, "fusion_lon": 0.0, "bike_id": "8c06af3043d9a7e7db0353d0eebc0d8c", "lon": -77.03185016666667, "rental_uris": {"ios": "https://dc.lft.to/lastmile_qr_scan", "android": "https://dc.lft.to/lastmile_qr_scan"}}, {"name": "a279e8fe2a213c5b13bc6772043eaf44", "fusion_lat": 0.0, "type": "electric_scooter", "lat": 38.911183666666666, "is_reserved": 0, "is_disabled": 0, "fusion_lon": 0.0, "bike_id": "a279e8fe2a213c5b13bc6772043eaf44", "lon": -77.010647, "rental_uris": {"ios": "https://dc.lft.to/lastmile_qr_scan", "android": "https://dc.lft.to/lastmile_qr_scan"}}, {"name": "667b32502a9aff2a9f69676f10a554a3", "fusion_lat": 0.0, "type": "electric_scooter", "lat": 38.911951, "is_reserved": 0, "is_disabled": 0, "fusion_lon": 0.0, "bike_id": "667b32502a9aff2a9f69676f10a554a3", "lon": -77.00727666666667, "rental_uris": {"ios": "https://dc.lft.to/lastmile_qr_scan", "android": "https://dc.lft.to/lastmile_qr_scan"}}, {"name": "39dd2d0c49d498d9e9564c46c1c0861f", "fusion_lat": 0.0, "type": "electric_scooter", "lat": 38.951773, "is_reserved": 0, "is_disabled": 0, "fusion_lon": 0.0, "bike_id": "39dd2d0c49d498d9e9564c46c1c0861f", "lon": -77.0254035, "rental_uris": {"ios": "https://dc.lft.to/lastmile_qr_scan", "android": "https://dc.lft.to/lastmile_qr_scan"}}, {"name": "c9fb413a4a029c4377833aa10af5154a", "fusion_lat": 0.0, "type": "electric_scooter", "lat": 38.925648, "is_reserved": 0, "is_disabled": 0, "fusion_lon": 0.0, "bike_id": "c9fb413a4a029c4377833aa10af5154a", "lon": -77.03269666666667, "rental_uris": {"ios": "https://dc.lft.to/lastmile_qr_scan", "android": "https://dc.lft.to/lastmile_qr_scan"}}, {"name": "c3bb1fd5993e803d3f4f874538318079", "fusion_lat": 0.0, "type": "electric_scooter", "lat": 38.923221833333336, "is_reserved": 0, "is_disabled": 0, "fusion_lon": 0.0, "bike_id": "c3bb1fd5993e803d3f4f874538318079", "lon": -77.039546, "rental_uris": {"ios": "https://dc.lft.to/lastmile_qr_scan", "android": "https://dc.lft.to/lastmile_qr_scan"}}, {"name": "b9084cd056532fe879c4ce7f31ea2ebb", "fusion_lat": 0.0, "type": "electric_scooter", "lat": 38.931118166666664, "is_reserved": 0, "is_disabled": 0, "fusion_lon": 0.0, "bike_id": "b9084cd056532fe879c4ce7f31ea2ebb", "lon": -77.03841783333333, "rental_uris": {"ios": "https://dc.lft.to/lastmile_qr_scan", "android": "https://dc.lft.to/lastmile_qr_scan"}}, {"name": "3304d1afe08982b63f67ec06a9b7af9c", "fusion_lat": 0.0, "type": "electric_scooter", "lat": 38.905434166666666, "is_reserved": 0, "is_disabled": 0, "fusion_lon": 0.0, "bike_id": "3304d1afe08982b63f67ec06a9b7af9c", "lon": -77.06269883333333, "rental_uris": {"ios": "https://dc.lft.to/lastmile_qr_scan", "android": "https://dc.lft.to/lastmile_qr_scan"}}, {"name": "6d727d6d78894ef22e82cb9a842e1806", "fusion_lat": 0.0, "type": "electric_scooter", "lat": 38.939467, "is_reserved": 0, "is_disabled": 0, "fusion_lon": 0.0, "bike_id": "6d727d6d78894ef22e82cb9a842e1806", "lon": -77.03621566666666, "rental_uris": {"ios": "https://dc.lft.to/lastmile_qr_scan", "android": "https://dc.lft.to/lastmile_qr_scan"}}, {"name": "1bd7101bf54f952166f40a0d156aa86d", "fusion_lat": 0.0, "type": "electric_bike", "lat": 38.854037, "is_reserved": 0, "is_disabled": 0, "fusion_lon": 0.0, "bike_id": "1bd7101bf54f952166f40a0d156aa86d", "lon": -77.118166, "rental_uris": {"ios": "https://dc.lft.to/lastmile_qr_scan", "android": "https://dc.lft.to/lastmile_qr_scan"}}, {"name": "69e5bad9d4c92b53d1499b0652e9f57a", "fusion_lat": 0.0, "type": "electric_bike", "lat": 38.946090166666664, "is_reserved": 0, "is_disabled": 0, "fusion_lon": 0.0, "bike_id": "69e5bad9d4c92b53d1499b0652e9f57a", "lon": -77.02982883333334, "rental_uris": {"ios": "https://dc.lft.to/lastmile_qr_scan", "android": "https://dc.lft.to/lastmile_qr_scan"}}, {"name": "97bb647b66b4fa3b6ad2ec4404dcbbda", "fusion_lat": 0.0, "type": "electric_scooter", "lat": 38.92285783333333, "is_reserved": 0, "is_disabled": 0, "fusion_lon": 0.0, "bike_id": "97bb647b66b4fa3b6ad2ec4404dcbbda", "lon": -77.0365875, "rental_uris": {"ios": "https://dc.lft.to/lastmile_qr_scan", "android": "https://dc.lft.to/lastmile_qr_scan"}}, {"name": "b13349ede3459c7a5b7a1ed9cf167a36", "fusion_lat": 0.0, "type": "electric_scooter", "lat": 38.91564666666667, "is_reserved": 0, "is_disabled": 0, "fusion_lon": 0.0, "bike_id": "b13349ede3459c7a5b7a1ed9cf167a36", "lon": -77.01417233333333, "rental_uris": {"ios": "https://dc.lft.to/lastmile_qr_scan", "android": "https://dc.lft.to/lastmile_qr_scan"}}, {"name": "cbfe2ea2105af185bdd30e64d7a36dea", "fusion_lat": 0.0, "type": "electric_scooter", "lat": 38.91644266666667, "is_reserved": 0, "is_disabled": 0, "fusion_lon": 0.0, "bike_id": "cbfe2ea2105af185bdd30e64d7a36dea", "lon": -77.02300483333333, "rental_uris": {"ios": "https://dc.lft.to/lastmile_qr_scan", "android": "https://dc.lft.to/lastmile_qr_scan"}}, {"name": "f7347045fde0865d8f83702c415da59b", "fusion_lat": 0.0, "type": "electric_scooter", "lat": 38.90959566666667, "is_reserved": 0, "is_disabled": 0, "fusion_lon": 0.0, "bike_id": "f7347045fde0865d8f83702c415da59b", "lon": -77.01137283333334, "rental_uris": {"ios": "https://dc.lft.to/lastmile_qr_scan", "android": "https://dc.lft.to/lastmile_qr_scan"}}, {"name": "299c77dbecbbfa38da6e3edc6e76891a", "fusion_lat": 0.0, "type": "electric_scooter", "lat": 38.9103805, "is_reserved": 0, "is_disabled": 0, "fusion_lon": 0.0, "bike_id": "299c77dbecbbfa38da6e3edc6e76891a", "lon": -77.02385916666667, "rental_uris": {"ios": "https://dc.lft.to/lastmile_qr_scan", "android": "https://dc.lft.to/lastmile_qr_scan"}}, {"name": "fa1dfac330ffb14e0dcfac66fa4944fd", "fusion_lat": 0.0, "type": "electric_scooter", "lat": 38.9073025, "is_reserved": 0, "is_disabled": 0, "fusion_lon": 0.0, "bike_id": "fa1dfac330ffb14e0dcfac66fa4944fd", "lon": -77.0319755, "rental_uris": {"ios": "https://dc.lft.to/lastmile_qr_scan", "android": "https://dc.lft.to/lastmile_qr_scan"}}, {"name": "889e4f578da7710cb47ecf417a0781b9", "fusion_lat": 0.0, "type": "electric_scooter", "lat": 38.91487816666667, "is_reserved": 0, "is_disabled": 0, "fusion_lon": 0.0, "bike_id": "889e4f578da7710cb47ecf417a0781b9", "lon": -77.0217735, "rental_uris": {"ios": "https://dc.lft.to/lastmile_qr_scan", "android": "https://dc.lft.to/lastmile_qr_scan"}}, {"name": "6d0cfc891be16ea0e4b0000338750368", "fusion_lat": 0.0, "type": "electric_scooter", "lat": 38.897694333333334, "is_reserved": 0, "is_disabled": 0, "fusion_lon": 0.0, "bike_id": "6d0cfc891be16ea0e4b0000338750368", "lon": -76.97725516666667, "rental_uris": {"ios": "https://dc.lft.to/lastmile_qr_scan", "android": "https://dc.lft.to/lastmile_qr_scan"}}, {"name": "76f9520b96cc3371634024ffa51a54bf", "fusion_lat": 0.0, "type": "electric_scooter", "lat": 38.94440816666667, "is_reserved": 0, "is_disabled": 0, "fusion_lon": 0.0, "bike_id": "76f9520b96cc3371634024ffa51a54bf", "lon": -77.03274683333333, "rental_uris": {"ios": "https://dc.lft.to/lastmile_qr_scan", "android": "https://dc.lft.to/lastmile_qr_scan"}}, {"name": "6aa5b2ed7024adad5fdfcc01f9236ea1", "fusion_lat": 0.0, "type": "electric_scooter", "lat": 38.91027066666667, "is_reserved": 0, "is_disabled": 0, "fusion_lon": 0.0, "bike_id": "6aa5b2ed7024adad5fdfcc01f9236ea1", "lon": -77.02243, "rental_uris": {"ios": "https://dc.lft.to/lastmile_qr_scan", "android": "https://dc.lft.to/lastmile_qr_scan"}}, {"name": "e4de869945abd2d7e53e5fb8098b361f", "fusion_lat": 0.0, "type": "electric_scooter", "lat": 38.92381833333334, "is_reserved": 0, "is_disabled": 0, "fusion_lon": 0.0, "bike_id": "e4de869945abd2d7e53e5fb8098b361f", "lon": -77.03135766666666, "rental_uris": {"ios": "https://dc.lft.to/lastmile_qr_scan", "android": "https://dc.lft.to/lastmile_qr_scan"}}, {"name": "f39787f403a55d6be29d05676d23920e", "fusion_lat": 0.0, "type": "electric_scooter", "lat": 38.90898216666667, "is_reserved": 0, "is_disabled": 0, "fusion_lon": 0.0, "bike_id": "f39787f403a55d6be29d05676d23920e", "lon": -77.03139866666666, "rental_uris": {"ios": "https://dc.lft.to/lastmile_qr_scan", "android": "https://dc.lft.to/lastmile_qr_scan"}}, {"name": "31ce5f3ae7d68468286e8c543f2017c6", "fusion_lat": 0.0, "type": "electric_scooter", "lat": 38.894754666666664, "is_reserved": 0, "is_disabled": 0, "fusion_lon": 0.0, "bike_id": "31ce5f3ae7d68468286e8c543f2017c6", "lon": -77.03070066666666, "rental_uris": {"ios": "https://dc.lft.to/lastmile_qr_scan", "android": "https://dc.lft.to/lastmile_qr_scan"}}, {"name": "6ad0eae11e1b62ebb3c710ce9fa4838a", "fusion_lat": 0.0, "type": "electric_scooter", "lat": 38.92495666666667, "is_reserved": 0, "is_disabled": 0, "fusion_lon": 0.0, "bike_id": "6ad0eae11e1b62ebb3c710ce9fa4838a", "lon": -77.07329216666666, "rental_uris": {"ios": "https://dc.lft.to/lastmile_qr_scan", "android": "https://dc.lft.to/lastmile_qr_scan"}}, {"name": "8ce72b7452bd0bf02852564a362dc668", "fusion_lat": 0.0, "type": "electric_scooter", "lat": 38.8651205, "is_reserved": 0, "is_disabled": 0, "fusion_lon": 0.0, "bike_id": "8ce72b7452bd0bf02852564a362dc668", "lon": -76.99005333333334, "rental_uris": {"ios": "https://dc.lft.to/lastmile_qr_scan", "android": "https://dc.lft.to/lastmile_qr_scan"}}, {"name": "87f2ea28b6c716a51756a27a309c031b", "fusion_lat": 0.0, "type": "electric_scooter", "lat": 38.93828883333333, "is_reserved": 0, "is_disabled": 0, "fusion_lon": 0.0, "bike_id": "87f2ea28b6c716a51756a27a309c031b", "lon": -77.03283333333333, "rental_uris": {"ios": "https://dc.lft.to/lastmile_qr_scan", "android": "https://dc.lft.to/lastmile_qr_scan"}}, {"name": "33e15b72fd7e8f70613348c289d2be47", "fusion_lat": 0.0, "type": "electric_scooter", "lat": 38.90267133333333, "is_reserved": 0, "is_disabled": 0, "fusion_lon": 0.0, "bike_id": "33e15b72fd7e8f70613348c289d2be47", "lon": -77.00924883333333, "rental_uris": {"ios": "https://dc.lft.to/lastmile_qr_scan", "android": "https://dc.lft.to/lastmile_qr_scan"}}, {"name": "a7191fb8c07cd428b6e5d044204be4d4", "fusion_lat": 0.0, "type": "electric_scooter", "lat": 38.90031783333333, "is_reserved": 0, "is_disabled": 0, "fusion_lon": 0.0, "bike_id": "a7191fb8c07cd428b6e5d044204be4d4", "lon": -76.98844666666666, "rental_uris": {"ios": "https://dc.lft.to/lastmile_qr_scan", "android": "https://dc.lft.to/lastmile_qr_scan"}}, {"name": "9a28ec74fc9a5104f63948b3d58880ae", "fusion_lat": 0.0, "type": "electric_scooter", "lat": 38.91150533333333, "is_reserved": 0, "is_disabled": 0, "fusion_lon": 0.0, "bike_id": "9a28ec74fc9a5104f63948b3d58880ae", "lon": -77.04435233333334, "rental_uris": {"ios": "https://dc.lft.to/lastmile_qr_scan", "android": "https://dc.lft.to/lastmile_qr_scan"}}, {"name": "26b647f1b032948962e52be75d87a414", "fusion_lat": 0.0, "type": "electric_scooter", "lat": 38.90139766666667, "is_reserved": 0, "is_disabled": 0, "fusion_lon": 0.0, "bike_id": "26b647f1b032948962e52be75d87a414", "lon": -77.0449195, "rental_uris": {"ios": "https://dc.lft.to/lastmile_qr_scan", "android": "https://dc.lft.to/lastmile_qr_scan"}}, {"name": "2c05368e4123f424db1ed04fae35b1eb", "fusion_lat": 0.0, "type": "electric_scooter", "lat": 38.912915, "is_reserved": 0, "is_disabled": 0, "fusion_lon": 0.0, "bike_id": "2c05368e4123f424db1ed04fae35b1eb", "lon": -77.02385483333333, "rental_uris": {"ios": "https://dc.lft.to/lastmile_qr_scan", "android": "https://dc.lft.to/lastmile_qr_scan"}}, {"name": "6480cbffe687d99185d5c71604e40f5a", "fusion_lat": 0.0, "type": "electric_bike", "lat": 38.96499883333333, "is_reserved": 0, "is_disabled": 0, "fusion_lon": 0.0, "bike_id": "6480cbffe687d99185d5c71604e40f5a", "lon": -77.06493233333333, "rental_uris": {"ios": "https://dc.lft.to/lastmile_qr_scan", "android": "https://dc.lft.to/lastmile_qr_scan"}}, {"name": "8f20a565e91e7ef92597a5c750a7cec0", "fusion_lat": 0.0, "type": "electric_scooter", "lat": 38.899719166666664, "is_reserved": 0, "is_disabled": 0, "fusion_lon": 0.0, "bike_id": "8f20a565e91e7ef92597a5c750a7cec0", "lon": -77.02945816666667, "rental_uris": {"ios": "https://dc.lft.to/lastmile_qr_scan", "android": "https://dc.lft.to/lastmile_qr_scan"}}, {"name": "813426d50f3af010e528edd39805331f", "fusion_lat": 0.0, "type": "electric_scooter", "lat": 38.91131983333333, "is_reserved": 0, "is_disabled": 0, "fusion_lon": 0.0, "bike_id": "813426d50f3af010e528edd39805331f", "lon": -77.03178783333334, "rental_uris": {"ios": "https://dc.lft.to/lastmile_qr_scan", "android": "https://dc.lft.to/lastmile_qr_scan"}}, {"name": "eb6780f310d764799f980b237a9c97ee", "fusion_lat": 0.0, "type": "electric_scooter", "lat": 38.90559783333333, "is_reserved": 0, "is_disabled": 0, "fusion_lon": 0.0, "bike_id": "eb6780f310d764799f980b237a9c97ee", "lon": -77.03448533333334, "rental_uris": {"ios": "https://dc.lft.to/lastmile_qr_scan", "android": "https://dc.lft.to/lastmile_qr_scan"}}, {"name": "ef278d96eeeca1537e17ecca99950c86", "fusion_lat": 0.0, "type": "electric_scooter", "lat": 38.90965766666667, "is_reserved": 0, "is_disabled": 0, "fusion_lon": 0.0, "bike_id": "ef278d96eeeca1537e17ecca99950c86", "lon": -77.041233, "rental_uris": {"ios": "https://dc.lft.to/lastmile_qr_scan", "android": "https://dc.lft.to/lastmile_qr_scan"}}, {"name": "f7380f13c2955f2fded270072633a3db", "fusion_lat": 0.0, "type": "electric_scooter", "lat": 38.925702666666666, "is_reserved": 0, "is_disabled": 0, "fusion_lon": 0.0, "bike_id": "f7380f13c2955f2fded270072633a3db", "lon": -77.0284145, "rental_uris": {"ios": "https://dc.lft.to/lastmile_qr_scan", "android": "https://dc.lft.to/lastmile_qr_scan"}}, {"name": "1639375bf0030439ceac3253195fa49e", "fusion_lat": 0.0, "type": "electric_scooter", "lat": 38.9120175, "is_reserved": 0, "is_disabled": 0, "fusion_lon": 0.0, "bike_id": "1639375bf0030439ceac3253195fa49e", "lon": -77.00080466666667, "rental_uris": {"ios": "https://dc.lft.to/lastmile_qr_scan", "android": "https://dc.lft.to/lastmile_qr_scan"}}, {"name": "67fa730d3b10a88aa5af3a5775e502a4", "fusion_lat": 0.0, "type": "electric_scooter", "lat": 38.92066233333333, "is_reserved": 0, "is_disabled": 0, "fusion_lon": 0.0, "bike_id": "67fa730d3b10a88aa5af3a5775e502a4", "lon": -77.0296215, "rental_uris": {"ios": "https://dc.lft.to/lastmile_qr_scan", "android": "https://dc.lft.to/lastmile_qr_scan"}}, {"name": "315f19a054fa8d9c1cec3d9a847b069c", "fusion_lat": 0.0, "type": "electric_scooter", "lat": 38.935413, "is_reserved": 0, "is_disabled": 0, "fusion_lon": 0.0, "bike_id": "315f19a054fa8d9c1cec3d9a847b069c", "lon": -77.0235555, "rental_uris": {"ios": "https://dc.lft.to/lastmile_qr_scan", "android": "https://dc.lft.to/lastmile_qr_scan"}}, {"name": "6d0e8834f2b2a3167709b570e4594486", "fusion_lat": 0.0, "type": "electric_scooter", "lat": 38.9123995, "is_reserved": 0, "is_disabled": 0, "fusion_lon": 0.0, "bike_id": "6d0e8834f2b2a3167709b570e4594486", "lon": -77.00916433333333, "rental_uris": {"ios": "https://dc.lft.to/lastmile_qr_scan", "android": "https://dc.lft.to/lastmile_qr_scan"}}, {"name": "3de1c08e257f7993608f1350d88672b2", "fusion_lat": 0.0, "type": "electric_scooter", "lat": 38.924757666666665, "is_reserved": 0, "is_disabled": 0, "fusion_lon": 0.0, "bike_id": "3de1c08e257f7993608f1350d88672b2", "lon": -77.0314015, "rental_uris": {"ios": "https://dc.lft.to/lastmile_qr_scan", "android": "https://dc.lft.to/lastmile_qr_scan"}}, {"name": "1892dddf9f8fbaec95214d1e31d91122", "fusion_lat": 0.0, "type": "electric_scooter", "lat": 38.862640666666664, "is_reserved": 0, "is_disabled": 0, "fusion_lon": 0.0, "bike_id": "1892dddf9f8fbaec95214d1e31d91122", "lon": -76.9871755, "rental_uris": {"ios": "https://dc.lft.to/lastmile_qr_scan", "android": "https://dc.lft.to/lastmile_qr_scan"}}, {"name": "abe53f811fd28502dc5813e02882ae7d", "fusion_lat": 0.0, "type": "electric_scooter", "lat": 38.9031505, "is_reserved": 0, "is_disabled": 0, "fusion_lon": 0.0, "bike_id": "abe53f811fd28502dc5813e02882ae7d", "lon": -77.04977383333333, "rental_uris": {"ios": "https://dc.lft.to/lastmile_qr_scan", "android": "https://dc.lft.to/lastmile_qr_scan"}}, {"name": "71c0fab925580125a5066b50c777a4b3", "fusion_lat": 0.0, "type": "electric_scooter", "lat": 38.933919, "is_reserved": 0, "is_disabled": 0, "fusion_lon": 0.0, "bike_id": "71c0fab925580125a5066b50c777a4b3", "lon": -77.073783, "rental_uris": {"ios": "https://dc.lft.to/lastmile_qr_scan", "android": "https://dc.lft.to/lastmile_qr_scan"}}, {"name": "8897c8c145e94fee3a485b70e9cff5db", "fusion_lat": 0.0, "type": "electric_scooter", "lat": 38.90272316666667, "is_reserved": 0, "is_disabled": 0, "fusion_lon": 0.0, "bike_id": "8897c8c145e94fee3a485b70e9cff5db", "lon": -77.03851533333334, "rental_uris": {"ios": "https://dc.lft.to/lastmile_qr_scan", "android": "https://dc.lft.to/lastmile_qr_scan"}}, {"name": "5824fc6f61b7756199eb2ee6507a91da", "fusion_lat": 0.0, "type": "electric_bike", "lat": 38.886177333333336, "is_reserved": 0, "is_disabled": 0, "fusion_lon": 0.0, "bike_id": "5824fc6f61b7756199eb2ee6507a91da", "lon": -77.1075705, "rental_uris": {"ios": "https://dc.lft.to/lastmile_qr_scan", "android": "https://dc.lft.to/lastmile_qr_scan"}}, {"name": "16a011f1dece910bde1340d6bfd29528", "fusion_lat": 0.0, "type": "electric_scooter", "lat": 38.91716316666667, "is_reserved": 0, "is_disabled": 0, "fusion_lon": 0.0, "bike_id": "16a011f1dece910bde1340d6bfd29528", "lon": -77.0289145, "rental_uris": {"ios": "https://dc.lft.to/lastmile_qr_scan", "android": "https://dc.lft.to/lastmile_qr_scan"}}, {"name": "a2dff36e9002c5ddb989c3562fb363bc", "fusion_lat": 0.0, "type": "electric_scooter", "lat": 38.902613833333334, "is_reserved": 0, "is_disabled": 0, "fusion_lon": 0.0, "bike_id": "a2dff36e9002c5ddb989c3562fb363bc", "lon": -77.0385435, "rental_uris": {"ios": "https://dc.lft.to/lastmile_qr_scan", "android": "https://dc.lft.to/lastmile_qr_scan"}}, {"name": "ad3d8282bc082f4e7e4088c2d0b57373", "fusion_lat": 0.0, "type": "electric_scooter", "lat": 38.8948835, "is_reserved": 0, "is_disabled": 0, "fusion_lon": 0.0, "bike_id": "ad3d8282bc082f4e7e4088c2d0b57373", "lon": -77.01011133333333, "rental_uris": {"ios": "https://dc.lft.to/lastmile_qr_scan", "android": "https://dc.lft.to/lastmile_qr_scan"}}, {"name": "4086ca191923ff332980647abaeb10be", "fusion_lat": 0.0, "type": "electric_scooter", "lat": 38.921702, "is_reserved": 0, "is_disabled": 0, "fusion_lon": 0.0, "bike_id": "4086ca191923ff332980647abaeb10be", "lon": -77.03331166666666, "rental_uris": {"ios": "https://dc.lft.to/lastmile_qr_scan", "android": "https://dc.lft.to/lastmile_qr_scan"}}, {"name": "488b172cd0e2e95ebd9d3c25446a7da1", "fusion_lat": 0.0, "type": "electric_scooter", "lat": 38.93897316666666, "is_reserved": 0, "is_disabled": 0, "fusion_lon": 0.0, "bike_id": "488b172cd0e2e95ebd9d3c25446a7da1", "lon": -77.02465966666666, "rental_uris": {"ios": "https://dc.lft.to/lastmile_qr_scan", "android": "https://dc.lft.to/lastmile_qr_scan"}}, {"name": "58c323727bcc667f1ec5032c7b4d9153", "fusion_lat": 0.0, "type": "electric_scooter", "lat": 38.8839585, "is_reserved": 0, "is_disabled": 0, "fusion_lon": 0.0, "bike_id": "58c323727bcc667f1ec5032c7b4d9153", "lon": -76.93043433333334, "rental_uris": {"ios": "https://dc.lft.to/lastmile_qr_scan", "android": "https://dc.lft.to/lastmile_qr_scan"}}, {"name": "e0c8b43a6c8fd3386de15c5b31ad316e", "fusion_lat": 0.0, "type": "electric_bike", "lat": 38.92215816666667, "is_reserved": 0, "is_disabled": 0, "fusion_lon": 0.0, "bike_id": "e0c8b43a6c8fd3386de15c5b31ad316e", "lon": -76.987955, "rental_uris": {"ios": "https://dc.lft.to/lastmile_qr_scan", "android": "https://dc.lft.to/lastmile_qr_scan"}}, {"name": "dc9e63d0de150fddde2d2136a73204e9", "fusion_lat": 0.0, "type": "electric_scooter", "lat": 38.8875645, "is_reserved": 0, "is_disabled": 0, "fusion_lon": 0.0, "bike_id": "dc9e63d0de150fddde2d2136a73204e9", "lon": -76.97982766666667, "rental_uris": {"ios": "https://dc.lft.to/lastmile_qr_scan", "android": "https://dc.lft.to/lastmile_qr_scan"}}, {"name": "59cbcd638dc0660f3ab705ca484d4de3", "fusion_lat": 0.0, "type": "electric_scooter", "lat": 38.938982, "is_reserved": 0, "is_disabled": 0, "fusion_lon": 0.0, "bike_id": "59cbcd638dc0660f3ab705ca484d4de3", "lon": -77.03283933333333, "rental_uris": {"ios": "https://dc.lft.to/lastmile_qr_scan", "android": "https://dc.lft.to/lastmile_qr_scan"}}, {"name": "073b0b7eed529e77f77b326a6b48d7d7", "fusion_lat": 0.0, "type": "electric_scooter", "lat": 38.911875, "is_reserved": 0, "is_disabled": 0, "fusion_lon": 0.0, "bike_id": "073b0b7eed529e77f77b326a6b48d7d7", "lon": -77.04156483333334, "rental_uris": {"ios": "https://dc.lft.to/lastmile_qr_scan", "android": "https://dc.lft.to/lastmile_qr_scan"}}, {"name": "825bb996aa6c83f0e53d959fa470d340", "fusion_lat": 0.0, "type": "electric_scooter", "lat": 38.94469083333333, "is_reserved": 0, "is_disabled": 0, "fusion_lon": 0.0, "bike_id": "825bb996aa6c83f0e53d959fa470d340", "lon": -77.00659033333334, "rental_uris": {"ios": "https://dc.lft.to/lastmile_qr_scan", "android": "https://dc.lft.to/lastmile_qr_scan"}}, {"name": "cd4a8a9ca8b5d3273dfc806746b844dd", "fusion_lat": 0.0, "type": "electric_scooter", "lat": 38.9085345, "is_reserved": 0, "is_disabled": 0, "fusion_lon": 0.0, "bike_id": "cd4a8a9ca8b5d3273dfc806746b844dd", "lon": -77.03186383333333, "rental_uris": {"ios": "https://dc.lft.to/lastmile_qr_scan", "android": "https://dc.lft.to/lastmile_qr_scan"}}, {"name": "3aeb8a2aba7b50671311a83bbf86d21c", "fusion_lat": 0.0, "type": "electric_scooter", "lat": 38.90004, "is_reserved": 0, "is_disabled": 0, "fusion_lon": 0.0, "bike_id": "3aeb8a2aba7b50671311a83bbf86d21c", "lon": -77.01129116666667, "rental_uris": {"ios": "https://dc.lft.to/lastmile_qr_scan", "android": "https://dc.lft.to/lastmile_qr_scan"}}, {"name": "6035629960196f0981688808291dede0", "fusion_lat": 0.0, "type": "electric_scooter", "lat": 38.903756, "is_reserved": 0, "is_disabled": 0, "fusion_lon": 0.0, "bike_id": "6035629960196f0981688808291dede0", "lon": -77.0427405, "rental_uris": {"ios": "https://dc.lft.to/lastmile_qr_scan", "android": "https://dc.lft.to/lastmile_qr_scan"}}, {"name": "48e1fa12c8d7ce5fbd57a117b7944681", "fusion_lat": 0.0, "type": "electric_scooter", "lat": 38.898954333333336, "is_reserved": 0, "is_disabled": 0, "fusion_lon": 0.0, "bike_id": "48e1fa12c8d7ce5fbd57a117b7944681", "lon": -77.03342266666667, "rental_uris": {"ios": "https://dc.lft.to/lastmile_qr_scan", "android": "https://dc.lft.to/lastmile_qr_scan"}}, {"name": "ee4610e2fc8f05c3bc14eaf13dd12963", "fusion_lat": 0.0, "type": "electric_scooter", "lat": 38.9094315, "is_reserved": 0, "is_disabled": 0, "fusion_lon": 0.0, "bike_id": "ee4610e2fc8f05c3bc14eaf13dd12963", "lon": -77.04673183333334, "rental_uris": {"ios": "https://dc.lft.to/lastmile_qr_scan", "android": "https://dc.lft.to/lastmile_qr_scan"}}, {"name": "f7a634ba1b9d2833a3f5d7b04eadaa50", "fusion_lat": 0.0, "type": "electric_scooter", "lat": 38.935742833333336, "is_reserved": 0, "is_disabled": 0, "fusion_lon": 0.0, "bike_id": "f7a634ba1b9d2833a3f5d7b04eadaa50", "lon": -77.02121366666667, "rental_uris": {"ios": "https://dc.lft.to/lastmile_qr_scan", "android": "https://dc.lft.to/lastmile_qr_scan"}}, {"name": "8491b8883e498c7c7f54453088350c4c", "fusion_lat": 0.0, "type": "electric_scooter", "lat": 38.93566033333333, "is_reserved": 0, "is_disabled": 0, "fusion_lon": 0.0, "bike_id": "8491b8883e498c7c7f54453088350c4c", "lon": -77.02136983333334, "rental_uris": {"ios": "https://dc.lft.to/lastmile_qr_scan", "android": "https://dc.lft.to/lastmile_qr_scan"}}, {"name": "7051f4dbb5d9c1dd4bbb356d3f855ad8", "fusion_lat": 0.0, "type": "electric_scooter", "lat": 38.931108, "is_reserved": 0, "is_disabled": 0, "fusion_lon": 0.0, "bike_id": "7051f4dbb5d9c1dd4bbb356d3f855ad8", "lon": -77.0240435, "rental_uris": {"ios": "https://dc.lft.to/lastmile_qr_scan", "android": "https://dc.lft.to/lastmile_qr_scan"}}, {"name": "9ce6e2b628b2f95b1e82eb07584f497d", "fusion_lat": 0.0, "type": "electric_scooter", "lat": 38.909641, "is_reserved": 0, "is_disabled": 0, "fusion_lon": 0.0, "bike_id": "9ce6e2b628b2f95b1e82eb07584f497d", "lon": -77.02688933333333, "rental_uris": {"ios": "https://dc.lft.to/lastmile_qr_scan", "android": "https://dc.lft.to/lastmile_qr_scan"}}, {"name": "2c066f82aa2f71ba3e5afeae441ed88a", "fusion_lat": 0.0, "type": "electric_bike", "lat": 38.89775366666667, "is_reserved": 0, "is_disabled": 0, "fusion_lon": 0.0, "bike_id": "2c066f82aa2f71ba3e5afeae441ed88a", "lon": -76.90443883333333, "rental_uris": {"ios": "https://dc.lft.to/lastmile_qr_scan", "android": "https://dc.lft.to/lastmile_qr_scan"}}, {"name": "2a09ebb97abfe001572dfa2bf1717ed8", "fusion_lat": 0.0, "type": "electric_scooter", "lat": 38.9096465, "is_reserved": 0, "is_disabled": 0, "fusion_lon": 0.0, "bike_id": "2a09ebb97abfe001572dfa2bf1717ed8", "lon": -77.038717, "rental_uris": {"ios": "https://dc.lft.to/lastmile_qr_scan", "android": "https://dc.lft.to/lastmile_qr_scan"}}, {"name": "ab60066d18981120f5c891a3c282e1c8", "fusion_lat": 0.0, "type": "electric_scooter", "lat": 38.896049833333336, "is_reserved": 0, "is_disabled": 0, "fusion_lon": 0.0, "bike_id": "ab60066d18981120f5c891a3c282e1c8", "lon": -77.0507355, "rental_uris": {"ios": "https://dc.lft.to/lastmile_qr_scan", "android": "https://dc.lft.to/lastmile_qr_scan"}}, {"name": "ddcb63e02df2be609fc49983bf36509b", "fusion_lat": 0.0, "type": "electric_scooter", "lat": 38.905058833333335, "is_reserved": 0, "is_disabled": 0, "fusion_lon": 0.0, "bike_id": "ddcb63e02df2be609fc49983bf36509b", "lon": -77.06228283333333, "rental_uris": {"ios": "https://dc.lft.to/lastmile_qr_scan", "android": "https://dc.lft.to/lastmile_qr_scan"}}, {"name": "3d4aaa1c416c0020e6d46e65037459ab", "fusion_lat": 0.0, "type": "electric_bike", "lat": 38.9935025, "is_reserved": 0, "is_disabled": 0, "fusion_lon": 0.0, "bike_id": "3d4aaa1c416c0020e6d46e65037459ab", "lon": -77.02666066666667, "rental_uris": {"ios": "https://dc.lft.to/lastmile_qr_scan", "android": "https://dc.lft.to/lastmile_qr_scan"}}, {"name": "4742f292d6e0e9bfd48b80e3862197ea", "fusion_lat": 0.0, "type": "electric_scooter", "lat": 38.909921, "is_reserved": 0, "is_disabled": 0, "fusion_lon": 0.0, "bike_id": "4742f292d6e0e9bfd48b80e3862197ea", "lon": -77.04873516666666, "rental_uris": {"ios": "https://dc.lft.to/lastmile_qr_scan", "android": "https://dc.lft.to/lastmile_qr_scan"}}, {"name": "efeed0621b39bf0cee1abcd8c776b5ee", "fusion_lat": 0.0, "type": "electric_bike", "lat": 38.84343333333333, "is_reserved": 0, "is_disabled": 0, "fusion_lon": 0.0, "bike_id": "efeed0621b39bf0cee1abcd8c776b5ee", "lon": -77.06345433333334, "rental_uris": {"ios": "https://dc.lft.to/lastmile_qr_scan", "android": "https://dc.lft.to/lastmile_qr_scan"}}, {"name": "42cba1526da04cdc9ad538c8e6177cf1", "fusion_lat": 0.0, "type": "electric_scooter", "lat": 38.9159035, "is_reserved": 0, "is_disabled": 0, "fusion_lon": 0.0, "bike_id": "42cba1526da04cdc9ad538c8e6177cf1", "lon": -77.04348183333333, "rental_uris": {"ios": "https://dc.lft.to/lastmile_qr_scan", "android": "https://dc.lft.to/lastmile_qr_scan"}}, {"name": "2135bf07c150e32e9a2c6761f8516cf4", "fusion_lat": 0.0, "type": "electric_scooter", "lat": 38.89246266666667, "is_reserved": 0, "is_disabled": 0, "fusion_lon": 0.0, "bike_id": "2135bf07c150e32e9a2c6761f8516cf4", "lon": -77.03183733333333, "rental_uris": {"ios": "https://dc.lft.to/lastmile_qr_scan", "android": "https://dc.lft.to/lastmile_qr_scan"}}, {"name": "60bee00f6a9b71156017531fd0a370bd", "fusion_lat": 0.0, "type": "electric_scooter", "lat": 38.930180166666666, "is_reserved": 0, "is_disabled": 0, "fusion_lon": 0.0, "bike_id": "60bee00f6a9b71156017531fd0a370bd", "lon": -77.02325283333333, "rental_uris": {"ios": "https://dc.lft.to/lastmile_qr_scan", "android": "https://dc.lft.to/lastmile_qr_scan"}}, {"name": "2e92cdaec91e4a885b387dfdd9cf9ffa", "fusion_lat": 0.0, "type": "electric_scooter", "lat": 38.90732, "is_reserved": 0, "is_disabled": 0, "fusion_lon": 0.0, "bike_id": "2e92cdaec91e4a885b387dfdd9cf9ffa", "lon": -77.03368933333333, "rental_uris": {"ios": "https://dc.lft.to/lastmile_qr_scan", "android": "https://dc.lft.to/lastmile_qr_scan"}}, {"name": "adf66d0cc3aac3c8a529ab4f8cbf89aa", "fusion_lat": 0.0, "type": "electric_scooter", "lat": 38.901315, "is_reserved": 0, "is_disabled": 0, "fusion_lon": 0.0, "bike_id": "adf66d0cc3aac3c8a529ab4f8cbf89aa", "lon": -77.02381216666667, "rental_uris": {"ios": "https://dc.lft.to/lastmile_qr_scan", "android": "https://dc.lft.to/lastmile_qr_scan"}}, {"name": "a53a170973d2dc9486ccdaaf48f62821", "fusion_lat": 0.0, "type": "electric_scooter", "lat": 38.897316333333336, "is_reserved": 0, "is_disabled": 0, "fusion_lon": 0.0, "bike_id": "a53a170973d2dc9486ccdaaf48f62821", "lon": -77.04336183333334, "rental_uris": {"ios": "https://dc.lft.to/lastmile_qr_scan", "android": "https://dc.lft.to/lastmile_qr_scan"}}, {"name": "ec3ea8eeab4571f3cd79a60ea3bb9586", "fusion_lat": 0.0, "type": "electric_scooter", "lat": 38.924877, "is_reserved": 0, "is_disabled": 0, "fusion_lon": 0.0, "bike_id": "ec3ea8eeab4571f3cd79a60ea3bb9586", "lon": -77.02712733333334, "rental_uris": {"ios": "https://dc.lft.to/lastmile_qr_scan", "android": "https://dc.lft.to/lastmile_qr_scan"}}, {"name": "b83078af1f723c0a90ab391154b0885c", "fusion_lat": 0.0, "type": "electric_scooter", "lat": 38.88894833333333, "is_reserved": 0, "is_disabled": 0, "fusion_lon": 0.0, "bike_id": "b83078af1f723c0a90ab391154b0885c", "lon": -77.03283416666666, "rental_uris": {"ios": "https://dc.lft.to/lastmile_qr_scan", "android": "https://dc.lft.to/lastmile_qr_scan"}}, {"name": "0712d7dda78d1d146aea052633ce4bd1", "fusion_lat": 0.0, "type": "electric_scooter", "lat": 38.9014835, "is_reserved": 0, "is_disabled": 0, "fusion_lon": 0.0, "bike_id": "0712d7dda78d1d146aea052633ce4bd1", "lon": -77.05905866666667, "rental_uris": {"ios": "https://dc.lft.to/lastmile_qr_scan", "android": "https://dc.lft.to/lastmile_qr_scan"}}, {"name": "36833d70f5ad3849a146252e115096ae", "fusion_lat": 0.0, "type": "electric_scooter", "lat": 38.93598883333333, "is_reserved": 0, "is_disabled": 0, "fusion_lon": 0.0, "bike_id": "36833d70f5ad3849a146252e115096ae", "lon": -77.03655866666666, "rental_uris": {"ios": "https://dc.lft.to/lastmile_qr_scan", "android": "https://dc.lft.to/lastmile_qr_scan"}}, {"name": "220016eaac165600dfa14628cdfb14a8", "fusion_lat": 0.0, "type": "electric_scooter", "lat": 38.919205, "is_reserved": 0, "is_disabled": 0, "fusion_lon": 0.0, "bike_id": "220016eaac165600dfa14628cdfb14a8", "lon": -77.03429933333334, "rental_uris": {"ios": "https://dc.lft.to/lastmile_qr_scan", "android": "https://dc.lft.to/lastmile_qr_scan"}}, {"name": "1ea2ccd2f3a20ad5dfbae0fcb17696af", "fusion_lat": 0.0, "type": "electric_scooter", "lat": 38.904643, "is_reserved": 0, "is_disabled": 0, "fusion_lon": 0.0, "bike_id": "1ea2ccd2f3a20ad5dfbae0fcb17696af", "lon": -77.03859533333333, "rental_uris": {"ios": "https://dc.lft.to/lastmile_qr_scan", "android": "https://dc.lft.to/lastmile_qr_scan"}}, {"name": "dd3d1442d427d15d28de4080df3047b4", "fusion_lat": 0.0, "type": "electric_bike", "lat": 38.8319575, "is_reserved": 0, "is_disabled": 0, "fusion_lon": 0.0, "bike_id": "dd3d1442d427d15d28de4080df3047b4", "lon": -77.07686466666667, "rental_uris": {"ios": "https://dc.lft.to/lastmile_qr_scan", "android": "https://dc.lft.to/lastmile_qr_scan"}}, {"name": "85b98806099ed8ac6e08620a3e1e7ca3", "fusion_lat": 0.0, "type": "electric_scooter", "lat": 38.933694833333334, "is_reserved": 0, "is_disabled": 0, "fusion_lon": 0.0, "bike_id": "85b98806099ed8ac6e08620a3e1e7ca3", "lon": -77.03719366666667, "rental_uris": {"ios": "https://dc.lft.to/lastmile_qr_scan", "android": "https://dc.lft.to/lastmile_qr_scan"}}, {"name": "55f8237a3b49314ecb532a26bdae0ab3", "fusion_lat": 0.0, "type": "electric_scooter", "lat": 38.912327833333336, "is_reserved": 0, "is_disabled": 0, "fusion_lon": 0.0, "bike_id": "55f8237a3b49314ecb532a26bdae0ab3", "lon": -77.0384185, "rental_uris": {"ios": "https://dc.lft.to/lastmile_qr_scan", "android": "https://dc.lft.to/lastmile_qr_scan"}}, {"name": "97ffec2c7283b89e935dad1b580fb9c6", "fusion_lat": 0.0, "type": "electric_scooter", "lat": 38.90678966666667, "is_reserved": 0, "is_disabled": 0, "fusion_lon": 0.0, "bike_id": "97ffec2c7283b89e935dad1b580fb9c6", "lon": -76.9781145, "rental_uris": {"ios": "https://dc.lft.to/lastmile_qr_scan", "android": "https://dc.lft.to/lastmile_qr_scan"}}, {"name": "7a18ba265c5f750cd4f748ed42c6b70a", "fusion_lat": 0.0, "type": "electric_scooter", "lat": 38.896140333333335, "is_reserved": 0, "is_disabled": 0, "fusion_lon": 0.0, "bike_id": "7a18ba265c5f750cd4f748ed42c6b70a", "lon": -77.04686816666667, "rental_uris": {"ios": "https://dc.lft.to/lastmile_qr_scan", "android": "https://dc.lft.to/lastmile_qr_scan"}}, {"name": "878cc9eb52e46386d504c95c9b96f11b", "fusion_lat": 0.0, "type": "electric_bike", "lat": 38.955573333333334, "is_reserved": 0, "is_disabled": 0, "fusion_lon": 0.0, "bike_id": "878cc9eb52e46386d504c95c9b96f11b", "lon": -76.93542866666667, "rental_uris": {"ios": "https://dc.lft.to/lastmile_qr_scan", "android": "https://dc.lft.to/lastmile_qr_scan"}}, {"name": "f6eac8fef5a7b8f65ce2c219df6cd629", "fusion_lat": 0.0, "type": "electric_scooter", "lat": 38.9172485, "is_reserved": 0, "is_disabled": 0, "fusion_lon": 0.0, "bike_id": "f6eac8fef5a7b8f65ce2c219df6cd629", "lon": -77.02897116666666, "rental_uris": {"ios": "https://dc.lft.to/lastmile_qr_scan", "android": "https://dc.lft.to/lastmile_qr_scan"}}, {"name": "c8185a1b6d1df7263a16b49bc96d98a8", "fusion_lat": 0.0, "type": "electric_scooter", "lat": 38.90549, "is_reserved": 0, "is_disabled": 0, "fusion_lon": 0.0, "bike_id": "c8185a1b6d1df7263a16b49bc96d98a8", "lon": -77.04754483333333, "rental_uris": {"ios": "https://dc.lft.to/lastmile_qr_scan", "android": "https://dc.lft.to/lastmile_qr_scan"}}, {"name": "aa9a73eefdc7051039464856adca61a7", "fusion_lat": 0.0, "type": "electric_scooter", "lat": 38.905569666666665, "is_reserved": 0, "is_disabled": 0, "fusion_lon": 0.0, "bike_id": "aa9a73eefdc7051039464856adca61a7", "lon": -77.0504955, "rental_uris": {"ios": "https://dc.lft.to/lastmile_qr_scan", "android": "https://dc.lft.to/lastmile_qr_scan"}}, {"name": "5bf93bc822ae65237722d0da1b18f798", "fusion_lat": 0.0, "type": "electric_scooter", "lat": 38.91111466666667, "is_reserved": 0, "is_disabled": 0, "fusion_lon": 0.0, "bike_id": "5bf93bc822ae65237722d0da1b18f798", "lon": -77.04930716666667, "rental_uris": {"ios": "https://dc.lft.to/lastmile_qr_scan", "android": "https://dc.lft.to/lastmile_qr_scan"}}, {"name": "d43ce418a8bae06e7acda46b7584f931", "fusion_lat": 0.0, "type": "electric_bike", "lat": 38.89184433333333, "is_reserved": 0, "is_disabled": 0, "fusion_lon": 0.0, "bike_id": "d43ce418a8bae06e7acda46b7584f931", "lon": -77.12254316666667, "rental_uris": {"ios": "https://dc.lft.to/lastmile_qr_scan", "android": "https://dc.lft.to/lastmile_qr_scan"}}, {"name": "bc3585fe92d7682eb32b3bc47de1f6ae", "fusion_lat": 0.0, "type": "electric_scooter", "lat": 38.9217915, "is_reserved": 0, "is_disabled": 0, "fusion_lon": 0.0, "bike_id": "bc3585fe92d7682eb32b3bc47de1f6ae", "lon": -77.0424975, "rental_uris": {"ios": "https://dc.lft.to/lastmile_qr_scan", "android": "https://dc.lft.to/lastmile_qr_scan"}}, {"name": "3eb93d447616f06e79816df87de25d0b", "fusion_lat": 0.0, "type": "electric_scooter", "lat": 38.91604533333334, "is_reserved": 0, "is_disabled": 0, "fusion_lon": 0.0, "bike_id": "3eb93d447616f06e79816df87de25d0b", "lon": -77.04154316666667, "rental_uris": {"ios": "https://dc.lft.to/lastmile_qr_scan", "android": "https://dc.lft.to/lastmile_qr_scan"}}, {"name": "1491a41bae23c1eb55429d40f2302a09", "fusion_lat": 0.0, "type": "electric_bike", "lat": 38.81521733333334, "is_reserved": 0, "is_disabled": 0, "fusion_lon": 0.0, "bike_id": "1491a41bae23c1eb55429d40f2302a09", "lon": -77.12658066666667, "rental_uris": {"ios": "https://dc.lft.to/lastmile_qr_scan", "android": "https://dc.lft.to/lastmile_qr_scan"}}, {"name": "10bac012b4807d1a47651eb61aa4040b", "fusion_lat": 0.0, "type": "electric_scooter", "lat": 38.90867183333334, "is_reserved": 0, "is_disabled": 0, "fusion_lon": 0.0, "bike_id": "10bac012b4807d1a47651eb61aa4040b", "lon": -76.99958533333333, "rental_uris": {"ios": "https://dc.lft.to/lastmile_qr_scan", "android": "https://dc.lft.to/lastmile_qr_scan"}}, {"name": "773c27b707a29c0931e0c7e97755062c", "fusion_lat": 0.0, "type": "electric_scooter", "lat": 38.931681, "is_reserved": 0, "is_disabled": 0, "fusion_lon": 0.0, "bike_id": "773c27b707a29c0931e0c7e97755062c", "lon": -77.07856633333333, "rental_uris": {"ios": "https://dc.lft.to/lastmile_qr_scan", "android": "https://dc.lft.to/lastmile_qr_scan"}}, {"name": "9ee0b7ccf9dee4997deb9285ef4a65d7", "fusion_lat": 0.0, "type": "electric_scooter", "lat": 38.92006633333333, "is_reserved": 0, "is_disabled": 0, "fusion_lon": 0.0, "bike_id": "9ee0b7ccf9dee4997deb9285ef4a65d7", "lon": -76.98494316666667, "rental_uris": {"ios": "https://dc.lft.to/lastmile_qr_scan", "android": "https://dc.lft.to/lastmile_qr_scan"}}, {"name": "5ba4dc7454e65a4e0834d225f3a01dec", "fusion_lat": 0.0, "type": "electric_scooter", "lat": 38.902465666666664, "is_reserved": 0, "is_disabled": 0, "fusion_lon": 0.0, "bike_id": "5ba4dc7454e65a4e0834d225f3a01dec", "lon": -77.00199716666667, "rental_uris": {"ios": "https://dc.lft.to/lastmile_qr_scan", "android": "https://dc.lft.to/lastmile_qr_scan"}}, {"name": "f71e7199b3ea891d6241664382a2f390", "fusion_lat": 0.0, "type": "electric_scooter", "lat": 38.92543666666667, "is_reserved": 0, "is_disabled": 0, "fusion_lon": 0.0, "bike_id": "f71e7199b3ea891d6241664382a2f390", "lon": -77.026332, "rental_uris": {"ios": "https://dc.lft.to/lastmile_qr_scan", "android": "https://dc.lft.to/lastmile_qr_scan"}}, {"name": "e09f22b3dd077322c14967891525d033", "fusion_lat": 0.0, "type": "electric_scooter", "lat": 38.91616366666667, "is_reserved": 0, "is_disabled": 0, "fusion_lon": 0.0, "bike_id": "e09f22b3dd077322c14967891525d033", "lon": -77.022815, "rental_uris": {"ios": "https://dc.lft.to/lastmile_qr_scan", "android": "https://dc.lft.to/lastmile_qr_scan"}}, {"name": "d7b71896cd96ef0304bc7cf1ac1e520d", "fusion_lat": 0.0, "type": "electric_scooter", "lat": 38.90579833333334, "is_reserved": 0, "is_disabled": 0, "fusion_lon": 0.0, "bike_id": "d7b71896cd96ef0304bc7cf1ac1e520d", "lon": -77.03265216666667, "rental_uris": {"ios": "https://dc.lft.to/lastmile_qr_scan", "android": "https://dc.lft.to/lastmile_qr_scan"}}, {"name": "60e106b124cc99568a871beb25e5bc8c", "fusion_lat": 0.0, "type": "electric_scooter", "lat": 38.93775383333333, "is_reserved": 0, "is_disabled": 0, "fusion_lon": 0.0, "bike_id": "60e106b124cc99568a871beb25e5bc8c", "lon": -77.0326175, "rental_uris": {"ios": "https://dc.lft.to/lastmile_qr_scan", "android": "https://dc.lft.to/lastmile_qr_scan"}}, {"name": "165f51ec679696d4a173f12d518a140b", "fusion_lat": 0.0, "type": "electric_scooter", "lat": 38.922469166666666, "is_reserved": 0, "is_disabled": 0, "fusion_lon": 0.0, "bike_id": "165f51ec679696d4a173f12d518a140b", "lon": -77.03895233333333, "rental_uris": {"ios": "https://dc.lft.to/lastmile_qr_scan", "android": "https://dc.lft.to/lastmile_qr_scan"}}, {"name": "2e32e93e03937d5b593af632e8d491b1", "fusion_lat": 0.0, "type": "electric_scooter", "lat": 38.92346283333333, "is_reserved": 0, "is_disabled": 0, "fusion_lon": 0.0, "bike_id": "2e32e93e03937d5b593af632e8d491b1", "lon": -77.05098033333333, "rental_uris": {"ios": "https://dc.lft.to/lastmile_qr_scan", "android": "https://dc.lft.to/lastmile_qr_scan"}}, {"name": "72418629c12be24e5f3755b332740609", "fusion_lat": 0.0, "type": "electric_scooter", "lat": 38.91365566666666, "is_reserved": 0, "is_disabled": 0, "fusion_lon": 0.0, "bike_id": "72418629c12be24e5f3755b332740609", "lon": -77.04548566666666, "rental_uris": {"ios": "https://dc.lft.to/lastmile_qr_scan", "android": "https://dc.lft.to/lastmile_qr_scan"}}, {"name": "8b77ba3b7305272e713fe25dd41f8776", "fusion_lat": 0.0, "type": "electric_scooter", "lat": 38.961808, "is_reserved": 0, "is_disabled": 0, "fusion_lon": 0.0, "bike_id": "8b77ba3b7305272e713fe25dd41f8776", "lon": -77.03226916666667, "rental_uris": {"ios": "https://dc.lft.to/lastmile_qr_scan", "android": "https://dc.lft.to/lastmile_qr_scan"}},