{"data": {"bikes": [{"is_disabled": 0, "is_reserved": 0, "fusion_lat": 0.0, "lat": 38.917094, "fusion_lon": 0.0, "rental_uris": {"ios": "https://dc.lft.to/lastmile_qr_scan", "android": "https://dc.lft.to/lastmile_qr_scan"}, "lon": -77.03866066666667, "bike_id": "3f81e24f818cef6c16fb41bffa0ea70c", "type": "electric_scooter", "name": "3f81e24f818cef6c16fb41bffa0ea70c"}, {"is_disabled": 0, "is_reserved": 0, "fusion_lat": 0.0, "lat": 38.879553666666666, "fusion_lon": 0.0, "rental_uris": {"ios": "https://dc.lft.to/lastmile_qr_scan", "android": "https://dc.lft.to/lastmile_qr_scan"}, "lon": -77.004902, "bike_id": "719a908f3c73d2e4b45f588d8b4be66b", "type": "electric_scooter", "name": "719a908f3c73d2e4b45f588d8b4be66b"}, {"is_disabled": 0, "is_reserved": 0, "fusion_lat": 0.0, "lat": 38.915559, "fusion_lon": 0.0, "rental_uris": {"ios": "https://dc.lft.to/lastmile_qr_scan", "android": "https://dc.lft.to/lastmile_qr_scan"}, "lon": -77.05102383333333, "bike_id": "365957c6289fa0e4b49811a59e6dfae3", "type": "electric_scooter", "name": "365957c6289fa0e4b49811a59e6dfae3"}, {"is_disabled": 0, "is_reserved": 0, "fusion_lat": 0.0, "lat": 38.9256715, "fusion_lon": 0.0, "rental_uris": {"ios": "https://dc.lft.to/lastmile_qr_scan", "android": "https://dc.lft.to/lastmile_qr_scan"}, "lon": -77.03781516666666, "bike_id": "b983f51efb604902250a0e8533f24a05", "type": "electric_scooter", "name": "b983f51efb604902250a0e8533f24a05"}, {"is_disabled": 0, "is_reserved": 0, "fusion_lat": 0.0, "lat": 38.846751, "fusion_lon": 0.0, "rental_uris": {"ios": "https://dc.lft.to/lastmile_qr_scan", "android": "https://dc.lft.to/lastmile_qr_scan"}, "lon": -77.13933566666667, "bike_id": "82b73212d060aa6a469fc052bdd781f5", "type": "electric_bike", "name": "82b73212d060aa6a469fc052bdd781f5"}, {"is_disabled": 0, "is_reserved": 0, "fusion_lat": 0.0, "lat": 38.91604916666667, "fusion_lon": 0.0, "rental_uris": {"ios": "https://dc.lft.to/lastmile_qr_scan", "android": "https://dc.lft.to/lastmile_qr_scan"}, "lon": -77.0434485, "bike_id": "3045507644029d64390b66755ec7b887", "type": "electric_scooter", "name": "3045507644029d64390b66755ec7b887"}, {"is_disabled": 0, "is_reserved": 0, "fusion_lat": 0.0, "lat": 38.885417833333335, "fusion_lon": 0.0, "rental_uris": {"ios": "https://dc.lft.to/lastmile_qr_scan", "android": "https://dc.lft.to/lastmile_qr_scan"}, "lon": -76.92371566666667, "bike_id": "0c2d0d25f311cd8a5f614f2ddba0166a", "type": "electric_scooter", "name": "0c2d0d25f311cd8a5f614f2ddba0166a"}, {"is_disabled": 0, "is_reserved": 0, "fusion_lat": 0.0, "lat": 38.913404666666665, "fusion_lon": 0.0, "rental_uris": {"ios": "https://dc.lft.to/lastmile_qr_scan", "android": "https://dc.lft.to/lastmile_qr_scan"}, "lon": -77.01618516666667, "bike_id": "8891c060d536d81090ea56a941fd3722", "type": "electric_scooter", "name": "8891c060d536d81090ea56a941fd3722"}, {"is_disabled": 0, "is_reserved": 0, "fusion_lat": 0.0, "lat": 38.885303666666665, "fusion_lon": 0.0, "rental_uris": {"ios": "https://dc.lft.to/lastmile_qr_scan", "android": "https://dc.lft.to/lastmile_qr_scan"}, "lon": -76.98053416666667, "bike_id": "dc84f168c4e656796cad6a2e2ceef9ee", "type": "electric_scooter", "name": "dc84f168c4e656796cad6a2e2ceef9ee"}, {"is_disabled": 0, "is_reserved": 0, "fusion_lat": 0.0, "lat": 38.89430516666667, "fusion_lon": 0.0, "rental_uris": {"ios": "https://dc.lft.to/lastmile_qr_scan", "android": "https://dc.lft.to/lastmile_qr_scan"}, "lon": -77.01085816666667, "bike_id": "29637c9a08254d9e54da34a6c4a6082f", "type": "electric_scooter", "name": "29637c9a08254d9e54da34a6c4a6082f"}, {"is_disabled": 0, "is_reserved": 0, "fusion_lat": 0.0, "lat": 38.95690483333333, "fusion_lon": 0.0, "rental_uris": {"ios": "https://dc.lft.to/lastmile_qr_scan", "android": "https://dc.lft.to/lastmile_qr_scan"}, "lon": -77.02228116666667, "bike_id": "37fedc2aca306a887de862b900e9c497", "type": "electric_scooter", "name": "37fedc2aca306a887de862b900e9c497"}, {"is_disabled": 0, "is_reserved": 0, "fusion_lat": 0.0, "lat": 38.957548, "fusion_lon": 0.0, "rental_uris": {"ios": "https://dc.lft.to/lastmile_qr_scan", "android": "https://dc.lft.to/lastmile_qr_scan"}, "lon": -77.02207466666667, "bike_id": "c33696ec3f82cccf0087ed4cba7fb659", "type": "electric_scooter", "name": "c33696ec3f82cccf0087ed4cba7fb659"}, {"is_disabled": 0, "is_reserved": 0, "fusion_lat": 0.0, "lat": 38.92205283333333, "fusion_lon": 0.0, "rental_uris": {"ios": "https://dc.lft.to/lastmile_qr_scan", "android": "https://dc.lft.to/lastmile_qr_scan"}, "lon": -77.08193233333333, "bike_id": "06fdfc526b53f7ff438d478c1832b7ee", "type": "electric_bike", "name": "06fdfc526b53f7ff438d478c1832b7ee"}, {"is_disabled": 0, "is_reserved": 0, "fusion_lat": 0.0, "lat": 38.896225333333334, "fusion_lon": 0.0, "rental_uris": {"ios": "https://dc.lft.to/lastmile_qr_scan", "android": "https://dc.lft.to/lastmile_qr_scan"}, "lon": -76.907545, "bike_id": "7e6783111d37b74306ca29f97df6737a", "type": "electric_bike", "name": "7e6783111d37b74306ca29f97df6737a"}, {"is_disabled": 0, "is_reserved": 0, "fusion_lat": 0.0, "lat": 38.87494516666667, "fusion_lon": 0.0, "rental_uris": {"ios": "https://dc.lft.to/lastmile_qr_scan", "android": "https://dc.lft.to/lastmile_qr_scan"}, "lon": -77.00079366666667, "bike_id": "aebf395ac07a20bbb7e28e7795b0f837", "type": "electric_scooter", "name": "aebf395ac07a20bbb7e28e7795b0f837"}, {"is_disabled": 0, "is_reserved": 0, "fusion_lat": 0.0, "lat": 38.9230015, "fusion_lon": 0.0, "rental_uris": {"ios": "https://dc.lft.to/lastmile_qr_scan", "android": "https://dc.lft.to/lastmile_qr_scan"}, "lon": -77.029884, "bike_id": "cac7c00227401f75cbd7b94c9a704bc9", "type": "electric_scooter", "name": "cac7c00227401f75cbd7b94c9a704bc9"}, {"is_disabled": 0, "is_reserved": 0, "fusion_lat": 0.0, "lat": 38.905739, "fusion_lon": 0.0, "rental_uris": {"ios": "https://dc.lft.to/lastmile_qr_scan", "android": "https://dc.lft.to/lastmile_qr_scan"}, "lon": -77.02021933333333, "bike_id": "06116e2ff591f4348f08e7de5718e18d", "type": "electric_scooter", "name": "06116e2ff591f4348f08e7de5718e18d"}, {"is_disabled": 0, "is_reserved": 0, "fusion_lat": 0.0, "lat": 38.89475233333334, "fusion_lon": 0.0, "rental_uris": {"ios": "https://dc.lft.to/lastmile_qr_scan", "android": "https://dc.lft.to/lastmile_qr_scan"}, "lon": -77.0109815, "bike_id": "9125da464fefa6efe526a462bdef3c6d", "type": "electric_scooter", "name": "9125da464fefa6efe526a462bdef3c6d"}, {"is_disabled": 0, "is_reserved": 0, "fusion_lat": 0.0, "lat": 38.913597, "fusion_lon": 0.0, "rental_uris": {"ios": "https://dc.lft.to/lastmile_qr_scan", "android": "https://dc.lft.to/lastmile_qr_scan"}, "lon": -77.046546, "bike_id": "4fd2b3d7ac2472a867b3e6b041a39a61", "type": "electric_scooter", "name": "4fd2b3d7ac2472a867b3e6b041a39a61"}, {"is_disabled": 0, "is_reserved": 0, "fusion_lat": 0.0, "lat": 38.902549666666665, "fusion_lon": 0.0, "rental_uris": {"ios": "https://dc.lft.to/lastmile_qr_scan", "android": "https://dc.lft.to/lastmile_qr_scan"}, "lon": -77.03847083333334, "bike_id": "f6686b08bbdaaf5c9527502f55cfa963", "type": "electric_scooter", "name": "f6686b08bbdaaf5c9527502f55cfa963"}, {"is_disabled": 0, "is_reserved": 0, "fusion_lat": 0.0, "lat": 38.85946066666666, "fusion_lon": 0.0, "rental_uris": {"ios": "https://dc.lft.to/lastmile_qr_scan", "android": "https://dc.lft.to/lastmile_qr_scan"}, "lon": -77.09426866666666, "bike_id": "be0c5e2f682c4419bfa4b4b107a0da4b", "type": "electric_bike", "name": "be0c5e2f682c4419bfa4b4b107a0da4b"}, {"is_disabled": 0, "is_reserved": 0, "fusion_lat": 0.0, "lat": 38.906465, "fusion_lon": 0.0, "rental_uris": {"ios": "https://dc.lft.to/lastmile_qr_scan", "android": "https://dc.lft.to/lastmile_qr_scan"}, "lon": -77.00589416666666, "bike_id": "12ad1b4cbee1994f4e2e5ce68796789d", "type": "electric_scooter", "name": "12ad1b4cbee1994f4e2e5ce68796789d"}, {"is_disabled": 0, "is_reserved": 0, "fusion_lat": 0.0, "lat": 38.9354165, "fusion_lon": 0.0, "rental_uris": {"ios": "https://dc.lft.to/lastmile_qr_scan", "android": "https://dc.lft.to/lastmile_qr_scan"}, "lon": -77.05458233333333, "bike_id": "db327369f37a8d67b3228ae7e799305b", "type": "electric_scooter", "name": "db327369f37a8d67b3228ae7e799305b"}, {"is_disabled": 0, "is_reserved": 0, "fusion_lat": 0.0, "lat": 38.92351716666667, "fusion_lon": 0.0, "rental_uris": {"ios": "https://dc.lft.to/lastmile_qr_scan", "android": "https://dc.lft.to/lastmile_qr_scan"}, "lon": -77.03310533333334, "bike_id": "aa927f9c8839e5d4890cf025f128dd09", "type": "electric_scooter", "name": "aa927f9c8839e5d4890cf025f128dd09"}, {"is_disabled": 0, "is_reserved": 0, "fusion_lat": 0.0, "lat": 38.95730366666667, "fusion_lon": 0.0, "rental_uris": {"ios": "https://dc.lft.to/lastmile_qr_scan", "android": "https://dc.lft.to/lastmile_qr_scan"}, "lon": -77.0256935, "bike_id": "dbaa026ec8149fd72928e7bc07de4966", "type": "electric_scooter", "name": "dbaa026ec8149fd72928e7bc07de4966"}, {"is_disabled": 0, "is_reserved": 0, "fusion_lat": 0.0, "lat": 38.8709875, "fusion_lon": 0.0, "rental_uris": {"ios": "https://dc.lft.to/lastmile_qr_scan", "android": "https://dc.lft.to/lastmile_qr_scan"}, "lon": -77.01202216666667, "bike_id": "f9f36b533f3a8af58402b89751d4ed7e", "type": "electric_scooter", "name": "f9f36b533f3a8af58402b89751d4ed7e"}, {"is_disabled": 0, "is_reserved": 0, "fusion_lat": 0.0, "lat": 38.920905, "fusion_lon": 0.0, "rental_uris": {"ios": "https://dc.lft.to/lastmile_qr_scan", "android": "https://dc.lft.to/lastmile_qr_scan"}, "lon": -77.0175235, "bike_id": "bd003a34be226f4091f4e69b541c24ca", "type": "electric_scooter", "name": "bd003a34be226f4091f4e69b541c24ca"}, {"is_disabled": 0, "is_reserved": 0, "fusion_lat": 0.0, "lat": 38.8849875, "fusion_lon": 0.0, "rental_uris": {"ios": "https://dc.lft.to/lastmile_qr_scan", "android": "https://dc.lft.to/lastmile_qr_scan"}, "lon": -77.02377033333333, "bike_id": "77a4934acbfbd05023da05ad91bfd1c6", "type": "electric_scooter", "name": "77a4934acbfbd05023da05ad91bfd1c6"}, {"is_disabled": 0, "is_reserved": 0, "fusion_lat": 0.0, "lat": 38.9484855, "fusion_lon": 0.0, "rental_uris": {"ios": "https://dc.lft.to/lastmile_qr_scan", "android": "https://dc.lft.to/lastmile_qr_scan"}, "lon": -77.02113766666666, "bike_id": "43e5a41d9a6b6b45723613d82cc945c6", "type": "electric_scooter", "name": "43e5a41d9a6b6b45723613d82cc945c6"}, {"is_disabled": 0, "is_reserved": 0, "fusion_lat": 0.0, "lat": 38.955830666666664, "fusion_lon": 0.0, "rental_uris": {"ios": "https://dc.lft.to/lastmile_qr_scan", "android": "https://dc.lft.to/lastmile_qr_scan"}, "lon": -77.02811, "bike_id": "00ca75c5e81d4312ed0c9691396da8fd", "type": "electric_scooter", "name": "00ca75c5e81d4312ed0c9691396da8fd"}, {"is_disabled": 0, "is_reserved": 0, "fusion_lat": 0.0, "lat": 38.88964083333333, "fusion_lon": 0.0, "rental_uris": {"ios": "https://dc.lft.to/lastmile_qr_scan", "android": "https://dc.lft.to/lastmile_qr_scan"}, "lon": -77.07593083333333, "bike_id": "f63fb7b15185d37efade9b071eea2c0f", "type": "electric_bike", "name": "f63fb7b15185d37efade9b071eea2c0f"}, {"is_disabled": 0, "is_reserved": 0, "fusion_lat": 0.0, "lat": 38.897470166666665, "fusion_lon": 0.0, "rental_uris": {"ios": "https://dc.lft.to/lastmile_qr_scan", "android": "https://dc.lft.to/lastmile_qr_scan"}, "lon": -77.03337966666666, "bike_id": "8284adcb4dd6347d5d5d9dd344629fa5", "type": "electric_scooter", "name": "8284adcb4dd6347d5d5d9dd344629fa5"}, {"is_disabled": 0, "is_reserved": 0, "fusion_lat": 0.0, "lat": 38.9648275, "fusion_lon": 0.0, "rental_uris": {"ios": "https://dc.lft.to/lastmile_qr_scan", "android": "https://dc.lft.to/lastmile_qr_scan"}, "lon": -77.03165483333333, "bike_id": "5dabde0fa35c07a99e167b3b960cb520", "type": "electric_bike", "name": "5dabde0fa35c07a99e167b3b960cb520"}, {"is_disabled": 0, "is_reserved": 0, "fusion_lat": 0.0, "lat": 38.929104333333335, "fusion_lon": 0.0, "rental_uris": {"ios": "https://dc.lft.to/lastmile_qr_scan", "android": "https://dc.lft.to/lastmile_qr_scan"}, "lon": -77.032117, "bike_id": "e666653dc5a9ffae1176d0a3e314e6a6", "type": "electric_scooter", "name": "e666653dc5a9ffae1176d0a3e314e6a6"}, {"is_disabled": 0, "is_reserved": 0, "fusion_lat": 0.0, "lat": 38.9235545, "fusion_lon": 0.0, "rental_uris": {"ios": "https://dc.lft.to/lastmile_qr_scan", "android": "https://dc.lft.to/lastmile_qr_scan"}, "lon": -77.03369116666667, "bike_id": "9d10e57920321b7c59530ab155c3af94", "type": "electric_scooter", "name": "9d10e57920321b7c59530ab155c3af94"}, {"is_disabled": 0, "is_reserved": 0, "fusion_lat": 0.0, "lat": 38.899701666666665, "fusion_lon": 0.0, "rental_uris": {"ios": "https://dc.lft.to/lastmile_qr_scan", "android": "https://dc.lft.to/lastmile_qr_scan"}, "lon": -76.937614, "bike_id": "b96c9adaca7800e538ffb3ab14793bb0", "type": "electric_scooter", "name": "b96c9adaca7800e538ffb3ab14793bb0"}, {"is_disabled": 0, "is_reserved": 0, "fusion_lat": 0.0, "lat": 38.91424633333333, "fusion_lon": 0.0, "rental_uris": {"ios": "https://dc.lft.to/lastmile_qr_scan", "android": "https://dc.lft.to/lastmile_qr_scan"}, "lon": -77.03805133333333, "bike_id": "1fb154472882fbbb8cb43ca53495e002", "type": "electric_scooter", "name": "1fb154472882fbbb8cb43ca53495e002"}, {"is_disabled": 0, "is_reserved": 0, "fusion_lat": 0.0, "lat": 38.90906016666667, "fusion_lon": 0.0, "rental_uris": {"ios": "https://dc.lft.to/lastmile_qr_scan", "android": "https://dc.lft.to/lastmile_qr_scan"}, "lon": -77.03396283333333, "bike_id": "c5a45e5d36309558100ef95f832d48d1", "type": "electric_scooter", "name": "c5a45e5d36309558100ef95f832d48d1"}, {"is_disabled": 0, "is_reserved": 0, "fusion_lat": 0.0, "lat": 38.923748333333336, "fusion_lon": 0.0, "rental_uris": {"ios": "https://dc.lft.to/lastmile_qr_scan", "android": "https://dc.lft.to/lastmile_qr_scan"}, "lon": -77.01912516666667, "bike_id": "1cb115b69276ce43e5ffaeea48d276c6", "type": "electric_scooter", "name": "1cb115b69276ce43e5ffaeea48d276c6"}, {"is_disabled": 0, "is_reserved": 0, "fusion_lat": 0.0, "lat": 38.903522, "fusion_lon": 0.0, "rental_uris": {"ios": "https://dc.lft.to/lastmile_qr_scan", "android": "https://dc.lft.to/lastmile_qr_scan"}, "lon": -76.982753, "bike_id": "17a17874d131ada6e2b91e8250091b83", "type": "electric_scooter", "name": "17a17874d131ada6e2b91e8250091b83"}, {"is_disabled": 0, "is_reserved": 0, "fusion_lat": 0.0, "lat": 38.907864000000004, "fusion_lon": 0.0, "rental_uris": {"ios": "https://dc.lft.to/lastmile_qr_scan", "android": "https://dc.lft.to/lastmile_qr_scan"}, "lon": -77.04483716666667, "bike_id": "4cd1d023aab2ebb9c2de0cb7a4dd4789", "type": "electric_scooter", "name": "4cd1d023aab2ebb9c2de0cb7a4dd4789"}, {"is_disabled": 0, "is_reserved": 0, "fusion_lat": 0.0, "lat": 38.884420166666665, "fusion_lon": 0.0, "rental_uris": {"ios": "https://dc.lft.to/lastmile_qr_scan", "android": "https://dc.lft.to/lastmile_qr_scan"}, "lon": -76.93545066666667, "bike_id": "4e76a29fd4db7ded08a7cb298fbb778f", "type": "electric_scooter", "name": "4e76a29fd4db7ded08a7cb298fbb778f"}, {"is_disabled": 0, "is_reserved": 0, "fusion_lat": 0.0, "lat": 38.92387633333333, "fusion_lon": 0.0, "rental_uris": {"ios": "https://dc.lft.to/lastmile_qr_scan", "android": "https://dc.lft.to/lastmile_qr_scan"}, "lon": -77.03128666666667, "bike_id": "9caf46e1aa5e3266a15b97a9a1bcc615", "type": "electric_scooter", "name": "9caf46e1aa5e3266a15b97a9a1bcc615"}, {"is_disabled": 0, "is_reserved": 0, "fusion_lat": 0.0, "lat": 38.88295683333333, "fusion_lon": 0.0, "rental_uris": {"ios": "https://dc.lft.to/lastmile_qr_scan", "android": "https://dc.lft.to/lastmile_qr_scan"}, "lon": -76.9319985, "bike_id": "0b7b8fac915db7bb605920e71ea05ee2", "type": "electric_scooter", "name": "0b7b8fac915db7bb605920e71ea05ee2"}, {"is_disabled": 0, "is_reserved": 0, "fusion_lat": 0.0, "lat": 38.83048266666667, "fusion_lon": 0.0, "rental_uris": {"ios": "https://dc.lft.to/lastmile_qr_scan", "android": "https://dc.lft.to/lastmile_qr_scan"}, "lon": -77.008224, "bike_id": "5fa524922762b3194a486d23ae044ebd", "type": "electric_bike", "name": "5fa524922762b3194a486d23ae044ebd"}, {"is_disabled": 0, "is_reserved": 0, "fusion_lat": 0.0, "lat": 38.90009583333333, "fusion_lon": 0.0, "rental_uris": {"ios": "https://dc.lft.to/lastmile_qr_scan", "android": "https://dc.lft.to/lastmile_qr_scan"}, "lon": -77.00110933333333, "bike_id": "45b50c83858b29c58990711ac31198eb", "type": "electric_scooter", "name": "45b50c83858b29c58990711ac31198eb"}, {"is_disabled": 0, "is_reserved": 0, "fusion_lat": 0.0, "lat": 38.876779166666665, "fusion_lon": 0.0, "rental_uris": {"ios": "https://dc.lft.to/lastmile_qr_scan", "android": "https://dc.lft.to/lastmile_qr_scan"}, "lon": -77.00084266666667, "bike_id": "ebbf8db0123297eab7b6ac7aa511f3a1", "type": "electric_scooter", "name": "ebbf8db0123297eab7b6ac7aa511f3a1"}, {"is_disabled": 0, "is_reserved": 0, "fusion_lat": 0.0, "lat": 38.9047435, "fusion_lon": 0.0, "rental_uris": {"ios": "https://dc.lft.to/lastmile_qr_scan", "android": "https://dc.lft.to/lastmile_qr_scan"}, "lon": -77.00877733333333, "bike_id": "75c4d5be88423ed4c5e6e32703e91bdc", "type": "electric_scooter", "name": "75c4d5be88423ed4c5e6e32703e91bdc"}, {"is_disabled": 0, "is_reserved": 0, "fusion_lat": 0.0, "lat": 38.84578333333333, "fusion_lon": 0.0, "rental_uris": {"ios": "https://dc.lft.to/lastmile_qr_scan", "android": "https://dc.lft.to/lastmile_qr_scan"}, "lon": -77.0745785, "bike_id": "dfb99b04bb355121dad05ade5c27cfc1", "type": "electric_bike", "name": "dfb99b04bb355121dad05ade5c27cfc1"}, {"is_disabled": 0, "is_reserved": 0, "fusion_lat": 0.0, "lat": 38.9043755, "fusion_lon": 0.0, "rental_uris": {"ios": "https://dc.lft.to/lastmile_qr_scan", "android": "https://dc.lft.to/lastmile_qr_scan"}, "lon": -76.9722035, "bike_id": "a3b5b9c1a6c2dce929a195641dee1bc7", "type": "electric_bike", "name": "a3b5b9c1a6c2dce929a195641dee1bc7"}, {"is_disabled": 0, "is_reserved": 0, "fusion_lat": 0.0, "lat": 38.83299983333333, "fusion_lon": 0.0, "rental_uris": {"ios": "https://dc.lft.to/lastmile_qr_scan", "android": "https://dc.lft.to/lastmile_qr_scan"}, "lon": -77.0841165, "bike_id": "39abeae2d83410dfed0a7431bfd9441f", "type": "electric_bike", "name": "39abeae2d83410dfed0a7431bfd9441f"}, {"is_disabled": 0, "is_reserved": 0, "fusion_lat": 0.0, "lat": 38.9422785, "fusion_lon": 0.0, "rental_uris": {"ios": "https://dc.lft.to/lastmile_qr_scan", "android": "https://dc.lft.to/lastmile_qr_scan"}, "lon": -77.01437983333334, "bike_id": "e3872775da5c8b88f382502f96d4eaaf", "type": "electric_scooter", "name": "e3872775da5c8b88f382502f96d4eaaf"}, {"is_disabled": 0, "is_reserved": 0, "fusion_lat": 0.0, "lat": 38.936519833333335, "fusion_lon": 0.0, "rental_uris": {"ios": "https://dc.lft.to/lastmile_qr_scan", "android": "https://dc.lft.to/lastmile_qr_scan"}, "lon": -77.03674333333333, "bike_id": "2283685a366b664c5fb61bec383de32e", "type": "electric_scooter", "name": "2283685a366b664c5fb61bec383de32e"}, {"is_disabled": 0, "is_reserved": 0, "fusion_lat": 0.0, "lat": 38.898413, "fusion_lon": 0.0, "rental_uris": {"ios": "https://dc.lft.to/lastmile_qr_scan", "android": "https://dc.lft.to/lastmile_qr_scan"}, "lon": -76.9274755, "bike_id": "c7f9c4403463e4f83eec87c190effba3", "type": "electric_scooter", "name": "c7f9c4403463e4f83eec87c190effba3"}, {"is_disabled": 0, "is_reserved": 0, "fusion_lat": 0.0, "lat": 38.9311835, "fusion_lon": 0.0, "rental_uris": {"ios": "https://dc.lft.to/lastmile_qr_scan", "android": "https://dc.lft.to/lastmile_qr_scan"}, "lon": -77.02125433333333, "bike_id": "0b21fb105125c3b7b082caf84f10cece", "type": "electric_scooter", "name": "0b21fb105125c3b7b082caf84f10cece"}, {"is_disabled": 0, "is_reserved": 0, "fusion_lat": 0.0, "lat": 38.890569666666664, "fusion_lon": 0.0, "rental_uris": {"ios": "https://dc.lft.to/lastmile_qr_scan", "android": "https://dc.lft.to/lastmile_qr_scan"}, "lon": -77.02665516666667, "bike_id": "3dce3fa15a56e88a135b9f21144d3bd9", "type": "electric_bike", "name": "3dce3fa15a56e88a135b9f21144d3bd9"}, {"is_disabled": 0, "is_reserved": 0, "fusion_lat": 0.0, "lat": 38.9187965, "fusion_lon": 0.0, "rental_uris": {"ios": "https://dc.lft.to/lastmile_qr_scan", "android": "https://dc.lft.to/lastmile_qr_scan"}, "lon": -77.03667533333333, "bike_id": "b8b3fcbe88ada7739b40eca35244a738", "type": "electric_scooter", "name": "b8b3fcbe88ada7739b40eca35244a738"}, {"is_disabled": 0, "is_reserved": 0, "fusion_lat": 0.0, "lat": 38.90718433333333, "fusion_lon": 0.0, "rental_uris": {"ios": "https://dc.lft.to/lastmile_qr_scan", "android": "https://dc.lft.to/lastmile_qr_scan"}, "lon": -77.04643816666666, "bike_id": "58386a2973af50127249433aec941c55", "type": "electric_scooter", "name": "58386a2973af50127249433aec941c55"}, {"is_disabled": 0, "is_reserved": 0, "fusion_lat": 0.0, "lat": 38.904432166666666, "fusion_lon": 0.0, "rental_uris": {"ios": "https://dc.lft.to/lastmile_qr_scan", "android": "https://dc.lft.to/lastmile_qr_scan"}, "lon": -77.0284285, "bike_id": "0ea4d77afaafcd7992e2acaea64de4ff", "type": "electric_scooter", "name": "0ea4d77afaafcd7992e2acaea64de4ff"}, {"is_disabled": 0, "is_reserved": 0, "fusion_lat": 0.0, "lat": 38.88122416666667, "fusion_lon": 0.0, "rental_uris": {"ios": "https://dc.lft.to/lastmile_qr_scan", "android": "https://dc.lft.to/lastmile_qr_scan"}, "lon": -76.992827, "bike_id": "bdafb96cfa41f2b9982c4f79b3fa0200", "type": "electric_scooter", "name": "bdafb96cfa41f2b9982c4f79b3fa0200"}, {"is_disabled": 0, "is_reserved": 0, "fusion_lat": 0.0, "lat": 38.87856166666667, "fusion_lon": 0.0, "rental_uris": {"ios": "https://dc.lft.to/lastmile_qr_scan", "android": "https://dc.lft.to/lastmile_qr_scan"}, "lon": -77.005596, "bike_id": "62228d65d4d3af6387911b2ba25d9dd0", "type": "electric_scooter", "name": "62228d65d4d3af6387911b2ba25d9dd0"}, {"is_disabled": 0, "is_reserved": 0, "fusion_lat": 0.0, "lat": 38.944936166666665, "fusion_lon": 0.0, "rental_uris": {"ios": "https://dc.lft.to/lastmile_qr_scan", "android": "https://dc.lft.to/lastmile_qr_scan"}, "lon": -77.00742816666667, "bike_id": "762ba02d044b96edc5f56148986d0bed", "type": "electric_bike", "name": "762ba02d044b96edc5f56148986d0bed"}, {"is_disabled": 0, "is_reserved": 0, "fusion_lat": 0.0, "lat": 38.9033325, "fusion_lon": 0.0, "rental_uris": {"ios": "https://dc.lft.to/lastmile_qr_scan", "android": "https://dc.lft.to/lastmile_qr_scan"}, "lon": -77.01958716666667, "bike_id": "7555488c7159343ffd510fd729d9c0de", "type": "electric_scooter", "name": "7555488c7159343ffd510fd729d9c0de"}, {"is_disabled": 0, "is_reserved": 0, "fusion_lat": 0.0, "lat": 38.967943, "fusion_lon": 0.0, "rental_uris": {"ios": "https://dc.lft.to/lastmile_qr_scan", "android": "https://dc.lft.to/lastmile_qr_scan"}, "lon": -77.02429933333333, "bike_id": "e1202b3b0bc2dea6a5191d3b93e9b5c3", "type": "electric_scooter", "name": "e1202b3b0bc2dea6a5191d3b93e9b5c3"}, {"is_disabled": 0, "is_reserved": 0, "fusion_lat": 0.0, "lat": 38.80524066666667, "fusion_lon": 0.0, "rental_uris": {"ios": "https://dc.lft.to/lastmile_qr_scan", "android": "https://dc.lft.to/lastmile_qr_scan"}, "lon": -77.04335066666667, "bike_id": "23bbbbf2f879d38b3ff3451d3d536728", "type": "electric_bike", "name": "23bbbbf2f879d38b3ff3451d3d536728"}, {"is_disabled": 0, "is_reserved": 0, "fusion_lat": 0.0, "lat": 38.908547, "fusion_lon": 0.0, "rental_uris": {"ios": "https://dc.lft.to/lastmile_qr_scan", "android": "https://dc.lft.to/lastmile_qr_scan"}, "lon": -77.00415133333334, "bike_id": "37dcb379f20fa5118c95c602375ca9e4", "type": "electric_scooter", "name": "37dcb379f20fa5118c95c602375ca9e4"}, {"is_disabled": 0, "is_reserved": 0, "fusion_lat": 0.0, "lat": 38.908444833333334, "fusion_lon": 0.0, "rental_uris": {"ios": "https://dc.lft.to/lastmile_qr_scan", "android": "https://dc.lft.to/lastmile_qr_scan"}, "lon": -76.93446633333333, "bike_id": "85144fa3d7f4cbdc0df3e0708827f67d", "type": "electric_scooter", "name": "85144fa3d7f4cbdc0df3e0708827f67d"}, {"is_disabled": 0, "is_reserved": 0, "fusion_lat": 0.0, "lat": 38.965567166666666, "fusion_lon": 0.0, "rental_uris": {"ios": "https://dc.lft.to/lastmile_qr_scan", "android": "https://dc.lft.to/lastmile_qr_scan"}, "lon": -77.01622266666666, "bike_id": "45bd2fbd2308484aeb67d5b365725730", "type": "electric_bike", "name": "45bd2fbd2308484aeb67d5b365725730"}, {"is_disabled": 0, "is_reserved": 0, "fusion_lat": 0.0, "lat": 38.896505, "fusion_lon": 0.0, "rental_uris": {"ios": "https://dc.lft.to/lastmile_qr_scan", "android": "https://dc.lft.to/lastmile_qr_scan"}, "lon": -77.05141083333334, "bike_id": "574583770275291624a72d388475a2d2", "type": "electric_scooter", "name": "574583770275291624a72d388475a2d2"}, {"is_disabled": 0, "is_reserved": 0, "fusion_lat": 0.0, "lat": 38.886221, "fusion_lon": 0.0, "rental_uris": {"ios": "https://dc.lft.to/lastmile_qr_scan", "android": "https://dc.lft.to/lastmile_qr_scan"}, "lon": -76.9902355, "bike_id": "355bd8362867c24ab6f055876e7de05f", "type": "electric_bike", "name": "355bd8362867c24ab6f055876e7de05f"}, {"is_disabled": 0, "is_reserved": 0, "fusion_lat": 0.0, "lat": 38.90696333333333, "fusion_lon": 0.0, "rental_uris": {"ios": "https://dc.lft.to/lastmile_qr_scan", "android": "https://dc.lft.to/lastmile_qr_scan"}, "lon": -76.95252233333333, "bike_id": "22b46d1a0f6fccdbbe8de2e8fe96b604", "type": "electric_bike", "name": "22b46d1a0f6fccdbbe8de2e8fe96b604"}, {"is_disabled": 0, "is_reserved": 0, "fusion_lat": 0.0, "lat": 38.8922965, "fusion_lon": 0.0, "rental_uris": {"ios": "https://dc.lft.to/lastmile_qr_scan", "android": "https://dc.lft.to/lastmile_qr_scan"}, "lon": -77.04997, "bike_id": "9fd812ffe12bfb3d854b1226128489dd", "type": "electric_scooter", "name": "9fd812ffe12bfb3d854b1226128489dd"}, {"is_disabled": 0, "is_reserved": 0, "fusion_lat": 0.0, "lat": 38.9471625, "fusion_lon": 0.0, "rental_uris": {"ios": "https://dc.lft.to/lastmile_qr_scan", "android": "https://dc.lft.to/lastmile_qr_scan"}, "lon": -77.06802733333333, "bike_id": "701ab4522919ccffb6cc207f8afa89bc", "type": "electric_scooter", "name": "701ab4522919ccffb6cc207f8afa89bc"}, {"is_disabled": 0, "is_reserved": 0, "fusion_lat": 0.0, "lat": 38.94256416666666, "fusion_lon": 0.0, "rental_uris": {"ios": "https://dc.lft.to/lastmile_qr_scan", "android": "https://dc.lft.to/lastmile_qr_scan"}, "lon": -76.98454033333333, "bike_id": "48d44710f47be40787953d82e45db405", "type": "electric_scooter", "name": "48d44710f47be40787953d82e45db405"}, {"is_disabled": 0, "is_reserved": 0, "fusion_lat": 0.0, "lat": 38.88355633333333, "fusion_lon": 0.0, "rental_uris": {"ios": "https://dc.lft.to/lastmile_qr_scan", "android": "https://dc.lft.to/lastmile_qr_scan"}, "lon": -76.95764883333334, "bike_id": "5c8b7513f3d9514e8c1badf16a951178", "type": "electric_scooter", "name": "5c8b7513f3d9514e8c1badf16a951178"}, {"is_disabled": 0, "is_reserved": 0, "fusion_lat": 0.0, "lat": 38.909980166666664, "fusion_lon": 0.0, "rental_uris": {"ios": "https://dc.lft.to/lastmile_qr_scan", "android": "https://dc.lft.to/lastmile_qr_scan"}, "lon": -77.0465275, "bike_id": "b9efe5dfeb0aed94c7ddfa44fba64fc2", "type": "electric_scooter", "name": "b9efe5dfeb0aed94c7ddfa44fba64fc2"}, {"is_disabled": 0, "is_reserved": 0, "fusion_lat": 0.0, "lat": 38.949797333333336, "fusion_lon": 0.0, "rental_uris": {"ios": "https://dc.lft.to/lastmile_qr_scan", "android": "https://dc.lft.to/lastmile_qr_scan"}, "lon": -77.02448966666667, "bike_id": "f00708981fc0518937c0afafb816cf13", "type": "electric_scooter", "name": "f00708981fc0518937c0afafb816cf13"}, {"is_disabled": 0, "is_reserved": 0, "fusion_lat": 0.0, "lat": 38.91804883333333, "fusion_lon": 0.0, "rental_uris": {"ios": "https://dc.lft.to/lastmile_qr_scan", "android": "https://dc.lft.to/lastmile_qr_scan"}, "lon": -77.034434, "bike_id": "536678af67029bc1926b6fe0709f38f8", "type": "electric_scooter", "name": "536678af67029bc1926b6fe0709f38f8"}, {"is_disabled": 0, "is_reserved": 0, "fusion_lat": 0.0, "lat": 38.942159333333336, "fusion_lon": 0.0, "rental_uris": {"ios": "https://dc.lft.to/lastmile_qr_scan", "android": "https://dc.lft.to/lastmile_qr_scan"}, "lon": -76.96133583333334, "bike_id": "77024972e8dd7114043f4389a804fa67", "type": "electric_bike", "name": "77024972e8dd7114043f4389a804fa67"}, {"is_disabled": 0, "is_reserved": 0, "fusion_lat": 0.0, "lat": 38.909707166666664, "fusion_lon": 0.0, "rental_uris": {"ios": "https://dc.lft.to/lastmile_qr_scan", "android": "https://dc.lft.to/lastmile_qr_scan"}, "lon": -77.01102916666666, "bike_id": "87ab5c453e696f144b1103616aa177d7", "type": "electric_scooter", "name": "87ab5c453e696f144b1103616aa177d7"}, {"is_disabled": 0, "is_reserved": 0, "fusion_lat": 0.0, "lat": 38.91769466666667, "fusion_lon": 0.0, "rental_uris": {"ios": "https://dc.lft.to/lastmile_qr_scan", "android": "https://dc.lft.to/lastmile_qr_scan"}, "lon": -77.014917, "bike_id": "345abfcfeb093b818471d6405ea766f3", "type": "electric_scooter", "name": "345abfcfeb093b818471d6405ea766f3"}, {"is_disabled": 0, "is_reserved": 0, "fusion_lat": 0.0, "lat": 38.925343166666664, "fusion_lon": 0.0, "rental_uris": {"ios": "https://dc.lft.to/lastmile_qr_scan", "android": "https://dc.lft.to/lastmile_qr_scan"}, "lon": -77.0255785, "bike_id": "fcc54837a4730b5d876eafcc66f22ea0", "type": "electric_scooter", "name": "fcc54837a4730b5d876eafcc66f22ea0"}, {"is_disabled": 0, "is_reserved": 0, "fusion_lat": 0.0, "lat": 38.898286, "fusion_lon": 0.0, "rental_uris": {"ios": "https://dc.lft.to/lastmile_qr_scan", "android": "https://dc.lft.to/lastmile_qr_scan"}, "lon": -76.930036, "bike_id": "e66ff56f1912ba6ed2d134015a6b8f43", "type": "electric_scooter", "name": "e66ff56f1912ba6ed2d134015a6b8f43"}, {"is_disabled": 0, "is_reserved": 0, "fusion_lat": 0.0, "lat": 38.809776166666666, "fusion_lon": 0.0, "rental_uris": {"ios": "https://dc.lft.to/lastmile_qr_scan", "android": "https://dc.lft.to/lastmile_qr_scan"}, "lon": -77.0765575, "bike_id": "833bc8087d3cb564d7e22c9e930f41f7", "type": "electric_bike", "name": "833bc8087d3cb564d7e22c9e930f41f7"}, {"is_disabled": 0, "is_reserved": 0, "fusion_lat": 0.0, "lat": 38.92858666666667, "fusion_lon": 0.0, "rental_uris": {"ios": "https://dc.lft.to/lastmile_qr_scan", "android": "https://dc.lft.to/lastmile_qr_scan"}, "lon": -77.028822, "bike_id": "688cea0c242580da8d358e247c6ed878", "type": "electric_scooter", "name": "688cea0c242580da8d358e247c6ed878"}, {"is_disabled": 0, "is_reserved": 0, "fusion_lat": 0.0, "lat": 38.8988805, "fusion_lon": 0.0, "rental_uris": {"ios": "https://dc.lft.to/lastmile_qr_scan", "android": "https://dc.lft.to/lastmile_qr_scan"}, "lon": -77.01964583333333, "bike_id": "da9d4adb9748e616f2319a5c605631c9", "type": "electric_scooter", "name": "da9d4adb9748e616f2319a5c605631c9"}, {"is_disabled": 0, "is_reserved": 0, "fusion_lat": 0.0, "lat": 38.895236, "fusion_lon": 0.0, "rental_uris": {"ios": "https://dc.lft.to/lastmile_qr_scan", "android": "https://dc.lft.to/lastmile_qr_scan"}, "lon": -77.025512, "bike_id": "f70c81b67269f04e30d12fb5dbc1d41d", "type": "electric_scooter", "name": "f70c81b67269f04e30d12fb5dbc1d41d"}, {"is_disabled": 0, "is_reserved": 0, "fusion_lat": 0.0, "lat": 38.90906483333333, "fusion_lon": 0.0, "rental_uris": {"ios": "https://dc.lft.to/lastmile_qr_scan", "android": "https://dc.lft.to/lastmile_qr_scan"}, "lon": -76.99756716666667, "bike_id": "4a6b89cee57c7b4738941f83d4696046", "type": "electric_scooter", "name": "4a6b89cee57c7b4738941f83d4696046"}, {"is_disabled": 0, "is_reserved": 0, "fusion_lat": 0.0, "lat": 38.917292333333336, "fusion_lon": 0.0, "rental_uris": {"ios": "https://dc.lft.to/lastmile_qr_scan", "android": "https://dc.lft.to/lastmile_qr_scan"}, "lon": -77.022997, "bike_id": "632fa911c4ab5298eda398a47336539a", "type": "electric_scooter", "name": "632fa911c4ab5298eda398a47336539a"}, {"is_disabled": 0, "is_reserved": 0, "fusion_lat": 0.0, "lat": 38.929895, "fusion_lon": 0.0, "rental_uris": {"ios": "https://dc.lft.to/lastmile_qr_scan", "android": "https://dc.lft.to/lastmile_qr_scan"}, "lon": -77.0347005, "bike_id": "67344644c993d01fc6f84c13415083f0", "type": "electric_scooter", "name": "67344644c993d01fc6f84c13415083f0"}, {"is_disabled": 0, "is_reserved": 0, "fusion_lat": 0.0, "lat": 38.895339, "fusion_lon": 0.0, "rental_uris": {"ios": "https://dc.lft.to/lastmile_qr_scan", "android": "https://dc.lft.to/lastmile_qr_scan"}, "lon": -77.0266175, "bike_id": "4b7ddaea4c3822c22e92946fdc836e97", "type": "electric_scooter", "name": "4b7ddaea4c3822c22e92946fdc836e97"}, {"is_disabled": 0, "is_reserved": 0, "fusion_lat": 0.0, "lat": 38.90236316666667, "fusion_lon": 0.0, "rental_uris": {"ios": "https://dc.lft.to/lastmile_qr_scan", "android": "https://dc.lft.to/lastmile_qr_scan"}, "lon": -77.05337766666666, "bike_id": "6aa22b3827b8fbaf661fbfe365c28a6e", "type": "electric_scooter", "name": "6aa22b3827b8fbaf661fbfe365c28a6e"}, {"is_disabled": 0, "is_reserved": 0, "fusion_lat": 0.0, "lat": 38.842830666666664, "fusion_lon": 0.0, "rental_uris": {"ios": "https://dc.lft.to/lastmile_qr_scan", "android": "https://dc.lft.to/lastmile_qr_scan"}, "lon": -76.98840533333333, "bike_id": "b9cf3d225b4031fa048227917b6d2486", "type": "electric_bike", "name": "b9cf3d225b4031fa048227917b6d2486"}, {"is_disabled": 0, "is_reserved": 0, "fusion_lat": 0.0, "lat": 38.936113, "fusion_lon": 0.0, "rental_uris": {"ios": "https://dc.lft.to/lastmile_qr_scan", "android": "https://dc.lft.to/lastmile_qr_scan"}, "lon": -77.038719, "bike_id": "b70dbd71cda6b3cfc052f53ef3cd4b12", "type": "electric_scooter", "name": "b70dbd71cda6b3cfc052f53ef3cd4b12"}, {"is_disabled": 0, "is_reserved": 0, "fusion_lat": 0.0, "lat": 38.88766483333333, "fusion_lon": 0.0, "rental_uris": {"ios": "https://dc.lft.to/lastmile_qr_scan", "android": "https://dc.lft.to/lastmile_qr_scan"}, "lon": -77.15660083333333, "bike_id": "34d6dee6d0e508925839e32f1412f0a6", "type": "electric_bike", "name": "34d6dee6d0e508925839e32f1412f0a6"}, {"is_disabled": 0, "is_reserved": 0, "fusion_lat": 0.0, "lat": 38.922433166666664, "fusion_lon": 0.0, "rental_uris": {"ios": "https://dc.lft.to/lastmile_qr_scan", "android": "https://dc.lft.to/lastmile_qr_scan"}, "lon": -77.0226935, "bike_id": "982f0627f0809b4a170d8b6dae1cb688", "type": "electric_scooter", "name": "982f0627f0809b4a170d8b6dae1cb688"}, {"is_disabled": 0, "is_reserved": 0, "fusion_lat": 0.0, "lat": 38.91787683333333, "fusion_lon": 0.0, "rental_uris": {"ios": "https://dc.lft.to/lastmile_qr_scan", "android": "https://dc.lft.to/lastmile_qr_scan"}, "lon": -77.02299, "bike_id": "90d61e90c303031c496fcc05458aa154", "type": "electric_scooter", "name": "90d61e90c303031c496fcc05458aa154"}, {"is_disabled": 0, "is_reserved": 0, "fusion_lat": 0.0, "lat": 38.934126666666664, "fusion_lon": 0.0, "rental_uris": {"ios": "https://dc.lft.to/lastmile_qr_scan", "android": "https://dc.lft.to/lastmile_qr_scan"}, "lon": -77.04279166666667, "bike_id": "a06ff643b57adcd9f8391d284090bbc5", "type": "electric_scooter", "name": "a06ff643b57adcd9f8391d284090bbc5"}, {"is_disabled": 0, "is_reserved": 0, "fusion_lat": 0.0, "lat": 38.939354, "fusion_lon": 0.0, "rental_uris": {"ios": "https://dc.lft.to/lastmile_qr_scan", "android": "https://dc.lft.to/lastmile_qr_scan"}, "lon": -77.02586883333333, "bike_id": "f5c6e5d07cad48f96b7dceb9c7016a19", "type": "electric_scooter", "name": "f5c6e5d07cad48f96b7dceb9c7016a19"}, {"is_disabled": 0, "is_reserved": 0, "fusion_lat": 0.0, "lat": 38.92649383333333, "fusion_lon": 0.0, "rental_uris": {"ios": "https://dc.lft.to/lastmile_qr_scan", "android": "https://dc.lft.to/lastmile_qr_scan"}, "lon": -77.0901975, "bike_id": "4fdf3718e32b69c083f2cc5215e42be1", "type": "electric_bike", "name": "4fdf3718e32b69c083f2cc5215e42be1"}, {"is_disabled": 0, "is_reserved": 0, "fusion_lat": 0.0, "lat": 38.905697333333336, "fusion_lon": 0.0, "rental_uris": {"ios": "https://dc.lft.to/lastmile_qr_scan", "android": "https://dc.lft.to/lastmile_qr_scan"}, "lon": -77.00869966666667, "bike_id": "f827f96e1e9f869244cb541eb2597b9e", "type": "electric_scooter", "name": "f827f96e1e9f869244cb541eb2597b9e"}, {"is_disabled": 0, "is_reserved": 0, "fusion_lat": 0.0, "lat": 38.971538833333334, "fusion_lon": 0.0, "rental_uris": {"ios": "https://dc.lft.to/lastmile_qr_scan", "android": "https://dc.lft.to/lastmile_qr_scan"}, "lon": -76.98362933333334, "bike_id": "62d00f492fc23c4baab0a5b4c185b460", "type": "electric_bike", "name": "62d00f492fc23c4baab0a5b4c185b460"}, {"is_disabled": 0, "is_reserved": 0, "fusion_lat": 0.0, "lat": 38.894893333333336, "fusion_lon": 0.0, "rental_uris": {"ios": "https://dc.lft.to/lastmile_qr_scan", "android": "https://dc.lft.to/lastmile_qr_scan"}, "lon": -77.00984316666667, "bike_id": "433b74fddb2c1ad651f371c1b1ba02ea", "type": "electric_scooter", "name": "433b74fddb2c1ad651f371c1b1ba02ea"}, {"is_disabled": 0, "is_reserved": 0, "fusion_lat": 0.0, "lat": 38.9034815, "fusion_lon": 0.0, "rental_uris": {"ios": "https://dc.lft.to/lastmile_qr_scan", "android": "https://dc.lft.to/lastmile_qr_scan"}, "lon": -76.97492816666667, "bike_id": "f17778572dc4aa69cf803f06a54f295f", "type": "electric_scooter", "name": "f17778572dc4aa69cf803f06a54f295f"}, {"is_disabled": 0, "is_reserved": 0, "fusion_lat": 0.0, "lat": 38.9030365, "fusion_lon": 0.0, "rental_uris": {"ios": "https://dc.lft.to/lastmile_qr_scan", "android": "https://dc.lft.to/lastmile_qr_scan"}, "lon": -77.02147433333333, "bike_id": "5dd7bdeecb9788ecef5d8fce25df5f6c", "type": "electric_scooter", "name": "5dd7bdeecb9788ecef5d8fce25df5f6c"}, {"is_disabled": 0, "is_reserved": 0, "fusion_lat": 0.0, "lat": 38.91698433333333, "fusion_lon": 0.0, "rental_uris": {"ios": "https://dc.lft.to/lastmile_qr_scan", "android": "https://dc.lft.to/lastmile_qr_scan"}, "lon": -77.02574716666666, "bike_id": "13fe7618f47499f7799cbcfa12c5eca4", "type": "electric_scooter", "name": "13fe7618f47499f7799cbcfa12c5eca4"}, {"is_disabled": 0, "is_reserved": 0, "fusion_lat": 0.0, "lat": 38.914168833333335, "fusion_lon": 0.0, "rental_uris": {"ios": "https://dc.lft.to/lastmile_qr_scan", "android": "https://dc.lft.to/lastmile_qr_scan"}, "lon": -77.03301966666666, "bike_id": "7081aa59f586504a1bef625918f680ac", "type": "electric_scooter", "name": "7081aa59f586504a1bef625918f680ac"}, {"is_disabled": 0, "is_reserved": 0, "fusion_lat": 0.0, "lat": 38.956371833333336, "fusion_lon": 0.0, "rental_uris": {"ios": "https://dc.lft.to/lastmile_qr_scan", "android": "https://dc.lft.to/lastmile_qr_scan"}, "lon": -77.03629783333334, "bike_id": "6f9cc86fc8d6db185f5b0e645ea4861d", "type": "electric_scooter", "name": "6f9cc86fc8d6db185f5b0e645ea4861d"}, {"is_disabled": 0, "is_reserved": 0, "fusion_lat": 0.0, "lat": 38.92656783333334, "fusion_lon": 0.0, "rental_uris": {"ios": "https://dc.lft.to/lastmile_qr_scan", "android": "https://dc.lft.to/lastmile_qr_scan"}, "lon": -76.99296483333333, "bike_id": "ce1ba70d2282d4cd9b6c882f2595af00", "type": "electric_scooter", "name": "ce1ba70d2282d4cd9b6c882f2595af00"}, {"is_disabled": 0, "is_reserved": 0, "fusion_lat": 0.0, "lat": 38.89334183333333, "fusion_lon": 0.0, "rental_uris": {"ios": "https://dc.lft.to/lastmile_qr_scan", "android": "https://dc.lft.to/lastmile_qr_scan"}, "lon": -76.928873, "bike_id": "3998990bad43640e791a3bde4f826e90", "type": "electric_scooter", "name": "3998990bad43640e791a3bde4f826e90"}, {"is_disabled": 0, "is_reserved": 0, "fusion_lat": 0.0, "lat": 38.93367666666666, "fusion_lon": 0.0, "rental_uris": {"ios": "https://dc.lft.to/lastmile_qr_scan", "android": "https://dc.lft.to/lastmile_qr_scan"}, "lon": -77.03879016666667, "bike_id": "ca3fceb9a29535038650d8b7727b949d", "type": "electric_scooter", "name": "ca3fceb9a29535038650d8b7727b949d"}, {"is_disabled": 0, "is_reserved": 0, "fusion_lat": 0.0, "lat": 38.929989, "fusion_lon": 0.0, "rental_uris": {"ios": "https://dc.lft.to/lastmile_qr_scan", "android": "https://dc.lft.to/lastmile_qr_scan"}, "lon": -77.03797766666666, "bike_id": "b856cbef69d06628ed9d862ffc5ee924", "type": "electric_scooter", "name": "b856cbef69d06628ed9d862ffc5ee924"}, {"is_disabled": 0, "is_reserved": 0, "fusion_lat": 0.0, "lat": 38.911764166666664, "fusion_lon": 0.0, "rental_uris": {"ios": "https://dc.lft.to/lastmile_qr_scan", "android": "https://dc.lft.to/lastmile_qr_scan"}, "lon": -77.02830166666666, "bike_id": "1494c08b64e8b182a6985dd0bd9e19ba", "type": "electric_scooter", "name": "1494c08b64e8b182a6985dd0bd9e19ba"}, {"is_disabled": 0, "is_reserved": 0, "fusion_lat": 0.0, "lat": 38.93378383333334, "fusion_lon": 0.0, "rental_uris": {"ios": "https://dc.lft.to/lastmile_qr_scan", "android": "https://dc.lft.to/lastmile_qr_scan"}, "lon": -77.02724683333334, "bike_id": "c6c83a490e72512d9fd36adc0734ca24", "type": "electric_scooter", "name": "c6c83a490e72512d9fd36adc0734ca24"}, {"is_disabled": 0, "is_reserved": 0, "fusion_lat": 0.0, "lat": 38.906149666666664, "fusion_lon": 0.0, "rental_uris": {"ios": "https://dc.lft.to/lastmile_qr_scan", "android": "https://dc.lft.to/lastmile_qr_scan"}, "lon": -77.05651133333333, "bike_id": "19e863314100c297ff697643a6ed209e", "type": "electric_scooter", "name": "19e863314100c297ff697643a6ed209e"}, {"is_disabled": 0, "is_reserved": 0, "fusion_lat": 0.0, "lat": 38.93448133333333, "fusion_lon": 0.0, "rental_uris": {"ios": "https://dc.lft.to/lastmile_qr_scan", "android": "https://dc.lft.to/lastmile_qr_scan"}, "lon": -77.02980833333334, "bike_id": "cb811e82a21d8d3352a687b1dd8d6615", "type": "electric_scooter", "name": "cb811e82a21d8d3352a687b1dd8d6615"}, {"is_disabled": 0, "is_reserved": 0, "fusion_lat": 0.0, "lat": 38.900416166666666, "fusion_lon": 0.0, "rental_uris": {"ios": "https://dc.lft.to/lastmile_qr_scan", "android": "https://dc.lft.to/lastmile_qr_scan"}, "lon": -77.00377783333333, "bike_id": "6e65367d72ad0b6be855c51d71b3871a", "type": "electric_scooter", "name": "6e65367d72ad0b6be855c51d71b3871a"}, {"is_disabled": 0, "is_reserved": 0, "fusion_lat": 0.0, "lat": 38.940823333333334, "fusion_lon": 0.0, "rental_uris": {"ios": "https://dc.lft.to/lastmile_qr_scan", "android": "https://dc.lft.to/lastmile_qr_scan"}, "lon": -77.00156366666667, "bike_id": "6c1ec73eeb5e38b3f6734baa04889c3d", "type": "electric_bike", "name": "6c1ec73eeb5e38b3f6734baa04889c3d"}, {"is_disabled": 0, "is_reserved": 0, "fusion_lat": 0.0, "lat": 38.9059985, "fusion_lon": 0.0, "rental_uris": {"ios": "https://dc.lft.to/lastmile_qr_scan", "android": "https://dc.lft.to/lastmile_qr_scan"}, "lon": -77.1288155, "bike_id": "ceda74f005a5267a4f9229cdfd892c5d", "type": "electric_bike", "name": "ceda74f005a5267a4f9229cdfd892c5d"}, {"is_disabled": 0, "is_reserved": 0, "fusion_lat": 0.0, "lat": 38.902741166666665, "fusion_lon": 0.0, "rental_uris": {"ios": "https://dc.lft.to/lastmile_qr_scan", "android": "https://dc.lft.to/lastmile_qr_scan"}, "lon": -77.01159666666666, "bike_id": "891290f72d067e912e8b74c47a7a5dee", "type": "electric_scooter", "name": "891290f72d067e912e8b74c47a7a5dee"}, {"is_disabled": 0, "is_reserved": 0, "fusion_lat": 0.0, "lat": 38.933601, "fusion_lon": 0.0, "rental_uris": {"ios": "https://dc.lft.to/lastmile_qr_scan", "android": "https://dc.lft.to/lastmile_qr_scan"}, "lon": -77.02646183333333, "bike_id": "338814bc1827cb58b45bfc6f751f77ae", "type": "electric_scooter", "name": "338814bc1827cb58b45bfc6f751f77ae"}, {"is_disabled": 0, "is_reserved": 0, "fusion_lat": 0.0, "lat": 38.919706833333336, "fusion_lon": 0.0, "rental_uris": {"ios": "https://dc.lft.to/lastmile_qr_scan", "android": "https://dc.lft.to/lastmile_qr_scan"}, "lon": -77.00208283333333, "bike_id": "8899f2b8b74eb1f0451938ebb91bcfd0", "type": "electric_scooter", "name": "8899f2b8b74eb1f0451938ebb91bcfd0"}, {"is_disabled": 0, "is_reserved": 0, "fusion_lat": 0.0, "lat": 38.921089333333335, "fusion_lon": 0.0, "rental_uris": {"ios": "https://dc.lft.to/lastmile_qr_scan", "android": "https://dc.lft.to/lastmile_qr_scan"}, "lon": -77.04695683333334, "bike_id": "9516b436969d13b2a924d515ac7bf18a", "type": "electric_scooter", "name": "9516b436969d13b2a924d515ac7bf18a"}, {"is_disabled": 0, "is_reserved": 0, "fusion_lat": 0.0, "lat": 38.91335733333333, "fusion_lon": 0.0, "rental_uris": {"ios": "https://dc.lft.to/lastmile_qr_scan", "android": "https://dc.lft.to/lastmile_qr_scan"}, "lon": -77.016564, "bike_id": "3e8b44e0004dd72e3ce2cf5919287101", "type": "electric_scooter", "name": "3e8b44e0004dd72e3ce2cf5919287101"}, {"is_disabled": 0, "is_reserved": 0, "fusion_lat": 0.0, "lat": 38.9163295, "fusion_lon": 0.0, "rental_uris": {"ios": "https://dc.lft.to/lastmile_qr_scan", "android": "https://dc.lft.to/lastmile_qr_scan"}, "lon": -77.00848016666667, "bike_id": "292dd6665718b49157c2a949c8c01851", "type": "electric_scooter", "name": "292dd6665718b49157c2a949c8c01851"}, {"is_disabled": 0, "is_reserved": 0, "fusion_lat": 0.0, "lat": 38.9366205, "fusion_lon": 0.0, "rental_uris": {"ios": "https://dc.lft.to/lastmile_qr_scan", "android": "https://dc.lft.to/lastmile_qr_scan"}, "lon": -77.06606933333333, "bike_id": "90ea1e44409d4d8057d3103fdd162aa5", "type": "electric_scooter", "name": "90ea1e44409d4d8057d3103fdd162aa5"}, {"is_disabled": 0, "is_reserved": 0, "fusion_lat": 0.0, "lat": 38.925524, "fusion_lon": 0.0, "rental_uris": {"ios": "https://dc.lft.to/lastmile_qr_scan", "android": "https://dc.lft.to/lastmile_qr_scan"}, "lon": -77.00322966666667, "bike_id": "8b36156681581eb1aacd8f95b9d52d06", "type": "electric_scooter", "name": "8b36156681581eb1aacd8f95b9d52d06"}, {"is_disabled": 0, "is_reserved": 0, "fusion_lat": 0.0, "lat": 38.93061183333333, "fusion_lon": 0.0, "rental_uris": {"ios": "https://dc.lft.to/lastmile_qr_scan", "android": "https://dc.lft.to/lastmile_qr_scan"}, "lon": -77.040364, "bike_id": "427403d08b41e8ce9c597765d24f614f", "type": "electric_scooter", "name": "427403d08b41e8ce9c597765d24f614f"}, {"is_disabled": 0, "is_reserved": 0, "fusion_lat": 0.0, "lat": 38.89784183333333, "fusion_lon": 0.0, "rental_uris": {"ios": "https://dc.lft.to/lastmile_qr_scan", "android": "https://dc.lft.to/lastmile_qr_scan"}, "lon": -77.02720766666667, "bike_id": "e0c9be1e3bf88ee1c517ee7005b361df", "type": "electric_scooter", "name": "e0c9be1e3bf88ee1c517ee7005b361df"}, {"is_disabled": 0, "is_reserved": 0, "fusion_lat": 0.0, "lat": 38.8778295, "fusion_lon": 0.0, "rental_uris": {"ios": "https://dc.lft.to/lastmile_qr_scan", "android": "https://dc.lft.to/lastmile_qr_scan"}, "lon": -77.001236, "bike_id": "3a7cdaeb451b609339b741b9b6196795", "type": "electric_scooter", "name": "3a7cdaeb451b609339b741b9b6196795"}, {"is_disabled": 0, "is_reserved": 0, "fusion_lat": 0.0, "lat": 38.93122783333333, "fusion_lon": 0.0, "rental_uris": {"ios": "https://dc.lft.to/lastmile_qr_scan", "android": "https://dc.lft.to/lastmile_qr_scan"}, "lon": -77.02073, "bike_id": "e5278d0c3dd7e76b42828610e68af28e", "type": "electric_scooter", "name": "e5278d0c3dd7e76b42828610e68af28e"}, {"is_disabled": 0, "is_reserved": 0, "fusion_lat": 0.0, "lat": 38.90703416666667, "fusion_lon": 0.0, "rental_uris": {"ios": "https://dc.lft.to/lastmile_qr_scan", "android": "https://dc.lft.to/lastmile_qr_scan"}, "lon": -77.00923216666666, "bike_id": "0036f9bc9268c9e4eff4e5cc5bd06caa", "type": "electric_scooter", "name": "0036f9bc9268c9e4eff4e5cc5bd06caa"}, {"is_disabled": 0, "is_reserved": 0, "fusion_lat": 0.0, "lat": 38.9194015, "fusion_lon": 0.0, "rental_uris": {"ios": "https://dc.lft.to/lastmile_qr_scan", "android": "https://dc.lft.to/lastmile_qr_scan"}, "lon": -77.04490066666666, "bike_id": "e46552ca6d02b444a7ff139391359a4a", "type": "electric_scooter", "name": "e46552ca6d02b444a7ff139391359a4a"}, {"is_disabled": 0, "is_reserved": 0, "fusion_lat": 0.0, "lat": 38.941404166666665, "fusion_lon": 0.0, "rental_uris": {"ios": "https://dc.lft.to/lastmile_qr_scan", "android": "https://dc.lft.to/lastmile_qr_scan"}, "lon": -77.02320183333333, "bike_id": "1d0e553e20dce45602fa30a7ef53ab7b", "type": "electric_scooter", "name": "1d0e553e20dce45602fa30a7ef53ab7b"}, {"is_disabled": 0, "is_reserved": 0, "fusion_lat": 0.0, "lat": 38.92488516666667, "fusion_lon": 0.0, "rental_uris": {"ios": "https://dc.lft.to/lastmile_qr_scan", "android": "https://dc.lft.to/lastmile_qr_scan"}, "lon": -77.02660416666667, "bike_id": "9bf628c26e77783f7906fcfd27c56b93", "type": "electric_scooter", "name": "9bf628c26e77783f7906fcfd27c56b93"}, {"is_disabled": 0, "is_reserved": 0, "fusion_lat": 0.0, "lat": 38.9221335, "fusion_lon": 0.0, "rental_uris": {"ios": "https://dc.lft.to/lastmile_qr_scan", "android": "https://dc.lft.to/lastmile_qr_scan"}, "lon": -77.03775366666666, "bike_id": "d613b6fd39e5aedf6697bc5ddae3dcea", "type": "electric_scooter", "name": "d613b6fd39e5aedf6697bc5ddae3dcea"}, {"is_disabled": 0, "is_reserved": 0, "fusion_lat": 0.0, "lat": 38.9353185, "fusion_lon": 0.0, "rental_uris": {"ios": "https://dc.lft.to/lastmile_qr_scan", "android": "https://dc.lft.to/lastmile_qr_scan"}, "lon": -77.02354933333334, "bike_id": "83e741e1225365f9a491cfeeb7ca7b85", "type": "electric_scooter", "name": "83e741e1225365f9a491cfeeb7ca7b85"}, {"is_disabled": 0, "is_reserved": 0, "fusion_lat": 0.0, "lat": 38.928143666666664, "fusion_lon": 0.0, "rental_uris": {"ios": "https://dc.lft.to/lastmile_qr_scan", "android": "https://dc.lft.to/lastmile_qr_scan"}, "lon": -77.04354033333334, "bike_id": "39cba3bead3be310be12417bccd5878a", "type": "electric_scooter", "name": "39cba3bead3be310be12417bccd5878a"}, {"is_disabled": 0, "is_reserved": 0, "fusion_lat": 0.0, "lat": 38.90081933333333, "fusion_lon": 0.0, "rental_uris": {"ios": "https://dc.lft.to/lastmile_qr_scan", "android": "https://dc.lft.to/lastmile_qr_scan"}, "lon": -77.01875466666667, "bike_id": "8f958ebcff483c635602e59b33b3281f", "type": "electric_scooter", "name": "8f958ebcff483c635602e59b33b3281f"}, {"is_disabled": 0, "is_reserved": 0, "fusion_lat": 0.0, "lat": 38.928504833333335, "fusion_lon": 0.0, "rental_uris": {"ios": "https://dc.lft.to/lastmile_qr_scan", "android": "https://dc.lft.to/lastmile_qr_scan"}, "lon": -77.0360225, "bike_id": "c8c8470b682766619242e3122ef7a482", "type": "electric_scooter", "name": "c8c8470b682766619242e3122ef7a482"}, {"is_disabled": 0, "is_reserved": 0, "fusion_lat": 0.0, "lat": 38.876546, "fusion_lon": 0.0, "rental_uris": {"ios": "https://dc.lft.to/lastmile_qr_scan", "android": "https://dc.lft.to/lastmile_qr_scan"}, "lon": -77.00201316666667, "bike_id": "5cfaec5091734a9c3a2e3731b962dfe1", "type": "electric_scooter", "name": "5cfaec5091734a9c3a2e3731b962dfe1"}, {"is_disabled": 0, "is_reserved": 0, "fusion_lat": 0.0, "lat": 38.935561666666665, "fusion_lon": 0.0, "rental_uris": {"ios": "https://dc.lft.to/lastmile_qr_scan", "android": "https://dc.lft.to/lastmile_qr_scan"}, "lon": -77.0770885, "bike_id": "3eecede835c4ca448c77b0b618da5bbd", "type": "electric_scooter", "name": "3eecede835c4ca448c77b0b618da5bbd"}, {"is_disabled": 0, "is_reserved": 0, "fusion_lat": 0.0, "lat": 38.922418666666665, "fusion_lon": 0.0, "rental_uris": {"ios": "https://dc.lft.to/lastmile_qr_scan", "android": "https://dc.lft.to/lastmile_qr_scan"}, "lon": -77.036639, "bike_id": "9a37fc3084d04f4dc550a60d6e82ad84", "type": "electric_scooter", "name": "9a37fc3084d04f4dc550a60d6e82ad84"}, {"is_disabled": 0, "is_reserved": 0, "fusion_lat": 0.0, "lat": 38.91674483333333, "fusion_lon": 0.0, "rental_uris": {"ios": "https://dc.lft.to/lastmile_qr_scan", "android": "https://dc.lft.to/lastmile_qr_scan"}, "lon": -77.02347716666667, "bike_id": "02e5abecac9adf552984c49901321dc2", "type": "electric_scooter", "name": "02e5abecac9adf552984c49901321dc2"}, {"is_disabled": 0, "is_reserved": 0, "fusion_lat": 0.0, "lat": 38.9238325, "fusion_lon": 0.0, "rental_uris": {"ios": "https://dc.lft.to/lastmile_qr_scan", "android": "https://dc.lft.to/lastmile_qr_scan"}, "lon": -77.04021483333334, "bike_id": "4a5e68010ed64632470c9683b2f8e82e", "type": "electric_scooter", "name": "4a5e68010ed64632470c9683b2f8e82e"}, {"is_disabled": 0, "is_reserved": 0, "fusion_lat": 0.0, "lat": 38.93854866666667, "fusion_lon": 0.0, "rental_uris": {"ios": "https://dc.lft.to/lastmile_qr_scan", "android": "https://dc.lft.to/lastmile_qr_scan"}, "lon": -76.994346, "bike_id": "c650e695777edd4dd20dccd43a080005", "type": "electric_scooter", "name": "c650e695777edd4dd20dccd43a080005"}, {"is_disabled": 0, "is_reserved": 0, "fusion_lat": 0.0, "lat": 38.90238633333333, "fusion_lon": 0.0, "rental_uris": {"ios": "https://dc.lft.to/lastmile_qr_scan", "android": "https://dc.lft.to/lastmile_qr_scan"}, "lon": -77.014387, "bike_id": "dc9fafef5eecec49f8c707198f055309", "type": "electric_scooter", "name": "dc9fafef5eecec49f8c707198f055309"}, {"is_disabled": 0, "is_reserved": 0, "fusion_lat": 0.0, "lat": 38.944637666666665, "fusion_lon": 0.0, "rental_uris": {"ios": "https://dc.lft.to/lastmile_qr_scan", "android": "https://dc.lft.to/lastmile_qr_scan"}, "lon": -77.006579, "bike_id": "40d0bb19b432317c6307fd404a4cf98c", "type": "electric_scooter", "name": "40d0bb19b432317c6307fd404a4cf98c"}, {"is_disabled": 0, "is_reserved": 0, "fusion_lat": 0.0, "lat": 38.91770783333333, "fusion_lon": 0.0, "rental_uris": {"ios": "https://dc.lft.to/lastmile_qr_scan", "android": "https://dc.lft.to/lastmile_qr_scan"}, "lon": -77.04061433333334, "bike_id": "c1fa1ec5fc522ba1c1da275b80b0425e", "type": "electric_scooter", "name": "c1fa1ec5fc522ba1c1da275b80b0425e"}, {"is_disabled": 0, "is_reserved": 0, "fusion_lat": 0.0, "lat": 38.920613333333336, "fusion_lon": 0.0, "rental_uris": {"ios": "https://dc.lft.to/lastmile_qr_scan", "android": "https://dc.lft.to/lastmile_qr_scan"}, "lon": -77.04544166666666, "bike_id": "368ad46c9fcf0fdaa7b70949ac4f4a6f", "type": "electric_scooter", "name": "368ad46c9fcf0fdaa7b70949ac4f4a6f"}, {"is_disabled": 0, "is_reserved": 0, "fusion_lat": 0.0, "lat": 38.90489816666667, "fusion_lon": 0.0, "rental_uris": {"ios": "https://dc.lft.to/lastmile_qr_scan", "android": "https://dc.lft.to/lastmile_qr_scan"}, "lon": -77.02590083333334, "bike_id": "9e14b5d97f1c404270d441792bd43ae0", "type": "electric_scooter", "name": "9e14b5d97f1c404270d441792bd43ae0"}, {"is_disabled": 0, "is_reserved": 0, "fusion_lat": 0.0, "lat": 38.8463085, "fusion_lon": 0.0, "rental_uris": {"ios": "https://dc.lft.to/lastmile_qr_scan", "android": "https://dc.lft.to/lastmile_qr_scan"}, "lon": -76.96904333333333, "bike_id": "74ef3e766f0ca73e25c8777daf4b0d74", "type": "electric_bike", "name": "74ef3e766f0ca73e25c8777daf4b0d74"}, {"is_disabled": 0, "is_reserved": 0, "fusion_lat": 0.0, "lat": 38.834876, "fusion_lon": 0.0, "rental_uris": {"ios": "https://dc.lft.to/lastmile_qr_scan", "android": "https://dc.lft.to/lastmile_qr_scan"}, "lon": -77.00432883333333, "bike_id": "d1ba2308245b1f9193e35eef33276286", "type": "electric_bike", "name": "d1ba2308245b1f9193e35eef33276286"}, {"is_disabled": 0, "is_reserved": 0, "fusion_lat": 0.0, "lat": 38.974786333333334, "fusion_lon": 0.0, "rental_uris": {"ios": "https://dc.lft.to/lastmile_qr_scan", "android": "https://dc.lft.to/lastmile_qr_scan"}, "lon": -76.98669283333334, "bike_id": "e99d4fc1ece905bfe349b236a47727f4", "type": "electric_bike", "name": "e99d4fc1ece905bfe349b236a47727f4"}, {"is_disabled": 0, "is_reserved": 0, "fusion_lat": 0.0, "lat": 38.910425333333336, "fusion_lon": 0.0, "rental_uris": {"ios": "https://dc.lft.to/lastmile_qr_scan", "android": "https://dc.lft.to/lastmile_qr_scan"}, "lon": -77.00958516666667, "bike_id": "224ad0dc9dca3525c8e8bd3c607ac806", "type": "electric_scooter", "name": "224ad0dc9dca3525c8e8bd3c607ac806"}, {"is_disabled": 0, "is_reserved": 0, "fusion_lat": 0.0, "lat": 39.022978, "fusion_lon": 0.0, "rental_uris": {"ios": "https://dc.lft.to/lastmile_qr_scan", "android": "https://dc.lft.to/lastmile_qr_scan"}, "lon": -77.02105933333333, "bike_id": "7969d969e4d2670f05d16440720c5397", "type": "electric_bike", "name": "7969d969e4d2670f05d16440720c5397"}, {"is_disabled": 0, "is_reserved": 0, "fusion_lat": 0.0, "lat": 38.927849, "fusion_lon": 0.0, "rental_uris": {"ios": "https://dc.lft.to/lastmile_qr_scan", "android": "https://dc.lft.to/lastmile_qr_scan"}, "lon": -77.0296765, "bike_id": "fe413a5cb743d26cb2a6fcca8fc26ceb", "type": "electric_bike", "name": "fe413a5cb743d26cb2a6fcca8fc26ceb"}, {"is_disabled": 0, "is_reserved": 0, "fusion_lat": 0.0, "lat": 38.89850033333333, "fusion_lon": 0.0, "rental_uris": {"ios": "https://dc.lft.to/lastmile_qr_scan", "android": "https://dc.lft.to/lastmile_qr_scan"}, "lon": -77.00199983333333, "bike_id": "19c44802fb67ad86b6b71e13d188c865", "type": "electric_scooter", "name": "19c44802fb67ad86b6b71e13d188c865"}, {"is_disabled": 0, "is_reserved": 0, "fusion_lat": 0.0, "lat": 38.90582933333334, "fusion_lon": 0.0, "rental_uris": {"ios": "https://dc.lft.to/lastmile_qr_scan", "android": "https://dc.lft.to/lastmile_qr_scan"}, "lon": -76.98161333333333, "bike_id": "9d52c12bbc9733a1df37d4c0042a3bfd", "type": "electric_bike", "name": "9d52c12bbc9733a1df37d4c0042a3bfd"}, {"is_disabled": 0, "is_reserved": 0, "fusion_lat": 0.0, "lat": 38.878453666666665, "fusion_lon": 0.0, "rental_uris": {"ios": "https://dc.lft.to/lastmile_qr_scan", "android": "https://dc.lft.to/lastmile_qr_scan"}, "lon": -76.98596383333333, "bike_id": "0a122053d7167aaff65f99cbd9f764a8", "type": "electric_scooter", "name": "0a122053d7167aaff65f99cbd9f764a8"}, {"is_disabled": 0, "is_reserved": 0, "fusion_lat": 0.0, "lat": 38.93784, "fusion_lon": 0.0, "rental_uris": {"ios": "https://dc.lft.to/lastmile_qr_scan", "android": "https://dc.lft.to/lastmile_qr_scan"}, "lon": -77.02313716666667, "bike_id": "63d7ddb1409c6011bfddc94760706fa9", "type": "electric_scooter", "name": "63d7ddb1409c6011bfddc94760706fa9"}, {"is_disabled": 0, "is_reserved": 0, "fusion_lat": 0.0, "lat": 38.84595316666667, "fusion_lon": 0.0, "rental_uris": {"ios": "https://dc.lft.to/lastmile_qr_scan", "android": "https://dc.lft.to/lastmile_qr_scan"}, "lon": -76.974138, "bike_id": "1b7297a89734a131121feedc9217723a", "type": "electric_scooter", "name": "1b7297a89734a131121feedc9217723a"}, {"is_disabled": 0, "is_reserved": 0, "fusion_lat": 0.0, "lat": 38.92988583333333, "fusion_lon": 0.0, "rental_uris": {"ios": "https://dc.lft.to/lastmile_qr_scan", "android": "https://dc.lft.to/lastmile_qr_scan"}, "lon": -77.03474733333333, "bike_id": "a9140554746ab3fd26529b408a5b0de9", "type": "electric_scooter", "name": "a9140554746ab3fd26529b408a5b0de9"}, {"is_disabled": 0, "is_reserved": 0, "fusion_lat": 0.0, "lat": 38.917876666666665, "fusion_lon": 0.0, "rental_uris": {"ios": "https://dc.lft.to/lastmile_qr_scan", "android": "https://dc.lft.to/lastmile_qr_scan"}, "lon": -77.0230025, "bike_id": "90b0b6574f83d922a94dd93cd3a60424", "type": "electric_scooter", "name": "90b0b6574f83d922a94dd93cd3a60424"}, {"is_disabled": 0, "is_reserved": 0, "fusion_lat": 0.0, "lat": 38.92155233333333, "fusion_lon": 0.0, "rental_uris": {"ios": "https://dc.lft.to/lastmile_qr_scan", "android": "https://dc.lft.to/lastmile_qr_scan"}, "lon": -77.0338315, "bike_id": "fcc0ef69968cdafba7fa8155c512a992", "type": "electric_scooter", "name": "fcc0ef69968cdafba7fa8155c512a992"}, {"is_disabled": 0, "is_reserved": 0, "fusion_lat": 0.0, "lat": 38.9294055, "fusion_lon": 0.0, "rental_uris": {"ios": "https://dc.lft.to/lastmile_qr_scan", "android": "https://dc.lft.to/lastmile_qr_scan"}, "lon": -77.03245766666667, "bike_id": "eb539aeba01b0f8632d27be2bef4fbb7", "type": "electric_scooter", "name": "eb539aeba01b0f8632d27be2bef4fbb7"}, {"is_disabled": 0, "is_reserved": 0, "fusion_lat": 0.0, "lat": 38.8925265, "fusion_lon": 0.0, "rental_uris": {"ios": "https://dc.lft.to/lastmile_qr_scan", "android": "https://dc.lft.to/lastmile_qr_scan"}, "lon": -77.04656683333333, "bike_id": "af8adaa2ac39f29239e21c1ee592e6aa", "type": "electric_scooter", "name": "af8adaa2ac39f29239e21c1ee592e6aa"}, {"is_disabled": 0, "is_reserved": 0, "fusion_lat": 0.0, "lat": 38.8950315, "fusion_lon": 0.0, "rental_uris": {"ios": "https://dc.lft.to/lastmile_qr_scan", "android": "https://dc.lft.to/lastmile_qr_scan"}, "lon": -77.02294366666666, "bike_id": "92cb86bafd8ff5a0dc8f94399100c48a", "type": "electric_scooter", "name": "92cb86bafd8ff5a0dc8f94399100c48a"}, {"is_disabled": 0, "is_reserved": 0, "fusion_lat": 0.0, "lat": 38.897491, "fusion_lon": 0.0, "rental_uris": {"ios": "https://dc.lft.to/lastmile_qr_scan", "android": "https://dc.lft.to/lastmile_qr_scan"}, "lon": -77.00351666666667, "bike_id": "d2cc83afe0752ff073dbc0b8d4ea8a99", "type": "electric_scooter", "name": "d2cc83afe0752ff073dbc0b8d4ea8a99"}, {"is_disabled": 0, "is_reserved": 0, "fusion_lat": 0.0, "lat": 38.911152, "fusion_lon": 0.0, "rental_uris": {"ios": "https://dc.lft.to/lastmile_qr_scan", "android": "https://dc.lft.to/lastmile_qr_scan"}, "lon": -77.01165533333334, "bike_id": "8309bb5be4c4c94a4aaf4a6d4909de6b", "type": "electric_scooter", "name": "8309bb5be4c4c94a4aaf4a6d4909de6b"}, {"is_disabled": 0, "is_reserved": 0, "fusion_lat": 0.0, "lat": 38.928945666666664, "fusion_lon": 0.0, "rental_uris": {"ios": "https://dc.lft.to/lastmile_qr_scan", "android": "https://dc.lft.to/lastmile_qr_scan"}, "lon": -77.02291066666666, "bike_id": "8dc0f41e154ea9e22f4eaa3457766351", "type": "electric_scooter", "name": "8dc0f41e154ea9e22f4eaa3457766351"}, {"is_disabled": 0, "is_reserved": 0, "fusion_lat": 0.0, "lat": 38.892537, "fusion_lon": 0.0, "rental_uris": {"ios": "https://dc.lft.to/lastmile_qr_scan", "android": "https://dc.lft.to/lastmile_qr_scan"}, "lon": -77.0395545, "bike_id": "79a0c39c0741f292ce4d4f88aad80fd9", "type": "electric_scooter", "name": "79a0c39c0741f292ce4d4f88aad80fd9"}, {"is_disabled": 0, "is_reserved": 0, "fusion_lat": 0.0, "lat": 38.915414166666665, "fusion_lon": 0.0, "rental_uris": {"ios": "https://dc.lft.to/lastmile_qr_scan", "android": "https://dc.lft.to/lastmile_qr_scan"}, "lon": -77.009187, "bike_id": "f80fd4181d904abc7a03b030eecf83a6", "type": "electric_scooter", "name": "f80fd4181d904abc7a03b030eecf83a6"}, {"is_disabled": 0, "is_reserved": 0, "fusion_lat": 0.0, "lat": 38.9147325, "fusion_lon": 0.0, "rental_uris": {"ios": "https://dc.lft.to/lastmile_qr_scan", "android": "https://dc.lft.to/lastmile_qr_scan"}, "lon": -77.00197933333334, "bike_id": "3bde7b9ab39469924a18b02e9526ac1b", "type": "electric_scooter", "name": "3bde7b9ab39469924a18b02e9526ac1b"}, {"is_disabled": 0, "is_reserved": 0, "fusion_lat": 0.0, "lat": 38.928736666666666, "fusion_lon": 0.0, "rental_uris": {"ios": "https://dc.lft.to/lastmile_qr_scan", "android": "https://dc.lft.to/lastmile_qr_scan"}, "lon": -77.01404183333334, "bike_id": "6bbe046c7364b395ec3cc0e3de1c9991", "type": "electric_scooter", "name": "6bbe046c7364b395ec3cc0e3de1c9991"}, {"is_disabled": 0, "is_reserved": 0, "fusion_lat": 0.0, "lat": 38.896079, "fusion_lon": 0.0, "rental_uris": {"ios": "https://dc.lft.to/lastmile_qr_scan", "android": "https://dc.lft.to/lastmile_qr_scan"}, "lon": -76.99805433333333, "bike_id": "939200300a0fb55e29ade47f120ff5d3", "type": "electric_scooter", "name": "939200300a0fb55e29ade47f120ff5d3"}, {"is_disabled": 0, "is_reserved": 0, "fusion_lat": 0.0, "lat": 38.9617575, "fusion_lon": 0.0, "rental_uris": {"ios": "https://dc.lft.to/lastmile_qr_scan", "android": "https://dc.lft.to/lastmile_qr_scan"}, "lon": -77.03225716666667, "bike_id": "7e20b118f1dd2300cad05bc97da4d96f", "type": "electric_scooter", "name": "7e20b118f1dd2300cad05bc97da4d96f"}, {"is_disabled": 0, "is_reserved": 0, "fusion_lat": 0.0, "lat": 38.93703033333333, "fusion_lon": 0.0, "rental_uris": {"ios": "https://dc.lft.to/lastmile_qr_scan", "android": "https://dc.lft.to/lastmile_qr_scan"}, "lon": -77.05680166666667, "bike_id": "085efcb2e721106faf99a30f7e7b1a52", "type": "electric_scooter", "name": "085efcb2e721106faf99a30f7e7b1a52"}, {"is_disabled": 0, "is_reserved": 0, "fusion_lat": 0.0, "lat": 38.89420166666667, "fusion_lon": 0.0, "rental_uris": {"ios": "https://dc.lft.to/lastmile_qr_scan", "android": "https://dc.lft.to/lastmile_qr_scan"}, "lon": -77.02130983333333, "bike_id": "1676a5b0b5ba1e4347e8ba8aee57f887", "type": "electric_scooter", "name": "1676a5b0b5ba1e4347e8ba8aee57f887"}, {"is_disabled": 0, "is_reserved": 0, "fusion_lat": 0.0, "lat": 38.949799666666664, "fusion_lon": 0.0, "rental_uris": {"ios": "https://dc.lft.to/lastmile_qr_scan", "android": "https://dc.lft.to/lastmile_qr_scan"}, "lon": -77.024442, "bike_id": "d405ab0decab831914b0f33e599bbd7a", "type": "electric_scooter", "name": "d405ab0decab831914b0f33e599bbd7a"}, {"is_disabled": 0, "is_reserved": 0, "fusion_lat": 0.0, "lat": 38.9245115, "fusion_lon": 0.0, "rental_uris": {"ios": "https://dc.lft.to/lastmile_qr_scan", "android": "https://dc.lft.to/lastmile_qr_scan"}, "lon": -77.03294283333334, "bike_id": "15085d96e678be178a04b3db2d5658e6", "type": "electric_scooter", "name": "15085d96e678be178a04b3db2d5658e6"}, {"is_disabled": 0, "is_reserved": 0, "fusion_lat": 0.0, "lat": 38.91133, "fusion_lon": 0.0, "rental_uris": {"ios": "https://dc.lft.to/lastmile_qr_scan", "android": "https://dc.lft.to/lastmile_qr_scan"}, "lon": -77.0657005, "bike_id": "af37e8455b284cbf16d83513ffdcdb95", "type": "electric_bike", "name": "af37e8455b284cbf16d83513ffdcdb95"}, {"is_disabled": 0, "is_reserved": 0, "fusion_lat": 0.0, "lat": 38.932180833333334, "fusion_lon": 0.0, "rental_uris": {"ios": "https://dc.lft.to/lastmile_qr_scan", "android": "https://dc.lft.to/lastmile_qr_scan"}, "lon": -77.03655633333334, "bike_id": "d3d80c5404de60c813488ea14a71fe47", "type": "electric_scooter", "name": "d3d80c5404de60c813488ea14a71fe47"}, {"is_disabled": 0, "is_reserved": 0, "fusion_lat": 0.0, "lat": 38.92454983333333, "fusion_lon": 0.0, "rental_uris": {"ios": "https://dc.lft.to/lastmile_qr_scan", "android": "https://dc.lft.to/lastmile_qr_scan"}, "lon": -77.03306216666667, "bike_id": "f95c2e3f4e6fe4d4db3cd35275b134a9", "type": "electric_scooter", "name": "f95c2e3f4e6fe4d4db3cd35275b134a9"}, {"is_disabled": 0, "is_reserved": 0, "fusion_lat": 0.0, "lat": 38.895305, "fusion_lon": 0.0, "rental_uris": {"ios": "https://dc.lft.to/lastmile_qr_scan", "android": "https://dc.lft.to/lastmile_qr_scan"}, "lon": -76.94886983333333, "bike_id": "313110fa38f3a023624c2a1ebb3548d1", "type": "electric_scooter", "name": "313110fa38f3a023624c2a1ebb3548d1"}, {"is_disabled": 0, "is_reserved": 0, "fusion_lat": 0.0, "lat": 38.89503233333333, "fusion_lon": 0.0, "rental_uris": {"ios": "https://dc.lft.to/lastmile_qr_scan", "android": "https://dc.lft.to/lastmile_qr_scan"}, "lon": -77.03956483333333, "bike_id": "b7afc1544fa4f6178d440b7cea80f9e2", "type": "electric_scooter", "name": "b7afc1544fa4f6178d440b7cea80f9e2"}, {"is_disabled": 0, "is_reserved": 0, "fusion_lat": 0.0, "lat": 38.90652766666667, "fusion_lon": 0.0, "rental_uris": {"ios": "https://dc.lft.to/lastmile_qr_scan", "android": "https://dc.lft.to/lastmile_qr_scan"}, "lon": -77.01175483333333, "bike_id": "0a882216bafa291c698ec1ba2967dfa9", "type": "electric_scooter", "name": "0a882216bafa291c698ec1ba2967dfa9"}, {"is_disabled": 0, "is_reserved": 0, "fusion_lat": 0.0, "lat": 38.943742666666665, "fusion_lon": 0.0, "rental_uris": {"ios": "https://dc.lft.to/lastmile_qr_scan", "android": "https://dc.lft.to/lastmile_qr_scan"}, "lon": -77.060947, "bike_id": "db8ea3d03409f4e902477cb8b65feda5", "type": "electric_scooter", "name": "db8ea3d03409f4e902477cb8b65feda5"}, {"is_disabled": 0, "is_reserved": 0, "fusion_lat": 0.0, "lat": 38.91492866666667, "fusion_lon": 0.0, "rental_uris": {"ios": "https://dc.lft.to/lastmile_qr_scan", "android": "https://dc.lft.to/lastmile_qr_scan"}, "lon": -77.049468, "bike_id": "58b5815101becd18436d0ab58bb2f530", "type": "electric_scooter", "name": "58b5815101becd18436d0ab58bb2f530"}, {"is_disabled": 0, "is_reserved": 0, "fusion_lat": 0.0, "lat": 38.93524083333333, "fusion_lon": 0.0, "rental_uris": {"ios": "https://dc.lft.to/lastmile_qr_scan", "android": "https://dc.lft.to/lastmile_qr_scan"}, "lon": -77.0381815, "bike_id": "3d84bc3901f0c7f2b2a9ee9762feec70", "type": "electric_scooter", "name": "3d84bc3901f0c7f2b2a9ee9762feec70"}, {"is_disabled": 0, "is_reserved": 0, "fusion_lat": 0.0, "lat": 38.905565833333334, "fusion_lon": 0.0, "rental_uris": {"ios": "https://dc.lft.to/lastmile_qr_scan", "android": "https://dc.lft.to/lastmile_qr_scan"}, "lon": -77.00442, "bike_id": "380c68d3ea7b2a2a4c1ae9f70033677d", "type": "electric_scooter", "name": "380c68d3ea7b2a2a4c1ae9f70033677d"}, {"is_disabled": 0, "is_reserved": 0, "fusion_lat": 0.0, "lat": 38.93448466666667, "fusion_lon": 0.0, "rental_uris": {"ios": "https://dc.lft.to/lastmile_qr_scan", "android": "https://dc.lft.to/lastmile_qr_scan"}, "lon": -77.02386983333334, "bike_id": "0f179fdfb8c83f9442356a0cb1bcb7c3", "type": "electric_scooter", "name": "0f179fdfb8c83f9442356a0cb1bcb7c3"}, {"is_disabled": 0, "is_reserved": 0, "fusion_lat": 0.0, "lat": 38.9087855, "fusion_lon": 0.0, "rental_uris": {"ios": "https://dc.lft.to/lastmile_qr_scan", "android": "https://dc.lft.to/lastmile_qr_scan"}, "lon": -77.03507383333333, "bike_id": "9bf2089cc9eb43bbbaaa8ef723be2fea", "type": "electric_scooter", "name": "9bf2089cc9eb43bbbaaa8ef723be2fea"}, {"is_disabled": 0, "is_reserved": 0, "fusion_lat": 0.0, "lat": 38.921542, "fusion_lon": 0.0, "rental_uris": {"ios": "https://dc.lft.to/lastmile_qr_scan", "android": "https://dc.lft.to/lastmile_qr_scan"}, "lon": -77.03653183333333, "bike_id": "61cd1f5de701022072f0a38452fef1b0", "type": "electric_scooter", "name": "61cd1f5de701022072f0a38452fef1b0"}, {"is_disabled": 0, "is_reserved": 0, "fusion_lat": 0.0, "lat": 38.90808533333333, "fusion_lon": 0.0, "rental_uris": {"ios": "https://dc.lft.to/lastmile_qr_scan", "android": "https://dc.lft.to/lastmile_qr_scan"}, "lon": -77.03835433333333, "bike_id": "c78ff2d4dd8af474eef81e63f2125591", "type": "electric_scooter", "name": "c78ff2d4dd8af474eef81e63f2125591"}, {"is_disabled": 0, "is_reserved": 0, "fusion_lat": 0.0, "lat": 38.90185366666667, "fusion_lon": 0.0, "rental_uris": {"ios": "https://dc.lft.to/lastmile_qr_scan", "android": "https://dc.lft.to/lastmile_qr_scan"}, "lon": -77.00210833333334, "bike_id": "5b047d72f71c03c07288655a499bf4fc", "type": "electric_scooter", "name": "5b047d72f71c03c07288655a499bf4fc"}, {"is_disabled": 0, "is_reserved": 0, "fusion_lat": 0.0, "lat": 38.90669533333333, "fusion_lon": 0.0, "rental_uris": {"ios": "https://dc.lft.to/lastmile_qr_scan", "android": "https://dc.lft.to/lastmile_qr_scan"}, "lon": -77.02954066666666, "bike_id": "6256e77d4ad9c44d6e9db8e9daf90ead", "type": "electric_scooter", "name": "6256e77d4ad9c44d6e9db8e9daf90ead"}, {"is_disabled": 0, "is_reserved": 0, "fusion_lat": 0.0, "lat": 38.923553166666665, "fusion_lon": 0.0, "rental_uris": {"ios": "https://dc.lft.to/lastmile_qr_scan", "android": "https://dc.lft.to/lastmile_qr_scan"}, "lon": -77.05277716666667, "bike_id": "f60ea62b1c57b89d2f3f24662e6dbe46", "type": "electric_scooter", "name": "f60ea62b1c57b89d2f3f24662e6dbe46"}, {"is_disabled": 0, "is_reserved": 0, "fusion_lat": 0.0, "lat": 38.840963, "fusion_lon": 0.0, "rental_uris": {"ios": "https://dc.lft.to/lastmile_qr_scan", "android": "https://dc.lft.to/lastmile_qr_scan"}, "lon": -76.98720016666667, "bike_id": "fd601f7f55a0b5911c7b72637fcbb3ac", "type": "electric_bike", "name": "fd601f7f55a0b5911c7b72637fcbb3ac"}, {"is_disabled": 0, "is_reserved": 0, "fusion_lat": 0.0, "lat": 38.893442666666665, "fusion_lon": 0.0, "rental_uris": {"ios": "https://dc.lft.to/lastmile_qr_scan", "android": "https://dc.lft.to/lastmile_qr_scan"}, "lon": -76.99382383333334, "bike_id": "268edf4646aa7db2834f6b73c210e016", "type": "electric_scooter", "name": "268edf4646aa7db2834f6b73c210e016"}, {"is_disabled": 0, "is_reserved": 0, "fusion_lat": 0.0, "lat": 38.892786, "fusion_lon": 0.0, "rental_uris": {"ios": "https://dc.lft.to/lastmile_qr_scan", "android": "https://dc.lft.to/lastmile_qr_scan"}, "lon": -77.04505333333333, "bike_id": "e55b6bf56aa2f3ec7d448b6240d0a074", "type": "electric_scooter", "name": "e55b6bf56aa2f3ec7d448b6240d0a074"}, {"is_disabled": 0, "is_reserved": 0, "fusion_lat": 0.0, "lat": 38.91830983333333, "fusion_lon": 0.0, "rental_uris": {"ios": "https://dc.lft.to/lastmile_qr_scan", "android": "https://dc.lft.to/lastmile_qr_scan"}, "lon": -77.05318316666667, "bike_id": "5c9073c544b41a7c4e3febeb2a9ec42a", "type": "electric_scooter", "name": "5c9073c544b41a7c4e3febeb2a9ec42a"}, {"is_disabled": 0, "is_reserved": 0, "fusion_lat": 0.0, "lat": 38.91045733333333, "fusion_lon": 0.0, "rental_uris": {"ios": "https://dc.lft.to/lastmile_qr_scan", "android": "https://dc.lft.to/lastmile_qr_scan"}, "lon": -76.99811866666667, "bike_id": "69833b1cf9f8e09a03f2486b31d53f79", "type": "electric_scooter", "name": "69833b1cf9f8e09a03f2486b31d53f79"}, {"is_disabled": 0, "is_reserved": 0, "fusion_lat": 0.0, "lat": 38.92425316666667, "fusion_lon": 0.0, "rental_uris": {"ios": "https://dc.lft.to/lastmile_qr_scan", "android": "https://dc.lft.to/lastmile_qr_scan"}, "lon": -77.057578, "bike_id": "089690cd0eed765b410d4bbe57f262b9", "type": "electric_scooter", "name": "089690cd0eed765b410d4bbe57f262b9"}, {"is_disabled": 0, "is_reserved": 0, "fusion_lat": 0.0, "lat": 38.91824733333333, "fusion_lon": 0.0, "rental_uris": {"ios": "https://dc.lft.to/lastmile_qr_scan", "android": "https://dc.lft.to/lastmile_qr_scan"}, "lon": -77.01208283333334, "bike_id": "40127f7c9b677986b0ee8fa551fff566", "type": "electric_scooter", "name": "40127f7c9b677986b0ee8fa551fff566"}, {"is_disabled": 0, "is_reserved": 0, "fusion_lat": 0.0, "lat": 38.884157333333334, "fusion_lon": 0.0, "rental_uris": {"ios": "https://dc.lft.to/lastmile_qr_scan", "android": "https://dc.lft.to/lastmile_qr_scan"}, "lon": -77.0301195, "bike_id": "ca4abc0a7d445393e3c287ca8c02d018", "type": "electric_scooter", "name": "ca4abc0a7d445393e3c287ca8c02d018"}, {"is_disabled": 0, "is_reserved": 0, "fusion_lat": 0.0, "lat": 38.929074666666665, "fusion_lon": 0.0, "rental_uris": {"ios": "https://dc.lft.to/lastmile_qr_scan", "android": "https://dc.lft.to/lastmile_qr_scan"}, "lon": -77.0598075, "bike_id": "2ee897ba44d1ff7f5036a69ea275f880", "type": "electric_scooter", "name": "2ee897ba44d1ff7f5036a69ea275f880"}, {"is_disabled": 0, "is_reserved": 0, "fusion_lat": 0.0, "lat": 38.907135, "fusion_lon": 0.0, "rental_uris": {"ios": "https://dc.lft.to/lastmile_qr_scan", "android": "https://dc.lft.to/lastmile_qr_scan"}, "lon": -77.02562566666667, "bike_id": "88113960f203bb200580199fc333b404", "type": "electric_scooter", "name": "88113960f203bb200580199fc333b404"}, {"is_disabled": 0, "is_reserved": 0, "fusion_lat": 0.0, "lat": 38.92362383333333, "fusion_lon": 0.0, "rental_uris": {"ios": "https://dc.lft.to/lastmile_qr_scan", "android": "https://dc.lft.to/lastmile_qr_scan"}, "lon": -77.02437666666667, "bike_id": "6ff1b5015b609395ebec7bbf39b1be29", "type": "electric_scooter", "name": "6ff1b5015b609395ebec7bbf39b1be29"}, {"is_disabled": 0, "is_reserved": 0, "fusion_lat": 0.0, "lat": 38.88273816666667, "fusion_lon": 0.0, "rental_uris": {"ios": "https://dc.lft.to/lastmile_qr_scan", "android": "https://dc.lft.to/lastmile_qr_scan"}, "lon": -77.00646816666666, "bike_id": "8b7d5e82dc8c6b1134d08beea20f9f92", "type": "electric_scooter", "name": "8b7d5e82dc8c6b1134d08beea20f9f92"}, {"is_disabled": 0, "is_reserved": 0, "fusion_lat": 0.0, "lat": 39.010661666666664, "fusion_lon": 0.0, "rental_uris": {"ios": "https://dc.lft.to/lastmile_qr_scan", "android": "https://dc.lft.to/lastmile_qr_scan"}, "lon": -76.92244533333333, "bike_id": "a19604019f8d6829e30cb87700e96e03", "type": "electric_bike", "name": "a19604019f8d6829e30cb87700e96e03"}, {"is_disabled": 0, "is_reserved": 0, "fusion_lat": 0.0, "lat": 38.923133166666666, "fusion_lon": 0.0, "rental_uris": {"ios": "https://dc.lft.to/lastmile_qr_scan", "android": "https://dc.lft.to/lastmile_qr_scan"}, "lon": -77.0391165, "bike_id": "964ced298ab2b4744cc1b0fc95e8ac89", "type": "electric_scooter", "name": "964ced298ab2b4744cc1b0fc95e8ac89"}, {"is_disabled": 0, "is_reserved": 0, "fusion_lat": 0.0, "lat": 38.92149333333333, "fusion_lon": 0.0, "rental_uris": {"ios": "https://dc.lft.to/lastmile_qr_scan", "android": "https://dc.lft.to/lastmile_qr_scan"}, "lon": -77.03500833333334, "bike_id": "5444481b65cb7a8518b3dd4c93eb30da", "type": "electric_scooter", "name": "5444481b65cb7a8518b3dd4c93eb30da"}, {"is_disabled": 0, "is_reserved": 0, "fusion_lat": 0.0, "lat": 38.90151783333334, "fusion_lon": 0.0, "rental_uris": {"ios": "https://dc.lft.to/lastmile_qr_scan", "android": "https://dc.lft.to/lastmile_qr_scan"}, "lon": -76.9855775, "bike_id": "ee390309508c2c19fb3b12b007531ff9", "type": "electric_scooter", "name": "ee390309508c2c19fb3b12b007531ff9"}, {"is_disabled": 0, "is_reserved": 0, "fusion_lat": 0.0, "lat": 38.981491, "fusion_lon": 0.0, "rental_uris": {"ios": "https://dc.lft.to/lastmile_qr_scan", "android": "https://dc.lft.to/lastmile_qr_scan"}, "lon": -77.00772133333334, "bike_id": "6a483814ff1a2e198c95c867a6dc38fd", "type": "electric_bike", "name": "6a483814ff1a2e198c95c867a6dc38fd"}, {"is_disabled": 0, "is_reserved": 0, "fusion_lat": 0.0, "lat": 38.8784225, "fusion_lon": 0.0, "rental_uris": {"ios": "https://dc.lft.to/lastmile_qr_scan", "android": "https://dc.lft.to/lastmile_qr_scan"}, "lon": -76.93127883333334, "bike_id": "318d43c6961fd1704352a12a8f015461", "type": "electric_scooter", "name": "318d43c6961fd1704352a12a8f015461"}, {"is_disabled": 0, "is_reserved": 0, "fusion_lat": 0.0, "lat": 38.912612333333335, "fusion_lon": 0.0, "rental_uris": {"ios": "https://dc.lft.to/lastmile_qr_scan", "android": "https://dc.lft.to/lastmile_qr_scan"}, "lon": -77.00508016666667, "bike_id": "4c97c28bc9f2469b53ea52cdb4d0f689", "type": "electric_scooter", "name": "4c97c28bc9f2469b53ea52cdb4d0f689"}, {"is_disabled": 0, "is_reserved": 0, "fusion_lat": 0.0, "lat": 38.883009333333334, "fusion_lon": 0.0, "rental_uris": {"ios": "https://dc.lft.to/lastmile_qr_scan", "android": "https://dc.lft.to/lastmile_qr_scan"}, "lon": -77.02559466666666, "bike_id": "089a2ceacc057c562d201db4b912ac93", "type": "electric_scooter", "name": "089a2ceacc057c562d201db4b912ac93"}, {"is_disabled": 0, "is_reserved": 0, "fusion_lat": 0.0, "lat": 38.92399133333333, "fusion_lon": 0.0, "rental_uris": {"ios": "https://dc.lft.to/lastmile_qr_scan", "android": "https://dc.lft.to/lastmile_qr_scan"}, "lon": -77.03650483333334, "bike_id": "759221913f70a6d016101145a935a7f4", "type": "electric_scooter", "name": "759221913f70a6d016101145a935a7f4"}, {"is_disabled": 0, "is_reserved": 0, "fusion_lat": 0.0, "lat": 38.8360585, "fusion_lon": 0.0, "rental_uris": {"ios": "https://dc.lft.to/lastmile_qr_scan", "android": "https://dc.lft.to/lastmile_qr_scan"}, "lon": -77.00372616666667, "bike_id": "b4a952bda44d64bf158ccefb0e94ad3f", "type": "electric_bike", "name": "b4a952bda44d64bf158ccefb0e94ad3f"}, {"is_disabled": 0, "is_reserved": 0, "fusion_lat": 0.0, "lat": 38.904269166666666, "fusion_lon": 0.0, "rental_uris": {"ios": "https://dc.lft.to/lastmile_qr_scan", "android": "https://dc.lft.to/lastmile_qr_scan"}, "lon": -77.05115566666667, "bike_id": "88522207212a6bf997063fb270529004", "type": "electric_scooter", "name": "88522207212a6bf997063fb270529004"}, {"is_disabled": 0, "is_reserved": 0, "fusion_lat": 0.0, "lat": 38.923192, "fusion_lon": 0.0, "rental_uris": {"ios": "https://dc.lft.to/lastmile_qr_scan", "android": "https://dc.lft.to/lastmile_qr_scan"}, "lon": -77.02796783333334, "bike_id": "6e4dec17bebe27d156d71f5388a8d16d", "type": "electric_scooter", "name": "6e4dec17bebe27d156d71f5388a8d16d"}, {"is_disabled": 0, "is_reserved": 0, "fusion_lat": 0.0, "lat": 38.92499216666667, "fusion_lon": 0.0, "rental_uris": {"ios": "https://dc.lft.to/lastmile_qr_scan", "android": "https://dc.lft.to/lastmile_qr_scan"}, "lon": -77.04256616666666, "bike_id": "c29f03aed997b1217cd46068f5290d46", "type": "electric_bike", "name": "c29f03aed997b1217cd46068f5290d46"}, {"is_disabled": 0, "is_reserved": 0, "fusion_lat": 0.0, "lat": 38.85837866666667, "fusion_lon": 0.0, "rental_uris": {"ios": "https://dc.lft.to/lastmile_qr_scan", "android": "https://dc.lft.to/lastmile_qr_scan"}, "lon": -76.98825633333334, "bike_id": "10ca4f68404a41cf3723402d4ff32b53", "type": "electric_scooter", "name": "10ca4f68404a41cf3723402d4ff32b53"}, {"is_disabled": 0, "is_reserved": 0, "fusion_lat": 0.0, "lat": 38.85787416666667, "fusion_lon": 0.0, "rental_uris": {"ios": "https://dc.lft.to/lastmile_qr_scan", "android": "https://dc.lft.to/lastmile_qr_scan"}, "lon": -76.98759916666667, "bike_id": "f43d068dacf809fa5c21766520fd9458", "type": "electric_bike", "name": "f43d068dacf809fa5c21766520fd9458"}, {"is_disabled": 0, "is_reserved": 0, "fusion_lat": 0.0, "lat": 38.91836216666667, "fusion_lon": 0.0, "rental_uris": {"ios": "https://dc.lft.to/lastmile_qr_scan", "android": "https://dc.lft.to/lastmile_qr_scan"}, "lon": -77.0401635, "bike_id": "e3358edf8576aaf7a9b88659ef90fe1f", "type": "electric_scooter", "name": "e3358edf8576aaf7a9b88659ef90fe1f"}, {"is_disabled": 0, "is_reserved": 0, "fusion_lat": 0.0, "lat": 38.924097, "fusion_lon": 0.0, "rental_uris": {"ios": "https://dc.lft.to/lastmile_qr_scan", "android": "https://dc.lft.to/lastmile_qr_scan"}, "lon": -77.02006166666666, "bike_id": "e205625d7e17fd3cda9c6d87e45bb33c", "type": "electric_scooter", "name": "e205625d7e17fd3cda9c6d87e45bb33c"}, {"is_disabled": 0, "is_reserved": 0, "fusion_lat": 0.0, "lat": 38.8976535, "fusion_lon": 0.0, "rental_uris": {"ios": "https://dc.lft.to/lastmile_qr_scan", "android": "https://dc.lft.to/lastmile_qr_scan"}, "lon": -77.05494433333334, "bike_id": "746ff1a583b35977d5894ad13cfff012", "type": "electric_scooter", "name": "746ff1a583b35977d5894ad13cfff012"}, {"is_disabled": 0, "is_reserved": 0, "fusion_lat": 0.0, "lat": 38.914554833333334, "fusion_lon": 0.0, "rental_uris": {"ios": "https://dc.lft.to/lastmile_qr_scan", "android": "https://dc.lft.to/lastmile_qr_scan"}, "lon": -77.00872433333333, "bike_id": "a69499d0a6d3d35bac64343d515cbdb7", "type": "electric_scooter", "name": "a69499d0a6d3d35bac64343d515cbdb7"}, {"is_disabled": 0, "is_reserved": 0, "fusion_lat": 0.0, "lat": 38.90577, "fusion_lon": 0.0, "rental_uris": {"ios": "https://dc.lft.to/lastmile_qr_scan", "android": "https://dc.lft.to/lastmile_qr_scan"}, "lon": -77.02765416666666, "bike_id": "d4bf9c3f13b4f877a74ef5c72279910f", "type": "electric_scooter", "name": "d4bf9c3f13b4f877a74ef5c72279910f"}, {"is_disabled": 0, "is_reserved": 0, "fusion_lat": 0.0, "lat": 38.881483333333335, "fusion_lon": 0.0, "rental_uris": {"ios": "https://dc.lft.to/lastmile_qr_scan", "android": "https://dc.lft.to/lastmile_qr_scan"}, "lon": -77.01314833333333, "bike_id": "dcab2e54e9c9c5f8abda72aa53b5b875", "type": "electric_scooter", "name": "dcab2e54e9c9c5f8abda72aa53b5b875"}, {"is_disabled": 0, "is_reserved": 0, "fusion_lat": 0.0, "lat": 38.909637833333335, "fusion_lon": 0.0, "rental_uris": {"ios": "https://dc.lft.to/lastmile_qr_scan", "android": "https://dc.lft.to/lastmile_qr_scan"}, "lon": -77.0221645, "bike_id": "1eb516602e2ce6edc406880c7196807f", "type": "electric_scooter", "name": "1eb516602e2ce6edc406880c7196807f"}, {"is_disabled": 0, "is_reserved": 0, "fusion_lat": 0.0, "lat": 38.922411833333335, "fusion_lon": 0.0, "rental_uris": {"ios": "https://dc.lft.to/lastmile_qr_scan", "android": "https://dc.lft.to/lastmile_qr_scan"}, "lon": -77.03873333333334, "bike_id": "dcc6b72b0b06172a386787d422f52758", "type": "electric_scooter", "name": "dcc6b72b0b06172a386787d422f52758"}, {"is_disabled": 0, "is_reserved": 0, "fusion_lat": 0.0, "lat": 38.896387, "fusion_lon": 0.0, "rental_uris": {"ios": "https://dc.lft.to/lastmile_qr_scan", "android": "https://dc.lft.to/lastmile_qr_scan"}, "lon": -76.93929, "bike_id": "c0959f0d7fc7f3fd8ce2bdf95a777401", "type": "electric_scooter", "name": "c0959f0d7fc7f3fd8ce2bdf95a777401"}, {"is_disabled": 0, "is_reserved": 0, "fusion_lat": 0.0, "lat": 38.950722666666664, "fusion_lon": 0.0, "rental_uris": {"ios": "https://dc.lft.to/lastmile_qr_scan", "android": "https://dc.lft.to/lastmile_qr_scan"}, "lon": -76.996001, "bike_id": "c14b9176c1cae707d8b95319d5cd91bf", "type": "electric_bike", "name": "c14b9176c1cae707d8b95319d5cd91bf"}, {"is_disabled": 0, "is_reserved": 0, "fusion_lat": 0.0, "lat": 38.953289166666664, "fusion_lon": 0.0, "rental_uris": {"ios": "https://dc.lft.to/lastmile_qr_scan", "android": "https://dc.lft.to/lastmile_qr_scan"}, "lon": -76.98248816666667, "bike_id": "e0176db3276a2898b95a92b4bbc0556a", "type": "electric_bike", "name": "e0176db3276a2898b95a92b4bbc0556a"}, {"is_disabled": 0, "is_reserved": 0, "fusion_lat": 0.0, "lat": 38.89833216666667, "fusion_lon": 0.0, "rental_uris": {"ios": "https://dc.lft.to/lastmile_qr_scan", "android": "https://dc.lft.to/lastmile_qr_scan"}, "lon": -77.0465085, "bike_id": "780487b7d1f1646f72badd2d45b732bb", "type": "electric_scooter", "name": "780487b7d1f1646f72badd2d45b732bb"}, {"is_disabled": 0, "is_reserved": 0, "fusion_lat": 0.0, "lat": 38.88572716666667, "fusion_lon": 0.0, "rental_uris": {"ios": "https://dc.lft.to/lastmile_qr_scan", "android": "https://dc.lft.to/lastmile_qr_scan"}, "lon": -77.019971, "bike_id": "19d50666c60ea599f4bdadc175442139", "type": "electric_scooter", "name": "19d50666c60ea599f4bdadc175442139"}, {"is_disabled": 0, "is_reserved": 0, "fusion_lat": 0.0, "lat": 38.945909, "fusion_lon": 0.0, "rental_uris": {"ios": "https://dc.lft.to/lastmile_qr_scan", "android": "https://dc.lft.to/lastmile_qr_scan"}, "lon": -77.02035383333333, "bike_id": "59321153b5714a29cbb78d56d13092c1", "type": "electric_scooter", "name": "59321153b5714a29cbb78d56d13092c1"}, {"is_disabled": 0, "is_reserved": 0, "fusion_lat": 0.0, "lat": 38.92383616666667, "fusion_lon": 0.0, "rental_uris": {"ios": "https://dc.lft.to/lastmile_qr_scan", "android": "https://dc.lft.to/lastmile_qr_scan"}, "lon": -77.04018283333333, "bike_id": "066155712c152e8276ee8b19f1aeff19", "type": "electric_scooter", "name": "066155712c152e8276ee8b19f1aeff19"}, {"is_disabled": 0, "is_reserved": 0, "fusion_lat": 0.0, "lat": 38.80671266666667, "fusion_lon": 0.0, "rental_uris": {"ios": "https://dc.lft.to/lastmile_qr_scan", "android": "https://dc.lft.to/lastmile_qr_scan"}, "lon": -77.06916116666666, "bike_id": "2200560da0150e81877c036188c59469", "type": "electric_bike", "name": "2200560da0150e81877c036188c59469"}, {"is_disabled": 0, "is_reserved": 0, "fusion_lat": 0.0, "lat": 38.91047533333333, "fusion_lon": 0.0, "rental_uris": {"ios": "https://dc.lft.to/lastmile_qr_scan", "android": "https://dc.lft.to/lastmile_qr_scan"}, "lon": -77.0151055, "bike_id": "b67f3df4156f252ffaec77e0bc3fe8f2", "type": "electric_scooter", "name": "b67f3df4156f252ffaec77e0bc3fe8f2"}, {"is_disabled": 0, "is_reserved": 0, "fusion_lat": 0.0, "lat": 38.93422916666667, "fusion_lon": 0.0, "rental_uris": {"ios": "https://dc.lft.to/lastmile_qr_scan", "android": "https://dc.lft.to/lastmile_qr_scan"}, "lon": -77.04309666666667, "bike_id": "6b82c576b015979b514f269b6d4d58d3", "type": "electric_scooter", "name": "6b82c576b015979b514f269b6d4d58d3"}, {"is_disabled": 0, "is_reserved": 0, "fusion_lat": 0.0, "lat": 38.909556, "fusion_lon": 0.0, "rental_uris": {"ios": "https://dc.lft.to/lastmile_qr_scan", "android": "https://dc.lft.to/lastmile_qr_scan"}, "lon": -77.04557766666667, "bike_id": "aa45cf941ccec16ed063ae7628508660", "type": "electric_scooter", "name": "aa45cf941ccec16ed063ae7628508660"}, {"is_disabled": 0, "is_reserved": 0, "fusion_lat": 0.0, "lat": 38.9063725, "fusion_lon": 0.0, "rental_uris": {"ios": "https://dc.lft.to/lastmile_qr_scan", "android": "https://dc.lft.to/lastmile_qr_scan"}, "lon": -77.045412, "bike_id": "2b1e64cef561226b503c7e2eb5214f1a", "type": "electric_scooter", "name": "2b1e64cef561226b503c7e2eb5214f1a"}, {"is_disabled": 0, "is_reserved": 0, "fusion_lat": 0.0, "lat": 38.946355833333335, "fusion_lon": 0.0, "rental_uris": {"ios": "https://dc.lft.to/lastmile_qr_scan", "android": "https://dc.lft.to/lastmile_qr_scan"}, "lon": -77.01841266666666, "bike_id": "accf7707ecf71bc0f7084166faf72009", "type": "electric_scooter", "name": "accf7707ecf71bc0f7084166faf72009"}, {"is_disabled": 0, "is_reserved": 0, "fusion_lat": 0.0, "lat": 38.90297866666667, "fusion_lon": 0.0, "rental_uris": {"ios": "https://dc.lft.to/lastmile_qr_scan", "android": "https://dc.lft.to/lastmile_qr_scan"}, "lon": -77.01214216666666, "bike_id": "9b2c7f073125e61597b412343639946e", "type": "electric_scooter", "name": "9b2c7f073125e61597b412343639946e"}, {"is_disabled": 0, "is_reserved": 0, "fusion_lat": 0.0, "lat": 38.91773533333333, "fusion_lon": 0.0, "rental_uris": {"ios": "https://dc.lft.to/lastmile_qr_scan", "android": "https://dc.lft.to/lastmile_qr_scan"}, "lon": -77.02338816666666, "bike_id": "73f673a35150cbf6a849198b0bf7b944", "type": "electric_scooter", "name": "73f673a35150cbf6a849198b0bf7b944"}, {"is_disabled": 0, "is_reserved": 0, "fusion_lat": 0.0, "lat": 38.920004166666665, "fusion_lon": 0.0, "rental_uris": {"ios": "https://dc.lft.to/lastmile_qr_scan", "android": "https://dc.lft.to/lastmile_qr_scan"}, "lon": -77.03151466666667, "bike_id": "d04e34a76d4b19ed4087d90fa38c2521", "type": "electric_scooter", "name": "d04e34a76d4b19ed4087d90fa38c2521"}, {"is_disabled": 0, "is_reserved": 0, "fusion_lat": 0.0, "lat": 38.842816666666664, "fusion_lon": 0.0, "rental_uris": {"ios": "https://dc.lft.to/lastmile_qr_scan", "android": "https://dc.lft.to/lastmile_qr_scan"}, "lon": -76.98839766666667, "bike_id": "9fa562a5a73679453d8eb2f41c243a81", "type": "electric_bike", "name": "9fa562a5a73679453d8eb2f41c243a81"}, {"is_disabled": 0, "is_reserved": 0, "fusion_lat": 0.0, "lat": 38.902441833333334, "fusion_lon": 0.0, "rental_uris": {"ios": "https://dc.lft.to/lastmile_qr_scan", "android": "https://dc.lft.to/lastmile_qr_scan"}, "lon": -77.00770266666666, "bike_id": "c424473f452963f91e43eb5db707124e", "type": "electric_scooter", "name": "c424473f452963f91e43eb5db707124e"}, {"is_disabled": 0, "is_reserved": 0, "fusion_lat": 0.0, "lat": 38.8505815, "fusion_lon": 0.0, "rental_uris": {"ios": "https://dc.lft.to/lastmile_qr_scan", "android": "https://dc.lft.to/lastmile_qr_scan"}, "lon": -76.95825433333333, "bike_id": "cd1ded0335bbaf566b3a6d6820847d5d", "type": "electric_bike", "name": "cd1ded0335bbaf566b3a6d6820847d5d"}, {"is_disabled": 0, "is_reserved": 0, "fusion_lat": 0.0, "lat": 38.9210085, "fusion_lon": 0.0, "rental_uris": {"ios": "https://dc.lft.to/lastmile_qr_scan", "android": "https://dc.lft.to/lastmile_qr_scan"}, "lon": -77.04173183333333, "bike_id": "99d4732bc5e1414365ca3bad0bf3c0aa", "type": "electric_scooter", "name": "99d4732bc5e1414365ca3bad0bf3c0aa"}, {"is_disabled": 0, "is_reserved": 0, "fusion_lat": 0.0, "lat": 38.86083033333333, "fusion_lon": 0.0, "rental_uris": {"ios": "https://dc.lft.to/lastmile_qr_scan", "android": "https://dc.lft.to/lastmile_qr_scan"}, "lon": -76.98374166666666, "bike_id": "012a61096df3a3ebbccaaf335766f42b", "type": "electric_scooter", "name": "012a61096df3a3ebbccaaf335766f42b"}, {"is_disabled": 0, "is_reserved": 0, "fusion_lat": 0.0, "lat": 38.87635516666667, "fusion_lon": 0.0, "rental_uris": {"ios": "https://dc.lft.to/lastmile_qr_scan", "android": "https://dc.lft.to/lastmile_qr_scan"}, "lon": -77.00955366666666, "bike_id": "6cd45fa3a5aa4e1c32db280eb93dd134", "type": "electric_scooter", "name": "6cd45fa3a5aa4e1c32db280eb93dd134"}, {"is_disabled": 0, "is_reserved": 0, "fusion_lat": 0.0, "lat": 38.885773, "fusion_lon": 0.0, "rental_uris": {"ios": "https://dc.lft.to/lastmile_qr_scan", "android": "https://dc.lft.to/lastmile_qr_scan"}, "lon": -77.01210433333334, "bike_id": "ca5101aadd2f3f09a9d40cf02b6e9f13", "type": "electric_scooter", "name": "ca5101aadd2f3f09a9d40cf02b6e9f13"}, {"is_disabled": 0, "is_reserved": 0, "fusion_lat": 0.0, "lat": 38.932391333333335, "fusion_lon": 0.0, "rental_uris": {"ios": "https://dc.lft.to/lastmile_qr_scan", "android": "https://dc.lft.to/lastmile_qr_scan"}, "lon": -76.99700616666667, "bike_id": "61f0f7aded5c54ca09428e5cacd3e645", "type": "electric_scooter", "name": "61f0f7aded5c54ca09428e5cacd3e645"}, {"is_disabled": 0, "is_reserved": 0, "fusion_lat": 0.0, "lat": 38.9105325, "fusion_lon": 0.0, "rental_uris": {"ios": "https://dc.lft.to/lastmile_qr_scan", "android": "https://dc.lft.to/lastmile_qr_scan"}, "lon": -77.0230165, "bike_id": "f1dc51f47e78d932b9e0d21f81d1fcba", "type": "electric_scooter", "name": "f1dc51f47e78d932b9e0d21f81d1fcba"}, {"is_disabled": 0, "is_reserved": 0, "fusion_lat": 0.0, "lat": 38.93185666666667, "fusion_lon": 0.0, "rental_uris": {"ios": "https://dc.lft.to/lastmile_qr_scan", "android": "https://dc.lft.to/lastmile_qr_scan"}, "lon": -77.0345615, "bike_id": "5af4d81233187cbce78f7366a89a179c", "type": "electric_scooter", "name": "5af4d81233187cbce78f7366a89a179c"}, {"is_disabled": 0, "is_reserved": 0, "fusion_lat": 0.0, "lat": 38.92164666666667, "fusion_lon": 0.0, "rental_uris": {"ios": "https://dc.lft.to/lastmile_qr_scan", "android": "https://dc.lft.to/lastmile_qr_scan"}, "lon": -77.032604, "bike_id": "90996c712baf07d6dcfd12f2d52cfd2f", "type": "electric_scooter", "name": "90996c712baf07d6dcfd12f2d52cfd2f"}, {"is_disabled": 0, "is_reserved": 0, "fusion_lat": 0.0, "lat": 38.891098666666664, "fusion_lon": 0.0, "rental_uris": {"ios": "https://dc.lft.to/lastmile_qr_scan", "android": "https://dc.lft.to/lastmile_qr_scan"}, "lon": -77.01436433333333, "bike_id": "f00b994af230ceacae9dcdb38bf2b828", "type": "electric_scooter", "name": "f00b994af230ceacae9dcdb38bf2b828"}, {"is_disabled": 0, "is_reserved": 0, "fusion_lat": 0.0, "lat": 38.91185016666667, "fusion_lon": 0.0, "rental_uris": {"ios": "https://dc.lft.to/lastmile_qr_scan", "android": "https://dc.lft.to/lastmile_qr_scan"}, "lon": -77.00176233333333, "bike_id": "f3bfe59967d1177d98651f4cec081e13", "type": "electric_scooter", "name": "f3bfe59967d1177d98651f4cec081e13"}, {"is_disabled": 0, "is_reserved": 0, "fusion_lat": 0.0, "lat": 38.928250166666665, "fusion_lon": 0.0, "rental_uris": {"ios": "https://dc.lft.to/lastmile_qr_scan", "android": "https://dc.lft.to/lastmile_qr_scan"}, "lon": -77.0434565, "bike_id": "740b5577641332142a4b78e2f1448f2e", "type": "electric_scooter", "name": "740b5577641332142a4b78e2f1448f2e"}, {"is_disabled": 0, "is_reserved": 0, "fusion_lat": 0.0, "lat": 38.930227333333335, "fusion_lon": 0.0, "rental_uris": {"ios": "https://dc.lft.to/lastmile_qr_scan", "android": "https://dc.lft.to/lastmile_qr_scan"}, "lon": -77.03803033333334, "bike_id": "b94ec235f52b353456a9e3ee344ee25c", "type": "electric_scooter", "name": "b94ec235f52b353456a9e3ee344ee25c"}, {"is_disabled": 0, "is_reserved": 0, "fusion_lat": 0.0, "lat": 38.922178333333335, "fusion_lon": 0.0, "rental_uris": {"ios": "https://dc.lft.to/lastmile_qr_scan", "android": "https://dc.lft.to/lastmile_qr_scan"}, "lon": -77.03291283333333, "bike_id": "032f9912faedf11f2d7eb3b45de977d7", "type": "electric_scooter", "name": "032f9912faedf11f2d7eb3b45de977d7"}, {"is_disabled": 0, "is_reserved": 0, "fusion_lat": 0.0, "lat": 38.90477833333333, "fusion_lon": 0.0, "rental_uris": {"ios": "https://dc.lft.to/lastmile_qr_scan", "android": "https://dc.lft.to/lastmile_qr_scan"}, "lon": -76.95055016666667, "bike_id": "2e1e66ac0405a071bebeab71f0cc6a13", "type": "electric_scooter", "name": "2e1e66ac0405a071bebeab71f0cc6a13"}, {"is_disabled": 0, "is_reserved": 0, "fusion_lat": 0.0, "lat": 38.855141333333336, "fusion_lon": 0.0, "rental_uris": {"ios": "https://dc.lft.to/lastmile_qr_scan", "android": "https://dc.lft.to/lastmile_qr_scan"}, "lon": -76.99141616666667, "bike_id": "eb4d81d086fc498d4088987ca3ed2693", "type": "electric_scooter", "name": "eb4d81d086fc498d4088987ca3ed2693"}, {"is_disabled": 0, "is_reserved": 0, "fusion_lat": 0.0, "lat": 38.8971125, "fusion_lon": 0.0, "rental_uris": {"ios": "https://dc.lft.to/lastmile_qr_scan", "android": "https://dc.lft.to/lastmile_qr_scan"}, "lon": -77.04891233333333, "bike_id": "d2150dc152db71e479eddf1b1514ff02", "type": "electric_scooter", "name": "d2150dc152db71e479eddf1b1514ff02"}, {"is_disabled": 0, "is_reserved": 0, "fusion_lat": 0.0, "lat": 38.924304166666666, "fusion_lon": 0.0, "rental_uris": {"ios": "https://dc.lft.to/lastmile_qr_scan", "android": "https://dc.lft.to/lastmile_qr_scan"}, "lon": -77.02983766666667, "bike_id": "d34cd31239ff57b81c1f5e4581b76235", "type": "electric_scooter", "name": "d34cd31239ff57b81c1f5e4581b76235"}, {"is_disabled": 0, "is_reserved": 0, "fusion_lat": 0.0, "lat": 38.894283333333334, "fusion_lon": 0.0, "rental_uris": {"ios": "https://dc.lft.to/lastmile_qr_scan", "android": "https://dc.lft.to/lastmile_qr_scan"}, "lon": -77.0109205, "bike_id": "c745e155d90ff4e2d05506ea0423cdbb", "type": "electric_scooter", "name": "c745e155d90ff4e2d05506ea0423cdbb"}, {"is_disabled": 0, "is_reserved": 0, "fusion_lat": 0.0, "lat": 38.91062483333333, "fusion_lon": 0.0, "rental_uris": {"ios": "https://dc.lft.to/lastmile_qr_scan", "android": "https://dc.lft.to/lastmile_qr_scan"}, "lon": -77.02194466666667, "bike_id": "2e6882c59851f4cef683b3cf751f8cd0", "type": "electric_scooter", "name": "2e6882c59851f4cef683b3cf751f8cd0"}, {"is_disabled": 0, "is_reserved": 0, "fusion_lat": 0.0, "lat": 38.90649166666667, "fusion_lon": 0.0, "rental_uris": {"ios": "https://dc.lft.to/lastmile_qr_scan", "android": "https://dc.lft.to/lastmile_qr_scan"}, "lon": -77.0487585, "bike_id": "8f58a27e7cb2b33151cf01731702fde6", "type": "electric_scooter", "name": "8f58a27e7cb2b33151cf01731702fde6"}, {"is_disabled": 0, "is_reserved": 0, "fusion_lat": 0.0, "lat": 38.900105, "fusion_lon": 0.0, "rental_uris": {"ios": "https://dc.lft.to/lastmile_qr_scan", "android": "https://dc.lft.to/lastmile_qr_scan"}, "lon": -76.97987383333333, "bike_id": "f64189e37a3e9c9b4f9dd91c365a3c18", "type": "electric_scooter", "name": "f64189e37a3e9c9b4f9dd91c365a3c18"}, {"is_disabled": 0, "is_reserved": 0, "fusion_lat": 0.0, "lat": 38.879198833333334, "fusion_lon": 0.0, "rental_uris": {"ios": "https://dc.lft.to/lastmile_qr_scan", "android": "https://dc.lft.to/lastmile_qr_scan"}, "lon": -77.013752, "bike_id": "b7080668ba56ca95d078c8a8721c1981", "type": "electric_scooter", "name": "b7080668ba56ca95d078c8a8721c1981"}, {"is_disabled": 0, "is_reserved": 0, "fusion_lat": 0.0, "lat": 38.922403333333335, "fusion_lon": 0.0, "rental_uris": {"ios": "https://dc.lft.to/lastmile_qr_scan", "android": "https://dc.lft.to/lastmile_qr_scan"}, "lon": -77.04010116666667, "bike_id": "083d4b4a44a31ea188349aff0bef6954", "type": "electric_scooter", "name": "083d4b4a44a31ea188349aff0bef6954"}, {"is_disabled": 0, "is_reserved": 0, "fusion_lat": 0.0, "lat": 38.9206675, "fusion_lon": 0.0, "rental_uris": {"ios": "https://dc.lft.to/lastmile_qr_scan", "android": "https://dc.lft.to/lastmile_qr_scan"}, "lon": -77.0234415, "bike_id": "00c42c680343d23796d6fd054e18866b", "type": "electric_scooter", "name": "00c42c680343d23796d6fd054e18866b"}, {"is_disabled": 0, "is_reserved": 0, "fusion_lat": 0.0, "lat": 38.9006565, "fusion_lon": 0.0, "rental_uris": {"ios": "https://dc.lft.to/lastmile_qr_scan", "android": "https://dc.lft.to/lastmile_qr_scan"}, "lon": -77.00652966666667, "bike_id": "5f6bb45175c8248260ab457175435367", "type": "electric_scooter", "name": "5f6bb45175c8248260ab457175435367"}, {"is_disabled": 0, "is_reserved": 0, "fusion_lat": 0.0, "lat": 38.911112833333334, "fusion_lon": 0.0, "rental_uris": {"ios": "https://dc.lft.to/lastmile_qr_scan", "android": "https://dc.lft.to/lastmile_qr_scan"}, "lon": -77.04834983333333, "bike_id": "8c60df6ce9330cb6284805201e4e7fc0", "type": "electric_scooter", "name": "8c60df6ce9330cb6284805201e4e7fc0"}, {"is_disabled": 0, "is_reserved": 0, "fusion_lat": 0.0, "lat": 38.901812, "fusion_lon": 0.0, "rental_uris": {"ios": "https://dc.lft.to/lastmile_qr_scan", "android": "https://dc.lft.to/lastmile_qr_scan"}, "lon": -76.97670116666667, "bike_id": "61c20757bf40d81ea1fca8c9fcd35c55", "type": "electric_scooter", "name": "61c20757bf40d81ea1fca8c9fcd35c55"}, {"is_disabled": 0, "is_reserved": 0, "fusion_lat": 0.0, "lat": 38.88714066666667, "fusion_lon": 0.0, "rental_uris": {"ios": "https://dc.lft.to/lastmile_qr_scan", "android": "https://dc.lft.to/lastmile_qr_scan"}, "lon": -76.98382016666666, "bike_id": "3dbaab28d10b820f71ccef94ca1cd78c", "type": "electric_scooter", "name": "3dbaab28d10b820f71ccef94ca1cd78c"}, {"is_disabled": 0, "is_reserved": 0, "fusion_lat": 0.0, "lat": 38.922375333333335, "fusion_lon": 0.0, "rental_uris": {"ios": "https://dc.lft.to/lastmile_qr_scan", "android": "https://dc.lft.to/lastmile_qr_scan"}, "lon": -77.022924, "bike_id": "ae2231032b454df33b7d1a0c32be9fa6", "type": "electric_scooter", "name": "ae2231032b454df33b7d1a0c32be9fa6"}, {"is_disabled": 0, "is_reserved": 0, "fusion_lat": 0.0, "lat": 38.90924566666666, "fusion_lon": 0.0, "rental_uris": {"ios": "https://dc.lft.to/lastmile_qr_scan", "android": "https://dc.lft.to/lastmile_qr_scan"}, "lon": -77.04572016666667, "bike_id": "71a12ae5a66005797d709e33f013563a", "type": "electric_scooter", "name": "71a12ae5a66005797d709e33f013563a"},