{"data": {"bikes": [{"bike_id": "5a12fa3d43e35652cad8c7522d0df33c", "is_reserved": 0, "fusion_lon": 0.0, "lat": 38.897090666666664, "is_disabled": 0, "name": "5a12fa3d43e35652cad8c7522d0df33c", "fusion_lat": 0.0, "rental_uris": {"ios": "https://dc.lft.to/lastmile_qr_scan", "android": "https://dc.lft.to/lastmile_qr_scan"}, "lon": -76.9176855, "type": "electric_scooter"}, {"bike_id": "97babb3318c413aa2f3b418d7b672154", "is_reserved": 0, "fusion_lon": 0.0, "lat": 38.92121783333333, "is_disabled": 0, "name": "97babb3318c413aa2f3b418d7b672154", "fusion_lat": 0.0, "rental_uris": {"ios": "https://dc.lft.to/lastmile_qr_scan", "android": "https://dc.lft.to/lastmile_qr_scan"}, "lon": -77.04564783333333, "type": "electric_scooter"}, {"bike_id": "3e923a99ae02457e888b5516f754fe61", "is_reserved": 0, "fusion_lon": 0.0, "lat": 38.909805666666664, "is_disabled": 0, "name": "3e923a99ae02457e888b5516f754fe61", "fusion_lat": 0.0, "rental_uris": {"ios": "https://dc.lft.to/lastmile_qr_scan", "android": "https://dc.lft.to/lastmile_qr_scan"}, "lon": -77.03377233333333, "type": "electric_scooter"}, {"bike_id": "469498cdb8fd6f1a97c67ece41d2a6e5", "is_reserved": 0, "fusion_lon": 0.0, "lat": 38.91877316666667, "is_disabled": 0, "name": "469498cdb8fd6f1a97c67ece41d2a6e5", "fusion_lat": 0.0, "rental_uris": {"ios": "https://dc.lft.to/lastmile_qr_scan", "android": "https://dc.lft.to/lastmile_qr_scan"}, "lon": -77.04317016666667, "type": "electric_scooter"}, {"bike_id": "b83a251bd616c724fba1910c715b7010", "is_reserved": 0, "fusion_lon": 0.0, "lat": 38.8272775, "is_disabled": 0, "name": "b83a251bd616c724fba1910c715b7010", "fusion_lat": 0.0, "rental_uris": {"ios": "https://dc.lft.to/lastmile_qr_scan", "android": "https://dc.lft.to/lastmile_qr_scan"}, "lon": -77.00862983333333, "type": "electric_bike"}, {"bike_id": "4f4f3baa11378b2973a46d65693c9eb8", "is_reserved": 0, "fusion_lon": 0.0, "lat": 38.924086833333334, "is_disabled": 0, "name": "4f4f3baa11378b2973a46d65693c9eb8", "fusion_lat": 0.0, "rental_uris": {"ios": "https://dc.lft.to/lastmile_qr_scan", "android": "https://dc.lft.to/lastmile_qr_scan"}, "lon": -77.0195705, "type": "electric_scooter"}, {"bike_id": "c6b7ec6f89b3901534de4e7c08aa586c", "is_reserved": 0, "fusion_lon": 0.0, "lat": 38.899772, "is_disabled": 0, "name": "c6b7ec6f89b3901534de4e7c08aa586c", "fusion_lat": 0.0, "rental_uris": {"ios": "https://dc.lft.to/lastmile_qr_scan", "android": "https://dc.lft.to/lastmile_qr_scan"}, "lon": -77.055565, "type": "electric_scooter"}, {"bike_id": "3a1aea1e3c4d6481431452e29d7316d1", "is_reserved": 0, "fusion_lon": 0.0, "lat": 38.8802695, "is_disabled": 0, "name": "3a1aea1e3c4d6481431452e29d7316d1", "fusion_lat": 0.0, "rental_uris": {"ios": "https://dc.lft.to/lastmile_qr_scan", "android": "https://dc.lft.to/lastmile_qr_scan"}, "lon": -76.931295, "type": "electric_scooter"}, {"bike_id": "2f8f66f3ce531c6037eb93cf9205d614", "is_reserved": 0, "fusion_lon": 0.0, "lat": 38.927925333333334, "is_disabled": 0, "name": "2f8f66f3ce531c6037eb93cf9205d614", "fusion_lat": 0.0, "rental_uris": {"ios": "https://dc.lft.to/lastmile_qr_scan", "android": "https://dc.lft.to/lastmile_qr_scan"}, "lon": -77.05361516666666, "type": "electric_scooter"}, {"bike_id": "735ef2eca6d4a4d984580b9e990315b2", "is_reserved": 0, "fusion_lon": 0.0, "lat": 38.91822416666667, "is_disabled": 0, "name": "735ef2eca6d4a4d984580b9e990315b2", "fusion_lat": 0.0, "rental_uris": {"ios": "https://dc.lft.to/lastmile_qr_scan", "android": "https://dc.lft.to/lastmile_qr_scan"}, "lon": -77.01209366666667, "type": "electric_scooter"}, {"bike_id": "8309435614f32ac90f1a1b6ad7071dc3", "is_reserved": 0, "fusion_lon": 0.0, "lat": 38.884972166666664, "is_disabled": 0, "name": "8309435614f32ac90f1a1b6ad7071dc3", "fusion_lat": 0.0, "rental_uris": {"ios": "https://dc.lft.to/lastmile_qr_scan", "android": "https://dc.lft.to/lastmile_qr_scan"}, "lon": -77.00725616666666, "type": "electric_scooter"}, {"bike_id": "4812f839eee24f4877152c122c8d52d3", "is_reserved": 0, "fusion_lon": 0.0, "lat": 38.9085505, "is_disabled": 0, "name": "4812f839eee24f4877152c122c8d52d3", "fusion_lat": 0.0, "rental_uris": {"ios": "https://dc.lft.to/lastmile_qr_scan", "android": "https://dc.lft.to/lastmile_qr_scan"}, "lon": -77.02730266666667, "type": "electric_scooter"}, {"bike_id": "a41a8013a52dec0238275e899c4333d8", "is_reserved": 0, "fusion_lon": 0.0, "lat": 38.908050333333335, "is_disabled": 0, "name": "a41a8013a52dec0238275e899c4333d8", "fusion_lat": 0.0, "rental_uris": {"ios": "https://dc.lft.to/lastmile_qr_scan", "android": "https://dc.lft.to/lastmile_qr_scan"}, "lon": -77.0345405, "type": "electric_scooter"}, {"bike_id": "3f4b7d17a140958c8d85fdb7328d962a", "is_reserved": 0, "fusion_lon": 0.0, "lat": 38.89230366666666, "is_disabled": 0, "name": "3f4b7d17a140958c8d85fdb7328d962a", "fusion_lat": 0.0, "rental_uris": {"ios": "https://dc.lft.to/lastmile_qr_scan", "android": "https://dc.lft.to/lastmile_qr_scan"}, "lon": -77.022029, "type": "electric_scooter"}, {"bike_id": "90f0fc36721cbb1da744cce400278df8", "is_reserved": 0, "fusion_lon": 0.0, "lat": 38.903837333333335, "is_disabled": 0, "name": "90f0fc36721cbb1da744cce400278df8", "fusion_lat": 0.0, "rental_uris": {"ios": "https://dc.lft.to/lastmile_qr_scan", "android": "https://dc.lft.to/lastmile_qr_scan"}, "lon": -77.04388266666666, "type": "electric_scooter"}, {"bike_id": "8f1752b77423495044f63b3a5616d5c9", "is_reserved": 0, "fusion_lon": 0.0, "lat": 38.90532666666667, "is_disabled": 0, "name": "8f1752b77423495044f63b3a5616d5c9", "fusion_lat": 0.0, "rental_uris": {"ios": "https://dc.lft.to/lastmile_qr_scan", "android": "https://dc.lft.to/lastmile_qr_scan"}, "lon": -77.0269715, "type": "electric_scooter"}, {"bike_id": "443911f9c0bf525d68193d054b4ae7b7", "is_reserved": 0, "fusion_lon": 0.0, "lat": 38.903416166666666, "is_disabled": 0, "name": "443911f9c0bf525d68193d054b4ae7b7", "fusion_lat": 0.0, "rental_uris": {"ios": "https://dc.lft.to/lastmile_qr_scan", "android": "https://dc.lft.to/lastmile_qr_scan"}, "lon": -77.03819866666667, "type": "electric_scooter"}, {"bike_id": "830dccddb6e30e89b3a0b5fbd9c8f16c", "is_reserved": 0, "fusion_lon": 0.0, "lat": 38.959249666666665, "is_disabled": 0, "name": "830dccddb6e30e89b3a0b5fbd9c8f16c", "fusion_lat": 0.0, "rental_uris": {"ios": "https://dc.lft.to/lastmile_qr_scan", "android": "https://dc.lft.to/lastmile_qr_scan"}, "lon": -77.03324983333333, "type": "electric_scooter"}, {"bike_id": "d229099d0c4b2de644b2fb628b0dd1b0", "is_reserved": 0, "fusion_lon": 0.0, "lat": 38.908113166666666, "is_disabled": 0, "name": "d229099d0c4b2de644b2fb628b0dd1b0", "fusion_lat": 0.0, "rental_uris": {"ios": "https://dc.lft.to/lastmile_qr_scan", "android": "https://dc.lft.to/lastmile_qr_scan"}, "lon": -77.03440866666666, "type": "electric_scooter"}, {"bike_id": "217d9b8d3803165631be8ca0cb35b6f5", "is_reserved": 0, "fusion_lon": 0.0, "lat": 38.86561733333333, "is_disabled": 0, "name": "217d9b8d3803165631be8ca0cb35b6f5", "fusion_lat": 0.0, "rental_uris": {"ios": "https://dc.lft.to/lastmile_qr_scan", "android": "https://dc.lft.to/lastmile_qr_scan"}, "lon": -76.9894945, "type": "electric_scooter"}, {"bike_id": "031e0317f7d864528bc09e897674b7a5", "is_reserved": 0, "fusion_lon": 0.0, "lat": 38.91680433333333, "is_disabled": 0, "name": "031e0317f7d864528bc09e897674b7a5", "fusion_lat": 0.0, "rental_uris": {"ios": "https://dc.lft.to/lastmile_qr_scan", "android": "https://dc.lft.to/lastmile_qr_scan"}, "lon": -77.029508, "type": "electric_scooter"}, {"bike_id": "e2dfa832c056b9f08e2c03cc256fe6f4", "is_reserved": 0, "fusion_lon": 0.0, "lat": 38.93987716666667, "is_disabled": 0, "name": "e2dfa832c056b9f08e2c03cc256fe6f4", "fusion_lat": 0.0, "rental_uris": {"ios": "https://dc.lft.to/lastmile_qr_scan", "android": "https://dc.lft.to/lastmile_qr_scan"}, "lon": -77.025077, "type": "electric_bike"}, {"bike_id": "de6a231b5cb67adf6a6eb118658ec7a1", "is_reserved": 0, "fusion_lon": 0.0, "lat": 38.91401533333333, "is_disabled": 0, "name": "de6a231b5cb67adf6a6eb118658ec7a1", "fusion_lat": 0.0, "rental_uris": {"ios": "https://dc.lft.to/lastmile_qr_scan", "android": "https://dc.lft.to/lastmile_qr_scan"}, "lon": -77.001558, "type": "electric_scooter"}, {"bike_id": "28907c235ba82185e39e04308d8a04ad", "is_reserved": 0, "fusion_lon": 0.0, "lat": 38.92629316666667, "is_disabled": 0, "name": "28907c235ba82185e39e04308d8a04ad", "fusion_lat": 0.0, "rental_uris": {"ios": "https://dc.lft.to/lastmile_qr_scan", "android": "https://dc.lft.to/lastmile_qr_scan"}, "lon": -77.0331725, "type": "electric_bike"}, {"bike_id": "46f92b7cad65e69ede63ca0ccdb60091", "is_reserved": 0, "fusion_lon": 0.0, "lat": 38.91272416666666, "is_disabled": 0, "name": "46f92b7cad65e69ede63ca0ccdb60091", "fusion_lat": 0.0, "rental_uris": {"ios": "https://dc.lft.to/lastmile_qr_scan", "android": "https://dc.lft.to/lastmile_qr_scan"}, "lon": -77.02212316666666, "type": "electric_scooter"}, {"bike_id": "c3e8b31e01558a14db4b3352d0c400da", "is_reserved": 0, "fusion_lon": 0.0, "lat": 38.9096895, "is_disabled": 0, "name": "c3e8b31e01558a14db4b3352d0c400da", "fusion_lat": 0.0, "rental_uris": {"ios": "https://dc.lft.to/lastmile_qr_scan", "android": "https://dc.lft.to/lastmile_qr_scan"}, "lon": -77.02715983333333, "type": "electric_scooter"}, {"bike_id": "de8968be71d8737366d146673db9b311", "is_reserved": 0, "fusion_lon": 0.0, "lat": 38.920721666666665, "is_disabled": 0, "name": "de8968be71d8737366d146673db9b311", "fusion_lat": 0.0, "rental_uris": {"ios": "https://dc.lft.to/lastmile_qr_scan", "android": "https://dc.lft.to/lastmile_qr_scan"}, "lon": -77.02425216666667, "type": "electric_scooter"}, {"bike_id": "70b4307ffaa89ffee9a954373b086d85", "is_reserved": 0, "fusion_lon": 0.0, "lat": 38.943985, "is_disabled": 0, "name": "70b4307ffaa89ffee9a954373b086d85", "fusion_lat": 0.0, "rental_uris": {"ios": "https://dc.lft.to/lastmile_qr_scan", "android": "https://dc.lft.to/lastmile_qr_scan"}, "lon": -77.0389155, "type": "electric_scooter"}, {"bike_id": "6f357a0fa03802bb3b0bf6c11b5efa7e", "is_reserved": 0, "fusion_lon": 0.0, "lat": 38.905789166666665, "is_disabled": 0, "name": "6f357a0fa03802bb3b0bf6c11b5efa7e", "fusion_lat": 0.0, "rental_uris": {"ios": "https://dc.lft.to/lastmile_qr_scan", "android": "https://dc.lft.to/lastmile_qr_scan"}, "lon": -77.04674583333333, "type": "electric_scooter"}, {"bike_id": "1a08f76637556dedd0447b1b74709c7d", "is_reserved": 0, "fusion_lon": 0.0, "lat": 38.898724333333334, "is_disabled": 0, "name": "1a08f76637556dedd0447b1b74709c7d", "fusion_lat": 0.0, "rental_uris": {"ios": "https://dc.lft.to/lastmile_qr_scan", "android": "https://dc.lft.to/lastmile_qr_scan"}, "lon": -76.93160533333334, "type": "electric_scooter"}, {"bike_id": "764d5a1ceb8c080256b8a34c00912cf4", "is_reserved": 0, "fusion_lon": 0.0, "lat": 38.901344333333334, "is_disabled": 0, "name": "764d5a1ceb8c080256b8a34c00912cf4", "fusion_lat": 0.0, "rental_uris": {"ios": "https://dc.lft.to/lastmile_qr_scan", "android": "https://dc.lft.to/lastmile_qr_scan"}, "lon": -77.04365816666666, "type": "electric_scooter"}, {"bike_id": "e66aec52ba2a6ac8ec53fce534415653", "is_reserved": 0, "fusion_lon": 0.0, "lat": 38.91237316666667, "is_disabled": 0, "name": "e66aec52ba2a6ac8ec53fce534415653", "fusion_lat": 0.0, "rental_uris": {"ios": "https://dc.lft.to/lastmile_qr_scan", "android": "https://dc.lft.to/lastmile_qr_scan"}, "lon": -77.01613316666666, "type": "electric_scooter"}, {"bike_id": "28c508e8678a09a16dd5e303cef9ed3d", "is_reserved": 0, "fusion_lon": 0.0, "lat": 38.92483333333333, "is_disabled": 0, "name": "28c508e8678a09a16dd5e303cef9ed3d", "fusion_lat": 0.0, "rental_uris": {"ios": "https://dc.lft.to/lastmile_qr_scan", "android": "https://dc.lft.to/lastmile_qr_scan"}, "lon": -77.02709983333334, "type": "electric_scooter"}, {"bike_id": "f8b6e4680aac038848e8e83bed85d61e", "is_reserved": 0, "fusion_lon": 0.0, "lat": 38.92163633333333, "is_disabled": 0, "name": "f8b6e4680aac038848e8e83bed85d61e", "fusion_lat": 0.0, "rental_uris": {"ios": "https://dc.lft.to/lastmile_qr_scan", "android": "https://dc.lft.to/lastmile_qr_scan"}, "lon": -77.03293816666667, "type": "electric_scooter"}, {"bike_id": "53533440fea05ade201e2dcb51c7e28d", "is_reserved": 0, "fusion_lon": 0.0, "lat": 38.917820166666665, "is_disabled": 0, "name": "53533440fea05ade201e2dcb51c7e28d", "fusion_lat": 0.0, "rental_uris": {"ios": "https://dc.lft.to/lastmile_qr_scan", "android": "https://dc.lft.to/lastmile_qr_scan"}, "lon": -77.0231155, "type": "electric_scooter"}, {"bike_id": "dbb7de057e664241effc0cf7ae31bf40", "is_reserved": 0, "fusion_lon": 0.0, "lat": 38.9172055, "is_disabled": 0, "name": "dbb7de057e664241effc0cf7ae31bf40", "fusion_lat": 0.0, "rental_uris": {"ios": "https://dc.lft.to/lastmile_qr_scan", "android": "https://dc.lft.to/lastmile_qr_scan"}, "lon": -77.03839016666667, "type": "electric_scooter"}, {"bike_id": "ba61847d8136511c329ebc0272b68e55", "is_reserved": 0, "fusion_lon": 0.0, "lat": 38.896061333333336, "is_disabled": 0, "name": "ba61847d8136511c329ebc0272b68e55", "fusion_lat": 0.0, "rental_uris": {"ios": "https://dc.lft.to/lastmile_qr_scan", "android": "https://dc.lft.to/lastmile_qr_scan"}, "lon": -76.98452833333333, "type": "electric_scooter"}, {"bike_id": "6852780fc5bc3221bd93b1f609f40c56", "is_reserved": 0, "fusion_lon": 0.0, "lat": 38.901051833333334, "is_disabled": 0, "name": "6852780fc5bc3221bd93b1f609f40c56", "fusion_lat": 0.0, "rental_uris": {"ios": "https://dc.lft.to/lastmile_qr_scan", "android": "https://dc.lft.to/lastmile_qr_scan"}, "lon": -77.04337316666667, "type": "electric_scooter"}, {"bike_id": "1e6fc6291cd278e874abf82fc3ca1273", "is_reserved": 0, "fusion_lon": 0.0, "lat": 38.90956966666667, "is_disabled": 0, "name": "1e6fc6291cd278e874abf82fc3ca1273", "fusion_lat": 0.0, "rental_uris": {"ios": "https://dc.lft.to/lastmile_qr_scan", "android": "https://dc.lft.to/lastmile_qr_scan"}, "lon": -77.048594, "type": "electric_scooter"}, {"bike_id": "c635af2d23a49068895ead3c089effa1", "is_reserved": 0, "fusion_lon": 0.0, "lat": 39.03882016666667, "is_disabled": 0, "name": "c635af2d23a49068895ead3c089effa1", "fusion_lat": 0.0, "rental_uris": {"ios": "https://dc.lft.to/lastmile_qr_scan", "android": "https://dc.lft.to/lastmile_qr_scan"}, "lon": -76.9903805, "type": "electric_bike"}, {"bike_id": "3460d0b461ab62a573fce430d7272ff2", "is_reserved": 0, "fusion_lon": 0.0, "lat": 38.91428366666667, "is_disabled": 0, "name": "3460d0b461ab62a573fce430d7272ff2", "fusion_lat": 0.0, "rental_uris": {"ios": "https://dc.lft.to/lastmile_qr_scan", "android": "https://dc.lft.to/lastmile_qr_scan"}, "lon": -77.044958, "type": "electric_scooter"}, {"bike_id": "adee2ece31fad3d5e954d7b1f01853b0", "is_reserved": 0, "fusion_lon": 0.0, "lat": 38.892147, "is_disabled": 0, "name": "adee2ece31fad3d5e954d7b1f01853b0", "fusion_lat": 0.0, "rental_uris": {"ios": "https://dc.lft.to/lastmile_qr_scan", "android": "https://dc.lft.to/lastmile_qr_scan"}, "lon": -77.02444016666666, "type": "electric_scooter"}, {"bike_id": "0666d32e9412c28a36668a72ff2f671e", "is_reserved": 0, "fusion_lon": 0.0, "lat": 38.90611416666667, "is_disabled": 0, "name": "0666d32e9412c28a36668a72ff2f671e", "fusion_lat": 0.0, "rental_uris": {"ios": "https://dc.lft.to/lastmile_qr_scan", "android": "https://dc.lft.to/lastmile_qr_scan"}, "lon": -77.0749275, "type": "electric_scooter"}, {"bike_id": "aa81046c56177112983d609ec61ab75f", "is_reserved": 0, "fusion_lon": 0.0, "lat": 38.902649, "is_disabled": 0, "name": "aa81046c56177112983d609ec61ab75f", "fusion_lat": 0.0, "rental_uris": {"ios": "https://dc.lft.to/lastmile_qr_scan", "android": "https://dc.lft.to/lastmile_qr_scan"}, "lon": -77.02827766666667, "type": "electric_scooter"}, {"bike_id": "2b94e0b5702e62b0d0758d902c4a7e70", "is_reserved": 0, "fusion_lon": 0.0, "lat": 38.9139115, "is_disabled": 0, "name": "2b94e0b5702e62b0d0758d902c4a7e70", "fusion_lat": 0.0, "rental_uris": {"ios": "https://dc.lft.to/lastmile_qr_scan", "android": "https://dc.lft.to/lastmile_qr_scan"}, "lon": -77.04616133333333, "type": "electric_scooter"}, {"bike_id": "b9822d77adf56d9b319feb0cd084d893", "is_reserved": 0, "fusion_lon": 0.0, "lat": 38.86421283333333, "is_disabled": 0, "name": "b9822d77adf56d9b319feb0cd084d893", "fusion_lat": 0.0, "rental_uris": {"ios": "https://dc.lft.to/lastmile_qr_scan", "android": "https://dc.lft.to/lastmile_qr_scan"}, "lon": -76.98573066666667, "type": "electric_scooter"}, {"bike_id": "b2ce1d05648c6c54ca7d97f472703d0e", "is_reserved": 0, "fusion_lon": 0.0, "lat": 38.822558666666666, "is_disabled": 0, "name": "b2ce1d05648c6c54ca7d97f472703d0e", "fusion_lat": 0.0, "rental_uris": {"ios": "https://dc.lft.to/lastmile_qr_scan", "android": "https://dc.lft.to/lastmile_qr_scan"}, "lon": -77.00558266666667, "type": "electric_bike"}, {"bike_id": "e65eefdfdc779a1e9659d5055c4c053f", "is_reserved": 0, "fusion_lon": 0.0, "lat": 38.93362116666667, "is_disabled": 0, "name": "e65eefdfdc779a1e9659d5055c4c053f", "fusion_lat": 0.0, "rental_uris": {"ios": "https://dc.lft.to/lastmile_qr_scan", "android": "https://dc.lft.to/lastmile_qr_scan"}, "lon": -77.05726166666666, "type": "electric_scooter"}, {"bike_id": "60ddc3a3961dbc0d2f0b8d2573b2b9b0", "is_reserved": 0, "fusion_lon": 0.0, "lat": 38.885936666666666, "is_disabled": 0, "name": "60ddc3a3961dbc0d2f0b8d2573b2b9b0", "fusion_lat": 0.0, "rental_uris": {"ios": "https://dc.lft.to/lastmile_qr_scan", "android": "https://dc.lft.to/lastmile_qr_scan"}, "lon": -77.01767766666667, "type": "electric_scooter"}, {"bike_id": "40e7ebabae3e9505f65947cd32462b35", "is_reserved": 0, "fusion_lon": 0.0, "lat": 38.9149625, "is_disabled": 0, "name": "40e7ebabae3e9505f65947cd32462b35", "fusion_lat": 0.0, "rental_uris": {"ios": "https://dc.lft.to/lastmile_qr_scan", "android": "https://dc.lft.to/lastmile_qr_scan"}, "lon": -76.98383416666667, "type": "electric_scooter"}, {"bike_id": "c8d7c5afb1146255a83a565b5f7e6d1d", "is_reserved": 0, "fusion_lon": 0.0, "lat": 38.910439833333335, "is_disabled": 0, "name": "c8d7c5afb1146255a83a565b5f7e6d1d", "fusion_lat": 0.0, "rental_uris": {"ios": "https://dc.lft.to/lastmile_qr_scan", "android": "https://dc.lft.to/lastmile_qr_scan"}, "lon": -77.03577183333333, "type": "electric_scooter"}, {"bike_id": "0d88cb1b9d68d1d85c7dcb34d090f6fc", "is_reserved": 0, "fusion_lon": 0.0, "lat": 38.907765833333336, "is_disabled": 0, "name": "0d88cb1b9d68d1d85c7dcb34d090f6fc", "fusion_lat": 0.0, "rental_uris": {"ios": "https://dc.lft.to/lastmile_qr_scan", "android": "https://dc.lft.to/lastmile_qr_scan"}, "lon": -77.03819283333333, "type": "electric_scooter"}, {"bike_id": "b01e0cd90c45c2fa2a00b90eeec1944a", "is_reserved": 0, "fusion_lon": 0.0, "lat": 38.93069666666667, "is_disabled": 0, "name": "b01e0cd90c45c2fa2a00b90eeec1944a", "fusion_lat": 0.0, "rental_uris": {"ios": "https://dc.lft.to/lastmile_qr_scan", "android": "https://dc.lft.to/lastmile_qr_scan"}, "lon": -77.03415066666666, "type": "electric_scooter"}, {"bike_id": "ee1e23800e97a953d85a4a5e432dc732", "is_reserved": 0, "fusion_lon": 0.0, "lat": 38.8936255, "is_disabled": 0, "name": "ee1e23800e97a953d85a4a5e432dc732", "fusion_lat": 0.0, "rental_uris": {"ios": "https://dc.lft.to/lastmile_qr_scan", "android": "https://dc.lft.to/lastmile_qr_scan"}, "lon": -77.02831066666667, "type": "electric_scooter"}, {"bike_id": "bbaddc4cd0fcd937220e1e072d182cea", "is_reserved": 0, "fusion_lon": 0.0, "lat": 38.9072035, "is_disabled": 0, "name": "bbaddc4cd0fcd937220e1e072d182cea", "fusion_lat": 0.0, "rental_uris": {"ios": "https://dc.lft.to/lastmile_qr_scan", "android": "https://dc.lft.to/lastmile_qr_scan"}, "lon": -77.032245, "type": "electric_scooter"}, {"bike_id": "6cf78212bcca2b4cc9db693ca20d5f41", "is_reserved": 0, "fusion_lon": 0.0, "lat": 38.894542, "is_disabled": 0, "name": "6cf78212bcca2b4cc9db693ca20d5f41", "fusion_lat": 0.0, "rental_uris": {"ios": "https://dc.lft.to/lastmile_qr_scan", "android": "https://dc.lft.to/lastmile_qr_scan"}, "lon": -76.9703285, "type": "electric_bike"}, {"bike_id": "dcfb09c2af81a0a7ce905a4d72c8ede8", "is_reserved": 0, "fusion_lon": 0.0, "lat": 38.91839916666667, "is_disabled": 0, "name": "dcfb09c2af81a0a7ce905a4d72c8ede8", "fusion_lat": 0.0, "rental_uris": {"ios": "https://dc.lft.to/lastmile_qr_scan", "android": "https://dc.lft.to/lastmile_qr_scan"}, "lon": -77.0260825, "type": "electric_scooter"}, {"bike_id": "e1814defa28e900c207722e491997c28", "is_reserved": 0, "fusion_lon": 0.0, "lat": 38.9004285, "is_disabled": 0, "name": "e1814defa28e900c207722e491997c28", "fusion_lat": 0.0, "rental_uris": {"ios": "https://dc.lft.to/lastmile_qr_scan", "android": "https://dc.lft.to/lastmile_qr_scan"}, "lon": -77.03213583333333, "type": "electric_scooter"}, {"bike_id": "9d0d370993d5d1b67108df6ff8a95588", "is_reserved": 0, "fusion_lon": 0.0, "lat": 38.898892833333335, "is_disabled": 0, "name": "9d0d370993d5d1b67108df6ff8a95588", "fusion_lat": 0.0, "rental_uris": {"ios": "https://dc.lft.to/lastmile_qr_scan", "android": "https://dc.lft.to/lastmile_qr_scan"}, "lon": -77.03970033333333, "type": "electric_scooter"}, {"bike_id": "bcd9419c8a910ba801d9524c0fa04940", "is_reserved": 0, "fusion_lon": 0.0, "lat": 38.89615366666666, "is_disabled": 0, "name": "bcd9419c8a910ba801d9524c0fa04940", "fusion_lat": 0.0, "rental_uris": {"ios": "https://dc.lft.to/lastmile_qr_scan", "android": "https://dc.lft.to/lastmile_qr_scan"}, "lon": -76.95577616666667, "type": "electric_scooter"}, {"bike_id": "c21e7b68d562dc3b0afd642336f819b1", "is_reserved": 0, "fusion_lon": 0.0, "lat": 38.949727333333335, "is_disabled": 0, "name": "c21e7b68d562dc3b0afd642336f819b1", "fusion_lat": 0.0, "rental_uris": {"ios": "https://dc.lft.to/lastmile_qr_scan", "android": "https://dc.lft.to/lastmile_qr_scan"}, "lon": -77.07888466666667, "type": "electric_scooter"}, {"bike_id": "2abc8b30f0ae4df8d94de31669c6b750", "is_reserved": 0, "fusion_lon": 0.0, "lat": 38.917724166666666, "is_disabled": 0, "name": "2abc8b30f0ae4df8d94de31669c6b750", "fusion_lat": 0.0, "rental_uris": {"ios": "https://dc.lft.to/lastmile_qr_scan", "android": "https://dc.lft.to/lastmile_qr_scan"}, "lon": -77.04058166666667, "type": "electric_scooter"}, {"bike_id": "53211a3e5da60ed6124164487cfd4b04", "is_reserved": 0, "fusion_lon": 0.0, "lat": 38.91480166666667, "is_disabled": 0, "name": "53211a3e5da60ed6124164487cfd4b04", "fusion_lat": 0.0, "rental_uris": {"ios": "https://dc.lft.to/lastmile_qr_scan", "android": "https://dc.lft.to/lastmile_qr_scan"}, "lon": -77.02184416666667, "type": "electric_scooter"}, {"bike_id": "687b763082860617344098ba6f89ccc6", "is_reserved": 0, "fusion_lon": 0.0, "lat": 38.9216395, "is_disabled": 0, "name": "687b763082860617344098ba6f89ccc6", "fusion_lat": 0.0, "rental_uris": {"ios": "https://dc.lft.to/lastmile_qr_scan", "android": "https://dc.lft.to/lastmile_qr_scan"}, "lon": -77.04222816666666, "type": "electric_scooter"}, {"bike_id": "3d27eba33689200600e4f79a9efaafe1", "is_reserved": 0, "fusion_lon": 0.0, "lat": 38.9017025, "is_disabled": 0, "name": "3d27eba33689200600e4f79a9efaafe1", "fusion_lat": 0.0, "rental_uris": {"ios": "https://dc.lft.to/lastmile_qr_scan", "android": "https://dc.lft.to/lastmile_qr_scan"}, "lon": -76.9806625, "type": "electric_scooter"}, {"bike_id": "517d87fd0b584b074564f0b23ec51136", "is_reserved": 0, "fusion_lon": 0.0, "lat": 38.96383016666667, "is_disabled": 0, "name": "517d87fd0b584b074564f0b23ec51136", "fusion_lat": 0.0, "rental_uris": {"ios": "https://dc.lft.to/lastmile_qr_scan", "android": "https://dc.lft.to/lastmile_qr_scan"}, "lon": -77.03501366666667, "type": "electric_scooter"}, {"bike_id": "216022543f1ec8e4ea5ac52009d9296a", "is_reserved": 0, "fusion_lon": 0.0, "lat": 38.923338333333334, "is_disabled": 0, "name": "216022543f1ec8e4ea5ac52009d9296a", "fusion_lat": 0.0, "rental_uris": {"ios": "https://dc.lft.to/lastmile_qr_scan", "android": "https://dc.lft.to/lastmile_qr_scan"}, "lon": -77.0376685, "type": "electric_scooter"}, {"bike_id": "bac9535b69691824aa74cec30db5f9a0", "is_reserved": 0, "fusion_lon": 0.0, "lat": 38.918749, "is_disabled": 0, "name": "bac9535b69691824aa74cec30db5f9a0", "fusion_lat": 0.0, "rental_uris": {"ios": "https://dc.lft.to/lastmile_qr_scan", "android": "https://dc.lft.to/lastmile_qr_scan"}, "lon": -77.0296575, "type": "electric_scooter"}, {"bike_id": "2039e45905dd6ffb99d3e4b9d7e76bc9", "is_reserved": 0, "fusion_lon": 0.0, "lat": 38.918837333333336, "is_disabled": 0, "name": "2039e45905dd6ffb99d3e4b9d7e76bc9", "fusion_lat": 0.0, "rental_uris": {"ios": "https://dc.lft.to/lastmile_qr_scan", "android": "https://dc.lft.to/lastmile_qr_scan"}, "lon": -77.03912283333334, "type": "electric_scooter"}, {"bike_id": "4d3d92ea400bc03692c83f28ee3d080c", "is_reserved": 0, "fusion_lon": 0.0, "lat": 38.903828, "is_disabled": 0, "name": "4d3d92ea400bc03692c83f28ee3d080c", "fusion_lat": 0.0, "rental_uris": {"ios": "https://dc.lft.to/lastmile_qr_scan", "android": "https://dc.lft.to/lastmile_qr_scan"}, "lon": -77.044739, "type": "electric_scooter"}, {"bike_id": "46403624d8c7128c291abd8037ee2a52", "is_reserved": 0, "fusion_lon": 0.0, "lat": 38.93708766666666, "is_disabled": 0, "name": "46403624d8c7128c291abd8037ee2a52", "fusion_lat": 0.0, "rental_uris": {"ios": "https://dc.lft.to/lastmile_qr_scan", "android": "https://dc.lft.to/lastmile_qr_scan"}, "lon": -77.02936366666667, "type": "electric_scooter"}, {"bike_id": "01d8328864b7f5c9fb6f641526e0dfff", "is_reserved": 0, "fusion_lon": 0.0, "lat": 38.917066166666665, "is_disabled": 0, "name": "01d8328864b7f5c9fb6f641526e0dfff", "fusion_lat": 0.0, "rental_uris": {"ios": "https://dc.lft.to/lastmile_qr_scan", "android": "https://dc.lft.to/lastmile_qr_scan"}, "lon": -77.03118066666667, "type": "electric_scooter"}, {"bike_id": "5f2fde99e991df490d09eb01fa8c377b", "is_reserved": 0, "fusion_lon": 0.0, "lat": 38.92171533333333, "is_disabled": 0, "name": "5f2fde99e991df490d09eb01fa8c377b", "fusion_lat": 0.0, "rental_uris": {"ios": "https://dc.lft.to/lastmile_qr_scan", "android": "https://dc.lft.to/lastmile_qr_scan"}, "lon": -77.04007283333334, "type": "electric_scooter"}, {"bike_id": "0b66f270cdbcde7a52c7741fab336dc6", "is_reserved": 0, "fusion_lon": 0.0, "lat": 38.8983155, "is_disabled": 0, "name": "0b66f270cdbcde7a52c7741fab336dc6", "fusion_lat": 0.0, "rental_uris": {"ios": "https://dc.lft.to/lastmile_qr_scan", "android": "https://dc.lft.to/lastmile_qr_scan"}, "lon": -77.0074665, "type": "electric_scooter"}, {"bike_id": "db00eb4bfe2c15a515784e42bcf28aab", "is_reserved": 0, "fusion_lon": 0.0, "lat": 38.90601866666667, "is_disabled": 0, "name": "db00eb4bfe2c15a515784e42bcf28aab", "fusion_lat": 0.0, "rental_uris": {"ios": "https://dc.lft.to/lastmile_qr_scan", "android": "https://dc.lft.to/lastmile_qr_scan"}, "lon": -77.051026, "type": "electric_scooter"}, {"bike_id": "62698bb1028ff68d71ca5d6c1fcde446", "is_reserved": 0, "fusion_lon": 0.0, "lat": 38.837203, "is_disabled": 0, "name": "62698bb1028ff68d71ca5d6c1fcde446", "fusion_lat": 0.0, "rental_uris": {"ios": "https://dc.lft.to/lastmile_qr_scan", "android": "https://dc.lft.to/lastmile_qr_scan"}, "lon": -76.99786933333333, "type": "electric_bike"}, {"bike_id": "15b3b37850998d49db2b8f87e6caa20f", "is_reserved": 0, "fusion_lon": 0.0, "lat": 38.950776833333336, "is_disabled": 0, "name": "15b3b37850998d49db2b8f87e6caa20f", "fusion_lat": 0.0, "rental_uris": {"ios": "https://dc.lft.to/lastmile_qr_scan", "android": "https://dc.lft.to/lastmile_qr_scan"}, "lon": -77.0120165, "type": "electric_bike"}, {"bike_id": "ea414c77efe6fca577ba19e94fada982", "is_reserved": 0, "fusion_lon": 0.0, "lat": 38.93973116666667, "is_disabled": 0, "name": "ea414c77efe6fca577ba19e94fada982", "fusion_lat": 0.0, "rental_uris": {"ios": "https://dc.lft.to/lastmile_qr_scan", "android": "https://dc.lft.to/lastmile_qr_scan"}, "lon": -77.03261883333333, "type": "electric_scooter"}, {"bike_id": "98d6712e3976813f44170986fcf52e2f", "is_reserved": 0, "fusion_lon": 0.0, "lat": 38.93432716666667, "is_disabled": 0, "name": "98d6712e3976813f44170986fcf52e2f", "fusion_lat": 0.0, "rental_uris": {"ios": "https://dc.lft.to/lastmile_qr_scan", "android": "https://dc.lft.to/lastmile_qr_scan"}, "lon": -77.0399875, "type": "electric_scooter"}, {"bike_id": "513be3d16afb3248711be44a4be2e99e", "is_reserved": 0, "fusion_lon": 0.0, "lat": 38.88603283333333, "is_disabled": 0, "name": "513be3d16afb3248711be44a4be2e99e", "fusion_lat": 0.0, "rental_uris": {"ios": "https://dc.lft.to/lastmile_qr_scan", "android": "https://dc.lft.to/lastmile_qr_scan"}, "lon": -76.93604033333334, "type": "electric_scooter"}, {"bike_id": "d5276c48887c3506f1d621ae0d523069", "is_reserved": 0, "fusion_lon": 0.0, "lat": 38.90475883333333, "is_disabled": 0, "name": "d5276c48887c3506f1d621ae0d523069", "fusion_lat": 0.0, "rental_uris": {"ios": "https://dc.lft.to/lastmile_qr_scan", "android": "https://dc.lft.to/lastmile_qr_scan"}, "lon": -77.04031433333333, "type": "electric_scooter"}, {"bike_id": "8f9af4ed7df628a3a53bc4843bf43e46", "is_reserved": 0, "fusion_lon": 0.0, "lat": 38.88513, "is_disabled": 0, "name": "8f9af4ed7df628a3a53bc4843bf43e46", "fusion_lat": 0.0, "rental_uris": {"ios": "https://dc.lft.to/lastmile_qr_scan", "android": "https://dc.lft.to/lastmile_qr_scan"}, "lon": -77.00570483333334, "type": "electric_scooter"}, {"bike_id": "4dccb048570eec5619c4a357c00c2009", "is_reserved": 0, "fusion_lon": 0.0, "lat": 38.92480116666667, "is_disabled": 0, "name": "4dccb048570eec5619c4a357c00c2009", "fusion_lat": 0.0, "rental_uris": {"ios": "https://dc.lft.to/lastmile_qr_scan", "android": "https://dc.lft.to/lastmile_qr_scan"}, "lon": -77.02653066666667, "type": "electric_scooter"}, {"bike_id": "5d65fcce2dc5c606393679e08b362510", "is_reserved": 0, "fusion_lon": 0.0, "lat": 38.900204333333335, "is_disabled": 0, "name": "5d65fcce2dc5c606393679e08b362510", "fusion_lat": 0.0, "rental_uris": {"ios": "https://dc.lft.to/lastmile_qr_scan", "android": "https://dc.lft.to/lastmile_qr_scan"}, "lon": -77.00209783333334, "type": "electric_scooter"}, {"bike_id": "5c7058017c1fea3d1d08aaedbf95767b", "is_reserved": 0, "fusion_lon": 0.0, "lat": 38.9138525, "is_disabled": 0, "name": "5c7058017c1fea3d1d08aaedbf95767b", "fusion_lat": 0.0, "rental_uris": {"ios": "https://dc.lft.to/lastmile_qr_scan", "android": "https://dc.lft.to/lastmile_qr_scan"}, "lon": -77.01695983333333, "type": "electric_scooter"}, {"bike_id": "1dc83c20c27706bac015af416df38a5e", "is_reserved": 0, "fusion_lon": 0.0, "lat": 38.90131216666666, "is_disabled": 0, "name": "1dc83c20c27706bac015af416df38a5e", "fusion_lat": 0.0, "rental_uris": {"ios": "https://dc.lft.to/lastmile_qr_scan", "android": "https://dc.lft.to/lastmile_qr_scan"}, "lon": -77.03312133333333, "type": "electric_scooter"}, {"bike_id": "4da7db57b9447694a0fe8c12e63281e8", "is_reserved": 0, "fusion_lon": 0.0, "lat": 38.92869, "is_disabled": 0, "name": "4da7db57b9447694a0fe8c12e63281e8", "fusion_lat": 0.0, "rental_uris": {"ios": "https://dc.lft.to/lastmile_qr_scan", "android": "https://dc.lft.to/lastmile_qr_scan"}, "lon": -77.0138365, "type": "electric_scooter"}, {"bike_id": "abc66d8f3b1736f3b2573f3526587b8d", "is_reserved": 0, "fusion_lon": 0.0, "lat": 38.9006065, "is_disabled": 0, "name": "abc66d8f3b1736f3b2573f3526587b8d", "fusion_lat": 0.0, "rental_uris": {"ios": "https://dc.lft.to/lastmile_qr_scan", "android": "https://dc.lft.to/lastmile_qr_scan"}, "lon": -76.93386966666667, "type": "electric_scooter"}, {"bike_id": "bd9f69cdd26023a4b20110c9614bfcad", "is_reserved": 0, "fusion_lon": 0.0, "lat": 38.905259666666666, "is_disabled": 0, "name": "bd9f69cdd26023a4b20110c9614bfcad", "fusion_lat": 0.0, "rental_uris": {"ios": "https://dc.lft.to/lastmile_qr_scan", "android": "https://dc.lft.to/lastmile_qr_scan"}, "lon": -76.99809433333333, "type": "electric_bike"}, {"bike_id": "df253f46d207420120c1c87f6ae69ca5", "is_reserved": 0, "fusion_lon": 0.0, "lat": 38.919789, "is_disabled": 0, "name": "df253f46d207420120c1c87f6ae69ca5", "fusion_lat": 0.0, "rental_uris": {"ios": "https://dc.lft.to/lastmile_qr_scan", "android": "https://dc.lft.to/lastmile_qr_scan"}, "lon": -77.02606433333334, "type": "electric_scooter"}, {"bike_id": "89e96c2168d8210c2abbc4fc9f5d8800", "is_reserved": 0, "fusion_lon": 0.0, "lat": 38.91666166666667, "is_disabled": 0, "name": "89e96c2168d8210c2abbc4fc9f5d8800", "fusion_lat": 0.0, "rental_uris": {"ios": "https://dc.lft.to/lastmile_qr_scan", "android": "https://dc.lft.to/lastmile_qr_scan"}, "lon": -77.02707133333334, "type": "electric_scooter"}, {"bike_id": "03580491400202f0e9100fe5c4a518d9", "is_reserved": 0, "fusion_lon": 0.0, "lat": 38.905614, "is_disabled": 0, "name": "03580491400202f0e9100fe5c4a518d9", "fusion_lat": 0.0, "rental_uris": {"ios": "https://dc.lft.to/lastmile_qr_scan", "android": "https://dc.lft.to/lastmile_qr_scan"}, "lon": -77.03455116666666, "type": "electric_scooter"}, {"bike_id": "3a3fd115e5f40a1fa94c76b6d5f5fee1", "is_reserved": 0, "fusion_lon": 0.0, "lat": 38.92285833333333, "is_disabled": 0, "name": "3a3fd115e5f40a1fa94c76b6d5f5fee1", "fusion_lat": 0.0, "rental_uris": {"ios": "https://dc.lft.to/lastmile_qr_scan", "android": "https://dc.lft.to/lastmile_qr_scan"}, "lon": -77.03203516666666, "type": "electric_scooter"}, {"bike_id": "af39828bf8c64f03f4c99579f4287c24", "is_reserved": 0, "fusion_lon": 0.0, "lat": 38.866934, "is_disabled": 0, "name": "af39828bf8c64f03f4c99579f4287c24", "fusion_lat": 0.0, "rental_uris": {"ios": "https://dc.lft.to/lastmile_qr_scan", "android": "https://dc.lft.to/lastmile_qr_scan"}, "lon": -76.98710033333333, "type": "electric_scooter"}, {"bike_id": "d3c4279a191432f144e6d8962af5a36c", "is_reserved": 0, "fusion_lon": 0.0, "lat": 38.922918, "is_disabled": 0, "name": "d3c4279a191432f144e6d8962af5a36c", "fusion_lat": 0.0, "rental_uris": {"ios": "https://dc.lft.to/lastmile_qr_scan", "android": "https://dc.lft.to/lastmile_qr_scan"}, "lon": -77.020732, "type": "electric_scooter"}, {"bike_id": "4211095503813a931a447d9aa13bf324", "is_reserved": 0, "fusion_lon": 0.0, "lat": 38.90567566666667, "is_disabled": 0, "name": "4211095503813a931a447d9aa13bf324", "fusion_lat": 0.0, "rental_uris": {"ios": "https://dc.lft.to/lastmile_qr_scan", "android": "https://dc.lft.to/lastmile_qr_scan"}, "lon": -77.021787, "type": "electric_scooter"}, {"bike_id": "083848a8d95889f91be01344d54abf4f", "is_reserved": 0, "fusion_lon": 0.0, "lat": 38.94153633333333, "is_disabled": 0, "name": "083848a8d95889f91be01344d54abf4f", "fusion_lat": 0.0, "rental_uris": {"ios": "https://dc.lft.to/lastmile_qr_scan", "android": "https://dc.lft.to/lastmile_qr_scan"}, "lon": -77.03652316666667, "type": "electric_scooter"}, {"bike_id": "f94012ef4dcaee6733912929d959f1f7", "is_reserved": 0, "fusion_lon": 0.0, "lat": 38.90572266666667, "is_disabled": 0, "name": "f94012ef4dcaee6733912929d959f1f7", "fusion_lat": 0.0, "rental_uris": {"ios": "https://dc.lft.to/lastmile_qr_scan", "android": "https://dc.lft.to/lastmile_qr_scan"}, "lon": -76.99790583333333, "type": "electric_bike"}, {"bike_id": "2233ba7443976ac3ef3b03eb8350187e", "is_reserved": 0, "fusion_lon": 0.0, "lat": 38.91332033333333, "is_disabled": 0, "name": "2233ba7443976ac3ef3b03eb8350187e", "fusion_lat": 0.0, "rental_uris": {"ios": "https://dc.lft.to/lastmile_qr_scan", "android": "https://dc.lft.to/lastmile_qr_scan"}, "lon": -77.030383, "type": "electric_scooter"}, {"bike_id": "3c5c63aab205f195ec8b56cb67ec8e63", "is_reserved": 0, "fusion_lon": 0.0, "lat": 38.9074665, "is_disabled": 0, "name": "3c5c63aab205f195ec8b56cb67ec8e63", "fusion_lat": 0.0, "rental_uris": {"ios": "https://dc.lft.to/lastmile_qr_scan", "android": "https://dc.lft.to/lastmile_qr_scan"}, "lon": -77.03471983333333, "type": "electric_scooter"}, {"bike_id": "2ceb89ad64497b75a3160da42a40caa9", "is_reserved": 0, "fusion_lon": 0.0, "lat": 38.92402333333333, "is_disabled": 0, "name": "2ceb89ad64497b75a3160da42a40caa9", "fusion_lat": 0.0, "rental_uris": {"ios": "https://dc.lft.to/lastmile_qr_scan", "android": "https://dc.lft.to/lastmile_qr_scan"}, "lon": -77.02547816666667, "type": "electric_scooter"}, {"bike_id": "b05bc02f0633c81f392de6dc343096f3", "is_reserved": 0, "fusion_lon": 0.0, "lat": 38.88435166666667, "is_disabled": 0, "name": "b05bc02f0633c81f392de6dc343096f3", "fusion_lat": 0.0, "rental_uris": {"ios": "https://dc.lft.to/lastmile_qr_scan", "android": "https://dc.lft.to/lastmile_qr_scan"}, "lon": -76.95759783333334, "type": "electric_scooter"}, {"bike_id": "902e512dcc9b6e9755ebf150727f084c", "is_reserved": 0, "fusion_lon": 0.0, "lat": 38.99090866666667, "is_disabled": 0, "name": "902e512dcc9b6e9755ebf150727f084c", "fusion_lat": 0.0, "rental_uris": {"ios": "https://dc.lft.to/lastmile_qr_scan", "android": "https://dc.lft.to/lastmile_qr_scan"}, "lon": -76.87496183333333, "type": "electric_bike"}, {"bike_id": "667ba437cb8214e66ec8899cc650c1e0", "is_reserved": 0, "fusion_lon": 0.0, "lat": 38.903082, "is_disabled": 0, "name": "667ba437cb8214e66ec8899cc650c1e0", "fusion_lat": 0.0, "rental_uris": {"ios": "https://dc.lft.to/lastmile_qr_scan", "android": "https://dc.lft.to/lastmile_qr_scan"}, "lon": -77.03858033333333, "type": "electric_scooter"}, {"bike_id": "fa3a6f0f278b34c5755c90b6eeb87af9", "is_reserved": 0, "fusion_lon": 0.0, "lat": 38.927419666666665, "is_disabled": 0, "name": "fa3a6f0f278b34c5755c90b6eeb87af9", "fusion_lat": 0.0, "rental_uris": {"ios": "https://dc.lft.to/lastmile_qr_scan", "android": "https://dc.lft.to/lastmile_qr_scan"}, "lon": -77.01203716666667, "type": "electric_scooter"}, {"bike_id": "e21f49b9f3bc3ae0a5ac04443c4141ac", "is_reserved": 0, "fusion_lon": 0.0, "lat": 38.97429266666666, "is_disabled": 0, "name": "e21f49b9f3bc3ae0a5ac04443c4141ac", "fusion_lat": 0.0, "rental_uris": {"ios": "https://dc.lft.to/lastmile_qr_scan", "android": "https://dc.lft.to/lastmile_qr_scan"}, "lon": -77.01525383333333, "type": "electric_scooter"}, {"bike_id": "887a73e4ae86a22c113648f8a1339f26", "is_reserved": 0, "fusion_lon": 0.0, "lat": 38.9141605, "is_disabled": 0, "name": "887a73e4ae86a22c113648f8a1339f26", "fusion_lat": 0.0, "rental_uris": {"ios": "https://dc.lft.to/lastmile_qr_scan", "android": "https://dc.lft.to/lastmile_qr_scan"}, "lon": -77.04143733333333, "type": "electric_scooter"}, {"bike_id": "b645b41bcb5514d66b21dde36e95fe5b", "is_reserved": 0, "fusion_lon": 0.0, "lat": 38.913341, "is_disabled": 0, "name": "b645b41bcb5514d66b21dde36e95fe5b", "fusion_lat": 0.0, "rental_uris": {"ios": "https://dc.lft.to/lastmile_qr_scan", "android": "https://dc.lft.to/lastmile_qr_scan"}, "lon": -77.03124983333333, "type": "electric_scooter"}, {"bike_id": "7b94fd26d3bc9044b1fe4a50f4d93ef8", "is_reserved": 0, "fusion_lon": 0.0, "lat": 38.908660833333336, "is_disabled": 0, "name": "7b94fd26d3bc9044b1fe4a50f4d93ef8", "fusion_lat": 0.0, "rental_uris": {"ios": "https://dc.lft.to/lastmile_qr_scan", "android": "https://dc.lft.to/lastmile_qr_scan"}, "lon": -76.99955833333334, "type": "electric_scooter"}, {"bike_id": "da6996c3160fc110961f25e5aa7474da", "is_reserved": 0, "fusion_lon": 0.0, "lat": 38.9061425, "is_disabled": 0, "name": "da6996c3160fc110961f25e5aa7474da", "fusion_lat": 0.0, "rental_uris": {"ios": "https://dc.lft.to/lastmile_qr_scan", "android": "https://dc.lft.to/lastmile_qr_scan"}, "lon": -77.051501, "type": "electric_scooter"}, {"bike_id": "3effc938762be6bc68a387eea19329d3", "is_reserved": 0, "fusion_lon": 0.0, "lat": 38.90024916666667, "is_disabled": 0, "name": "3effc938762be6bc68a387eea19329d3", "fusion_lat": 0.0, "rental_uris": {"ios": "https://dc.lft.to/lastmile_qr_scan", "android": "https://dc.lft.to/lastmile_qr_scan"}, "lon": -77.00206466666667, "type": "electric_scooter"}, {"bike_id": "14553bc2b84bf0e7124bb68099c837ca", "is_reserved": 0, "fusion_lon": 0.0, "lat": 38.8967855, "is_disabled": 0, "name": "14553bc2b84bf0e7124bb68099c837ca", "fusion_lat": 0.0, "rental_uris": {"ios": "https://dc.lft.to/lastmile_qr_scan", "android": "https://dc.lft.to/lastmile_qr_scan"}, "lon": -76.99612633333334, "type": "electric_scooter"}, {"bike_id": "d604d79a5fb9d734d521db0d67dda49e", "is_reserved": 0, "fusion_lon": 0.0, "lat": 38.86705833333333, "is_disabled": 0, "name": "d604d79a5fb9d734d521db0d67dda49e", "fusion_lat": 0.0, "rental_uris": {"ios": "https://dc.lft.to/lastmile_qr_scan", "android": "https://dc.lft.to/lastmile_qr_scan"}, "lon": -76.98723083333333, "type": "electric_scooter"}, {"bike_id": "783f393548b6071c7b10fae864b8989b", "is_reserved": 0, "fusion_lon": 0.0, "lat": 38.904485, "is_disabled": 0, "name": "783f393548b6071c7b10fae864b8989b", "fusion_lat": 0.0, "rental_uris": {"ios": "https://dc.lft.to/lastmile_qr_scan", "android": "https://dc.lft.to/lastmile_qr_scan"}, "lon": -77.017137, "type": "electric_scooter"}, {"bike_id": "3496f24f50489124b4db2ae2a7264c6f", "is_reserved": 0, "fusion_lon": 0.0, "lat": 38.842894666666666, "is_disabled": 0, "name": "3496f24f50489124b4db2ae2a7264c6f", "fusion_lat": 0.0, "rental_uris": {"ios": "https://dc.lft.to/lastmile_qr_scan", "android": "https://dc.lft.to/lastmile_qr_scan"}, "lon": -76.99945333333334, "type": "electric_scooter"}, {"bike_id": "e12bc71b1d930b8cbf2da1741e27aeb8", "is_reserved": 0, "fusion_lon": 0.0, "lat": 38.917437166666666, "is_disabled": 0, "name": "e12bc71b1d930b8cbf2da1741e27aeb8", "fusion_lat": 0.0, "rental_uris": {"ios": "https://dc.lft.to/lastmile_qr_scan", "android": "https://dc.lft.to/lastmile_qr_scan"}, "lon": -77.00750083333334, "type": "electric_scooter"}, {"bike_id": "69005baab4c83d40511f5c1c40e08aee", "is_reserved": 0, "fusion_lon": 0.0, "lat": 38.907583, "is_disabled": 0, "name": "69005baab4c83d40511f5c1c40e08aee", "fusion_lat": 0.0, "rental_uris": {"ios": "https://dc.lft.to/lastmile_qr_scan", "android": "https://dc.lft.to/lastmile_qr_scan"}, "lon": -77.000726, "type": "electric_scooter"}, {"bike_id": "e9e9e3994d2e156ea00dc7d5a0730906", "is_reserved": 0, "fusion_lon": 0.0, "lat": 38.9036745, "is_disabled": 0, "name": "e9e9e3994d2e156ea00dc7d5a0730906", "fusion_lat": 0.0, "rental_uris": {"ios": "https://dc.lft.to/lastmile_qr_scan", "android": "https://dc.lft.to/lastmile_qr_scan"}, "lon": -77.019033, "type": "electric_scooter"}, {"bike_id": "d0ff99f42231883a7cb44379d8a80d71", "is_reserved": 0, "fusion_lon": 0.0, "lat": 38.9405035, "is_disabled": 0, "name": "d0ff99f42231883a7cb44379d8a80d71", "fusion_lat": 0.0, "rental_uris": {"ios": "https://dc.lft.to/lastmile_qr_scan", "android": "https://dc.lft.to/lastmile_qr_scan"}, "lon": -77.0926865, "type": "electric_scooter"}, {"bike_id": "dd0991c40f620947647b4cb8809ba476", "is_reserved": 0, "fusion_lon": 0.0, "lat": 38.8966405, "is_disabled": 0, "name": "dd0991c40f620947647b4cb8809ba476", "fusion_lat": 0.0, "rental_uris": {"ios": "https://dc.lft.to/lastmile_qr_scan", "android": "https://dc.lft.to/lastmile_qr_scan"}, "lon": -77.0261305, "type": "electric_scooter"}, {"bike_id": "3d15e11459ddcb9436b2db9d2a873dec", "is_reserved": 0, "fusion_lon": 0.0, "lat": 38.90331333333334, "is_disabled": 0, "name": "3d15e11459ddcb9436b2db9d2a873dec", "fusion_lat": 0.0, "rental_uris": {"ios": "https://dc.lft.to/lastmile_qr_scan", "android": "https://dc.lft.to/lastmile_qr_scan"}, "lon": -77.06603566666666, "type": "electric_scooter"}, {"bike_id": "251856683b40bcafdb3212c9522af48a", "is_reserved": 0, "fusion_lon": 0.0, "lat": 38.902584833333336, "is_disabled": 0, "name": "251856683b40bcafdb3212c9522af48a", "fusion_lat": 0.0, "rental_uris": {"ios": "https://dc.lft.to/lastmile_qr_scan", "android": "https://dc.lft.to/lastmile_qr_scan"}, "lon": -77.038562, "type": "electric_scooter"}, {"bike_id": "3362a4728559856432a69c2a21dd81e8", "is_reserved": 0, "fusion_lon": 0.0, "lat": 38.898401666666665, "is_disabled": 0, "name": "3362a4728559856432a69c2a21dd81e8", "fusion_lat": 0.0, "rental_uris": {"ios": "https://dc.lft.to/lastmile_qr_scan", "android": "https://dc.lft.to/lastmile_qr_scan"}, "lon": -76.99506866666667, "type": "electric_scooter"}, {"bike_id": "0c949c0b8abecf6cc2ef0d98a84b89b9", "is_reserved": 0, "fusion_lon": 0.0, "lat": 38.92759366666667, "is_disabled": 0, "name": "0c949c0b8abecf6cc2ef0d98a84b89b9", "fusion_lat": 0.0, "rental_uris": {"ios": "https://dc.lft.to/lastmile_qr_scan", "android": "https://dc.lft.to/lastmile_qr_scan"}, "lon": -77.03247316666666, "type": "electric_scooter"}, {"bike_id": "f2ee0a0bca9674a9e78cb2de67c8d10a", "is_reserved": 0, "fusion_lon": 0.0, "lat": 38.890941166666664, "is_disabled": 0, "name": "f2ee0a0bca9674a9e78cb2de67c8d10a", "fusion_lat": 0.0, "rental_uris": {"ios": "https://dc.lft.to/lastmile_qr_scan", "android": "https://dc.lft.to/lastmile_qr_scan"}, "lon": -76.9439255, "type": "electric_scooter"}, {"bike_id": "3be0d6c38fed046c2b2bf22ddac41ba1", "is_reserved": 0, "fusion_lon": 0.0, "lat": 38.909724833333335, "is_disabled": 0, "name": "3be0d6c38fed046c2b2bf22ddac41ba1", "fusion_lat": 0.0, "rental_uris": {"ios": "https://dc.lft.to/lastmile_qr_scan", "android": "https://dc.lft.to/lastmile_qr_scan"}, "lon": -77.0526925, "type": "electric_scooter"}, {"bike_id": "dec6343fd4b0fa248f4ffafd10101613", "is_reserved": 0, "fusion_lon": 0.0, "lat": 38.9237125, "is_disabled": 0, "name": "dec6343fd4b0fa248f4ffafd10101613", "fusion_lat": 0.0, "rental_uris": {"ios": "https://dc.lft.to/lastmile_qr_scan", "android": "https://dc.lft.to/lastmile_qr_scan"}, "lon": -77.0190585, "type": "electric_scooter"}, {"bike_id": "079d854777ee684c36bcbb5e22e0b551", "is_reserved": 0, "fusion_lon": 0.0, "lat": 38.900804, "is_disabled": 0, "name": "079d854777ee684c36bcbb5e22e0b551", "fusion_lat": 0.0, "rental_uris": {"ios": "https://dc.lft.to/lastmile_qr_scan", "android": "https://dc.lft.to/lastmile_qr_scan"}, "lon": -76.93880983333334, "type": "electric_scooter"}, {"bike_id": "5b436dd17f6968f9d4c29de0962d4848", "is_reserved": 0, "fusion_lon": 0.0, "lat": 38.92966783333333, "is_disabled": 0, "name": "5b436dd17f6968f9d4c29de0962d4848", "fusion_lat": 0.0, "rental_uris": {"ios": "https://dc.lft.to/lastmile_qr_scan", "android": "https://dc.lft.to/lastmile_qr_scan"}, "lon": -77.00538316666666, "type": "electric_scooter"}, {"bike_id": "e464a7f754aa79b70532186b4eb4f9ee", "is_reserved": 0, "fusion_lon": 0.0, "lat": 38.918018333333336, "is_disabled": 0, "name": "e464a7f754aa79b70532186b4eb4f9ee", "fusion_lat": 0.0, "rental_uris": {"ios": "https://dc.lft.to/lastmile_qr_scan", "android": "https://dc.lft.to/lastmile_qr_scan"}, "lon": -77.035611, "type": "electric_scooter"}, {"bike_id": "6efb89a9afb1bce9f70ce89fad887f1a", "is_reserved": 0, "fusion_lon": 0.0, "lat": 38.927727, "is_disabled": 0, "name": "6efb89a9afb1bce9f70ce89fad887f1a", "fusion_lat": 0.0, "rental_uris": {"ios": "https://dc.lft.to/lastmile_qr_scan", "android": "https://dc.lft.to/lastmile_qr_scan"}, "lon": -77.02777666666667, "type": "electric_scooter"}, {"bike_id": "394a560b5541e2b11429b2ae49ab5c84", "is_reserved": 0, "fusion_lon": 0.0, "lat": 38.9247575, "is_disabled": 0, "name": "394a560b5541e2b11429b2ae49ab5c84", "fusion_lat": 0.0, "rental_uris": {"ios": "https://dc.lft.to/lastmile_qr_scan", "android": "https://dc.lft.to/lastmile_qr_scan"}, "lon": -77.05223016666666, "type": "electric_scooter"}, {"bike_id": "6614841b782d5b5fbb16eab83f515379", "is_reserved": 0, "fusion_lon": 0.0, "lat": 38.93159516666667, "is_disabled": 0, "name": "6614841b782d5b5fbb16eab83f515379", "fusion_lat": 0.0, "rental_uris": {"ios": "https://dc.lft.to/lastmile_qr_scan", "android": "https://dc.lft.to/lastmile_qr_scan"}, "lon": -77.05646316666666, "type": "electric_scooter"}, {"bike_id": "442c3a84023c0f7c121287a6b67f6a0b", "is_reserved": 0, "fusion_lon": 0.0, "lat": 38.89982216666667, "is_disabled": 0, "name": "442c3a84023c0f7c121287a6b67f6a0b", "fusion_lat": 0.0, "rental_uris": {"ios": "https://dc.lft.to/lastmile_qr_scan", "android": "https://dc.lft.to/lastmile_qr_scan"}, "lon": -77.01548666666666, "type": "electric_scooter"}, {"bike_id": "f86d719758b28eb2d6e8a33a5e72d78d", "is_reserved": 0, "fusion_lon": 0.0, "lat": 38.898782833333335, "is_disabled": 0, "name": "f86d719758b28eb2d6e8a33a5e72d78d", "fusion_lat": 0.0, "rental_uris": {"ios": "https://dc.lft.to/lastmile_qr_scan", "android": "https://dc.lft.to/lastmile_qr_scan"}, "lon": -77.03983333333333, "type": "electric_scooter"}, {"bike_id": "f01da1a2a66d9f450dd19c5e1e7fba1b", "is_reserved": 0, "fusion_lon": 0.0, "lat": 38.909411166666665, "is_disabled": 0, "name": "f01da1a2a66d9f450dd19c5e1e7fba1b", "fusion_lat": 0.0, "rental_uris": {"ios": "https://dc.lft.to/lastmile_qr_scan", "android": "https://dc.lft.to/lastmile_qr_scan"}, "lon": -77.03852483333333, "type": "electric_scooter"}, {"bike_id": "05e5b5566bfdd6e1871e3c1970838d42", "is_reserved": 0, "fusion_lon": 0.0, "lat": 38.89956316666667, "is_disabled": 0, "name": "05e5b5566bfdd6e1871e3c1970838d42", "fusion_lat": 0.0, "rental_uris": {"ios": "https://dc.lft.to/lastmile_qr_scan", "android": "https://dc.lft.to/lastmile_qr_scan"}, "lon": -76.92623716666667, "type": "electric_scooter"}, {"bike_id": "4e2adf716e941dd23de70c5aeb5b0f0a", "is_reserved": 0, "fusion_lon": 0.0, "lat": 38.887736, "is_disabled": 0, "name": "4e2adf716e941dd23de70c5aeb5b0f0a", "fusion_lat": 0.0, "rental_uris": {"ios": "https://dc.lft.to/lastmile_qr_scan", "android": "https://dc.lft.to/lastmile_qr_scan"}, "lon": -76.93261966666667, "type": "electric_scooter"}, {"bike_id": "0e51b83ae109a7731fba72cb78a7744a", "is_reserved": 0, "fusion_lon": 0.0, "lat": 38.902847666666666, "is_disabled": 0, "name": "0e51b83ae109a7731fba72cb78a7744a", "fusion_lat": 0.0, "rental_uris": {"ios": "https://dc.lft.to/lastmile_qr_scan", "android": "https://dc.lft.to/lastmile_qr_scan"}, "lon": -77.01652066666666, "type": "electric_bike"}, {"bike_id": "9bd4e200b783ce32135affe1ee90257b", "is_reserved": 0, "fusion_lon": 0.0, "lat": 38.86202266666667, "is_disabled": 0, "name": "9bd4e200b783ce32135affe1ee90257b", "fusion_lat": 0.0, "rental_uris": {"ios": "https://dc.lft.to/lastmile_qr_scan", "android": "https://dc.lft.to/lastmile_qr_scan"}, "lon": -76.9946205, "type": "electric_scooter"}, {"bike_id": "1ce5fadab3d32aeabd3079d4b721fea0", "is_reserved": 0, "fusion_lon": 0.0, "lat": 38.935004666666664, "is_disabled": 0, "name": "1ce5fadab3d32aeabd3079d4b721fea0", "fusion_lat": 0.0, "rental_uris": {"ios": "https://dc.lft.to/lastmile_qr_scan", "android": "https://dc.lft.to/lastmile_qr_scan"}, "lon": -77.0272195, "type": "electric_scooter"}, {"bike_id": "e186cd0927fdd2ea3aeeee10c7440ada", "is_reserved": 0, "fusion_lon": 0.0, "lat": 38.939752, "is_disabled": 0, "name": "e186cd0927fdd2ea3aeeee10c7440ada", "fusion_lat": 0.0, "rental_uris": {"ios": "https://dc.lft.to/lastmile_qr_scan", "android": "https://dc.lft.to/lastmile_qr_scan"}, "lon": -77.035917, "type": "electric_scooter"}, {"bike_id": "521c8d9f3238bfcf4b0c213e1517876c", "is_reserved": 0, "fusion_lon": 0.0, "lat": 38.904538333333335, "is_disabled": 0, "name": "521c8d9f3238bfcf4b0c213e1517876c", "fusion_lat": 0.0, "rental_uris": {"ios": "https://dc.lft.to/lastmile_qr_scan", "android": "https://dc.lft.to/lastmile_qr_scan"}, "lon": -77.02898616666667, "type": "electric_scooter"}, {"bike_id": "8850999c6bd226a45798c59afaa823cc", "is_reserved": 0, "fusion_lon": 0.0, "lat": 38.896175, "is_disabled": 0, "name": "8850999c6bd226a45798c59afaa823cc", "fusion_lat": 0.0, "rental_uris": {"ios": "https://dc.lft.to/lastmile_qr_scan", "android": "https://dc.lft.to/lastmile_qr_scan"}, "lon": -77.000489, "type": "electric_bike"}, {"bike_id": "9fce734f20ef7b7b95ea125716b3b8b4", "is_reserved": 0, "fusion_lon": 0.0, "lat": 38.90025283333333, "is_disabled": 0, "name": "9fce734f20ef7b7b95ea125716b3b8b4", "fusion_lat": 0.0, "rental_uris": {"ios": "https://dc.lft.to/lastmile_qr_scan", "android": "https://dc.lft.to/lastmile_qr_scan"}, "lon": -77.01161083333334, "type": "electric_scooter"}, {"bike_id": "82c473236e2f0f38e6a85ded5d7a577d", "is_reserved": 0, "fusion_lon": 0.0, "lat": 38.915601, "is_disabled": 0, "name": "82c473236e2f0f38e6a85ded5d7a577d", "fusion_lat": 0.0, "rental_uris": {"ios": "https://dc.lft.to/lastmile_qr_scan", "android": "https://dc.lft.to/lastmile_qr_scan"}, "lon": -77.038637, "type": "electric_scooter"}, {"bike_id": "be8d2063fbbb0c84eece978a07c990d3", "is_reserved": 0, "fusion_lon": 0.0, "lat": 38.89470766666667, "is_disabled": 0, "name": "be8d2063fbbb0c84eece978a07c990d3", "fusion_lat": 0.0, "rental_uris": {"ios": "https://dc.lft.to/lastmile_qr_scan", "android": "https://dc.lft.to/lastmile_qr_scan"}, "lon": -77.04981966666666, "type": "electric_scooter"}, {"bike_id": "cc9318ef06c4064f0c5a4f108e5ea5f2", "is_reserved": 0, "fusion_lon": 0.0, "lat": 38.9237315, "is_disabled": 0, "name": "cc9318ef06c4064f0c5a4f108e5ea5f2", "fusion_lat": 0.0, "rental_uris": {"ios": "https://dc.lft.to/lastmile_qr_scan", "android": "https://dc.lft.to/lastmile_qr_scan"}, "lon": -77.02066766666667, "type": "electric_scooter"}, {"bike_id": "0d6e29869c5e06923d08e2a1a58a7609", "is_reserved": 0, "fusion_lon": 0.0, "lat": 38.8974285, "is_disabled": 0, "name": "0d6e29869c5e06923d08e2a1a58a7609", "fusion_lat": 0.0, "rental_uris": {"ios": "https://dc.lft.to/lastmile_qr_scan", "android": "https://dc.lft.to/lastmile_qr_scan"}, "lon": -77.0463985, "type": "electric_scooter"}, {"bike_id": "133a9f50b4e004c58e21ca39d8504e35", "is_reserved": 0, "fusion_lon": 0.0, "lat": 38.908033, "is_disabled": 0, "name": "133a9f50b4e004c58e21ca39d8504e35", "fusion_lat": 0.0, "rental_uris": {"ios": "https://dc.lft.to/lastmile_qr_scan", "android": "https://dc.lft.to/lastmile_qr_scan"}, "lon": -77.03456816666667, "type": "electric_scooter"}, {"bike_id": "8904e57b6d5f0f90777e9da937b7e276", "is_reserved": 0, "fusion_lon": 0.0, "lat": 38.877362, "is_disabled": 0, "name": "8904e57b6d5f0f90777e9da937b7e276", "fusion_lat": 0.0, "rental_uris": {"ios": "https://dc.lft.to/lastmile_qr_scan", "android": "https://dc.lft.to/lastmile_qr_scan"}, "lon": -76.97282783333333, "type": "electric_scooter"}, {"bike_id": "397149d9dc5840680fe94c96e0db1cd7", "is_reserved": 0, "fusion_lon": 0.0, "lat": 38.95528683333333, "is_disabled": 0, "name": "397149d9dc5840680fe94c96e0db1cd7", "fusion_lat": 0.0, "rental_uris": {"ios": "https://dc.lft.to/lastmile_qr_scan", "android": "https://dc.lft.to/lastmile_qr_scan"}, "lon": -77.02412966666667, "type": "electric_bike"}, {"bike_id": "dcc0b46da7c7ce7fdc1164a9472ff2d9", "is_reserved": 0, "fusion_lon": 0.0, "lat": 38.949483666666666, "is_disabled": 0, "name": "dcc0b46da7c7ce7fdc1164a9472ff2d9", "fusion_lat": 0.0, "rental_uris": {"ios": "https://dc.lft.to/lastmile_qr_scan", "android": "https://dc.lft.to/lastmile_qr_scan"}, "lon": -77.0161775, "type": "electric_scooter"}, {"bike_id": "288ee69d7b2e509447455085b88915e6", "is_reserved": 0, "fusion_lon": 0.0, "lat": 38.902145, "is_disabled": 0, "name": "288ee69d7b2e509447455085b88915e6", "fusion_lat": 0.0, "rental_uris": {"ios": "https://dc.lft.to/lastmile_qr_scan", "android": "https://dc.lft.to/lastmile_qr_scan"}, "lon": -76.94583633333333, "type": "electric_scooter"}, {"bike_id": "7ec8502f8e2df43d7876bc284b745161", "is_reserved": 0, "fusion_lon": 0.0, "lat": 38.93561433333333, "is_disabled": 0, "name": "7ec8502f8e2df43d7876bc284b745161", "fusion_lat": 0.0, "rental_uris": {"ios": "https://dc.lft.to/lastmile_qr_scan", "android": "https://dc.lft.to/lastmile_qr_scan"}, "lon": -77.0369115, "type": "electric_bike"}, {"bike_id": "59b99170f6ea91977b7618dffa2d231b", "is_reserved": 0, "fusion_lon": 0.0, "lat": 38.915722333333335, "is_disabled": 0, "name": "59b99170f6ea91977b7618dffa2d231b", "fusion_lat": 0.0, "rental_uris": {"ios": "https://dc.lft.to/lastmile_qr_scan", "android": "https://dc.lft.to/lastmile_qr_scan"}, "lon": -77.04665566666667, "type": "electric_scooter"}, {"bike_id": "7e63d8e18af1c850922601f4e87c3549", "is_reserved": 0, "fusion_lon": 0.0, "lat": 38.905875333333334, "is_disabled": 0, "name": "7e63d8e18af1c850922601f4e87c3549", "fusion_lat": 0.0, "rental_uris": {"ios": "https://dc.lft.to/lastmile_qr_scan", "android": "https://dc.lft.to/lastmile_qr_scan"}, "lon": -77.046694, "type": "electric_scooter"}, {"bike_id": "0ff1a0ef2094c46da2f91ef63ee45000", "is_reserved": 0, "fusion_lon": 0.0, "lat": 38.9196385, "is_disabled": 0, "name": "0ff1a0ef2094c46da2f91ef63ee45000", "fusion_lat": 0.0, "rental_uris": {"ios": "https://dc.lft.to/lastmile_qr_scan", "android": "https://dc.lft.to/lastmile_qr_scan"}, "lon": -76.972651, "type": "electric_bike"}, {"bike_id": "1621b589a4f04510457aea007fc27ea9", "is_reserved": 0, "fusion_lon": 0.0, "lat": 38.905587833333335, "is_disabled": 0, "name": "1621b589a4f04510457aea007fc27ea9", "fusion_lat": 0.0, "rental_uris": {"ios": "https://dc.lft.to/lastmile_qr_scan", "android": "https://dc.lft.to/lastmile_qr_scan"}, "lon": -77.00550333333334, "type": "electric_scooter"}, {"bike_id": "dfb4c20265d291baf03cf740af4e5a9a", "is_reserved": 0, "fusion_lon": 0.0, "lat": 38.903212, "is_disabled": 0, "name": "dfb4c20265d291baf03cf740af4e5a9a", "fusion_lat": 0.0, "rental_uris": {"ios": "https://dc.lft.to/lastmile_qr_scan", "android": "https://dc.lft.to/lastmile_qr_scan"}, "lon": -77.0385405, "type": "electric_scooter"}, {"bike_id": "e46b340b1c483b28f4e0032a4bae26e3", "is_reserved": 0, "fusion_lon": 0.0, "lat": 38.925555333333335, "is_disabled": 0, "name": "e46b340b1c483b28f4e0032a4bae26e3", "fusion_lat": 0.0, "rental_uris": {"ios": "https://dc.lft.to/lastmile_qr_scan", "android": "https://dc.lft.to/lastmile_qr_scan"}, "lon": -77.0013935, "type": "electric_bike"}, {"bike_id": "624275453c64b19097fd091d238ab99b", "is_reserved": 0, "fusion_lon": 0.0, "lat": 38.887538166666666, "is_disabled": 0, "name": "624275453c64b19097fd091d238ab99b", "fusion_lat": 0.0, "rental_uris": {"ios": "https://dc.lft.to/lastmile_qr_scan", "android": "https://dc.lft.to/lastmile_qr_scan"}, "lon": -77.0313315, "type": "electric_scooter"}, {"bike_id": "1541f39dd81d0ff853ca3fa73cc601a7", "is_reserved": 0, "fusion_lon": 0.0, "lat": 38.9127555, "is_disabled": 0, "name": "1541f39dd81d0ff853ca3fa73cc601a7", "fusion_lat": 0.0, "rental_uris": {"ios": "https://dc.lft.to/lastmile_qr_scan", "android": "https://dc.lft.to/lastmile_qr_scan"}, "lon": -77.01609516666667, "type": "electric_scooter"}, {"bike_id": "88bd61b47b6889976f2ab69ca69a56e8", "is_reserved": 0, "fusion_lon": 0.0, "lat": 38.88966283333333, "is_disabled": 0, "name": "88bd61b47b6889976f2ab69ca69a56e8", "fusion_lat": 0.0, "rental_uris": {"ios": "https://dc.lft.to/lastmile_qr_scan", "android": "https://dc.lft.to/lastmile_qr_scan"}, "lon": -76.98033583333333, "type": "electric_bike"}, {"bike_id": "6c42e00966e5a72088055864714334cc", "is_reserved": 0, "fusion_lon": 0.0, "lat": 38.929975666666664, "is_disabled": 0, "name": "6c42e00966e5a72088055864714334cc", "fusion_lat": 0.0, "rental_uris": {"ios": "https://dc.lft.to/lastmile_qr_scan", "android": "https://dc.lft.to/lastmile_qr_scan"}, "lon": -77.0554245, "type": "electric_scooter"}, {"bike_id": "e389c6ba0d9ffe6f76a6bdbcd8665bc2", "is_reserved": 0, "fusion_lon": 0.0, "lat": 38.93773483333333, "is_disabled": 0, "name": "e389c6ba0d9ffe6f76a6bdbcd8665bc2", "fusion_lat": 0.0, "rental_uris": {"ios": "https://dc.lft.to/lastmile_qr_scan", "android": "https://dc.lft.to/lastmile_qr_scan"}, "lon": -77.01907866666667, "type": "electric_bike"}, {"bike_id": "6eeef4575bc67d79b5d66b83dcebee40", "is_reserved": 0, "fusion_lon": 0.0, "lat": 38.8874325, "is_disabled": 0, "name": "6eeef4575bc67d79b5d66b83dcebee40", "fusion_lat": 0.0, "rental_uris": {"ios": "https://dc.lft.to/lastmile_qr_scan", "android": "https://dc.lft.to/lastmile_qr_scan"}, "lon": -77.02020033333334, "type": "electric_scooter"}, {"bike_id": "27e8852c727251ec91ea529d2c6996e1", "is_reserved": 0, "fusion_lon": 0.0, "lat": 38.882298166666665, "is_disabled": 0, "name": "27e8852c727251ec91ea529d2c6996e1", "fusion_lat": 0.0, "rental_uris": {"ios": "https://dc.lft.to/lastmile_qr_scan", "android": "https://dc.lft.to/lastmile_qr_scan"}, "lon": -76.99089516666666, "type": "electric_scooter"}, {"bike_id": "7513f73c9261af859a25d10815f2233d", "is_reserved": 0, "fusion_lon": 0.0, "lat": 38.924105, "is_disabled": 0, "name": "7513f73c9261af859a25d10815f2233d", "fusion_lat": 0.0, "rental_uris": {"ios": "https://dc.lft.to/lastmile_qr_scan", "android": "https://dc.lft.to/lastmile_qr_scan"}, "lon": -77.01943866666667, "type": "electric_scooter"}, {"bike_id": "d6cf5b2dc0f143cd84de31437d38e473", "is_reserved": 0, "fusion_lon": 0.0, "lat": 38.88497, "is_disabled": 0, "name": "d6cf5b2dc0f143cd84de31437d38e473", "fusion_lat": 0.0, "rental_uris": {"ios": "https://dc.lft.to/lastmile_qr_scan", "android": "https://dc.lft.to/lastmile_qr_scan"}, "lon": -77.00728766666667, "type": "electric_scooter"}, {"bike_id": "be0dd883c344ab9a40f4c425e867ebd0", "is_reserved": 0, "fusion_lon": 0.0, "lat": 38.91011, "is_disabled": 0, "name": "be0dd883c344ab9a40f4c425e867ebd0", "fusion_lat": 0.0, "rental_uris": {"ios": "https://dc.lft.to/lastmile_qr_scan", "android": "https://dc.lft.to/lastmile_qr_scan"}, "lon": -77.040086, "type": "electric_scooter"}, {"bike_id": "8f525ca599e6621a0a68d9f2cfdfafbf", "is_reserved": 0, "fusion_lon": 0.0, "lat": 38.9248, "is_disabled": 0, "name": "8f525ca599e6621a0a68d9f2cfdfafbf", "fusion_lat": 0.0, "rental_uris": {"ios": "https://dc.lft.to/lastmile_qr_scan", "android": "https://dc.lft.to/lastmile_qr_scan"}, "lon": -77.02710566666667, "type": "electric_scooter"}, {"bike_id": "7b4d0e2f1b993b90147e3d5c83530b66", "is_reserved": 0, "fusion_lon": 0.0, "lat": 38.93082116666667, "is_disabled": 0, "name": "7b4d0e2f1b993b90147e3d5c83530b66", "fusion_lat": 0.0, "rental_uris": {"ios": "https://dc.lft.to/lastmile_qr_scan", "android": "https://dc.lft.to/lastmile_qr_scan"}, "lon": -77.0279745, "type": "electric_scooter"}, {"bike_id": "3a809beb831f044a5b3fba3ecdaca7fa", "is_reserved": 0, "fusion_lon": 0.0, "lat": 38.956440666666666, "is_disabled": 0, "name": "3a809beb831f044a5b3fba3ecdaca7fa", "fusion_lat": 0.0, "rental_uris": {"ios": "https://dc.lft.to/lastmile_qr_scan", "android": "https://dc.lft.to/lastmile_qr_scan"}, "lon": -76.99789183333333, "type": "electric_scooter"}, {"bike_id": "8a97a032c77c53725d5c20667a5db194", "is_reserved": 0, "fusion_lon": 0.0, "lat": 38.92054483333333, "is_disabled": 0, "name": "8a97a032c77c53725d5c20667a5db194", "fusion_lat": 0.0, "rental_uris": {"ios": "https://dc.lft.to/lastmile_qr_scan", "android": "https://dc.lft.to/lastmile_qr_scan"}, "lon": -77.0339255, "type": "electric_scooter"}, {"bike_id": "e969a7e0c9b81ea4de2a2de0e302c8e5", "is_reserved": 0, "fusion_lon": 0.0, "lat": 38.918794166666665, "is_disabled": 0, "name": "e969a7e0c9b81ea4de2a2de0e302c8e5", "fusion_lat": 0.0, "rental_uris": {"ios": "https://dc.lft.to/lastmile_qr_scan", "android": "https://dc.lft.to/lastmile_qr_scan"}, "lon": -77.04456966666666, "type": "electric_scooter"}, {"bike_id": "119ab5a54e065d2a57daa5412fcd6af9", "is_reserved": 0, "fusion_lon": 0.0, "lat": 38.9993825, "is_disabled": 0, "name": "119ab5a54e065d2a57daa5412fcd6af9", "fusion_lat": 0.0, "rental_uris": {"ios": "https://dc.lft.to/lastmile_qr_scan", "android": "https://dc.lft.to/lastmile_qr_scan"}, "lon": -77.01765683333333, "type": "electric_bike"}, {"bike_id": "749ae9f9d70b7993cd7fa071cccbf784", "is_reserved": 0, "fusion_lon": 0.0, "lat": 38.966254666666664, "is_disabled": 0, "name": "749ae9f9d70b7993cd7fa071cccbf784", "fusion_lat": 0.0, "rental_uris": {"ios": "https://dc.lft.to/lastmile_qr_scan", "android": "https://dc.lft.to/lastmile_qr_scan"}, "lon": -76.97668083333333, "type": "electric_bike"}, {"bike_id": "bf1b1e82aac0bdf0a23dd77c39c76246", "is_reserved": 0, "fusion_lon": 0.0, "lat": 38.95264733333333, "is_disabled": 0, "name": "bf1b1e82aac0bdf0a23dd77c39c76246", "fusion_lat": 0.0, "rental_uris": {"ios": "https://dc.lft.to/lastmile_qr_scan", "android": "https://dc.lft.to/lastmile_qr_scan"}, "lon": -77.0256515, "type": "electric_scooter"}, {"bike_id": "8efe6b6308706126830feb50ba782b8c", "is_reserved": 0, "fusion_lon": 0.0, "lat": 38.866961, "is_disabled": 0, "name": "8efe6b6308706126830feb50ba782b8c", "fusion_lat": 0.0, "rental_uris": {"ios": "https://dc.lft.to/lastmile_qr_scan", "android": "https://dc.lft.to/lastmile_qr_scan"}, "lon": -76.98709766666667, "type": "electric_scooter"}, {"bike_id": "5afb5d1f0fe99d5562c39588f56c9292", "is_reserved": 0, "fusion_lon": 0.0, "lat": 38.89950133333333, "is_disabled": 0, "name": "5afb5d1f0fe99d5562c39588f56c9292", "fusion_lat": 0.0, "rental_uris": {"ios": "https://dc.lft.to/lastmile_qr_scan", "android": "https://dc.lft.to/lastmile_qr_scan"}, "lon": -77.03190833333333, "type": "electric_scooter"}, {"bike_id": "8080b72c6583ef4d121bc2d60bcc1a2a", "is_reserved": 0, "fusion_lon": 0.0, "lat": 38.89221666666667, "is_disabled": 0, "name": "8080b72c6583ef4d121bc2d60bcc1a2a", "fusion_lat": 0.0, "rental_uris": {"ios": "https://dc.lft.to/lastmile_qr_scan", "android": "https://dc.lft.to/lastmile_qr_scan"}, "lon": -77.0322015, "type": "electric_scooter"}, {"bike_id": "50a60f5bcab44005b6381c93aae9692a", "is_reserved": 0, "fusion_lon": 0.0, "lat": 38.90969, "is_disabled": 0, "name": "50a60f5bcab44005b6381c93aae9692a", "fusion_lat": 0.0, "rental_uris": {"ios": "https://dc.lft.to/lastmile_qr_scan", "android": "https://dc.lft.to/lastmile_qr_scan"}, "lon": -77.03865983333333, "type": "electric_scooter"}, {"bike_id": "4cb1d364278e0f37f2f21b5c7c90d3e0", "is_reserved": 0, "fusion_lon": 0.0, "lat": 38.907686166666664, "is_disabled": 0, "name": "4cb1d364278e0f37f2f21b5c7c90d3e0", "fusion_lat": 0.0, "rental_uris": {"ios": "https://dc.lft.to/lastmile_qr_scan", "android": "https://dc.lft.to/lastmile_qr_scan"}, "lon": -77.06917083333333, "type": "electric_scooter"}, {"bike_id": "f3d37e2760a16f2caa156869aaacaafd", "is_reserved": 0, "fusion_lon": 0.0, "lat": 38.9336005, "is_disabled": 0, "name": "f3d37e2760a16f2caa156869aaacaafd", "fusion_lat": 0.0, "rental_uris": {"ios": "https://dc.lft.to/lastmile_qr_scan", "android": "https://dc.lft.to/lastmile_qr_scan"}, "lon": -77.0264295, "type": "electric_scooter"}, {"bike_id": "c6f55fbb4feb60bd730590497f250a8d", "is_reserved": 0, "fusion_lon": 0.0, "lat": 38.91664466666667, "is_disabled": 0, "name": "c6f55fbb4feb60bd730590497f250a8d", "fusion_lat": 0.0, "rental_uris": {"ios": "https://dc.lft.to/lastmile_qr_scan", "android": "https://dc.lft.to/lastmile_qr_scan"}, "lon": -77.0230525, "type": "electric_scooter"}, {"bike_id": "a2c8e7b35a168550638d0e6feac3a82d", "is_reserved": 0, "fusion_lon": 0.0, "lat": 38.93984183333333, "is_disabled": 0, "name": "a2c8e7b35a168550638d0e6feac3a82d", "fusion_lat": 0.0, "rental_uris": {"ios": "https://dc.lft.to/lastmile_qr_scan", "android": "https://dc.lft.to/lastmile_qr_scan"}, "lon": -77.02896183333333, "type": "electric_scooter"}, {"bike_id": "5fccba821ea96cc9a3a42bd994b361e4", "is_reserved": 0, "fusion_lon": 0.0, "lat": 38.89993533333333, "is_disabled": 0, "name": "5fccba821ea96cc9a3a42bd994b361e4", "fusion_lat": 0.0, "rental_uris": {"ios": "https://dc.lft.to/lastmile_qr_scan", "android": "https://dc.lft.to/lastmile_qr_scan"}, "lon": -76.9975175, "type": "electric_scooter"}, {"bike_id": "efcccb76ec4087106c4d4be006cd5621", "is_reserved": 0, "fusion_lon": 0.0, "lat": 38.89195266666667, "is_disabled": 0, "name": "efcccb76ec4087106c4d4be006cd5621", "fusion_lat": 0.0, "rental_uris": {"ios": "https://dc.lft.to/lastmile_qr_scan", "android": "https://dc.lft.to/lastmile_qr_scan"}, "lon": -77.0155195, "type": "electric_scooter"}, {"bike_id": "9e71ca2d1151cd0d76be9a7732b4af61", "is_reserved": 0, "fusion_lon": 0.0, "lat": 38.919203833333334, "is_disabled": 0, "name": "9e71ca2d1151cd0d76be9a7732b4af61", "fusion_lat": 0.0, "rental_uris": {"ios": "https://dc.lft.to/lastmile_qr_scan", "android": "https://dc.lft.to/lastmile_qr_scan"}, "lon": -77.000624, "type": "electric_scooter"}, {"bike_id": "332813f5f7c40ffe88aa9a3180ccc45c", "is_reserved": 0, "fusion_lon": 0.0, "lat": 38.90263433333333, "is_disabled": 0, "name": "332813f5f7c40ffe88aa9a3180ccc45c", "fusion_lat": 0.0, "rental_uris": {"ios": "https://dc.lft.to/lastmile_qr_scan", "android": "https://dc.lft.to/lastmile_qr_scan"}, "lon": -77.03472266666667, "type": "electric_scooter"}, {"bike_id": "8e364c493029b00a5f34a9febe367131", "is_reserved": 0, "fusion_lon": 0.0, "lat": 38.90764983333333, "is_disabled": 0, "name": "8e364c493029b00a5f34a9febe367131", "fusion_lat": 0.0, "rental_uris": {"ios": "https://dc.lft.to/lastmile_qr_scan", "android": "https://dc.lft.to/lastmile_qr_scan"}, "lon": -77.03213083333333, "type": "electric_scooter"}, {"bike_id": "42d2abd8cb4dac08fe486559600dc1e2", "is_reserved": 0, "fusion_lon": 0.0, "lat": 38.8870645, "is_disabled": 0, "name": "42d2abd8cb4dac08fe486559600dc1e2", "fusion_lat": 0.0, "rental_uris": {"ios": "https://dc.lft.to/lastmile_qr_scan", "android": "https://dc.lft.to/lastmile_qr_scan"}, "lon": -77.00151166666667, "type": "electric_scooter"}, {"bike_id": "cec1984135cc5f6aa9b5b8a5ab8b561d", "is_reserved": 0, "fusion_lon": 0.0, "lat": 38.9187525, "is_disabled": 0, "name": "cec1984135cc5f6aa9b5b8a5ab8b561d", "fusion_lat": 0.0, "rental_uris": {"ios": "https://dc.lft.to/lastmile_qr_scan", "android": "https://dc.lft.to/lastmile_qr_scan"}, "lon": -77.04464433333334, "type": "electric_scooter"}, {"bike_id": "9ce9af904f414356b3d6969157d4b41d", "is_reserved": 0, "fusion_lon": 0.0, "lat": 38.879958333333335, "is_disabled": 0, "name": "9ce9af904f414356b3d6969157d4b41d", "fusion_lat": 0.0, "rental_uris": {"ios": "https://dc.lft.to/lastmile_qr_scan", "android": "https://dc.lft.to/lastmile_qr_scan"}, "lon": -76.98539783333334, "type": "electric_scooter"}, {"bike_id": "8e3366ed8afc976c45034f5f184c3648", "is_reserved": 0, "fusion_lon": 0.0, "lat": 38.89829183333333, "is_disabled": 0, "name": "8e3366ed8afc976c45034f5f184c3648", "fusion_lat": 0.0, "rental_uris": {"ios": "https://dc.lft.to/lastmile_qr_scan", "android": "https://dc.lft.to/lastmile_qr_scan"}, "lon": -76.980273, "type": "electric_scooter"}, {"bike_id": "bacd4c8c296d0d73c314379435693e18", "is_reserved": 0, "fusion_lon": 0.0, "lat": 38.89557283333333, "is_disabled": 0, "name": "bacd4c8c296d0d73c314379435693e18", "fusion_lat": 0.0, "rental_uris": {"ios": "https://dc.lft.to/lastmile_qr_scan", "android": "https://dc.lft.to/lastmile_qr_scan"}, "lon": -77.02561233333333, "type": "electric_scooter"}, {"bike_id": "32ba2c5c02ac93c8429643cada6a7968", "is_reserved": 0, "fusion_lon": 0.0, "lat": 38.908337833333334, "is_disabled": 0, "name": "32ba2c5c02ac93c8429643cada6a7968", "fusion_lat": 0.0, "rental_uris": {"ios": "https://dc.lft.to/lastmile_qr_scan", "android": "https://dc.lft.to/lastmile_qr_scan"}, "lon": -76.996984, "type": "electric_scooter"}, {"bike_id": "3171d5498aadbbfd1ea387b1d3ecd977", "is_reserved": 0, "fusion_lon": 0.0, "lat": 38.9334855, "is_disabled": 0, "name": "3171d5498aadbbfd1ea387b1d3ecd977", "fusion_lat": 0.0, "rental_uris": {"ios": "https://dc.lft.to/lastmile_qr_scan", "android": "https://dc.lft.to/lastmile_qr_scan"}, "lon": -77.057081, "type": "electric_scooter"}, {"bike_id": "f70ea099749bd7e4dbd67bc99bab01af", "is_reserved": 0, "fusion_lon": 0.0, "lat": 39.03043816666667, "is_disabled": 0, "name": "f70ea099749bd7e4dbd67bc99bab01af", "fusion_lat": 0.0, "rental_uris": {"ios": "https://dc.lft.to/lastmile_qr_scan", "android": "https://dc.lft.to/lastmile_qr_scan"}, "lon": -77.094773, "type": "electric_bike"}, {"bike_id": "151938d0c2925f03c66f65aa98fccfc9", "is_reserved": 0, "fusion_lon": 0.0, "lat": 38.944705, "is_disabled": 0, "name": "151938d0c2925f03c66f65aa98fccfc9", "fusion_lat": 0.0, "rental_uris": {"ios": "https://dc.lft.to/lastmile_qr_scan", "android": "https://dc.lft.to/lastmile_qr_scan"}, "lon": -77.06239216666667, "type": "electric_scooter"}, {"bike_id": "fd3220e17fc460c37adc646565955cf4", "is_reserved": 0, "fusion_lon": 0.0, "lat": 38.89719633333333, "is_disabled": 0, "name": "fd3220e17fc460c37adc646565955cf4", "fusion_lat": 0.0, "rental_uris": {"ios": "https://dc.lft.to/lastmile_qr_scan", "android": "https://dc.lft.to/lastmile_qr_scan"}, "lon": -77.02700166666666, "type": "electric_scooter"}, {"bike_id": "76bf6ae4f9bf2ed5aeccc8df49910fe6", "is_reserved": 0, "fusion_lon": 0.0, "lat": 38.89903183333333, "is_disabled": 0, "name": "76bf6ae4f9bf2ed5aeccc8df49910fe6", "fusion_lat": 0.0, "rental_uris": {"ios": "https://dc.lft.to/lastmile_qr_scan", "android": "https://dc.lft.to/lastmile_qr_scan"}, "lon": -77.03323283333333, "type": "electric_scooter"}, {"bike_id": "9bf005b7c45cf5e67e3df8e91fc7c9d7", "is_reserved": 0, "fusion_lon": 0.0, "lat": 38.9404135, "is_disabled": 0, "name": "9bf005b7c45cf5e67e3df8e91fc7c9d7", "fusion_lat": 0.0, "rental_uris": {"ios": "https://dc.lft.to/lastmile_qr_scan", "android": "https://dc.lft.to/lastmile_qr_scan"}, "lon": -77.02906983333334, "type": "electric_scooter"}, {"bike_id": "87ecdd53bde8f34b8e8f241900ce78f0", "is_reserved": 0, "fusion_lon": 0.0, "lat": 38.9437095, "is_disabled": 0, "name": "87ecdd53bde8f34b8e8f241900ce78f0", "fusion_lat": 0.0, "rental_uris": {"ios": "https://dc.lft.to/lastmile_qr_scan", "android": "https://dc.lft.to/lastmile_qr_scan"}, "lon": -77.02176733333333, "type": "electric_scooter"}, {"bike_id": "9ecdc39d456a96fd1ced3bc6d2942633", "is_reserved": 0, "fusion_lon": 0.0, "lat": 38.895536, "is_disabled": 0, "name": "9ecdc39d456a96fd1ced3bc6d2942633", "fusion_lat": 0.0, "rental_uris": {"ios": "https://dc.lft.to/lastmile_qr_scan", "android": "https://dc.lft.to/lastmile_qr_scan"}, "lon": -77.00914283333333, "type": "electric_scooter"}, {"bike_id": "79c7125cb1e425b0c96f02d245465bba", "is_reserved": 0, "fusion_lon": 0.0, "lat": 38.87333016666667, "is_disabled": 0, "name": "79c7125cb1e425b0c96f02d245465bba", "fusion_lat": 0.0, "rental_uris": {"ios": "https://dc.lft.to/lastmile_qr_scan", "android": "https://dc.lft.to/lastmile_qr_scan"}, "lon": -77.10610133333333, "type": "electric_bike"}, {"bike_id": "54f473f5e00f3a13df6e620b1aa83eda", "is_reserved": 0, "fusion_lon": 0.0, "lat": 38.88766616666667, "is_disabled": 0, "name": "54f473f5e00f3a13df6e620b1aa83eda", "fusion_lat": 0.0, "rental_uris": {"ios": "https://dc.lft.to/lastmile_qr_scan", "android": "https://dc.lft.to/lastmile_qr_scan"}, "lon": -76.980469, "type": "electric_scooter"}, {"bike_id": "53bc7036345b7025bf80be28c113712b", "is_reserved": 0, "fusion_lon": 0.0, "lat": 38.907866, "is_disabled": 0, "name": "53bc7036345b7025bf80be28c113712b", "fusion_lat": 0.0, "rental_uris": {"ios": "https://dc.lft.to/lastmile_qr_scan", "android": "https://dc.lft.to/lastmile_qr_scan"}, "lon": -77.04293166666666, "type": "electric_scooter"}, {"bike_id": "f28bed6a11b1c3d177bcf70235f8d94c", "is_reserved": 0, "fusion_lon": 0.0, "lat": 38.93510533333333, "is_disabled": 0, "name": "f28bed6a11b1c3d177bcf70235f8d94c", "fusion_lat": 0.0, "rental_uris": {"ios": "https://dc.lft.to/lastmile_qr_scan", "android": "https://dc.lft.to/lastmile_qr_scan"}, "lon": -77.01993966666667, "type": "electric_scooter"}, {"bike_id": "139a68d8d9db400d2c29d252fa84aba4", "is_reserved": 0, "fusion_lon": 0.0, "lat": 38.904911166666665, "is_disabled": 0, "name": "139a68d8d9db400d2c29d252fa84aba4", "fusion_lat": 0.0, "rental_uris": {"ios": "https://dc.lft.to/lastmile_qr_scan", "android": "https://dc.lft.to/lastmile_qr_scan"}, "lon": -77.05748983333334, "type": "electric_scooter"}, {"bike_id": "f9a0214ae9abe246427f861bd30380c9", "is_reserved": 0, "fusion_lon": 0.0, "lat": 38.881349, "is_disabled": 0, "name": "f9a0214ae9abe246427f861bd30380c9", "fusion_lat": 0.0, "rental_uris": {"ios": "https://dc.lft.to/lastmile_qr_scan", "android": "https://dc.lft.to/lastmile_qr_scan"}, "lon": -76.98090966666666, "type": "electric_bike"}, {"bike_id": "8139eeb166f30552dd16f6c50f53b170", "is_reserved": 0, "fusion_lon": 0.0, "lat": 38.914258833333335, "is_disabled": 0, "name": "8139eeb166f30552dd16f6c50f53b170", "fusion_lat": 0.0, "rental_uris": {"ios": "https://dc.lft.to/lastmile_qr_scan", "android": "https://dc.lft.to/lastmile_qr_scan"}, "lon": -77.04159116666666, "type": "electric_scooter"}, {"bike_id": "a430d1cbbd899d9d949c1ab0555af1bb", "is_reserved": 0, "fusion_lon": 0.0, "lat": 38.9005785, "is_disabled": 0, "name": "a430d1cbbd899d9d949c1ab0555af1bb", "fusion_lat": 0.0, "rental_uris": {"ios": "https://dc.lft.to/lastmile_qr_scan", "android": "https://dc.lft.to/lastmile_qr_scan"}, "lon": -77.05145616666667, "type": "electric_scooter"}, {"bike_id": "fdae2a49303a00b3505b4ed1a0d19d3b", "is_reserved": 0, "fusion_lon": 0.0, "lat": 38.91415, "is_disabled": 0, "name": "fdae2a49303a00b3505b4ed1a0d19d3b", "fusion_lat": 0.0, "rental_uris": {"ios": "https://dc.lft.to/lastmile_qr_scan", "android": "https://dc.lft.to/lastmile_qr_scan"}, "lon": -77.03812033333334, "type": "electric_scooter"}, {"bike_id": "9ff36a7736ec963025f29b60753abed4", "is_reserved": 0, "fusion_lon": 0.0, "lat": 38.894787, "is_disabled": 0, "name": "9ff36a7736ec963025f29b60753abed4", "fusion_lat": 0.0, "rental_uris": {"ios": "https://dc.lft.to/lastmile_qr_scan", "android": "https://dc.lft.to/lastmile_qr_scan"}, "lon": -77.02298766666667, "type": "electric_scooter"}, {"bike_id": "93971610cbb5dba7d72428b8a545c39f", "is_reserved": 0, "fusion_lon": 0.0, "lat": 38.93082366666667, "is_disabled": 0, "name": "93971610cbb5dba7d72428b8a545c39f", "fusion_lat": 0.0, "rental_uris": {"ios": "https://dc.lft.to/lastmile_qr_scan", "android": "https://dc.lft.to/lastmile_qr_scan"}, "lon": -77.02794833333333, "type": "electric_scooter"}, {"bike_id": "c7127790dbdaec7da8b1b90a27e94046", "is_reserved": 0, "fusion_lon": 0.0, "lat": 38.9167185, "is_disabled": 0, "name": "c7127790dbdaec7da8b1b90a27e94046", "fusion_lat": 0.0, "rental_uris": {"ios": "https://dc.lft.to/lastmile_qr_scan", "android": "https://dc.lft.to/lastmile_qr_scan"}, "lon": -77.0296775, "type": "electric_scooter"}, {"bike_id": "a8bdf53312fd0f36c5f26ba478934231", "is_reserved": 0, "fusion_lon": 0.0, "lat": 38.90156916666667, "is_disabled": 0, "name": "a8bdf53312fd0f36c5f26ba478934231", "fusion_lat": 0.0, "rental_uris": {"ios": "https://dc.lft.to/lastmile_qr_scan", "android": "https://dc.lft.to/lastmile_qr_scan"}, "lon": -77.02845066666667, "type": "electric_scooter"}, {"bike_id": "287c0d43178e827f46319d0fafea08ac", "is_reserved": 0, "fusion_lon": 0.0, "lat": 38.902718666666665, "is_disabled": 0, "name": "287c0d43178e827f46319d0fafea08ac", "fusion_lat": 0.0, "rental_uris": {"ios": "https://dc.lft.to/lastmile_qr_scan", "android": "https://dc.lft.to/lastmile_qr_scan"}, "lon": -77.0392935, "type": "electric_scooter"}, {"bike_id": "dfc54b8136142ce4480c57da40818f52", "is_reserved": 0, "fusion_lon": 0.0, "lat": 38.86656166666667, "is_disabled": 0, "name": "dfc54b8136142ce4480c57da40818f52", "fusion_lat": 0.0, "rental_uris": {"ios": "https://dc.lft.to/lastmile_qr_scan", "android": "https://dc.lft.to/lastmile_qr_scan"}, "lon": -76.99016983333334, "type": "electric_scooter"}, {"bike_id": "acaac33164e1c8679d0407d38dcc56a9", "is_reserved": 0, "fusion_lon": 0.0, "lat": 38.839833, "is_disabled": 0, "name": "acaac33164e1c8679d0407d38dcc56a9", "fusion_lat": 0.0, "rental_uris": {"ios": "https://dc.lft.to/lastmile_qr_scan", "android": "https://dc.lft.to/lastmile_qr_scan"}, "lon": -77.00573516666667, "type": "electric_bike"}, {"bike_id": "245485a9e686adf94195f926cadad642", "is_reserved": 0, "fusion_lon": 0.0, "lat": 38.898218, "is_disabled": 0, "name": "245485a9e686adf94195f926cadad642", "fusion_lat": 0.0, "rental_uris": {"ios": "https://dc.lft.to/lastmile_qr_scan", "android": "https://dc.lft.to/lastmile_qr_scan"}, "lon": -76.94651316666666, "type": "electric_scooter"}, {"bike_id": "feab769420064e0c23b51cf93eccb91c", "is_reserved": 0, "fusion_lon": 0.0, "lat": 38.90097166666666, "is_disabled": 0, "name": "feab769420064e0c23b51cf93eccb91c", "fusion_lat": 0.0, "rental_uris": {"ios": "https://dc.lft.to/lastmile_qr_scan", "android": "https://dc.lft.to/lastmile_qr_scan"}, "lon": -77.05061633333334, "type": "electric_scooter"}, {"bike_id": "7b96fb8338d30b8b2f95ce589af08483", "is_reserved": 0, "fusion_lon": 0.0, "lat": 38.9255495, "is_disabled": 0, "name": "7b96fb8338d30b8b2f95ce589af08483", "fusion_lat": 0.0, "rental_uris": {"ios": "https://dc.lft.to/lastmile_qr_scan", "android": "https://dc.lft.to/lastmile_qr_scan"}, "lon": -77.04051666666666, "type": "electric_scooter"}, {"bike_id": "cbe59250c0996bacbd6cd070d0abcc06", "is_reserved": 0, "fusion_lon": 0.0, "lat": 38.9483095, "is_disabled": 0, "name": "cbe59250c0996bacbd6cd070d0abcc06", "fusion_lat": 0.0, "rental_uris": {"ios": "https://dc.lft.to/lastmile_qr_scan", "android": "https://dc.lft.to/lastmile_qr_scan"}, "lon": -77.02420516666666, "type": "electric_scooter"}, {"bike_id": "6c10a97a7663d92f47ba3f94c347f1a3", "is_reserved": 0, "fusion_lon": 0.0, "lat": 38.924037, "is_disabled": 0, "name": "6c10a97a7663d92f47ba3f94c347f1a3", "fusion_lat": 0.0, "rental_uris": {"ios": "https://dc.lft.to/lastmile_qr_scan", "android": "https://dc.lft.to/lastmile_qr_scan"}, "lon": -77.05257716666667, "type": "electric_scooter"}, {"bike_id": "bd81dba0684669ba8c42b3ac8ae853e7", "is_reserved": 0, "fusion_lon": 0.0, "lat": 38.89877766666667, "is_disabled": 0, "name": "bd81dba0684669ba8c42b3ac8ae853e7", "fusion_lat": 0.0, "rental_uris": {"ios": "https://dc.lft.to/lastmile_qr_scan", "android": "https://dc.lft.to/lastmile_qr_scan"}, "lon": -76.93158716666667, "type": "electric_scooter"}, {"bike_id": "b270231c1c863e87645fce9c23243127", "is_reserved": 0, "fusion_lon": 0.0, "lat": 38.907315833333335, "is_disabled": 0, "name": "b270231c1c863e87645fce9c23243127", "fusion_lat": 0.0, "rental_uris": {"ios": "https://dc.lft.to/lastmile_qr_scan", "android": "https://dc.lft.to/lastmile_qr_scan"}, "lon": -77.03199666666667, "type": "electric_scooter"}, {"bike_id": "427dcd0561b032f65ff04606960bc712", "is_reserved": 0, "fusion_lon": 0.0, "lat": 38.90960483333333, "is_disabled": 0, "name": "427dcd0561b032f65ff04606960bc712", "fusion_lat": 0.0, "rental_uris": {"ios": "https://dc.lft.to/lastmile_qr_scan", "android": "https://dc.lft.to/lastmile_qr_scan"}, "lon": -77.0368185, "type": "electric_scooter"}, {"bike_id": "c5b502bf0666eda1217de22adc483141", "is_reserved": 0, "fusion_lon": 0.0, "lat": 38.8835775, "is_disabled": 0, "name": "c5b502bf0666eda1217de22adc483141", "fusion_lat": 0.0, "rental_uris": {"ios": "https://dc.lft.to/lastmile_qr_scan", "android": "https://dc.lft.to/lastmile_qr_scan"}, "lon": -77.02451366666666, "type": "electric_scooter"}, {"bike_id": "93abd4ff1afb0cb602c20977604f5811", "is_reserved": 0, "fusion_lon": 0.0, "lat": 38.91274533333333, "is_disabled": 0, "name": "93abd4ff1afb0cb602c20977604f5811", "fusion_lat": 0.0, "rental_uris": {"ios": "https://dc.lft.to/lastmile_qr_scan", "android": "https://dc.lft.to/lastmile_qr_scan"}, "lon": -77.02690933333334, "type": "electric_scooter"}, {"bike_id": "ecb0f5351d37078aec59513748754602", "is_reserved": 0, "fusion_lon": 0.0, "lat": 38.915559, "is_disabled": 0, "name": "ecb0f5351d37078aec59513748754602", "fusion_lat": 0.0, "rental_uris": {"ios": "https://dc.lft.to/lastmile_qr_scan", "android": "https://dc.lft.to/lastmile_qr_scan"}, "lon": -77.04019033333333, "type": "electric_scooter"}, {"bike_id": "0fd71fc8b6bb36b5bea01ac88b8868a6", "is_reserved": 0, "fusion_lon": 0.0, "lat": 38.92852366666666, "is_disabled": 0, "name": "0fd71fc8b6bb36b5bea01ac88b8868a6", "fusion_lat": 0.0, "rental_uris": {"ios": "https://dc.lft.to/lastmile_qr_scan", "android": "https://dc.lft.to/lastmile_qr_scan"}, "lon": -77.10678666666666, "type": "electric_bike"}, {"bike_id": "43aecded6a7ff68e619c277aee4ba65b", "is_reserved": 0, "fusion_lon": 0.0, "lat": 38.923627, "is_disabled": 0, "name": "43aecded6a7ff68e619c277aee4ba65b", "fusion_lat": 0.0, "rental_uris": {"ios": "https://dc.lft.to/lastmile_qr_scan", "android": "https://dc.lft.to/lastmile_qr_scan"}, "lon": -77.05229216666666, "type": "electric_scooter"}, {"bike_id": "7b2f3ebc2bdda5c20b4d696baf350117", "is_reserved": 0, "fusion_lon": 0.0, "lat": 38.89892616666667, "is_disabled": 0, "name": "7b2f3ebc2bdda5c20b4d696baf350117", "fusion_lat": 0.0, "rental_uris": {"ios": "https://dc.lft.to/lastmile_qr_scan", "android": "https://dc.lft.to/lastmile_qr_scan"}, "lon": -77.0396935, "type": "electric_scooter"}, {"bike_id": "e1283457b1adab59e636210edea83b0c", "is_reserved": 0, "fusion_lon": 0.0, "lat": 38.91805733333333, "is_disabled": 0, "name": "e1283457b1adab59e636210edea83b0c", "fusion_lat": 0.0, "rental_uris": {"ios": "https://dc.lft.to/lastmile_qr_scan", "android": "https://dc.lft.to/lastmile_qr_scan"}, "lon": -77.03439433333334, "type": "electric_scooter"}, {"bike_id": "49e7ed10e2620326728aa297bb5b3b59", "is_reserved": 0, "fusion_lon": 0.0, "lat": 38.908689833333334, "is_disabled": 0, "name": "49e7ed10e2620326728aa297bb5b3b59", "fusion_lat": 0.0, "rental_uris": {"ios": "https://dc.lft.to/lastmile_qr_scan", "android": "https://dc.lft.to/lastmile_qr_scan"}, "lon": -77.006323, "type": "electric_scooter"}, {"bike_id": "643eaf9006db87f79c1a06e99c35edba", "is_reserved": 0, "fusion_lon": 0.0, "lat": 38.9241545, "is_disabled": 0, "name": "643eaf9006db87f79c1a06e99c35edba", "fusion_lat": 0.0, "rental_uris": {"ios": "https://dc.lft.to/lastmile_qr_scan", "android": "https://dc.lft.to/lastmile_qr_scan"}, "lon": -76.9974265, "type": "electric_bike"}, {"bike_id": "b24daffaeb265895f29ad971b56ee8cd", "is_reserved": 0, "fusion_lon": 0.0, "lat": 38.9177315, "is_disabled": 0, "name": "b24daffaeb265895f29ad971b56ee8cd", "fusion_lat": 0.0, "rental_uris": {"ios": "https://dc.lft.to/lastmile_qr_scan", "android": "https://dc.lft.to/lastmile_qr_scan"}, "lon": -77.0405525, "type": "electric_scooter"}, {"bike_id": "8dc0012b576e9f515a94b4dad1a1bce6", "is_reserved": 0, "fusion_lon": 0.0, "lat": 38.84291016666667, "is_disabled": 0, "name": "8dc0012b576e9f515a94b4dad1a1bce6", "fusion_lat": 0.0, "rental_uris": {"ios": "https://dc.lft.to/lastmile_qr_scan", "android": "https://dc.lft.to/lastmile_qr_scan"}, "lon": -76.99950883333334, "type": "electric_scooter"}, {"bike_id": "8f097c7362abff23d37666a39c341bd3", "is_reserved": 0, "fusion_lon": 0.0, "lat": 38.93676466666667, "is_disabled": 0, "name": "8f097c7362abff23d37666a39c341bd3", "fusion_lat": 0.0, "rental_uris": {"ios": "https://dc.lft.to/lastmile_qr_scan", "android": "https://dc.lft.to/lastmile_qr_scan"}, "lon": -77.0359295, "type": "electric_scooter"}, {"bike_id": "05b0972e60435bc611045de4e39b3107", "is_reserved": 0, "fusion_lon": 0.0, "lat": 38.90323933333333, "is_disabled": 0, "name": "05b0972e60435bc611045de4e39b3107", "fusion_lat": 0.0, "rental_uris": {"ios": "https://dc.lft.to/lastmile_qr_scan", "android": "https://dc.lft.to/lastmile_qr_scan"}, "lon": -77.06602533333333, "type": "electric_scooter"}, {"bike_id": "5d3cbe7f6b633ca9d3c9bf31f28c6d5a", "is_reserved": 0, "fusion_lon": 0.0, "lat": 38.89848633333333, "is_disabled": 0, "name": "5d3cbe7f6b633ca9d3c9bf31f28c6d5a", "fusion_lat": 0.0, "rental_uris": {"ios": "https://dc.lft.to/lastmile_qr_scan", "android": "https://dc.lft.to/lastmile_qr_scan"}, "lon": -77.0077565, "type": "electric_scooter"}, {"bike_id": "89b59066084f557882f2d8e2b4712e4e", "is_reserved": 0, "fusion_lon": 0.0, "lat": 38.91384383333333, "is_disabled": 0, "name": "89b59066084f557882f2d8e2b4712e4e", "fusion_lat": 0.0, "rental_uris": {"ios": "https://dc.lft.to/lastmile_qr_scan", "android": "https://dc.lft.to/lastmile_qr_scan"}, "lon": -77.01797166666667, "type": "electric_scooter"}, {"bike_id": "347c2534f1e1b5b074f4ed11c5900944", "is_reserved": 0, "fusion_lon": 0.0, "lat": 38.91410616666667, "is_disabled": 0, "name": "347c2534f1e1b5b074f4ed11c5900944", "fusion_lat": 0.0, "rental_uris": {"ios": "https://dc.lft.to/lastmile_qr_scan", "android": "https://dc.lft.to/lastmile_qr_scan"}, "lon": -77.04138433333334, "type": "electric_scooter"}, {"bike_id": "2c965e713aade46a549c884fb138221a", "is_reserved": 0, "fusion_lon": 0.0, "lat": 38.88489716666667, "is_disabled": 0, "name": "2c965e713aade46a549c884fb138221a", "fusion_lat": 0.0, "rental_uris": {"ios": "https://dc.lft.to/lastmile_qr_scan", "android": "https://dc.lft.to/lastmile_qr_scan"}, "lon": -77.00725483333333, "type": "electric_scooter"}, {"bike_id": "9c64d7f832dde864d66ec459ad0c0520", "is_reserved": 0, "fusion_lon": 0.0, "lat": 38.92651566666667, "is_disabled": 0, "name": "9c64d7f832dde864d66ec459ad0c0520", "fusion_lat": 0.0, "rental_uris": {"ios": "https://dc.lft.to/lastmile_qr_scan", "android": "https://dc.lft.to/lastmile_qr_scan"}, "lon": -77.0371645, "type": "electric_scooter"}, {"bike_id": "4ee0e9f0f811d9835e3cd10ca2f8bd3e", "is_reserved": 0, "fusion_lon": 0.0, "lat": 38.91804666666667, "is_disabled": 0, "name": "4ee0e9f0f811d9835e3cd10ca2f8bd3e", "fusion_lat": 0.0, "rental_uris": {"ios": "https://dc.lft.to/lastmile_qr_scan", "android": "https://dc.lft.to/lastmile_qr_scan"}, "lon": -77.03436633333334, "type": "electric_scooter"}, {"bike_id": "6f06b34e39933f8088d233746ad48638", "is_reserved": 0, "fusion_lon": 0.0, "lat": 38.93397483333333, "is_disabled": 0, "name": "6f06b34e39933f8088d233746ad48638", "fusion_lat": 0.0, "rental_uris": {"ios": "https://dc.lft.to/lastmile_qr_scan", "android": "https://dc.lft.to/lastmile_qr_scan"}, "lon": -77.03884116666667, "type": "electric_scooter"}, {"bike_id": "c2e8a9ce314c2fd6e97b8161480377ac", "is_reserved": 0, "fusion_lon": 0.0, "lat": 38.959107833333334, "is_disabled": 0, "name": "c2e8a9ce314c2fd6e97b8161480377ac", "fusion_lat": 0.0, "rental_uris": {"ios": "https://dc.lft.to/lastmile_qr_scan", "android": "https://dc.lft.to/lastmile_qr_scan"}, "lon": -77.080742, "type": "electric_scooter"}, {"bike_id": "215dd7c0176b8c0404b0e13b98fe5406", "is_reserved": 0, "fusion_lon": 0.0, "lat": 38.883145, "is_disabled": 0, "name": "215dd7c0176b8c0404b0e13b98fe5406", "fusion_lat": 0.0, "rental_uris": {"ios": "https://dc.lft.to/lastmile_qr_scan", "android": "https://dc.lft.to/lastmile_qr_scan"}, "lon": -77.00598133333334, "type": "electric_scooter"}, {"bike_id": "b7f06e3854d63325ecca17aefdc40216", "is_reserved": 0, "fusion_lon": 0.0, "lat": 38.91086583333333, "is_disabled": 0, "name": "b7f06e3854d63325ecca17aefdc40216", "fusion_lat": 0.0, "rental_uris": {"ios": "https://dc.lft.to/lastmile_qr_scan", "android": "https://dc.lft.to/lastmile_qr_scan"}, "lon": -77.038577, "type": "electric_scooter"}, {"bike_id": "3adaab474b87d051ad540177d3354846", "is_reserved": 0, "fusion_lon": 0.0, "lat": 38.8543625, "is_disabled": 0, "name": "3adaab474b87d051ad540177d3354846", "fusion_lat": 0.0, "rental_uris": {"ios": "https://dc.lft.to/lastmile_qr_scan", "android": "https://dc.lft.to/lastmile_qr_scan"}, "lon": -76.90969733333333, "type": "electric_bike"}, {"bike_id": "97d5a793520137a5602e0ec1cf668089", "is_reserved": 0, "fusion_lon": 0.0, "lat": 38.885977833333335, "is_disabled": 0, "name": "97d5a793520137a5602e0ec1cf668089", "fusion_lat": 0.0, "rental_uris": {"ios": "https://dc.lft.to/lastmile_qr_scan", "android": "https://dc.lft.to/lastmile_qr_scan"}, "lon": -77.00576033333333, "type": "electric_scooter"}, {"bike_id": "4352ad77602e8bd398644bc5dcd7778f", "is_reserved": 0, "fusion_lon": 0.0, "lat": 38.91444583333333, "is_disabled": 0, "name": "4352ad77602e8bd398644bc5dcd7778f", "fusion_lat": 0.0, "rental_uris": {"ios": "https://dc.lft.to/lastmile_qr_scan", "android": "https://dc.lft.to/lastmile_qr_scan"}, "lon": -77.0345855, "type": "electric_scooter"}, {"bike_id": "cbf082ce6bb570361a83d1703cd7d59c", "is_reserved": 0, "fusion_lon": 0.0, "lat": 38.844282166666666, "is_disabled": 0, "name": "cbf082ce6bb570361a83d1703cd7d59c", "fusion_lat": 0.0, "rental_uris": {"ios": "https://dc.lft.to/lastmile_qr_scan", "android": "https://dc.lft.to/lastmile_qr_scan"}, "lon": -76.99774133333334, "type": "electric_scooter"}, {"bike_id": "af913d01d97fcbbdf9dd97bef243d57a", "is_reserved": 0, "fusion_lon": 0.0, "lat": 38.897986833333334, "is_disabled": 0, "name": "af913d01d97fcbbdf9dd97bef243d57a", "fusion_lat": 0.0, "rental_uris": {"ios": "https://dc.lft.to/lastmile_qr_scan", "android": "https://dc.lft.to/lastmile_qr_scan"}, "lon": -76.99162033333333, "type": "electric_scooter"}, {"bike_id": "3c2f7c8c10a61be735e34949dcde6182", "is_reserved": 0, "fusion_lon": 0.0, "lat": 38.9119455, "is_disabled": 0, "name": "3c2f7c8c10a61be735e34949dcde6182", "fusion_lat": 0.0, "rental_uris": {"ios": "https://dc.lft.to/lastmile_qr_scan", "android": "https://dc.lft.to/lastmile_qr_scan"}, "lon": -77.06091733333334, "type": "electric_scooter"}, {"bike_id": "afe2abb08510dcd67e60e44ac9894f06", "is_reserved": 0, "fusion_lon": 0.0, "lat": 38.934983333333335, "is_disabled": 0, "name": "afe2abb08510dcd67e60e44ac9894f06", "fusion_lat": 0.0, "rental_uris": {"ios": "https://dc.lft.to/lastmile_qr_scan", "android": "https://dc.lft.to/lastmile_qr_scan"}, "lon": -77.02834716666666, "type": "electric_scooter"}, {"bike_id": "65d95a73b1433701bcea57ce2f3a1138", "is_reserved": 0, "fusion_lon": 0.0, "lat": 38.911827333333335, "is_disabled": 0, "name": "65d95a73b1433701bcea57ce2f3a1138", "fusion_lat": 0.0, "rental_uris": {"ios": "https://dc.lft.to/lastmile_qr_scan", "android": "https://dc.lft.to/lastmile_qr_scan"}, "lon": -77.045504, "type": "electric_scooter"}, {"bike_id": "cc032afbbc1cab1e980499573c569ffa", "is_reserved": 0, "fusion_lon": 0.0, "lat": 38.90314633333333, "is_disabled": 0, "name": "cc032afbbc1cab1e980499573c569ffa", "fusion_lat": 0.0, "rental_uris": {"ios": "https://dc.lft.to/lastmile_qr_scan", "android": "https://dc.lft.to/lastmile_qr_scan"}, "lon": -77.033001, "type": "electric_scooter"}, {"bike_id": "e3125dbff365cd86d455dd0c2e6a32f9", "is_reserved": 0, "fusion_lon": 0.0, "lat": 38.900264166666666, "is_disabled": 0, "name": "e3125dbff365cd86d455dd0c2e6a32f9", "fusion_lat": 0.0, "rental_uris": {"ios": "https://dc.lft.to/lastmile_qr_scan", "android": "https://dc.lft.to/lastmile_qr_scan"}, "lon": -76.99527583333334, "type": "electric_scooter"}, {"bike_id": "d25ebcfb31ad19e3d1ef0a48c457695e", "is_reserved": 0, "fusion_lon": 0.0, "lat": 38.946028, "is_disabled": 0, "name": "d25ebcfb31ad19e3d1ef0a48c457695e", "fusion_lat": 0.0, "rental_uris": {"ios": "https://dc.lft.to/lastmile_qr_scan", "android": "https://dc.lft.to/lastmile_qr_scan"}, "lon": -77.0297875, "type": "electric_scooter"}, {"bike_id": "2c766a294a6a6c68fde7cccbc15fe2e7", "is_reserved": 0, "fusion_lon": 0.0, "lat": 38.810514166666664, "is_disabled": 0, "name": "2c766a294a6a6c68fde7cccbc15fe2e7", "fusion_lat": 0.0, "rental_uris": {"ios": "https://dc.lft.to/lastmile_qr_scan", "android": "https://dc.lft.to/lastmile_qr_scan"}, "lon": -77.08508283333333, "type": "electric_bike"}, {"bike_id": "8afa1dc6d6283f0345001e5dcaf55089", "is_reserved": 0, "fusion_lon": 0.0, "lat": 38.89222616666667, "is_disabled": 0, "name": "8afa1dc6d6283f0345001e5dcaf55089", "fusion_lat": 0.0, "rental_uris": {"ios": "https://dc.lft.to/lastmile_qr_scan", "android": "https://dc.lft.to/lastmile_qr_scan"}, "lon": -77.0398105, "type": "electric_scooter"}, {"bike_id": "0c0fbb9e60497cea219e5d12662ed3ad", "is_reserved": 0, "fusion_lon": 0.0, "lat": 38.8922165, "is_disabled": 0, "name": "0c0fbb9e60497cea219e5d12662ed3ad", "fusion_lat": 0.0, "rental_uris": {"ios": "https://dc.lft.to/lastmile_qr_scan", "android": "https://dc.lft.to/lastmile_qr_scan"}, "lon": -77.04861383333333, "type": "electric_scooter"}, {"bike_id": "f0296d64c09a550d73f7206e81866237", "is_reserved": 0, "fusion_lon": 0.0, "lat": 38.893621833333334, "is_disabled": 0, "name": "f0296d64c09a550d73f7206e81866237", "fusion_lat": 0.0, "rental_uris": {"ios": "https://dc.lft.to/lastmile_qr_scan", "android": "https://dc.lft.to/lastmile_qr_scan"}, "lon": -76.98514966666667, "type": "electric_bike"}, {"bike_id": "0722d49551d5fdf26f484ab7367f1cbd", "is_reserved": 0, "fusion_lon": 0.0, "lat": 38.95078766666666, "is_disabled": 0, "name": "0722d49551d5fdf26f484ab7367f1cbd", "fusion_lat": 0.0, "rental_uris": {"ios": "https://dc.lft.to/lastmile_qr_scan", "android": "https://dc.lft.to/lastmile_qr_scan"}, "lon": -77.012043, "type": "electric_bike"}, {"bike_id": "866ff138f7fe2ee028c22371fbf96e04", "is_reserved": 0, "fusion_lon": 0.0, "lat": 38.92503166666667, "is_disabled": 0, "name": "866ff138f7fe2ee028c22371fbf96e04", "fusion_lat": 0.0, "rental_uris": {"ios": "https://dc.lft.to/lastmile_qr_scan", "android": "https://dc.lft.to/lastmile_qr_scan"}, "lon": -77.00889033333333, "type": "electric_scooter"}, {"bike_id": "e83c6e2ab132e9d43d5b13819f37942b", "is_reserved": 0, "fusion_lon": 0.0, "lat": 38.90779283333333, "is_disabled": 0, "name": "e83c6e2ab132e9d43d5b13819f37942b", "fusion_lat": 0.0, "rental_uris": {"ios": "https://dc.lft.to/lastmile_qr_scan", "android": "https://dc.lft.to/lastmile_qr_scan"}, "lon": -77.03831033333333, "type": "electric_scooter"}, {"bike_id": "8e0db7c8fb2b708642a90c5ca38a5357", "is_reserved": 0, "fusion_lon": 0.0, "lat": 38.86372316666667, "is_disabled": 0, "name": "8e0db7c8fb2b708642a90c5ca38a5357", "fusion_lat": 0.0, "rental_uris": {"ios": "https://dc.lft.to/lastmile_qr_scan", "android": "https://dc.lft.to/lastmile_qr_scan"}, "lon": -76.99057583333334, "type": "electric_scooter"}, {"bike_id": "e60ae1acc605102a162faccab8e57ec7", "is_reserved": 0, "fusion_lon": 0.0, "lat": 38.89952316666667, "is_disabled": 0, "name": "e60ae1acc605102a162faccab8e57ec7", "fusion_lat": 0.0, "rental_uris": {"ios": "https://dc.lft.to/lastmile_qr_scan", "android": "https://dc.lft.to/lastmile_qr_scan"}, "lon": -77.03359683333333, "type": "electric_scooter"}, {"bike_id": "e0c7c96ba8d5e29d571d43db4c66028e", "is_reserved": 0, "fusion_lon": 0.0, "lat": 38.89878083333333, "is_disabled": 0, "name": "e0c7c96ba8d5e29d571d43db4c66028e", "fusion_lat": 0.0, "rental_uris": {"ios": "https://dc.lft.to/lastmile_qr_scan", "android": "https://dc.lft.to/lastmile_qr_scan"}, "lon": -76.931591, "type": "electric_scooter"}, {"bike_id": "4a70c64fc79db8f2fa5f2f6271e8d82e", "is_reserved": 0, "fusion_lon": 0.0, "lat": 38.9343635, "is_disabled": 0, "name": "4a70c64fc79db8f2fa5f2f6271e8d82e", "fusion_lat": 0.0, "rental_uris": {"ios": "https://dc.lft.to/lastmile_qr_scan", "android": "https://dc.lft.to/lastmile_qr_scan"}, "lon": -77.03436966666666, "type": "electric_scooter"}, {"bike_id": "12d2aaae31e8150a2c3660e34135dfd6", "is_reserved": 0, "fusion_lon": 0.0, "lat": 38.9055885, "is_disabled": 0, "name": "12d2aaae31e8150a2c3660e34135dfd6", "fusion_lat": 0.0, "rental_uris": {"ios": "https://dc.lft.to/lastmile_qr_scan", "android": "https://dc.lft.to/lastmile_qr_scan"}, "lon": -77.00590933333334, "type": "electric_scooter"}, {"bike_id": "2e6ad4e3663944a85718a063468dafd4", "is_reserved": 0, "fusion_lon": 0.0, "lat": 38.90331666666667, "is_disabled": 0, "name": "2e6ad4e3663944a85718a063468dafd4", "fusion_lat": 0.0, "rental_uris": {"ios": "https://dc.lft.to/lastmile_qr_scan", "android": "https://dc.lft.to/lastmile_qr_scan"}, "lon": -77.0665045, "type": "electric_scooter"}, {"bike_id": "d367a1bc591d09da421e86565c5d97f4", "is_reserved": 0, "fusion_lon": 0.0, "lat": 38.807424833333336, "is_disabled": 0, "name": "d367a1bc591d09da421e86565c5d97f4", "fusion_lat": 0.0, "rental_uris": {"ios": "https://dc.lft.to/lastmile_qr_scan", "android": "https://dc.lft.to/lastmile_qr_scan"}, "lon": -77.0942835, "type": "electric_bike"}, {"bike_id": "b9445153edaa68df3a8fa408c453cc8b", "is_reserved": 0, "fusion_lon": 0.0, "lat": 38.863875, "is_disabled": 0, "name": "b9445153edaa68df3a8fa408c453cc8b", "fusion_lat": 0.0, "rental_uris": {"ios": "https://dc.lft.to/lastmile_qr_scan", "android": "https://dc.lft.to/lastmile_qr_scan"}, "lon": -76.9899035, "type": "electric_bike"}, {"bike_id": "8422e9032389240631ead1118e715a99", "is_reserved": 0, "fusion_lon": 0.0, "lat": 38.94174, "is_disabled": 0, "name": "8422e9032389240631ead1118e715a99", "fusion_lat": 0.0, "rental_uris": {"ios": "https://dc.lft.to/lastmile_qr_scan", "android": "https://dc.lft.to/lastmile_qr_scan"}, "lon": -77.041261, "type": "electric_scooter"}, {"bike_id": "90cda88cb2d571a4a5f7b92f1339f4af", "is_reserved": 0, "fusion_lon": 0.0, "lat": 38.916820666666666, "is_disabled": 0, "name": "90cda88cb2d571a4a5f7b92f1339f4af", "fusion_lat": 0.0, "rental_uris": {"ios": "https://dc.lft.to/lastmile_qr_scan", "android": "https://dc.lft.to/lastmile_qr_scan"}, "lon": -77.01227966666667, "type": "electric_scooter"}, {"bike_id": "f8f506f5757754eff75cf0182f6d763a", "is_reserved": 0, "fusion_lon": 0.0, "lat": 38.957323, "is_disabled": 0, "name": "f8f506f5757754eff75cf0182f6d763a", "fusion_lat": 0.0, "rental_uris": {"ios": "https://dc.lft.to/lastmile_qr_scan", "android": "https://dc.lft.to/lastmile_qr_scan"}, "lon": -76.98013933333333, "type": "electric_bike"},