{"data": {"bikes": [{"rental_uris": {"ios": "https://dc.lft.to/lastmile_qr_scan", "android": "https://dc.lft.to/lastmile_qr_scan"}, "lon": -77.03680116666666, "type": "electric_scooter", "fusion_lat": 0.0, "lat": 38.92940466666667, "name": "0348e322cc32bc028ea6536b699016f0", "fusion_lon": 0.0, "bike_id": "0348e322cc32bc028ea6536b699016f0", "is_disabled": 0, "is_reserved": 0}, {"rental_uris": {"ios": "https://dc.lft.to/lastmile_qr_scan", "android": "https://dc.lft.to/lastmile_qr_scan"}, "lon": -77.0756555, "type": "electric_scooter", "fusion_lat": 0.0, "lat": 38.92090366666667, "name": "3880c71901c805ed6413f7443fbfe108", "fusion_lon": 0.0, "bike_id": "3880c71901c805ed6413f7443fbfe108", "is_disabled": 0, "is_reserved": 0}, {"rental_uris": {"ios": "https://dc.lft.to/lastmile_qr_scan", "android": "https://dc.lft.to/lastmile_qr_scan"}, "lon": -77.04332816666667, "type": "electric_scooter", "fusion_lat": 0.0, "lat": 38.89224816666667, "name": "a62bcdd10eb621189bf74708b506968e", "fusion_lon": 0.0, "bike_id": "a62bcdd10eb621189bf74708b506968e", "is_disabled": 0, "is_reserved": 0}, {"rental_uris": {"ios": "https://dc.lft.to/lastmile_qr_scan", "android": "https://dc.lft.to/lastmile_qr_scan"}, "lon": -77.0021365, "type": "electric_scooter", "fusion_lat": 0.0, "lat": 38.90270533333333, "name": "7da65834d31beaeef7b56fbe676a3a66", "fusion_lon": 0.0, "bike_id": "7da65834d31beaeef7b56fbe676a3a66", "is_disabled": 0, "is_reserved": 0}, {"rental_uris": {"ios": "https://dc.lft.to/lastmile_qr_scan", "android": "https://dc.lft.to/lastmile_qr_scan"}, "lon": -77.073136, "type": "electric_scooter", "fusion_lat": 0.0, "lat": 38.9224045, "name": "e8ea6bd69a56f2d3c641a5145eb2ce1f", "fusion_lon": 0.0, "bike_id": "e8ea6bd69a56f2d3c641a5145eb2ce1f", "is_disabled": 0, "is_reserved": 0}, {"rental_uris": {"ios": "https://dc.lft.to/lastmile_qr_scan", "android": "https://dc.lft.to/lastmile_qr_scan"}, "lon": -77.01783566666667, "type": "electric_scooter", "fusion_lat": 0.0, "lat": 38.884054166666665, "name": "40e752a496b1304a2aaa3f77b6038127", "fusion_lon": 0.0, "bike_id": "40e752a496b1304a2aaa3f77b6038127", "is_disabled": 0, "is_reserved": 0}, {"rental_uris": {"ios": "https://dc.lft.to/lastmile_qr_scan", "android": "https://dc.lft.to/lastmile_qr_scan"}, "lon": -77.0168545, "type": "electric_scooter", "fusion_lat": 0.0, "lat": 38.911411666666666, "name": "39e04930026f49c21dfa9561d6fc72f6", "fusion_lon": 0.0, "bike_id": "39e04930026f49c21dfa9561d6fc72f6", "is_disabled": 0, "is_reserved": 0}, {"rental_uris": {"ios": "https://dc.lft.to/lastmile_qr_scan", "android": "https://dc.lft.to/lastmile_qr_scan"}, "lon": -77.03522983333333, "type": "electric_scooter", "fusion_lat": 0.0, "lat": 38.927313833333336, "name": "56475b2e486863acb5f1f15a36a953f4", "fusion_lon": 0.0, "bike_id": "56475b2e486863acb5f1f15a36a953f4", "is_disabled": 0, "is_reserved": 0}, {"rental_uris": {"ios": "https://dc.lft.to/lastmile_qr_scan", "android": "https://dc.lft.to/lastmile_qr_scan"}, "lon": -77.005774, "type": "electric_scooter", "fusion_lat": 0.0, "lat": 38.872358166666665, "name": "b52ff30b4bbca1e761f0d83a12dcd152", "fusion_lon": 0.0, "bike_id": "b52ff30b4bbca1e761f0d83a12dcd152", "is_disabled": 0, "is_reserved": 0}, {"rental_uris": {"ios": "https://dc.lft.to/lastmile_qr_scan", "android": "https://dc.lft.to/lastmile_qr_scan"}, "lon": -77.03217, "type": "electric_scooter", "fusion_lat": 0.0, "lat": 38.91602133333333, "name": "b3ebcd612bacba722799a244864f1bb2", "fusion_lon": 0.0, "bike_id": "b3ebcd612bacba722799a244864f1bb2", "is_disabled": 0, "is_reserved": 0}, {"rental_uris": {"ios": "https://dc.lft.to/lastmile_qr_scan", "android": "https://dc.lft.to/lastmile_qr_scan"}, "lon": -77.03209483333333, "type": "electric_scooter", "fusion_lat": 0.0, "lat": 38.91114183333333, "name": "0ba003dcb79daec3d8b0b7d56a643828", "fusion_lon": 0.0, "bike_id": "0ba003dcb79daec3d8b0b7d56a643828", "is_disabled": 0, "is_reserved": 0}, {"rental_uris": {"ios": "https://dc.lft.to/lastmile_qr_scan", "android": "https://dc.lft.to/lastmile_qr_scan"}, "lon": -77.024166, "type": "electric_scooter", "fusion_lat": 0.0, "lat": 38.921828166666664, "name": "4a8cf0290dbad51599cde7d78685b709", "fusion_lon": 0.0, "bike_id": "4a8cf0290dbad51599cde7d78685b709", "is_disabled": 0, "is_reserved": 0}, {"rental_uris": {"ios": "https://dc.lft.to/lastmile_qr_scan", "android": "https://dc.lft.to/lastmile_qr_scan"}, "lon": -77.0020995, "type": "electric_scooter", "fusion_lat": 0.0, "lat": 38.89725266666667, "name": "93b10d8d3018458145d57962da5103a9", "fusion_lon": 0.0, "bike_id": "93b10d8d3018458145d57962da5103a9", "is_disabled": 0, "is_reserved": 0}, {"rental_uris": {"ios": "https://dc.lft.to/lastmile_qr_scan", "android": "https://dc.lft.to/lastmile_qr_scan"}, "lon": -77.04020116666666, "type": "electric_scooter", "fusion_lat": 0.0, "lat": 38.9159975, "name": "4332d676463c042c8ad270913a4ac0ee", "fusion_lon": 0.0, "bike_id": "4332d676463c042c8ad270913a4ac0ee", "is_disabled": 0, "is_reserved": 0}, {"rental_uris": {"ios": "https://dc.lft.to/lastmile_qr_scan", "android": "https://dc.lft.to/lastmile_qr_scan"}, "lon": -77.051584, "type": "electric_scooter", "fusion_lat": 0.0, "lat": 38.90626816666666, "name": "759cb42c0ea7c4994e6d31ceb8db0c60", "fusion_lon": 0.0, "bike_id": "759cb42c0ea7c4994e6d31ceb8db0c60", "is_disabled": 0, "is_reserved": 0}, {"rental_uris": {"ios": "https://dc.lft.to/lastmile_qr_scan", "android": "https://dc.lft.to/lastmile_qr_scan"}, "lon": -77.00752833333334, "type": "electric_scooter", "fusion_lat": 0.0, "lat": 38.876769333333336, "name": "0c85fd19df045cb42182ceab6594b490", "fusion_lon": 0.0, "bike_id": "0c85fd19df045cb42182ceab6594b490", "is_disabled": 0, "is_reserved": 0}, {"rental_uris": {"ios": "https://dc.lft.to/lastmile_qr_scan", "android": "https://dc.lft.to/lastmile_qr_scan"}, "lon": -77.1140185, "type": "electric_bike", "fusion_lat": 0.0, "lat": 38.8525585, "name": "7615530cfa1094e277308d72a7551e7b", "fusion_lon": 0.0, "bike_id": "7615530cfa1094e277308d72a7551e7b", "is_disabled": 0, "is_reserved": 0}, {"rental_uris": {"ios": "https://dc.lft.to/lastmile_qr_scan", "android": "https://dc.lft.to/lastmile_qr_scan"}, "lon": -77.03138583333333, "type": "electric_scooter", "fusion_lat": 0.0, "lat": 38.9112745, "name": "843fb86c627746f2e94e1d490f633c21", "fusion_lon": 0.0, "bike_id": "843fb86c627746f2e94e1d490f633c21", "is_disabled": 0, "is_reserved": 0}, {"rental_uris": {"ios": "https://dc.lft.to/lastmile_qr_scan", "android": "https://dc.lft.to/lastmile_qr_scan"}, "lon": -76.98529966666666, "type": "electric_scooter", "fusion_lat": 0.0, "lat": 38.904528, "name": "e94978631d1c48133570c486ccee8614", "fusion_lon": 0.0, "bike_id": "e94978631d1c48133570c486ccee8614", "is_disabled": 0, "is_reserved": 0}, {"rental_uris": {"ios": "https://dc.lft.to/lastmile_qr_scan", "android": "https://dc.lft.to/lastmile_qr_scan"}, "lon": -77.03160133333333, "type": "electric_scooter", "fusion_lat": 0.0, "lat": 38.9155995, "name": "8249d74c0959126e34d0b119a32e6db1", "fusion_lon": 0.0, "bike_id": "8249d74c0959126e34d0b119a32e6db1", "is_disabled": 0, "is_reserved": 0}, {"rental_uris": {"ios": "https://dc.lft.to/lastmile_qr_scan", "android": "https://dc.lft.to/lastmile_qr_scan"}, "lon": -77.07096116666666, "type": "electric_scooter", "fusion_lat": 0.0, "lat": 38.899137833333334, "name": "289c773932898c0e749c9fec9f5b1838", "fusion_lon": 0.0, "bike_id": "289c773932898c0e749c9fec9f5b1838", "is_disabled": 0, "is_reserved": 0}, {"rental_uris": {"ios": "https://dc.lft.to/lastmile_qr_scan", "android": "https://dc.lft.to/lastmile_qr_scan"}, "lon": -76.90815066666667, "type": "electric_bike", "fusion_lat": 0.0, "lat": 38.99455716666667, "name": "d80119fd55842e021953a6c7fbd589e1", "fusion_lon": 0.0, "bike_id": "d80119fd55842e021953a6c7fbd589e1", "is_disabled": 0, "is_reserved": 0}, {"rental_uris": {"ios": "https://dc.lft.to/lastmile_qr_scan", "android": "https://dc.lft.to/lastmile_qr_scan"}, "lon": -76.999524, "type": "electric_scooter", "fusion_lat": 0.0, "lat": 38.90864333333333, "name": "c57b9ebc4cd958c8ee9926c28c1c9b4a", "fusion_lon": 0.0, "bike_id": "c57b9ebc4cd958c8ee9926c28c1c9b4a", "is_disabled": 0, "is_reserved": 0}, {"rental_uris": {"ios": "https://dc.lft.to/lastmile_qr_scan", "android": "https://dc.lft.to/lastmile_qr_scan"}, "lon": -77.0276845, "type": "electric_scooter", "fusion_lat": 0.0, "lat": 38.905019333333335, "name": "3624882cf567e7f1a7bbb60b4191f9af", "fusion_lon": 0.0, "bike_id": "3624882cf567e7f1a7bbb60b4191f9af", "is_disabled": 0, "is_reserved": 0}, {"rental_uris": {"ios": "https://dc.lft.to/lastmile_qr_scan", "android": "https://dc.lft.to/lastmile_qr_scan"}, "lon": -77.02267083333334, "type": "electric_scooter", "fusion_lat": 0.0, "lat": 38.92415583333333, "name": "2f2cc1e60b690b7227e6a2fe85de52f3", "fusion_lon": 0.0, "bike_id": "2f2cc1e60b690b7227e6a2fe85de52f3", "is_disabled": 0, "is_reserved": 0}, {"rental_uris": {"ios": "https://dc.lft.to/lastmile_qr_scan", "android": "https://dc.lft.to/lastmile_qr_scan"}, "lon": -77.05136416666667, "type": "electric_scooter", "fusion_lat": 0.0, "lat": 38.905145833333336, "name": "31a39165a129e6593ececa7eb01840c2", "fusion_lon": 0.0, "bike_id": "31a39165a129e6593ececa7eb01840c2", "is_disabled": 0, "is_reserved": 0}, {"rental_uris": {"ios": "https://dc.lft.to/lastmile_qr_scan", "android": "https://dc.lft.to/lastmile_qr_scan"}, "lon": -77.03808683333334, "type": "electric_scooter", "fusion_lat": 0.0, "lat": 38.92497783333334, "name": "aa4d57db644a7f71924a979a85ca3767", "fusion_lon": 0.0, "bike_id": "aa4d57db644a7f71924a979a85ca3767", "is_disabled": 0, "is_reserved": 0}, {"rental_uris": {"ios": "https://dc.lft.to/lastmile_qr_scan", "android": "https://dc.lft.to/lastmile_qr_scan"}, "lon": -77.04817683333333, "type": "electric_scooter", "fusion_lat": 0.0, "lat": 38.913320166666665, "name": "d9787cc8ab8660f013958730e352086c", "fusion_lon": 0.0, "bike_id": "d9787cc8ab8660f013958730e352086c", "is_disabled": 0, "is_reserved": 0}, {"rental_uris": {"ios": "https://dc.lft.to/lastmile_qr_scan", "android": "https://dc.lft.to/lastmile_qr_scan"}, "lon": -77.02399783333334, "type": "electric_scooter", "fusion_lat": 0.0, "lat": 38.9370735, "name": "593e9c46b3689ef48691fb22464012e0", "fusion_lon": 0.0, "bike_id": "593e9c46b3689ef48691fb22464012e0", "is_disabled": 0, "is_reserved": 0}, {"rental_uris": {"ios": "https://dc.lft.to/lastmile_qr_scan", "android": "https://dc.lft.to/lastmile_qr_scan"}, "lon": -76.90090083333334, "type": "electric_bike", "fusion_lat": 0.0, "lat": 38.8874625, "name": "d3d9a4d12448331a4d9dde03b6d688ba", "fusion_lon": 0.0, "bike_id": "d3d9a4d12448331a4d9dde03b6d688ba", "is_disabled": 0, "is_reserved": 0}, {"rental_uris": {"ios": "https://dc.lft.to/lastmile_qr_scan", "android": "https://dc.lft.to/lastmile_qr_scan"}, "lon": -77.052982, "type": "electric_scooter", "fusion_lat": 0.0, "lat": 38.899309, "name": "360c9ef62c6e594b5622e16079f218b9", "fusion_lon": 0.0, "bike_id": "360c9ef62c6e594b5622e16079f218b9", "is_disabled": 0, "is_reserved": 0}, {"rental_uris": {"ios": "https://dc.lft.to/lastmile_qr_scan", "android": "https://dc.lft.to/lastmile_qr_scan"}, "lon": -77.0281915, "type": "electric_scooter", "fusion_lat": 0.0, "lat": 38.902620166666665, "name": "9f1ab59ce61754a6bca6126a20122383", "fusion_lon": 0.0, "bike_id": "9f1ab59ce61754a6bca6126a20122383", "is_disabled": 0, "is_reserved": 0}, {"rental_uris": {"ios": "https://dc.lft.to/lastmile_qr_scan", "android": "https://dc.lft.to/lastmile_qr_scan"}, "lon": -77.049071, "type": "electric_scooter", "fusion_lat": 0.0, "lat": 38.919360166666664, "name": "9045809053d9fb762498a6850c4db59a", "fusion_lon": 0.0, "bike_id": "9045809053d9fb762498a6850c4db59a", "is_disabled": 0, "is_reserved": 0}, {"rental_uris": {"ios": "https://dc.lft.to/lastmile_qr_scan", "android": "https://dc.lft.to/lastmile_qr_scan"}, "lon": -77.005598, "type": "electric_bike", "fusion_lat": 0.0, "lat": 38.839805, "name": "46d7aa7d4026785b35bc43687cca961e", "fusion_lon": 0.0, "bike_id": "46d7aa7d4026785b35bc43687cca961e", "is_disabled": 0, "is_reserved": 0}, {"rental_uris": {"ios": "https://dc.lft.to/lastmile_qr_scan", "android": "https://dc.lft.to/lastmile_qr_scan"}, "lon": -76.9949825, "type": "electric_scooter", "fusion_lat": 0.0, "lat": 38.8624305, "name": "811d35b26e87aa76f98ce876cbbf1cc6", "fusion_lon": 0.0, "bike_id": "811d35b26e87aa76f98ce876cbbf1cc6", "is_disabled": 0, "is_reserved": 0}, {"rental_uris": {"ios": "https://dc.lft.to/lastmile_qr_scan", "android": "https://dc.lft.to/lastmile_qr_scan"}, "lon": -77.00565816666666, "type": "electric_scooter", "fusion_lat": 0.0, "lat": 38.885039, "name": "fce6f675c117632b9922a57a911c5842", "fusion_lon": 0.0, "bike_id": "fce6f675c117632b9922a57a911c5842", "is_disabled": 0, "is_reserved": 0}, {"rental_uris": {"ios": "https://dc.lft.to/lastmile_qr_scan", "android": "https://dc.lft.to/lastmile_qr_scan"}, "lon": -77.04019766666667, "type": "electric_scooter", "fusion_lat": 0.0, "lat": 38.932509833333334, "name": "2fb9902790dccde19cce9623df3834e8", "fusion_lon": 0.0, "bike_id": "2fb9902790dccde19cce9623df3834e8", "is_disabled": 0, "is_reserved": 0}, {"rental_uris": {"ios": "https://dc.lft.to/lastmile_qr_scan", "android": "https://dc.lft.to/lastmile_qr_scan"}, "lon": -77.057604, "type": "electric_scooter", "fusion_lat": 0.0, "lat": 38.924581833333335, "name": "72bdf30f4aca0e233e25f9e96f61c09f", "fusion_lon": 0.0, "bike_id": "72bdf30f4aca0e233e25f9e96f61c09f", "is_disabled": 0, "is_reserved": 0}, {"rental_uris": {"ios": "https://dc.lft.to/lastmile_qr_scan", "android": "https://dc.lft.to/lastmile_qr_scan"}, "lon": -77.01447783333333, "type": "electric_scooter", "fusion_lat": 0.0, "lat": 38.929790833333335, "name": "681e23bba6cdf723409b08537e0b16b0", "fusion_lon": 0.0, "bike_id": "681e23bba6cdf723409b08537e0b16b0", "is_disabled": 0, "is_reserved": 0}, {"rental_uris": {"ios": "https://dc.lft.to/lastmile_qr_scan", "android": "https://dc.lft.to/lastmile_qr_scan"}, "lon": -77.02073533333333, "type": "electric_scooter", "fusion_lat": 0.0, "lat": 38.915518666666664, "name": "8e61a15b6a5714529b857068959475d0", "fusion_lon": 0.0, "bike_id": "8e61a15b6a5714529b857068959475d0", "is_disabled": 0, "is_reserved": 0}, {"rental_uris": {"ios": "https://dc.lft.to/lastmile_qr_scan", "android": "https://dc.lft.to/lastmile_qr_scan"}, "lon": -76.99502633333333, "type": "electric_scooter", "fusion_lat": 0.0, "lat": 38.89950916666667, "name": "415233a247c969a04827d422aa27fc40", "fusion_lon": 0.0, "bike_id": "415233a247c969a04827d422aa27fc40", "is_disabled": 0, "is_reserved": 0}, {"rental_uris": {"ios": "https://dc.lft.to/lastmile_qr_scan", "android": "https://dc.lft.to/lastmile_qr_scan"}, "lon": -77.05219166666667, "type": "electric_scooter", "fusion_lat": 0.0, "lat": 38.924924833333336, "name": "21287ba1a6f58823536653614fc68a0b", "fusion_lon": 0.0, "bike_id": "21287ba1a6f58823536653614fc68a0b", "is_disabled": 0, "is_reserved": 0}, {"rental_uris": {"ios": "https://dc.lft.to/lastmile_qr_scan", "android": "https://dc.lft.to/lastmile_qr_scan"}, "lon": -77.02102733333334, "type": "electric_scooter", "fusion_lat": 0.0, "lat": 38.879221, "name": "47667ab9e4971d425e7cc6c5235392b0", "fusion_lon": 0.0, "bike_id": "47667ab9e4971d425e7cc6c5235392b0", "is_disabled": 0, "is_reserved": 0}, {"rental_uris": {"ios": "https://dc.lft.to/lastmile_qr_scan", "android": "https://dc.lft.to/lastmile_qr_scan"}, "lon": -76.93176333333334, "type": "electric_scooter", "fusion_lat": 0.0, "lat": 38.89885733333333, "name": "432e14ed7cf37be8c928df576484f36e", "fusion_lon": 0.0, "bike_id": "432e14ed7cf37be8c928df576484f36e", "is_disabled": 0, "is_reserved": 0}, {"rental_uris": {"ios": "https://dc.lft.to/lastmile_qr_scan", "android": "https://dc.lft.to/lastmile_qr_scan"}, "lon": -76.97505066666666, "type": "electric_scooter", "fusion_lat": 0.0, "lat": 38.8691695, "name": "2e48aa9fade8d1763885af4b247b2cd9", "fusion_lon": 0.0, "bike_id": "2e48aa9fade8d1763885af4b247b2cd9", "is_disabled": 0, "is_reserved": 0}, {"rental_uris": {"ios": "https://dc.lft.to/lastmile_qr_scan", "android": "https://dc.lft.to/lastmile_qr_scan"}, "lon": -77.07250916666666, "type": "electric_scooter", "fusion_lat": 0.0, "lat": 38.933240166666664, "name": "aca42efc1b8b49c4189b126ecec5f544", "fusion_lon": 0.0, "bike_id": "aca42efc1b8b49c4189b126ecec5f544", "is_disabled": 0, "is_reserved": 0}, {"rental_uris": {"ios": "https://dc.lft.to/lastmile_qr_scan", "android": "https://dc.lft.to/lastmile_qr_scan"}, "lon": -77.0591985, "type": "electric_scooter", "fusion_lat": 0.0, "lat": 38.9021715, "name": "2b529db578159158688bee88b5abb845", "fusion_lon": 0.0, "bike_id": "2b529db578159158688bee88b5abb845", "is_disabled": 0, "is_reserved": 0}, {"rental_uris": {"ios": "https://dc.lft.to/lastmile_qr_scan", "android": "https://dc.lft.to/lastmile_qr_scan"}, "lon": -77.3440875, "type": "electric_bike", "fusion_lat": 0.0, "lat": 38.94615983333333, "name": "e46a52f973709647272c2b36006a2bc2", "fusion_lon": 0.0, "bike_id": "e46a52f973709647272c2b36006a2bc2", "is_disabled": 0, "is_reserved": 0}, {"rental_uris": {"ios": "https://dc.lft.to/lastmile_qr_scan", "android": "https://dc.lft.to/lastmile_qr_scan"}, "lon": -77.0570605, "type": "electric_scooter", "fusion_lat": 0.0, "lat": 38.905673166666666, "name": "018ea80a7c136d6cac0d4c7c6332c1d0", "fusion_lon": 0.0, "bike_id": "018ea80a7c136d6cac0d4c7c6332c1d0", "is_disabled": 0, "is_reserved": 0}, {"rental_uris": {"ios": "https://dc.lft.to/lastmile_qr_scan", "android": "https://dc.lft.to/lastmile_qr_scan"}, "lon": -77.02722433333334, "type": "electric_scooter", "fusion_lat": 0.0, "lat": 38.9156285, "name": "434ed972e17a76580409c7a834610592", "fusion_lon": 0.0, "bike_id": "434ed972e17a76580409c7a834610592", "is_disabled": 0, "is_reserved": 0}, {"rental_uris": {"ios": "https://dc.lft.to/lastmile_qr_scan", "android": "https://dc.lft.to/lastmile_qr_scan"}, "lon": -77.02174883333333, "type": "electric_scooter", "fusion_lat": 0.0, "lat": 38.879045166666664, "name": "239ec39f472b0c6c23ef38a52c9c3ef5", "fusion_lon": 0.0, "bike_id": "239ec39f472b0c6c23ef38a52c9c3ef5", "is_disabled": 0, "is_reserved": 0}, {"rental_uris": {"ios": "https://dc.lft.to/lastmile_qr_scan", "android": "https://dc.lft.to/lastmile_qr_scan"}, "lon": -76.9790735, "type": "electric_bike", "fusion_lat": 0.0, "lat": 38.888599666666664, "name": "76bafa53f1f4497c14eece3c0d55a452", "fusion_lon": 0.0, "bike_id": "76bafa53f1f4497c14eece3c0d55a452", "is_disabled": 0, "is_reserved": 0}, {"rental_uris": {"ios": "https://dc.lft.to/lastmile_qr_scan", "android": "https://dc.lft.to/lastmile_qr_scan"}, "lon": -77.04349916666666, "type": "electric_scooter", "fusion_lat": 0.0, "lat": 38.91045183333333, "name": "d9ad73003f99131295e6fea511c11157", "fusion_lon": 0.0, "bike_id": "d9ad73003f99131295e6fea511c11157", "is_disabled": 0, "is_reserved": 0}, {"rental_uris": {"ios": "https://dc.lft.to/lastmile_qr_scan", "android": "https://dc.lft.to/lastmile_qr_scan"}, "lon": -77.03894033333333, "type": "electric_scooter", "fusion_lat": 0.0, "lat": 38.922227, "name": "32504c6e4c9fb6de584701deeea74b04", "fusion_lon": 0.0, "bike_id": "32504c6e4c9fb6de584701deeea74b04", "is_disabled": 0, "is_reserved": 0}, {"rental_uris": {"ios": "https://dc.lft.to/lastmile_qr_scan", "android": "https://dc.lft.to/lastmile_qr_scan"}, "lon": -77.05803283333333, "type": "electric_scooter", "fusion_lat": 0.0, "lat": 38.90294633333333, "name": "663a2d6826ab82fc3b29cd59b8d15b6d", "fusion_lon": 0.0, "bike_id": "663a2d6826ab82fc3b29cd59b8d15b6d", "is_disabled": 0, "is_reserved": 0}, {"rental_uris": {"ios": "https://dc.lft.to/lastmile_qr_scan", "android": "https://dc.lft.to/lastmile_qr_scan"}, "lon": -77.08158, "type": "electric_scooter", "fusion_lat": 0.0, "lat": 38.947028, "name": "2388b6dcc7618c28871f815c966992d8", "fusion_lon": 0.0, "bike_id": "2388b6dcc7618c28871f815c966992d8", "is_disabled": 0, "is_reserved": 0}, {"rental_uris": {"ios": "https://dc.lft.to/lastmile_qr_scan", "android": "https://dc.lft.to/lastmile_qr_scan"}, "lon": -76.9994785, "type": "electric_scooter", "fusion_lat": 0.0, "lat": 38.84292666666666, "name": "220e0c8aa4d606ad904d0aea0fe2daed", "fusion_lon": 0.0, "bike_id": "220e0c8aa4d606ad904d0aea0fe2daed", "is_disabled": 0, "is_reserved": 0}, {"rental_uris": {"ios": "https://dc.lft.to/lastmile_qr_scan", "android": "https://dc.lft.to/lastmile_qr_scan"}, "lon": -77.03437533333333, "type": "electric_scooter", "fusion_lat": 0.0, "lat": 38.918071833333336, "name": "1d52bee82ea2ed06e1c5de6efb06ee67", "fusion_lon": 0.0, "bike_id": "1d52bee82ea2ed06e1c5de6efb06ee67", "is_disabled": 0, "is_reserved": 0}, {"rental_uris": {"ios": "https://dc.lft.to/lastmile_qr_scan", "android": "https://dc.lft.to/lastmile_qr_scan"}, "lon": -77.07048233333333, "type": "electric_bike", "fusion_lat": 0.0, "lat": 38.8244445, "name": "4ca8b5daf11e63e2661c9fea17d1e490", "fusion_lon": 0.0, "bike_id": "4ca8b5daf11e63e2661c9fea17d1e490", "is_disabled": 0, "is_reserved": 0}, {"rental_uris": {"ios": "https://dc.lft.to/lastmile_qr_scan", "android": "https://dc.lft.to/lastmile_qr_scan"}, "lon": -76.9857115, "type": "electric_scooter", "fusion_lat": 0.0, "lat": 38.906402, "name": "8da66f501f6b1ded85205e7112cd3c00", "fusion_lon": 0.0, "bike_id": "8da66f501f6b1ded85205e7112cd3c00", "is_disabled": 0, "is_reserved": 0}, {"rental_uris": {"ios": "https://dc.lft.to/lastmile_qr_scan", "android": "https://dc.lft.to/lastmile_qr_scan"}, "lon": -77.03475766666666, "type": "electric_scooter", "fusion_lat": 0.0, "lat": 38.917032, "name": "52937281d0788539003233b7b05d17b1", "fusion_lon": 0.0, "bike_id": "52937281d0788539003233b7b05d17b1", "is_disabled": 0, "is_reserved": 0}, {"rental_uris": {"ios": "https://dc.lft.to/lastmile_qr_scan", "android": "https://dc.lft.to/lastmile_qr_scan"}, "lon": -77.0413355, "type": "electric_scooter", "fusion_lat": 0.0, "lat": 38.922039166666664, "name": "32be8f8e6dd63f3c6f561fa64df6e4db", "fusion_lon": 0.0, "bike_id": "32be8f8e6dd63f3c6f561fa64df6e4db", "is_disabled": 0, "is_reserved": 0}, {"rental_uris": {"ios": "https://dc.lft.to/lastmile_qr_scan", "android": "https://dc.lft.to/lastmile_qr_scan"}, "lon": -77.03046633333334, "type": "electric_scooter", "fusion_lat": 0.0, "lat": 38.88432183333333, "name": "3ce28adfadf268851d98e28e722907f8", "fusion_lon": 0.0, "bike_id": "3ce28adfadf268851d98e28e722907f8", "is_disabled": 0, "is_reserved": 0}, {"rental_uris": {"ios": "https://dc.lft.to/lastmile_qr_scan", "android": "https://dc.lft.to/lastmile_qr_scan"}, "lon": -77.021494, "type": "electric_bike", "fusion_lat": 0.0, "lat": 38.97327766666667, "name": "b28c59e4f5c92a194c27adb312e9e928", "fusion_lon": 0.0, "bike_id": "b28c59e4f5c92a194c27adb312e9e928", "is_disabled": 0, "is_reserved": 0}, {"rental_uris": {"ios": "https://dc.lft.to/lastmile_qr_scan", "android": "https://dc.lft.to/lastmile_qr_scan"}, "lon": -77.024621, "type": "electric_scooter", "fusion_lat": 0.0, "lat": 38.9169315, "name": "dbe3c045f525ac3ba40d9d41aa7deaf2", "fusion_lon": 0.0, "bike_id": "dbe3c045f525ac3ba40d9d41aa7deaf2", "is_disabled": 0, "is_reserved": 0}, {"rental_uris": {"ios": "https://dc.lft.to/lastmile_qr_scan", "android": "https://dc.lft.to/lastmile_qr_scan"}, "lon": -76.994322, "type": "electric_scooter", "fusion_lat": 0.0, "lat": 38.900173333333335, "name": "2b7e3fee6c0d4079b3c5caa7387232c2", "fusion_lon": 0.0, "bike_id": "2b7e3fee6c0d4079b3c5caa7387232c2", "is_disabled": 0, "is_reserved": 0}, {"rental_uris": {"ios": "https://dc.lft.to/lastmile_qr_scan", "android": "https://dc.lft.to/lastmile_qr_scan"}, "lon": -77.02711983333333, "type": "electric_scooter", "fusion_lat": 0.0, "lat": 38.91678816666666, "name": "1bf5372288cdbcc2269d5e208fbc0230", "fusion_lon": 0.0, "bike_id": "1bf5372288cdbcc2269d5e208fbc0230", "is_disabled": 0, "is_reserved": 0}, {"rental_uris": {"ios": "https://dc.lft.to/lastmile_qr_scan", "android": "https://dc.lft.to/lastmile_qr_scan"}, "lon": -77.05290716666667, "type": "electric_scooter", "fusion_lat": 0.0, "lat": 38.910623, "name": "529109587b435e7b5786b77b61a67188", "fusion_lon": 0.0, "bike_id": "529109587b435e7b5786b77b61a67188", "is_disabled": 0, "is_reserved": 0}, {"rental_uris": {"ios": "https://dc.lft.to/lastmile_qr_scan", "android": "https://dc.lft.to/lastmile_qr_scan"}, "lon": -77.04378233333334, "type": "electric_scooter", "fusion_lat": 0.0, "lat": 38.920680833333336, "name": "45551eb4f5c06d958ede365b07fa7fc5", "fusion_lon": 0.0, "bike_id": "45551eb4f5c06d958ede365b07fa7fc5", "is_disabled": 0, "is_reserved": 0}, {"rental_uris": {"ios": "https://dc.lft.to/lastmile_qr_scan", "android": "https://dc.lft.to/lastmile_qr_scan"}, "lon": -77.02205616666667, "type": "electric_scooter", "fusion_lat": 0.0, "lat": 38.916171, "name": "2d0d50c35a4a3f7688bc4bdd7f5fd028", "fusion_lon": 0.0, "bike_id": "2d0d50c35a4a3f7688bc4bdd7f5fd028", "is_disabled": 0, "is_reserved": 0}, {"rental_uris": {"ios": "https://dc.lft.to/lastmile_qr_scan", "android": "https://dc.lft.to/lastmile_qr_scan"}, "lon": -77.00924666666667, "type": "electric_scooter", "fusion_lat": 0.0, "lat": 38.8965, "name": "7f9ae8a360cb271a7bfe5645c90ef6a1", "fusion_lon": 0.0, "bike_id": "7f9ae8a360cb271a7bfe5645c90ef6a1", "is_disabled": 0, "is_reserved": 0}, {"rental_uris": {"ios": "https://dc.lft.to/lastmile_qr_scan", "android": "https://dc.lft.to/lastmile_qr_scan"}, "lon": -77.03298516666666, "type": "electric_scooter", "fusion_lat": 0.0, "lat": 38.91975816666667, "name": "f1167cd320b3d50f8a7ba51b72a6167e", "fusion_lon": 0.0, "bike_id": "f1167cd320b3d50f8a7ba51b72a6167e", "is_disabled": 0, "is_reserved": 0}, {"rental_uris": {"ios": "https://dc.lft.to/lastmile_qr_scan", "android": "https://dc.lft.to/lastmile_qr_scan"}, "lon": -77.04854983333334, "type": "electric_scooter", "fusion_lat": 0.0, "lat": 38.906448833333336, "name": "da8bb291b5a507ae13a9cb8649fa226e", "fusion_lon": 0.0, "bike_id": "da8bb291b5a507ae13a9cb8649fa226e", "is_disabled": 0, "is_reserved": 0}, {"rental_uris": {"ios": "https://dc.lft.to/lastmile_qr_scan", "android": "https://dc.lft.to/lastmile_qr_scan"}, "lon": -77.045654, "type": "electric_scooter", "fusion_lat": 0.0, "lat": 38.91408533333333, "name": "3cfceed7e61d99abb1ee0b6ff197558d", "fusion_lon": 0.0, "bike_id": "3cfceed7e61d99abb1ee0b6ff197558d", "is_disabled": 0, "is_reserved": 0}, {"rental_uris": {"ios": "https://dc.lft.to/lastmile_qr_scan", "android": "https://dc.lft.to/lastmile_qr_scan"}, "lon": -76.9487515, "type": "electric_scooter", "fusion_lat": 0.0, "lat": 38.8948345, "name": "c6ed92d75168d3168031a78236f4ce72", "fusion_lon": 0.0, "bike_id": "c6ed92d75168d3168031a78236f4ce72", "is_disabled": 0, "is_reserved": 0}, {"rental_uris": {"ios": "https://dc.lft.to/lastmile_qr_scan", "android": "https://dc.lft.to/lastmile_qr_scan"}, "lon": -77.04637, "type": "electric_scooter", "fusion_lat": 0.0, "lat": 38.90126383333333, "name": "20002fa457778802ec57fd1e55e73052", "fusion_lon": 0.0, "bike_id": "20002fa457778802ec57fd1e55e73052", "is_disabled": 0, "is_reserved": 0}, {"rental_uris": {"ios": "https://dc.lft.to/lastmile_qr_scan", "android": "https://dc.lft.to/lastmile_qr_scan"}, "lon": -76.89537766666666, "type": "electric_bike", "fusion_lat": 0.0, "lat": 38.9455345, "name": "e541fa414f6c4c3aa5bc4b55b51eda9e", "fusion_lon": 0.0, "bike_id": "e541fa414f6c4c3aa5bc4b55b51eda9e", "is_disabled": 0, "is_reserved": 0}, {"rental_uris": {"ios": "https://dc.lft.to/lastmile_qr_scan", "android": "https://dc.lft.to/lastmile_qr_scan"}, "lon": -76.99150516666667, "type": "electric_scooter", "fusion_lat": 0.0, "lat": 38.89340683333333, "name": "4641773eafd8e9facc65b7ca030d2320", "fusion_lon": 0.0, "bike_id": "4641773eafd8e9facc65b7ca030d2320", "is_disabled": 0, "is_reserved": 0}, {"rental_uris": {"ios": "https://dc.lft.to/lastmile_qr_scan", "android": "https://dc.lft.to/lastmile_qr_scan"}, "lon": -77.04301616666666, "type": "electric_scooter", "fusion_lat": 0.0, "lat": 38.90548583333333, "name": "0fef3898363a4a451c17ac6052cc9826", "fusion_lon": 0.0, "bike_id": "0fef3898363a4a451c17ac6052cc9826", "is_disabled": 0, "is_reserved": 0}, {"rental_uris": {"ios": "https://dc.lft.to/lastmile_qr_scan", "android": "https://dc.lft.to/lastmile_qr_scan"}, "lon": -77.045402, "type": "electric_scooter", "fusion_lat": 0.0, "lat": 38.9038975, "name": "c0465f9a836dc4c9c066e70981474e2f", "fusion_lon": 0.0, "bike_id": "c0465f9a836dc4c9c066e70981474e2f", "is_disabled": 0, "is_reserved": 0}, {"rental_uris": {"ios": "https://dc.lft.to/lastmile_qr_scan", "android": "https://dc.lft.to/lastmile_qr_scan"}, "lon": -77.01222766666666, "type": "electric_scooter", "fusion_lat": 0.0, "lat": 38.92033433333334, "name": "fd6e4d7d7b6a44ca9e2fc612b53a0ecf", "fusion_lon": 0.0, "bike_id": "fd6e4d7d7b6a44ca9e2fc612b53a0ecf", "is_disabled": 0, "is_reserved": 0}, {"rental_uris": {"ios": "https://dc.lft.to/lastmile_qr_scan", "android": "https://dc.lft.to/lastmile_qr_scan"}, "lon": -77.00155366666667, "type": "electric_scooter", "fusion_lat": 0.0, "lat": 38.87289616666666, "name": "931a2c9fed7ffccf876a5a9619b8e40f", "fusion_lon": 0.0, "bike_id": "931a2c9fed7ffccf876a5a9619b8e40f", "is_disabled": 0, "is_reserved": 0}, {"rental_uris": {"ios": "https://dc.lft.to/lastmile_qr_scan", "android": "https://dc.lft.to/lastmile_qr_scan"}, "lon": -76.97671716666666, "type": "electric_scooter", "fusion_lat": 0.0, "lat": 38.8961755, "name": "14ba8372f3b7baf3c73470c8494d54aa", "fusion_lon": 0.0, "bike_id": "14ba8372f3b7baf3c73470c8494d54aa", "is_disabled": 0, "is_reserved": 0}, {"rental_uris": {"ios": "https://dc.lft.to/lastmile_qr_scan", "android": "https://dc.lft.to/lastmile_qr_scan"}, "lon": -77.05343866666666, "type": "electric_scooter", "fusion_lat": 0.0, "lat": 38.9022895, "name": "0108776bb753aadeaf3750c3d4b909e2", "fusion_lon": 0.0, "bike_id": "0108776bb753aadeaf3750c3d4b909e2", "is_disabled": 0, "is_reserved": 0}, {"rental_uris": {"ios": "https://dc.lft.to/lastmile_qr_scan", "android": "https://dc.lft.to/lastmile_qr_scan"}, "lon": -77.0523525, "type": "electric_scooter", "fusion_lat": 0.0, "lat": 38.92459933333333, "name": "b245ab6cdf5af2acf51a4f342c63839e", "fusion_lon": 0.0, "bike_id": "b245ab6cdf5af2acf51a4f342c63839e", "is_disabled": 0, "is_reserved": 0}, {"rental_uris": {"ios": "https://dc.lft.to/lastmile_qr_scan", "android": "https://dc.lft.to/lastmile_qr_scan"}, "lon": -77.02392966666666, "type": "electric_scooter", "fusion_lat": 0.0, "lat": 38.935844, "name": "d3de1af57083981ab97c5b23a5d048f5", "fusion_lon": 0.0, "bike_id": "d3de1af57083981ab97c5b23a5d048f5", "is_disabled": 0, "is_reserved": 0}, {"rental_uris": {"ios": "https://dc.lft.to/lastmile_qr_scan", "android": "https://dc.lft.to/lastmile_qr_scan"}, "lon": -76.93237233333333, "type": "electric_bike", "fusion_lat": 0.0, "lat": 38.882788166666664, "name": "b6aca5e466c9897671f838686542af6e", "fusion_lon": 0.0, "bike_id": "b6aca5e466c9897671f838686542af6e", "is_disabled": 0, "is_reserved": 0}, {"rental_uris": {"ios": "https://dc.lft.to/lastmile_qr_scan", "android": "https://dc.lft.to/lastmile_qr_scan"}, "lon": -77.03209966666667, "type": "electric_scooter", "fusion_lat": 0.0, "lat": 38.90896433333333, "name": "d3f3f6734d64ea23925865a2d4cfd719", "fusion_lon": 0.0, "bike_id": "d3f3f6734d64ea23925865a2d4cfd719", "is_disabled": 0, "is_reserved": 0}, {"rental_uris": {"ios": "https://dc.lft.to/lastmile_qr_scan", "android": "https://dc.lft.to/lastmile_qr_scan"}, "lon": -77.04480416666667, "type": "electric_scooter", "fusion_lat": 0.0, "lat": 38.92234833333333, "name": "c9e4b580276b469890817e77e31d30fb", "fusion_lon": 0.0, "bike_id": "c9e4b580276b469890817e77e31d30fb", "is_disabled": 0, "is_reserved": 0}, {"rental_uris": {"ios": "https://dc.lft.to/lastmile_qr_scan", "android": "https://dc.lft.to/lastmile_qr_scan"}, "lon": -77.04190716666666, "type": "electric_scooter", "fusion_lat": 0.0, "lat": 38.9220385, "name": "c85883e72c972feda66d108e7987f59c", "fusion_lon": 0.0, "bike_id": "c85883e72c972feda66d108e7987f59c", "is_disabled": 0, "is_reserved": 0}, {"rental_uris": {"ios": "https://dc.lft.to/lastmile_qr_scan", "android": "https://dc.lft.to/lastmile_qr_scan"}, "lon": -77.032143, "type": "electric_scooter", "fusion_lat": 0.0, "lat": 38.92069983333333, "name": "6fedf95a13210eecc7b8c9372dfded83", "fusion_lon": 0.0, "bike_id": "6fedf95a13210eecc7b8c9372dfded83", "is_disabled": 0, "is_reserved": 0}, {"rental_uris": {"ios": "https://dc.lft.to/lastmile_qr_scan", "android": "https://dc.lft.to/lastmile_qr_scan"}, "lon": -77.04246316666666, "type": "electric_scooter", "fusion_lat": 0.0, "lat": 38.9223485, "name": "24a17f229bc22ce4e110e98341c788f9", "fusion_lon": 0.0, "bike_id": "24a17f229bc22ce4e110e98341c788f9", "is_disabled": 0, "is_reserved": 0}, {"rental_uris": {"ios": "https://dc.lft.to/lastmile_qr_scan", "android": "https://dc.lft.to/lastmile_qr_scan"}, "lon": -76.99617816666667, "type": "electric_scooter", "fusion_lat": 0.0, "lat": 38.89741266666667, "name": "905fbae3f4b7630a60df4097acd9b643", "fusion_lon": 0.0, "bike_id": "905fbae3f4b7630a60df4097acd9b643", "is_disabled": 0, "is_reserved": 0}, {"rental_uris": {"ios": "https://dc.lft.to/lastmile_qr_scan", "android": "https://dc.lft.to/lastmile_qr_scan"}, "lon": -77.07018633333334, "type": "electric_bike", "fusion_lat": 0.0, "lat": 38.9062725, "name": "a9b684b88453e70c3ee0398b5ff68780", "fusion_lon": 0.0, "bike_id": "a9b684b88453e70c3ee0398b5ff68780", "is_disabled": 0, "is_reserved": 0}, {"rental_uris": {"ios": "https://dc.lft.to/lastmile_qr_scan", "android": "https://dc.lft.to/lastmile_qr_scan"}, "lon": -77.02892433333334, "type": "electric_scooter", "fusion_lat": 0.0, "lat": 38.92572766666667, "name": "59e0ef345d8b9ce39ecb3ed3b738032d", "fusion_lon": 0.0, "bike_id": "59e0ef345d8b9ce39ecb3ed3b738032d", "is_disabled": 0, "is_reserved": 0}, {"rental_uris": {"ios": "https://dc.lft.to/lastmile_qr_scan", "android": "https://dc.lft.to/lastmile_qr_scan"}, "lon": -77.03124366666667, "type": "electric_scooter", "fusion_lat": 0.0, "lat": 38.913309166666664, "name": "ab53a8eaa87d88c643e3ac1fe12a47ad", "fusion_lon": 0.0, "bike_id": "ab53a8eaa87d88c643e3ac1fe12a47ad", "is_disabled": 0, "is_reserved": 0}, {"rental_uris": {"ios": "https://dc.lft.to/lastmile_qr_scan", "android": "https://dc.lft.to/lastmile_qr_scan"}, "lon": -77.058881, "type": "electric_scooter", "fusion_lat": 0.0, "lat": 38.93637, "name": "9c98899c82ba9b42398f685068d6a34a", "fusion_lon": 0.0, "bike_id": "9c98899c82ba9b42398f685068d6a34a", "is_disabled": 0, "is_reserved": 0}, {"rental_uris": {"ios": "https://dc.lft.to/lastmile_qr_scan", "android": "https://dc.lft.to/lastmile_qr_scan"}, "lon": -77.01124483333334, "type": "electric_scooter", "fusion_lat": 0.0, "lat": 38.8954975, "name": "6b7ae0fa50028a9f6a18dffb367d36f0", "fusion_lon": 0.0, "bike_id": "6b7ae0fa50028a9f6a18dffb367d36f0", "is_disabled": 0, "is_reserved": 0}, {"rental_uris": {"ios": "https://dc.lft.to/lastmile_qr_scan", "android": "https://dc.lft.to/lastmile_qr_scan"}, "lon": -77.0468595, "type": "electric_scooter", "fusion_lat": 0.0, "lat": 38.896141166666666, "name": "0a640d4f655841b8d346ce0dacaea45f", "fusion_lon": 0.0, "bike_id": "0a640d4f655841b8d346ce0dacaea45f", "is_disabled": 0, "is_reserved": 0}, {"rental_uris": {"ios": "https://dc.lft.to/lastmile_qr_scan", "android": "https://dc.lft.to/lastmile_qr_scan"}, "lon": -77.03130383333334, "type": "electric_scooter", "fusion_lat": 0.0, "lat": 38.89984166666667, "name": "76ea1f66f306c0f0cb5b9f44108abcf5", "fusion_lon": 0.0, "bike_id": "76ea1f66f306c0f0cb5b9f44108abcf5", "is_disabled": 0, "is_reserved": 0}, {"rental_uris": {"ios": "https://dc.lft.to/lastmile_qr_scan", "android": "https://dc.lft.to/lastmile_qr_scan"}, "lon": -77.05914466666667, "type": "electric_scooter", "fusion_lat": 0.0, "lat": 38.90235716666667, "name": "7da40b163ed6e3bf72c6aa7d9c95a47e", "fusion_lon": 0.0, "bike_id": "7da40b163ed6e3bf72c6aa7d9c95a47e", "is_disabled": 0, "is_reserved": 0}, {"rental_uris": {"ios": "https://dc.lft.to/lastmile_qr_scan", "android": "https://dc.lft.to/lastmile_qr_scan"}, "lon": -77.04497133333334, "type": "electric_scooter", "fusion_lat": 0.0, "lat": 38.912106666666666, "name": "7f9b4a06424112e1cec61d4d4e2f9e65", "fusion_lon": 0.0, "bike_id": "7f9b4a06424112e1cec61d4d4e2f9e65", "is_disabled": 0, "is_reserved": 0}, {"rental_uris": {"ios": "https://dc.lft.to/lastmile_qr_scan", "android": "https://dc.lft.to/lastmile_qr_scan"}, "lon": -77.027744, "type": "electric_scooter", "fusion_lat": 0.0, "lat": 38.8816125, "name": "7af6be994f1d4af7049a17f8f020dfaa", "fusion_lon": 0.0, "bike_id": "7af6be994f1d4af7049a17f8f020dfaa", "is_disabled": 0, "is_reserved": 0}, {"rental_uris": {"ios": "https://dc.lft.to/lastmile_qr_scan", "android": "https://dc.lft.to/lastmile_qr_scan"}, "lon": -77.02967466666666, "type": "electric_scooter", "fusion_lat": 0.0, "lat": 38.9177185, "name": "1b075360d1d5d7d8fa6c055c73db5d95", "fusion_lon": 0.0, "bike_id": "1b075360d1d5d7d8fa6c055c73db5d95", "is_disabled": 0, "is_reserved": 0}, {"rental_uris": {"ios": "https://dc.lft.to/lastmile_qr_scan", "android": "https://dc.lft.to/lastmile_qr_scan"}, "lon": -77.0334525, "type": "electric_bike", "fusion_lat": 0.0, "lat": 38.968039, "name": "39ccbdaae5742164be6117d502e8ff01", "fusion_lon": 0.0, "bike_id": "39ccbdaae5742164be6117d502e8ff01", "is_disabled": 0, "is_reserved": 0}, {"rental_uris": {"ios": "https://dc.lft.to/lastmile_qr_scan", "android": "https://dc.lft.to/lastmile_qr_scan"}, "lon": -77.03935383333334, "type": "electric_scooter", "fusion_lat": 0.0, "lat": 38.89902033333333, "name": "e5501fe13032314919a81a283d0020b5", "fusion_lon": 0.0, "bike_id": "e5501fe13032314919a81a283d0020b5", "is_disabled": 0, "is_reserved": 0}, {"rental_uris": {"ios": "https://dc.lft.to/lastmile_qr_scan", "android": "https://dc.lft.to/lastmile_qr_scan"}, "lon": -76.99382783333333, "type": "electric_bike", "fusion_lat": 0.0, "lat": 38.923003666666666, "name": "c769cb72b3890babe316e0a646a828fa", "fusion_lon": 0.0, "bike_id": "c769cb72b3890babe316e0a646a828fa", "is_disabled": 0, "is_reserved": 0}, {"rental_uris": {"ios": "https://dc.lft.to/lastmile_qr_scan", "android": "https://dc.lft.to/lastmile_qr_scan"}, "lon": -76.94933, "type": "electric_scooter", "fusion_lat": 0.0, "lat": 38.895325, "name": "e2a242a0caccdc87ce0fb43306b8c2ab", "fusion_lon": 0.0, "bike_id": "e2a242a0caccdc87ce0fb43306b8c2ab", "is_disabled": 0, "is_reserved": 0}, {"rental_uris": {"ios": "https://dc.lft.to/lastmile_qr_scan", "android": "https://dc.lft.to/lastmile_qr_scan"}, "lon": -76.9356165, "type": "electric_scooter", "fusion_lat": 0.0, "lat": 38.886001666666665, "name": "def0b9a9c61b9dfe1376aa34ebe3713f", "fusion_lon": 0.0, "bike_id": "def0b9a9c61b9dfe1376aa34ebe3713f", "is_disabled": 0, "is_reserved": 0}, {"rental_uris": {"ios": "https://dc.lft.to/lastmile_qr_scan", "android": "https://dc.lft.to/lastmile_qr_scan"}, "lon": -77.04807033333333, "type": "electric_scooter", "fusion_lat": 0.0, "lat": 38.89223716666667, "name": "54a26e60f39e608682fe0d88c51290b4", "fusion_lon": 0.0, "bike_id": "54a26e60f39e608682fe0d88c51290b4", "is_disabled": 0, "is_reserved": 0}, {"rental_uris": {"ios": "https://dc.lft.to/lastmile_qr_scan", "android": "https://dc.lft.to/lastmile_qr_scan"}, "lon": -77.02048483333333, "type": "electric_scooter", "fusion_lat": 0.0, "lat": 38.91556966666667, "name": "31622e0a073ce24c31f70b18ad9fbd67", "fusion_lon": 0.0, "bike_id": "31622e0a073ce24c31f70b18ad9fbd67", "is_disabled": 0, "is_reserved": 0}, {"rental_uris": {"ios": "https://dc.lft.to/lastmile_qr_scan", "android": "https://dc.lft.to/lastmile_qr_scan"}, "lon": -77.023739, "type": "electric_scooter", "fusion_lat": 0.0, "lat": 38.896274166666664, "name": "adbc6da51820c7d4e19779618c6d3cef", "fusion_lon": 0.0, "bike_id": "adbc6da51820c7d4e19779618c6d3cef", "is_disabled": 0, "is_reserved": 0}, {"rental_uris": {"ios": "https://dc.lft.to/lastmile_qr_scan", "android": "https://dc.lft.to/lastmile_qr_scan"}, "lon": -77.04115216666666, "type": "electric_scooter", "fusion_lat": 0.0, "lat": 38.89600133333333, "name": "384f35e376c8c16dd1ae4e1100389027", "fusion_lon": 0.0, "bike_id": "384f35e376c8c16dd1ae4e1100389027", "is_disabled": 0, "is_reserved": 0}, {"rental_uris": {"ios": "https://dc.lft.to/lastmile_qr_scan", "android": "https://dc.lft.to/lastmile_qr_scan"}, "lon": -77.15268716666667, "type": "electric_bike", "fusion_lat": 0.0, "lat": 39.10564766666667, "name": "9c190115d6bea71f39386f4b3d471391", "fusion_lon": 0.0, "bike_id": "9c190115d6bea71f39386f4b3d471391", "is_disabled": 0, "is_reserved": 0}, {"rental_uris": {"ios": "https://dc.lft.to/lastmile_qr_scan", "android": "https://dc.lft.to/lastmile_qr_scan"}, "lon": -76.9575895, "type": "electric_scooter", "fusion_lat": 0.0, "lat": 38.884299, "name": "830a4595a2635e2483379fd3b58f0ea9", "fusion_lon": 0.0, "bike_id": "830a4595a2635e2483379fd3b58f0ea9", "is_disabled": 0, "is_reserved": 0}, {"rental_uris": {"ios": "https://dc.lft.to/lastmile_qr_scan", "android": "https://dc.lft.to/lastmile_qr_scan"}, "lon": -76.96504816666666, "type": "electric_scooter", "fusion_lat": 0.0, "lat": 38.8764665, "name": "c41298c0f0b30b9045084878b763a46d", "fusion_lon": 0.0, "bike_id": "c41298c0f0b30b9045084878b763a46d", "is_disabled": 0, "is_reserved": 0}, {"rental_uris": {"ios": "https://dc.lft.to/lastmile_qr_scan", "android": "https://dc.lft.to/lastmile_qr_scan"}, "lon": -77.1623055, "type": "electric_bike", "fusion_lat": 0.0, "lat": 38.88657533333333, "name": "c7ea96c8ae944c425f08bc0db68cd45f", "fusion_lon": 0.0, "bike_id": "c7ea96c8ae944c425f08bc0db68cd45f", "is_disabled": 0, "is_reserved": 0}, {"rental_uris": {"ios": "https://dc.lft.to/lastmile_qr_scan", "android": "https://dc.lft.to/lastmile_qr_scan"}, "lon": -77.003746, "type": "electric_bike", "fusion_lat": 0.0, "lat": 38.83607266666667, "name": "7733dc3eccc7fc082c841f89b54db22c", "fusion_lon": 0.0, "bike_id": "7733dc3eccc7fc082c841f89b54db22c", "is_disabled": 0, "is_reserved": 0}, {"rental_uris": {"ios": "https://dc.lft.to/lastmile_qr_scan", "android": "https://dc.lft.to/lastmile_qr_scan"}, "lon": -77.0281815, "type": "electric_scooter", "fusion_lat": 0.0, "lat": 38.961296, "name": "742fab0940aff8cfa9b5ef1364ad06dd", "fusion_lon": 0.0, "bike_id": "742fab0940aff8cfa9b5ef1364ad06dd", "is_disabled": 0, "is_reserved": 0}, {"rental_uris": {"ios": "https://dc.lft.to/lastmile_qr_scan", "android": "https://dc.lft.to/lastmile_qr_scan"}, "lon": -77.02061333333333, "type": "electric_scooter", "fusion_lat": 0.0, "lat": 38.94122216666667, "name": "36a2ea304c6b8a5c427a5c53bed45610", "fusion_lon": 0.0, "bike_id": "36a2ea304c6b8a5c427a5c53bed45610", "is_disabled": 0, "is_reserved": 0}, {"rental_uris": {"ios": "https://dc.lft.to/lastmile_qr_scan", "android": "https://dc.lft.to/lastmile_qr_scan"}, "lon": -76.990625, "type": "electric_scooter", "fusion_lat": 0.0, "lat": 38.86351633333334, "name": "024ec286715e3e81ae33ea95d56e63a7", "fusion_lon": 0.0, "bike_id": "024ec286715e3e81ae33ea95d56e63a7", "is_disabled": 0, "is_reserved": 0}, {"rental_uris": {"ios": "https://dc.lft.to/lastmile_qr_scan", "android": "https://dc.lft.to/lastmile_qr_scan"}, "lon": -76.95456766666666, "type": "electric_bike", "fusion_lat": 0.0, "lat": 38.9400225, "name": "135c673993f66af5ed3e94f8a1ce767e", "fusion_lon": 0.0, "bike_id": "135c673993f66af5ed3e94f8a1ce767e", "is_disabled": 0, "is_reserved": 0}, {"rental_uris": {"ios": "https://dc.lft.to/lastmile_qr_scan", "android": "https://dc.lft.to/lastmile_qr_scan"}, "lon": -77.02913183333334, "type": "electric_scooter", "fusion_lat": 0.0, "lat": 38.91697816666667, "name": "06250359594ae7be4f73c61f97caa323", "fusion_lon": 0.0, "bike_id": "06250359594ae7be4f73c61f97caa323", "is_disabled": 0, "is_reserved": 0}, {"rental_uris": {"ios": "https://dc.lft.to/lastmile_qr_scan", "android": "https://dc.lft.to/lastmile_qr_scan"}, "lon": -76.93619483333333, "type": "electric_bike", "fusion_lat": 0.0, "lat": 38.970529166666665, "name": "4caff046cf2c82f63b383ef33fed8bfd", "fusion_lon": 0.0, "bike_id": "4caff046cf2c82f63b383ef33fed8bfd", "is_disabled": 0, "is_reserved": 0}, {"rental_uris": {"ios": "https://dc.lft.to/lastmile_qr_scan", "android": "https://dc.lft.to/lastmile_qr_scan"}, "lon": -77.04017433333334, "type": "electric_scooter", "fusion_lat": 0.0, "lat": 38.9182105, "name": "029a1bd743f8195d5ac8e69575e4ca5a", "fusion_lon": 0.0, "bike_id": "029a1bd743f8195d5ac8e69575e4ca5a", "is_disabled": 0, "is_reserved": 0}, {"rental_uris": {"ios": "https://dc.lft.to/lastmile_qr_scan", "android": "https://dc.lft.to/lastmile_qr_scan"}, "lon": -77.07906983333334, "type": "electric_bike", "fusion_lat": 0.0, "lat": 38.8393145, "name": "4a9becef3f57aace1efa52e7e2773a87", "fusion_lon": 0.0, "bike_id": "4a9becef3f57aace1efa52e7e2773a87", "is_disabled": 0, "is_reserved": 0}, {"rental_uris": {"ios": "https://dc.lft.to/lastmile_qr_scan", "android": "https://dc.lft.to/lastmile_qr_scan"}, "lon": -76.98090483333333, "type": "electric_bike", "fusion_lat": 0.0, "lat": 38.902879166666665, "name": "9faf2a748c968ce1b369b12792a6efdd", "fusion_lon": 0.0, "bike_id": "9faf2a748c968ce1b369b12792a6efdd", "is_disabled": 0, "is_reserved": 0}, {"rental_uris": {"ios": "https://dc.lft.to/lastmile_qr_scan", "android": "https://dc.lft.to/lastmile_qr_scan"}, "lon": -77.02398616666666, "type": "electric_scooter", "fusion_lat": 0.0, "lat": 38.930933833333334, "name": "36f1b6be0183493bae52e8d6cfb4c5ae", "fusion_lon": 0.0, "bike_id": "36f1b6be0183493bae52e8d6cfb4c5ae", "is_disabled": 0, "is_reserved": 0}, {"rental_uris": {"ios": "https://dc.lft.to/lastmile_qr_scan", "android": "https://dc.lft.to/lastmile_qr_scan"}, "lon": -76.99972133333333, "type": "electric_scooter", "fusion_lat": 0.0, "lat": 38.901393166666665, "name": "901a5d10fe96936ec7eb3ba6ed49f415", "fusion_lon": 0.0, "bike_id": "901a5d10fe96936ec7eb3ba6ed49f415", "is_disabled": 0, "is_reserved": 0}, {"rental_uris": {"ios": "https://dc.lft.to/lastmile_qr_scan", "android": "https://dc.lft.to/lastmile_qr_scan"}, "lon": -77.04663883333333, "type": "electric_scooter", "fusion_lat": 0.0, "lat": 38.90509766666667, "name": "401d1d265e131a0af462891770ed88d8", "fusion_lon": 0.0, "bike_id": "401d1d265e131a0af462891770ed88d8", "is_disabled": 0, "is_reserved": 0}, {"rental_uris": {"ios": "https://dc.lft.to/lastmile_qr_scan", "android": "https://dc.lft.to/lastmile_qr_scan"}, "lon": -77.04002116666666, "type": "electric_scooter", "fusion_lat": 0.0, "lat": 38.9342705, "name": "7f934443d1e8844a1b75f6da68845e97", "fusion_lon": 0.0, "bike_id": "7f934443d1e8844a1b75f6da68845e97", "is_disabled": 0, "is_reserved": 0}, {"rental_uris": {"ios": "https://dc.lft.to/lastmile_qr_scan", "android": "https://dc.lft.to/lastmile_qr_scan"}, "lon": -77.00631966666667, "type": "electric_scooter", "fusion_lat": 0.0, "lat": 38.876383833333335, "name": "7a4f53b1f18dea9854dba011c6839102", "fusion_lon": 0.0, "bike_id": "7a4f53b1f18dea9854dba011c6839102", "is_disabled": 0, "is_reserved": 0}, {"rental_uris": {"ios": "https://dc.lft.to/lastmile_qr_scan", "android": "https://dc.lft.to/lastmile_qr_scan"}, "lon": -77.0214935, "type": "electric_bike", "fusion_lat": 0.0, "lat": 38.973267166666666, "name": "fa4c9fbc72b52134dfc8cfde8a1ce6a9", "fusion_lon": 0.0, "bike_id": "fa4c9fbc72b52134dfc8cfde8a1ce6a9", "is_disabled": 0, "is_reserved": 0}, {"rental_uris": {"ios": "https://dc.lft.to/lastmile_qr_scan", "android": "https://dc.lft.to/lastmile_qr_scan"}, "lon": -77.03221233333333, "type": "electric_scooter", "fusion_lat": 0.0, "lat": 38.930502833333335, "name": "391c2d059179face913e778c61aff415", "fusion_lon": 0.0, "bike_id": "391c2d059179face913e778c61aff415", "is_disabled": 0, "is_reserved": 0}, {"rental_uris": {"ios": "https://dc.lft.to/lastmile_qr_scan", "android": "https://dc.lft.to/lastmile_qr_scan"}, "lon": -77.02024266666666, "type": "electric_scooter", "fusion_lat": 0.0, "lat": 38.915480333333335, "name": "be6895f4e2d25a94229bcd8b6dcc6caf", "fusion_lon": 0.0, "bike_id": "be6895f4e2d25a94229bcd8b6dcc6caf", "is_disabled": 0, "is_reserved": 0}, {"rental_uris": {"ios": "https://dc.lft.to/lastmile_qr_scan", "android": "https://dc.lft.to/lastmile_qr_scan"}, "lon": -77.02613316666667, "type": "electric_scooter", "fusion_lat": 0.0, "lat": 38.89682333333333, "name": "945f38ce0f93ee4ba658d42e0e49c578", "fusion_lon": 0.0, "bike_id": "945f38ce0f93ee4ba658d42e0e49c578", "is_disabled": 0, "is_reserved": 0}, {"rental_uris": {"ios": "https://dc.lft.to/lastmile_qr_scan", "android": "https://dc.lft.to/lastmile_qr_scan"}, "lon": -77.02546916666667, "type": "electric_scooter", "fusion_lat": 0.0, "lat": 38.93498183333333, "name": "f8e31cf995b67f876245d77bc322ce53", "fusion_lon": 0.0, "bike_id": "f8e31cf995b67f876245d77bc322ce53", "is_disabled": 0, "is_reserved": 0}, {"rental_uris": {"ios": "https://dc.lft.to/lastmile_qr_scan", "android": "https://dc.lft.to/lastmile_qr_scan"}, "lon": -77.041962, "type": "electric_scooter", "fusion_lat": 0.0, "lat": 38.9205295, "name": "1ab34087aa4b50bdc2280f2b360de282", "fusion_lon": 0.0, "bike_id": "1ab34087aa4b50bdc2280f2b360de282", "is_disabled": 0, "is_reserved": 0}, {"rental_uris": {"ios": "https://dc.lft.to/lastmile_qr_scan", "android": "https://dc.lft.to/lastmile_qr_scan"}, "lon": -77.004329, "type": "electric_scooter", "fusion_lat": 0.0, "lat": 38.90397016666667, "name": "b766d8811508fc25aa51c8a4dd2a1886", "fusion_lon": 0.0, "bike_id": "b766d8811508fc25aa51c8a4dd2a1886", "is_disabled": 0, "is_reserved": 0}, {"rental_uris": {"ios": "https://dc.lft.to/lastmile_qr_scan", "android": "https://dc.lft.to/lastmile_qr_scan"}, "lon": -77.03306516666666, "type": "electric_scooter", "fusion_lat": 0.0, "lat": 38.8985065, "name": "40b25e5db48bbe0a4d6e4d77f5f3fa82", "fusion_lon": 0.0, "bike_id": "40b25e5db48bbe0a4d6e4d77f5f3fa82", "is_disabled": 0, "is_reserved": 0}, {"rental_uris": {"ios": "https://dc.lft.to/lastmile_qr_scan", "android": "https://dc.lft.to/lastmile_qr_scan"}, "lon": -77.04675083333333, "type": "electric_scooter", "fusion_lat": 0.0, "lat": 38.904978, "name": "848adb065ef5293f906c3d2fd96bb8fa", "fusion_lon": 0.0, "bike_id": "848adb065ef5293f906c3d2fd96bb8fa", "is_disabled": 0, "is_reserved": 0}, {"rental_uris": {"ios": "https://dc.lft.to/lastmile_qr_scan", "android": "https://dc.lft.to/lastmile_qr_scan"}, "lon": -77.04887133333334, "type": "electric_scooter", "fusion_lat": 0.0, "lat": 38.90072033333333, "name": "d9fc410dae19f95ed2f6892c7d67404b", "fusion_lon": 0.0, "bike_id": "d9fc410dae19f95ed2f6892c7d67404b", "is_disabled": 0, "is_reserved": 0}, {"rental_uris": {"ios": "https://dc.lft.to/lastmile_qr_scan", "android": "https://dc.lft.to/lastmile_qr_scan"}, "lon": -77.03632333333333, "type": "electric_scooter", "fusion_lat": 0.0, "lat": 38.926512333333335, "name": "55d06cc6f92f5cc2991fd1131b47d7c5", "fusion_lon": 0.0, "bike_id": "55d06cc6f92f5cc2991fd1131b47d7c5", "is_disabled": 0, "is_reserved": 0}, {"rental_uris": {"ios": "https://dc.lft.to/lastmile_qr_scan", "android": "https://dc.lft.to/lastmile_qr_scan"}, "lon": -76.96506966666666, "type": "electric_scooter", "fusion_lat": 0.0, "lat": 38.87646383333333, "name": "7d9129ebd06621006f2d3814136fecc0", "fusion_lon": 0.0, "bike_id": "7d9129ebd06621006f2d3814136fecc0", "is_disabled": 0, "is_reserved": 0}, {"rental_uris": {"ios": "https://dc.lft.to/lastmile_qr_scan", "android": "https://dc.lft.to/lastmile_qr_scan"}, "lon": -77.03219366666667, "type": "electric_scooter", "fusion_lat": 0.0, "lat": 38.919154166666665, "name": "6d3ad10a3ce96bf026384caaa0fd4a79", "fusion_lon": 0.0, "bike_id": "6d3ad10a3ce96bf026384caaa0fd4a79", "is_disabled": 0, "is_reserved": 0}, {"rental_uris": {"ios": "https://dc.lft.to/lastmile_qr_scan", "android": "https://dc.lft.to/lastmile_qr_scan"}, "lon": -77.01338283333334, "type": "electric_bike", "fusion_lat": 0.0, "lat": 38.92730316666667, "name": "cbf09893fd04abf976fea40f229a2adc", "fusion_lon": 0.0, "bike_id": "cbf09893fd04abf976fea40f229a2adc", "is_disabled": 0, "is_reserved": 0}, {"rental_uris": {"ios": "https://dc.lft.to/lastmile_qr_scan", "android": "https://dc.lft.to/lastmile_qr_scan"}, "lon": -77.00513916666667, "type": "electric_bike", "fusion_lat": 0.0, "lat": 38.87943466666667, "name": "a1ffce697bbf1ded5f3b50840a52f6b8", "fusion_lon": 0.0, "bike_id": "a1ffce697bbf1ded5f3b50840a52f6b8", "is_disabled": 0, "is_reserved": 0}, {"rental_uris": {"ios": "https://dc.lft.to/lastmile_qr_scan", "android": "https://dc.lft.to/lastmile_qr_scan"}, "lon": -77.04868566666667, "type": "electric_scooter", "fusion_lat": 0.0, "lat": 38.908485166666665, "name": "22bb7cad14777569c1bff0797f383127", "fusion_lon": 0.0, "bike_id": "22bb7cad14777569c1bff0797f383127", "is_disabled": 0, "is_reserved": 0}, {"rental_uris": {"ios": "https://dc.lft.to/lastmile_qr_scan", "android": "https://dc.lft.to/lastmile_qr_scan"}, "lon": -77.03446783333334, "type": "electric_scooter", "fusion_lat": 0.0, "lat": 38.90975066666667, "name": "8feba46eecd3a9f74e4e2860455f9e79", "fusion_lon": 0.0, "bike_id": "8feba46eecd3a9f74e4e2860455f9e79", "is_disabled": 0, "is_reserved": 0}, {"rental_uris": {"ios": "https://dc.lft.to/lastmile_qr_scan", "android": "https://dc.lft.to/lastmile_qr_scan"}, "lon": -77.00881416666667, "type": "electric_scooter", "fusion_lat": 0.0, "lat": 38.914261, "name": "13b11fdeeddc158c71c938513dcc57ec", "fusion_lon": 0.0, "bike_id": "13b11fdeeddc158c71c938513dcc57ec", "is_disabled": 0, "is_reserved": 0}, {"rental_uris": {"ios": "https://dc.lft.to/lastmile_qr_scan", "android": "https://dc.lft.to/lastmile_qr_scan"}, "lon": -77.03244683333334, "type": "electric_scooter", "fusion_lat": 0.0, "lat": 38.91929916666667, "name": "7d438cd02edaa8b0b564fe890e7c73f9", "fusion_lon": 0.0, "bike_id": "7d438cd02edaa8b0b564fe890e7c73f9", "is_disabled": 0, "is_reserved": 0}, {"rental_uris": {"ios": "https://dc.lft.to/lastmile_qr_scan", "android": "https://dc.lft.to/lastmile_qr_scan"}, "lon": -77.02343483333334, "type": "electric_scooter", "fusion_lat": 0.0, "lat": 38.925172333333336, "name": "5efd860ea520f667e9a9082544bde1b7", "fusion_lon": 0.0, "bike_id": "5efd860ea520f667e9a9082544bde1b7", "is_disabled": 0, "is_reserved": 0}, {"rental_uris": {"ios": "https://dc.lft.to/lastmile_qr_scan", "android": "https://dc.lft.to/lastmile_qr_scan"}, "lon": -76.97491116666667, "type": "electric_bike", "fusion_lat": 0.0, "lat": 38.920055833333336, "name": "2d619ae93937318a23da942b5fc925e3", "fusion_lon": 0.0, "bike_id": "2d619ae93937318a23da942b5fc925e3", "is_disabled": 0, "is_reserved": 0}, {"rental_uris": {"ios": "https://dc.lft.to/lastmile_qr_scan", "android": "https://dc.lft.to/lastmile_qr_scan"}, "lon": -77.0609295, "type": "electric_scooter", "fusion_lat": 0.0, "lat": 38.912685833333335, "name": "55a1ecb802a946d39bfbdc81522dbbc5", "fusion_lon": 0.0, "bike_id": "55a1ecb802a946d39bfbdc81522dbbc5", "is_disabled": 0, "is_reserved": 0}, {"rental_uris": {"ios": "https://dc.lft.to/lastmile_qr_scan", "android": "https://dc.lft.to/lastmile_qr_scan"}, "lon": -77.0347065, "type": "electric_scooter", "fusion_lat": 0.0, "lat": 38.909423333333336, "name": "91cc02b3bb2c84cc0065a7ecc6e54a7b", "fusion_lon": 0.0, "bike_id": "91cc02b3bb2c84cc0065a7ecc6e54a7b", "is_disabled": 0, "is_reserved": 0}, {"rental_uris": {"ios": "https://dc.lft.to/lastmile_qr_scan", "android": "https://dc.lft.to/lastmile_qr_scan"}, "lon": -77.03519566666667, "type": "electric_scooter", "fusion_lat": 0.0, "lat": 38.9358805, "name": "6e5a88ebb495df03c417470c3daad98c", "fusion_lon": 0.0, "bike_id": "6e5a88ebb495df03c417470c3daad98c", "is_disabled": 0, "is_reserved": 0}, {"rental_uris": {"ios": "https://dc.lft.to/lastmile_qr_scan", "android": "https://dc.lft.to/lastmile_qr_scan"}, "lon": -76.93736866666667, "type": "electric_scooter", "fusion_lat": 0.0, "lat": 38.890162833333335, "name": "15f3bd240c61e1eacb019054ff11eeb7", "fusion_lon": 0.0, "bike_id": "15f3bd240c61e1eacb019054ff11eeb7", "is_disabled": 0, "is_reserved": 0}, {"rental_uris": {"ios": "https://dc.lft.to/lastmile_qr_scan", "android": "https://dc.lft.to/lastmile_qr_scan"}, "lon": -76.97405483333333, "type": "electric_scooter", "fusion_lat": 0.0, "lat": 38.901558666666666, "name": "15f41cb18614e214b417660fb117694c", "fusion_lon": 0.0, "bike_id": "15f41cb18614e214b417660fb117694c", "is_disabled": 0, "is_reserved": 0}, {"rental_uris": {"ios": "https://dc.lft.to/lastmile_qr_scan", "android": "https://dc.lft.to/lastmile_qr_scan"}, "lon": -77.02428766666667, "type": "electric_scooter", "fusion_lat": 0.0, "lat": 38.879702, "name": "77db5211bdacf246b4f219e515bc54ee", "fusion_lon": 0.0, "bike_id": "77db5211bdacf246b4f219e515bc54ee", "is_disabled": 0, "is_reserved": 0}, {"rental_uris": {"ios": "https://dc.lft.to/lastmile_qr_scan", "android": "https://dc.lft.to/lastmile_qr_scan"}, "lon": -76.93713316666667, "type": "electric_scooter", "fusion_lat": 0.0, "lat": 38.895895833333334, "name": "e72917356281a541fb56810f7e353f63", "fusion_lon": 0.0, "bike_id": "e72917356281a541fb56810f7e353f63", "is_disabled": 0, "is_reserved": 0}, {"rental_uris": {"ios": "https://dc.lft.to/lastmile_qr_scan", "android": "https://dc.lft.to/lastmile_qr_scan"}, "lon": -77.03225283333333, "type": "electric_scooter", "fusion_lat": 0.0, "lat": 38.92669866666667, "name": "09d0b2f0c8fa9991fb1ee9f52686c0f7", "fusion_lon": 0.0, "bike_id": "09d0b2f0c8fa9991fb1ee9f52686c0f7", "is_disabled": 0, "is_reserved": 0}, {"rental_uris": {"ios": "https://dc.lft.to/lastmile_qr_scan", "android": "https://dc.lft.to/lastmile_qr_scan"}, "lon": -77.00724816666667, "type": "electric_scooter", "fusion_lat": 0.0, "lat": 38.90370033333333, "name": "c7abbc5ea9bd797ae33768343630a762", "fusion_lon": 0.0, "bike_id": "c7abbc5ea9bd797ae33768343630a762", "is_disabled": 0, "is_reserved": 0}, {"rental_uris": {"ios": "https://dc.lft.to/lastmile_qr_scan", "android": "https://dc.lft.to/lastmile_qr_scan"}, "lon": -76.93733966666667, "type": "electric_scooter", "fusion_lat": 0.0, "lat": 38.89014316666667, "name": "80949647c31f50fd89d0f1f4f42674ac", "fusion_lon": 0.0, "bike_id": "80949647c31f50fd89d0f1f4f42674ac", "is_disabled": 0, "is_reserved": 0}, {"rental_uris": {"ios": "https://dc.lft.to/lastmile_qr_scan", "android": "https://dc.lft.to/lastmile_qr_scan"}, "lon": -77.0316915, "type": "electric_scooter", "fusion_lat": 0.0, "lat": 38.928708666666665, "name": "bb883e63624c2525b44bfced9596bb07", "fusion_lon": 0.0, "bike_id": "bb883e63624c2525b44bfced9596bb07", "is_disabled": 0, "is_reserved": 0}, {"rental_uris": {"ios": "https://dc.lft.to/lastmile_qr_scan", "android": "https://dc.lft.to/lastmile_qr_scan"}, "lon": -77.10456466666666, "type": "electric_bike", "fusion_lat": 0.0, "lat": 38.896374, "name": "62ef424cb2aec38fe3b58120c86f8e42", "fusion_lon": 0.0, "bike_id": "62ef424cb2aec38fe3b58120c86f8e42", "is_disabled": 0, "is_reserved": 0}, {"rental_uris": {"ios": "https://dc.lft.to/lastmile_qr_scan", "android": "https://dc.lft.to/lastmile_qr_scan"}, "lon": -77.02316583333334, "type": "electric_scooter", "fusion_lat": 0.0, "lat": 38.909445166666664, "name": "6a767e40e709699c6ce35834192d166a", "fusion_lon": 0.0, "bike_id": "6a767e40e709699c6ce35834192d166a", "is_disabled": 0, "is_reserved": 0}, {"rental_uris": {"ios": "https://dc.lft.to/lastmile_qr_scan", "android": "https://dc.lft.to/lastmile_qr_scan"}, "lon": -76.94698216666667, "type": "electric_scooter", "fusion_lat": 0.0, "lat": 38.897298666666664, "name": "2698cd22ece17bf88549926efc22374f", "fusion_lon": 0.0, "bike_id": "2698cd22ece17bf88549926efc22374f", "is_disabled": 0, "is_reserved": 0}, {"rental_uris": {"ios": "https://dc.lft.to/lastmile_qr_scan", "android": "https://dc.lft.to/lastmile_qr_scan"}, "lon": -77.03396166666667, "type": "electric_scooter", "fusion_lat": 0.0, "lat": 38.923483833333336, "name": "e268bba67259dc7b8912041e4129caeb", "fusion_lon": 0.0, "bike_id": "e268bba67259dc7b8912041e4129caeb", "is_disabled": 0, "is_reserved": 0}, {"rental_uris": {"ios": "https://dc.lft.to/lastmile_qr_scan", "android": "https://dc.lft.to/lastmile_qr_scan"}, "lon": -77.005777, "type": "electric_scooter", "fusion_lat": 0.0, "lat": 38.87276933333333, "name": "09e798d9e77007376505b10be50dee9b", "fusion_lon": 0.0, "bike_id": "09e798d9e77007376505b10be50dee9b", "is_disabled": 0, "is_reserved": 0}, {"rental_uris": {"ios": "https://dc.lft.to/lastmile_qr_scan", "android": "https://dc.lft.to/lastmile_qr_scan"}, "lon": -77.02352433333333, "type": "electric_scooter", "fusion_lat": 0.0, "lat": 38.909594166666665, "name": "53a7152c7ba7ea3bd6ac5261624331ba", "fusion_lon": 0.0, "bike_id": "53a7152c7ba7ea3bd6ac5261624331ba", "is_disabled": 0, "is_reserved": 0}, {"rental_uris": {"ios": "https://dc.lft.to/lastmile_qr_scan", "android": "https://dc.lft.to/lastmile_qr_scan"}, "lon": -77.0455425, "type": "electric_scooter", "fusion_lat": 0.0, "lat": 38.9340715, "name": "15a90a98389ebdaeba8c8ee7a560d23e", "fusion_lon": 0.0, "bike_id": "15a90a98389ebdaeba8c8ee7a560d23e", "is_disabled": 0, "is_reserved": 0}, {"rental_uris": {"ios": "https://dc.lft.to/lastmile_qr_scan", "android": "https://dc.lft.to/lastmile_qr_scan"}, "lon": -77.03639133333333, "type": "electric_bike", "fusion_lat": 0.0, "lat": 38.927447666666666, "name": "c08e287b8e3687957ab4840ad42b0b7f", "fusion_lon": 0.0, "bike_id": "c08e287b8e3687957ab4840ad42b0b7f", "is_disabled": 0, "is_reserved": 0}, {"rental_uris": {"ios": "https://dc.lft.to/lastmile_qr_scan", "android": "https://dc.lft.to/lastmile_qr_scan"}, "lon": -76.9884265, "type": "electric_bike", "fusion_lat": 0.0, "lat": 38.8960905, "name": "17b78e2d80bf90a54c5bb98bc1398ad1", "fusion_lon": 0.0, "bike_id": "17b78e2d80bf90a54c5bb98bc1398ad1", "is_disabled": 0, "is_reserved": 0}, {"rental_uris": {"ios": "https://dc.lft.to/lastmile_qr_scan", "android": "https://dc.lft.to/lastmile_qr_scan"}, "lon": -77.04806466666666, "type": "electric_scooter", "fusion_lat": 0.0, "lat": 38.920472333333336, "name": "d187f9c2c752dd8b1ac05dab26b9ef3d", "fusion_lon": 0.0, "bike_id": "d187f9c2c752dd8b1ac05dab26b9ef3d", "is_disabled": 0, "is_reserved": 0}, {"rental_uris": {"ios": "https://dc.lft.to/lastmile_qr_scan", "android": "https://dc.lft.to/lastmile_qr_scan"}, "lon": -76.976508, "type": "electric_scooter", "fusion_lat": 0.0, "lat": 38.898552, "name": "3cd3658bdcc3fe369848771f87bf2dae", "fusion_lon": 0.0, "bike_id": "3cd3658bdcc3fe369848771f87bf2dae", "is_disabled": 0, "is_reserved": 0}, {"rental_uris": {"ios": "https://dc.lft.to/lastmile_qr_scan", "android": "https://dc.lft.to/lastmile_qr_scan"}, "lon": -77.04007133333333, "type": "electric_scooter", "fusion_lat": 0.0, "lat": 38.921350833333335, "name": "b3cf2ad1cf60c671c0237f0bef5661c8", "fusion_lon": 0.0, "bike_id": "b3cf2ad1cf60c671c0237f0bef5661c8", "is_disabled": 0, "is_reserved": 0}, {"rental_uris": {"ios": "https://dc.lft.to/lastmile_qr_scan", "android": "https://dc.lft.to/lastmile_qr_scan"}, "lon": -77.03385266666666, "type": "electric_scooter", "fusion_lat": 0.0, "lat": 38.921567333333336, "name": "70c1996337b305ca2c135eae50e7c836", "fusion_lon": 0.0, "bike_id": "70c1996337b305ca2c135eae50e7c836", "is_disabled": 0, "is_reserved": 0}, {"rental_uris": {"ios": "https://dc.lft.to/lastmile_qr_scan", "android": "https://dc.lft.to/lastmile_qr_scan"}, "lon": -77.02424433333333, "type": "electric_scooter", "fusion_lat": 0.0, "lat": 38.936129, "name": "6b8fe95b10796f888c018211701c2735", "fusion_lon": 0.0, "bike_id": "6b8fe95b10796f888c018211701c2735", "is_disabled": 0, "is_reserved": 0}, {"rental_uris": {"ios": "https://dc.lft.to/lastmile_qr_scan", "android": "https://dc.lft.to/lastmile_qr_scan"}, "lon": -77.02356716666667, "type": "electric_scooter", "fusion_lat": 0.0, "lat": 38.92505116666667, "name": "13a7b607543155a73f75c048e5c39b7e", "fusion_lon": 0.0, "bike_id": "13a7b607543155a73f75c048e5c39b7e", "is_disabled": 0, "is_reserved": 0}, {"rental_uris": {"ios": "https://dc.lft.to/lastmile_qr_scan", "android": "https://dc.lft.to/lastmile_qr_scan"}, "lon": -77.02982933333334, "type": "electric_scooter", "fusion_lat": 0.0, "lat": 38.9167655, "name": "9349c10f60de95a83993d1e78a72831e", "fusion_lon": 0.0, "bike_id": "9349c10f60de95a83993d1e78a72831e", "is_disabled": 0, "is_reserved": 0}, {"rental_uris": {"ios": "https://dc.lft.to/lastmile_qr_scan", "android": "https://dc.lft.to/lastmile_qr_scan"}, "lon": -77.034148, "type": "electric_scooter", "fusion_lat": 0.0, "lat": 38.93544883333333, "name": "54d883c4ae93b082f9a413a243517775", "fusion_lon": 0.0, "bike_id": "54d883c4ae93b082f9a413a243517775", "is_disabled": 0, "is_reserved": 0}, {"rental_uris": {"ios": "https://dc.lft.to/lastmile_qr_scan", "android": "https://dc.lft.to/lastmile_qr_scan"}, "lon": -77.0131405, "type": "electric_scooter", "fusion_lat": 0.0, "lat": 38.90052933333333, "name": "b9498871707314edd891eccea9368f7c", "fusion_lon": 0.0, "bike_id": "b9498871707314edd891eccea9368f7c", "is_disabled": 0, "is_reserved": 0}, {"rental_uris": {"ios": "https://dc.lft.to/lastmile_qr_scan", "android": "https://dc.lft.to/lastmile_qr_scan"}, "lon": -77.0194875, "type": "electric_scooter", "fusion_lat": 0.0, "lat": 38.950022, "name": "7f7636e8d39114f085d5e7993ccea875", "fusion_lon": 0.0, "bike_id": "7f7636e8d39114f085d5e7993ccea875", "is_disabled": 0, "is_reserved": 0}, {"rental_uris": {"ios": "https://dc.lft.to/lastmile_qr_scan", "android": "https://dc.lft.to/lastmile_qr_scan"}, "lon": -77.03383983333333, "type": "electric_scooter", "fusion_lat": 0.0, "lat": 38.9215725, "name": "8ea1b0dbca02e17ccd886c3e9f7f4063", "fusion_lon": 0.0, "bike_id": "8ea1b0dbca02e17ccd886c3e9f7f4063", "is_disabled": 0, "is_reserved": 0}, {"rental_uris": {"ios": "https://dc.lft.to/lastmile_qr_scan", "android": "https://dc.lft.to/lastmile_qr_scan"}, "lon": -76.9888955, "type": "electric_scooter", "fusion_lat": 0.0, "lat": 38.866581333333336, "name": "a72ba31f3f972df1924b021b75bf9235", "fusion_lon": 0.0, "bike_id": "a72ba31f3f972df1924b021b75bf9235", "is_disabled": 0, "is_reserved": 0}, {"rental_uris": {"ios": "https://dc.lft.to/lastmile_qr_scan", "android": "https://dc.lft.to/lastmile_qr_scan"}, "lon": -77.03822583333333, "type": "electric_scooter", "fusion_lat": 0.0, "lat": 38.931215, "name": "71aa08badb5bc92ec2dc3dad9f7a4d14", "fusion_lon": 0.0, "bike_id": "71aa08badb5bc92ec2dc3dad9f7a4d14", "is_disabled": 0, "is_reserved": 0}, {"rental_uris": {"ios": "https://dc.lft.to/lastmile_qr_scan", "android": "https://dc.lft.to/lastmile_qr_scan"}, "lon": -77.04111016666667, "type": "electric_scooter", "fusion_lat": 0.0, "lat": 38.916957, "name": "305b741b0fa50ee96f752e1de606285f", "fusion_lon": 0.0, "bike_id": "305b741b0fa50ee96f752e1de606285f", "is_disabled": 0, "is_reserved": 0}, {"rental_uris": {"ios": "https://dc.lft.to/lastmile_qr_scan", "android": "https://dc.lft.to/lastmile_qr_scan"}, "lon": -76.99053016666667, "type": "electric_bike", "fusion_lat": 0.0, "lat": 38.9244925, "name": "a52b58d738b33aab466327e78eae8128", "fusion_lon": 0.0, "bike_id": "a52b58d738b33aab466327e78eae8128", "is_disabled": 0, "is_reserved": 0}, {"rental_uris": {"ios": "https://dc.lft.to/lastmile_qr_scan", "android": "https://dc.lft.to/lastmile_qr_scan"}, "lon": -77.02681433333333, "type": "electric_scooter", "fusion_lat": 0.0, "lat": 38.895797, "name": "2b87379bf8365c1d1f21c0204ad576b6", "fusion_lon": 0.0, "bike_id": "2b87379bf8365c1d1f21c0204ad576b6", "is_disabled": 0, "is_reserved": 0}, {"rental_uris": {"ios": "https://dc.lft.to/lastmile_qr_scan", "android": "https://dc.lft.to/lastmile_qr_scan"}, "lon": -77.070847, "type": "electric_bike", "fusion_lat": 0.0, "lat": 38.95557766666667, "name": "8476c89fc7264ffdcb66c30790487f95", "fusion_lon": 0.0, "bike_id": "8476c89fc7264ffdcb66c30790487f95", "is_disabled": 0, "is_reserved": 0}, {"rental_uris": {"ios": "https://dc.lft.to/lastmile_qr_scan", "android": "https://dc.lft.to/lastmile_qr_scan"}, "lon": -77.09454933333333, "type": "electric_bike", "fusion_lat": 0.0, "lat": 38.807542, "name": "a3ede9ce8d1fa5339ac16a437577a477", "fusion_lon": 0.0, "bike_id": "a3ede9ce8d1fa5339ac16a437577a477", "is_disabled": 0, "is_reserved": 0}, {"rental_uris": {"ios": "https://dc.lft.to/lastmile_qr_scan", "android": "https://dc.lft.to/lastmile_qr_scan"}, "lon": -76.931742, "type": "electric_scooter", "fusion_lat": 0.0, "lat": 38.89885483333333, "name": "9bbbe4fe12241f29010d4222a9b9e138", "fusion_lon": 0.0, "bike_id": "9bbbe4fe12241f29010d4222a9b9e138", "is_disabled": 0, "is_reserved": 0}, {"rental_uris": {"ios": "https://dc.lft.to/lastmile_qr_scan", "android": "https://dc.lft.to/lastmile_qr_scan"}, "lon": -77.0265955, "type": "electric_scooter", "fusion_lat": 0.0, "lat": 38.91059033333333, "name": "420800ee12a24c0b4b4c5e63c15595ee", "fusion_lon": 0.0, "bike_id": "420800ee12a24c0b4b4c5e63c15595ee", "is_disabled": 0, "is_reserved": 0}, {"rental_uris": {"ios": "https://dc.lft.to/lastmile_qr_scan", "android": "https://dc.lft.to/lastmile_qr_scan"}, "lon": -77.0347715, "type": "electric_scooter", "fusion_lat": 0.0, "lat": 38.92742783333333, "name": "ce0a77b1addb7836685f38f167cb8336", "fusion_lon": 0.0, "bike_id": "ce0a77b1addb7836685f38f167cb8336", "is_disabled": 0, "is_reserved": 0}, {"rental_uris": {"ios": "https://dc.lft.to/lastmile_qr_scan", "android": "https://dc.lft.to/lastmile_qr_scan"}, "lon": -77.03307883333333, "type": "electric_scooter", "fusion_lat": 0.0, "lat": 38.930310666666664, "name": "54821622c15ab918b4ec7c5c179d0de3", "fusion_lon": 0.0, "bike_id": "54821622c15ab918b4ec7c5c179d0de3", "is_disabled": 0, "is_reserved": 0}, {"rental_uris": {"ios": "https://dc.lft.to/lastmile_qr_scan", "android": "https://dc.lft.to/lastmile_qr_scan"}, "lon": -77.019786, "type": "electric_scooter", "fusion_lat": 0.0, "lat": 38.88602366666667, "name": "5d2dc6dc26eb9e34b4318f4265cb710a", "fusion_lon": 0.0, "bike_id": "5d2dc6dc26eb9e34b4318f4265cb710a", "is_disabled": 0, "is_reserved": 0}, {"rental_uris": {"ios": "https://dc.lft.to/lastmile_qr_scan", "android": "https://dc.lft.to/lastmile_qr_scan"}, "lon": -77.03188716666666, "type": "electric_scooter", "fusion_lat": 0.0, "lat": 38.924847, "name": "cbb7994a388fb89e91e1256681268d81", "fusion_lon": 0.0, "bike_id": "cbb7994a388fb89e91e1256681268d81", "is_disabled": 0, "is_reserved": 0}, {"rental_uris": {"ios": "https://dc.lft.to/lastmile_qr_scan", "android": "https://dc.lft.to/lastmile_qr_scan"}, "lon": -77.01067066666667, "type": "electric_scooter", "fusion_lat": 0.0, "lat": 38.87575366666667, "name": "04477ea55a200da68602b454e55130e1", "fusion_lon": 0.0, "bike_id": "04477ea55a200da68602b454e55130e1", "is_disabled": 0, "is_reserved": 0}, {"rental_uris": {"ios": "https://dc.lft.to/lastmile_qr_scan", "android": "https://dc.lft.to/lastmile_qr_scan"}, "lon": -76.9653145, "type": "electric_bike", "fusion_lat": 0.0, "lat": 38.874777, "name": "0c598bfcd2edc69c622f344f5c1d3c3e", "fusion_lon": 0.0, "bike_id": "0c598bfcd2edc69c622f344f5c1d3c3e", "is_disabled": 0, "is_reserved": 0}, {"rental_uris": {"ios": "https://dc.lft.to/lastmile_qr_scan", "android": "https://dc.lft.to/lastmile_qr_scan"}, "lon": -77.02157466666667, "type": "electric_scooter", "fusion_lat": 0.0, "lat": 38.94225466666666, "name": "5684c00a08a96e1a9e08705cec689b5a", "fusion_lon": 0.0, "bike_id": "5684c00a08a96e1a9e08705cec689b5a", "is_disabled": 0, "is_reserved": 0}, {"rental_uris": {"ios": "https://dc.lft.to/lastmile_qr_scan", "android": "https://dc.lft.to/lastmile_qr_scan"}, "lon": -77.00251683333333, "type": "electric_scooter", "fusion_lat": 0.0, "lat": 38.90262966666667, "name": "4edbc1132dc78bfa117819f2c4b3f064", "fusion_lon": 0.0, "bike_id": "4edbc1132dc78bfa117819f2c4b3f064", "is_disabled": 0, "is_reserved": 0}, {"rental_uris": {"ios": "https://dc.lft.to/lastmile_qr_scan", "android": "https://dc.lft.to/lastmile_qr_scan"}, "lon": -77.02808833333333, "type": "electric_scooter", "fusion_lat": 0.0, "lat": 38.89231433333333, "name": "047c2da6ee72d47fbd7b1625d5552fe9", "fusion_lon": 0.0, "bike_id": "047c2da6ee72d47fbd7b1625d5552fe9", "is_disabled": 0, "is_reserved": 0}, {"rental_uris": {"ios": "https://dc.lft.to/lastmile_qr_scan", "android": "https://dc.lft.to/lastmile_qr_scan"}, "lon": -77.0232335, "type": "electric_scooter", "fusion_lat": 0.0, "lat": 38.9305625, "name": "854cfac3fd19691cf0bd4a46afec10a6", "fusion_lon": 0.0, "bike_id": "854cfac3fd19691cf0bd4a46afec10a6", "is_disabled": 0, "is_reserved": 0}, {"rental_uris": {"ios": "https://dc.lft.to/lastmile_qr_scan", "android": "https://dc.lft.to/lastmile_qr_scan"}, "lon": -77.04334716666666, "type": "electric_scooter", "fusion_lat": 0.0, "lat": 38.8958225, "name": "57855972cda18be10b3156790af31424", "fusion_lon": 0.0, "bike_id": "57855972cda18be10b3156790af31424", "is_disabled": 0, "is_reserved": 0}, {"rental_uris": {"ios": "https://dc.lft.to/lastmile_qr_scan", "android": "https://dc.lft.to/lastmile_qr_scan"}, "lon": -77.02969683333333, "type": "electric_scooter", "fusion_lat": 0.0, "lat": 38.912923666666664, "name": "b66b542b036e0182985932f24661fd9e", "fusion_lon": 0.0, "bike_id": "b66b542b036e0182985932f24661fd9e", "is_disabled": 0, "is_reserved": 0}, {"rental_uris": {"ios": "https://dc.lft.to/lastmile_qr_scan", "android": "https://dc.lft.to/lastmile_qr_scan"}, "lon": -77.04255966666666, "type": "electric_scooter", "fusion_lat": 0.0, "lat": 38.902815, "name": "fe108f39d8ed84991c792cadd6f9a2ed", "fusion_lon": 0.0, "bike_id": "fe108f39d8ed84991c792cadd6f9a2ed", "is_disabled": 0, "is_reserved": 0}, {"rental_uris": {"ios": "https://dc.lft.to/lastmile_qr_scan", "android": "https://dc.lft.to/lastmile_qr_scan"}, "lon": -77.00259883333334, "type": "electric_scooter", "fusion_lat": 0.0, "lat": 38.918214166666665, "name": "14f107b5ed848f3a5638754766a60e4e", "fusion_lon": 0.0, "bike_id": "14f107b5ed848f3a5638754766a60e4e", "is_disabled": 0, "is_reserved": 0}, {"rental_uris": {"ios": "https://dc.lft.to/lastmile_qr_scan", "android": "https://dc.lft.to/lastmile_qr_scan"}, "lon": -77.06677833333333, "type": "electric_scooter", "fusion_lat": 0.0, "lat": 38.90521566666666, "name": "fc44147b5cf608e20b1e38108236c13f", "fusion_lon": 0.0, "bike_id": "fc44147b5cf608e20b1e38108236c13f", "is_disabled": 0, "is_reserved": 0}, {"rental_uris": {"ios": "https://dc.lft.to/lastmile_qr_scan", "android": "https://dc.lft.to/lastmile_qr_scan"}, "lon": -77.0321835, "type": "electric_scooter", "fusion_lat": 0.0, "lat": 38.9119425, "name": "10fc87e180d6a35d35e8be6cc4ce705d", "fusion_lon": 0.0, "bike_id": "10fc87e180d6a35d35e8be6cc4ce705d", "is_disabled": 0, "is_reserved": 0}, {"rental_uris": {"ios": "https://dc.lft.to/lastmile_qr_scan", "android": "https://dc.lft.to/lastmile_qr_scan"}, "lon": -77.03262566666666, "type": "electric_scooter", "fusion_lat": 0.0, "lat": 38.9254915, "name": "093116f49f11bf71a7d3a33c31a45b1c", "fusion_lon": 0.0, "bike_id": "093116f49f11bf71a7d3a33c31a45b1c", "is_disabled": 0, "is_reserved": 0}, {"rental_uris": {"ios": "https://dc.lft.to/lastmile_qr_scan", "android": "https://dc.lft.to/lastmile_qr_scan"}, "lon": -77.03962433333334, "type": "electric_scooter", "fusion_lat": 0.0, "lat": 38.89860133333333, "name": "54e4e92814464979119c86e24ef368fc", "fusion_lon": 0.0, "bike_id": "54e4e92814464979119c86e24ef368fc", "is_disabled": 0, "is_reserved": 0}, {"rental_uris": {"ios": "https://dc.lft.to/lastmile_qr_scan", "android": "https://dc.lft.to/lastmile_qr_scan"}, "lon": -77.00657183333334, "type": "electric_scooter", "fusion_lat": 0.0, "lat": 38.9446185, "name": "3b85d032a859cdb524daa3466c51242a", "fusion_lon": 0.0, "bike_id": "3b85d032a859cdb524daa3466c51242a", "is_disabled": 0, "is_reserved": 0}, {"rental_uris": {"ios": "https://dc.lft.to/lastmile_qr_scan", "android": "https://dc.lft.to/lastmile_qr_scan"}, "lon": -76.94880916666666, "type": "electric_scooter", "fusion_lat": 0.0, "lat": 38.895036166666664, "name": "129d6c8f70af251f1a2b8f63ac2cd9ae", "fusion_lon": 0.0, "bike_id": "129d6c8f70af251f1a2b8f63ac2cd9ae", "is_disabled": 0, "is_reserved": 0}, {"rental_uris": {"ios": "https://dc.lft.to/lastmile_qr_scan", "android": "https://dc.lft.to/lastmile_qr_scan"}, "lon": -77.02601833333334, "type": "electric_scooter", "fusion_lat": 0.0, "lat": 38.9062215, "name": "ddfda7a036ae731a4e633e6389a2659a", "fusion_lon": 0.0, "bike_id": "ddfda7a036ae731a4e633e6389a2659a", "is_disabled": 0, "is_reserved": 0}, {"rental_uris": {"ios": "https://dc.lft.to/lastmile_qr_scan", "android": "https://dc.lft.to/lastmile_qr_scan"}, "lon": -77.023841, "type": "electric_scooter", "fusion_lat": 0.0, "lat": 38.917913666666664, "name": "eda6c36796b26cbf1e24825c312f7273", "fusion_lon": 0.0, "bike_id": "eda6c36796b26cbf1e24825c312f7273", "is_disabled": 0, "is_reserved": 0}, {"rental_uris": {"ios": "https://dc.lft.to/lastmile_qr_scan", "android": "https://dc.lft.to/lastmile_qr_scan"}, "lon": -77.043515, "type": "electric_scooter", "fusion_lat": 0.0, "lat": 38.91598283333333, "name": "b8d7062e6f2cca4c6552ac9a9048aaf4", "fusion_lon": 0.0, "bike_id": "b8d7062e6f2cca4c6552ac9a9048aaf4", "is_disabled": 0, "is_reserved": 0}, {"rental_uris": {"ios": "https://dc.lft.to/lastmile_qr_scan", "android": "https://dc.lft.to/lastmile_qr_scan"}, "lon": -77.03206216666666, "type": "electric_scooter", "fusion_lat": 0.0, "lat": 38.923452833333336, "name": "cf0bfa85a660e83078b66e278ad6826a", "fusion_lon": 0.0, "bike_id": "cf0bfa85a660e83078b66e278ad6826a", "is_disabled": 0, "is_reserved": 0}, {"rental_uris": {"ios": "https://dc.lft.to/lastmile_qr_scan", "android": "https://dc.lft.to/lastmile_qr_scan"}, "lon": -77.10685616666666, "type": "electric_bike", "fusion_lat": 0.0, "lat": 38.935819333333335, "name": "db049ee4efc1a2a9ba55410d858591e6", "fusion_lon": 0.0, "bike_id": "db049ee4efc1a2a9ba55410d858591e6", "is_disabled": 0, "is_reserved": 0}, {"rental_uris": {"ios": "https://dc.lft.to/lastmile_qr_scan", "android": "https://dc.lft.to/lastmile_qr_scan"}, "lon": -77.0082195, "type": "electric_scooter", "fusion_lat": 0.0, "lat": 38.876675166666665, "name": "c3e3e63d6082e3da05aa2d176da5c82b", "fusion_lon": 0.0, "bike_id": "c3e3e63d6082e3da05aa2d176da5c82b", "is_disabled": 0, "is_reserved": 0}, {"rental_uris": {"ios": "https://dc.lft.to/lastmile_qr_scan", "android": "https://dc.lft.to/lastmile_qr_scan"}, "lon": -77.13094383333333, "type": "electric_bike", "fusion_lat": 0.0, "lat": 38.86162783333333, "name": "d99f65460152e3eba6e9e7a8bda327be", "fusion_lon": 0.0, "bike_id": "d99f65460152e3eba6e9e7a8bda327be", "is_disabled": 0, "is_reserved": 0}, {"rental_uris": {"ios": "https://dc.lft.to/lastmile_qr_scan", "android": "https://dc.lft.to/lastmile_qr_scan"}, "lon": -77.00803983333333, "type": "electric_scooter", "fusion_lat": 0.0, "lat": 38.914059333333334, "name": "e36adfefc68bde10ced46d28f8f7a881", "fusion_lon": 0.0, "bike_id": "e36adfefc68bde10ced46d28f8f7a881", "is_disabled": 0, "is_reserved": 0}, {"rental_uris": {"ios": "https://dc.lft.to/lastmile_qr_scan", "android": "https://dc.lft.to/lastmile_qr_scan"}, "lon": -77.03645333333333, "type": "electric_scooter", "fusion_lat": 0.0, "lat": 38.917359, "name": "456e41ffc5f44d09fc8b1df03f0198c6", "fusion_lon": 0.0, "bike_id": "456e41ffc5f44d09fc8b1df03f0198c6", "is_disabled": 0, "is_reserved": 0}, {"rental_uris": {"ios": "https://dc.lft.to/lastmile_qr_scan", "android": "https://dc.lft.to/lastmile_qr_scan"}, "lon": -77.0022635, "type": "electric_scooter", "fusion_lat": 0.0, "lat": 38.91343066666667, "name": "7199794cf7cdceed32e40441c7ffb50a", "fusion_lon": 0.0, "bike_id": "7199794cf7cdceed32e40441c7ffb50a", "is_disabled": 0, "is_reserved": 0}, {"rental_uris": {"ios": "https://dc.lft.to/lastmile_qr_scan", "android": "https://dc.lft.to/lastmile_qr_scan"}, "lon": -77.0265955, "type": "electric_scooter", "fusion_lat": 0.0, "lat": 38.921784, "name": "0635c6c231048a3da796db60bb0250d6", "fusion_lon": 0.0, "bike_id": "0635c6c231048a3da796db60bb0250d6", "is_disabled": 0, "is_reserved": 0}, {"rental_uris": {"ios": "https://dc.lft.to/lastmile_qr_scan", "android": "https://dc.lft.to/lastmile_qr_scan"}, "lon": -77.091655, "type": "electric_bike", "fusion_lat": 0.0, "lat": 38.96762, "name": "d33e2fc76a81fb9617e371d5c8b1b47e", "fusion_lon": 0.0, "bike_id": "d33e2fc76a81fb9617e371d5c8b1b47e", "is_disabled": 0, "is_reserved": 0}, {"rental_uris": {"ios": "https://dc.lft.to/lastmile_qr_scan", "android": "https://dc.lft.to/lastmile_qr_scan"}, "lon": -77.03861316666666, "type": "electric_bike", "fusion_lat": 0.0, "lat": 38.912079166666665, "name": "b6e6a48c0732361952521215ae42fae8", "fusion_lon": 0.0, "bike_id": "b6e6a48c0732361952521215ae42fae8", "is_disabled": 0, "is_reserved": 0}, {"rental_uris": {"ios": "https://dc.lft.to/lastmile_qr_scan", "android": "https://dc.lft.to/lastmile_qr_scan"}, "lon": -77.03224, "type": "electric_scooter", "fusion_lat": 0.0, "lat": 38.96177566666667, "name": "9b31afa8fdab4e0270552acf8a6602e5", "fusion_lon": 0.0, "bike_id": "9b31afa8fdab4e0270552acf8a6602e5", "is_disabled": 0, "is_reserved": 0}, {"rental_uris": {"ios": "https://dc.lft.to/lastmile_qr_scan", "android": "https://dc.lft.to/lastmile_qr_scan"}, "lon": -77.02329716666667, "type": "electric_scooter", "fusion_lat": 0.0, "lat": 38.88347266666667, "name": "9beaa90f7f23c4fae0832922b5fe89eb", "fusion_lon": 0.0, "bike_id": "9beaa90f7f23c4fae0832922b5fe89eb", "is_disabled": 0, "is_reserved": 0}, {"rental_uris": {"ios": "https://dc.lft.to/lastmile_qr_scan", "android": "https://dc.lft.to/lastmile_qr_scan"}, "lon": -77.02744283333334, "type": "electric_scooter", "fusion_lat": 0.0, "lat": 38.9095925, "name": "cdf7ce14b36cedd3b9b5fd970533c7ef", "fusion_lon": 0.0, "bike_id": "cdf7ce14b36cedd3b9b5fd970533c7ef", "is_disabled": 0, "is_reserved": 0}, {"rental_uris": {"ios": "https://dc.lft.to/lastmile_qr_scan", "android": "https://dc.lft.to/lastmile_qr_scan"}, "lon": -77.01814066666667, "type": "electric_scooter", "fusion_lat": 0.0, "lat": 38.9056215, "name": "8e01dd0c71734fe8ada5eb036631cdf2", "fusion_lon": 0.0, "bike_id": "8e01dd0c71734fe8ada5eb036631cdf2", "is_disabled": 0, "is_reserved": 0}, {"rental_uris": {"ios": "https://dc.lft.to/lastmile_qr_scan", "android": "https://dc.lft.to/lastmile_qr_scan"}, "lon": -76.98510433333334, "type": "electric_scooter", "fusion_lat": 0.0, "lat": 38.9008655, "name": "b9e5a04b8c251a12668da45c6f7349bc", "fusion_lon": 0.0, "bike_id": "b9e5a04b8c251a12668da45c6f7349bc", "is_disabled": 0, "is_reserved": 0}, {"rental_uris": {"ios": "https://dc.lft.to/lastmile_qr_scan", "android": "https://dc.lft.to/lastmile_qr_scan"}, "lon": -77.047559, "type": "electric_scooter", "fusion_lat": 0.0, "lat": 38.897359, "name": "2dd3a5439f8cce4093e229a4ef6a1ec3", "fusion_lon": 0.0, "bike_id": "2dd3a5439f8cce4093e229a4ef6a1ec3", "is_disabled": 0, "is_reserved": 0}, {"rental_uris": {"ios": "https://dc.lft.to/lastmile_qr_scan", "android": "https://dc.lft.to/lastmile_qr_scan"}, "lon": -77.0435895, "type": "electric_scooter", "fusion_lat": 0.0, "lat": 38.915982, "name": "7b209801ef03ddb7189db5e662283f3e", "fusion_lon": 0.0, "bike_id": "7b209801ef03ddb7189db5e662283f3e", "is_disabled": 0, "is_reserved": 0}, {"rental_uris": {"ios": "https://dc.lft.to/lastmile_qr_scan", "android": "https://dc.lft.to/lastmile_qr_scan"}, "lon": -77.038311, "type": "electric_scooter", "fusion_lat": 0.0, "lat": 38.90779216666667, "name": "7d82620e89da1598fb7dfe6ea557d4a9", "fusion_lon": 0.0, "bike_id": "7d82620e89da1598fb7dfe6ea557d4a9", "is_disabled": 0, "is_reserved": 0}, {"rental_uris": {"ios": "https://dc.lft.to/lastmile_qr_scan", "android": "https://dc.lft.to/lastmile_qr_scan"}, "lon": -77.02750916666666, "type": "electric_scooter", "fusion_lat": 0.0, "lat": 38.9396115, "name": "d2c3063f7aea59d10810b9456a88d9d3", "fusion_lon": 0.0, "bike_id": "d2c3063f7aea59d10810b9456a88d9d3", "is_disabled": 0, "is_reserved": 0}, {"rental_uris": {"ios": "https://dc.lft.to/lastmile_qr_scan", "android": "https://dc.lft.to/lastmile_qr_scan"}, "lon": -76.93928516666666, "type": "electric_scooter", "fusion_lat": 0.0, "lat": 38.89297283333333, "name": "02232975c7ad436b2a642dbd8b740058", "fusion_lon": 0.0, "bike_id": "02232975c7ad436b2a642dbd8b740058", "is_disabled": 0, "is_reserved": 0}, {"rental_uris": {"ios": "https://dc.lft.to/lastmile_qr_scan", "android": "https://dc.lft.to/lastmile_qr_scan"}, "lon": -76.946222, "type": "electric_bike", "fusion_lat": 0.0, "lat": 38.83236616666667, "name": "c0ed3f1c30ab24e51412e4703e8c5f02", "fusion_lon": 0.0, "bike_id": "c0ed3f1c30ab24e51412e4703e8c5f02", "is_disabled": 0, "is_reserved": 0}, {"rental_uris": {"ios": "https://dc.lft.to/lastmile_qr_scan", "android": "https://dc.lft.to/lastmile_qr_scan"}, "lon": -77.04368083333334, "type": "electric_scooter", "fusion_lat": 0.0, "lat": 38.933331833333334, "name": "6c520c23395c9a6a76717fbe76783fa2", "fusion_lon": 0.0, "bike_id": "6c520c23395c9a6a76717fbe76783fa2", "is_disabled": 0, "is_reserved": 0}, {"rental_uris": {"ios": "https://dc.lft.to/lastmile_qr_scan", "android": "https://dc.lft.to/lastmile_qr_scan"}, "lon": -77.03821916666666, "type": "electric_scooter", "fusion_lat": 0.0, "lat": 38.909664166666666, "name": "b66f194bbf661138da678a80597152f7", "fusion_lon": 0.0, "bike_id": "b66f194bbf661138da678a80597152f7", "is_disabled": 0, "is_reserved": 0}, {"rental_uris": {"ios": "https://dc.lft.to/lastmile_qr_scan", "android": "https://dc.lft.to/lastmile_qr_scan"}, "lon": -77.02948033333334, "type": "electric_scooter", "fusion_lat": 0.0, "lat": 38.90840983333333, "name": "5d3c081ed94428bc5779cf65e04e5c23", "fusion_lon": 0.0, "bike_id": "5d3c081ed94428bc5779cf65e04e5c23", "is_disabled": 0, "is_reserved": 0}, {"rental_uris": {"ios": "https://dc.lft.to/lastmile_qr_scan", "android": "https://dc.lft.to/lastmile_qr_scan"}, "lon": -77.023895, "type": "electric_scooter", "fusion_lat": 0.0, "lat": 38.89501333333333, "name": "436677a3e001b424a7633255ba60c4fe", "fusion_lon": 0.0, "bike_id": "436677a3e001b424a7633255ba60c4fe", "is_disabled": 0, "is_reserved": 0}, {"rental_uris": {"ios": "https://dc.lft.to/lastmile_qr_scan", "android": "https://dc.lft.to/lastmile_qr_scan"}, "lon": -76.93104416666667, "type": "electric_scooter", "fusion_lat": 0.0, "lat": 38.90140983333333, "name": "c9ba310ec5a65079da82f55d2badb473", "fusion_lon": 0.0, "bike_id": "c9ba310ec5a65079da82f55d2badb473", "is_disabled": 0, "is_reserved": 0}, {"rental_uris": {"ios": "https://dc.lft.to/lastmile_qr_scan", "android": "https://dc.lft.to/lastmile_qr_scan"}, "lon": -77.0330795, "type": "electric_scooter", "fusion_lat": 0.0, "lat": 38.89854733333333, "name": "2d4e53c2ecdec9c99eb54a47959a7a66", "fusion_lon": 0.0, "bike_id": "2d4e53c2ecdec9c99eb54a47959a7a66", "is_disabled": 0, "is_reserved": 0}, {"rental_uris": {"ios": "https://dc.lft.to/lastmile_qr_scan", "android": "https://dc.lft.to/lastmile_qr_scan"}, "lon": -76.991791, "type": "electric_scooter", "fusion_lat": 0.0, "lat": 38.90137216666667, "name": "b5842d46e1334bb101f64c4c5f874752", "fusion_lon": 0.0, "bike_id": "b5842d46e1334bb101f64c4c5f874752", "is_disabled": 0, "is_reserved": 0}, {"rental_uris": {"ios": "https://dc.lft.to/lastmile_qr_scan", "android": "https://dc.lft.to/lastmile_qr_scan"}, "lon": -77.050611, "type": "electric_scooter", "fusion_lat": 0.0, "lat": 38.900619666666664, "name": "20dfb844e1d4dce74332501fb1e34f57", "fusion_lon": 0.0, "bike_id": "20dfb844e1d4dce74332501fb1e34f57", "is_disabled": 0, "is_reserved": 0}, {"rental_uris": {"ios": "https://dc.lft.to/lastmile_qr_scan", "android": "https://dc.lft.to/lastmile_qr_scan"}, "lon": -77.04444733333334, "type": "electric_scooter", "fusion_lat": 0.0, "lat": 38.9125755, "name": "5207a4f4a3ef8683d8b1803368a74ba0", "fusion_lon": 0.0, "bike_id": "5207a4f4a3ef8683d8b1803368a74ba0", "is_disabled": 0, "is_reserved": 0}, {"rental_uris": {"ios": "https://dc.lft.to/lastmile_qr_scan", "android": "https://dc.lft.to/lastmile_qr_scan"}, "lon": -77.05347266666666, "type": "electric_scooter", "fusion_lat": 0.0, "lat": 38.902683333333336, "name": "10c3f50926b26ef315b506e1f6615b7e", "fusion_lon": 0.0, "bike_id": "10c3f50926b26ef315b506e1f6615b7e", "is_disabled": 0, "is_reserved": 0}, {"rental_uris": {"ios": "https://dc.lft.to/lastmile_qr_scan", "android": "https://dc.lft.to/lastmile_qr_scan"}, "lon": -77.0158955, "type": "electric_scooter", "fusion_lat": 0.0, "lat": 38.91636733333333, "name": "f7710062c269a2de59fca922814ccf92", "fusion_lon": 0.0, "bike_id": "f7710062c269a2de59fca922814ccf92", "is_disabled": 0, "is_reserved": 0}, {"rental_uris": {"ios": "https://dc.lft.to/lastmile_qr_scan", "android": "https://dc.lft.to/lastmile_qr_scan"}, "lon": -76.9785, "type": "electric_bike", "fusion_lat": 0.0, "lat": 38.93540566666667, "name": "de7240b7e14afbaafe40590ea4e26922", "fusion_lon": 0.0, "bike_id": "de7240b7e14afbaafe40590ea4e26922", "is_disabled": 0, "is_reserved": 0}, {"rental_uris": {"ios": "https://dc.lft.to/lastmile_qr_scan", "android": "https://dc.lft.to/lastmile_qr_scan"}, "lon": -77.0141235, "type": "electric_scooter", "fusion_lat": 0.0, "lat": 38.91560466666667, "name": "021c4476e63efe0ecf1dcd0789f2bbc8", "fusion_lon": 0.0, "bike_id": "021c4476e63efe0ecf1dcd0789f2bbc8", "is_disabled": 0, "is_reserved": 0}, {"rental_uris": {"ios": "https://dc.lft.to/lastmile_qr_scan", "android": "https://dc.lft.to/lastmile_qr_scan"}, "lon": -77.03183283333334, "type": "electric_scooter", "fusion_lat": 0.0, "lat": 38.8996085, "name": "e1b5ffc441e2b589d9679ba08e5c5d1e", "fusion_lon": 0.0, "bike_id": "e1b5ffc441e2b589d9679ba08e5c5d1e", "is_disabled": 0, "is_reserved": 0}, {"rental_uris": {"ios": "https://dc.lft.to/lastmile_qr_scan", "android": "https://dc.lft.to/lastmile_qr_scan"}, "lon": -77.03308916666667, "type": "electric_scooter", "fusion_lat": 0.0, "lat": 38.90021433333333, "name": "4cccb4c051ca710fbdb4f0f520c91aa3", "fusion_lon": 0.0, "bike_id": "4cccb4c051ca710fbdb4f0f520c91aa3", "is_disabled": 0, "is_reserved": 0}, {"rental_uris": {"ios": "https://dc.lft.to/lastmile_qr_scan", "android": "https://dc.lft.to/lastmile_qr_scan"}, "lon": -77.07710766666666, "type": "electric_scooter", "fusion_lat": 0.0, "lat": 38.95615866666667, "name": "4e1ea42304fbb246fdfcf644fb064749", "fusion_lon": 0.0, "bike_id": "4e1ea42304fbb246fdfcf644fb064749", "is_disabled": 0, "is_reserved": 0}, {"rental_uris": {"ios": "https://dc.lft.to/lastmile_qr_scan", "android": "https://dc.lft.to/lastmile_qr_scan"}, "lon": -77.0119495, "type": "electric_scooter", "fusion_lat": 0.0, "lat": 38.9004105, "name": "29a4f6064a5c9ac53a85a6d13241d190", "fusion_lon": 0.0, "bike_id": "29a4f6064a5c9ac53a85a6d13241d190", "is_disabled": 0, "is_reserved": 0}, {"rental_uris": {"ios": "https://dc.lft.to/lastmile_qr_scan", "android": "https://dc.lft.to/lastmile_qr_scan"}, "lon": -76.98708016666667, "type": "electric_scooter", "fusion_lat": 0.0, "lat": 38.865349333333334, "name": "46f332711c2dec3d1ef7c122c639463c", "fusion_lon": 0.0, "bike_id": "46f332711c2dec3d1ef7c122c639463c", "is_disabled": 0, "is_reserved": 0}, {"rental_uris": {"ios": "https://dc.lft.to/lastmile_qr_scan", "android": "https://dc.lft.to/lastmile_qr_scan"}, "lon": -77.032138, "type": "electric_scooter", "fusion_lat": 0.0, "lat": 38.911729, "name": "e0b688de80734398009c7ff0d8d922e2", "fusion_lon": 0.0, "bike_id": "e0b688de80734398009c7ff0d8d922e2", "is_disabled": 0, "is_reserved": 0}, {"rental_uris": {"ios": "https://dc.lft.to/lastmile_qr_scan", "android": "https://dc.lft.to/lastmile_qr_scan"}, "lon": -77.00523616666666, "type": "electric_scooter", "fusion_lat": 0.0, "lat": 38.92904433333333, "name": "bc8afa3501d0e63f609085f115564190", "fusion_lon": 0.0, "bike_id": "bc8afa3501d0e63f609085f115564190", "is_disabled": 0, "is_reserved": 0}, {"rental_uris": {"ios": "https://dc.lft.to/lastmile_qr_scan", "android": "https://dc.lft.to/lastmile_qr_scan"}, "lon": -77.03818283333334, "type": "electric_scooter", "fusion_lat": 0.0, "lat": 38.90969116666667, "name": "bcf7ab0a055982cf57cb2d8575d1655e", "fusion_lon": 0.0, "bike_id": "bcf7ab0a055982cf57cb2d8575d1655e", "is_disabled": 0, "is_reserved": 0}, {"rental_uris": {"ios": "https://dc.lft.to/lastmile_qr_scan", "android": "https://dc.lft.to/lastmile_qr_scan"}, "lon": -77.0344415, "type": "electric_scooter", "fusion_lat": 0.0, "lat": 38.91196583333333, "name": "6ee8fdc3dc75e2044182a55dcc7fbc24", "fusion_lon": 0.0, "bike_id": "6ee8fdc3dc75e2044182a55dcc7fbc24", "is_disabled": 0, "is_reserved": 0}, {"rental_uris": {"ios": "https://dc.lft.to/lastmile_qr_scan", "android": "https://dc.lft.to/lastmile_qr_scan"}, "lon": -76.99001316666667, "type": "electric_scooter", "fusion_lat": 0.0, "lat": 38.8650425, "name": "47951de71fd190b80d130256b03dcfe0", "fusion_lon": 0.0, "bike_id": "47951de71fd190b80d130256b03dcfe0", "is_disabled": 0, "is_reserved": 0}, {"rental_uris": {"ios": "https://dc.lft.to/lastmile_qr_scan", "android": "https://dc.lft.to/lastmile_qr_scan"}, "lon": -77.01562033333333, "type": "electric_scooter", "fusion_lat": 0.0, "lat": 38.876303, "name": "a453fd90ac5b4ca5bcfd89005fb89d64", "fusion_lon": 0.0, "bike_id": "a453fd90ac5b4ca5bcfd89005fb89d64", "is_disabled": 0, "is_reserved": 0}, {"rental_uris": {"ios": "https://dc.lft.to/lastmile_qr_scan", "android": "https://dc.lft.to/lastmile_qr_scan"}, "lon": -77.01261033333333, "type": "electric_bike", "fusion_lat": 0.0, "lat": 38.90381633333333, "name": "4285baa80ee6decfa87140cb1388fb54", "fusion_lon": 0.0, "bike_id": "4285baa80ee6decfa87140cb1388fb54", "is_disabled": 0, "is_reserved": 0}, {"rental_uris": {"ios": "https://dc.lft.to/lastmile_qr_scan", "android": "https://dc.lft.to/lastmile_qr_scan"}, "lon": -77.01984066666667, "type": "electric_scooter", "fusion_lat": 0.0, "lat": 38.897443333333335, "name": "48aaa0e46471fadcfff868c77ae4a595", "fusion_lon": 0.0, "bike_id": "48aaa0e46471fadcfff868c77ae4a595", "is_disabled": 0, "is_reserved": 0}, {"rental_uris": {"ios": "https://dc.lft.to/lastmile_qr_scan", "android": "https://dc.lft.to/lastmile_qr_scan"}, "lon": -77.03033133333334, "type": "electric_scooter", "fusion_lat": 0.0, "lat": 38.8946465, "name": "a7352b65346cd3bc43ad7b2e43d0f505", "fusion_lon": 0.0, "bike_id": "a7352b65346cd3bc43ad7b2e43d0f505", "is_disabled": 0, "is_reserved": 0}, {"rental_uris": {"ios": "https://dc.lft.to/lastmile_qr_scan", "android": "https://dc.lft.to/lastmile_qr_scan"}, "lon": -77.0137825, "type": "electric_scooter", "fusion_lat": 0.0, "lat": 38.869592833333336, "name": "706b9836a7cd3332c9438fd2a5403ad7", "fusion_lon": 0.0, "bike_id": "706b9836a7cd3332c9438fd2a5403ad7", "is_disabled": 0, "is_reserved": 0}, {"rental_uris": {"ios": "https://dc.lft.to/lastmile_qr_scan", "android": "https://dc.lft.to/lastmile_qr_scan"}, "lon": -77.0181735, "type": "electric_scooter", "fusion_lat": 0.0, "lat": 38.92972816666666, "name": "1d83cfc05d2aeaa43e3098937e14f2fb", "fusion_lon": 0.0, "bike_id": "1d83cfc05d2aeaa43e3098937e14f2fb", "is_disabled": 0, "is_reserved": 0}, {"rental_uris": {"ios": "https://dc.lft.to/lastmile_qr_scan", "android": "https://dc.lft.to/lastmile_qr_scan"}, "lon": -77.02975216666667, "type": "electric_scooter", "fusion_lat": 0.0, "lat": 38.9231905, "name": "fd9aed4c483cd22323d75fc95c79304c", "fusion_lon": 0.0, "bike_id": "fd9aed4c483cd22323d75fc95c79304c", "is_disabled": 0, "is_reserved": 0}, {"rental_uris": {"ios": "https://dc.lft.to/lastmile_qr_scan", "android": "https://dc.lft.to/lastmile_qr_scan"}, "lon": -77.032606, "type": "electric_scooter", "fusion_lat": 0.0, "lat": 38.93872066666667, "name": "ae8e2ad616ae5dd9a992f49a3414f68f", "fusion_lon": 0.0, "bike_id": "ae8e2ad616ae5dd9a992f49a3414f68f", "is_disabled": 0, "is_reserved": 0}, {"rental_uris": {"ios": "https://dc.lft.to/lastmile_qr_scan", "android": "https://dc.lft.to/lastmile_qr_scan"}, "lon": -77.03264633333333, "type": "electric_scooter", "fusion_lat": 0.0, "lat": 38.93532, "name": "8e7c6181194b1e0ebf21c774a37a10d2", "fusion_lon": 0.0, "bike_id": "8e7c6181194b1e0ebf21c774a37a10d2", "is_disabled": 0, "is_reserved": 0}, {"rental_uris": {"ios": "https://dc.lft.to/lastmile_qr_scan", "android": "https://dc.lft.to/lastmile_qr_scan"}, "lon": -76.99034733333333, "type": "electric_scooter", "fusion_lat": 0.0, "lat": 38.8586775, "name": "8ceac690d470ad4e6301a2c2f4feded1", "fusion_lon": 0.0, "bike_id": "8ceac690d470ad4e6301a2c2f4feded1", "is_disabled": 0, "is_reserved": 0}, {"rental_uris": {"ios": "https://dc.lft.to/lastmile_qr_scan", "android": "https://dc.lft.to/lastmile_qr_scan"}, "lon": -76.97612816666667, "type": "electric_bike", "fusion_lat": 0.0, "lat": 38.91308, "name": "aaca3070429bdf2120492fe4eb487d05", "fusion_lon": 0.0, "bike_id": "aaca3070429bdf2120492fe4eb487d05", "is_disabled": 0, "is_reserved": 0}, {"rental_uris": {"ios": "https://dc.lft.to/lastmile_qr_scan", "android": "https://dc.lft.to/lastmile_qr_scan"}, "lon": -77.02794016666667, "type": "electric_scooter", "fusion_lat": 0.0, "lat": 38.930802666666665, "name": "c466dace81c335e56e060250083f5a91", "fusion_lon": 0.0, "bike_id": "c466dace81c335e56e060250083f5a91", "is_disabled": 0, "is_reserved": 0}, {"rental_uris": {"ios": "https://dc.lft.to/lastmile_qr_scan", "android": "https://dc.lft.to/lastmile_qr_scan"}, "lon": -77.04151516666667, "type": "electric_scooter", "fusion_lat": 0.0, "lat": 38.907377833333335, "name": "1021aac625710759f63501a788c39ced", "fusion_lon": 0.0, "bike_id": "1021aac625710759f63501a788c39ced", "is_disabled": 0, "is_reserved": 0}, {"rental_uris": {"ios": "https://dc.lft.to/lastmile_qr_scan", "android": "https://dc.lft.to/lastmile_qr_scan"}, "lon": -77.03219933333334, "type": "electric_scooter", "fusion_lat": 0.0, "lat": 38.918177166666666, "name": "ecde2c84a9bdda363a22dbb3ced7dcee", "fusion_lon": 0.0, "bike_id": "ecde2c84a9bdda363a22dbb3ced7dcee", "is_disabled": 0, "is_reserved": 0}, {"rental_uris": {"ios": "https://dc.lft.to/lastmile_qr_scan", "android": "https://dc.lft.to/lastmile_qr_scan"}, "lon": -77.0602955, "type": "electric_scooter", "fusion_lat": 0.0, "lat": 38.9048965, "name": "0ef91a3a4081ac1bc952c580ac0797da", "fusion_lon": 0.0, "bike_id": "0ef91a3a4081ac1bc952c580ac0797da", "is_disabled": 0, "is_reserved": 0}, {"rental_uris": {"ios": "https://dc.lft.to/lastmile_qr_scan", "android": "https://dc.lft.to/lastmile_qr_scan"}, "lon": -77.0171585, "type": "electric_scooter", "fusion_lat": 0.0, "lat": 38.90972266666667, "name": "8ed8acc89efe13ecda50111c5d2f99b8", "fusion_lon": 0.0, "bike_id": "8ed8acc89efe13ecda50111c5d2f99b8", "is_disabled": 0, "is_reserved": 0}, {"rental_uris": {"ios": "https://dc.lft.to/lastmile_qr_scan", "android": "https://dc.lft.to/lastmile_qr_scan"}, "lon": -77.02406283333333, "type": "electric_scooter", "fusion_lat": 0.0, "lat": 38.907089666666664, "name": "225eb2cc51736752da8911fd56fc81bb", "fusion_lon": 0.0, "bike_id": "225eb2cc51736752da8911fd56fc81bb", "is_disabled": 0, "is_reserved": 0}, {"rental_uris": {"ios": "https://dc.lft.to/lastmile_qr_scan", "android": "https://dc.lft.to/lastmile_qr_scan"}, "lon": -77.05956216666667, "type": "electric_scooter", "fusion_lat": 0.0, "lat": 38.911945333333335, "name": "7ce5d63f69f7d76d325294f551b7b8f2", "fusion_lon": 0.0, "bike_id": "7ce5d63f69f7d76d325294f551b7b8f2", "is_disabled": 0, "is_reserved": 0}, {"rental_uris": {"ios": "https://dc.lft.to/lastmile_qr_scan", "android": "https://dc.lft.to/lastmile_qr_scan"}, "lon": -77.02724716666667, "type": "electric_scooter", "fusion_lat": 0.0, "lat": 38.91824283333333, "name": "712ccce7e53d62bcaf60ae7c98bfba7c", "fusion_lon": 0.0, "bike_id": "712ccce7e53d62bcaf60ae7c98bfba7c", "is_disabled": 0, "is_reserved": 0}, {"rental_uris": {"ios": "https://dc.lft.to/lastmile_qr_scan", "android": "https://dc.lft.to/lastmile_qr_scan"}, "lon": -77.02946533333333, "type": "electric_scooter", "fusion_lat": 0.0, "lat": 38.91563, "name": "af36ba387886b1555689e872ba23239c", "fusion_lon": 0.0, "bike_id": "af36ba387886b1555689e872ba23239c", "is_disabled": 0, "is_reserved": 0}, {"rental_uris": {"ios": "https://dc.lft.to/lastmile_qr_scan", "android": "https://dc.lft.to/lastmile_qr_scan"}, "lon": -77.066112, "type": "electric_scooter", "fusion_lat": 0.0, "lat": 38.90537783333333, "name": "c4a8e7bf8fc10ee3110d981c818b65d4", "fusion_lon": 0.0, "bike_id": "c4a8e7bf8fc10ee3110d981c818b65d4", "is_disabled": 0, "is_reserved": 0}, {"rental_uris": {"ios": "https://dc.lft.to/lastmile_qr_scan", "android": "https://dc.lft.to/lastmile_qr_scan"}, "lon": -77.088238, "type": "electric_bike", "fusion_lat": 0.0, "lat": 38.90971183333333, "name": "f29ddb7bf68a72b3fe1c4db79aaf1d1c", "fusion_lon": 0.0, "bike_id": "f29ddb7bf68a72b3fe1c4db79aaf1d1c", "is_disabled": 0, "is_reserved": 0}, {"rental_uris": {"ios": "https://dc.lft.to/lastmile_qr_scan", "android": "https://dc.lft.to/lastmile_qr_scan"},