{"data": {"bikes": [{"fusion_lat": 0.0, "name": "dca65704e74092299d1d45aa752be1c7", "is_disabled": 0, "rental_uris": {"android": "https://dc.lft.to/lastmile_qr_scan", "ios": "https://dc.lft.to/lastmile_qr_scan"}, "fusion_lon": 0.0, "lat": 38.921613666666666, "bike_id": "dca65704e74092299d1d45aa752be1c7", "type": "electric_scooter", "is_reserved": 0, "lon": -76.99811183333334}, {"fusion_lat": 0.0, "name": "e2c28cd88cb3db3abdf68acea700108b", "is_disabled": 0, "rental_uris": {"android": "https://dc.lft.to/lastmile_qr_scan", "ios": "https://dc.lft.to/lastmile_qr_scan"}, "fusion_lon": 0.0, "lat": 38.961229333333335, "bike_id": "e2c28cd88cb3db3abdf68acea700108b", "type": "electric_bike", "is_reserved": 0, "lon": -77.0327585}, {"fusion_lat": 0.0, "name": "24fdf637c8812efb88907cbf59a076ab", "is_disabled": 0, "rental_uris": {"android": "https://dc.lft.to/lastmile_qr_scan", "ios": "https://dc.lft.to/lastmile_qr_scan"}, "fusion_lon": 0.0, "lat": 38.8632345, "bike_id": "24fdf637c8812efb88907cbf59a076ab", "type": "electric_bike", "is_reserved": 0, "lon": -76.98720966666667}, {"fusion_lat": 0.0, "name": "e6f772a1bb00b5a4dc753208c79b72a7", "is_disabled": 0, "rental_uris": {"android": "https://dc.lft.to/lastmile_qr_scan", "ios": "https://dc.lft.to/lastmile_qr_scan"}, "fusion_lon": 0.0, "lat": 38.901250166666664, "bike_id": "e6f772a1bb00b5a4dc753208c79b72a7", "type": "electric_scooter", "is_reserved": 0, "lon": -77.03377983333333}, {"fusion_lat": 0.0, "name": "683f5f12969fb9e765d5e51bd46a2523", "is_disabled": 0, "rental_uris": {"android": "https://dc.lft.to/lastmile_qr_scan", "ios": "https://dc.lft.to/lastmile_qr_scan"}, "fusion_lon": 0.0, "lat": 38.909494333333335, "bike_id": "683f5f12969fb9e765d5e51bd46a2523", "type": "electric_scooter", "is_reserved": 0, "lon": -77.03200733333334}, {"fusion_lat": 0.0, "name": "b189caea2de98b8ae4effe81335177de", "is_disabled": 0, "rental_uris": {"android": "https://dc.lft.to/lastmile_qr_scan", "ios": "https://dc.lft.to/lastmile_qr_scan"}, "fusion_lon": 0.0, "lat": 38.911253, "bike_id": "b189caea2de98b8ae4effe81335177de", "type": "electric_scooter", "is_reserved": 0, "lon": -77.0219475}, {"fusion_lat": 0.0, "name": "854eb8d4c8e626bfa50783b79ed43a66", "is_disabled": 0, "rental_uris": {"android": "https://dc.lft.to/lastmile_qr_scan", "ios": "https://dc.lft.to/lastmile_qr_scan"}, "fusion_lon": 0.0, "lat": 38.881440166666664, "bike_id": "854eb8d4c8e626bfa50783b79ed43a66", "type": "electric_scooter", "is_reserved": 0, "lon": -77.027361}, {"fusion_lat": 0.0, "name": "4ea4babfa25c0461e294af030438c15c", "is_disabled": 0, "rental_uris": {"android": "https://dc.lft.to/lastmile_qr_scan", "ios": "https://dc.lft.to/lastmile_qr_scan"}, "fusion_lon": 0.0, "lat": 38.90396166666667, "bike_id": "4ea4babfa25c0461e294af030438c15c", "type": "electric_scooter", "is_reserved": 0, "lon": -77.06776266666667}, {"fusion_lat": 0.0, "name": "4eb4b6a259e0cbc154fced33b5a85411", "is_disabled": 0, "rental_uris": {"android": "https://dc.lft.to/lastmile_qr_scan", "ios": "https://dc.lft.to/lastmile_qr_scan"}, "fusion_lon": 0.0, "lat": 38.928635166666666, "bike_id": "4eb4b6a259e0cbc154fced33b5a85411", "type": "electric_scooter", "is_reserved": 0, "lon": -77.031}, {"fusion_lat": 0.0, "name": "d198756e8feb1c158c65474864b582a5", "is_disabled": 0, "rental_uris": {"android": "https://dc.lft.to/lastmile_qr_scan", "ios": "https://dc.lft.to/lastmile_qr_scan"}, "fusion_lon": 0.0, "lat": 38.880343833333335, "bike_id": "d198756e8feb1c158c65474864b582a5", "type": "electric_scooter", "is_reserved": 0, "lon": -77.0133145}, {"fusion_lat": 0.0, "name": "4e5534cd2cbcbe045d0c1739c96b5388", "is_disabled": 0, "rental_uris": {"android": "https://dc.lft.to/lastmile_qr_scan", "ios": "https://dc.lft.to/lastmile_qr_scan"}, "fusion_lon": 0.0, "lat": 38.902377333333334, "bike_id": "4e5534cd2cbcbe045d0c1739c96b5388", "type": "electric_scooter", "is_reserved": 0, "lon": -77.04904183333333}, {"fusion_lat": 0.0, "name": "ce21809c48b11e195d9d3f8a03804ee6", "is_disabled": 0, "rental_uris": {"android": "https://dc.lft.to/lastmile_qr_scan", "ios": "https://dc.lft.to/lastmile_qr_scan"}, "fusion_lon": 0.0, "lat": 38.926948333333335, "bike_id": "ce21809c48b11e195d9d3f8a03804ee6", "type": "electric_scooter", "is_reserved": 0, "lon": -77.02426683333333}, {"fusion_lat": 0.0, "name": "9ef967b8ba09f290bc26e9ce7820dd03", "is_disabled": 0, "rental_uris": {"android": "https://dc.lft.to/lastmile_qr_scan", "ios": "https://dc.lft.to/lastmile_qr_scan"}, "fusion_lon": 0.0, "lat": 38.91530316666667, "bike_id": "9ef967b8ba09f290bc26e9ce7820dd03", "type": "electric_scooter", "is_reserved": 0, "lon": -77.0197765}, {"fusion_lat": 0.0, "name": "5b2daa532faebd83c36ae1ccac6eb030", "is_disabled": 0, "rental_uris": {"android": "https://dc.lft.to/lastmile_qr_scan", "ios": "https://dc.lft.to/lastmile_qr_scan"}, "fusion_lon": 0.0, "lat": 38.92845883333333, "bike_id": "5b2daa532faebd83c36ae1ccac6eb030", "type": "electric_scooter", "is_reserved": 0, "lon": -77.03111166666666}, {"fusion_lat": 0.0, "name": "19931237b63fa2d436233cb3531a1377", "is_disabled": 0, "rental_uris": {"android": "https://dc.lft.to/lastmile_qr_scan", "ios": "https://dc.lft.to/lastmile_qr_scan"}, "fusion_lon": 0.0, "lat": 38.9596695, "bike_id": "19931237b63fa2d436233cb3531a1377", "type": "electric_bike", "is_reserved": 0, "lon": -76.98146716666666}, {"fusion_lat": 0.0, "name": "d99b6df45505259aa3f80577f1d7a8d2", "is_disabled": 0, "rental_uris": {"android": "https://dc.lft.to/lastmile_qr_scan", "ios": "https://dc.lft.to/lastmile_qr_scan"}, "fusion_lon": 0.0, "lat": 38.905496, "bike_id": "d99b6df45505259aa3f80577f1d7a8d2", "type": "electric_scooter", "is_reserved": 0, "lon": -77.0465585}, {"fusion_lat": 0.0, "name": "7a0c65359899e3df82dc0bb9a2a03264", "is_disabled": 0, "rental_uris": {"android": "https://dc.lft.to/lastmile_qr_scan", "ios": "https://dc.lft.to/lastmile_qr_scan"}, "fusion_lon": 0.0, "lat": 38.92202283333334, "bike_id": "7a0c65359899e3df82dc0bb9a2a03264", "type": "electric_scooter", "is_reserved": 0, "lon": -77.08091366666666}, {"fusion_lat": 0.0, "name": "fd5b2d1fa2ddd9f34d35e843a9158d7c", "is_disabled": 0, "rental_uris": {"android": "https://dc.lft.to/lastmile_qr_scan", "ios": "https://dc.lft.to/lastmile_qr_scan"}, "fusion_lon": 0.0, "lat": 38.912243, "bike_id": "fd5b2d1fa2ddd9f34d35e843a9158d7c", "type": "electric_scooter", "is_reserved": 0, "lon": -77.01902516666667}, {"fusion_lat": 0.0, "name": "539725c728b9e45f897e76078d4ea05d", "is_disabled": 0, "rental_uris": {"android": "https://dc.lft.to/lastmile_qr_scan", "ios": "https://dc.lft.to/lastmile_qr_scan"}, "fusion_lon": 0.0, "lat": 38.95734233333334, "bike_id": "539725c728b9e45f897e76078d4ea05d", "type": "electric_bike", "is_reserved": 0, "lon": -76.98083533333333}, {"fusion_lat": 0.0, "name": "ff0d2b0c704917b81c5c95bded63f009", "is_disabled": 0, "rental_uris": {"android": "https://dc.lft.to/lastmile_qr_scan", "ios": "https://dc.lft.to/lastmile_qr_scan"}, "fusion_lon": 0.0, "lat": 38.899061833333334, "bike_id": "ff0d2b0c704917b81c5c95bded63f009", "type": "electric_scooter", "is_reserved": 0, "lon": -76.93356866666667}, {"fusion_lat": 0.0, "name": "2ed0212ba71f04b1f6748c67ba676cc8", "is_disabled": 0, "rental_uris": {"android": "https://dc.lft.to/lastmile_qr_scan", "ios": "https://dc.lft.to/lastmile_qr_scan"}, "fusion_lon": 0.0, "lat": 38.936106833333334, "bike_id": "2ed0212ba71f04b1f6748c67ba676cc8", "type": "electric_scooter", "is_reserved": 0, "lon": -77.03193316666666}, {"fusion_lat": 0.0, "name": "9dd701b8e1f56d9b544f6d7ac002ac14", "is_disabled": 0, "rental_uris": {"android": "https://dc.lft.to/lastmile_qr_scan", "ios": "https://dc.lft.to/lastmile_qr_scan"}, "fusion_lon": 0.0, "lat": 38.90681333333333, "bike_id": "9dd701b8e1f56d9b544f6d7ac002ac14", "type": "electric_bike", "is_reserved": 0, "lon": -76.944952}, {"fusion_lat": 0.0, "name": "8d08f4249d600de11f1273bd1d2002ba", "is_disabled": 0, "rental_uris": {"android": "https://dc.lft.to/lastmile_qr_scan", "ios": "https://dc.lft.to/lastmile_qr_scan"}, "fusion_lon": 0.0, "lat": 38.920708, "bike_id": "8d08f4249d600de11f1273bd1d2002ba", "type": "electric_scooter", "is_reserved": 0, "lon": -77.024123}, {"fusion_lat": 0.0, "name": "e27e0ed9973a028c6d771d65863feba3", "is_disabled": 0, "rental_uris": {"android": "https://dc.lft.to/lastmile_qr_scan", "ios": "https://dc.lft.to/lastmile_qr_scan"}, "fusion_lon": 0.0, "lat": 38.901545666666664, "bike_id": "e27e0ed9973a028c6d771d65863feba3", "type": "electric_scooter", "is_reserved": 0, "lon": -76.93067466666666}, {"fusion_lat": 0.0, "name": "2158bc39fc07aed45cc58c788dccecf8", "is_disabled": 0, "rental_uris": {"android": "https://dc.lft.to/lastmile_qr_scan", "ios": "https://dc.lft.to/lastmile_qr_scan"}, "fusion_lon": 0.0, "lat": 38.909355166666664, "bike_id": "2158bc39fc07aed45cc58c788dccecf8", "type": "electric_scooter", "is_reserved": 0, "lon": -77.018431}, {"fusion_lat": 0.0, "name": "0b20d99426f180251190ffd8b3f83fbf", "is_disabled": 0, "rental_uris": {"android": "https://dc.lft.to/lastmile_qr_scan", "ios": "https://dc.lft.to/lastmile_qr_scan"}, "fusion_lon": 0.0, "lat": 38.921468833333336, "bike_id": "0b20d99426f180251190ffd8b3f83fbf", "type": "electric_scooter", "is_reserved": 0, "lon": -77.03871116666667}, {"fusion_lat": 0.0, "name": "2066a7252f4b46761eaa3aec48e75f96", "is_disabled": 0, "rental_uris": {"android": "https://dc.lft.to/lastmile_qr_scan", "ios": "https://dc.lft.to/lastmile_qr_scan"}, "fusion_lon": 0.0, "lat": 38.9119505, "bike_id": "2066a7252f4b46761eaa3aec48e75f96", "type": "electric_scooter", "is_reserved": 0, "lon": -77.03255133333333}, {"fusion_lat": 0.0, "name": "8d809ad908118b4e5ee82c18a03a878d", "is_disabled": 0, "rental_uris": {"android": "https://dc.lft.to/lastmile_qr_scan", "ios": "https://dc.lft.to/lastmile_qr_scan"}, "fusion_lon": 0.0, "lat": 38.91208683333333, "bike_id": "8d809ad908118b4e5ee82c18a03a878d", "type": "electric_scooter", "is_reserved": 0, "lon": -77.038522}, {"fusion_lat": 0.0, "name": "fa9c9b14fa3a3ea4683e7dcf50e91367", "is_disabled": 0, "rental_uris": {"android": "https://dc.lft.to/lastmile_qr_scan", "ios": "https://dc.lft.to/lastmile_qr_scan"}, "fusion_lon": 0.0, "lat": 38.8876255, "bike_id": "fa9c9b14fa3a3ea4683e7dcf50e91367", "type": "electric_scooter", "is_reserved": 0, "lon": -76.977457}, {"fusion_lat": 0.0, "name": "32b4c35a3ef6cc5c6ca3b2094320c120", "is_disabled": 0, "rental_uris": {"android": "https://dc.lft.to/lastmile_qr_scan", "ios": "https://dc.lft.to/lastmile_qr_scan"}, "fusion_lon": 0.0, "lat": 38.863728333333334, "bike_id": "32b4c35a3ef6cc5c6ca3b2094320c120", "type": "electric_bike", "is_reserved": 0, "lon": -76.97011633333334}, {"fusion_lat": 0.0, "name": "f34fbb09cfb743ec0aad70694bac9626", "is_disabled": 0, "rental_uris": {"android": "https://dc.lft.to/lastmile_qr_scan", "ios": "https://dc.lft.to/lastmile_qr_scan"}, "fusion_lon": 0.0, "lat": 38.9181815, "bike_id": "f34fbb09cfb743ec0aad70694bac9626", "type": "electric_scooter", "is_reserved": 0, "lon": -77.02611783333333}, {"fusion_lat": 0.0, "name": "528f622ac61327011051c39098e3b139", "is_disabled": 0, "rental_uris": {"android": "https://dc.lft.to/lastmile_qr_scan", "ios": "https://dc.lft.to/lastmile_qr_scan"}, "fusion_lon": 0.0, "lat": 38.924677833333334, "bike_id": "528f622ac61327011051c39098e3b139", "type": "electric_scooter", "is_reserved": 0, "lon": -77.03634116666667}, {"fusion_lat": 0.0, "name": "3966dcdb65f8e6dec2b81432c3fc6355", "is_disabled": 0, "rental_uris": {"android": "https://dc.lft.to/lastmile_qr_scan", "ios": "https://dc.lft.to/lastmile_qr_scan"}, "fusion_lon": 0.0, "lat": 38.901208, "bike_id": "3966dcdb65f8e6dec2b81432c3fc6355", "type": "electric_scooter", "is_reserved": 0, "lon": -77.06037483333333}, {"fusion_lat": 0.0, "name": "d1a6bf26628da7946a3dbea7bc6b72ef", "is_disabled": 0, "rental_uris": {"android": "https://dc.lft.to/lastmile_qr_scan", "ios": "https://dc.lft.to/lastmile_qr_scan"}, "fusion_lon": 0.0, "lat": 38.91675716666666, "bike_id": "d1a6bf26628da7946a3dbea7bc6b72ef", "type": "electric_scooter", "is_reserved": 0, "lon": -77.01576166666666}, {"fusion_lat": 0.0, "name": "822b4ee5c0eb23e895ee19046b6f56e6", "is_disabled": 0, "rental_uris": {"android": "https://dc.lft.to/lastmile_qr_scan", "ios": "https://dc.lft.to/lastmile_qr_scan"}, "fusion_lon": 0.0, "lat": 38.80440566666667, "bike_id": "822b4ee5c0eb23e895ee19046b6f56e6", "type": "electric_bike", "is_reserved": 0, "lon": -77.13226366666666}, {"fusion_lat": 0.0, "name": "88b7ce0588617054bf18946b0fbee640", "is_disabled": 0, "rental_uris": {"android": "https://dc.lft.to/lastmile_qr_scan", "ios": "https://dc.lft.to/lastmile_qr_scan"}, "fusion_lon": 0.0, "lat": 38.896078833333334, "bike_id": "88b7ce0588617054bf18946b0fbee640", "type": "electric_scooter", "is_reserved": 0, "lon": -76.94814}, {"fusion_lat": 0.0, "name": "ce4b5adc80706cc287ee516b5b936db4", "is_disabled": 0, "rental_uris": {"android": "https://dc.lft.to/lastmile_qr_scan", "ios": "https://dc.lft.to/lastmile_qr_scan"}, "fusion_lon": 0.0, "lat": 38.93058633333333, "bike_id": "ce4b5adc80706cc287ee516b5b936db4", "type": "electric_scooter", "is_reserved": 0, "lon": -77.03945566666667}, {"fusion_lat": 0.0, "name": "ca44708a4955bcacdf417cbe1278b9b5", "is_disabled": 0, "rental_uris": {"android": "https://dc.lft.to/lastmile_qr_scan", "ios": "https://dc.lft.to/lastmile_qr_scan"}, "fusion_lon": 0.0, "lat": 38.9099055, "bike_id": "ca44708a4955bcacdf417cbe1278b9b5", "type": "electric_scooter", "is_reserved": 0, "lon": -77.04655216666667}, {"fusion_lat": 0.0, "name": "2425a00e3b69553c1d38b866efe70654", "is_disabled": 0, "rental_uris": {"android": "https://dc.lft.to/lastmile_qr_scan", "ios": "https://dc.lft.to/lastmile_qr_scan"}, "fusion_lon": 0.0, "lat": 38.906917666666665, "bike_id": "2425a00e3b69553c1d38b866efe70654", "type": "electric_scooter", "is_reserved": 0, "lon": -77.03593533333333}, {"fusion_lat": 0.0, "name": "d19e18c04a4b51bdc4e8da2d1b67507f", "is_disabled": 0, "rental_uris": {"android": "https://dc.lft.to/lastmile_qr_scan", "ios": "https://dc.lft.to/lastmile_qr_scan"}, "fusion_lon": 0.0, "lat": 38.881237166666665, "bike_id": "d19e18c04a4b51bdc4e8da2d1b67507f", "type": "electric_scooter", "is_reserved": 0, "lon": -76.9928415}, {"fusion_lat": 0.0, "name": "6580c472a461a8b3f75ad84451a3d6a1", "is_disabled": 0, "rental_uris": {"android": "https://dc.lft.to/lastmile_qr_scan", "ios": "https://dc.lft.to/lastmile_qr_scan"}, "fusion_lon": 0.0, "lat": 38.89967516666667, "bike_id": "6580c472a461a8b3f75ad84451a3d6a1", "type": "electric_bike", "is_reserved": 0, "lon": -76.98676183333333}, {"fusion_lat": 0.0, "name": "4f39203c4062990e6dff8635ff431f40", "is_disabled": 0, "rental_uris": {"android": "https://dc.lft.to/lastmile_qr_scan", "ios": "https://dc.lft.to/lastmile_qr_scan"}, "fusion_lon": 0.0, "lat": 38.895204, "bike_id": "4f39203c4062990e6dff8635ff431f40", "type": "electric_scooter", "is_reserved": 0, "lon": -76.98084183333333}, {"fusion_lat": 0.0, "name": "5306de2ca4ea243dc108188c6a862df2", "is_disabled": 0, "rental_uris": {"android": "https://dc.lft.to/lastmile_qr_scan", "ios": "https://dc.lft.to/lastmile_qr_scan"}, "fusion_lon": 0.0, "lat": 38.92893616666667, "bike_id": "5306de2ca4ea243dc108188c6a862df2", "type": "electric_scooter", "is_reserved": 0, "lon": -77.0229455}, {"fusion_lat": 0.0, "name": "1431f04d067b1a9ae5474aa778bb4695", "is_disabled": 0, "rental_uris": {"android": "https://dc.lft.to/lastmile_qr_scan", "ios": "https://dc.lft.to/lastmile_qr_scan"}, "fusion_lon": 0.0, "lat": 38.920336666666664, "bike_id": "1431f04d067b1a9ae5474aa778bb4695", "type": "electric_bike", "is_reserved": 0, "lon": -76.97954266666666}, {"fusion_lat": 0.0, "name": "9652522506252b92550492e89001512b", "is_disabled": 0, "rental_uris": {"android": "https://dc.lft.to/lastmile_qr_scan", "ios": "https://dc.lft.to/lastmile_qr_scan"}, "fusion_lon": 0.0, "lat": 38.94974666666667, "bike_id": "9652522506252b92550492e89001512b", "type": "electric_scooter", "is_reserved": 0, "lon": -77.02700266666666}, {"fusion_lat": 0.0, "name": "a1562572941c18ad450880aef94b2c54", "is_disabled": 0, "rental_uris": {"android": "https://dc.lft.to/lastmile_qr_scan", "ios": "https://dc.lft.to/lastmile_qr_scan"}, "fusion_lon": 0.0, "lat": 38.91792516666667, "bike_id": "a1562572941c18ad450880aef94b2c54", "type": "electric_scooter", "is_reserved": 0, "lon": -77.02315083333333}, {"fusion_lat": 0.0, "name": "d73ecf26eae974e80e72b8e8b6726402", "is_disabled": 0, "rental_uris": {"android": "https://dc.lft.to/lastmile_qr_scan", "ios": "https://dc.lft.to/lastmile_qr_scan"}, "fusion_lon": 0.0, "lat": 38.949789833333334, "bike_id": "d73ecf26eae974e80e72b8e8b6726402", "type": "electric_scooter", "is_reserved": 0, "lon": -77.02700283333333}, {"fusion_lat": 0.0, "name": "04e484f125872d4c2ae1c2db9160b4e9", "is_disabled": 0, "rental_uris": {"android": "https://dc.lft.to/lastmile_qr_scan", "ios": "https://dc.lft.to/lastmile_qr_scan"}, "fusion_lon": 0.0, "lat": 38.95731633333333, "bike_id": "04e484f125872d4c2ae1c2db9160b4e9", "type": "electric_scooter", "is_reserved": 0, "lon": -77.0240515}, {"fusion_lat": 0.0, "name": "dc8f9f5002ba2611cb91e97839acd1ec", "is_disabled": 0, "rental_uris": {"android": "https://dc.lft.to/lastmile_qr_scan", "ios": "https://dc.lft.to/lastmile_qr_scan"}, "fusion_lon": 0.0, "lat": 38.93552433333333, "bike_id": "dc8f9f5002ba2611cb91e97839acd1ec", "type": "electric_scooter", "is_reserved": 0, "lon": -77.081921}, {"fusion_lat": 0.0, "name": "4045cfd1dbdbc500d5b51f1ac0b09ed0", "is_disabled": 0, "rental_uris": {"android": "https://dc.lft.to/lastmile_qr_scan", "ios": "https://dc.lft.to/lastmile_qr_scan"}, "fusion_lon": 0.0, "lat": 38.91650083333333, "bike_id": "4045cfd1dbdbc500d5b51f1ac0b09ed0", "type": "electric_bike", "is_reserved": 0, "lon": -76.98227883333334}, {"fusion_lat": 0.0, "name": "b33511c04980f0850fc8c971b98345d9", "is_disabled": 0, "rental_uris": {"android": "https://dc.lft.to/lastmile_qr_scan", "ios": "https://dc.lft.to/lastmile_qr_scan"}, "fusion_lon": 0.0, "lat": 38.91123016666667, "bike_id": "b33511c04980f0850fc8c971b98345d9", "type": "electric_scooter", "is_reserved": 0, "lon": -77.02199383333334}, {"fusion_lat": 0.0, "name": "07f8e43faa7d9544ee1e463884e99cf2", "is_disabled": 0, "rental_uris": {"android": "https://dc.lft.to/lastmile_qr_scan", "ios": "https://dc.lft.to/lastmile_qr_scan"}, "fusion_lon": 0.0, "lat": 38.93048366666667, "bike_id": "07f8e43faa7d9544ee1e463884e99cf2", "type": "electric_scooter", "is_reserved": 0, "lon": -77.0335715}, {"fusion_lat": 0.0, "name": "6cacb875caf2056785eb43ae1addfe2b", "is_disabled": 0, "rental_uris": {"android": "https://dc.lft.to/lastmile_qr_scan", "ios": "https://dc.lft.to/lastmile_qr_scan"}, "fusion_lon": 0.0, "lat": 38.9166935, "bike_id": "6cacb875caf2056785eb43ae1addfe2b", "type": "electric_scooter", "is_reserved": 0, "lon": -77.02715283333333}, {"fusion_lat": 0.0, "name": "d9909d896b946c04010827a875bf2572", "is_disabled": 0, "rental_uris": {"android": "https://dc.lft.to/lastmile_qr_scan", "ios": "https://dc.lft.to/lastmile_qr_scan"}, "fusion_lon": 0.0, "lat": 38.88149716666667, "bike_id": "d9909d896b946c04010827a875bf2572", "type": "electric_scooter", "is_reserved": 0, "lon": -77.02750366666666}, {"fusion_lat": 0.0, "name": "0c5dd900b273bdb321a9f8621278fc16", "is_disabled": 0, "rental_uris": {"android": "https://dc.lft.to/lastmile_qr_scan", "ios": "https://dc.lft.to/lastmile_qr_scan"}, "fusion_lon": 0.0, "lat": 38.90378616666667, "bike_id": "0c5dd900b273bdb321a9f8621278fc16", "type": "electric_scooter", "is_reserved": 0, "lon": -77.03881833333334}, {"fusion_lat": 0.0, "name": "bb88ee357b8a660d224b110c1d84a34e", "is_disabled": 0, "rental_uris": {"android": "https://dc.lft.to/lastmile_qr_scan", "ios": "https://dc.lft.to/lastmile_qr_scan"}, "fusion_lon": 0.0, "lat": 38.935596833333335, "bike_id": "bb88ee357b8a660d224b110c1d84a34e", "type": "electric_scooter", "is_reserved": 0, "lon": -77.03485533333334}, {"fusion_lat": 0.0, "name": "85a62e23415d6697bdf8f8d572131123", "is_disabled": 0, "rental_uris": {"android": "https://dc.lft.to/lastmile_qr_scan", "ios": "https://dc.lft.to/lastmile_qr_scan"}, "fusion_lon": 0.0, "lat": 38.94204283333333, "bike_id": "85a62e23415d6697bdf8f8d572131123", "type": "electric_bike", "is_reserved": 0, "lon": -77.0182965}, {"fusion_lat": 0.0, "name": "84937f527fd502f8ea5b7aa2239b8733", "is_disabled": 0, "rental_uris": {"android": "https://dc.lft.to/lastmile_qr_scan", "ios": "https://dc.lft.to/lastmile_qr_scan"}, "fusion_lon": 0.0, "lat": 38.93063166666666, "bike_id": "84937f527fd502f8ea5b7aa2239b8733", "type": "electric_scooter", "is_reserved": 0, "lon": -77.029818}, {"fusion_lat": 0.0, "name": "9bbec3785fe9682bb969ffdc031c362b", "is_disabled": 0, "rental_uris": {"android": "https://dc.lft.to/lastmile_qr_scan", "ios": "https://dc.lft.to/lastmile_qr_scan"}, "fusion_lon": 0.0, "lat": 38.857948, "bike_id": "9bbec3785fe9682bb969ffdc031c362b", "type": "electric_bike", "is_reserved": 0, "lon": -77.1201545}, {"fusion_lat": 0.0, "name": "4a87f904551bbeb92b071257a0654471", "is_disabled": 0, "rental_uris": {"android": "https://dc.lft.to/lastmile_qr_scan", "ios": "https://dc.lft.to/lastmile_qr_scan"}, "fusion_lon": 0.0, "lat": 38.905584166666664, "bike_id": "4a87f904551bbeb92b071257a0654471", "type": "electric_scooter", "is_reserved": 0, "lon": -77.01311416666667}, {"fusion_lat": 0.0, "name": "3f8ca7b6c044ac4caa44469ab1198c51", "is_disabled": 0, "rental_uris": {"android": "https://dc.lft.to/lastmile_qr_scan", "ios": "https://dc.lft.to/lastmile_qr_scan"}, "fusion_lon": 0.0, "lat": 38.862561166666666, "bike_id": "3f8ca7b6c044ac4caa44469ab1198c51", "type": "electric_bike", "is_reserved": 0, "lon": -76.98347816666667}, {"fusion_lat": 0.0, "name": "68c887449fc0ae393f57ae88cbbb74db", "is_disabled": 0, "rental_uris": {"android": "https://dc.lft.to/lastmile_qr_scan", "ios": "https://dc.lft.to/lastmile_qr_scan"}, "fusion_lon": 0.0, "lat": 38.91030833333333, "bike_id": "68c887449fc0ae393f57ae88cbbb74db", "type": "electric_scooter", "is_reserved": 0, "lon": -77.007558}, {"fusion_lat": 0.0, "name": "e714f624e70381e02e99e8e668e06f50", "is_disabled": 0, "rental_uris": {"android": "https://dc.lft.to/lastmile_qr_scan", "ios": "https://dc.lft.to/lastmile_qr_scan"}, "fusion_lon": 0.0, "lat": 38.9314225, "bike_id": "e714f624e70381e02e99e8e668e06f50", "type": "electric_scooter", "is_reserved": 0, "lon": -77.038298}, {"fusion_lat": 0.0, "name": "8deee073c468f81640e7b1986c42cf20", "is_disabled": 0, "rental_uris": {"android": "https://dc.lft.to/lastmile_qr_scan", "ios": "https://dc.lft.to/lastmile_qr_scan"}, "fusion_lon": 0.0, "lat": 38.92499633333333, "bike_id": "8deee073c468f81640e7b1986c42cf20", "type": "electric_scooter", "is_reserved": 0, "lon": -77.03824816666666}, {"fusion_lat": 0.0, "name": "0e93bc4d32b45c552cb43380a29871d5", "is_disabled": 0, "rental_uris": {"android": "https://dc.lft.to/lastmile_qr_scan", "ios": "https://dc.lft.to/lastmile_qr_scan"}, "fusion_lon": 0.0, "lat": 38.9162415, "bike_id": "0e93bc4d32b45c552cb43380a29871d5", "type": "electric_scooter", "is_reserved": 0, "lon": -77.022086}, {"fusion_lat": 0.0, "name": "c7c7beaf1967cae3c2a8a992744564a7", "is_disabled": 0, "rental_uris": {"android": "https://dc.lft.to/lastmile_qr_scan", "ios": "https://dc.lft.to/lastmile_qr_scan"}, "fusion_lon": 0.0, "lat": 38.909586, "bike_id": "c7c7beaf1967cae3c2a8a992744564a7", "type": "electric_bike", "is_reserved": 0, "lon": -77.22891}, {"fusion_lat": 0.0, "name": "0e160dbaed7d9d3ef804eb14d8f2addf", "is_disabled": 0, "rental_uris": {"android": "https://dc.lft.to/lastmile_qr_scan", "ios": "https://dc.lft.to/lastmile_qr_scan"}, "fusion_lon": 0.0, "lat": 38.908754333333334, "bike_id": "0e160dbaed7d9d3ef804eb14d8f2addf", "type": "electric_scooter", "is_reserved": 0, "lon": -77.04340283333333}, {"fusion_lat": 0.0, "name": "f1a5f62b4b9f0b28a0e7978fb74022e1", "is_disabled": 0, "rental_uris": {"android": "https://dc.lft.to/lastmile_qr_scan", "ios": "https://dc.lft.to/lastmile_qr_scan"}, "fusion_lon": 0.0, "lat": 38.920643166666665, "bike_id": "f1a5f62b4b9f0b28a0e7978fb74022e1", "type": "electric_scooter", "is_reserved": 0, "lon": -77.02406}, {"fusion_lat": 0.0, "name": "618058f28318d6fb01d85f1c89e6c260", "is_disabled": 0, "rental_uris": {"android": "https://dc.lft.to/lastmile_qr_scan", "ios": "https://dc.lft.to/lastmile_qr_scan"}, "fusion_lon": 0.0, "lat": 38.915207, "bike_id": "618058f28318d6fb01d85f1c89e6c260", "type": "electric_scooter", "is_reserved": 0, "lon": -77.041534}, {"fusion_lat": 0.0, "name": "9818949dd859140a9ef2ca9768bb63c0", "is_disabled": 0, "rental_uris": {"android": "https://dc.lft.to/lastmile_qr_scan", "ios": "https://dc.lft.to/lastmile_qr_scan"}, "fusion_lon": 0.0, "lat": 38.88890966666666, "bike_id": "9818949dd859140a9ef2ca9768bb63c0", "type": "electric_bike", "is_reserved": 0, "lon": -77.11527166666667}, {"fusion_lat": 0.0, "name": "2105fb4ef0ac2c3db7bcdb81391f9955", "is_disabled": 0, "rental_uris": {"android": "https://dc.lft.to/lastmile_qr_scan", "ios": "https://dc.lft.to/lastmile_qr_scan"}, "fusion_lon": 0.0, "lat": 38.932379, "bike_id": "2105fb4ef0ac2c3db7bcdb81391f9955", "type": "electric_scooter", "is_reserved": 0, "lon": -77.04064016666666}, {"fusion_lat": 0.0, "name": "34530f16d04fc89eca408ab308b21d8d", "is_disabled": 0, "rental_uris": {"android": "https://dc.lft.to/lastmile_qr_scan", "ios": "https://dc.lft.to/lastmile_qr_scan"}, "fusion_lon": 0.0, "lat": 38.898539, "bike_id": "34530f16d04fc89eca408ab308b21d8d", "type": "electric_scooter", "is_reserved": 0, "lon": -76.99268916666666}, {"fusion_lat": 0.0, "name": "6b3b9ad219c0044d86205cb7eab409ef", "is_disabled": 0, "rental_uris": {"android": "https://dc.lft.to/lastmile_qr_scan", "ios": "https://dc.lft.to/lastmile_qr_scan"}, "fusion_lon": 0.0, "lat": 38.91813966666667, "bike_id": "6b3b9ad219c0044d86205cb7eab409ef", "type": "electric_scooter", "is_reserved": 0, "lon": -77.03085433333334}, {"fusion_lat": 0.0, "name": "006512a92eacb97a190e7dc84f21135e", "is_disabled": 0, "rental_uris": {"android": "https://dc.lft.to/lastmile_qr_scan", "ios": "https://dc.lft.to/lastmile_qr_scan"}, "fusion_lon": 0.0, "lat": 38.887182833333334, "bike_id": "006512a92eacb97a190e7dc84f21135e", "type": "electric_scooter", "is_reserved": 0, "lon": -77.0198305}, {"fusion_lat": 0.0, "name": "3a156f7595aba804e7e88def2197d9e5", "is_disabled": 0, "rental_uris": {"android": "https://dc.lft.to/lastmile_qr_scan", "ios": "https://dc.lft.to/lastmile_qr_scan"}, "fusion_lon": 0.0, "lat": 38.91390883333333, "bike_id": "3a156f7595aba804e7e88def2197d9e5", "type": "electric_scooter", "is_reserved": 0, "lon": -77.03185266666667}, {"fusion_lat": 0.0, "name": "aa9206f91744f034c7fbb3d9773bb10b", "is_disabled": 0, "rental_uris": {"android": "https://dc.lft.to/lastmile_qr_scan", "ios": "https://dc.lft.to/lastmile_qr_scan"}, "fusion_lon": 0.0, "lat": 38.88056683333333, "bike_id": "aa9206f91744f034c7fbb3d9773bb10b", "type": "electric_scooter", "is_reserved": 0, "lon": -76.93219216666667}, {"fusion_lat": 0.0, "name": "784eb9768b8a2361f7f9f0df94d8a757", "is_disabled": 0, "rental_uris": {"android": "https://dc.lft.to/lastmile_qr_scan", "ios": "https://dc.lft.to/lastmile_qr_scan"}, "fusion_lon": 0.0, "lat": 38.91257183333333, "bike_id": "784eb9768b8a2361f7f9f0df94d8a757", "type": "electric_scooter", "is_reserved": 0, "lon": -77.033325}, {"fusion_lat": 0.0, "name": "6b4919e1a68f0c89be65042ee00db286", "is_disabled": 0, "rental_uris": {"android": "https://dc.lft.to/lastmile_qr_scan", "ios": "https://dc.lft.to/lastmile_qr_scan"}, "fusion_lon": 0.0, "lat": 38.903540666666665, "bike_id": "6b4919e1a68f0c89be65042ee00db286", "type": "electric_scooter", "is_reserved": 0, "lon": -77.03294633333333}, {"fusion_lat": 0.0, "name": "5710776a2494c409b7833aea4454cf2e", "is_disabled": 0, "rental_uris": {"android": "https://dc.lft.to/lastmile_qr_scan", "ios": "https://dc.lft.to/lastmile_qr_scan"}, "fusion_lon": 0.0, "lat": 38.93489066666667, "bike_id": "5710776a2494c409b7833aea4454cf2e", "type": "electric_scooter", "is_reserved": 0, "lon": -77.03080266666667}, {"fusion_lat": 0.0, "name": "d9c3f94054b38e75e342f4bf0e2fbf1d", "is_disabled": 0, "rental_uris": {"android": "https://dc.lft.to/lastmile_qr_scan", "ios": "https://dc.lft.to/lastmile_qr_scan"}, "fusion_lon": 0.0, "lat": 38.89991166666667, "bike_id": "d9c3f94054b38e75e342f4bf0e2fbf1d", "type": "electric_scooter", "is_reserved": 0, "lon": -77.01629566666666}, {"fusion_lat": 0.0, "name": "ea73a4587b42fb7358eb84a03cec75c8", "is_disabled": 0, "rental_uris": {"android": "https://dc.lft.to/lastmile_qr_scan", "ios": "https://dc.lft.to/lastmile_qr_scan"}, "fusion_lon": 0.0, "lat": 38.925573, "bike_id": "ea73a4587b42fb7358eb84a03cec75c8", "type": "electric_scooter", "is_reserved": 0, "lon": -77.022836}, {"fusion_lat": 0.0, "name": "416de30500784719e152c0042dc2e445", "is_disabled": 0, "rental_uris": {"android": "https://dc.lft.to/lastmile_qr_scan", "ios": "https://dc.lft.to/lastmile_qr_scan"}, "fusion_lon": 0.0, "lat": 38.9157475, "bike_id": "416de30500784719e152c0042dc2e445", "type": "electric_scooter", "is_reserved": 0, "lon": -77.050032}, {"fusion_lat": 0.0, "name": "2439734572c5c369027ec61c4adf108e", "is_disabled": 0, "rental_uris": {"android": "https://dc.lft.to/lastmile_qr_scan", "ios": "https://dc.lft.to/lastmile_qr_scan"}, "fusion_lon": 0.0, "lat": 38.915453666666664, "bike_id": "2439734572c5c369027ec61c4adf108e", "type": "electric_scooter", "is_reserved": 0, "lon": -76.98359733333334}, {"fusion_lat": 0.0, "name": "eeda585883af9b39ccb33a1827bce7a3", "is_disabled": 0, "rental_uris": {"android": "https://dc.lft.to/lastmile_qr_scan", "ios": "https://dc.lft.to/lastmile_qr_scan"}, "fusion_lon": 0.0, "lat": 38.923184666666664, "bike_id": "eeda585883af9b39ccb33a1827bce7a3", "type": "electric_scooter", "is_reserved": 0, "lon": -77.02904}, {"fusion_lat": 0.0, "name": "2716a46faf7d262d78aedd6d6fae078b", "is_disabled": 0, "rental_uris": {"android": "https://dc.lft.to/lastmile_qr_scan", "ios": "https://dc.lft.to/lastmile_qr_scan"}, "fusion_lon": 0.0, "lat": 38.916631333333335, "bike_id": "2716a46faf7d262d78aedd6d6fae078b", "type": "electric_scooter", "is_reserved": 0, "lon": -77.02821333333333}, {"fusion_lat": 0.0, "name": "5f708dabf5ef11499222f1fee83e50dd", "is_disabled": 0, "rental_uris": {"android": "https://dc.lft.to/lastmile_qr_scan", "ios": "https://dc.lft.to/lastmile_qr_scan"}, "fusion_lon": 0.0, "lat": 38.886054666666666, "bike_id": "5f708dabf5ef11499222f1fee83e50dd", "type": "electric_scooter", "is_reserved": 0, "lon": -77.01912233333333}, {"fusion_lat": 0.0, "name": "18aa956456829c010acfab3d1c95e73f", "is_disabled": 0, "rental_uris": {"android": "https://dc.lft.to/lastmile_qr_scan", "ios": "https://dc.lft.to/lastmile_qr_scan"}, "fusion_lon": 0.0, "lat": 38.933131833333334, "bike_id": "18aa956456829c010acfab3d1c95e73f", "type": "electric_scooter", "is_reserved": 0, "lon": -77.02750183333333}, {"fusion_lat": 0.0, "name": "5b09d87fa7e92b1072b9b21370b87d92", "is_disabled": 0, "rental_uris": {"android": "https://dc.lft.to/lastmile_qr_scan", "ios": "https://dc.lft.to/lastmile_qr_scan"}, "fusion_lon": 0.0, "lat": 38.8960925, "bike_id": "5b09d87fa7e92b1072b9b21370b87d92", "type": "electric_scooter", "is_reserved": 0, "lon": -77.00931716666666}, {"fusion_lat": 0.0, "name": "fac503020b73650354b1a266b4f6796f", "is_disabled": 0, "rental_uris": {"android": "https://dc.lft.to/lastmile_qr_scan", "ios": "https://dc.lft.to/lastmile_qr_scan"}, "fusion_lon": 0.0, "lat": 38.9191955, "bike_id": "fac503020b73650354b1a266b4f6796f", "type": "electric_scooter", "is_reserved": 0, "lon": -77.00967466666667}, {"fusion_lat": 0.0, "name": "fc2325fbcb1c3e1b01f566a3723315a8", "is_disabled": 0, "rental_uris": {"android": "https://dc.lft.to/lastmile_qr_scan", "ios": "https://dc.lft.to/lastmile_qr_scan"}, "fusion_lon": 0.0, "lat": 38.915052833333334, "bike_id": "fc2325fbcb1c3e1b01f566a3723315a8", "type": "electric_scooter", "is_reserved": 0, "lon": -77.044876}, {"fusion_lat": 0.0, "name": "4b63d17b684080247cd998291989a950", "is_disabled": 0, "rental_uris": {"android": "https://dc.lft.to/lastmile_qr_scan", "ios": "https://dc.lft.to/lastmile_qr_scan"}, "fusion_lon": 0.0, "lat": 38.901964, "bike_id": "4b63d17b684080247cd998291989a950", "type": "electric_scooter", "is_reserved": 0, "lon": -76.97859566666666}, {"fusion_lat": 0.0, "name": "c94627454f406103448fd5b135656864", "is_disabled": 0, "rental_uris": {"android": "https://dc.lft.to/lastmile_qr_scan", "ios": "https://dc.lft.to/lastmile_qr_scan"}, "fusion_lon": 0.0, "lat": 38.90064783333333, "bike_id": "c94627454f406103448fd5b135656864", "type": "electric_scooter", "is_reserved": 0, "lon": -77.054257}, {"fusion_lat": 0.0, "name": "b0828d2ba433e58896c25612fe059b62", "is_disabled": 0, "rental_uris": {"android": "https://dc.lft.to/lastmile_qr_scan", "ios": "https://dc.lft.to/lastmile_qr_scan"}, "fusion_lon": 0.0, "lat": 38.928752, "bike_id": "b0828d2ba433e58896c25612fe059b62", "type": "electric_scooter", "is_reserved": 0, "lon": -77.01369783333334}, {"fusion_lat": 0.0, "name": "1ffeebb6da4909a07563737cacdd96a6", "is_disabled": 0, "rental_uris": {"android": "https://dc.lft.to/lastmile_qr_scan", "ios": "https://dc.lft.to/lastmile_qr_scan"}, "fusion_lon": 0.0, "lat": 38.92214283333333, "bike_id": "1ffeebb6da4909a07563737cacdd96a6", "type": "electric_scooter", "is_reserved": 0, "lon": -77.0182}, {"fusion_lat": 0.0, "name": "56b1741e88c8cf4bebfcc5df82e5c405", "is_disabled": 0, "rental_uris": {"android": "https://dc.lft.to/lastmile_qr_scan", "ios": "https://dc.lft.to/lastmile_qr_scan"}, "fusion_lon": 0.0, "lat": 38.88457116666667, "bike_id": "56b1741e88c8cf4bebfcc5df82e5c405", "type": "electric_scooter", "is_reserved": 0, "lon": -77.02585833333333}, {"fusion_lat": 0.0, "name": "b6f5900ecc12ea8aa77e3086a8563cc3", "is_disabled": 0, "rental_uris": {"android": "https://dc.lft.to/lastmile_qr_scan", "ios": "https://dc.lft.to/lastmile_qr_scan"}, "fusion_lon": 0.0, "lat": 38.88607783333333, "bike_id": "b6f5900ecc12ea8aa77e3086a8563cc3", "type": "electric_scooter", "is_reserved": 0, "lon": -77.01251233333333}, {"fusion_lat": 0.0, "name": "0dde55f3868b6b647f4e6c5aa1a7ab9e", "is_disabled": 0, "rental_uris": {"android": "https://dc.lft.to/lastmile_qr_scan", "ios": "https://dc.lft.to/lastmile_qr_scan"}, "fusion_lon": 0.0, "lat": 38.90518216666667, "bike_id": "0dde55f3868b6b647f4e6c5aa1a7ab9e", "type": "electric_scooter", "is_reserved": 0, "lon": -77.06884683333334}, {"fusion_lat": 0.0, "name": "b77a30934920891791ed1f38b8de70ee", "is_disabled": 0, "rental_uris": {"android": "https://dc.lft.to/lastmile_qr_scan", "ios": "https://dc.lft.to/lastmile_qr_scan"}, "fusion_lon": 0.0, "lat": 38.916987666666664, "bike_id": "b77a30934920891791ed1f38b8de70ee", "type": "electric_scooter", "is_reserved": 0, "lon": -77.02891266666667}, {"fusion_lat": 0.0, "name": "752414fbf60c0bec5fa971ba0ebef7db", "is_disabled": 0, "rental_uris": {"android": "https://dc.lft.to/lastmile_qr_scan", "ios": "https://dc.lft.to/lastmile_qr_scan"}, "fusion_lon": 0.0, "lat": 38.914047333333336, "bike_id": "752414fbf60c0bec5fa971ba0ebef7db", "type": "electric_scooter", "is_reserved": 0, "lon": -77.03222716666667}, {"fusion_lat": 0.0, "name": "8e98163a0054e01b9e608d7f3d328c43", "is_disabled": 0, "rental_uris": {"android": "https://dc.lft.to/lastmile_qr_scan", "ios": "https://dc.lft.to/lastmile_qr_scan"}, "fusion_lon": 0.0, "lat": 38.900342333333334, "bike_id": "8e98163a0054e01b9e608d7f3d328c43", "type": "electric_scooter", "is_reserved": 0, "lon": -77.01214566666667}, {"fusion_lat": 0.0, "name": "664f25e87977558da36ea8d7f542d015", "is_disabled": 0, "rental_uris": {"android": "https://dc.lft.to/lastmile_qr_scan", "ios": "https://dc.lft.to/lastmile_qr_scan"}, "fusion_lon": 0.0, "lat": 38.88461483333333, "bike_id": "664f25e87977558da36ea8d7f542d015", "type": "electric_scooter", "is_reserved": 0, "lon": -76.94985583333333}, {"fusion_lat": 0.0, "name": "49332ce50910f44d60eb308017f86660", "is_disabled": 0, "rental_uris": {"android": "https://dc.lft.to/lastmile_qr_scan", "ios": "https://dc.lft.to/lastmile_qr_scan"}, "fusion_lon": 0.0, "lat": 38.96123216666667, "bike_id": "49332ce50910f44d60eb308017f86660", "type": "electric_bike", "is_reserved": 0, "lon": -77.03277533333333}, {"fusion_lat": 0.0, "name": "2d5384c87490544b90c35f6f1d475302", "is_disabled": 0, "rental_uris": {"android": "https://dc.lft.to/lastmile_qr_scan", "ios": "https://dc.lft.to/lastmile_qr_scan"}, "fusion_lon": 0.0, "lat": 38.878587333333336, "bike_id": "2d5384c87490544b90c35f6f1d475302", "type": "electric_scooter", "is_reserved": 0, "lon": -77.022451}, {"fusion_lat": 0.0, "name": "a995dab17d239226c68a0b816c489be8", "is_disabled": 0, "rental_uris": {"android": "https://dc.lft.to/lastmile_qr_scan", "ios": "https://dc.lft.to/lastmile_qr_scan"}, "fusion_lon": 0.0, "lat": 38.9095925, "bike_id": "a995dab17d239226c68a0b816c489be8", "type": "electric_scooter", "is_reserved": 0, "lon": -77.04802933333333}, {"fusion_lat": 0.0, "name": "94e68be4bd12b812fefaf0f25a6dcd41", "is_disabled": 0, "rental_uris": {"android": "https://dc.lft.to/lastmile_qr_scan", "ios": "https://dc.lft.to/lastmile_qr_scan"}, "fusion_lon": 0.0, "lat": 38.899073, "bike_id": "94e68be4bd12b812fefaf0f25a6dcd41", "type": "electric_scooter", "is_reserved": 0, "lon": -77.03300933333334}, {"fusion_lat": 0.0, "name": "850365f0d18bdaf04fea1d5fc58f4688", "is_disabled": 0, "rental_uris": {"android": "https://dc.lft.to/lastmile_qr_scan", "ios": "https://dc.lft.to/lastmile_qr_scan"}, "fusion_lon": 0.0, "lat": 38.94633, "bike_id": "850365f0d18bdaf04fea1d5fc58f4688", "type": "electric_scooter", "is_reserved": 0, "lon": -77.09541483333334}, {"fusion_lat": 0.0, "name": "bbd98fcb30bd721c51cfbcbc6b62f588", "is_disabled": 0, "rental_uris": {"android": "https://dc.lft.to/lastmile_qr_scan", "ios": "https://dc.lft.to/lastmile_qr_scan"}, "fusion_lon": 0.0, "lat": 38.916276333333336, "bike_id": "bbd98fcb30bd721c51cfbcbc6b62f588", "type": "electric_scooter", "is_reserved": 0, "lon": -77.029672}, {"fusion_lat": 0.0, "name": "d5e99063be29a85257fc9f887edd9ca3", "is_disabled": 0, "rental_uris": {"android": "https://dc.lft.to/lastmile_qr_scan", "ios": "https://dc.lft.to/lastmile_qr_scan"}, "fusion_lon": 0.0, "lat": 38.90722866666667, "bike_id": "d5e99063be29a85257fc9f887edd9ca3", "type": "electric_scooter", "is_reserved": 0, "lon": -77.0454445}, {"fusion_lat": 0.0, "name": "5b9f1a6d317175312d95c8370899961d", "is_disabled": 0, "rental_uris": {"android": "https://dc.lft.to/lastmile_qr_scan", "ios": "https://dc.lft.to/lastmile_qr_scan"}, "fusion_lon": 0.0, "lat": 38.873709, "bike_id": "5b9f1a6d317175312d95c8370899961d", "type": "electric_scooter", "is_reserved": 0, "lon": -77.00083933333333}, {"fusion_lat": 0.0, "name": "296508e257d4bc0d8838f3be7c515030", "is_disabled": 0, "rental_uris": {"android": "https://dc.lft.to/lastmile_qr_scan", "ios": "https://dc.lft.to/lastmile_qr_scan"}, "fusion_lon": 0.0, "lat": 38.96131066666667, "bike_id": "296508e257d4bc0d8838f3be7c515030", "type": "electric_scooter", "is_reserved": 0, "lon": -77.02792}, {"fusion_lat": 0.0, "name": "5c3c352b9d4b7cb13a76e0ed0ff3b83c", "is_disabled": 0, "rental_uris": {"android": "https://dc.lft.to/lastmile_qr_scan", "ios": "https://dc.lft.to/lastmile_qr_scan"}, "fusion_lon": 0.0, "lat": 38.88470733333333, "bike_id": "5c3c352b9d4b7cb13a76e0ed0ff3b83c", "type": "electric_scooter", "is_reserved": 0, "lon": -76.92984433333334}, {"fusion_lat": 0.0, "name": "822da455778769c024603e234e7c7dec", "is_disabled": 0, "rental_uris": {"android": "https://dc.lft.to/lastmile_qr_scan", "ios": "https://dc.lft.to/lastmile_qr_scan"}, "fusion_lon": 0.0, "lat": 38.897764333333335, "bike_id": "822da455778769c024603e234e7c7dec", "type": "electric_scooter", "is_reserved": 0, "lon": -77.05659516666667}, {"fusion_lat": 0.0, "name": "11963ea2a08dffe1993fac7f8ed48d6f", "is_disabled": 0, "rental_uris": {"android": "https://dc.lft.to/lastmile_qr_scan", "ios": "https://dc.lft.to/lastmile_qr_scan"}, "fusion_lon": 0.0, "lat": 38.916120166666666, "bike_id": "11963ea2a08dffe1993fac7f8ed48d6f", "type": "electric_scooter", "is_reserved": 0, "lon": -77.03203883333333}, {"fusion_lat": 0.0, "name": "a0ef2833fef357517ab14e0cf3afffdf", "is_disabled": 0, "rental_uris": {"android": "https://dc.lft.to/lastmile_qr_scan", "ios": "https://dc.lft.to/lastmile_qr_scan"}, "fusion_lon": 0.0, "lat": 38.84130183333333, "bike_id": "a0ef2833fef357517ab14e0cf3afffdf", "type": "electric_bike", "is_reserved": 0, "lon": -77.06309483333334}, {"fusion_lat": 0.0, "name": "f88d540df12b48e7d4109ab32cc6729c", "is_disabled": 0, "rental_uris": {"android": "https://dc.lft.to/lastmile_qr_scan", "ios": "https://dc.lft.to/lastmile_qr_scan"}, "fusion_lon": 0.0, "lat": 38.9095165, "bike_id": "f88d540df12b48e7d4109ab32cc6729c", "type": "electric_scooter", "is_reserved": 0, "lon": -76.9854115}, {"fusion_lat": 0.0, "name": "36884fe19337d17173e971088b48a73c", "is_disabled": 0, "rental_uris": {"android": "https://dc.lft.to/lastmile_qr_scan", "ios": "https://dc.lft.to/lastmile_qr_scan"}, "fusion_lon": 0.0, "lat": 38.942916, "bike_id": "36884fe19337d17173e971088b48a73c", "type": "electric_scooter", "is_reserved": 0, "lon": -77.02173016666667}, {"fusion_lat": 0.0, "name": "96d2d0b8ee7d11498d8559b5f9ed135d", "is_disabled": 0, "rental_uris": {"android": "https://dc.lft.to/lastmile_qr_scan", "ios": "https://dc.lft.to/lastmile_qr_scan"}, "fusion_lon": 0.0, "lat": 38.881347166666664, "bike_id": "96d2d0b8ee7d11498d8559b5f9ed135d", "type": "electric_scooter", "is_reserved": 0, "lon": -77.02709583333333}, {"fusion_lat": 0.0, "name": "122f9833b63c5d97d75ad1e33453c5d3", "is_disabled": 0, "rental_uris": {"android": "https://dc.lft.to/lastmile_qr_scan", "ios": "https://dc.lft.to/lastmile_qr_scan"}, "fusion_lon": 0.0, "lat": 38.819373666666664, "bike_id": "122f9833b63c5d97d75ad1e33453c5d3", "type": "electric_bike", "is_reserved": 0, "lon": -77.00204016666666}, {"fusion_lat": 0.0, "name": "2109d14200de70182e1ea0732ad6dcf9", "is_disabled": 0, "rental_uris": {"android": "https://dc.lft.to/lastmile_qr_scan", "ios": "https://dc.lft.to/lastmile_qr_scan"}, "fusion_lon": 0.0, "lat": 38.9374905, "bike_id": "2109d14200de70182e1ea0732ad6dcf9", "type": "electric_scooter", "is_reserved": 0, "lon": -77.0252955}, {"fusion_lat": 0.0, "name": "b7b9e6edc188871c64fdf88c147ed076", "is_disabled": 0, "rental_uris": {"android": "https://dc.lft.to/lastmile_qr_scan", "ios": "https://dc.lft.to/lastmile_qr_scan"}, "fusion_lon": 0.0, "lat": 38.86351, "bike_id": "b7b9e6edc188871c64fdf88c147ed076", "type": "electric_bike", "is_reserved": 0, "lon": -77.07722716666666}, {"fusion_lat": 0.0, "name": "30f7fc95eff100d6fe66fe30e22130b3", "is_disabled": 0, "rental_uris": {"android": "https://dc.lft.to/lastmile_qr_scan", "ios": "https://dc.lft.to/lastmile_qr_scan"}, "fusion_lon": 0.0, "lat": 38.88963866666667, "bike_id": "30f7fc95eff100d6fe66fe30e22130b3", "type": "electric_scooter", "is_reserved": 0, "lon": -76.979702}, {"fusion_lat": 0.0, "name": "2dbf39ba2ec945ec54c708f8221806de", "is_disabled": 0, "rental_uris": {"android": "https://dc.lft.to/lastmile_qr_scan", "ios": "https://dc.lft.to/lastmile_qr_scan"}, "fusion_lon": 0.0, "lat": 38.892259, "bike_id": "2dbf39ba2ec945ec54c708f8221806de", "type": "electric_scooter", "is_reserved": 0, "lon": -77.00301933333333}, {"fusion_lat": 0.0, "name": "38429729042364e0a44d5561b923b981", "is_disabled": 0, "rental_uris": {"android": "https://dc.lft.to/lastmile_qr_scan", "ios": "https://dc.lft.to/lastmile_qr_scan"}, "fusion_lon": 0.0, "lat": 38.952958333333335, "bike_id": "38429729042364e0a44d5561b923b981", "type": "electric_bike", "is_reserved": 0, "lon": -76.999825}, {"fusion_lat": 0.0, "name": "701d495f9ec83d0eb2879ff8e2a72894", "is_disabled": 0, "rental_uris": {"android": "https://dc.lft.to/lastmile_qr_scan", "ios": "https://dc.lft.to/lastmile_qr_scan"}, "fusion_lon": 0.0, "lat": 38.90060166666667, "bike_id": "701d495f9ec83d0eb2879ff8e2a72894", "type": "electric_scooter", "is_reserved": 0, "lon": -77.04528166666667}, {"fusion_lat": 0.0, "name": "6f24275ea8c1ff2767930c8a63ff5ed4", "is_disabled": 0, "rental_uris": {"android": "https://dc.lft.to/lastmile_qr_scan", "ios": "https://dc.lft.to/lastmile_qr_scan"}, "fusion_lon": 0.0, "lat": 38.883939166666664, "bike_id": "6f24275ea8c1ff2767930c8a63ff5ed4", "type": "electric_scooter", "is_reserved": 0, "lon": -77.01922766666667}, {"fusion_lat": 0.0, "name": "fc80f6ae6aadafe2c6676e69857ed1a4", "is_disabled": 0, "rental_uris": {"android": "https://dc.lft.to/lastmile_qr_scan", "ios": "https://dc.lft.to/lastmile_qr_scan"}, "fusion_lon": 0.0, "lat": 38.8967055, "bike_id": "fc80f6ae6aadafe2c6676e69857ed1a4", "type": "electric_scooter", "is_reserved": 0, "lon": -77.0250175}, {"fusion_lat": 0.0, "name": "1c300c03be6af5dd0642fa794468cce8", "is_disabled": 0, "rental_uris": {"android": "https://dc.lft.to/lastmile_qr_scan", "ios": "https://dc.lft.to/lastmile_qr_scan"}, "fusion_lon": 0.0, "lat": 38.90016333333333, "bike_id": "1c300c03be6af5dd0642fa794468cce8", "type": "electric_scooter", "is_reserved": 0, "lon": -77.0112225}, {"fusion_lat": 0.0, "name": "76e833494b3861798b96024f75b4f6e7", "is_disabled": 0, "rental_uris": {"android": "https://dc.lft.to/lastmile_qr_scan", "ios": "https://dc.lft.to/lastmile_qr_scan"}, "fusion_lon": 0.0, "lat": 38.840843, "bike_id": "76e833494b3861798b96024f75b4f6e7", "type": "electric_bike", "is_reserved": 0, "lon": -76.9703215}, {"fusion_lat": 0.0, "name": "4128cf279e4e3eb6d44d0c183b522f93", "is_disabled": 0, "rental_uris": {"android": "https://dc.lft.to/lastmile_qr_scan", "ios": "https://dc.lft.to/lastmile_qr_scan"}, "fusion_lon": 0.0, "lat": 38.92009133333333, "bike_id": "4128cf279e4e3eb6d44d0c183b522f93", "type": "electric_scooter", "is_reserved": 0, "lon": -77.0712085}, {"fusion_lat": 0.0, "name": "4eabfb3b0425bcc981001c69ea1520e0", "is_disabled": 0, "rental_uris": {"android": "https://dc.lft.to/lastmile_qr_scan", "ios": "https://dc.lft.to/lastmile_qr_scan"}, "fusion_lon": 0.0, "lat": 38.91696783333333, "bike_id": "4eabfb3b0425bcc981001c69ea1520e0", "type": "electric_scooter", "is_reserved": 0, "lon": -77.040411}, {"fusion_lat": 0.0, "name": "d38ce42a67c515be328a9dadded9af07", "is_disabled": 0, "rental_uris": {"android": "https://dc.lft.to/lastmile_qr_scan", "ios": "https://dc.lft.to/lastmile_qr_scan"}, "fusion_lon": 0.0, "lat": 38.95524116666667, "bike_id": "d38ce42a67c515be328a9dadded9af07", "type": "electric_bike", "is_reserved": 0, "lon": -76.96821}, {"fusion_lat": 0.0, "name": "4d2238771d591d16fb429b671a038b0d", "is_disabled": 0, "rental_uris": {"android": "https://dc.lft.to/lastmile_qr_scan", "ios": "https://dc.lft.to/lastmile_qr_scan"}, "fusion_lon": 0.0, "lat": 38.903262, "bike_id": "4d2238771d591d16fb429b671a038b0d", "type": "electric_scooter", "is_reserved": 0, "lon": -77.04489416666667}, {"fusion_lat": 0.0, "name": "ca7f7e81a2a6e8af0d58aeb1157d1ef6", "is_disabled": 0, "rental_uris": {"android": "https://dc.lft.to/lastmile_qr_scan", "ios": "https://dc.lft.to/lastmile_qr_scan"}, "fusion_lon": 0.0, "lat": 38.907255, "bike_id": "ca7f7e81a2a6e8af0d58aeb1157d1ef6", "type": "electric_scooter", "is_reserved": 0, "lon": -77.0344005}, {"fusion_lat": 0.0, "name": "b99dbb1a6387cfce117d3af25361c10c", "is_disabled": 0, "rental_uris": {"android": "https://dc.lft.to/lastmile_qr_scan", "ios": "https://dc.lft.to/lastmile_qr_scan"}, "fusion_lon": 0.0, "lat": 38.92311083333333, "bike_id": "b99dbb1a6387cfce117d3af25361c10c", "type": "electric_scooter", "is_reserved": 0, "lon": -77.0532795}, {"fusion_lat": 0.0, "name": "83e703100bf24dc7c25619bdcf4685b7", "is_disabled": 0, "rental_uris": {"android": "https://dc.lft.to/lastmile_qr_scan", "ios": "https://dc.lft.to/lastmile_qr_scan"}, "fusion_lon": 0.0, "lat": 38.9008415, "bike_id": "83e703100bf24dc7c25619bdcf4685b7", "type": "electric_scooter", "is_reserved": 0, "lon": -77.0476695}, {"fusion_lat": 0.0, "name": "15148695dd4efd9b94a7fbc80e6fa862", "is_disabled": 0, "rental_uris": {"android": "https://dc.lft.to/lastmile_qr_scan", "ios": "https://dc.lft.to/lastmile_qr_scan"}, "fusion_lon": 0.0, "lat": 38.9383515, "bike_id": "15148695dd4efd9b94a7fbc80e6fa862", "type": "electric_scooter", "is_reserved": 0, "lon": -77.06244483333333}, {"fusion_lat": 0.0, "name": "6ec166b7a785856cc8fc3def9d848e5e", "is_disabled": 0, "rental_uris": {"android": "https://dc.lft.to/lastmile_qr_scan", "ios": "https://dc.lft.to/lastmile_qr_scan"}, "fusion_lon": 0.0, "lat": 38.93115683333333, "bike_id": "6ec166b7a785856cc8fc3def9d848e5e", "type": "electric_scooter", "is_reserved": 0, "lon": -77.02100533333333}, {"fusion_lat": 0.0, "name": "61372cd0d893382d2853fcb921cbe49a", "is_disabled": 0, "rental_uris": {"android": "https://dc.lft.to/lastmile_qr_scan", "ios": "https://dc.lft.to/lastmile_qr_scan"}, "fusion_lon": 0.0, "lat": 38.90638883333333, "bike_id": "61372cd0d893382d2853fcb921cbe49a", "type": "electric_scooter", "is_reserved": 0, "lon": -77.011433}, {"fusion_lat": 0.0, "name": "060f182f89c95e3737bd20148223755c", "is_disabled": 0, "rental_uris": {"android": "https://dc.lft.to/lastmile_qr_scan", "ios": "https://dc.lft.to/lastmile_qr_scan"}, "fusion_lon": 0.0, "lat": 38.9002255, "bike_id": "060f182f89c95e3737bd20148223755c", "type": "electric_scooter", "is_reserved": 0, "lon": -77.000342}, {"fusion_lat": 0.0, "name": "750ac3cf5124002e5ab461b619dc7810", "is_disabled": 0, "rental_uris": {"android": "https://dc.lft.to/lastmile_qr_scan", "ios": "https://dc.lft.to/lastmile_qr_scan"}, "fusion_lon": 0.0, "lat": 38.902968666666666, "bike_id": "750ac3cf5124002e5ab461b619dc7810", "type": "electric_scooter", "is_reserved": 0, "lon": -77.02701366666666}, {"fusion_lat": 0.0, "name": "25989143f0abaa661f6553c50e14f398", "is_disabled": 0, "rental_uris": {"android": "https://dc.lft.to/lastmile_qr_scan", "ios": "https://dc.lft.to/lastmile_qr_scan"}, "fusion_lon": 0.0, "lat": 38.90968316666667, "bike_id": "25989143f0abaa661f6553c50e14f398", "type": "electric_scooter", "is_reserved": 0, "lon": -77.03863716666666}, {"fusion_lat": 0.0, "name": "b441a452d8da32e40d24a9960f283497", "is_disabled": 0, "rental_uris": {"android": "https://dc.lft.to/lastmile_qr_scan", "ios": "https://dc.lft.to/lastmile_qr_scan"}, "fusion_lon": 0.0, "lat": 38.903842, "bike_id": "b441a452d8da32e40d24a9960f283497", "type": "electric_scooter", "is_reserved": 0, "lon": -77.067707}, {"fusion_lat": 0.0, "name": "0423d520eca0a154c75525afe4b9f667", "is_disabled": 0, "rental_uris": {"android": "https://dc.lft.to/lastmile_qr_scan", "ios": "https://dc.lft.to/lastmile_qr_scan"}, "fusion_lon": 0.0, "lat": 38.827912833333336, "bike_id": "0423d520eca0a154c75525afe4b9f667", "type": "electric_bike", "is_reserved": 0, "lon": -77.12485683333334}, {"fusion_lat": 0.0, "name": "e2343565819af1292def0d57d0321566", "is_disabled": 0, "rental_uris": {"android": "https://dc.lft.to/lastmile_qr_scan", "ios": "https://dc.lft.to/lastmile_qr_scan"}, "fusion_lon": 0.0, "lat": 38.920801166666664, "bike_id": "e2343565819af1292def0d57d0321566", "type": "electric_scooter", "is_reserved": 0, "lon": -77.02304383333333}, {"fusion_lat": 0.0, "name": "a809f2fd2c1f597c31c8332d5b58c87b", "is_disabled": 0, "rental_uris": {"android": "https://dc.lft.to/lastmile_qr_scan", "ios": "https://dc.lft.to/lastmile_qr_scan"}, "fusion_lon": 0.0, "lat": 38.885382166666666, "bike_id": "a809f2fd2c1f597c31c8332d5b58c87b", "type": "electric_scooter", "is_reserved": 0, "lon": -77.00053116666666}, {"fusion_lat": 0.0, "name": "dd90520f66dcdc597ffcbd5b396016d7", "is_disabled": 0, "rental_uris": {"android": "https://dc.lft.to/lastmile_qr_scan", "ios": "https://dc.lft.to/lastmile_qr_scan"}, "fusion_lon": 0.0, "lat": 38.90231466666667, "bike_id": "dd90520f66dcdc597ffcbd5b396016d7", "type": "electric_scooter", "is_reserved": 0, "lon": -77.03562966666667}, {"fusion_lat": 0.0, "name": "fa768ae489536f0c0d8d79f0bb3681b9", "is_disabled": 0, "rental_uris": {"android": "https://dc.lft.to/lastmile_qr_scan", "ios": "https://dc.lft.to/lastmile_qr_scan"}, "fusion_lon": 0.0, "lat": 38.89706416666667, "bike_id": "fa768ae489536f0c0d8d79f0bb3681b9", "type": "electric_scooter", "is_reserved": 0, "lon": -77.0234485}, {"fusion_lat": 0.0, "name": "59533e59f90caf1a9b549646752fcd32", "is_disabled": 0, "rental_uris": {"android": "https://dc.lft.to/lastmile_qr_scan", "ios": "https://dc.lft.to/lastmile_qr_scan"}, "fusion_lon": 0.0, "lat": 38.91711083333333, "bike_id": "59533e59f90caf1a9b549646752fcd32", "type": "electric_scooter", "is_reserved": 0, "lon": -77.02776116666666}, {"fusion_lat": 0.0, "name": "b297482eb57b63896a75c098fc0ff287", "is_disabled": 0, "rental_uris": {"android": "https://dc.lft.to/lastmile_qr_scan", "ios": "https://dc.lft.to/lastmile_qr_scan"}, "fusion_lon": 0.0, "lat": 38.89606966666667, "bike_id": "b297482eb57b63896a75c098fc0ff287", "type": "electric_scooter", "is_reserved": 0, "lon": -77.00928183333333}, {"fusion_lat": 0.0, "name": "bf4d0c6fbf28e8875eb608deaf09195f", "is_disabled": 0, "rental_uris": {"android": "https://dc.lft.to/lastmile_qr_scan", "ios": "https://dc.lft.to/lastmile_qr_scan"}, "fusion_lon": 0.0, "lat": 38.936306, "bike_id": "bf4d0c6fbf28e8875eb608deaf09195f", "type": "electric_scooter", "is_reserved": 0, "lon": -77.03653966666667}, {"fusion_lat": 0.0, "name": "d065e7021732fcde19c122983f564da8", "is_disabled": 0, "rental_uris": {"android": "https://dc.lft.to/lastmile_qr_scan", "ios": "https://dc.lft.to/lastmile_qr_scan"}, "fusion_lon": 0.0, "lat": 38.917549, "bike_id": "d065e7021732fcde19c122983f564da8", "type": "electric_scooter", "is_reserved": 0, "lon": -77.03075533333333}, {"fusion_lat": 0.0, "name": "c34260e480756226105b34f18c727319", "is_disabled": 0, "rental_uris": {"android": "https://dc.lft.to/lastmile_qr_scan", "ios": "https://dc.lft.to/lastmile_qr_scan"}, "fusion_lon": 0.0, "lat": 38.8596395, "bike_id": "c34260e480756226105b34f18c727319", "type": "electric_bike", "is_reserved": 0, "lon": -76.96630316666666}, {"fusion_lat": 0.0, "name": "69704e99c4eec5194759dba49d0ef4ae", "is_disabled": 0, "rental_uris": {"android": "https://dc.lft.to/lastmile_qr_scan", "ios": "https://dc.lft.to/lastmile_qr_scan"}, "fusion_lon": 0.0, "lat": 38.911087333333334, "bike_id": "69704e99c4eec5194759dba49d0ef4ae", "type": "electric_scooter", "is_reserved": 0, "lon": -77.08129466666666}, {"fusion_lat": 0.0, "name": "b36141dd4744b84afb78b054ec8c1d7e", "is_disabled": 0, "rental_uris": {"android": "https://dc.lft.to/lastmile_qr_scan", "ios": "https://dc.lft.to/lastmile_qr_scan"}, "fusion_lon": 0.0, "lat": 38.921412, "bike_id": "b36141dd4744b84afb78b054ec8c1d7e", "type": "electric_scooter", "is_reserved": 0, "lon": -77.01796566666667}, {"fusion_lat": 0.0, "name": "4d054e4d7b0cfee4921275272a587f01", "is_disabled": 0, "rental_uris": {"android": "https://dc.lft.to/lastmile_qr_scan", "ios": "https://dc.lft.to/lastmile_qr_scan"}, "fusion_lon": 0.0, "lat": 38.907645, "bike_id": "4d054e4d7b0cfee4921275272a587f01", "type": "electric_scooter", "is_reserved": 0, "lon": -77.05692583333334}, {"fusion_lat": 0.0, "name": "31f2fa343b6d5c909f90cf1733b56921", "is_disabled": 0, "rental_uris": {"android": "https://dc.lft.to/lastmile_qr_scan", "ios": "https://dc.lft.to/lastmile_qr_scan"}, "fusion_lon": 0.0, "lat": 38.93070133333333, "bike_id": "31f2fa343b6d5c909f90cf1733b56921", "type": "electric_scooter", "is_reserved": 0, "lon": -77.0217545}, {"fusion_lat": 0.0, "name": "4a4064ccc650b68b83419fbb0eae11f7", "is_disabled": 0, "rental_uris": {"android": "https://dc.lft.to/lastmile_qr_scan", "ios": "https://dc.lft.to/lastmile_qr_scan"}, "fusion_lon": 0.0, "lat": 38.902286, "bike_id": "4a4064ccc650b68b83419fbb0eae11f7", "type": "electric_scooter", "is_reserved": 0, "lon": -77.0591145}, {"fusion_lat": 0.0, "name": "174d2afe9900dca82fb27cede0fabd36", "is_disabled": 0, "rental_uris": {"android": "https://dc.lft.to/lastmile_qr_scan", "ios": "https://dc.lft.to/lastmile_qr_scan"}, "fusion_lon": 0.0, "lat": 38.917087333333335, "bike_id": "174d2afe9900dca82fb27cede0fabd36", "type": "electric_scooter", "is_reserved": 0, "lon": -77.0272165}, {"fusion_lat": 0.0, "name": "41c359ce191102e2c4dfcb2d62c6c007", "is_disabled": 0, "rental_uris": {"android": "https://dc.lft.to/lastmile_qr_scan", "ios": "https://dc.lft.to/lastmile_qr_scan"}, "fusion_lon": 0.0, "lat": 38.917816, "bike_id": "41c359ce191102e2c4dfcb2d62c6c007", "type": "electric_scooter", "is_reserved": 0, "lon": -77.02302866666666}, {"fusion_lat": 0.0, "name": "c55f01952b03c75612b1505edf8e896c", "is_disabled": 0, "rental_uris": {"android": "https://dc.lft.to/lastmile_qr_scan", "ios": "https://dc.lft.to/lastmile_qr_scan"}, "fusion_lon": 0.0, "lat": 38.9377155, "bike_id": "c55f01952b03c75612b1505edf8e896c", "type": "electric_scooter", "is_reserved": 0, "lon": -77.03284133333334}, {"fusion_lat": 0.0, "name": "323ca0732e1f43523b5cbe11f8da1509", "is_disabled": 0, "rental_uris": {"android": "https://dc.lft.to/lastmile_qr_scan", "ios": "https://dc.lft.to/lastmile_qr_scan"}, "fusion_lon": 0.0, "lat": 38.915542333333335, "bike_id": "323ca0732e1f43523b5cbe11f8da1509", "type": "electric_scooter", "is_reserved": 0, "lon": -77.00985516666667}, {"fusion_lat": 0.0, "name": "9bf4d0662ae3a1fe32cdbed67d414b38", "is_disabled": 0, "rental_uris": {"android": "https://dc.lft.to/lastmile_qr_scan", "ios": "https://dc.lft.to/lastmile_qr_scan"}, "fusion_lon": 0.0, "lat": 38.993815833333336, "bike_id": "9bf4d0662ae3a1fe32cdbed67d414b38", "type": "electric_bike", "is_reserved": 0, "lon": -77.03188866666666}, {"fusion_lat": 0.0, "name": "9d6cce1b61568ed842e8203b3a33bf70", "is_disabled": 0, "rental_uris": {"android": "https://dc.lft.to/lastmile_qr_scan", "ios": "https://dc.lft.to/lastmile_qr_scan"}, "fusion_lon": 0.0, "lat": 38.927645, "bike_id": "9d6cce1b61568ed842e8203b3a33bf70", "type": "electric_scooter", "is_reserved": 0, "lon": -77.02320183333333}, {"fusion_lat": 0.0, "name": "4b1ebb8d8270689a062606cf6510d55f", "is_disabled": 0, "rental_uris": {"android": "https://dc.lft.to/lastmile_qr_scan", "ios": "https://dc.lft.to/lastmile_qr_scan"}, "fusion_lon": 0.0, "lat": 38.900920166666666, "bike_id": "4b1ebb8d8270689a062606cf6510d55f", "type": "electric_scooter", "is_reserved": 0, "lon": -77.02298716666667}, {"fusion_lat": 0.0, "name": "efad8f1728a389d9c9748b279cb830fa", "is_disabled": 0, "rental_uris": {"android": "https://dc.lft.to/lastmile_qr_scan", "ios": "https://dc.lft.to/lastmile_qr_scan"}, "fusion_lon": 0.0, "lat": 38.957106833333334, "bike_id": "efad8f1728a389d9c9748b279cb830fa", "type": "electric_scooter", "is_reserved": 0, "lon": -77.02399016666666}, {"fusion_lat": 0.0, "name": "552ac5614a0a4cbb3b73ce62f273e044", "is_disabled": 0, "rental_uris": {"android": "https://dc.lft.to/lastmile_qr_scan", "ios": "https://dc.lft.to/lastmile_qr_scan"}, "fusion_lon": 0.0, "lat": 38.91430583333333, "bike_id": "552ac5614a0a4cbb3b73ce62f273e044", "type": "electric_scooter", "is_reserved": 0, "lon": -77.0221195}, {"fusion_lat": 0.0, "name": "91287d6a8ecd536301ffa862510ae5cd", "is_disabled": 0, "rental_uris": {"android": "https://dc.lft.to/lastmile_qr_scan", "ios": "https://dc.lft.to/lastmile_qr_scan"}, "fusion_lon": 0.0, "lat": 38.8847505, "bike_id": "91287d6a8ecd536301ffa862510ae5cd", "type": "electric_scooter", "is_reserved": 0, "lon": -76.92984933333334}, {"fusion_lat": 0.0, "name": "f58edf831331c705a46fb03434ca07cb", "is_disabled": 0, "rental_uris": {"android": "https://dc.lft.to/lastmile_qr_scan", "ios": "https://dc.lft.to/lastmile_qr_scan"}, "fusion_lon": 0.0, "lat": 38.94698283333334, "bike_id": "f58edf831331c705a46fb03434ca07cb", "type": "electric_scooter", "is_reserved": 0, "lon": -77.01943533333333}, {"fusion_lat": 0.0, "name": "e98aa10e9772d57f482c45172c5155ac", "is_disabled": 0, "rental_uris": {"android": "https://dc.lft.to/lastmile_qr_scan", "ios": "https://dc.lft.to/lastmile_qr_scan"}, "fusion_lon": 0.0, "lat": 38.91605783333333, "bike_id": "e98aa10e9772d57f482c45172c5155ac", "type": "electric_scooter", "is_reserved": 0, "lon": -77.0433265}, {"fusion_lat": 0.0, "name": "c7995108599d545a3b12453a4cda13f1", "is_disabled": 0, "rental_uris": {"android": "https://dc.lft.to/lastmile_qr_scan", "ios": "https://dc.lft.to/lastmile_qr_scan"}, "fusion_lon": 0.0, "lat": 38.88458333333333, "bike_id": "c7995108599d545a3b12453a4cda13f1", "type": "electric_scooter", "is_reserved": 0, "lon": -76.99833633333333}, {"fusion_lat": 0.0, "name": "04fcbb5c087fe34a15ce9ceaf7b7e90c", "is_disabled": 0, "rental_uris": {"android": "https://dc.lft.to/lastmile_qr_scan", "ios": "https://dc.lft.to/lastmile_qr_scan"}, "fusion_lon": 0.0, "lat": 38.9319175, "bike_id": "04fcbb5c087fe34a15ce9ceaf7b7e90c", "type": "electric_scooter", "is_reserved": 0, "lon": -77.04302216666666}, {"fusion_lat": 0.0, "name": "a452bd1463525655b1a3186cdf539bf1", "is_disabled": 0, "rental_uris": {"android": "https://dc.lft.to/lastmile_qr_scan", "ios": "https://dc.lft.to/lastmile_qr_scan"}, "fusion_lon": 0.0, "lat": 38.91120683333333, "bike_id": "a452bd1463525655b1a3186cdf539bf1", "type": "electric_scooter", "is_reserved": 0, "lon": -77.021012}, {"fusion_lat": 0.0, "name": "0da8ab5dd5ed68290e0e6ec5fd49b133", "is_disabled": 0, "rental_uris": {"android": "https://dc.lft.to/lastmile_qr_scan", "ios": "https://dc.lft.to/lastmile_qr_scan"}, "fusion_lon": 0.0, "lat": 38.9096625, "bike_id": "0da8ab5dd5ed68290e0e6ec5fd49b133", "type": "electric_scooter", "is_reserved": 0, "lon": -77.00909333333334}, {"fusion_lat": 0.0, "name": "56392bb26cd4c56fb54a6d855d42ed7a", "is_disabled": 0, "rental_uris": {"android": "https://dc.lft.to/lastmile_qr_scan", "ios": "https://dc.lft.to/lastmile_qr_scan"}, "fusion_lon": 0.0, "lat": 38.896647333333334, "bike_id": "56392bb26cd4c56fb54a6d855d42ed7a", "type": "electric_scooter", "is_reserved": 0, "lon": -77.04890283333333}, {"fusion_lat": 0.0, "name": "e806ab965aaa143e60e0b276ee88af76", "is_disabled": 0, "rental_uris": {"android": "https://dc.lft.to/lastmile_qr_scan", "ios": "https://dc.lft.to/lastmile_qr_scan"}, "fusion_lon": 0.0, "lat": 38.905708833333335, "bike_id": "e806ab965aaa143e60e0b276ee88af76", "type": "electric_scooter", "is_reserved": 0, "lon": -77.00902316666667}, {"fusion_lat": 0.0, "name": "8f7d7bbbc508712835402ae8d5399dad", "is_disabled": 0, "rental_uris": {"android": "https://dc.lft.to/lastmile_qr_scan", "ios": "https://dc.lft.to/lastmile_qr_scan"}, "fusion_lon": 0.0, "lat": 38.921627666666666, "bike_id": "8f7d7bbbc508712835402ae8d5399dad", "type": "electric_scooter", "is_reserved": 0, "lon": -77.03846433333334}, {"fusion_lat": 0.0, "name": "e7cbd0da7a691053534580a8af2a2ba9", "is_disabled": 0, "rental_uris": {"android": "https://dc.lft.to/lastmile_qr_scan", "ios": "https://dc.lft.to/lastmile_qr_scan"}, "fusion_lon": 0.0, "lat": 38.9003775, "bike_id": "e7cbd0da7a691053534580a8af2a2ba9", "type": "electric_scooter", "is_reserved": 0, "lon": -77.01230516666666}, {"fusion_lat": 0.0, "name": "4e87a5d61553d1087ae323cf38c03491", "is_disabled": 0, "rental_uris": {"android": "https://dc.lft.to/lastmile_qr_scan", "ios": "https://dc.lft.to/lastmile_qr_scan"}, "fusion_lon": 0.0, "lat": 38.83929333333333, "bike_id": "4e87a5d61553d1087ae323cf38c03491", "type": "electric_bike", "is_reserved": 0, "lon": -77.07898116666667}, {"fusion_lat": 0.0, "name": "4d769c5d90a1b93283de346b295ce879", "is_disabled": 0, "rental_uris": {"android": "https://dc.lft.to/lastmile_qr_scan", "ios": "https://dc.lft.to/lastmile_qr_scan"}, "fusion_lon": 0.0, "lat": 38.928676333333335, "bike_id": "4d769c5d90a1b93283de346b295ce879", "type": "electric_scooter", "is_reserved": 0, "lon": -77.033458}, {"fusion_lat": 0.0, "name": "546fece15c3edbb88919ac8053ae42c9", "is_disabled": 0, "rental_uris": {"android": "https://dc.lft.to/lastmile_qr_scan", "ios": "https://dc.lft.to/lastmile_qr_scan"}, "fusion_lon": 0.0, "lat": 38.941318333333335, "bike_id": "546fece15c3edbb88919ac8053ae42c9", "type": "electric_scooter", "is_reserved": 0, "lon": -77.00610683333333}, {"fusion_lat": 0.0, "name": "2d99fa6d2874abacd3e7bd1c866cfb2e", "is_disabled": 0, "rental_uris": {"android": "https://dc.lft.to/lastmile_qr_scan", "ios": "https://dc.lft.to/lastmile_qr_scan"}, "fusion_lon": 0.0, "lat": 38.876672, "bike_id": "2d99fa6d2874abacd3e7bd1c866cfb2e", "type": "electric_scooter", "is_reserved": 0, "lon": -77.00671666666666}, {"fusion_lat": 0.0, "name": "9dc51afabb7d1b6e077db28f6f08c5fc", "is_disabled": 0, "rental_uris": {"android": "https://dc.lft.to/lastmile_qr_scan", "ios": "https://dc.lft.to/lastmile_qr_scan"}, "fusion_lon": 0.0, "lat": 38.87249283333333, "bike_id": "9dc51afabb7d1b6e077db28f6f08c5fc", "type": "electric_scooter", "is_reserved": 0, "lon": -76.97722933333333}, {"fusion_lat": 0.0, "name": "6115e9478ca555598132a5abacc24d41", "is_disabled": 0, "rental_uris": {"android": "https://dc.lft.to/lastmile_qr_scan", "ios": "https://dc.lft.to/lastmile_qr_scan"}, "fusion_lon": 0.0, "lat": 38.90240766666667, "bike_id": "6115e9478ca555598132a5abacc24d41", "type": "electric_scooter", "is_reserved": 0, "lon": -77.04563783333333}, {"fusion_lat": 0.0, "name": "98cca9d22029bbaa0c9eb7c64b05e396", "is_disabled": 0, "rental_uris": {"android": "https://dc.lft.to/lastmile_qr_scan", "ios": "https://dc.lft.to/lastmile_qr_scan"}, "fusion_lon": 0.0, "lat": 38.87815666666667, "bike_id": "98cca9d22029bbaa0c9eb7c64b05e396", "type": "electric_scooter", "is_reserved": 0, "lon": -77.01322866666666}, {"fusion_lat": 0.0, "name": "8de61c6d168f2a8bcf2d218396d5a911", "is_disabled": 0, "rental_uris": {"android": "https://dc.lft.to/lastmile_qr_scan", "ios": "https://dc.lft.to/lastmile_qr_scan"}, "fusion_lon": 0.0, "lat": 38.874598166666665, "bike_id": "8de61c6d168f2a8bcf2d218396d5a911", "type": "electric_scooter", "is_reserved": 0, "lon": -77.009663}, {"fusion_lat": 0.0, "name": "6683ff9b172b5056c44b3a337570479f", "is_disabled": 0, "rental_uris": {"android": "https://dc.lft.to/lastmile_qr_scan", "ios": "https://dc.lft.to/lastmile_qr_scan"}, "fusion_lon": 0.0, "lat": 38.91425, "bike_id": "6683ff9b172b5056c44b3a337570479f", "type": "electric_scooter", "is_reserved": 0, "lon": -77.06418883333333}, {"fusion_lat": 0.0, "name": "2e3e590e24f2ff360b4de64a071877ea", "is_disabled": 0, "rental_uris": {"android": "https://dc.lft.to/lastmile_qr_scan", "ios": "https://dc.lft.to/lastmile_qr_scan"}, "fusion_lon": 0.0, "lat": 38.934780333333336, "bike_id": "2e3e590e24f2ff360b4de64a071877ea", "type": "electric_scooter", "is_reserved": 0, "lon": -77.02841916666667}, {"fusion_lat": 0.0, "name": "72fd3057d1ace8feb9b26c590c7ffe0c", "is_disabled": 0, "rental_uris": {"android": "https://dc.lft.to/lastmile_qr_scan", "ios": "https://dc.lft.to/lastmile_qr_scan"}, "fusion_lon": 0.0, "lat": 38.8987415, "bike_id": "72fd3057d1ace8feb9b26c590c7ffe0c", "type": "electric_scooter", "is_reserved": 0, "lon": -76.93184866666667}, {"fusion_lat": 0.0, "name": "2a7353b665f802651ffffcb65f2f5ebf", "is_disabled": 0, "rental_uris": {"android": "https://dc.lft.to/lastmile_qr_scan", "ios": "https://dc.lft.to/lastmile_qr_scan"}, "fusion_lon": 0.0, "lat": 38.900427666666666, "bike_id": "2a7353b665f802651ffffcb65f2f5ebf", "type": "electric_scooter", "is_reserved": 0, "lon": -77.035048}, {"fusion_lat": 0.0, "name": "11f1a40df5711b44477822b8a5ceb226", "is_disabled": 0, "rental_uris": {"android": "https://dc.lft.to/lastmile_qr_scan", "ios": "https://dc.lft.to/lastmile_qr_scan"}, "fusion_lon": 0.0, "lat": 38.929831, "bike_id": "11f1a40df5711b44477822b8a5ceb226", "type": "electric_scooter", "is_reserved": 0, "lon": -77.036587}, {"fusion_lat": 0.0, "name": "4ebfb2d744e4d58b25667dda2fcdb4bb", "is_disabled": 0, "rental_uris": {"android": "https://dc.lft.to/lastmile_qr_scan", "ios": "https://dc.lft.to/lastmile_qr_scan"}, "fusion_lon": 0.0, "lat": 38.8789825, "bike_id": "4ebfb2d744e4d58b25667dda2fcdb4bb", "type": "electric_scooter", "is_reserved": 0, "lon": -77.00577816666667}, {"fusion_lat": 0.0, "name": "11017e431f52437de1b563429bee7c99", "is_disabled": 0, "rental_uris": {"android": "https://dc.lft.to/lastmile_qr_scan", "ios": "https://dc.lft.to/lastmile_qr_scan"}, "fusion_lon": 0.0, "lat": 38.962214, "bike_id": "11017e431f52437de1b563429bee7c99", "type": "electric_bike", "is_reserved": 0, "lon": -77.02627566666666}, {"fusion_lat": 0.0, "name": "cf7b04650e3f1d641488b7eaceefb4ca", "is_disabled": 0, "rental_uris": {"android": "https://dc.lft.to/lastmile_qr_scan", "ios": "https://dc.lft.to/lastmile_qr_scan"}, "fusion_lon": 0.0, "lat": 38.91417466666667, "bike_id": "cf7b04650e3f1d641488b7eaceefb4ca", "type": "electric_scooter", "is_reserved": 0, "lon": -77.0317705}, {"fusion_lat": 0.0, "name": "52883723a1e38d2267ae9f6673602d33", "is_disabled": 0, "rental_uris": {"android": "https://dc.lft.to/lastmile_qr_scan", "ios": "https://dc.lft.to/lastmile_qr_scan"}, "fusion_lon": 0.0, "lat": 38.884419666666666, "bike_id": "52883723a1e38d2267ae9f6673602d33", "type": "electric_scooter", "is_reserved": 0, "lon": -76.98592666666667}, {"fusion_lat": 0.0, "name": "4f69c7d76b7cf6361c019b509912d748", "is_disabled": 0, "rental_uris": {"android": "https://dc.lft.to/lastmile_qr_scan", "ios": "https://dc.lft.to/lastmile_qr_scan"}, "fusion_lon": 0.0, "lat": 38.88230866666667, "bike_id": "4f69c7d76b7cf6361c019b509912d748", "type": "electric_scooter", "is_reserved": 0, "lon": -77.0261645}, {"fusion_lat": 0.0, "name": "244e4994de972d539529540db3de0972", "is_disabled": 0, "rental_uris": {"android": "https://dc.lft.to/lastmile_qr_scan", "ios": "https://dc.lft.to/lastmile_qr_scan"}, "fusion_lon": 0.0, "lat": 38.920543, "bike_id": "244e4994de972d539529540db3de0972", "type": "electric_scooter", "is_reserved": 0, "lon": -77.02369566666667}, {"fusion_lat": 0.0, "name": "2310d2355ab37da8f538d2a47788e55b", "is_disabled": 0, "rental_uris": {"android": "https://dc.lft.to/lastmile_qr_scan", "ios": "https://dc.lft.to/lastmile_qr_scan"}, "fusion_lon": 0.0, "lat": 38.90900533333333, "bike_id": "2310d2355ab37da8f538d2a47788e55b", "type": "electric_scooter", "is_reserved": 0, "lon": -77.04488483333333}, {"fusion_lat": 0.0, "name": "8bb01cf30f0d43577b96d2fcf38d2a12", "is_disabled": 0, "rental_uris": {"android": "https://dc.lft.to/lastmile_qr_scan", "ios": "https://dc.lft.to/lastmile_qr_scan"}, "fusion_lon": 0.0, "lat": 38.8838975, "bike_id": "8bb01cf30f0d43577b96d2fcf38d2a12", "type": "electric_scooter", "is_reserved": 0, "lon": -76.9305175}, {"fusion_lat": 0.0, "name": "7a198d42c48b74320e80b309c5513c91", "is_disabled": 0, "rental_uris": {"android": "https://dc.lft.to/lastmile_qr_scan", "ios": "https://dc.lft.to/lastmile_qr_scan"}, "fusion_lon": 0.0, "lat": 38.90389483333333, "bike_id": "7a198d42c48b74320e80b309c5513c91", "type": "electric_scooter", "is_reserved": 0, "lon": -77.06716766666666}, {"fusion_lat": 0.0, "name": "0b3cabddfc0105ba4a8fbfc81b27cab3", "is_disabled": 0, "rental_uris": {"android": "https://dc.lft.to/lastmile_qr_scan", "ios": "https://dc.lft.to/lastmile_qr_scan"}, "fusion_lon": 0.0, "lat": 38.915229833333335, "bike_id": "0b3cabddfc0105ba4a8fbfc81b27cab3", "type": "electric_scooter", "is_reserved": 0, "lon": -77.03186233333334}, {"fusion_lat": 0.0, "name": "f009f72f27434cc17818643cdb282516", "is_disabled": 0, "rental_uris": {"android": "https://dc.lft.to/lastmile_qr_scan", "ios": "https://dc.lft.to/lastmile_qr_scan"}, "fusion_lon": 0.0, "lat": 38.89837816666667, "bike_id": "f009f72f27434cc17818643cdb282516", "type": "electric_scooter", "is_reserved": 0, "lon": -77.02974766666667}, {"fusion_lat": 0.0, "name": "18eea99d3c66a37dc19293f474f6565c", "is_disabled": 0, "rental_uris": {"android": "https://dc.lft.to/lastmile_qr_scan", "ios": "https://dc.lft.to/lastmile_qr_scan"}, "fusion_lon": 0.0, "lat": 38.9042055, "bike_id": "18eea99d3c66a37dc19293f474f6565c", "type": "electric_scooter", "is_reserved": 0, "lon": -77.05318483333333}, {"fusion_lat": 0.0, "name": "561b10b013ab78d0cf9dd1b6d1cd32dc", "is_disabled": 0, "rental_uris": {"android": "https://dc.lft.to/lastmile_qr_scan", "ios": "https://dc.lft.to/lastmile_qr_scan"}, "fusion_lon": 0.0, "lat": 38.958884833333336, "bike_id": "561b10b013ab78d0cf9dd1b6d1cd32dc", "type": "electric_scooter", "is_reserved": 0, "lon": -77.02781316666666}, {"fusion_lat": 0.0, "name": "670fc233bfa2a17ca87fa328647a93b6", "is_disabled": 0, "rental_uris": {"android": "https://dc.lft.to/lastmile_qr_scan", "ios": "https://dc.lft.to/lastmile_qr_scan"}, "fusion_lon": 0.0, "lat": 38.915465, "bike_id": "670fc233bfa2a17ca87fa328647a93b6", "type": "electric_scooter", "is_reserved": 0, "lon": -77.03475683333333}, {"fusion_lat": 0.0, "name": "c280551d8059331b9020b66144bcd9f9", "is_disabled": 0, "rental_uris": {"android": "https://dc.lft.to/lastmile_qr_scan", "ios": "https://dc.lft.to/lastmile_qr_scan"}, "fusion_lon": 0.0, "lat": 38.866292666666666, "bike_id": "c280551d8059331b9020b66144bcd9f9", "type": "electric_scooter", "is_reserved": 0, "lon": -76.98716733333333}, {"fusion_lat": 0.0, "name": "cbd89e9fba96402f5d28baadf2a45c1d", "is_disabled": 0, "rental_uris": {"android": "https://dc.lft.to/lastmile_qr_scan", "ios": "https://dc.lft.to/lastmile_qr_scan"}, "fusion_lon": 0.0, "lat": 38.95052166666667, "bike_id": "cbd89e9fba96402f5d28baadf2a45c1d", "type": "electric_scooter", "is_reserved": 0, "lon": -77.08028566666667}, {"fusion_lat": 0.0, "name": "30aadaa011d27d6c5f032a09219b0e74", "is_disabled": 0, "rental_uris": {"android": "https://dc.lft.to/lastmile_qr_scan", "ios": "https://dc.lft.to/lastmile_qr_scan"}, "fusion_lon": 0.0, "lat": 38.87639633333333, "bike_id": "30aadaa011d27d6c5f032a09219b0e74", "type": "electric_scooter", "is_reserved": 0, "lon": -77.00657833333334}, {"fusion_lat": 0.0, "name": "ad817a7bf15efa958736f541e2b3c9a5", "is_disabled": 0, "rental_uris": {"android": "https://dc.lft.to/lastmile_qr_scan", "ios": "https://dc.lft.to/lastmile_qr_scan"}, "fusion_lon": 0.0, "lat": 38.956273, "bike_id": "ad817a7bf15efa958736f541e2b3c9a5", "type": "electric_scooter", "is_reserved": 0, "lon": -77.03287366666666}, {"fusion_lat": 0.0, "name": "8789ced2dd9587662f28e31ee8e22a09", "is_disabled": 0, "rental_uris": {"android": "https://dc.lft.to/lastmile_qr_scan", "ios": "https://dc.lft.to/lastmile_qr_scan"}, "fusion_lon": 0.0, "lat": 38.921549166666665, "bike_id": "8789ced2dd9587662f28e31ee8e22a09", "type": "electric_scooter", "is_reserved": 0, "lon": -77.03666416666667}, {"fusion_lat": 0.0, "name": "7b27cfd6f6470ff73e5c1427e64ebe23", "is_disabled": 0, "rental_uris": {"android": "https://dc.lft.to/lastmile_qr_scan", "ios": "https://dc.lft.to/lastmile_qr_scan"}, "fusion_lon": 0.0, "lat": 38.932331166666664, "bike_id": "7b27cfd6f6470ff73e5c1427e64ebe23", "type": "electric_bike", "is_reserved": 0, "lon": -76.97423116666667}, {"fusion_lat": 0.0, "name": "b6da2a391bd6765665247349cd364e40", "is_disabled": 0, "rental_uris": {"android": "https://dc.lft.to/lastmile_qr_scan", "ios": "https://dc.lft.to/lastmile_qr_scan"}, "fusion_lon": 0.0, "lat": 38.951085, "bike_id": "b6da2a391bd6765665247349cd364e40", "type": "electric_scooter", "is_reserved": 0, "lon": -77.05864483333333}, {"fusion_lat": 0.0, "name": "0f0d32f51ba803871a6c3a96bcac3896", "is_disabled": 0, "rental_uris": {"android": "https://dc.lft.to/lastmile_qr_scan", "ios": "https://dc.lft.to/lastmile_qr_scan"}, "fusion_lon": 0.0, "lat": 38.81985366666667, "bike_id": "0f0d32f51ba803871a6c3a96bcac3896", "type": "electric_bike", "is_reserved": 0, "lon": -76.99761983333333}, {"fusion_lat": 0.0, "name": "c53d2a1bd27d57de8e369f3cf6a9cf88", "is_disabled": 0, "rental_uris": {"android": "https://dc.lft.to/lastmile_qr_scan", "ios": "https://dc.lft.to/lastmile_qr_scan"}, "fusion_lon": 0.0, "lat": 38.91981916666667, "bike_id": "c53d2a1bd27d57de8e369f3cf6a9cf88", "type": "electric_scooter", "is_reserved": 0, "lon": -77.033196}, {"fusion_lat": 0.0, "name": "a33a312b711234f4f2423da2e732215a", "is_disabled": 0, "rental_uris": {"android": "https://dc.lft.to/lastmile_qr_scan", "ios": "https://dc.lft.to/lastmile_qr_scan"}, "fusion_lon": 0.0, "lat": 38.92697416666667, "bike_id": "a33a312b711234f4f2423da2e732215a", "type": "electric_scooter", "is_reserved": 0, "lon": -77.024243}, {"fusion_lat": 0.0, "name": "ebcf006e2083ff61f919659c71cbddc5", "is_disabled": 0, "rental_uris": {"android": "https://dc.lft.to/lastmile_qr_scan", "ios": "https://dc.lft.to/lastmile_qr_scan"}, "fusion_lon": 0.0, "lat": 38.90005, "bike_id": "ebcf006e2083ff61f919659c71cbddc5", "type": "electric_scooter", "is_reserved": 0, "lon": -77.04523433333334}, {"fusion_lat": 0.0, "name": "d99a293f7ef38c62ca7823411376741e", "is_disabled": 0, "rental_uris": {"android": "https://dc.lft.to/lastmile_qr_scan", "ios": "https://dc.lft.to/lastmile_qr_scan"}, "fusion_lon": 0.0, "lat": 38.9587175, "bike_id": "d99a293f7ef38c62ca7823411376741e", "type": "electric_bike", "is_reserved": 0, "lon": -76.97056166666667}, {"fusion_lat": 0.0, "name": "76b05031a9f886ae223e700429ddceb5", "is_disabled": 0, "rental_uris": {"android": "https://dc.lft.to/lastmile_qr_scan", "ios": "https://dc.lft.to/lastmile_qr_scan"}, "fusion_lon": 0.0, "lat": 38.95633683333333, "bike_id": "76b05031a9f886ae223e700429ddceb5", "type": "electric_scooter", "is_reserved": 0, "lon": -77.0330355}, {"fusion_lat": 0.0, "name": "8e747b93ef0a3223b3cf5c56471ed3f4", "is_disabled": 0, "rental_uris": {"android": "https://dc.lft.to/lastmile_qr_scan", "ios": "https://dc.lft.to/lastmile_qr_scan"}, "fusion_lon": 0.0, "lat": 38.944409666666665, "bike_id": "8e747b93ef0a3223b3cf5c56471ed3f4", "type": "electric_bike", "is_reserved": 0, "lon": -77.07763216666666}, {"fusion_lat": 0.0, "name": "9137808fd5f3007993b2dc03ea337dde", "is_disabled": 0, "rental_uris": {"android": "https://dc.lft.to/lastmile_qr_scan", "ios": "https://dc.lft.to/lastmile_qr_scan"}, "fusion_lon": 0.0, "lat": 38.89960466666667, "bike_id": "9137808fd5f3007993b2dc03ea337dde", "type": "electric_scooter", "is_reserved": 0, "lon": -77.015066}, {"fusion_lat": 0.0, "name": "12e16d71f106d58c89b8f02fd03ce77b", "is_disabled": 0, "rental_uris": {"android": "https://dc.lft.to/lastmile_qr_scan", "ios": "https://dc.lft.to/lastmile_qr_scan"}, "fusion_lon": 0.0, "lat": 38.925073166666664, "bike_id": "12e16d71f106d58c89b8f02fd03ce77b", "type": "electric_scooter", "is_reserved": 0, "lon": -77.02320016666667}, {"fusion_lat": 0.0, "name": "714e3e8ebd100a289eba049722458b48", "is_disabled": 0, "rental_uris": {"android": "https://dc.lft.to/lastmile_qr_scan", "ios": "https://dc.lft.to/lastmile_qr_scan"}, "fusion_lon": 0.0, "lat": 38.90107883333334, "bike_id": "714e3e8ebd100a289eba049722458b48", "type": "electric_scooter", "is_reserved": 0, "lon": -77.03194866666666}, {"fusion_lat": 0.0, "name": "333b98d38e6d67a818ffc47b9255bf34", "is_disabled": 0, "rental_uris": {"android": "https://dc.lft.to/lastmile_qr_scan", "ios": "https://dc.lft.to/lastmile_qr_scan"}, "fusion_lon": 0.0, "lat": 38.92977466666667, "bike_id": "333b98d38e6d67a818ffc47b9255bf34", "type": "electric_scooter", "is_reserved": 0, "lon": -77.02526966666667}, {"fusion_lat": 0.0, "name": "51291dbcffb1631dddcc036b6fa2cf28", "is_disabled": 0, "rental_uris": {"android": "https://dc.lft.to/lastmile_qr_scan", "ios": "https://dc.lft.to/lastmile_qr_scan"}, "fusion_lon": 0.0, "lat": 38.923620166666666, "bike_id": "51291dbcffb1631dddcc036b6fa2cf28", "type": "electric_scooter", "is_reserved": 0, "lon": -77.04321266666666}, {"fusion_lat": 0.0, "name": "b1addb85aabe48a3a2b7e2994c7c82bc", "is_disabled": 0, "rental_uris": {"android": "https://dc.lft.to/lastmile_qr_scan", "ios": "https://dc.lft.to/lastmile_qr_scan"}, "fusion_lon": 0.0, "lat": 38.912546, "bike_id": "b1addb85aabe48a3a2b7e2994c7c82bc", "type": "electric_scooter", "is_reserved": 0, "lon": -77.04455033333333}, {"fusion_lat": 0.0, "name": "a379287ceb4a67496eb8d9f249b0750c", "is_disabled": 0, "rental_uris": {"android": "https://dc.lft.to/lastmile_qr_scan", "ios": "https://dc.lft.to/lastmile_qr_scan"}, "fusion_lon": 0.0, "lat": 38.91637433333333, "bike_id": "a379287ceb4a67496eb8d9f249b0750c", "type": "electric_scooter", "is_reserved": 0, "lon": -77.04796016666667}, {"fusion_lat": 0.0, "name": "91bc33ee8d6f4cc21ffe2d9cef813135", "is_disabled": 0, "rental_uris": {"android": "https://dc.lft.to/lastmile_qr_scan", "ios": "https://dc.lft.to/lastmile_qr_scan"}, "fusion_lon": 0.0, "lat": 39.036074166666666, "bike_id": "91bc33ee8d6f4cc21ffe2d9cef813135", "type": "electric_bike", "is_reserved": 0, "lon": -77.05539383333333}, {"fusion_lat": 0.0, "name": "40713995dc0dae70c8d43651deb3b86e", "is_disabled": 0, "rental_uris": {"android": "https://dc.lft.to/lastmile_qr_scan", "ios": "https://dc.lft.to/lastmile_qr_scan"}, "fusion_lon": 0.0, "lat": 38.899859, "bike_id": "40713995dc0dae70c8d43651deb3b86e", "type": "electric_scooter", "is_reserved": 0, "lon": -76.98435983333333}, {"fusion_lat": 0.0, "name": "248d480687847f1622c78033d72d3b17", "is_disabled": 0, "rental_uris": {"android": "https://dc.lft.to/lastmile_qr_scan", "ios": "https://dc.lft.to/lastmile_qr_scan"}, "fusion_lon": 0.0, "lat": 38.878484666666665, "bike_id": "248d480687847f1622c78033d72d3b17", "type": "electric_bike", "is_reserved": 0, "lon": -77.030217}, {"fusion_lat": 0.0, "name": "c848573dfaad7fb4ebb42e8be71e7e71", "is_disabled": 0, "rental_uris": {"android": "https://dc.lft.to/lastmile_qr_scan", "ios": "https://dc.lft.to/lastmile_qr_scan"}, "fusion_lon": 0.0, "lat": 38.910362, "bike_id": "c848573dfaad7fb4ebb42e8be71e7e71", "type": "electric_scooter", "is_reserved": 0, "lon": -77.03830966666666}, {"fusion_lat": 0.0, "name": "5d6d98ec10f068baf34fc61331f9effa", "is_disabled": 0, "rental_uris": {"android": "https://dc.lft.to/lastmile_qr_scan", "ios": "https://dc.lft.to/lastmile_qr_scan"}, "fusion_lon": 0.0, "lat": 38.874906333333335, "bike_id": "5d6d98ec10f068baf34fc61331f9effa", "type": "electric_bike", "is_reserved": 0, "lon": -77.21125216666667}, {"fusion_lat": 0.0, "name": "befbf0be2018217bc03b09378823eb76", "is_disabled": 0, "rental_uris": {"android": "https://dc.lft.to/lastmile_qr_scan", "ios": "https://dc.lft.to/lastmile_qr_scan"}, "fusion_lon": 0.0, "lat": 38.8788895, "bike_id": "befbf0be2018217bc03b09378823eb76", "type": "electric_scooter", "is_reserved": 0, "lon": -76.994703}, {"fusion_lat": 0.0, "name": "1521f1fbd6f58fa45cd26ff16fadc143", "is_disabled": 0, "rental_uris": {"android": "https://dc.lft.to/lastmile_qr_scan", "ios": "https://dc.lft.to/lastmile_qr_scan"}, "fusion_lon": 0.0, "lat": 38.926519166666665, "bike_id": "1521f1fbd6f58fa45cd26ff16fadc143", "type": "electric_scooter", "is_reserved": 0, "lon": -77.053496}, {"fusion_lat": 0.0, "name": "f395e2b848853e7da983f70d78453219", "is_disabled": 0, "rental_uris": {"android": "https://dc.lft.to/lastmile_qr_scan", "ios": "https://dc.lft.to/lastmile_qr_scan"}, "fusion_lon": 0.0, "lat": 38.843549, "bike_id": "f395e2b848853e7da983f70d78453219", "type": "electric_bike", "is_reserved": 0, "lon": -76.97824466666667}, {"fusion_lat": 0.0, "name": "e992bc00de3d3089d4f8d563b5c1b26e", "is_disabled": 0, "rental_uris": {"android": "https://dc.lft.to/lastmile_qr_scan", "ios": "https://dc.lft.to/lastmile_qr_scan"}, "fusion_lon": 0.0, "lat": 38.95884016666667, "bike_id": "e992bc00de3d3089d4f8d563b5c1b26e", "type": "electric_bike", "is_reserved": 0, "lon": -76.92484266666666}, {"fusion_lat": 0.0, "name": "f6e094076773227c09a7a9f5b19769f8", "is_disabled": 0, "rental_uris": {"android": "https://dc.lft.to/lastmile_qr_scan", "ios": "https://dc.lft.to/lastmile_qr_scan"}, "fusion_lon": 0.0, "lat": 38.94620616666667, "bike_id": "f6e094076773227c09a7a9f5b19769f8", "type": "electric_scooter", "is_reserved": 0, "lon": -77.08014466666667}, {"fusion_lat": 0.0, "name": "c4b267944f734b5984f79568be317cb5", "is_disabled": 0, "rental_uris": {"android": "https://dc.lft.to/lastmile_qr_scan", "ios": "https://dc.lft.to/lastmile_qr_scan"}, "fusion_lon": 0.0, "lat": 38.92863766666667, "bike_id": "c4b267944f734b5984f79568be317cb5", "type": "electric_scooter", "is_reserved": 0, "lon": -77.01404233333334}, {"fusion_lat": 0.0, "name": "c15a9ed073cc29a9131edf9fb40e8cd7", "is_disabled": 0, "rental_uris": {"android": "https://dc.lft.to/lastmile_qr_scan", "ios": "https://dc.lft.to/lastmile_qr_scan"}, "fusion_lon": 0.0, "lat": 38.9223125, "bike_id": "c15a9ed073cc29a9131edf9fb40e8cd7", "type": "electric_scooter", "is_reserved": 0, "lon": -77.01839333333334}, {"fusion_lat": 0.0, "name": "e49d445c952c5fbd547c67b20956cce1", "is_disabled": 0, "rental_uris": {"android": "https://dc.lft.to/lastmile_qr_scan", "ios": "https://dc.lft.to/lastmile_qr_scan"}, "fusion_lon": 0.0, "lat": 38.961852666666665, "bike_id": "e49d445c952c5fbd547c67b20956cce1", "type": "electric_bike", "is_reserved": 0, "lon": -77.05270333333333}, {"fusion_lat": 0.0, "name": "9bed35f65807b02ae8066a500143197b", "is_disabled": 0, "rental_uris": {"android": "https://dc.lft.to/lastmile_qr_scan", "ios": "https://dc.lft.to/lastmile_qr_scan"}, "fusion_lon": 0.0, "lat": 38.919734166666665, "bike_id": "9bed35f65807b02ae8066a500143197b", "type": "electric_scooter", "is_reserved": 0, "lon": -77.017949}, {"fusion_lat": 0.0, "name": "be919720e98ab02715370a6b68a401f5", "is_disabled": 0, "rental_uris": {"android": "https://dc.lft.to/lastmile_qr_scan", "ios": "https://dc.lft.to/lastmile_qr_scan"}, "fusion_lon": 0.0, "lat": 38.8836155, "bike_id": "be919720e98ab02715370a6b68a401f5", "type": "electric_scooter", "is_reserved": 0, "lon": -76.94156883333333}, {"fusion_lat": 0.0, "name": "727822f91407dca69dae40e4faf89444", "is_disabled": 0, "rental_uris": {"android": "https://dc.lft.to/lastmile_qr_scan", "ios": "https://dc.lft.to/lastmile_qr_scan"}, "fusion_lon": 0.0, "lat": 38.9248865, "bike_id": "727822f91407dca69dae40e4faf89444", "type": "electric_scooter", "is_reserved": 0, "lon": -77.03928633333334}, {"fusion_lat": 0.0, "name": "7dc43c13348c773324d6ac63cab75fec", "is_disabled": 0, "rental_uris": {"android": "https://dc.lft.to/lastmile_qr_scan", "ios": "https://dc.lft.to/lastmile_qr_scan"}, "fusion_lon": 0.0, "lat": 38.917661, "bike_id": "7dc43c13348c773324d6ac63cab75fec", "type": "electric_scooter", "is_reserved": 0, "lon": -77.03207683333333}, {"fusion_lat": 0.0, "name": "3cec9337a03b21213b8c826bd9a71607", "is_disabled": 0, "rental_uris": {"android": "https://dc.lft.to/lastmile_qr_scan", "ios": "https://dc.lft.to/lastmile_qr_scan"}, "fusion_lon": 0.0, "lat": 38.923397, "bike_id": "3cec9337a03b21213b8c826bd9a71607", "type": "electric_scooter", "is_reserved": 0, "lon": -77.05297416666667}, {"fusion_lat": 0.0, "name": "5f4d208d88cf60ac3482eb333abf86d2", "is_disabled": 0, "rental_uris": {"android": "https://dc.lft.to/lastmile_qr_scan", "ios": "https://dc.lft.to/lastmile_qr_scan"}, "fusion_lon": 0.0, "lat": 38.9053185, "bike_id": "5f4d208d88cf60ac3482eb333abf86d2", "type": "electric_scooter", "is_reserved": 0, "lon": -77.02195516666667}, {"fusion_lat": 0.0, "name": "e0e4f5280a892968a201ee007203c037", "is_disabled": 0, "rental_uris": {"android": "https://dc.lft.to/lastmile_qr_scan", "ios": "https://dc.lft.to/lastmile_qr_scan"}, "fusion_lon": 0.0, "lat": 38.916595, "bike_id": "e0e4f5280a892968a201ee007203c037", "type": "electric_scooter", "is_reserved": 0, "lon": -77.02812333333334}, {"fusion_lat": 0.0, "name": "2276b4e1ffe248a40040130c4fea578c", "is_disabled": 0, "rental_uris": {"android": "https://dc.lft.to/lastmile_qr_scan", "ios": "https://dc.lft.to/lastmile_qr_scan"}, "fusion_lon": 0.0, "lat": 38.914159833333336, "bike_id": "2276b4e1ffe248a40040130c4fea578c", "type": "electric_scooter", "is_reserved": 0, "lon": -77.03176133333334}, {"fusion_lat": 0.0, "name": "b50a74d05925b0c7564b44316477de8e", "is_disabled": 0, "rental_uris": {"android": "https://dc.lft.to/lastmile_qr_scan", "ios": "https://dc.lft.to/lastmile_qr_scan"}, "fusion_lon": 0.0, "lat": 38.92899366666666, "bike_id": "b50a74d05925b0c7564b44316477de8e", "type": "electric_scooter", "is_reserved": 0, "lon": -77.03283383333333}, {"fusion_lat": 0.0, "name": "81940ecf3870260c18a9353bda80445e", "is_disabled": 0, "rental_uris": {"android": "https://dc.lft.to/lastmile_qr_scan", "ios": "https://dc.lft.to/lastmile_qr_scan"}, "fusion_lon": 0.0, "lat": 38.87878083333333, "bike_id": "81940ecf3870260c18a9353bda80445e", "type": "electric_scooter", "is_reserved": 0, "lon": -77.022295}, {"fusion_lat": 0.0, "name": "51b6297d775c987fcbc4b5488cbac0ef", "is_disabled": 0, "rental_uris": {"android": "https://dc.lft.to/lastmile_qr_scan", "ios": "https://dc.lft.to/lastmile_qr_scan"}, "fusion_lon": 0.0, "lat": 38.923422, "bike_id": "51b6297d775c987fcbc4b5488cbac0ef", "type": "electric_scooter", "is_reserved": 0, "lon": -77.0201815}, {"fusion_lat": 0.0, "name": "eb7cfa2a333d89f2c6a6af31f0cb3dc1", "is_disabled": 0, "rental_uris": {"android": "https://dc.lft.to/lastmile_qr_scan", "ios": "https://dc.lft.to/lastmile_qr_scan"}, "fusion_lon": 0.0, "lat": 38.915248, "bike_id": "eb7cfa2a333d89f2c6a6af31f0cb3dc1", "type": "electric_scooter", "is_reserved": 0, "lon": -77.072729}, {"fusion_lat": 0.0, "name": "81cab54eb0e4820b7c198c00b31613b5", "is_disabled": 0, "rental_uris": {"android": "https://dc.lft.to/lastmile_qr_scan", "ios": "https://dc.lft.to/lastmile_qr_scan"}, "fusion_lon": 0.0, "lat": 38.924534666666666, "bike_id": "81cab54eb0e4820b7c198c00b31613b5", "type": "electric_scooter", "is_reserved": 0, "lon": -77.02402216666667}, {"fusion_lat": 0.0, "name": "7310573983a10e5909af16bcb45394c8", "is_disabled": 0, "rental_uris": {"android": "https://dc.lft.to/lastmile_qr_scan", "ios": "https://dc.lft.to/lastmile_qr_scan"}, "fusion_lon": 0.0, "lat": 38.9098575, "bike_id": "7310573983a10e5909af16bcb45394c8", "type": "electric_scooter", "is_reserved": 0, "lon": -77.02198033333333}, {"fusion_lat": 0.0, "name": "b647794ec3f8f1ef72b1417e2946db61", "is_disabled": 0, "rental_uris": {"android": "https://dc.lft.to/lastmile_qr_scan", "ios": "https://dc.lft.to/lastmile_qr_scan"}, "fusion_lon": 0.0, "lat": 38.9139455, "bike_id": "b647794ec3f8f1ef72b1417e2946db61", "type": "electric_scooter", "is_reserved": 0, "lon": -77.0165745}, {"fusion_lat": 0.0, "name": "202083255b4b9dd3ce2912911033b894", "is_disabled": 0, "rental_uris": {"android": "https://dc.lft.to/lastmile_qr_scan", "ios": "https://dc.lft.to/lastmile_qr_scan"}, "fusion_lon": 0.0, "lat": 38.89728366666667, "bike_id": "202083255b4b9dd3ce2912911033b894", "type": "electric_scooter", "is_reserved": 0, "lon": -77.01962483333334}, {"fusion_lat": 0.0, "name": "616c20f7ec618efd366357233e302c0f", "is_disabled": 0, "rental_uris": {"android": "https://dc.lft.to/lastmile_qr_scan", "ios": "https://dc.lft.to/lastmile_qr_scan"}, "fusion_lon": 0.0, "lat": 38.9050785, "bike_id": "616c20f7ec618efd366357233e302c0f", "type": "electric_scooter", "is_reserved": 0, "lon": -77.06435416666666}, {"fusion_lat": 0.0, "name": "8bca99707015f69d57c4054c6036d35c", "is_disabled": 0, "rental_uris": {"android": "https://dc.lft.to/lastmile_qr_scan", "ios": "https://dc.lft.to/lastmile_qr_scan"}, "fusion_lon": 0.0, "lat": 38.93483783333333, "bike_id": "8bca99707015f69d57c4054c6036d35c", "type": "electric_scooter", "is_reserved": 0, "lon": -77.04529566666666}, {"fusion_lat": 0.0, "name": "b6ac3615d9f346a93cbeef8b5c6d7255", "is_disabled": 0, "rental_uris": {"android": "https://dc.lft.to/lastmile_qr_scan", "ios": "https://dc.lft.to/lastmile_qr_scan"}, "fusion_lon": 0.0, "lat": 38.9093225, "bike_id": "b6ac3615d9f346a93cbeef8b5c6d7255", "type": "electric_scooter", "is_reserved": 0, "lon": -77.06275033333333}, {"fusion_lat": 0.0, "name": "6c9ea35ca5b0b5f1aa500cae7ceb3197", "is_disabled": 0, "rental_uris": {"android": "https://dc.lft.to/lastmile_qr_scan", "ios": "https://dc.lft.to/lastmile_qr_scan"}, "fusion_lon": 0.0, "lat": 38.89664783333333, "bike_id": "6c9ea35ca5b0b5f1aa500cae7ceb3197", "type": "electric_scooter", "is_reserved": 0, "lon": -76.93211933333333}, {"fusion_lat": 0.0, "name": "fdbc0addc8860b741ba33961c0d7bbab", "is_disabled": 0, "rental_uris": {"android": "https://dc.lft.to/lastmile_qr_scan", "ios": "https://dc.lft.to/lastmile_qr_scan"}, "fusion_lon": 0.0, "lat": 38.902242333333334, "bike_id": "fdbc0addc8860b741ba33961c0d7bbab", "type": "electric_scooter", "is_reserved": 0, "lon": -77.0590555}, {"fusion_lat": 0.0, "name": "c8f31c32ace7e05f87ff012a8fff6d5f", "is_disabled": 0, "rental_uris": {"android": "https://dc.lft.to/lastmile_qr_scan", "ios": "https://dc.lft.to/lastmile_qr_scan"}, "fusion_lon": 0.0, "lat": 38.903061, "bike_id": "c8f31c32ace7e05f87ff012a8fff6d5f", "type": "electric_scooter", "is_reserved": 0, "lon": -76.9750875}, {"fusion_lat": 0.0, "name": "62739bcd5705364da0eb45fcb96a6c0f", "is_disabled": 0, "rental_uris": {"android": "https://dc.lft.to/lastmile_qr_scan", "ios": "https://dc.lft.to/lastmile_qr_scan"}, "fusion_lon": 0.0, "lat": 38.92376733333333, "bike_id": "62739bcd5705364da0eb45fcb96a6c0f", "type": "electric_scooter", "is_reserved": 0, "lon": -77.03058966666667}, {"fusion_lat": 0.0, "name": "6b14a6e9feef01040f2b164453d4ca7a", "is_disabled": 0, "rental_uris": {"android": "https://dc.lft.to/lastmile_qr_scan", "ios": "https://dc.lft.to/lastmile_qr_scan"}, "fusion_lon": 0.0, "lat": 38.9693695, "bike_id": "6b14a6e9feef01040f2b164453d4ca7a", "type": "electric_bike", "is_reserved": 0, "lon": -76.955425}, {"fusion_lat": 0.0, "name": "d30ec45ef024b0c7c12dfd9e4361e496", "is_disabled": 0, "rental_uris": {"android": "https://dc.lft.to/lastmile_qr_scan", "ios": "https://dc.lft.to/lastmile_qr_scan"}, "fusion_lon": 0.0, "lat": 38.919231, "bike_id": "d30ec45ef024b0c7c12dfd9e4361e496", "type": "electric_scooter", "is_reserved": 0, "lon": -77.0098355}, {"fusion_lat": 0.0, "name": "3083e74a09a5a885d628ae1e26d17e34", "is_disabled": 0, "rental_uris": {"android": "https://dc.lft.to/lastmile_qr_scan", "ios": "https://dc.lft.to/lastmile_qr_scan"}, "fusion_lon": 0.0, "lat": 38.94185783333333, "bike_id": "3083e74a09a5a885d628ae1e26d17e34", "type": "electric_scooter", "is_reserved": 0, "lon": -77.0231825}, {"fusion_lat": 0.0, "name": "09a892b9018b643a182b2d8fa463450f", "is_disabled": 0, "rental_uris": {"android": "https://dc.lft.to/lastmile_qr_scan", "ios": "https://dc.lft.to/lastmile_qr_scan"}, "fusion_lon": 0.0, "lat": 38.922752333333335, "bike_id": "09a892b9018b643a182b2d8fa463450f", "type": "electric_bike", "is_reserved": 0, "lon": -77.2329195}, {"fusion_lat": 0.0, "name": "ef6db4e7b0aaf467300cdee715194cac", "is_disabled": 0, "rental_uris": {"android": "https://dc.lft.to/lastmile_qr_scan", "ios": "https://dc.lft.to/lastmile_qr_scan"}, "fusion_lon": 0.0, "lat": 38.86449266666666, "bike_id": "ef6db4e7b0aaf467300cdee715194cac", "type": "electric_bike", "is_reserved": 0, "lon": -77.10686333333334}, {"fusion_lat": 0.0, "name": "f2309bfde8757c67dbde3d02af65e234", "is_disabled": 0, "rental_uris": {"android": "https://dc.lft.to/lastmile_qr_scan", "ios": "https://dc.lft.to/lastmile_qr_scan"}, "fusion_lon": 0.0, "lat": 38.90591933333333, "bike_id": "f2309bfde8757c67dbde3d02af65e234", "type": "electric_scooter", "is_reserved": 0, "lon": -77.04707833333333}, {"fusion_lat": 0.0, "name": "3392a1e605c0696f907aaf31378fedad", "is_disabled": 0, "rental_uris": {"android": "https://dc.lft.to/lastmile_qr_scan", "ios": "https://dc.lft.to/lastmile_qr_scan"}, "fusion_lon": 0.0, "lat": 38.900254833333335, "bike_id": "3392a1e605c0696f907aaf31378fedad", "type": "electric_scooter", "is_reserved": 0, "lon": -77.01248333333334}, {"fusion_lat": 0.0, "name": "265f9473c8db89b9970d0102eec3f316", "is_disabled": 0, "rental_uris": {"android": "https://dc.lft.to/lastmile_qr_scan", "ios": "https://dc.lft.to/lastmile_qr_scan"}, "fusion_lon": 0.0, "lat": 38.87467566666667, "bike_id": "265f9473c8db89b9970d0102eec3f316", "type": "electric_scooter", "is_reserved": 0, "lon": -77.000309}, {"fusion_lat": 0.0, "name": "c2c577318d12e5dc8b9efe9c8b726747", "is_disabled": 0, "rental_uris": {"android": "https://dc.lft.to/lastmile_qr_scan", "ios": "https://dc.lft.to/lastmile_qr_scan"}, "fusion_lon": 0.0, "lat": 38.912606333333336, "bike_id": "c2c577318d12e5dc8b9efe9c8b726747", "type": "electric_scooter", "is_reserved": 0, "lon": -77.03141016666666}, {"fusion_lat": 0.0, "name": "fc7a7ed1ed8c9c67e46bc35d6ba8df6d", "is_disabled": 0, "rental_uris": {"android": "https://dc.lft.to/lastmile_qr_scan", "ios": "https://dc.lft.to/lastmile_qr_scan"}, "fusion_lon": 0.0, "lat": 38.90273, "bike_id": "fc7a7ed1ed8c9c67e46bc35d6ba8df6d", "type": "electric_scooter", "is_reserved": 0, "lon": -77.01885166666666}, {"fusion_lat": 0.0, "name": "b543afb392c5df0d617edc10404d8ec3", "is_disabled": 0, "rental_uris": {"android": "https://dc.lft.to/lastmile_qr_scan", "ios": "https://dc.lft.to/lastmile_qr_scan"}, "fusion_lon": 0.0, "lat": 38.90364916666667, "bike_id": "b543afb392c5df0d617edc10404d8ec3", "type": "electric_scooter", "is_reserved": 0, "lon": -77.03589916666667}, {"fusion_lat": 0.0, "name": "efff619118eb2762e9e037bbe08ec68f", "is_disabled": 0, "rental_uris": {"android": "https://dc.lft.to/lastmile_qr_scan", "ios": "https://dc.lft.to/lastmile_qr_scan"}, "fusion_lon": 0.0, "lat": 38.909587, "bike_id": "efff619118eb2762e9e037bbe08ec68f", "type": "electric_scooter", "is_reserved": 0, "lon": -77.01435716666667}, {"fusion_lat": 0.0, "name": "335780bd3b0a789fd43284ff3122af59", "is_disabled": 0, "rental_uris": {"android": "https://dc.lft.to/lastmile_qr_scan", "ios": "https://dc.lft.to/lastmile_qr_scan"}, "fusion_lon": 0.0, "lat": 38.91595566666667, "bike_id": "335780bd3b0a789fd43284ff3122af59", "type": "electric_scooter", "is_reserved": 0, "lon": -77.0239935}, {"fusion_lat": 0.0, "name": "5c8d57e40380cebed69631d8c5ae9bb6", "is_disabled": 0, "rental_uris": {"android": "https://dc.lft.to/lastmile_qr_scan", "ios": "https://dc.lft.to/lastmile_qr_scan"}, "fusion_lon": 0.0, "lat": 38.884938, "bike_id": "5c8d57e40380cebed69631d8c5ae9bb6", "type": "electric_scooter", "is_reserved": 0, "lon": -77.02081866666667}, {"fusion_lat": 0.0, "name": "344e6deb6f178145ec67c7ed57640bb8", "is_disabled": 0, "rental_uris": {"android": "https://dc.lft.to/lastmile_qr_scan", "ios": "https://dc.lft.to/lastmile_qr_scan"}, "fusion_lon": 0.0, "lat": 38.91678516666666, "bike_id": "344e6deb6f178145ec67c7ed57640bb8", "type": "electric_scooter", "is_reserved": 0, "lon": -77.0157945}, {"fusion_lat": 0.0, "name": "d518045673ba42ae22dc6c8a9d723243", "is_disabled": 0, "rental_uris": {"android": "https://dc.lft.to/lastmile_qr_scan", "ios": "https://dc.lft.to/lastmile_qr_scan"}, "fusion_lon": 0.0, "lat": 38.95050366666667, "bike_id": "d518045673ba42ae22dc6c8a9d723243", "type": "electric_scooter", "is_reserved": 0, "lon": -77.0802895}, {"fusion_lat": 0.0, "name": "88295d6a4b56c300b5dae4aaf714589e", "is_disabled": 0, "rental_uris": {"android": "https://dc.lft.to/lastmile_qr_scan", "ios": "https://dc.lft.to/lastmile_qr_scan"}, "fusion_lon": 0.0, "lat": 38.919982833333336, "bike_id": "88295d6a4b56c300b5dae4aaf714589e", "type": "electric_scooter", "is_reserved": 0, "lon": -77.0237235}, {"fusion_lat": 0.0, "name": "b75d81d59b5b3c790d77d656798f04f7", "is_disabled": 0, "rental_uris": {"android": "https://dc.lft.to/lastmile_qr_scan", "ios": "https://dc.lft.to/lastmile_qr_scan"}, "fusion_lon": 0.0, "lat": 38.88520033333333, "bike_id": "b75d81d59b5b3c790d77d656798f04f7", "type": "electric_scooter", "is_reserved": 0, "lon": -76.92914216666667}, {"fusion_lat": 0.0, "name": "6dd7a1756ebecf8471be6d86250bd521", "is_disabled": 0, "rental_uris": {"android": "https://dc.lft.to/lastmile_qr_scan", "ios": "https://dc.lft.to/lastmile_qr_scan"}, "fusion_lon": 0.0, "lat": 38.875779666666666, "bike_id": "6dd7a1756ebecf8471be6d86250bd521", "type": "electric_bike", "is_reserved": 0, "lon": -77.2341095}, {"fusion_lat": 0.0, "name": "d2978d1965911fedb8ca6ae266db2574", "is_disabled": 0, "rental_uris": {"android": "https://dc.lft.to/lastmile_qr_scan", "ios": "https://dc.lft.to/lastmile_qr_scan"}, "fusion_lon": 0.0, "lat": 38.91954533333333, "bike_id": "d2978d1965911fedb8ca6ae266db2574", "type": "electric_scooter", "is_reserved": 0, "lon": -77.024809}, {"fusion_lat": 0.0, "name": "fcdeca141a524bfd6ec6e878f32322a6", "is_disabled": 0, "rental_uris": {"android": "https://dc.lft.to/lastmile_qr_scan", "ios": "https://dc.lft.to/lastmile_qr_scan"}, "fusion_lon": 0.0, "lat": 38.899100833333335, "bike_id": "fcdeca141a524bfd6ec6e878f32322a6", "type": "electric_scooter", "is_reserved": 0, "lon": -76.94592283333333}, {"fusion_lat": 0.0, "name": "57b1779b1cb74d5d2d4519f221889b85", "is_disabled": 0, "rental_uris": {"android": "https://dc.lft.to/lastmile_qr_scan", "ios": "https://dc.lft.to/lastmile_qr_scan"},