{"data": {"bikes": [{"bike_id": "3e2bfc3836608f2fb27ec7b5e916cefe", "fusion_lon": 0.0, "lon": -77.03217633333334, "name": "3e2bfc3836608f2fb27ec7b5e916cefe", "is_disabled": 0, "rental_uris": {"android": "https://dc.lft.to/lastmile_qr_scan", "ios": "https://dc.lft.to/lastmile_qr_scan"}, "type": "electric_scooter", "lat": 38.918163666666665, "is_reserved": 0, "fusion_lat": 0.0}, {"bike_id": "30b4884ad835f40e0f902998c23a027b", "fusion_lon": 0.0, "lon": -77.031495, "name": "30b4884ad835f40e0f902998c23a027b", "is_disabled": 0, "rental_uris": {"android": "https://dc.lft.to/lastmile_qr_scan", "ios": "https://dc.lft.to/lastmile_qr_scan"}, "type": "electric_scooter", "lat": 38.92789166666667, "is_reserved": 0, "fusion_lat": 0.0}, {"bike_id": "1700bc88cfff0a892932e60377a111de", "fusion_lon": 0.0, "lon": -77.22208733333333, "name": "1700bc88cfff0a892932e60377a111de", "is_disabled": 0, "rental_uris": {"android": "https://dc.lft.to/lastmile_qr_scan", "ios": "https://dc.lft.to/lastmile_qr_scan"}, "type": "electric_bike", "lat": 38.92854833333333, "is_reserved": 0, "fusion_lat": 0.0}, {"bike_id": "43f7f264d9b7c967d2aef20911f228fc", "fusion_lon": 0.0, "lon": -77.1784225, "name": "43f7f264d9b7c967d2aef20911f228fc", "is_disabled": 0, "rental_uris": {"android": "https://dc.lft.to/lastmile_qr_scan", "ios": "https://dc.lft.to/lastmile_qr_scan"}, "type": "electric_bike", "lat": 39.08851333333333, "is_reserved": 0, "fusion_lat": 0.0}, {"bike_id": "01f7c222d176135a5e7336b873e3b3b8", "fusion_lon": 0.0, "lon": -76.97895833333334, "name": "01f7c222d176135a5e7336b873e3b3b8", "is_disabled": 0, "rental_uris": {"android": "https://dc.lft.to/lastmile_qr_scan", "ios": "https://dc.lft.to/lastmile_qr_scan"}, "type": "electric_bike", "lat": 38.915831833333336, "is_reserved": 0, "fusion_lat": 0.0}, {"bike_id": "093928d6b7ccdce538d342d05a146a84", "fusion_lon": 0.0, "lon": -77.02692616666667, "name": "093928d6b7ccdce538d342d05a146a84", "is_disabled": 0, "rental_uris": {"android": "https://dc.lft.to/lastmile_qr_scan", "ios": "https://dc.lft.to/lastmile_qr_scan"}, "type": "electric_scooter", "lat": 38.90676366666667, "is_reserved": 0, "fusion_lat": 0.0}, {"bike_id": "9b219d2e4e0eee6aeb01f987be761931", "fusion_lon": 0.0, "lon": -76.93989983333333, "name": "9b219d2e4e0eee6aeb01f987be761931", "is_disabled": 0, "rental_uris": {"android": "https://dc.lft.to/lastmile_qr_scan", "ios": "https://dc.lft.to/lastmile_qr_scan"}, "type": "electric_scooter", "lat": 38.899778, "is_reserved": 0, "fusion_lat": 0.0}, {"bike_id": "51c8de864b29d9980412b8ade6c324d8", "fusion_lon": 0.0, "lon": -76.96528216666667, "name": "51c8de864b29d9980412b8ade6c324d8", "is_disabled": 0, "rental_uris": {"android": "https://dc.lft.to/lastmile_qr_scan", "ios": "https://dc.lft.to/lastmile_qr_scan"}, "type": "electric_bike", "lat": 38.874758666666665, "is_reserved": 0, "fusion_lat": 0.0}, {"bike_id": "e28c4d07e8183a97ca189ca716c5af53", "fusion_lon": 0.0, "lon": -77.02420366666666, "name": "e28c4d07e8183a97ca189ca716c5af53", "is_disabled": 0, "rental_uris": {"android": "https://dc.lft.to/lastmile_qr_scan", "ios": "https://dc.lft.to/lastmile_qr_scan"}, "type": "electric_scooter", "lat": 38.914101333333335, "is_reserved": 0, "fusion_lat": 0.0}, {"bike_id": "d59271c0c44dee7e405bb413564d829a", "fusion_lon": 0.0, "lon": -77.0205215, "name": "d59271c0c44dee7e405bb413564d829a", "is_disabled": 0, "rental_uris": {"android": "https://dc.lft.to/lastmile_qr_scan", "ios": "https://dc.lft.to/lastmile_qr_scan"}, "type": "electric_bike", "lat": 38.9467565, "is_reserved": 0, "fusion_lat": 0.0}, {"bike_id": "2bc31c73c30b6f1dff30055f348f2f59", "fusion_lon": 0.0, "lon": -77.036865, "name": "2bc31c73c30b6f1dff30055f348f2f59", "is_disabled": 0, "rental_uris": {"android": "https://dc.lft.to/lastmile_qr_scan", "ios": "https://dc.lft.to/lastmile_qr_scan"}, "type": "electric_scooter", "lat": 38.92317516666667, "is_reserved": 0, "fusion_lat": 0.0}, {"bike_id": "0031475156dd9c414a3ac686851dc7a8", "fusion_lon": 0.0, "lon": -77.03260783333333, "name": "0031475156dd9c414a3ac686851dc7a8", "is_disabled": 0, "rental_uris": {"android": "https://dc.lft.to/lastmile_qr_scan", "ios": "https://dc.lft.to/lastmile_qr_scan"}, "type": "electric_scooter", "lat": 38.9313605, "is_reserved": 0, "fusion_lat": 0.0}, {"bike_id": "4c0751c7e3ddabdbb5d02dfbaa70cd5c", "fusion_lon": 0.0, "lon": -77.02677083333333, "name": "4c0751c7e3ddabdbb5d02dfbaa70cd5c", "is_disabled": 0, "rental_uris": {"android": "https://dc.lft.to/lastmile_qr_scan", "ios": "https://dc.lft.to/lastmile_qr_scan"}, "type": "electric_scooter", "lat": 38.897019666666665, "is_reserved": 0, "fusion_lat": 0.0}, {"bike_id": "27270de64e50401657b5a30b1c06e661", "fusion_lon": 0.0, "lon": -77.06192133333333, "name": "27270de64e50401657b5a30b1c06e661", "is_disabled": 0, "rental_uris": {"android": "https://dc.lft.to/lastmile_qr_scan", "ios": "https://dc.lft.to/lastmile_qr_scan"}, "type": "electric_scooter", "lat": 38.944436833333334, "is_reserved": 0, "fusion_lat": 0.0}, {"bike_id": "a0aab1ece53ab7490c8fb7467f6d4d7b", "fusion_lon": 0.0, "lon": -77.02248683333333, "name": "a0aab1ece53ab7490c8fb7467f6d4d7b", "is_disabled": 0, "rental_uris": {"android": "https://dc.lft.to/lastmile_qr_scan", "ios": "https://dc.lft.to/lastmile_qr_scan"}, "type": "electric_scooter", "lat": 38.89433233333333, "is_reserved": 0, "fusion_lat": 0.0}, {"bike_id": "fa97243cc943cbfc35a0aecfd717ee73", "fusion_lon": 0.0, "lon": -77.0220235, "name": "fa97243cc943cbfc35a0aecfd717ee73", "is_disabled": 0, "rental_uris": {"android": "https://dc.lft.to/lastmile_qr_scan", "ios": "https://dc.lft.to/lastmile_qr_scan"}, "type": "electric_scooter", "lat": 38.918977, "is_reserved": 0, "fusion_lat": 0.0}, {"bike_id": "e936d443b34c69993d1a6267a124ad98", "fusion_lon": 0.0, "lon": -77.03282816666666, "name": "e936d443b34c69993d1a6267a124ad98", "is_disabled": 0, "rental_uris": {"android": "https://dc.lft.to/lastmile_qr_scan", "ios": "https://dc.lft.to/lastmile_qr_scan"}, "type": "electric_scooter", "lat": 38.92875083333333, "is_reserved": 0, "fusion_lat": 0.0}, {"bike_id": "4ea3f33d9c9fc27a1d3db13b59783cc3", "fusion_lon": 0.0, "lon": -77.00714366666666, "name": "4ea3f33d9c9fc27a1d3db13b59783cc3", "is_disabled": 0, "rental_uris": {"android": "https://dc.lft.to/lastmile_qr_scan", "ios": "https://dc.lft.to/lastmile_qr_scan"}, "type": "electric_scooter", "lat": 38.876732, "is_reserved": 0, "fusion_lat": 0.0}, {"bike_id": "000b90d736b0d731638895aa36734a39", "fusion_lon": 0.0, "lon": -77.050507, "name": "000b90d736b0d731638895aa36734a39", "is_disabled": 0, "rental_uris": {"android": "https://dc.lft.to/lastmile_qr_scan", "ios": "https://dc.lft.to/lastmile_qr_scan"}, "type": "electric_scooter", "lat": 38.923441, "is_reserved": 0, "fusion_lat": 0.0}, {"bike_id": "09491e27bf803df58a65519e7549d935", "fusion_lon": 0.0, "lon": -76.99950133333333, "name": "09491e27bf803df58a65519e7549d935", "is_disabled": 0, "rental_uris": {"android": "https://dc.lft.to/lastmile_qr_scan", "ios": "https://dc.lft.to/lastmile_qr_scan"}, "type": "electric_scooter", "lat": 38.84289866666667, "is_reserved": 0, "fusion_lat": 0.0}, {"bike_id": "f3ad0b0577a1cb17fa0abc8eb45e07b0", "fusion_lon": 0.0, "lon": -77.03411166666666, "name": "f3ad0b0577a1cb17fa0abc8eb45e07b0", "is_disabled": 0, "rental_uris": {"android": "https://dc.lft.to/lastmile_qr_scan", "ios": "https://dc.lft.to/lastmile_qr_scan"}, "type": "electric_scooter", "lat": 38.92309383333333, "is_reserved": 0, "fusion_lat": 0.0}, {"bike_id": "13218a891dc0361674fa83f6afd6d433", "fusion_lon": 0.0, "lon": -76.98395833333333, "name": "13218a891dc0361674fa83f6afd6d433", "is_disabled": 0, "rental_uris": {"android": "https://dc.lft.to/lastmile_qr_scan", "ios": "https://dc.lft.to/lastmile_qr_scan"}, "type": "electric_scooter", "lat": 38.86693916666667, "is_reserved": 0, "fusion_lat": 0.0}, {"bike_id": "667189ec8a656418e2bb89e6e2dd56a1", "fusion_lon": 0.0, "lon": -77.03912166666667, "name": "667189ec8a656418e2bb89e6e2dd56a1", "is_disabled": 0, "rental_uris": {"android": "https://dc.lft.to/lastmile_qr_scan", "ios": "https://dc.lft.to/lastmile_qr_scan"}, "type": "electric_scooter", "lat": 38.91553533333333, "is_reserved": 0, "fusion_lat": 0.0}, {"bike_id": "705644a4506f6cb423453ba61fd08542", "fusion_lon": 0.0, "lon": -77.0348555, "name": "705644a4506f6cb423453ba61fd08542", "is_disabled": 0, "rental_uris": {"android": "https://dc.lft.to/lastmile_qr_scan", "ios": "https://dc.lft.to/lastmile_qr_scan"}, "type": "electric_scooter", "lat": 38.924803, "is_reserved": 0, "fusion_lat": 0.0}, {"bike_id": "5d7a4c89e5594cce24e50b06891ad224", "fusion_lon": 0.0, "lon": -77.13482466666666, "name": "5d7a4c89e5594cce24e50b06891ad224", "is_disabled": 0, "rental_uris": {"android": "https://dc.lft.to/lastmile_qr_scan", "ios": "https://dc.lft.to/lastmile_qr_scan"}, "type": "electric_bike", "lat": 38.853495333333335, "is_reserved": 0, "fusion_lat": 0.0}, {"bike_id": "df584894bffda9442c783b305ed1031b", "fusion_lon": 0.0, "lon": -77.03412816666666, "name": "df584894bffda9442c783b305ed1031b", "is_disabled": 0, "rental_uris": {"android": "https://dc.lft.to/lastmile_qr_scan", "ios": "https://dc.lft.to/lastmile_qr_scan"}, "type": "electric_scooter", "lat": 38.919266, "is_reserved": 0, "fusion_lat": 0.0}, {"bike_id": "a528fb1dc4b6128c33a8af1d18f69528", "fusion_lon": 0.0, "lon": -77.03400266666667, "name": "a528fb1dc4b6128c33a8af1d18f69528", "is_disabled": 0, "rental_uris": {"android": "https://dc.lft.to/lastmile_qr_scan", "ios": "https://dc.lft.to/lastmile_qr_scan"}, "type": "electric_scooter", "lat": 38.9312875, "is_reserved": 0, "fusion_lat": 0.0}, {"bike_id": "59a1e416865d0b687f1576a360a179df", "fusion_lon": 0.0, "lon": -77.001948, "name": "59a1e416865d0b687f1576a360a179df", "is_disabled": 0, "rental_uris": {"android": "https://dc.lft.to/lastmile_qr_scan", "ios": "https://dc.lft.to/lastmile_qr_scan"}, "type": "electric_scooter", "lat": 38.89553633333333, "is_reserved": 0, "fusion_lat": 0.0}, {"bike_id": "f4d3ce2bc48468f3c56bad46cd7fb8e8", "fusion_lon": 0.0, "lon": -77.00916833333333, "name": "f4d3ce2bc48468f3c56bad46cd7fb8e8", "is_disabled": 0, "rental_uris": {"android": "https://dc.lft.to/lastmile_qr_scan", "ios": "https://dc.lft.to/lastmile_qr_scan"}, "type": "electric_scooter", "lat": 38.90826833333333, "is_reserved": 0, "fusion_lat": 0.0}, {"bike_id": "1546755a74afce178b23eae015535b04", "fusion_lon": 0.0, "lon": -77.03475216666666, "name": "1546755a74afce178b23eae015535b04", "is_disabled": 0, "rental_uris": {"android": "https://dc.lft.to/lastmile_qr_scan", "ios": "https://dc.lft.to/lastmile_qr_scan"}, "type": "electric_scooter", "lat": 38.90960783333333, "is_reserved": 0, "fusion_lat": 0.0}, {"bike_id": "cb5871117ba3eb2b701d698d119625f2", "fusion_lon": 0.0, "lon": -77.03857, "name": "cb5871117ba3eb2b701d698d119625f2", "is_disabled": 0, "rental_uris": {"android": "https://dc.lft.to/lastmile_qr_scan", "ios": "https://dc.lft.to/lastmile_qr_scan"}, "type": "electric_scooter", "lat": 38.91009916666667, "is_reserved": 0, "fusion_lat": 0.0}, {"bike_id": "a4f2c6dbe170df4b200e58e7721aff1e", "fusion_lon": 0.0, "lon": -77.03167833333333, "name": "a4f2c6dbe170df4b200e58e7721aff1e", "is_disabled": 0, "rental_uris": {"android": "https://dc.lft.to/lastmile_qr_scan", "ios": "https://dc.lft.to/lastmile_qr_scan"}, "type": "electric_scooter", "lat": 38.9193375, "is_reserved": 0, "fusion_lat": 0.0}, {"bike_id": "96cea9ab7ed347175c732fb553d44663", "fusion_lon": 0.0, "lon": -77.0308165, "name": "96cea9ab7ed347175c732fb553d44663", "is_disabled": 0, "rental_uris": {"android": "https://dc.lft.to/lastmile_qr_scan", "ios": "https://dc.lft.to/lastmile_qr_scan"}, "type": "electric_scooter", "lat": 38.89735966666667, "is_reserved": 0, "fusion_lat": 0.0}, {"bike_id": "9c9ed14d14d88bb314a40f70684cafcc", "fusion_lon": 0.0, "lon": -77.03360083333334, "name": "9c9ed14d14d88bb314a40f70684cafcc", "is_disabled": 0, "rental_uris": {"android": "https://dc.lft.to/lastmile_qr_scan", "ios": "https://dc.lft.to/lastmile_qr_scan"}, "type": "electric_scooter", "lat": 38.8875535, "is_reserved": 0, "fusion_lat": 0.0}, {"bike_id": "0850fc632316eaef9b000cf05811fcea", "fusion_lon": 0.0, "lon": -77.02299116666667, "name": "0850fc632316eaef9b000cf05811fcea", "is_disabled": 0, "rental_uris": {"android": "https://dc.lft.to/lastmile_qr_scan", "ios": "https://dc.lft.to/lastmile_qr_scan"}, "type": "electric_scooter", "lat": 38.9163985, "is_reserved": 0, "fusion_lat": 0.0}, {"bike_id": "bf8106cff6897171a85124125363ef93", "fusion_lon": 0.0, "lon": -77.08514816666667, "name": "bf8106cff6897171a85124125363ef93", "is_disabled": 0, "rental_uris": {"android": "https://dc.lft.to/lastmile_qr_scan", "ios": "https://dc.lft.to/lastmile_qr_scan"}, "type": "electric_bike", "lat": 38.88572766666667, "is_reserved": 0, "fusion_lat": 0.0}, {"bike_id": "bd9ed448dc2bf7cf1d31223e9e5eaa36", "fusion_lon": 0.0, "lon": -77.0078275, "name": "bd9ed448dc2bf7cf1d31223e9e5eaa36", "is_disabled": 0, "rental_uris": {"android": "https://dc.lft.to/lastmile_qr_scan", "ios": "https://dc.lft.to/lastmile_qr_scan"}, "type": "electric_scooter", "lat": 38.90582216666667, "is_reserved": 0, "fusion_lat": 0.0}, {"bike_id": "78ede769bd4b5748bc57a7330171eb9e", "fusion_lon": 0.0, "lon": -77.01616866666667, "name": "78ede769bd4b5748bc57a7330171eb9e", "is_disabled": 0, "rental_uris": {"android": "https://dc.lft.to/lastmile_qr_scan", "ios": "https://dc.lft.to/lastmile_qr_scan"}, "type": "electric_scooter", "lat": 38.90592183333333, "is_reserved": 0, "fusion_lat": 0.0}, {"bike_id": "89644b965d2b42ea9e71920c206c3abc", "fusion_lon": 0.0, "lon": -77.02198333333334, "name": "89644b965d2b42ea9e71920c206c3abc", "is_disabled": 0, "rental_uris": {"android": "https://dc.lft.to/lastmile_qr_scan", "ios": "https://dc.lft.to/lastmile_qr_scan"}, "type": "electric_scooter", "lat": 38.91098983333333, "is_reserved": 0, "fusion_lat": 0.0}, {"bike_id": "30c0f7dffbcf7c6dce21d1743706934a", "fusion_lon": 0.0, "lon": -76.9249685, "name": "30c0f7dffbcf7c6dce21d1743706934a", "is_disabled": 0, "rental_uris": {"android": "https://dc.lft.to/lastmile_qr_scan", "ios": "https://dc.lft.to/lastmile_qr_scan"}, "type": "electric_bike", "lat": 38.959015666666666, "is_reserved": 0, "fusion_lat": 0.0}, {"bike_id": "0315c4648b93c6bd7ce815f248dd5c91", "fusion_lon": 0.0, "lon": -77.03200333333334, "name": "0315c4648b93c6bd7ce815f248dd5c91", "is_disabled": 0, "rental_uris": {"android": "https://dc.lft.to/lastmile_qr_scan", "ios": "https://dc.lft.to/lastmile_qr_scan"}, "type": "electric_scooter", "lat": 38.9013105, "is_reserved": 0, "fusion_lat": 0.0}, {"bike_id": "e916863fe95c38fd3c57b534f307e890", "fusion_lon": 0.0, "lon": -77.0013335, "name": "e916863fe95c38fd3c57b534f307e890", "is_disabled": 0, "rental_uris": {"android": "https://dc.lft.to/lastmile_qr_scan", "ios": "https://dc.lft.to/lastmile_qr_scan"}, "type": "electric_bike", "lat": 38.95865033333333, "is_reserved": 0, "fusion_lat": 0.0}, {"bike_id": "c73cf2a8e26cc99201b098f3d1169ce5", "fusion_lon": 0.0, "lon": -77.04802083333334, "name": "c73cf2a8e26cc99201b098f3d1169ce5", "is_disabled": 0, "rental_uris": {"android": "https://dc.lft.to/lastmile_qr_scan", "ios": "https://dc.lft.to/lastmile_qr_scan"}, "type": "electric_scooter", "lat": 38.892218166666666, "is_reserved": 0, "fusion_lat": 0.0}, {"bike_id": "83ddab67e088211ac7466cb57b8a82ea", "fusion_lon": 0.0, "lon": -77.01849483333334, "name": "83ddab67e088211ac7466cb57b8a82ea", "is_disabled": 0, "rental_uris": {"android": "https://dc.lft.to/lastmile_qr_scan", "ios": "https://dc.lft.to/lastmile_qr_scan"}, "type": "electric_scooter", "lat": 38.915235, "is_reserved": 0, "fusion_lat": 0.0}, {"bike_id": "d8ca7631d28c859f419e9d396274f85c", "fusion_lon": 0.0, "lon": -77.02517433333334, "name": "d8ca7631d28c859f419e9d396274f85c", "is_disabled": 0, "rental_uris": {"android": "https://dc.lft.to/lastmile_qr_scan", "ios": "https://dc.lft.to/lastmile_qr_scan"}, "type": "electric_scooter", "lat": 38.915622, "is_reserved": 0, "fusion_lat": 0.0}, {"bike_id": "1f8400590b89be772e43be0c7c9a6853", "fusion_lon": 0.0, "lon": -76.99778566666667, "name": "1f8400590b89be772e43be0c7c9a6853", "is_disabled": 0, "rental_uris": {"android": "https://dc.lft.to/lastmile_qr_scan", "ios": "https://dc.lft.to/lastmile_qr_scan"}, "type": "electric_scooter", "lat": 38.90912083333333, "is_reserved": 0, "fusion_lat": 0.0}, {"bike_id": "f8ca6ed2d6a2bfa76e0844a4182982d7", "fusion_lon": 0.0, "lon": -77.027234, "name": "f8ca6ed2d6a2bfa76e0844a4182982d7", "is_disabled": 0, "rental_uris": {"android": "https://dc.lft.to/lastmile_qr_scan", "ios": "https://dc.lft.to/lastmile_qr_scan"}, "type": "electric_scooter", "lat": 38.949540666666664, "is_reserved": 0, "fusion_lat": 0.0}, {"bike_id": "8008cf5f7e4f00309c52a377ae53297a", "fusion_lon": 0.0, "lon": -77.02619183333333, "name": "8008cf5f7e4f00309c52a377ae53297a", "is_disabled": 0, "rental_uris": {"android": "https://dc.lft.to/lastmile_qr_scan", "ios": "https://dc.lft.to/lastmile_qr_scan"}, "type": "electric_scooter", "lat": 38.905107666666666, "is_reserved": 0, "fusion_lat": 0.0}, {"bike_id": "3128ad809fcff6d2b3ba2195997e86a3", "fusion_lon": 0.0, "lon": -77.026747, "name": "3128ad809fcff6d2b3ba2195997e86a3", "is_disabled": 0, "rental_uris": {"android": "https://dc.lft.to/lastmile_qr_scan", "ios": "https://dc.lft.to/lastmile_qr_scan"}, "type": "electric_scooter", "lat": 38.916941666666666, "is_reserved": 0, "fusion_lat": 0.0}, {"bike_id": "6eb0bc443c006640bbce42a660e71053", "fusion_lon": 0.0, "lon": -76.99610416666667, "name": "6eb0bc443c006640bbce42a660e71053", "is_disabled": 0, "rental_uris": {"android": "https://dc.lft.to/lastmile_qr_scan", "ios": "https://dc.lft.to/lastmile_qr_scan"}, "type": "electric_scooter", "lat": 38.903595333333335, "is_reserved": 0, "fusion_lat": 0.0}, {"bike_id": "02824ca72f6340fb585ea68917e90941", "fusion_lon": 0.0, "lon": -77.02700383333334, "name": "02824ca72f6340fb585ea68917e90941", "is_disabled": 0, "rental_uris": {"android": "https://dc.lft.to/lastmile_qr_scan", "ios": "https://dc.lft.to/lastmile_qr_scan"}, "type": "electric_scooter", "lat": 38.9066635, "is_reserved": 0, "fusion_lat": 0.0}, {"bike_id": "5a986d9dc00d4f39fdb6cfbe869d8288", "fusion_lon": 0.0, "lon": -76.91907433333333, "name": "5a986d9dc00d4f39fdb6cfbe869d8288", "is_disabled": 0, "rental_uris": {"android": "https://dc.lft.to/lastmile_qr_scan", "ios": "https://dc.lft.to/lastmile_qr_scan"}, "type": "electric_scooter", "lat": 38.885758333333335, "is_reserved": 0, "fusion_lat": 0.0}, {"bike_id": "6432881b03dac493b807d839baab7f25", "fusion_lon": 0.0, "lon": -77.0296985, "name": "6432881b03dac493b807d839baab7f25", "is_disabled": 0, "rental_uris": {"android": "https://dc.lft.to/lastmile_qr_scan", "ios": "https://dc.lft.to/lastmile_qr_scan"}, "type": "electric_scooter", "lat": 38.91677083333333, "is_reserved": 0, "fusion_lat": 0.0}, {"bike_id": "e7df926a613fe53741e5f3291dec8274", "fusion_lon": 0.0, "lon": -77.04011666666666, "name": "e7df926a613fe53741e5f3291dec8274", "is_disabled": 0, "rental_uris": {"android": "https://dc.lft.to/lastmile_qr_scan", "ios": "https://dc.lft.to/lastmile_qr_scan"}, "type": "electric_scooter", "lat": 38.914115, "is_reserved": 0, "fusion_lat": 0.0}, {"bike_id": "4c6342bb2390f16c04630c126590849f", "fusion_lon": 0.0, "lon": -76.98617583333333, "name": "4c6342bb2390f16c04630c126590849f", "is_disabled": 0, "rental_uris": {"android": "https://dc.lft.to/lastmile_qr_scan", "ios": "https://dc.lft.to/lastmile_qr_scan"}, "type": "electric_scooter", "lat": 38.938272, "is_reserved": 0, "fusion_lat": 0.0}, {"bike_id": "4dcccc82a234d8dc21d3c98a571bdff4", "fusion_lon": 0.0, "lon": -77.03653083333333, "name": "4dcccc82a234d8dc21d3c98a571bdff4", "is_disabled": 0, "rental_uris": {"android": "https://dc.lft.to/lastmile_qr_scan", "ios": "https://dc.lft.to/lastmile_qr_scan"}, "type": "electric_scooter", "lat": 38.91268766666666, "is_reserved": 0, "fusion_lat": 0.0}, {"bike_id": "fa76d11dc9022c579220b1b352559a36", "fusion_lon": 0.0, "lon": -77.0153365, "name": "fa76d11dc9022c579220b1b352559a36", "is_disabled": 0, "rental_uris": {"android": "https://dc.lft.to/lastmile_qr_scan", "ios": "https://dc.lft.to/lastmile_qr_scan"}, "type": "electric_scooter", "lat": 38.88740816666667, "is_reserved": 0, "fusion_lat": 0.0}, {"bike_id": "36951faeec5df48d977d3f863815f958", "fusion_lon": 0.0, "lon": -77.0316375, "name": "36951faeec5df48d977d3f863815f958", "is_disabled": 0, "rental_uris": {"android": "https://dc.lft.to/lastmile_qr_scan", "ios": "https://dc.lft.to/lastmile_qr_scan"}, "type": "electric_scooter", "lat": 38.892204, "is_reserved": 0, "fusion_lat": 0.0}, {"bike_id": "c1f37182ebad6bfcf0eea79de5163a80", "fusion_lon": 0.0, "lon": -77.05863066666667, "name": "c1f37182ebad6bfcf0eea79de5163a80", "is_disabled": 0, "rental_uris": {"android": "https://dc.lft.to/lastmile_qr_scan", "ios": "https://dc.lft.to/lastmile_qr_scan"}, "type": "electric_scooter", "lat": 38.936113, "is_reserved": 0, "fusion_lat": 0.0}, {"bike_id": "c7f1c620279bf7591c488e461af259de", "fusion_lon": 0.0, "lon": -77.03363083333333, "name": "c7f1c620279bf7591c488e461af259de", "is_disabled": 0, "rental_uris": {"android": "https://dc.lft.to/lastmile_qr_scan", "ios": "https://dc.lft.to/lastmile_qr_scan"}, "type": "electric_scooter", "lat": 38.9288595, "is_reserved": 0, "fusion_lat": 0.0}, {"bike_id": "7e0cbb84819c7edef08dda43c2a5ca43", "fusion_lon": 0.0, "lon": -77.02805283333333, "name": "7e0cbb84819c7edef08dda43c2a5ca43", "is_disabled": 0, "rental_uris": {"android": "https://dc.lft.to/lastmile_qr_scan", "ios": "https://dc.lft.to/lastmile_qr_scan"}, "type": "electric_scooter", "lat": 38.89535216666667, "is_reserved": 0, "fusion_lat": 0.0}, {"bike_id": "b4d986c01d290028a38d043342a6b4da", "fusion_lon": 0.0, "lon": -77.03223233333334, "name": "b4d986c01d290028a38d043342a6b4da", "is_disabled": 0, "rental_uris": {"android": "https://dc.lft.to/lastmile_qr_scan", "ios": "https://dc.lft.to/lastmile_qr_scan"}, "type": "electric_scooter", "lat": 38.89220066666667, "is_reserved": 0, "fusion_lat": 0.0}, {"bike_id": "75ad44ab08d45e7c44455f4628db3aba", "fusion_lon": 0.0, "lon": -77.06521866666667, "name": "75ad44ab08d45e7c44455f4628db3aba", "is_disabled": 0, "rental_uris": {"android": "https://dc.lft.to/lastmile_qr_scan", "ios": "https://dc.lft.to/lastmile_qr_scan"}, "type": "electric_scooter", "lat": 38.90585, "is_reserved": 0, "fusion_lat": 0.0}, {"bike_id": "1db95d09120dcbd1a0750e33529cab4f", "fusion_lon": 0.0, "lon": -77.03638316666667, "name": "1db95d09120dcbd1a0750e33529cab4f", "is_disabled": 0, "rental_uris": {"android": "https://dc.lft.to/lastmile_qr_scan", "ios": "https://dc.lft.to/lastmile_qr_scan"}, "type": "electric_scooter", "lat": 38.9317205, "is_reserved": 0, "fusion_lat": 0.0}, {"bike_id": "56d9cbb7056a33724192fde816400328", "fusion_lon": 0.0, "lon": -76.99362333333333, "name": "56d9cbb7056a33724192fde816400328", "is_disabled": 0, "rental_uris": {"android": "https://dc.lft.to/lastmile_qr_scan", "ios": "https://dc.lft.to/lastmile_qr_scan"}, "type": "electric_scooter", "lat": 38.92839333333333, "is_reserved": 0, "fusion_lat": 0.0}, {"bike_id": "d1bb7687de3acfe59b6e0e794f78bd4e", "fusion_lon": 0.0, "lon": -77.031821, "name": "d1bb7687de3acfe59b6e0e794f78bd4e", "is_disabled": 0, "rental_uris": {"android": "https://dc.lft.to/lastmile_qr_scan", "ios": "https://dc.lft.to/lastmile_qr_scan"}, "type": "electric_scooter", "lat": 38.918540166666666, "is_reserved": 0, "fusion_lat": 0.0}, {"bike_id": "4adff0008b1a1000154ccec3e4768cf1", "fusion_lon": 0.0, "lon": -77.03687366666666, "name": "4adff0008b1a1000154ccec3e4768cf1", "is_disabled": 0, "rental_uris": {"android": "https://dc.lft.to/lastmile_qr_scan", "ios": "https://dc.lft.to/lastmile_qr_scan"}, "type": "electric_scooter", "lat": 38.9167615, "is_reserved": 0, "fusion_lat": 0.0}, {"bike_id": "27bbdfd53fae5649d7e59bf1b77c0aed", "fusion_lon": 0.0, "lon": -76.98708333333333, "name": "27bbdfd53fae5649d7e59bf1b77c0aed", "is_disabled": 0, "rental_uris": {"android": "https://dc.lft.to/lastmile_qr_scan", "ios": "https://dc.lft.to/lastmile_qr_scan"}, "type": "electric_scooter", "lat": 38.86534233333333, "is_reserved": 0, "fusion_lat": 0.0}, {"bike_id": "8dff15bad6cdfe7f67db7995103da7e8", "fusion_lon": 0.0, "lon": -77.026824, "name": "8dff15bad6cdfe7f67db7995103da7e8", "is_disabled": 0, "rental_uris": {"android": "https://dc.lft.to/lastmile_qr_scan", "ios": "https://dc.lft.to/lastmile_qr_scan"}, "type": "electric_scooter", "lat": 38.92385266666667, "is_reserved": 0, "fusion_lat": 0.0}, {"bike_id": "5418bebcd747a8b6842ecd0601d32c08", "fusion_lon": 0.0, "lon": -77.0421495, "name": "5418bebcd747a8b6842ecd0601d32c08", "is_disabled": 0, "rental_uris": {"android": "https://dc.lft.to/lastmile_qr_scan", "ios": "https://dc.lft.to/lastmile_qr_scan"}, "type": "electric_scooter", "lat": 38.924574666666665, "is_reserved": 0, "fusion_lat": 0.0}, {"bike_id": "d45120d52123acdf5eea887058ebe70c", "fusion_lon": 0.0, "lon": -77.02213216666667, "name": "d45120d52123acdf5eea887058ebe70c", "is_disabled": 0, "rental_uris": {"android": "https://dc.lft.to/lastmile_qr_scan", "ios": "https://dc.lft.to/lastmile_qr_scan"}, "type": "electric_scooter", "lat": 38.9126515, "is_reserved": 0, "fusion_lat": 0.0}, {"bike_id": "1841fa616fc68cd46fe2bc084cffebcb", "fusion_lon": 0.0, "lon": -77.05502866666667, "name": "1841fa616fc68cd46fe2bc084cffebcb", "is_disabled": 0, "rental_uris": {"android": "https://dc.lft.to/lastmile_qr_scan", "ios": "https://dc.lft.to/lastmile_qr_scan"}, "type": "electric_scooter", "lat": 38.936551333333334, "is_reserved": 0, "fusion_lat": 0.0}, {"bike_id": "d8ab8ff63b6a6d20bf4a4ac2c242f424", "fusion_lon": 0.0, "lon": -77.02174366666667, "name": "d8ab8ff63b6a6d20bf4a4ac2c242f424", "is_disabled": 0, "rental_uris": {"android": "https://dc.lft.to/lastmile_qr_scan", "ios": "https://dc.lft.to/lastmile_qr_scan"}, "type": "electric_scooter", "lat": 38.942890166666665, "is_reserved": 0, "fusion_lat": 0.0}, {"bike_id": "f9896e66fdf45b98250332dd0f7c58ea", "fusion_lon": 0.0, "lon": -77.01134833333333, "name": "f9896e66fdf45b98250332dd0f7c58ea", "is_disabled": 0, "rental_uris": {"android": "https://dc.lft.to/lastmile_qr_scan", "ios": "https://dc.lft.to/lastmile_qr_scan"}, "type": "electric_scooter", "lat": 38.885245166666664, "is_reserved": 0, "fusion_lat": 0.0}, {"bike_id": "c609e214f791ca19ff2190d2873561c6", "fusion_lon": 0.0, "lon": -77.043103, "name": "c609e214f791ca19ff2190d2873561c6", "is_disabled": 0, "rental_uris": {"android": "https://dc.lft.to/lastmile_qr_scan", "ios": "https://dc.lft.to/lastmile_qr_scan"}, "type": "electric_scooter", "lat": 38.881062, "is_reserved": 0, "fusion_lat": 0.0}, {"bike_id": "41dd1f69b59eddbbcb38df223b37fbc0", "fusion_lon": 0.0, "lon": -77.131463, "name": "41dd1f69b59eddbbcb38df223b37fbc0", "is_disabled": 0, "rental_uris": {"android": "https://dc.lft.to/lastmile_qr_scan", "ios": "https://dc.lft.to/lastmile_qr_scan"}, "type": "electric_bike", "lat": 38.8616975, "is_reserved": 0, "fusion_lat": 0.0}, {"bike_id": "16e6550d1ae1e7a715feb7dde211fd11", "fusion_lon": 0.0, "lon": -76.97184966666667, "name": "16e6550d1ae1e7a715feb7dde211fd11", "is_disabled": 0, "rental_uris": {"android": "https://dc.lft.to/lastmile_qr_scan", "ios": "https://dc.lft.to/lastmile_qr_scan"}, "type": "electric_bike", "lat": 38.9178685, "is_reserved": 0, "fusion_lat": 0.0}, {"bike_id": "ed79fd019ed98a2a134287445b95df1c", "fusion_lon": 0.0, "lon": -77.03472416666666, "name": "ed79fd019ed98a2a134287445b95df1c", "is_disabled": 0, "rental_uris": {"android": "https://dc.lft.to/lastmile_qr_scan", "ios": "https://dc.lft.to/lastmile_qr_scan"}, "type": "electric_scooter", "lat": 38.91706966666667, "is_reserved": 0, "fusion_lat": 0.0}, {"bike_id": "d241dee71b87d9709703e6301e83bde2", "fusion_lon": 0.0, "lon": -77.02403883333334, "name": "d241dee71b87d9709703e6301e83bde2", "is_disabled": 0, "rental_uris": {"android": "https://dc.lft.to/lastmile_qr_scan", "ios": "https://dc.lft.to/lastmile_qr_scan"}, "type": "electric_scooter", "lat": 38.92079316666667, "is_reserved": 0, "fusion_lat": 0.0}, {"bike_id": "532e08a9be30b13f328dbef54be14709", "fusion_lon": 0.0, "lon": -77.0418915, "name": "532e08a9be30b13f328dbef54be14709", "is_disabled": 0, "rental_uris": {"android": "https://dc.lft.to/lastmile_qr_scan", "ios": "https://dc.lft.to/lastmile_qr_scan"}, "type": "electric_scooter", "lat": 38.905146333333334, "is_reserved": 0, "fusion_lat": 0.0}, {"bike_id": "507acd70bd071856dd1a580034800ec7", "fusion_lon": 0.0, "lon": -77.11756166666666, "name": "507acd70bd071856dd1a580034800ec7", "is_disabled": 0, "rental_uris": {"android": "https://dc.lft.to/lastmile_qr_scan", "ios": "https://dc.lft.to/lastmile_qr_scan"}, "type": "electric_bike", "lat": 39.0490965, "is_reserved": 0, "fusion_lat": 0.0}, {"bike_id": "dde4adad7f983734c3baa22bd561c9ac", "fusion_lon": 0.0, "lon": -77.0211305, "name": "dde4adad7f983734c3baa22bd561c9ac", "is_disabled": 0, "rental_uris": {"android": "https://dc.lft.to/lastmile_qr_scan", "ios": "https://dc.lft.to/lastmile_qr_scan"}, "type": "electric_scooter", "lat": 38.917386666666665, "is_reserved": 0, "fusion_lat": 0.0}, {"bike_id": "5ed6f64b2b2b3a36f371ca30f097b74b", "fusion_lon": 0.0, "lon": -77.06642466666666, "name": "5ed6f64b2b2b3a36f371ca30f097b74b", "is_disabled": 0, "rental_uris": {"android": "https://dc.lft.to/lastmile_qr_scan", "ios": "https://dc.lft.to/lastmile_qr_scan"}, "type": "electric_bike", "lat": 38.94953533333333, "is_reserved": 0, "fusion_lat": 0.0}, {"bike_id": "b384ca9306094a08203c37b2f2216900", "fusion_lon": 0.0, "lon": -77.04252016666666, "name": "b384ca9306094a08203c37b2f2216900", "is_disabled": 0, "rental_uris": {"android": "https://dc.lft.to/lastmile_qr_scan", "ios": "https://dc.lft.to/lastmile_qr_scan"}, "type": "electric_scooter", "lat": 38.91881133333333, "is_reserved": 0, "fusion_lat": 0.0}, {"bike_id": "00d7b27c44e0afa5b6d482b54ca1fbf5", "fusion_lon": 0.0, "lon": -77.0310965, "name": "00d7b27c44e0afa5b6d482b54ca1fbf5", "is_disabled": 0, "rental_uris": {"android": "https://dc.lft.to/lastmile_qr_scan", "ios": "https://dc.lft.to/lastmile_qr_scan"}, "type": "electric_scooter", "lat": 38.894924, "is_reserved": 0, "fusion_lat": 0.0}, {"bike_id": "9e17e0f881c4cd544664684b4b0a883c", "fusion_lon": 0.0, "lon": -77.02495766666667, "name": "9e17e0f881c4cd544664684b4b0a883c", "is_disabled": 0, "rental_uris": {"android": "https://dc.lft.to/lastmile_qr_scan", "ios": "https://dc.lft.to/lastmile_qr_scan"}, "type": "electric_scooter", "lat": 38.941861333333335, "is_reserved": 0, "fusion_lat": 0.0}, {"bike_id": "4fad7cd11e59fa381ed559e1eefe1270", "fusion_lon": 0.0, "lon": -77.0416045, "name": "4fad7cd11e59fa381ed559e1eefe1270", "is_disabled": 0, "rental_uris": {"android": "https://dc.lft.to/lastmile_qr_scan", "ios": "https://dc.lft.to/lastmile_qr_scan"}, "type": "electric_scooter", "lat": 38.934220333333336, "is_reserved": 0, "fusion_lat": 0.0}, {"bike_id": "1452c1795dc9ba5a9b86aab958b53888", "fusion_lon": 0.0, "lon": -77.02956116666667, "name": "1452c1795dc9ba5a9b86aab958b53888", "is_disabled": 0, "rental_uris": {"android": "https://dc.lft.to/lastmile_qr_scan", "ios": "https://dc.lft.to/lastmile_qr_scan"}, "type": "electric_scooter", "lat": 38.916827833333336, "is_reserved": 0, "fusion_lat": 0.0}, {"bike_id": "24e5925ac4b8f2a56e53142f3b8f4401", "fusion_lon": 0.0, "lon": -77.03616083333333, "name": "24e5925ac4b8f2a56e53142f3b8f4401", "is_disabled": 0, "rental_uris": {"android": "https://dc.lft.to/lastmile_qr_scan", "ios": "https://dc.lft.to/lastmile_qr_scan"}, "type": "electric_bike", "lat": 38.94294, "is_reserved": 0, "fusion_lat": 0.0}, {"bike_id": "518277539cb556b6278983f6e89e2c77", "fusion_lon": 0.0, "lon": -77.024855, "name": "518277539cb556b6278983f6e89e2c77", "is_disabled": 0, "rental_uris": {"android": "https://dc.lft.to/lastmile_qr_scan", "ios": "https://dc.lft.to/lastmile_qr_scan"}, "type": "electric_scooter", "lat": 38.93885316666667, "is_reserved": 0, "fusion_lat": 0.0}, {"bike_id": "d7de31157a8a1c6f5547343b7688be06", "fusion_lon": 0.0, "lon": -77.12075866666666, "name": "d7de31157a8a1c6f5547343b7688be06", "is_disabled": 0, "rental_uris": {"android": "https://dc.lft.to/lastmile_qr_scan", "ios": "https://dc.lft.to/lastmile_qr_scan"}, "type": "electric_bike", "lat": 38.854133833333336, "is_reserved": 0, "fusion_lat": 0.0}, {"bike_id": "1ddc7e5b44cc793aa18b3dd867f7bf82", "fusion_lon": 0.0, "lon": -77.0322955, "name": "1ddc7e5b44cc793aa18b3dd867f7bf82", "is_disabled": 0, "rental_uris": {"android": "https://dc.lft.to/lastmile_qr_scan", "ios": "https://dc.lft.to/lastmile_qr_scan"}, "type": "electric_scooter", "lat": 38.92988733333333, "is_reserved": 0, "fusion_lat": 0.0}, {"bike_id": "d328692be8cb9e702c25267fb2f3265e", "fusion_lon": 0.0, "lon": -77.0539445, "name": "d328692be8cb9e702c25267fb2f3265e", "is_disabled": 0, "rental_uris": {"android": "https://dc.lft.to/lastmile_qr_scan", "ios": "https://dc.lft.to/lastmile_qr_scan"}, "type": "electric_scooter", "lat": 38.92802416666667, "is_reserved": 0, "fusion_lat": 0.0}, {"bike_id": "25e48d3a1efc5f95b4410b5a001256a3", "fusion_lon": 0.0, "lon": -77.04098016666667, "name": "25e48d3a1efc5f95b4410b5a001256a3", "is_disabled": 0, "rental_uris": {"android": "https://dc.lft.to/lastmile_qr_scan", "ios": "https://dc.lft.to/lastmile_qr_scan"}, "type": "electric_scooter", "lat": 38.90585433333333, "is_reserved": 0, "fusion_lat": 0.0}, {"bike_id": "8c0a8e1cb260a4125b698027972f15bf", "fusion_lon": 0.0, "lon": -77.112444, "name": "8c0a8e1cb260a4125b698027972f15bf", "is_disabled": 0, "rental_uris": {"android": "https://dc.lft.to/lastmile_qr_scan", "ios": "https://dc.lft.to/lastmile_qr_scan"}, "type": "electric_bike", "lat": 38.85604983333333, "is_reserved": 0, "fusion_lat": 0.0}, {"bike_id": "2b740775382dedc84148b0a382aa4e35", "fusion_lon": 0.0, "lon": -77.01447716666667, "name": "2b740775382dedc84148b0a382aa4e35", "is_disabled": 0, "rental_uris": {"android": "https://dc.lft.to/lastmile_qr_scan", "ios": "https://dc.lft.to/lastmile_qr_scan"}, "type": "electric_scooter", "lat": 38.90965683333334, "is_reserved": 0, "fusion_lat": 0.0}, {"bike_id": "2091461f7d4abb2cbcf0ba3123c99a12", "fusion_lon": 0.0, "lon": -77.00349083333333, "name": "2091461f7d4abb2cbcf0ba3123c99a12", "is_disabled": 0, "rental_uris": {"android": "https://dc.lft.to/lastmile_qr_scan", "ios": "https://dc.lft.to/lastmile_qr_scan"}, "type": "electric_scooter", "lat": 38.90120266666667, "is_reserved": 0, "fusion_lat": 0.0}, {"bike_id": "540bd8e47a643a85521b599c549f387f", "fusion_lon": 0.0, "lon": -77.03288083333334, "name": "540bd8e47a643a85521b599c549f387f", "is_disabled": 0, "rental_uris": {"android": "https://dc.lft.to/lastmile_qr_scan", "ios": "https://dc.lft.to/lastmile_qr_scan"}, "type": "electric_scooter", "lat": 38.91987983333333, "is_reserved": 0, "fusion_lat": 0.0}, {"bike_id": "7ff654bc90bfafaaf25fa7984f0249c1", "fusion_lon": 0.0, "lon": -77.02493133333333, "name": "7ff654bc90bfafaaf25fa7984f0249c1", "is_disabled": 0, "rental_uris": {"android": "https://dc.lft.to/lastmile_qr_scan", "ios": "https://dc.lft.to/lastmile_qr_scan"}, "type": "electric_scooter", "lat": 38.91948466666667, "is_reserved": 0, "fusion_lat": 0.0}, {"bike_id": "7b4db67434d8a5e91d20e18430fdd92e", "fusion_lon": 0.0, "lon": -77.0313045, "name": "7b4db67434d8a5e91d20e18430fdd92e", "is_disabled": 0, "rental_uris": {"android": "https://dc.lft.to/lastmile_qr_scan", "ios": "https://dc.lft.to/lastmile_qr_scan"}, "type": "electric_scooter", "lat": 38.918092333333334, "is_reserved": 0, "fusion_lat": 0.0}, {"bike_id": "9090d8c51a3dd59e069c139d63eb7180", "fusion_lon": 0.0, "lon": -77.03856783333333, "name": "9090d8c51a3dd59e069c139d63eb7180", "is_disabled": 0, "rental_uris": {"android": "https://dc.lft.to/lastmile_qr_scan", "ios": "https://dc.lft.to/lastmile_qr_scan"}, "type": "electric_scooter", "lat": 38.932043166666666, "is_reserved": 0, "fusion_lat": 0.0}, {"bike_id": "bac8e3ea1df28182c58bbbdc10f33041", "fusion_lon": 0.0, "lon": -77.05395466666667, "name": "bac8e3ea1df28182c58bbbdc10f33041", "is_disabled": 0, "rental_uris": {"android": "https://dc.lft.to/lastmile_qr_scan", "ios": "https://dc.lft.to/lastmile_qr_scan"}, "type": "electric_scooter", "lat": 38.928103, "is_reserved": 0, "fusion_lat": 0.0}, {"bike_id": "5526372d69822428dcbe81d03e0152fe", "fusion_lon": 0.0, "lon": -77.0593905, "name": "5526372d69822428dcbe81d03e0152fe", "is_disabled": 0, "rental_uris": {"android": "https://dc.lft.to/lastmile_qr_scan", "ios": "https://dc.lft.to/lastmile_qr_scan"}, "type": "electric_scooter", "lat": 38.909357666666665, "is_reserved": 0, "fusion_lat": 0.0}, {"bike_id": "0dbf1981cf492bc6fb8a69af8f478b80", "fusion_lon": 0.0, "lon": -77.03889283333334, "name": "0dbf1981cf492bc6fb8a69af8f478b80", "is_disabled": 0, "rental_uris": {"android": "https://dc.lft.to/lastmile_qr_scan", "ios": "https://dc.lft.to/lastmile_qr_scan"}, "type": "electric_scooter", "lat": 38.91709933333333, "is_reserved": 0, "fusion_lat": 0.0}, {"bike_id": "94d6f27488f06eb3841247d9b66c33fc", "fusion_lon": 0.0, "lon": -77.0273475, "name": "94d6f27488f06eb3841247d9b66c33fc", "is_disabled": 0, "rental_uris": {"android": "https://dc.lft.to/lastmile_qr_scan", "ios": "https://dc.lft.to/lastmile_qr_scan"}, "type": "electric_scooter", "lat": 38.92763716666666, "is_reserved": 0, "fusion_lat": 0.0}, {"bike_id": "eedd6110172167cf061a3f1463a49ec2", "fusion_lon": 0.0, "lon": -76.98401383333334, "name": "eedd6110172167cf061a3f1463a49ec2", "is_disabled": 0, "rental_uris": {"android": "https://dc.lft.to/lastmile_qr_scan", "ios": "https://dc.lft.to/lastmile_qr_scan"}, "type": "electric_scooter", "lat": 38.86698233333333, "is_reserved": 0, "fusion_lat": 0.0}, {"bike_id": "3a9ee3a79e44072cc68599e3a2102fc8", "fusion_lon": 0.0, "lon": -76.99404683333333, "name": "3a9ee3a79e44072cc68599e3a2102fc8", "is_disabled": 0, "rental_uris": {"android": "https://dc.lft.to/lastmile_qr_scan", "ios": "https://dc.lft.to/lastmile_qr_scan"}, "type": "electric_scooter", "lat": 38.921612333333336, "is_reserved": 0, "fusion_lat": 0.0}, {"bike_id": "c01653c5d3f27229724537f001bfbe06", "fusion_lon": 0.0, "lon": -77.02717816666667, "name": "c01653c5d3f27229724537f001bfbe06", "is_disabled": 0, "rental_uris": {"android": "https://dc.lft.to/lastmile_qr_scan", "ios": "https://dc.lft.to/lastmile_qr_scan"}, "type": "electric_scooter", "lat": 38.90091, "is_reserved": 0, "fusion_lat": 0.0}, {"bike_id": "fa515e49c1008c4e97ffd0cee8746897", "fusion_lon": 0.0, "lon": -77.03829433333334, "name": "fa515e49c1008c4e97ffd0cee8746897", "is_disabled": 0, "rental_uris": {"android": "https://dc.lft.to/lastmile_qr_scan", "ios": "https://dc.lft.to/lastmile_qr_scan"}, "type": "electric_scooter", "lat": 38.908047833333335, "is_reserved": 0, "fusion_lat": 0.0}, {"bike_id": "e1af9565ba47e238c9fe59d6234c9847", "fusion_lon": 0.0, "lon": -76.989339, "name": "e1af9565ba47e238c9fe59d6234c9847", "is_disabled": 0, "rental_uris": {"android": "https://dc.lft.to/lastmile_qr_scan", "ios": "https://dc.lft.to/lastmile_qr_scan"}, "type": "electric_bike", "lat": 38.867708666666665, "is_reserved": 0, "fusion_lat": 0.0}, {"bike_id": "d38b0b72c7ad52306a98fe855aa7c6cc", "fusion_lon": 0.0, "lon": -77.03404416666666, "name": "d38b0b72c7ad52306a98fe855aa7c6cc", "is_disabled": 0, "rental_uris": {"android": "https://dc.lft.to/lastmile_qr_scan", "ios": "https://dc.lft.to/lastmile_qr_scan"}, "type": "electric_scooter", "lat": 38.920508166666664, "is_reserved": 0, "fusion_lat": 0.0}, {"bike_id": "08dbacc5cb121d359bcac3e5c74ec9e1", "fusion_lon": 0.0, "lon": -76.93346616666666, "name": "08dbacc5cb121d359bcac3e5c74ec9e1", "is_disabled": 0, "rental_uris": {"android": "https://dc.lft.to/lastmile_qr_scan", "ios": "https://dc.lft.to/lastmile_qr_scan"}, "type": "electric_scooter", "lat": 38.888166166666664, "is_reserved": 0, "fusion_lat": 0.0}, {"bike_id": "e740d995f775382b176833f421f5af95", "fusion_lon": 0.0, "lon": -77.070634, "name": "e740d995f775382b176833f421f5af95", "is_disabled": 0, "rental_uris": {"android": "https://dc.lft.to/lastmile_qr_scan", "ios": "https://dc.lft.to/lastmile_qr_scan"}, "type": "electric_scooter", "lat": 38.9317985, "is_reserved": 0, "fusion_lat": 0.0}, {"bike_id": "64a11f762ce8a2ed69671bc99258672c", "fusion_lon": 0.0, "lon": -77.00774133333333, "name": "64a11f762ce8a2ed69671bc99258672c", "is_disabled": 0, "rental_uris": {"android": "https://dc.lft.to/lastmile_qr_scan", "ios": "https://dc.lft.to/lastmile_qr_scan"}, "type": "electric_bike", "lat": 38.878587333333336, "is_reserved": 0, "fusion_lat": 0.0}, {"bike_id": "3e13e3866554fbbc2eacdc57642853b2", "fusion_lon": 0.0, "lon": -77.04823383333333, "name": "3e13e3866554fbbc2eacdc57642853b2", "is_disabled": 0, "rental_uris": {"android": "https://dc.lft.to/lastmile_qr_scan", "ios": "https://dc.lft.to/lastmile_qr_scan"}, "type": "electric_scooter", "lat": 38.907886500000004, "is_reserved": 0, "fusion_lat": 0.0}, {"bike_id": "45692eb618258a5691a9ba9966ef7977", "fusion_lon": 0.0, "lon": -77.02974016666667, "name": "45692eb618258a5691a9ba9966ef7977", "is_disabled": 0, "rental_uris": {"android": "https://dc.lft.to/lastmile_qr_scan", "ios": "https://dc.lft.to/lastmile_qr_scan"}, "type": "electric_scooter", "lat": 38.922799166666664, "is_reserved": 0, "fusion_lat": 0.0}, {"bike_id": "22e0a6fba5a14a799684326841c8ab0b", "fusion_lon": 0.0, "lon": -77.02706683333334, "name": "22e0a6fba5a14a799684326841c8ab0b", "is_disabled": 0, "rental_uris": {"android": "https://dc.lft.to/lastmile_qr_scan", "ios": "https://dc.lft.to/lastmile_qr_scan"}, "type": "electric_scooter", "lat": 38.916255, "is_reserved": 0, "fusion_lat": 0.0}, {"bike_id": "09c05494790f1f10e9d7dbde56f6e2e1", "fusion_lon": 0.0, "lon": -77.03155316666667, "name": "09c05494790f1f10e9d7dbde56f6e2e1", "is_disabled": 0, "rental_uris": {"android": "https://dc.lft.to/lastmile_qr_scan", "ios": "https://dc.lft.to/lastmile_qr_scan"}, "type": "electric_scooter", "lat": 38.892255666666664, "is_reserved": 0, "fusion_lat": 0.0}, {"bike_id": "bedcdc349575f4ce45bb59a11d785353", "fusion_lon": 0.0, "lon": -77.02622616666666, "name": "bedcdc349575f4ce45bb59a11d785353", "is_disabled": 0, "rental_uris": {"android": "https://dc.lft.to/lastmile_qr_scan", "ios": "https://dc.lft.to/lastmile_qr_scan"}, "type": "electric_bike", "lat": 38.96227616666667, "is_reserved": 0, "fusion_lat": 0.0}, {"bike_id": "7829cdcad5c4205798e2f6e3e1d9ca4f", "fusion_lon": 0.0, "lon": -77.03324566666667, "name": "7829cdcad5c4205798e2f6e3e1d9ca4f", "is_disabled": 0, "rental_uris": {"android": "https://dc.lft.to/lastmile_qr_scan", "ios": "https://dc.lft.to/lastmile_qr_scan"}, "type": "electric_scooter", "lat": 38.8982005, "is_reserved": 0, "fusion_lat": 0.0}, {"bike_id": "0a84381b9b8e023a871724b0f7dc155e", "fusion_lon": 0.0, "lon": -76.951432, "name": "0a84381b9b8e023a871724b0f7dc155e", "is_disabled": 0, "rental_uris": {"android": "https://dc.lft.to/lastmile_qr_scan", "ios": "https://dc.lft.to/lastmile_qr_scan"}, "type": "electric_scooter", "lat": 38.89036866666667, "is_reserved": 0, "fusion_lat": 0.0}, {"bike_id": "19ce375290c6e3a2f33769f20bf470a1", "fusion_lon": 0.0, "lon": -77.036612, "name": "19ce375290c6e3a2f33769f20bf470a1", "is_disabled": 0, "rental_uris": {"android": "https://dc.lft.to/lastmile_qr_scan", "ios": "https://dc.lft.to/lastmile_qr_scan"}, "type": "electric_scooter", "lat": 38.9227815, "is_reserved": 0, "fusion_lat": 0.0}, {"bike_id": "12a3a090674f2e8ade595739be1902e9", "fusion_lon": 0.0, "lon": -77.02500416666666, "name": "12a3a090674f2e8ade595739be1902e9", "is_disabled": 0, "rental_uris": {"android": "https://dc.lft.to/lastmile_qr_scan", "ios": "https://dc.lft.to/lastmile_qr_scan"}, "type": "electric_scooter", "lat": 38.91919216666667, "is_reserved": 0, "fusion_lat": 0.0}, {"bike_id": "48c986116a24457e60ed3d053cd0e7ca", "fusion_lon": 0.0, "lon": -77.0020525, "name": "48c986116a24457e60ed3d053cd0e7ca", "is_disabled": 0, "rental_uris": {"android": "https://dc.lft.to/lastmile_qr_scan", "ios": "https://dc.lft.to/lastmile_qr_scan"}, "type": "electric_scooter", "lat": 38.90239783333333, "is_reserved": 0, "fusion_lat": 0.0}, {"bike_id": "f272c3edf41b8bfb7073de3bd5a999d9", "fusion_lon": 0.0, "lon": -77.02178283333333, "name": "f272c3edf41b8bfb7073de3bd5a999d9", "is_disabled": 0, "rental_uris": {"android": "https://dc.lft.to/lastmile_qr_scan", "ios": "https://dc.lft.to/lastmile_qr_scan"}, "type": "electric_scooter", "lat": 38.9150425, "is_reserved": 0, "fusion_lat": 0.0}, {"bike_id": "48aeab61b7de26d54a8890f1e2969982", "fusion_lon": 0.0, "lon": -76.88367583333333, "name": "48aeab61b7de26d54a8890f1e2969982", "is_disabled": 0, "rental_uris": {"android": "https://dc.lft.to/lastmile_qr_scan", "ios": "https://dc.lft.to/lastmile_qr_scan"}, "type": "electric_bike", "lat": 38.99811866666667, "is_reserved": 0, "fusion_lat": 0.0}, {"bike_id": "ebec766d0533ca2d6724f14a580c7054", "fusion_lon": 0.0, "lon": -77.0376265, "name": "ebec766d0533ca2d6724f14a580c7054", "is_disabled": 0, "rental_uris": {"android": "https://dc.lft.to/lastmile_qr_scan", "ios": "https://dc.lft.to/lastmile_qr_scan"}, "type": "electric_scooter", "lat": 38.92915083333333, "is_reserved": 0, "fusion_lat": 0.0}, {"bike_id": "e574f7b82aa9aac78d7ece0111c61036", "fusion_lon": 0.0, "lon": -77.02487816666667, "name": "e574f7b82aa9aac78d7ece0111c61036", "is_disabled": 0, "rental_uris": {"android": "https://dc.lft.to/lastmile_qr_scan", "ios": "https://dc.lft.to/lastmile_qr_scan"}, "type": "electric_scooter", "lat": 38.93886216666667, "is_reserved": 0, "fusion_lat": 0.0}, {"bike_id": "e0efcd151883b2d1ff480ce08eb85e71", "fusion_lon": 0.0, "lon": -77.03373983333333, "name": "e0efcd151883b2d1ff480ce08eb85e71", "is_disabled": 0, "rental_uris": {"android": "https://dc.lft.to/lastmile_qr_scan", "ios": "https://dc.lft.to/lastmile_qr_scan"}, "type": "electric_scooter", "lat": 38.901141, "is_reserved": 0, "fusion_lat": 0.0}, {"bike_id": "4c67ac36287d29244e9bea7202c3b467", "fusion_lon": 0.0, "lon": -77.0238645, "name": "4c67ac36287d29244e9bea7202c3b467", "is_disabled": 0, "rental_uris": {"android": "https://dc.lft.to/lastmile_qr_scan", "ios": "https://dc.lft.to/lastmile_qr_scan"}, "type": "electric_scooter", "lat": 38.9195735, "is_reserved": 0, "fusion_lat": 0.0}, {"bike_id": "4cc11d6373fd7b396bc517af5d5defbb", "fusion_lon": 0.0, "lon": -77.00902416666666, "name": "4cc11d6373fd7b396bc517af5d5defbb", "is_disabled": 0, "rental_uris": {"android": "https://dc.lft.to/lastmile_qr_scan", "ios": "https://dc.lft.to/lastmile_qr_scan"}, "type": "electric_bike", "lat": 38.9106165, "is_reserved": 0, "fusion_lat": 0.0}, {"bike_id": "51ed9453b072f7fe5a82eff87d9d525c", "fusion_lon": 0.0, "lon": -77.02984883333333, "name": "51ed9453b072f7fe5a82eff87d9d525c", "is_disabled": 0, "rental_uris": {"android": "https://dc.lft.to/lastmile_qr_scan", "ios": "https://dc.lft.to/lastmile_qr_scan"}, "type": "electric_scooter", "lat": 38.895691166666666, "is_reserved": 0, "fusion_lat": 0.0}, {"bike_id": "39da161760fe7741b03980888ae70160", "fusion_lon": 0.0, "lon": -77.05732016666667, "name": "39da161760fe7741b03980888ae70160", "is_disabled": 0, "rental_uris": {"android": "https://dc.lft.to/lastmile_qr_scan", "ios": "https://dc.lft.to/lastmile_qr_scan"}, "type": "electric_scooter", "lat": 38.93352933333333, "is_reserved": 0, "fusion_lat": 0.0}, {"bike_id": "4aef13a336644695306a4bc23218efbb", "fusion_lon": 0.0, "lon": -76.97705833333333, "name": "4aef13a336644695306a4bc23218efbb", "is_disabled": 0, "rental_uris": {"android": "https://dc.lft.to/lastmile_qr_scan", "ios": "https://dc.lft.to/lastmile_qr_scan"}, "type": "electric_bike", "lat": 38.949124166666664, "is_reserved": 0, "fusion_lat": 0.0}, {"bike_id": "b822354ebcf23b023ec2daca92e7ddeb", "fusion_lon": 0.0, "lon": -77.03769433333333, "name": "b822354ebcf23b023ec2daca92e7ddeb", "is_disabled": 0, "rental_uris": {"android": "https://dc.lft.to/lastmile_qr_scan", "ios": "https://dc.lft.to/lastmile_qr_scan"}, "type": "electric_scooter", "lat": 38.9296695, "is_reserved": 0, "fusion_lat": 0.0}, {"bike_id": "6115133ea081695fbcd2c9db03f04528", "fusion_lon": 0.0, "lon": -77.03287966666667, "name": "6115133ea081695fbcd2c9db03f04528", "is_disabled": 0, "rental_uris": {"android": "https://dc.lft.to/lastmile_qr_scan", "ios": "https://dc.lft.to/lastmile_qr_scan"}, "type": "electric_scooter", "lat": 38.927525333333335, "is_reserved": 0, "fusion_lat": 0.0}, {"bike_id": "dc9d2073041abd4c7843a367199e49b7", "fusion_lon": 0.0, "lon": -77.03289483333333, "name": "dc9d2073041abd4c7843a367199e49b7", "is_disabled": 0, "rental_uris": {"android": "https://dc.lft.to/lastmile_qr_scan", "ios": "https://dc.lft.to/lastmile_qr_scan"}, "type": "electric_scooter", "lat": 38.9199275, "is_reserved": 0, "fusion_lat": 0.0}, {"bike_id": "0b8f3d4fcc7de641da015af0c80f1c3c", "fusion_lon": 0.0, "lon": -76.987102, "name": "0b8f3d4fcc7de641da015af0c80f1c3c", "is_disabled": 0, "rental_uris": {"android": "https://dc.lft.to/lastmile_qr_scan", "ios": "https://dc.lft.to/lastmile_qr_scan"}, "type": "electric_scooter", "lat": 38.86698116666667, "is_reserved": 0, "fusion_lat": 0.0}, {"bike_id": "fd547e3dbbf6920ecefb2f8a6f3f96f9", "fusion_lon": 0.0, "lon": -77.06240583333333, "name": "fd547e3dbbf6920ecefb2f8a6f3f96f9", "is_disabled": 0, "rental_uris": {"android": "https://dc.lft.to/lastmile_qr_scan", "ios": "https://dc.lft.to/lastmile_qr_scan"}, "type": "electric_scooter", "lat": 38.905261833333334, "is_reserved": 0, "fusion_lat": 0.0}, {"bike_id": "c376cabfd16d86c3fdbece60cc4648f2", "fusion_lon": 0.0, "lon": -77.00203283333333, "name": "c376cabfd16d86c3fdbece60cc4648f2", "is_disabled": 0, "rental_uris": {"android": "https://dc.lft.to/lastmile_qr_scan", "ios": "https://dc.lft.to/lastmile_qr_scan"}, "type": "electric_scooter", "lat": 38.902441, "is_reserved": 0, "fusion_lat": 0.0}, {"bike_id": "f5cbcdee88e214cbdd6d6de2de648bba", "fusion_lon": 0.0, "lon": -77.04032816666667, "name": "f5cbcdee88e214cbdd6d6de2de648bba", "is_disabled": 0, "rental_uris": {"android": "https://dc.lft.to/lastmile_qr_scan", "ios": "https://dc.lft.to/lastmile_qr_scan"}, "type": "electric_scooter", "lat": 38.89898516666667, "is_reserved": 0, "fusion_lat": 0.0}, {"bike_id": "9d049520f6226d7fee1fb49cec22f276", "fusion_lon": 0.0, "lon": -77.04172333333334, "name": "9d049520f6226d7fee1fb49cec22f276", "is_disabled": 0, "rental_uris": {"android": "https://dc.lft.to/lastmile_qr_scan", "ios": "https://dc.lft.to/lastmile_qr_scan"}, "type": "electric_scooter", "lat": 38.91637266666667, "is_reserved": 0, "fusion_lat": 0.0}, {"bike_id": "441a14b5a1b9edcf0d9eadefc5e7a223", "fusion_lon": 0.0, "lon": -77.07934516666667, "name": "441a14b5a1b9edcf0d9eadefc5e7a223", "is_disabled": 0, "rental_uris": {"android": "https://dc.lft.to/lastmile_qr_scan", "ios": "https://dc.lft.to/lastmile_qr_scan"}, "type": "electric_scooter", "lat": 38.947684833333334, "is_reserved": 0, "fusion_lat": 0.0}, {"bike_id": "cab8906e311272b19cf7285ecb6dc345", "fusion_lon": 0.0, "lon": -77.02699483333333, "name": "cab8906e311272b19cf7285ecb6dc345", "is_disabled": 0, "rental_uris": {"android": "https://dc.lft.to/lastmile_qr_scan", "ios": "https://dc.lft.to/lastmile_qr_scan"}, "type": "electric_scooter", "lat": 38.906605666666664, "is_reserved": 0, "fusion_lat": 0.0}, {"bike_id": "c481d9488810246bb1a2edf0df1d1ed7", "fusion_lon": 0.0, "lon": -77.02281216666667, "name": "c481d9488810246bb1a2edf0df1d1ed7", "is_disabled": 0, "rental_uris": {"android": "https://dc.lft.to/lastmile_qr_scan", "ios": "https://dc.lft.to/lastmile_qr_scan"}, "type": "electric_scooter", "lat": 38.91560533333333, "is_reserved": 0, "fusion_lat": 0.0}, {"bike_id": "ac0a4a9d71bbf677343f91c502dd85a2", "fusion_lon": 0.0, "lon": -77.0297965, "name": "ac0a4a9d71bbf677343f91c502dd85a2", "is_disabled": 0, "rental_uris": {"android": "https://dc.lft.to/lastmile_qr_scan", "ios": "https://dc.lft.to/lastmile_qr_scan"}, "type": "electric_scooter", "lat": 38.93443966666667, "is_reserved": 0, "fusion_lat": 0.0}, {"bike_id": "373477f03c7805481c948da35684342c", "fusion_lon": 0.0, "lon": -77.01505733333333, "name": "373477f03c7805481c948da35684342c", "is_disabled": 0, "rental_uris": {"android": "https://dc.lft.to/lastmile_qr_scan", "ios": "https://dc.lft.to/lastmile_qr_scan"}, "type": "electric_scooter", "lat": 38.88808566666667, "is_reserved": 0, "fusion_lat": 0.0}, {"bike_id": "5203116053aac7fdc9a8432e303cae9b", "fusion_lon": 0.0, "lon": -77.0365015, "name": "5203116053aac7fdc9a8432e303cae9b", "is_disabled": 0, "rental_uris": {"android": "https://dc.lft.to/lastmile_qr_scan", "ios": "https://dc.lft.to/lastmile_qr_scan"}, "type": "electric_scooter", "lat": 38.91713466666667, "is_reserved": 0, "fusion_lat": 0.0}, {"bike_id": "12d1ed55e0cb01bb9be079cc774de71b", "fusion_lon": 0.0, "lon": -77.03185366666666, "name": "12d1ed55e0cb01bb9be079cc774de71b", "is_disabled": 0, "rental_uris": {"android": "https://dc.lft.to/lastmile_qr_scan", "ios": "https://dc.lft.to/lastmile_qr_scan"}, "type": "electric_scooter", "lat": 38.913346833333335, "is_reserved": 0, "fusion_lat": 0.0}, {"bike_id": "d4d04d6cfaaa642d34ea40544727be80", "fusion_lon": 0.0, "lon": -77.03871566666666, "name": "d4d04d6cfaaa642d34ea40544727be80", "is_disabled": 0, "rental_uris": {"android": "https://dc.lft.to/lastmile_qr_scan", "ios": "https://dc.lft.to/lastmile_qr_scan"}, "type": "electric_scooter", "lat": 38.915541, "is_reserved": 0, "fusion_lat": 0.0}, {"bike_id": "84224c9df6b77e89bd67c5996f78f644", "fusion_lon": 0.0, "lon": -77.03267466666667, "name": "84224c9df6b77e89bd67c5996f78f644", "is_disabled": 0, "rental_uris": {"android": "https://dc.lft.to/lastmile_qr_scan", "ios": "https://dc.lft.to/lastmile_qr_scan"}, "type": "electric_scooter", "lat": 38.92986466666667, "is_reserved": 0, "fusion_lat": 0.0}, {"bike_id": "e6bb74a7ed2f66e38d47e867a098f80d", "fusion_lon": 0.0, "lon": -77.03161716666666, "name": "e6bb74a7ed2f66e38d47e867a098f80d", "is_disabled": 0, "rental_uris": {"android": "https://dc.lft.to/lastmile_qr_scan", "ios": "https://dc.lft.to/lastmile_qr_scan"}, "type": "electric_scooter", "lat": 38.89229183333333, "is_reserved": 0, "fusion_lat": 0.0}, {"bike_id": "853455e0f2cf2fdffb0a51921860e0e0", "fusion_lon": 0.0, "lon": -77.09525683333334, "name": "853455e0f2cf2fdffb0a51921860e0e0", "is_disabled": 0, "rental_uris": {"android": "https://dc.lft.to/lastmile_qr_scan", "ios": "https://dc.lft.to/lastmile_qr_scan"}, "type": "electric_bike", "lat": 38.838103333333336, "is_reserved": 0, "fusion_lat": 0.0}, {"bike_id": "e13e32e378bc57cb8dca5fb54c208ed5", "fusion_lon": 0.0, "lon": -77.023697, "name": "e13e32e378bc57cb8dca5fb54c208ed5", "is_disabled": 0, "rental_uris": {"android": "https://dc.lft.to/lastmile_qr_scan", "ios": "https://dc.lft.to/lastmile_qr_scan"}, "type": "electric_scooter", "lat": 38.93237533333333, "is_reserved": 0, "fusion_lat": 0.0}, {"bike_id": "b39787e2e4ddb5af376ae8e0758ef2ea", "fusion_lon": 0.0, "lon": -76.98744483333333, "name": "b39787e2e4ddb5af376ae8e0758ef2ea", "is_disabled": 0, "rental_uris": {"android": "https://dc.lft.to/lastmile_qr_scan", "ios": "https://dc.lft.to/lastmile_qr_scan"}, "type": "electric_scooter", "lat": 38.8796115, "is_reserved": 0, "fusion_lat": 0.0}, {"bike_id": "8edca65252328b6a996db528da2b20b2", "fusion_lon": 0.0, "lon": -77.044687, "name": "8edca65252328b6a996db528da2b20b2", "is_disabled": 0, "rental_uris": {"android": "https://dc.lft.to/lastmile_qr_scan", "ios": "https://dc.lft.to/lastmile_qr_scan"}, "type": "electric_scooter", "lat": 38.90925633333333, "is_reserved": 0, "fusion_lat": 0.0}, {"bike_id": "241287d04c3a037fc78fa617ab65396a", "fusion_lon": 0.0, "lon": -77.049035, "name": "241287d04c3a037fc78fa617ab65396a", "is_disabled": 0, "rental_uris": {"android": "https://dc.lft.to/lastmile_qr_scan", "ios": "https://dc.lft.to/lastmile_qr_scan"}, "type": "electric_scooter", "lat": 38.905442666666666, "is_reserved": 0, "fusion_lat": 0.0}, {"bike_id": "82e2dc70a592642864fa9b574571943d", "fusion_lon": 0.0, "lon": -77.03628716666667, "name": "82e2dc70a592642864fa9b574571943d", "is_disabled": 0, "rental_uris": {"android": "https://dc.lft.to/lastmile_qr_scan", "ios": "https://dc.lft.to/lastmile_qr_scan"}, "type": "electric_scooter", "lat": 38.91689566666667, "is_reserved": 0, "fusion_lat": 0.0}, {"bike_id": "a8bcd9c7a91359b40e5acc323e4ee027", "fusion_lon": 0.0, "lon": -77.01811066666667, "name": "a8bcd9c7a91359b40e5acc323e4ee027", "is_disabled": 0, "rental_uris": {"android": "https://dc.lft.to/lastmile_qr_scan", "ios": "https://dc.lft.to/lastmile_qr_scan"}, "type": "electric_scooter", "lat": 38.921394666666664, "is_reserved": 0, "fusion_lat": 0.0}, {"bike_id": "c4b4db1e363daae938b5eff668986200", "fusion_lon": 0.0, "lon": -77.22345716666666, "name": "c4b4db1e363daae938b5eff668986200", "is_disabled": 0, "rental_uris": {"android": "https://dc.lft.to/lastmile_qr_scan", "ios": "https://dc.lft.to/lastmile_qr_scan"}, "type": "electric_bike", "lat": 38.91790916666667, "is_reserved": 0, "fusion_lat": 0.0}, {"bike_id": "7516fa4ec78f5567b8f54a4ce6b315a6", "fusion_lon": 0.0, "lon": -77.036599, "name": "7516fa4ec78f5567b8f54a4ce6b315a6", "is_disabled": 0, "rental_uris": {"android": "https://dc.lft.to/lastmile_qr_scan", "ios": "https://dc.lft.to/lastmile_qr_scan"}, "type": "electric_scooter", "lat": 38.917926, "is_reserved": 0, "fusion_lat": 0.0}, {"bike_id": "14f0a8e5f35570a65a6b47c5bbe6014a", "fusion_lon": 0.0, "lon": -77.04451516666667, "name": "14f0a8e5f35570a65a6b47c5bbe6014a", "is_disabled": 0, "rental_uris": {"android": "https://dc.lft.to/lastmile_qr_scan", "ios": "https://dc.lft.to/lastmile_qr_scan"}, "type": "electric_scooter", "lat": 38.911797666666665, "is_reserved": 0, "fusion_lat": 0.0}, {"bike_id": "26c40f5a1578f5ae180ad5b9a289ce91", "fusion_lon": 0.0, "lon": -77.02465366666667, "name": "26c40f5a1578f5ae180ad5b9a289ce91", "is_disabled": 0, "rental_uris": {"android": "https://dc.lft.to/lastmile_qr_scan", "ios": "https://dc.lft.to/lastmile_qr_scan"}, "type": "electric_scooter", "lat": 38.91687066666667, "is_reserved": 0, "fusion_lat": 0.0}, {"bike_id": "e5efbe97e0daf9135527d08f5311dda0", "fusion_lon": 0.0, "lon": -77.04879183333334, "name": "e5efbe97e0daf9135527d08f5311dda0", "is_disabled": 0, "rental_uris": {"android": "https://dc.lft.to/lastmile_qr_scan", "ios": "https://dc.lft.to/lastmile_qr_scan"}, "type": "electric_scooter", "lat": 38.90463583333333, "is_reserved": 0, "fusion_lat": 0.0}, {"bike_id": "c11cfdbd8c8ed22199a36b89b5407e3b", "fusion_lon": 0.0, "lon": -77.0513455, "name": "c11cfdbd8c8ed22199a36b89b5407e3b", "is_disabled": 0, "rental_uris": {"android": "https://dc.lft.to/lastmile_qr_scan", "ios": "https://dc.lft.to/lastmile_qr_scan"}, "type": "electric_scooter", "lat": 38.90053666666667, "is_reserved": 0, "fusion_lat": 0.0}, {"bike_id": "7abc25ab9fe3d0e7e0d53be4a86cb4cc", "fusion_lon": 0.0, "lon": -76.93755066666667, "name": "7abc25ab9fe3d0e7e0d53be4a86cb4cc", "is_disabled": 0, "rental_uris": {"android": "https://dc.lft.to/lastmile_qr_scan", "ios": "https://dc.lft.to/lastmile_qr_scan"}, "type": "electric_scooter", "lat": 38.890368333333335, "is_reserved": 0, "fusion_lat": 0.0}, {"bike_id": "0500c40968ee830429a64e64b1f30b25", "fusion_lon": 0.0, "lon": -76.948083, "name": "0500c40968ee830429a64e64b1f30b25", "is_disabled": 0, "rental_uris": {"android": "https://dc.lft.to/lastmile_qr_scan", "ios": "https://dc.lft.to/lastmile_qr_scan"}, "type": "electric_bike", "lat": 38.89389583333333, "is_reserved": 0, "fusion_lat": 0.0}, {"bike_id": "60c8dc1750f4a002aa38142bbd0be76d", "fusion_lon": 0.0, "lon": -77.0061155, "name": "60c8dc1750f4a002aa38142bbd0be76d", "is_disabled": 0, "rental_uris": {"android": "https://dc.lft.to/lastmile_qr_scan", "ios": "https://dc.lft.to/lastmile_qr_scan"}, "type": "electric_scooter", "lat": 38.871832833333336, "is_reserved": 0, "fusion_lat": 0.0}, {"bike_id": "10eebad7ef6aa92a3a8e7358239ca8d6", "fusion_lon": 0.0, "lon": -77.06910916666666, "name": "10eebad7ef6aa92a3a8e7358239ca8d6", "is_disabled": 0, "rental_uris": {"android": "https://dc.lft.to/lastmile_qr_scan", "ios": "https://dc.lft.to/lastmile_qr_scan"}, "type": "electric_scooter", "lat": 38.910113, "is_reserved": 0, "fusion_lat": 0.0}, {"bike_id": "a0e6eef303bed427a06aac372523736b", "fusion_lon": 0.0, "lon": -76.9867685, "name": "a0e6eef303bed427a06aac372523736b", "is_disabled": 0, "rental_uris": {"android": "https://dc.lft.to/lastmile_qr_scan", "ios": "https://dc.lft.to/lastmile_qr_scan"}, "type": "electric_bike", "lat": 38.899599333333335, "is_reserved": 0, "fusion_lat": 0.0}, {"bike_id": "75e773274d733474f780645a65f0774c", "fusion_lon": 0.0, "lon": -77.04390283333333, "name": "75e773274d733474f780645a65f0774c", "is_disabled": 0, "rental_uris": {"android": "https://dc.lft.to/lastmile_qr_scan", "ios": "https://dc.lft.to/lastmile_qr_scan"}, "type": "electric_scooter", "lat": 38.910709, "is_reserved": 0, "fusion_lat": 0.0}, {"bike_id": "3a4fd586f3d544a44acbb979f5b25cae", "fusion_lon": 0.0, "lon": -77.03200616666666, "name": "3a4fd586f3d544a44acbb979f5b25cae", "is_disabled": 0, "rental_uris": {"android": "https://dc.lft.to/lastmile_qr_scan", "ios": "https://dc.lft.to/lastmile_qr_scan"}, "type": "electric_scooter", "lat": 38.916972666666666, "is_reserved": 0, "fusion_lat": 0.0}, {"bike_id": "d99ea9df5f66f9edff54470dd578be62", "fusion_lon": 0.0, "lon": -77.04876083333333, "name": "d99ea9df5f66f9edff54470dd578be62", "is_disabled": 0, "rental_uris": {"android": "https://dc.lft.to/lastmile_qr_scan", "ios": "https://dc.lft.to/lastmile_qr_scan"}, "type": "electric_scooter", "lat": 38.90463716666667, "is_reserved": 0, "fusion_lat": 0.0}, {"bike_id": "16e5a39b6c48b74e500d88b897ce1d88", "fusion_lon": 0.0, "lon": -77.03412933333334, "name": "16e5a39b6c48b74e500d88b897ce1d88", "is_disabled": 0, "rental_uris": {"android": "https://dc.lft.to/lastmile_qr_scan", "ios": "https://dc.lft.to/lastmile_qr_scan"}, "type": "electric_scooter", "lat": 38.923173166666665, "is_reserved": 0, "fusion_lat": 0.0}, {"bike_id": "2257c57bc526b79db4b1dbee99c90f95", "fusion_lon": 0.0, "lon": -77.038571, "name": "2257c57bc526b79db4b1dbee99c90f95", "is_disabled": 0, "rental_uris": {"android": "https://dc.lft.to/lastmile_qr_scan", "ios": "https://dc.lft.to/lastmile_qr_scan"}, "type": "electric_scooter", "lat": 38.8674795, "is_reserved": 0, "fusion_lat": 0.0}, {"bike_id": "18fcc6b19e8f7917b4252544ab136c1a", "fusion_lon": 0.0, "lon": -76.98332966666666, "name": "18fcc6b19e8f7917b4252544ab136c1a", "is_disabled": 0, "rental_uris": {"android": "https://dc.lft.to/lastmile_qr_scan", "ios": "https://dc.lft.to/lastmile_qr_scan"}, "type": "electric_scooter", "lat": 38.90755333333333, "is_reserved": 0, "fusion_lat": 0.0}, {"bike_id": "ccaafdd69b932224a065c3d06da8f262", "fusion_lon": 0.0, "lon": -77.03958633333333, "name": "ccaafdd69b932224a065c3d06da8f262", "is_disabled": 0, "rental_uris": {"android": "https://dc.lft.to/lastmile_qr_scan", "ios": "https://dc.lft.to/lastmile_qr_scan"}, "type": "electric_scooter", "lat": 38.903118, "is_reserved": 0, "fusion_lat": 0.0}, {"bike_id": "be8535d987113baa97d289df4c6ae48c", "fusion_lon": 0.0, "lon": -77.03516333333333, "name": "be8535d987113baa97d289df4c6ae48c", "is_disabled": 0, "rental_uris": {"android": "https://dc.lft.to/lastmile_qr_scan", "ios": "https://dc.lft.to/lastmile_qr_scan"}, "type": "electric_scooter", "lat": 38.921535666666664, "is_reserved": 0, "fusion_lat": 0.0}, {"bike_id": "248031b5904164ac310416a92fac968f", "fusion_lon": 0.0, "lon": -76.98870183333334, "name": "248031b5904164ac310416a92fac968f", "is_disabled": 0, "rental_uris": {"android": "https://dc.lft.to/lastmile_qr_scan", "ios": "https://dc.lft.to/lastmile_qr_scan"}, "type": "electric_bike", "lat": 38.95484533333333, "is_reserved": 0, "fusion_lat": 0.0}, {"bike_id": "ee58f80a44bb5cbaab8b1e602864d99d", "fusion_lon": 0.0, "lon": -76.97827766666667, "name": "ee58f80a44bb5cbaab8b1e602864d99d", "is_disabled": 0, "rental_uris": {"android": "https://dc.lft.to/lastmile_qr_scan", "ios": "https://dc.lft.to/lastmile_qr_scan"}, "type": "electric_bike", "lat": 38.870746833333335, "is_reserved": 0, "fusion_lat": 0.0}, {"bike_id": "5426611269b93c7522f74d2ba7177152", "fusion_lon": 0.0, "lon": -77.04517483333333, "name": "5426611269b93c7522f74d2ba7177152", "is_disabled": 0, "rental_uris": {"android": "https://dc.lft.to/lastmile_qr_scan", "ios": "https://dc.lft.to/lastmile_qr_scan"}, "type": "electric_scooter", "lat": 38.90277566666666, "is_reserved": 0, "fusion_lat": 0.0}, {"bike_id": "a07320375568c5697a037685fa4dc5df", "fusion_lon": 0.0, "lon": -76.9830005, "name": "a07320375568c5697a037685fa4dc5df", "is_disabled": 0, "rental_uris": {"android": "https://dc.lft.to/lastmile_qr_scan", "ios": "https://dc.lft.to/lastmile_qr_scan"}, "type": "electric_bike", "lat": 38.962849, "is_reserved": 0, "fusion_lat": 0.0}, {"bike_id": "25b958575c56fd1eaf80ccc1cf5e10e8", "fusion_lon": 0.0, "lon": -77.05860566666667, "name": "25b958575c56fd1eaf80ccc1cf5e10e8", "is_disabled": 0, "rental_uris": {"android": "https://dc.lft.to/lastmile_qr_scan", "ios": "https://dc.lft.to/lastmile_qr_scan"}, "type": "electric_scooter", "lat": 38.93608533333333, "is_reserved": 0, "fusion_lat": 0.0}, {"bike_id": "f180106871e1175f8a87fc9bb042a005", "fusion_lon": 0.0, "lon": -77.05526483333334, "name": "f180106871e1175f8a87fc9bb042a005", "is_disabled": 0, "rental_uris": {"android": "https://dc.lft.to/lastmile_qr_scan", "ios": "https://dc.lft.to/lastmile_qr_scan"}, "type": "electric_scooter", "lat": 38.93014216666667, "is_reserved": 0, "fusion_lat": 0.0}, {"bike_id": "632d6775d3681d069da0535358468c41", "fusion_lon": 0.0, "lon": -77.02766883333334, "name": "632d6775d3681d069da0535358468c41", "is_disabled": 0, "rental_uris": {"android": "https://dc.lft.to/lastmile_qr_scan", "ios": "https://dc.lft.to/lastmile_qr_scan"}, "type": "electric_scooter", "lat": 38.954220666666664, "is_reserved": 0, "fusion_lat": 0.0}, {"bike_id": "0c90e00e1fcc2edb0f2a2322e6f5af1e", "fusion_lon": 0.0, "lon": -77.033043, "name": "0c90e00e1fcc2edb0f2a2322e6f5af1e", "is_disabled": 0, "rental_uris": {"android": "https://dc.lft.to/lastmile_qr_scan", "ios": "https://dc.lft.to/lastmile_qr_scan"}, "type": "electric_scooter", "lat": 38.93193, "is_reserved": 0, "fusion_lat": 0.0}, {"bike_id": "49f7419230026ce149b86bf383713d5b", "fusion_lon": 0.0, "lon": -77.02820083333333, "name": "49f7419230026ce149b86bf383713d5b", "is_disabled": 0, "rental_uris": {"android": "https://dc.lft.to/lastmile_qr_scan", "ios": "https://dc.lft.to/lastmile_qr_scan"}, "type": "electric_scooter", "lat": 38.88732383333333, "is_reserved": 0, "fusion_lat": 0.0}, {"bike_id": "5bf19c9fd593ea05e26db532a2e7ff42", "fusion_lon": 0.0, "lon": -77.02692683333333, "name": "5bf19c9fd593ea05e26db532a2e7ff42", "is_disabled": 0, "rental_uris": {"android": "https://dc.lft.to/lastmile_qr_scan", "ios": "https://dc.lft.to/lastmile_qr_scan"}, "type": "electric_scooter", "lat": 38.906835, "is_reserved": 0, "fusion_lat": 0.0}, {"bike_id": "b17f0f046cd8fd87a06ce28c4b76582e", "fusion_lon": 0.0, "lon": -76.98993166666666, "name": "b17f0f046cd8fd87a06ce28c4b76582e", "is_disabled": 0, "rental_uris": {"android": "https://dc.lft.to/lastmile_qr_scan", "ios": "https://dc.lft.to/lastmile_qr_scan"}, "type": "electric_bike", "lat": 38.863891833333334, "is_reserved": 0, "fusion_lat": 0.0}, {"bike_id": "75f556455f0dc1aa44192726e6737573", "fusion_lon": 0.0, "lon": -77.02223216666667, "name": "75f556455f0dc1aa44192726e6737573", "is_disabled": 0, "rental_uris": {"android": "https://dc.lft.to/lastmile_qr_scan", "ios": "https://dc.lft.to/lastmile_qr_scan"}, "type": "electric_scooter", "lat": 38.93554233333333, "is_reserved": 0, "fusion_lat": 0.0}, {"bike_id": "9b51c1ef1db3b97c1120406b49a53e7b", "fusion_lon": 0.0, "lon": -77.03478216666667, "name": "9b51c1ef1db3b97c1120406b49a53e7b", "is_disabled": 0, "rental_uris": {"android": "https://dc.lft.to/lastmile_qr_scan", "ios": "https://dc.lft.to/lastmile_qr_scan"}, "type": "electric_scooter", "lat": 38.9043175, "is_reserved": 0, "fusion_lat": 0.0}, {"bike_id": "862c344b44126ee014be2d8c7d25aba8", "fusion_lon": 0.0, "lon": -77.04876733333333, "name": "862c344b44126ee014be2d8c7d25aba8", "is_disabled": 0, "rental_uris": {"android": "https://dc.lft.to/lastmile_qr_scan", "ios": "https://dc.lft.to/lastmile_qr_scan"}, "type": "electric_scooter", "lat": 38.90453933333333, "is_reserved": 0, "fusion_lat": 0.0}, {"bike_id": "4ec08d60af64d2338169e805014ee955", "fusion_lon": 0.0, "lon": -77.08277766666667, "name": "4ec08d60af64d2338169e805014ee955", "is_disabled": 0, "rental_uris": {"android": "https://dc.lft.to/lastmile_qr_scan", "ios": "https://dc.lft.to/lastmile_qr_scan"}, "type": "electric_scooter", "lat": 38.93016866666667, "is_reserved": 0, "fusion_lat": 0.0}, {"bike_id": "091beee58b4cbb09eca7c50d1e805883", "fusion_lon": 0.0, "lon": -77.03150983333333, "name": "091beee58b4cbb09eca7c50d1e805883", "is_disabled": 0, "rental_uris": {"android": "https://dc.lft.to/lastmile_qr_scan", "ios": "https://dc.lft.to/lastmile_qr_scan"}, "type": "electric_scooter", "lat": 38.915692, "is_reserved": 0, "fusion_lat": 0.0}, {"bike_id": "8cbd6f376c87a0b771b351caccd7a112", "fusion_lon": 0.0, "lon": -76.99689283333333, "name": "8cbd6f376c87a0b771b351caccd7a112", "is_disabled": 0, "rental_uris": {"android": "https://dc.lft.to/lastmile_qr_scan", "ios": "https://dc.lft.to/lastmile_qr_scan"}, "type": "electric_scooter", "lat": 38.908297833333336, "is_reserved": 0, "fusion_lat": 0.0}, {"bike_id": "4f7a262681d7de5e870a0d995e21fef3", "fusion_lon": 0.0, "lon": -77.04338016666667, "name": "4f7a262681d7de5e870a0d995e21fef3", "is_disabled": 0, "rental_uris": {"android": "https://dc.lft.to/lastmile_qr_scan", "ios": "https://dc.lft.to/lastmile_qr_scan"}, "type": "electric_scooter", "lat": 38.91051616666667, "is_reserved": 0, "fusion_lat": 0.0}, {"bike_id": "29b3bc04529dcb550c5dc371a771cce7", "fusion_lon": 0.0, "lon": -77.00587616666667, "name": "29b3bc04529dcb550c5dc371a771cce7", "is_disabled": 0, "rental_uris": {"android": "https://dc.lft.to/lastmile_qr_scan", "ios": "https://dc.lft.to/lastmile_qr_scan"}, "type": "electric_scooter", "lat": 38.902625666666665, "is_reserved": 0, "fusion_lat": 0.0}, {"bike_id": "0fe1d5429b4b08332d604f6a1ca7166f", "fusion_lon": 0.0, "lon": -77.0249135, "name": "0fe1d5429b4b08332d604f6a1ca7166f", "is_disabled": 0, "rental_uris": {"android": "https://dc.lft.to/lastmile_qr_scan", "ios": "https://dc.lft.to/lastmile_qr_scan"}, "type": "electric_scooter", "lat": 38.94184416666667, "is_reserved": 0, "fusion_lat": 0.0}, {"bike_id": "b6f2a1654b82bd5a7595dc916a0e6400", "fusion_lon": 0.0, "lon": -77.01945183333333, "name": "b6f2a1654b82bd5a7595dc916a0e6400", "is_disabled": 0, "rental_uris": {"android": "https://dc.lft.to/lastmile_qr_scan", "ios": "https://dc.lft.to/lastmile_qr_scan"}, "type": "electric_scooter", "lat": 38.9242055, "is_reserved": 0, "fusion_lat": 0.0}, {"bike_id": "bdbe2751ec9c25741c1b69d0581ed51c", "fusion_lon": 0.0, "lon": -77.01141483333333, "name": "bdbe2751ec9c25741c1b69d0581ed51c", "is_disabled": 0, "rental_uris": {"android": "https://dc.lft.to/lastmile_qr_scan", "ios": "https://dc.lft.to/lastmile_qr_scan"}, "type": "electric_scooter", "lat": 38.907243, "is_reserved": 0, "fusion_lat": 0.0}, {"bike_id": "87be5cb6efb61dab3c68261ee62649bf", "fusion_lon": 0.0, "lon": -77.02329516666667, "name": "87be5cb6efb61dab3c68261ee62649bf", "is_disabled": 0, "rental_uris": {"android": "https://dc.lft.to/lastmile_qr_scan", "ios": "https://dc.lft.to/lastmile_qr_scan"}, "type": "electric_scooter", "lat": 38.892216166666664, "is_reserved": 0, "fusion_lat": 0.0}, {"bike_id": "713272ea123cb396baef41aace626654", "fusion_lon": 0.0, "lon": -77.0318615, "name": "713272ea123cb396baef41aace626654", "is_disabled": 0, "rental_uris": {"android": "https://dc.lft.to/lastmile_qr_scan", "ios": "https://dc.lft.to/lastmile_qr_scan"}, "type": "electric_scooter", "lat": 38.91577683333333, "is_reserved": 0, "fusion_lat": 0.0}, {"bike_id": "cbd62259142efabd37c18ee285dfe4cb", "fusion_lon": 0.0, "lon": -77.04871116666666, "name": "cbd62259142efabd37c18ee285dfe4cb", "is_disabled": 0, "rental_uris": {"android": "https://dc.lft.to/lastmile_qr_scan", "ios": "https://dc.lft.to/lastmile_qr_scan"}, "type": "electric_scooter", "lat": 38.89221583333333, "is_reserved": 0, "fusion_lat": 0.0}, {"bike_id": "5b4b1310b795867bec42c138c2838aae", "fusion_lon": 0.0, "lon": -76.996964, "name": "5b4b1310b795867bec42c138c2838aae", "is_disabled": 0, "rental_uris": {"android": "https://dc.lft.to/lastmile_qr_scan", "ios": "https://dc.lft.to/lastmile_qr_scan"}, "type": "electric_scooter", "lat": 38.908301, "is_reserved": 0, "fusion_lat": 0.0}, {"bike_id": "d2b72ec6fe5d6476f35c63235c1b3791", "fusion_lon": 0.0, "lon": -77.06156066666667, "name": "d2b72ec6fe5d6476f35c63235c1b3791", "is_disabled": 0, "rental_uris": {"android": "https://dc.lft.to/lastmile_qr_scan", "ios": "https://dc.lft.to/lastmile_qr_scan"}, "type": "electric_scooter", "lat": 38.905118333333334, "is_reserved": 0, "fusion_lat": 0.0}, {"bike_id": "230984658e2de8da4395c61773de6e39", "fusion_lon": 0.0, "lon": -77.03194916666666, "name": "230984658e2de8da4395c61773de6e39", "is_disabled": 0, "rental_uris": {"android": "https://dc.lft.to/lastmile_qr_scan", "ios": "https://dc.lft.to/lastmile_qr_scan"}, "type": "electric_scooter", "lat": 38.914721166666666, "is_reserved": 0, "fusion_lat": 0.0}, {"bike_id": "54cff3bd62bf2239c7443f6ea2ec6f3f", "fusion_lon": 0.0, "lon": -77.11325433333333, "name": "54cff3bd62bf2239c7443f6ea2ec6f3f", "is_disabled": 0, "rental_uris": {"android": "https://dc.lft.to/lastmile_qr_scan", "ios": "https://dc.lft.to/lastmile_qr_scan"}, "type": "electric_bike", "lat": 38.83152833333333, "is_reserved": 0, "fusion_lat": 0.0}, {"bike_id": "ebc82782048c2a4cf1960163528d240e", "fusion_lon": 0.0, "lon": -77.02163833333333, "name": "ebc82782048c2a4cf1960163528d240e", "is_disabled": 0, "rental_uris": {"android": "https://dc.lft.to/lastmile_qr_scan", "ios": "https://dc.lft.to/lastmile_qr_scan"}, "type": "electric_scooter", "lat": 38.8971445, "is_reserved": 0, "fusion_lat": 0.0}, {"bike_id": "f8cba86b3cca838ea9a09bc32ecbd013", "fusion_lon": 0.0, "lon": -77.04020266666667, "name": "f8cba86b3cca838ea9a09bc32ecbd013", "is_disabled": 0, "rental_uris": {"android": "https://dc.lft.to/lastmile_qr_scan", "ios": "https://dc.lft.to/lastmile_qr_scan"}, "type": "electric_scooter", "lat": 38.89942216666667, "is_reserved": 0, "fusion_lat": 0.0}, {"bike_id": "cb674e0e412519b14076e18cb693d90a", "fusion_lon": 0.0, "lon": -77.04712916666666, "name": "cb674e0e412519b14076e18cb693d90a", "is_disabled": 0, "rental_uris": {"android": "https://dc.lft.to/lastmile_qr_scan", "ios": "https://dc.lft.to/lastmile_qr_scan"}, "type": "electric_scooter", "lat": 38.92096033333333, "is_reserved": 0, "fusion_lat": 0.0}, {"bike_id": "a15fd5d1c05bf1ae721fe9306120fa9d", "fusion_lon": 0.0, "lon": -76.98546783333333, "name": "a15fd5d1c05bf1ae721fe9306120fa9d", "is_disabled": 0, "rental_uris": {"android": "https://dc.lft.to/lastmile_qr_scan", "ios": "https://dc.lft.to/lastmile_qr_scan"}, "type": "electric_scooter", "lat": 38.86688483333333, "is_reserved": 0, "fusion_lat": 0.0}, {"bike_id": "1a97150f2841260e3fceb41480e1fa30", "fusion_lon": 0.0, "lon": -77.05476233333333, "name": "1a97150f2841260e3fceb41480e1fa30", "is_disabled": 0, "rental_uris": {"android": "https://dc.lft.to/lastmile_qr_scan", "ios": "https://dc.lft.to/lastmile_qr_scan"}, "type": "electric_scooter", "lat": 38.897288833333334, "is_reserved": 0, "fusion_lat": 0.0}, {"bike_id": "c7eb8417fccbc295dff978c1cf002c1f", "fusion_lon": 0.0, "lon": -77.00212033333334, "name": "c7eb8417fccbc295dff978c1cf002c1f", "is_disabled": 0, "rental_uris": {"android": "https://dc.lft.to/lastmile_qr_scan", "ios": "https://dc.lft.to/lastmile_qr_scan"}, "type": "electric_scooter", "lat": 38.920494166666664, "is_reserved": 0, "fusion_lat": 0.0}, {"bike_id": "77ee98f42738ba2026f46929d88c5b81", "fusion_lon": 0.0, "lon": -77.03581266666667, "name": "77ee98f42738ba2026f46929d88c5b81", "is_disabled": 0, "rental_uris": {"android": "https://dc.lft.to/lastmile_qr_scan", "ios": "https://dc.lft.to/lastmile_qr_scan"}, "type": "electric_scooter", "lat": 38.9347375, "is_reserved": 0, "fusion_lat": 0.0}, {"bike_id": "1a45d390b2537a2fbd3c6c5c6953cbe1", "fusion_lon": 0.0, "lon": -77.049715, "name": "1a45d390b2537a2fbd3c6c5c6953cbe1", "is_disabled": 0, "rental_uris": {"android": "https://dc.lft.to/lastmile_qr_scan", "ios": "https://dc.lft.to/lastmile_qr_scan"}, "type": "electric_bike", "lat": 38.83220683333333, "is_reserved": 0, "fusion_lat": 0.0}, {"bike_id": "2fe867c5346ded95b0aa82454d5f0175", "fusion_lon": 0.0, "lon": -77.01081916666666, "name": "2fe867c5346ded95b0aa82454d5f0175", "is_disabled": 0, "rental_uris": {"android": "https://dc.lft.to/lastmile_qr_scan", "ios": "https://dc.lft.to/lastmile_qr_scan"}, "type": "electric_scooter", "lat": 38.894957, "is_reserved": 0, "fusion_lat": 0.0}, {"bike_id": "9dda79274b5b0f9c10b7367e1f068512", "fusion_lon": 0.0, "lon": -77.0389165, "name": "9dda79274b5b0f9c10b7367e1f068512", "is_disabled": 0, "rental_uris": {"android": "https://dc.lft.to/lastmile_qr_scan", "ios": "https://dc.lft.to/lastmile_qr_scan"}, "type": "electric_scooter", "lat": 38.918470666666664, "is_reserved": 0, "fusion_lat": 0.0}, {"bike_id": "9b2aaf34ca157500e721690b34a5df20", "fusion_lon": 0.0, "lon": -77.02184116666666, "name": "9b2aaf34ca157500e721690b34a5df20", "is_disabled": 0, "rental_uris": {"android": "https://dc.lft.to/lastmile_qr_scan", "ios": "https://dc.lft.to/lastmile_qr_scan"}, "type": "electric_scooter", "lat": 38.894081, "is_reserved": 0, "fusion_lat": 0.0}, {"bike_id": "912bd7d2e05988634fac920d5e487f4f", "fusion_lon": 0.0, "lon": -77.052347, "name": "912bd7d2e05988634fac920d5e487f4f", "is_disabled": 0, "rental_uris": {"android": "https://dc.lft.to/lastmile_qr_scan", "ios": "https://dc.lft.to/lastmile_qr_scan"}, "type": "electric_scooter", "lat": 38.92468016666667, "is_reserved": 0, "fusion_lat": 0.0}, {"bike_id": "7e679919e435a136d8dcdc97443757d3", "fusion_lon": 0.0, "lon": -76.98982583333333, "name": "7e679919e435a136d8dcdc97443757d3", "is_disabled": 0, "rental_uris": {"android": "https://dc.lft.to/lastmile_qr_scan", "ios": "https://dc.lft.to/lastmile_qr_scan"}, "type": "electric_scooter", "lat": 38.864928166666665, "is_reserved": 0, "fusion_lat": 0.0}, {"bike_id": "981d3cdec0e4a8c8abe35c5e649dd251", "fusion_lon": 0.0, "lon": -77.00757066666667, "name": "981d3cdec0e4a8c8abe35c5e649dd251", "is_disabled": 0, "rental_uris": {"android": "https://dc.lft.to/lastmile_qr_scan", "ios": "https://dc.lft.to/lastmile_qr_scan"}, "type": "electric_scooter", "lat": 38.87670633333333, "is_reserved": 0, "fusion_lat": 0.0}, {"bike_id": "41eca0c0048c487b37da914f1d34dd76", "fusion_lon": 0.0, "lon": -77.03815183333333, "name": "41eca0c0048c487b37da914f1d34dd76", "is_disabled": 0, "rental_uris": {"android": "https://dc.lft.to/lastmile_qr_scan", "ios": "https://dc.lft.to/lastmile_qr_scan"}, "type": "electric_scooter", "lat": 38.93064666666667, "is_reserved": 0, "fusion_lat": 0.0}, {"bike_id": "93d4b2d217144768b3ebd64b36cc8445", "fusion_lon": 0.0, "lon": -76.99517533333334, "name": "93d4b2d217144768b3ebd64b36cc8445", "is_disabled": 0, "rental_uris": {"android": "https://dc.lft.to/lastmile_qr_scan", "ios": "https://dc.lft.to/lastmile_qr_scan"}, "type": "electric_scooter", "lat": 38.86252916666667, "is_reserved": 0, "fusion_lat": 0.0}, {"bike_id": "a8226771358dac617203eba5a5485c70", "fusion_lon": 0.0, "lon": -76.99793533333333, "name": "a8226771358dac617203eba5a5485c70", "is_disabled": 0, "rental_uris": {"android": "https://dc.lft.to/lastmile_qr_scan", "ios": "https://dc.lft.to/lastmile_qr_scan"}, "type": "electric_scooter", "lat": 38.90904866666666, "is_reserved": 0, "fusion_lat": 0.0}, {"bike_id": "f88cb4e4222f5c5f17ea774cf372ed5a", "fusion_lon": 0.0, "lon": -77.04192916666666, "name": "f88cb4e4222f5c5f17ea774cf372ed5a", "is_disabled": 0, "rental_uris": {"android": "https://dc.lft.to/lastmile_qr_scan", "ios": "https://dc.lft.to/lastmile_qr_scan"}, "type": "electric_scooter", "lat": 38.920557, "is_reserved": 0, "fusion_lat": 0.0}, {"bike_id": "091f00717db1d058b440295e306ede57", "fusion_lon": 0.0, "lon": -76.98456883333333, "name": "091f00717db1d058b440295e306ede57", "is_disabled": 0, "rental_uris": {"android": "https://dc.lft.to/lastmile_qr_scan", "ios": "https://dc.lft.to/lastmile_qr_scan"}, "type": "electric_scooter", "lat": 38.88020783333333, "is_reserved": 0, "fusion_lat": 0.0}, {"bike_id": "5a03b5b8e436d8d28f141474eacadf6a", "fusion_lon": 0.0, "lon": -77.0234815, "name": "5a03b5b8e436d8d28f141474eacadf6a", "is_disabled": 0, "rental_uris": {"android": "https://dc.lft.to/lastmile_qr_scan", "ios": "https://dc.lft.to/lastmile_qr_scan"}, "type": "electric_scooter", "lat": 38.9072845, "is_reserved": 0, "fusion_lat": 0.0}, {"bike_id": "bde1466336540574c302bccdec1139f4", "fusion_lon": 0.0, "lon": -77.01780316666667, "name": "bde1466336540574c302bccdec1139f4", "is_disabled": 0, "rental_uris": {"android": "https://dc.lft.to/lastmile_qr_scan", "ios": "https://dc.lft.to/lastmile_qr_scan"}, "type": "electric_scooter", "lat": 38.887187833333336, "is_reserved": 0, "fusion_lat": 0.0}, {"bike_id": "3c7cb06077422f6c635f80fc1c80c967", "fusion_lon": 0.0, "lon": -77.0216685, "name": "3c7cb06077422f6c635f80fc1c80c967", "is_disabled": 0, "rental_uris": {"android": "https://dc.lft.to/lastmile_qr_scan", "ios": "https://dc.lft.to/lastmile_qr_scan"}, "type": "electric_scooter", "lat": 38.90958783333333, "is_reserved": 0, "fusion_lat": 0.0}, {"bike_id": "7e604d6b74f774a305fcdcd2969d9959", "fusion_lon": 0.0, "lon": -77.04339283333333, "name": "7e604d6b74f774a305fcdcd2969d9959", "is_disabled": 0, "rental_uris": {"android": "https://dc.lft.to/lastmile_qr_scan", "ios": "https://dc.lft.to/lastmile_qr_scan"}, "type": "electric_scooter", "lat": 38.90935783333333, "is_reserved": 0, "fusion_lat": 0.0}, {"bike_id": "6bf0dd48eb0524dbd7075132f81fed83", "fusion_lon": 0.0, "lon": -77.03215483333334, "name": "6bf0dd48eb0524dbd7075132f81fed83", "is_disabled": 0, "rental_uris": {"android": "https://dc.lft.to/lastmile_qr_scan", "ios": "https://dc.lft.to/lastmile_qr_scan"}, "type": "electric_scooter", "lat": 38.91813766666667, "is_reserved": 0, "fusion_lat": 0.0}, {"bike_id": "d82641a9273d81c36be69427dea43bae", "fusion_lon": 0.0, "lon": -77.05084216666667, "name": "d82641a9273d81c36be69427dea43bae", "is_disabled": 0, "rental_uris": {"android": "https://dc.lft.to/lastmile_qr_scan", "ios": "https://dc.lft.to/lastmile_qr_scan"}, "type": "electric_bike", "lat": 38.813248, "is_reserved": 0, "fusion_lat": 0.0}, {"bike_id": "10c9321323146a5cd3a937af9a5ec874", "fusion_lon": 0.0, "lon": -77.07166866666667, "name": "10c9321323146a5cd3a937af9a5ec874", "is_disabled": 0, "rental_uris": {"android": "https://dc.lft.to/lastmile_qr_scan", "ios": "https://dc.lft.to/lastmile_qr_scan"}, "type": "electric_bike", "lat": 38.90668266666667, "is_reserved": 0, "fusion_lat": 0.0}, {"bike_id": "ad3da44f4fb10e297f3503deb3437d87", "fusion_lon": 0.0, "lon": -77.02794183333333, "name": "ad3da44f4fb10e297f3503deb3437d87", "is_disabled": 0, "rental_uris": {"android": "https://dc.lft.to/lastmile_qr_scan", "ios": "https://dc.lft.to/lastmile_qr_scan"}, "type": "electric_scooter", "lat": 38.93080233333333, "is_reserved": 0, "fusion_lat": 0.0}, {"bike_id": "245f391ae39eb0256f6cc0c0e6f302d2", "fusion_lon": 0.0, "lon": -76.97530583333334, "name": "245f391ae39eb0256f6cc0c0e6f302d2", "is_disabled": 0, "rental_uris": {"android": "https://dc.lft.to/lastmile_qr_scan", "ios": "https://dc.lft.to/lastmile_qr_scan"}, "type": "electric_bike", "lat": 38.840119666666666, "is_reserved": 0, "fusion_lat": 0.0}, {"bike_id": "1ddd917566e769ac296f9819687c9c3a", "fusion_lon": 0.0, "lon": -76.994991, "name": "1ddd917566e769ac296f9819687c9c3a", "is_disabled": 0, "rental_uris": {"android": "https://dc.lft.to/lastmile_qr_scan", "ios": "https://dc.lft.to/lastmile_qr_scan"}, "type": "electric_scooter", "lat": 38.862444833333335, "is_reserved": 0, "fusion_lat": 0.0}, {"bike_id": "7172541950b8d2335d60887be7d0a4f4", "fusion_lon": 0.0, "lon": -77.023429, "name": "7172541950b8d2335d60887be7d0a4f4", "is_disabled": 0, "rental_uris": {"android": "https://dc.lft.to/lastmile_qr_scan", "ios": "https://dc.lft.to/lastmile_qr_scan"}, "type": "electric_scooter", "lat": 38.944659333333334, "is_reserved": 0, "fusion_lat": 0.0}, {"bike_id": "08c16970fbeacecfdeaca91f2cec9446", "fusion_lon": 0.0, "lon": -77.12483983333334, "name": "08c16970fbeacecfdeaca91f2cec9446", "is_disabled": 0, "rental_uris": {"android": "https://dc.lft.to/lastmile_qr_scan", "ios": "https://dc.lft.to/lastmile_qr_scan"}, "type": "electric_bike", "lat": 38.85395533333333, "is_reserved": 0, "fusion_lat": 0.0}, {"bike_id": "e42c0feffb43e7dedad70134c19f766b", "fusion_lon": 0.0, "lon": -77.03597616666667, "name": "e42c0feffb43e7dedad70134c19f766b", "is_disabled": 0, "rental_uris": {"android": "https://dc.lft.to/lastmile_qr_scan", "ios": "https://dc.lft.to/lastmile_qr_scan"}, "type": "electric_scooter", "lat": 38.916912833333335, "is_reserved": 0, "fusion_lat": 0.0}, {"bike_id": "abc0f6d58f089cb28e09d8f6257799ce", "fusion_lon": 0.0, "lon": -76.995119, "name": "abc0f6d58f089cb28e09d8f6257799ce", "is_disabled": 0, "rental_uris": {"android": "https://dc.lft.to/lastmile_qr_scan", "ios": "https://dc.lft.to/lastmile_qr_scan"}, "type": "electric_scooter", "lat": 38.883737333333336, "is_reserved": 0, "fusion_lat": 0.0}, {"bike_id": "3a970d0c1b6c7a2eb4fce526a2d26869", "fusion_lon": 0.0, "lon": -77.0319065, "name": "3a970d0c1b6c7a2eb4fce526a2d26869", "is_disabled": 0, "rental_uris": {"android": "https://dc.lft.to/lastmile_qr_scan", "ios": "https://dc.lft.to/lastmile_qr_scan"}, "type": "electric_scooter", "lat": 38.896176, "is_reserved": 0, "fusion_lat": 0.0}, {"bike_id": "da2303f8ad0eb7cd9604d2554133ad29", "fusion_lon": 0.0, "lon": -77.02693833333333, "name": "da2303f8ad0eb7cd9604d2554133ad29", "is_disabled": 0, "rental_uris": {"android": "https://dc.lft.to/lastmile_qr_scan", "ios": "https://dc.lft.to/lastmile_qr_scan"}, "type": "electric_scooter", "lat": 38.906639166666665, "is_reserved": 0, "fusion_lat": 0.0}, {"bike_id": "1888fbcd82a2d2ae1200181fcaf8ab5a", "fusion_lon": 0.0, "lon": -76.994923, "name": "1888fbcd82a2d2ae1200181fcaf8ab5a", "is_disabled": 0, "rental_uris": {"android": "https://dc.lft.to/lastmile_qr_scan", "ios": "https://dc.lft.to/lastmile_qr_scan"}, "type": "electric_bike", "lat": 38.881894833333334, "is_reserved": 0, "fusion_lat": 0.0}, {"bike_id": "8b1e7994193f8103ee2f0bd62a4e651f", "fusion_lon": 0.0, "lon": -77.04202083333334, "name": "8b1e7994193f8103ee2f0bd62a4e651f", "is_disabled": 0, "rental_uris": {"android": "https://dc.lft.to/lastmile_qr_scan", "ios": "https://dc.lft.to/lastmile_qr_scan"}, "type": "electric_scooter", "lat": 38.92042716666667, "is_reserved": 0, "fusion_lat": 0.0}, {"bike_id": "d69a4eb4857160655ee29c523987135a", "fusion_lon": 0.0, "lon": -77.00066183333334, "name": "d69a4eb4857160655ee29c523987135a", "is_disabled": 0, "rental_uris": {"android": "https://dc.lft.to/lastmile_qr_scan", "ios": "https://dc.lft.to/lastmile_qr_scan"}, "type": "electric_scooter", "lat": 38.87960066666667, "is_reserved": 0, "fusion_lat": 0.0}, {"bike_id": "4f65cc14e72271b72fcdee5ad3897304", "fusion_lon": 0.0, "lon": -77.02182316666666, "name": "4f65cc14e72271b72fcdee5ad3897304", "is_disabled": 0, "rental_uris": {"android": "https://dc.lft.to/lastmile_qr_scan", "ios": "https://dc.lft.to/lastmile_qr_scan"}, "type": "electric_scooter", "lat": 38.9145045, "is_reserved": 0, "fusion_lat": 0.0}, {"bike_id": "6cd9c9c4f54a5b65f5aa94083a1524a7", "fusion_lon": 0.0, "lon": -77.0087675, "name": "6cd9c9c4f54a5b65f5aa94083a1524a7", "is_disabled": 0, "rental_uris": {"android": "https://dc.lft.to/lastmile_qr_scan", "ios": "https://dc.lft.to/lastmile_qr_scan"}, "type": "electric_scooter", "lat": 38.906344, "is_reserved": 0, "fusion_lat": 0.0}, {"bike_id": "32ddbad1038f207c67024355a389fdc4", "fusion_lon": 0.0, "lon": -77.03500116666666, "name": "32ddbad1038f207c67024355a389fdc4", "is_disabled": 0, "rental_uris": {"android": "https://dc.lft.to/lastmile_qr_scan", "ios": "https://dc.lft.to/lastmile_qr_scan"}, "type": "electric_scooter", "lat": 38.917016, "is_reserved": 0, "fusion_lat": 0.0}, {"bike_id": "d5d04fde3795b85d3e4aca97ac0b800b", "fusion_lon": 0.0, "lon": -77.03646933333333, "name": "d5d04fde3795b85d3e4aca97ac0b800b", "is_disabled": 0, "rental_uris": {"android": "https://dc.lft.to/lastmile_qr_scan", "ios": "https://dc.lft.to/lastmile_qr_scan"}, "type": "electric_scooter", "lat": 38.90282333333333, "is_reserved": 0, "fusion_lat": 0.0}, {"bike_id": "fef01c7a07f1a88fd13d6ade6d826439", "fusion_lon": 0.0, "lon": -77.04931966666666, "name": "fef01c7a07f1a88fd13d6ade6d826439", "is_disabled": 0, "rental_uris": {"android": "https://dc.lft.to/lastmile_qr_scan", "ios": "https://dc.lft.to/lastmile_qr_scan"}, "type": "electric_bike", "lat": 38.813525, "is_reserved": 0, "fusion_lat": 0.0}, {"bike_id": "e87d8aa51a5e5cc971bc56232f311c80", "fusion_lon": 0.0, "lon": -77.01761483333334, "name": "e87d8aa51a5e5cc971bc56232f311c80", "is_disabled": 0, "rental_uris": {"android": "https://dc.lft.to/lastmile_qr_scan", "ios": "https://dc.lft.to/lastmile_qr_scan"}, "type": "electric_scooter", "lat": 38.87675083333333, "is_reserved": 0, "fusion_lat": 0.0}, {"bike_id": "d8a95f94c896a93f9940365539ae323a", "fusion_lon": 0.0, "lon": -77.05726366666667, "name": "d8a95f94c896a93f9940365539ae323a", "is_disabled": 0, "rental_uris": {"android": "https://dc.lft.to/lastmile_qr_scan", "ios": "https://dc.lft.to/lastmile_qr_scan"}, "type": "electric_scooter", "lat": 38.933581, "is_reserved": 0, "fusion_lat": 0.0}, {"bike_id": "d7c2c15c59fc2338956e33c57b29d5d3", "fusion_lon": 0.0, "lon": -77.055543, "name": "d7c2c15c59fc2338956e33c57b29d5d3", "is_disabled": 0, "rental_uris": {"android": "https://dc.lft.to/lastmile_qr_scan", "ios": "https://dc.lft.to/lastmile_qr_scan"}, "type": "electric_scooter", "lat": 38.93419033333333, "is_reserved": 0, "fusion_lat": 0.0}, {"bike_id": "10d82b5b7592c41315862d5d7ca6d14c", "fusion_lon": 0.0, "lon": -77.0269505, "name": "10d82b5b7592c41315862d5d7ca6d14c", "is_disabled": 0, "rental_uris": {"android": "https://dc.lft.to/lastmile_qr_scan", "ios": "https://dc.lft.to/lastmile_qr_scan"}, "type": "electric_scooter", "lat": 38.9112905, "is_reserved": 0, "fusion_lat": 0.0}, {"bike_id": "5d762f4dc281c5fe01f710af78522cbe", "fusion_lon": 0.0, "lon": -77.00516066666667, "name": "5d762f4dc281c5fe01f710af78522cbe", "is_disabled": 0, "rental_uris": {"android": "https://dc.lft.to/lastmile_qr_scan", "ios": "https://dc.lft.to/lastmile_qr_scan"}, "type": "electric_scooter", "lat": 38.880143, "is_reserved": 0, "fusion_lat": 0.0}, {"bike_id": "326a42aa3c8138a5a4841a9c17817de3", "fusion_lon": 0.0, "lon": -77.0363985, "name": "326a42aa3c8138a5a4841a9c17817de3", "is_disabled": 0, "rental_uris": {"android": "https://dc.lft.to/lastmile_qr_scan", "ios": "https://dc.lft.to/lastmile_qr_scan"}, "type": "electric_scooter", "lat": 38.91594533333333, "is_reserved": 0, "fusion_lat": 0.0}, {"bike_id": "d00bd4ca83dd7ce6a62ca91d88312335", "fusion_lon": 0.0, "lon": -77.0317005, "name": "d00bd4ca83dd7ce6a62ca91d88312335", "is_disabled": 0, "rental_uris": {"android": "https://dc.lft.to/lastmile_qr_scan", "ios": "https://dc.lft.to/lastmile_qr_scan"}, "type": "electric_bike", "lat": 38.999473333333334, "is_reserved": 0, "fusion_lat": 0.0}, {"bike_id": "18757fe4f4c9ed316ae66b8303bfc2ce", "fusion_lon": 0.0, "lon": -77.03457, "name": "18757fe4f4c9ed316ae66b8303bfc2ce", "is_disabled": 0, "rental_uris": {"android": "https://dc.lft.to/lastmile_qr_scan", "ios": "https://dc.lft.to/lastmile_qr_scan"}, "type": "electric_scooter", "lat": 38.928793666666664, "is_reserved": 0, "fusion_lat": 0.0}, {"bike_id": "8a813337da5e83ca5dd209c2bcdee8b3", "fusion_lon": 0.0, "lon": -77.00170083333333, "name": "8a813337da5e83ca5dd209c2bcdee8b3", "is_disabled": 0, "rental_uris": {"android": "https://dc.lft.to/lastmile_qr_scan", "ios": "https://dc.lft.to/lastmile_qr_scan"}, "type": "electric_scooter", "lat": 38.90126933333333, "is_reserved": 0, "fusion_lat": 0.0}, {"bike_id": "10814dc1524dbdba754a45dca50e33b1", "fusion_lon": 0.0, "lon": -77.04142116666667, "name": "10814dc1524dbdba754a45dca50e33b1", "is_disabled": 0, "rental_uris": {"android": "https://dc.lft.to/lastmile_qr_scan", "ios": "https://dc.lft.to/lastmile_qr_scan"}, "type": "electric_scooter", "lat": 38.89360716666667, "is_reserved": 0, "fusion_lat": 0.0}, {"bike_id": "195969c68256c807d8c459c595885e58", "fusion_lon": 0.0, "lon": -77.03841133333333, "name": "195969c68256c807d8c459c595885e58", "is_disabled": 0, "rental_uris": {"android": "https://dc.lft.to/lastmile_qr_scan", "ios": "https://dc.lft.to/lastmile_qr_scan"}, "type": "electric_scooter", "lat": 38.921633166666666, "is_reserved": 0, "fusion_lat": 0.0}, {"bike_id": "f3dc955f9e3bfcd638f54daaad9f7510", "fusion_lon": 0.0, "lon": -77.04379916666667, "name": "f3dc955f9e3bfcd638f54daaad9f7510", "is_disabled": 0, "rental_uris": {"android": "https://dc.lft.to/lastmile_qr_scan", "ios": "https://dc.lft.to/lastmile_qr_scan"}, "type": "electric_scooter", "lat": 38.902533, "is_reserved": 0, "fusion_lat": 0.0}, {"bike_id": "e75bff17612b44057a508ca7f825a009", "fusion_lon": 0.0, "lon": -76.99504366666666, "name": "e75bff17612b44057a508ca7f825a009", "is_disabled": 0, "rental_uris": {"android": "https://dc.lft.to/lastmile_qr_scan", "ios": "https://dc.lft.to/lastmile_qr_scan"}, "type": "electric_scooter", "lat": 38.899024833333335, "is_reserved": 0, "fusion_lat": 0.0}, {"bike_id": "18e1366f6b884d5a601fd356bef02c4e", "fusion_lon": 0.0, "lon": -76.99731783333333, "name": "18e1366f6b884d5a601fd356bef02c4e", "is_disabled": 0, "rental_uris": {"android": "https://dc.lft.to/lastmile_qr_scan", "ios": "https://dc.lft.to/lastmile_qr_scan"}, "type": "electric_scooter", "lat": 38.907915, "is_reserved": 0, "fusion_lat": 0.0}, {"bike_id": "310ef36562b38ad142bff962a62a3dcd", "fusion_lon": 0.0, "lon": -76.94640516666666, "name": "310ef36562b38ad142bff962a62a3dcd", "is_disabled": 0, "rental_uris": {"android": "https://dc.lft.to/lastmile_qr_scan", "ios": "https://dc.lft.to/lastmile_qr_scan"}, "type": "electric_scooter", "lat": 38.898438666666664, "is_reserved": 0, "fusion_lat": 0.0}, {"bike_id": "031aa4e26ac552cdd2d82338db0ef9cb", "fusion_lon": 0.0, "lon": -77.0299435, "name": "031aa4e26ac552cdd2d82338db0ef9cb", "is_disabled": 0, "rental_uris": {"android": "https://dc.lft.to/lastmile_qr_scan", "ios": "https://dc.lft.to/lastmile_qr_scan"}, "type": "electric_scooter", "lat": 38.938629666666664, "is_reserved": 0, "fusion_lat": 0.0}, {"bike_id": "f4acd2cfeea853e9f4a6ff1cae7e806f", "fusion_lon": 0.0, "lon": -77.027967, "name": "f4acd2cfeea853e9f4a6ff1cae7e806f", "is_disabled": 0, "rental_uris": {"android": "https://dc.lft.to/lastmile_qr_scan", "ios": "https://dc.lft.to/lastmile_qr_scan"}, "type": "electric_scooter", "lat": 38.963412166666664, "is_reserved": 0, "fusion_lat": 0.0}, {"bike_id": "562c5f60ed87ed65b4a9b24aa279d039", "fusion_lon": 0.0, "lon": -77.02094783333334, "name": "562c5f60ed87ed65b4a9b24aa279d039", "is_disabled": 0, "rental_uris": {"android": "https://dc.lft.to/lastmile_qr_scan", "ios": "https://dc.lft.to/lastmile_qr_scan"}, "type": "electric_scooter", "lat": 38.92698133333333, "is_reserved": 0, "fusion_lat": 0.0}, {"bike_id": "a559dfe419d4beb634e23e88a3b54e7e", "fusion_lon": 0.0, "lon": -77.02326116666667, "name": "a559dfe419d4beb634e23e88a3b54e7e", "is_disabled": 0, "rental_uris": {"android": "https://dc.lft.to/lastmile_qr_scan", "ios": "https://dc.lft.to/lastmile_qr_scan"}, "type": "electric_scooter", "lat": 38.895914833333336, "is_reserved": 0, "fusion_lat": 0.0}, {"bike_id": "f18522f2ff41674311a8bcedce4a27c7", "fusion_lon": 0.0, "lon": -77.04558383333334, "name": "f18522f2ff41674311a8bcedce4a27c7", "is_disabled": 0, "rental_uris": {"android": "https://dc.lft.to/lastmile_qr_scan", "ios": "https://dc.lft.to/lastmile_qr_scan"}, "type": "electric_scooter", "lat": 38.91941766666667, "is_reserved": 0, "fusion_lat": 0.0}, {"bike_id": "f6a414b53111cc662d54611d2050bca5", "fusion_lon": 0.0, "lon": -76.94653983333333, "name": "f6a414b53111cc662d54611d2050bca5", "is_disabled": 0, "rental_uris": {"android": "https://dc.lft.to/lastmile_qr_scan", "ios": "https://dc.lft.to/lastmile_qr_scan"}, "type": "electric_scooter", "lat": 38.898249, "is_reserved": 0, "fusion_lat": 0.0}, {"bike_id": "4eda4995969028eb102e1bb42a4c0819", "fusion_lon": 0.0, "lon": -77.0153465, "name": "4eda4995969028eb102e1bb42a4c0819", "is_disabled": 0, "rental_uris": {"android": "https://dc.lft.to/lastmile_qr_scan", "ios": "https://dc.lft.to/lastmile_qr_scan"}, "type": "electric_scooter", "lat": 38.8873865, "is_reserved": 0, "fusion_lat": 0.0}, {"bike_id": "73cf65a1ea455a86bb67131925952f22", "fusion_lon": 0.0, "lon": -77.02608133333334, "name": "73cf65a1ea455a86bb67131925952f22", "is_disabled": 0, "rental_uris": {"android": "https://dc.lft.to/lastmile_qr_scan", "ios": "https://dc.lft.to/lastmile_qr_scan"}, "type": "electric_scooter", "lat": 38.901715, "is_reserved": 0, "fusion_lat": 0.0}, {"bike_id": "93881b490137f3e60dd442ace466930a", "fusion_lon": 0.0, "lon": -77.12528983333333, "name": "93881b490137f3e60dd442ace466930a", "is_disabled": 0, "rental_uris": {"android": "https://dc.lft.to/lastmile_qr_scan", "ios": "https://dc.lft.to/lastmile_qr_scan"}, "type": "electric_bike", "lat": 39.05632816666667, "is_reserved": 0, "fusion_lat": 0.0}, {"bike_id": "e02e33c23fef9bcdea6a91227252e44d", "fusion_lon": 0.0, "lon": -76.98495483333333, "name": "e02e33c23fef9bcdea6a91227252e44d", "is_disabled": 0, "rental_uris": {"android": "https://dc.lft.to/lastmile_qr_scan", "ios": "https://dc.lft.to/lastmile_qr_scan"}, "type": "electric_scooter", "lat": 38.86680916666667, "is_reserved": 0, "fusion_lat": 0.0}, {"bike_id": "3b08c8c96af9d5803188d32dbf9f00dc", "fusion_lon": 0.0, "lon": -77.04687316666667, "name": "3b08c8c96af9d5803188d32dbf9f00dc", "is_disabled": 0, "rental_uris": {"android": "https://dc.lft.to/lastmile_qr_scan", "ios": "https://dc.lft.to/lastmile_qr_scan"}, "type": "electric_scooter", "lat": 38.892214833333334, "is_reserved": 0, "fusion_lat": 0.0}, {"bike_id": "f59200126e030bc353fead83c8ce9442", "fusion_lon": 0.0, "lon": -77.032125, "name": "f59200126e030bc353fead83c8ce9442", "is_disabled": 0, "rental_uris": {"android": "https://dc.lft.to/lastmile_qr_scan", "ios": "https://dc.lft.to/lastmile_qr_scan"}, "type": "electric_scooter", "lat": 38.916873833333334, "is_reserved": 0, "fusion_lat": 0.0}, {"bike_id": "97175f29db34a92169ad5ad8e66edbb4", "fusion_lon": 0.0, "lon": -77.0242235, "name": "97175f29db34a92169ad5ad8e66edbb4", "is_disabled": 0, "rental_uris": {"android": "https://dc.lft.to/lastmile_qr_scan", "ios": "https://dc.lft.to/lastmile_qr_scan"}, "type": "electric_scooter", "lat": 38.89487616666667, "is_reserved": 0, "fusion_lat": 0.0}, {"bike_id": "9cdc1b32a40b07027882a8eff02471b1", "fusion_lon": 0.0, "lon": -77.02578833333334, "name": "9cdc1b32a40b07027882a8eff02471b1", "is_disabled": 0, "rental_uris": {"android": "https://dc.lft.to/lastmile_qr_scan", "ios": "https://dc.lft.to/lastmile_qr_scan"}, "type": "electric_scooter", "lat": 38.917085666666665, "is_reserved": 0, "fusion_lat": 0.0}, {"bike_id": "6b07e75e6c6d6bd4fe69a51843da5000", "fusion_lon": 0.0, "lon": -77.03705816666667, "name": "6b07e75e6c6d6bd4fe69a51843da5000", "is_disabled": 0, "rental_uris": {"android": "https://dc.lft.to/lastmile_qr_scan", "ios": "https://dc.lft.to/lastmile_qr_scan"}, "type": "electric_scooter", "lat": 38.92826083333333, "is_reserved": 0, "fusion_lat": 0.0}, {"bike_id": "db8f1b6ed8244a59d9de799094b489da", "fusion_lon": 0.0, "lon": -77.017784, "name": "db8f1b6ed8244a59d9de799094b489da", "is_disabled": 0, "rental_uris": {"android": "https://dc.lft.to/lastmile_qr_scan", "ios": "https://dc.lft.to/lastmile_qr_scan"}, "type": "electric_scooter", "lat": 38.90776833333334, "is_reserved": 0, "fusion_lat": 0.0}, {"bike_id": "778fdb93f17867ee6297856a879c1366", "fusion_lon": 0.0, "lon": -77.00553983333333, "name": "778fdb93f17867ee6297856a879c1366", "is_disabled": 0, "rental_uris": {"android": "https://dc.lft.to/lastmile_qr_scan", "ios": "https://dc.lft.to/lastmile_qr_scan"},