{"data": {"bikes": [{"bike_id": "8979a472d5ba2b7378eee5757a0a6357", "fusion_lon": 0.0, "type": "electric_scooter", "name": "8979a472d5ba2b7378eee5757a0a6357", "rental_uris": {"android": "https://dc.lft.to/lastmile_qr_scan", "ios": "https://dc.lft.to/lastmile_qr_scan"}, "fusion_lat": 0.0, "lat": 38.9027105, "is_disabled": 0, "lon": -77.00918183333333, "is_reserved": 0}, {"bike_id": "989a93ee0efddae5f3d00915d84cbc5a", "fusion_lon": 0.0, "type": "electric_scooter", "name": "989a93ee0efddae5f3d00915d84cbc5a", "rental_uris": {"android": "https://dc.lft.to/lastmile_qr_scan", "ios": "https://dc.lft.to/lastmile_qr_scan"}, "fusion_lat": 0.0, "lat": 38.938607166666664, "is_disabled": 0, "lon": -77.02663216666667, "is_reserved": 0}, {"bike_id": "300d321b8f9e3959a90fa7a19cdc210f", "fusion_lon": 0.0, "type": "electric_bike", "name": "300d321b8f9e3959a90fa7a19cdc210f", "rental_uris": {"android": "https://dc.lft.to/lastmile_qr_scan", "ios": "https://dc.lft.to/lastmile_qr_scan"}, "fusion_lat": 0.0, "lat": 38.854199666666666, "is_disabled": 0, "lon": -76.90947, "is_reserved": 0}, {"bike_id": "746be9b4987a3f40d5c4d6dc6b731754", "fusion_lon": 0.0, "type": "electric_scooter", "name": "746be9b4987a3f40d5c4d6dc6b731754", "rental_uris": {"android": "https://dc.lft.to/lastmile_qr_scan", "ios": "https://dc.lft.to/lastmile_qr_scan"}, "fusion_lat": 0.0, "lat": 38.895292166666664, "is_disabled": 0, "lon": -77.033498, "is_reserved": 0}, {"bike_id": "e06bcb8c4b99dc6eeb49e6362756cf7a", "fusion_lon": 0.0, "type": "electric_scooter", "name": "e06bcb8c4b99dc6eeb49e6362756cf7a", "rental_uris": {"android": "https://dc.lft.to/lastmile_qr_scan", "ios": "https://dc.lft.to/lastmile_qr_scan"}, "fusion_lat": 0.0, "lat": 38.88748016666667, "is_disabled": 0, "lon": -77.0187225, "is_reserved": 0}, {"bike_id": "d5cea778bc33eefb55c72ceab943d99d", "fusion_lon": 0.0, "type": "electric_scooter", "name": "d5cea778bc33eefb55c72ceab943d99d", "rental_uris": {"android": "https://dc.lft.to/lastmile_qr_scan", "ios": "https://dc.lft.to/lastmile_qr_scan"}, "fusion_lat": 0.0, "lat": 38.90946983333333, "is_disabled": 0, "lon": -77.026967, "is_reserved": 0}, {"bike_id": "1ee6df74457aeeb4c2fa0941936d950d", "fusion_lon": 0.0, "type": "electric_scooter", "name": "1ee6df74457aeeb4c2fa0941936d950d", "rental_uris": {"android": "https://dc.lft.to/lastmile_qr_scan", "ios": "https://dc.lft.to/lastmile_qr_scan"}, "fusion_lat": 0.0, "lat": 38.90958333333333, "is_disabled": 0, "lon": -77.0238055, "is_reserved": 0}, {"bike_id": "4698979d40903bbc5e38dd4bcd5c114f", "fusion_lon": 0.0, "type": "electric_scooter", "name": "4698979d40903bbc5e38dd4bcd5c114f", "rental_uris": {"android": "https://dc.lft.to/lastmile_qr_scan", "ios": "https://dc.lft.to/lastmile_qr_scan"}, "fusion_lat": 0.0, "lat": 38.930632333333335, "is_disabled": 0, "lon": -77.04183016666667, "is_reserved": 0}, {"bike_id": "fa116f39a614b7f2533f1c3723101e5f", "fusion_lon": 0.0, "type": "electric_scooter", "name": "fa116f39a614b7f2533f1c3723101e5f", "rental_uris": {"android": "https://dc.lft.to/lastmile_qr_scan", "ios": "https://dc.lft.to/lastmile_qr_scan"}, "fusion_lat": 0.0, "lat": 38.928621166666666, "is_disabled": 0, "lon": -77.01377866666667, "is_reserved": 0}, {"bike_id": "550a2b7d41de421979cb02ee519adbd5", "fusion_lon": 0.0, "type": "electric_scooter", "name": "550a2b7d41de421979cb02ee519adbd5", "rental_uris": {"android": "https://dc.lft.to/lastmile_qr_scan", "ios": "https://dc.lft.to/lastmile_qr_scan"}, "fusion_lat": 0.0, "lat": 38.911045, "is_disabled": 0, "lon": -77.02402483333333, "is_reserved": 0}, {"bike_id": "31c133452238c9ef4898e8446e40ce69", "fusion_lon": 0.0, "type": "electric_scooter", "name": "31c133452238c9ef4898e8446e40ce69", "rental_uris": {"android": "https://dc.lft.to/lastmile_qr_scan", "ios": "https://dc.lft.to/lastmile_qr_scan"}, "fusion_lat": 0.0, "lat": 38.920219, "is_disabled": 0, "lon": -77.01697966666667, "is_reserved": 0}, {"bike_id": "364317a721b649e8bbbf47dbd8b6cb37", "fusion_lon": 0.0, "type": "electric_scooter", "name": "364317a721b649e8bbbf47dbd8b6cb37", "rental_uris": {"android": "https://dc.lft.to/lastmile_qr_scan", "ios": "https://dc.lft.to/lastmile_qr_scan"}, "fusion_lat": 0.0, "lat": 38.900201833333334, "is_disabled": 0, "lon": -77.00156416666667, "is_reserved": 0}, {"bike_id": "f12c3031a9087a176a8a837278dc1df8", "fusion_lon": 0.0, "type": "electric_scooter", "name": "f12c3031a9087a176a8a837278dc1df8", "rental_uris": {"android": "https://dc.lft.to/lastmile_qr_scan", "ios": "https://dc.lft.to/lastmile_qr_scan"}, "fusion_lat": 0.0, "lat": 38.917274, "is_disabled": 0, "lon": -77.03665166666667, "is_reserved": 0}, {"bike_id": "ff3e92c4ca856c388671dd28dea053c4", "fusion_lon": 0.0, "type": "electric_scooter", "name": "ff3e92c4ca856c388671dd28dea053c4", "rental_uris": {"android": "https://dc.lft.to/lastmile_qr_scan", "ios": "https://dc.lft.to/lastmile_qr_scan"}, "fusion_lat": 0.0, "lat": 38.921673, "is_disabled": 0, "lon": -77.03894266666667, "is_reserved": 0}, {"bike_id": "c577093363215b41b064ea247333bc6b", "fusion_lon": 0.0, "type": "electric_scooter", "name": "c577093363215b41b064ea247333bc6b", "rental_uris": {"android": "https://dc.lft.to/lastmile_qr_scan", "ios": "https://dc.lft.to/lastmile_qr_scan"}, "fusion_lat": 0.0, "lat": 38.91175116666667, "is_disabled": 0, "lon": -77.08439566666667, "is_reserved": 0}, {"bike_id": "3d7dc7beba7acb49a7f4dff09d81c497", "fusion_lon": 0.0, "type": "electric_scooter", "name": "3d7dc7beba7acb49a7f4dff09d81c497", "rental_uris": {"android": "https://dc.lft.to/lastmile_qr_scan", "ios": "https://dc.lft.to/lastmile_qr_scan"}, "fusion_lat": 0.0, "lat": 38.93026733333333, "is_disabled": 0, "lon": -77.01291583333334, "is_reserved": 0}, {"bike_id": "6a3d062bc253ed4939467135278f8889", "fusion_lon": 0.0, "type": "electric_scooter", "name": "6a3d062bc253ed4939467135278f8889", "rental_uris": {"android": "https://dc.lft.to/lastmile_qr_scan", "ios": "https://dc.lft.to/lastmile_qr_scan"}, "fusion_lat": 0.0, "lat": 38.91270883333333, "is_disabled": 0, "lon": -77.026951, "is_reserved": 0}, {"bike_id": "7e95d93ec27303f73637f98a7476be17", "fusion_lon": 0.0, "type": "electric_scooter", "name": "7e95d93ec27303f73637f98a7476be17", "rental_uris": {"android": "https://dc.lft.to/lastmile_qr_scan", "ios": "https://dc.lft.to/lastmile_qr_scan"}, "fusion_lat": 0.0, "lat": 38.91788533333333, "is_disabled": 0, "lon": -77.03637283333333, "is_reserved": 0}, {"bike_id": "f909226d87503687695a59fdd4dd501f", "fusion_lon": 0.0, "type": "electric_scooter", "name": "f909226d87503687695a59fdd4dd501f", "rental_uris": {"android": "https://dc.lft.to/lastmile_qr_scan", "ios": "https://dc.lft.to/lastmile_qr_scan"}, "fusion_lat": 0.0, "lat": 38.9104475, "is_disabled": 0, "lon": -77.03262166666667, "is_reserved": 0}, {"bike_id": "8fc2f38c6d678b98aad1188b38e5b7e7", "fusion_lon": 0.0, "type": "electric_scooter", "name": "8fc2f38c6d678b98aad1188b38e5b7e7", "rental_uris": {"android": "https://dc.lft.to/lastmile_qr_scan", "ios": "https://dc.lft.to/lastmile_qr_scan"}, "fusion_lat": 0.0, "lat": 38.96501516666667, "is_disabled": 0, "lon": -77.02843333333334, "is_reserved": 0}, {"bike_id": "a0a4936fa1a15d2074d991a787e711d0", "fusion_lon": 0.0, "type": "electric_scooter", "name": "a0a4936fa1a15d2074d991a787e711d0", "rental_uris": {"android": "https://dc.lft.to/lastmile_qr_scan", "ios": "https://dc.lft.to/lastmile_qr_scan"}, "fusion_lat": 0.0, "lat": 38.939833666666665, "is_disabled": 0, "lon": -77.03281333333334, "is_reserved": 0}, {"bike_id": "18cd9d366f2c8670b8c4be694e9aff54", "fusion_lon": 0.0, "type": "electric_scooter", "name": "18cd9d366f2c8670b8c4be694e9aff54", "rental_uris": {"android": "https://dc.lft.to/lastmile_qr_scan", "ios": "https://dc.lft.to/lastmile_qr_scan"}, "fusion_lat": 0.0, "lat": 38.89508566666667, "is_disabled": 0, "lon": -77.0110415, "is_reserved": 0}, {"bike_id": "6d50a9c5f00dc1850637677687b7e7aa", "fusion_lon": 0.0, "type": "electric_scooter", "name": "6d50a9c5f00dc1850637677687b7e7aa", "rental_uris": {"android": "https://dc.lft.to/lastmile_qr_scan", "ios": "https://dc.lft.to/lastmile_qr_scan"}, "fusion_lat": 0.0, "lat": 38.905735, "is_disabled": 0, "lon": -76.97626316666667, "is_reserved": 0}, {"bike_id": "e83112e7c7d76efd1099de6dae0bebf5", "fusion_lon": 0.0, "type": "electric_scooter", "name": "e83112e7c7d76efd1099de6dae0bebf5", "rental_uris": {"android": "https://dc.lft.to/lastmile_qr_scan", "ios": "https://dc.lft.to/lastmile_qr_scan"}, "fusion_lat": 0.0, "lat": 38.9187765, "is_disabled": 0, "lon": -77.04181016666666, "is_reserved": 0}, {"bike_id": "e21cd662e984ed3008359f2b63930a00", "fusion_lon": 0.0, "type": "electric_scooter", "name": "e21cd662e984ed3008359f2b63930a00", "rental_uris": {"android": "https://dc.lft.to/lastmile_qr_scan", "ios": "https://dc.lft.to/lastmile_qr_scan"}, "fusion_lat": 0.0, "lat": 38.918453166666666, "is_disabled": 0, "lon": -76.96557216666666, "is_reserved": 0}, {"bike_id": "39a37c876a49841b6801807a90e91f67", "fusion_lon": 0.0, "type": "electric_scooter", "name": "39a37c876a49841b6801807a90e91f67", "rental_uris": {"android": "https://dc.lft.to/lastmile_qr_scan", "ios": "https://dc.lft.to/lastmile_qr_scan"}, "fusion_lat": 0.0, "lat": 38.88219183333333, "is_disabled": 0, "lon": -76.98676366666666, "is_reserved": 0}, {"bike_id": "39c119a76f34fd4756136d08fe4cffc1", "fusion_lon": 0.0, "type": "electric_scooter", "name": "39c119a76f34fd4756136d08fe4cffc1", "rental_uris": {"android": "https://dc.lft.to/lastmile_qr_scan", "ios": "https://dc.lft.to/lastmile_qr_scan"}, "fusion_lat": 0.0, "lat": 38.90369883333334, "is_disabled": 0, "lon": -77.06765633333333, "is_reserved": 0}, {"bike_id": "0fbae7a8c9f50765d915a29173648bf7", "fusion_lon": 0.0, "type": "electric_scooter", "name": "0fbae7a8c9f50765d915a29173648bf7", "rental_uris": {"android": "https://dc.lft.to/lastmile_qr_scan", "ios": "https://dc.lft.to/lastmile_qr_scan"}, "fusion_lat": 0.0, "lat": 38.93429616666667, "is_disabled": 0, "lon": -77.05842383333334, "is_reserved": 0}, {"bike_id": "3a898b3ca8685db9304cda17d661b298", "fusion_lon": 0.0, "type": "electric_scooter", "name": "3a898b3ca8685db9304cda17d661b298", "rental_uris": {"android": "https://dc.lft.to/lastmile_qr_scan", "ios": "https://dc.lft.to/lastmile_qr_scan"}, "fusion_lat": 0.0, "lat": 38.88411966666666, "is_disabled": 0, "lon": -77.030552, "is_reserved": 0}, {"bike_id": "deb7022cc31b1b292b84437fcb3b5da6", "fusion_lon": 0.0, "type": "electric_scooter", "name": "deb7022cc31b1b292b84437fcb3b5da6", "rental_uris": {"android": "https://dc.lft.to/lastmile_qr_scan", "ios": "https://dc.lft.to/lastmile_qr_scan"}, "fusion_lat": 0.0, "lat": 38.8937385, "is_disabled": 0, "lon": -76.94962383333333, "is_reserved": 0}, {"bike_id": "ebe1753fb6b8d8a61e2dfc13f3bfb7f1", "fusion_lon": 0.0, "type": "electric_scooter", "name": "ebe1753fb6b8d8a61e2dfc13f3bfb7f1", "rental_uris": {"android": "https://dc.lft.to/lastmile_qr_scan", "ios": "https://dc.lft.to/lastmile_qr_scan"}, "fusion_lat": 0.0, "lat": 38.917693166666666, "is_disabled": 0, "lon": -77.04063633333334, "is_reserved": 0}, {"bike_id": "0f10e71a2757c026f27144b570908e3d", "fusion_lon": 0.0, "type": "electric_scooter", "name": "0f10e71a2757c026f27144b570908e3d", "rental_uris": {"android": "https://dc.lft.to/lastmile_qr_scan", "ios": "https://dc.lft.to/lastmile_qr_scan"}, "fusion_lat": 0.0, "lat": 38.92851366666667, "is_disabled": 0, "lon": -77.01409466666667, "is_reserved": 0}, {"bike_id": "ddeb71d8f21fbe3241d1a141bdb88a09", "fusion_lon": 0.0, "type": "electric_scooter", "name": "ddeb71d8f21fbe3241d1a141bdb88a09", "rental_uris": {"android": "https://dc.lft.to/lastmile_qr_scan", "ios": "https://dc.lft.to/lastmile_qr_scan"}, "fusion_lat": 0.0, "lat": 38.90415483333334, "is_disabled": 0, "lon": -77.04996883333334, "is_reserved": 0}, {"bike_id": "81d99c45a64d70d5665d8e1cbf2239a8", "fusion_lon": 0.0, "type": "electric_scooter", "name": "81d99c45a64d70d5665d8e1cbf2239a8", "rental_uris": {"android": "https://dc.lft.to/lastmile_qr_scan", "ios": "https://dc.lft.to/lastmile_qr_scan"}, "fusion_lat": 0.0, "lat": 38.90546916666667, "is_disabled": 0, "lon": -77.021801, "is_reserved": 0}, {"bike_id": "e84651736cab412b1d81ed25ebe2b4af", "fusion_lon": 0.0, "type": "electric_scooter", "name": "e84651736cab412b1d81ed25ebe2b4af", "rental_uris": {"android": "https://dc.lft.to/lastmile_qr_scan", "ios": "https://dc.lft.to/lastmile_qr_scan"}, "fusion_lat": 0.0, "lat": 38.92235266666667, "is_disabled": 0, "lon": -77.04615133333333, "is_reserved": 0}, {"bike_id": "90219f5356bffc3b21a86abca2831c61", "fusion_lon": 0.0, "type": "electric_scooter", "name": "90219f5356bffc3b21a86abca2831c61", "rental_uris": {"android": "https://dc.lft.to/lastmile_qr_scan", "ios": "https://dc.lft.to/lastmile_qr_scan"}, "fusion_lat": 0.0, "lat": 38.89549433333333, "is_disabled": 0, "lon": -76.99161616666666, "is_reserved": 0}, {"bike_id": "744e4b10ce3c2a8c16c94a2a5e096f8f", "fusion_lon": 0.0, "type": "electric_scooter", "name": "744e4b10ce3c2a8c16c94a2a5e096f8f", "rental_uris": {"android": "https://dc.lft.to/lastmile_qr_scan", "ios": "https://dc.lft.to/lastmile_qr_scan"}, "fusion_lat": 0.0, "lat": 38.924330833333336, "is_disabled": 0, "lon": -77.0202525, "is_reserved": 0}, {"bike_id": "030ef532493578aff685c412f492e2e5", "fusion_lon": 0.0, "type": "electric_scooter", "name": "030ef532493578aff685c412f492e2e5", "rental_uris": {"android": "https://dc.lft.to/lastmile_qr_scan", "ios": "https://dc.lft.to/lastmile_qr_scan"}, "fusion_lat": 0.0, "lat": 38.92273, "is_disabled": 0, "lon": -77.033977, "is_reserved": 0}, {"bike_id": "1aa3ba36e4e74d66bac1e2a39c6bd09f", "fusion_lon": 0.0, "type": "electric_scooter", "name": "1aa3ba36e4e74d66bac1e2a39c6bd09f", "rental_uris": {"android": "https://dc.lft.to/lastmile_qr_scan", "ios": "https://dc.lft.to/lastmile_qr_scan"}, "fusion_lat": 0.0, "lat": 38.9162015, "is_disabled": 0, "lon": -77.0416435, "is_reserved": 0}, {"bike_id": "8f2f4ea678bb2716c5e9e7bd8b9a68b3", "fusion_lon": 0.0, "type": "electric_scooter", "name": "8f2f4ea678bb2716c5e9e7bd8b9a68b3", "rental_uris": {"android": "https://dc.lft.to/lastmile_qr_scan", "ios": "https://dc.lft.to/lastmile_qr_scan"}, "fusion_lat": 0.0, "lat": 38.864063333333334, "is_disabled": 0, "lon": -76.9902645, "is_reserved": 0}, {"bike_id": "66d0491e2a9ccc8bbaed5f1cc0d325e6", "fusion_lon": 0.0, "type": "electric_scooter", "name": "66d0491e2a9ccc8bbaed5f1cc0d325e6", "rental_uris": {"android": "https://dc.lft.to/lastmile_qr_scan", "ios": "https://dc.lft.to/lastmile_qr_scan"}, "fusion_lat": 0.0, "lat": 38.955657, "is_disabled": 0, "lon": -77.006338, "is_reserved": 0}, {"bike_id": "7b8d94418a6a981c574c98b96a6363d6", "fusion_lon": 0.0, "type": "electric_scooter", "name": "7b8d94418a6a981c574c98b96a6363d6", "rental_uris": {"android": "https://dc.lft.to/lastmile_qr_scan", "ios": "https://dc.lft.to/lastmile_qr_scan"}, "fusion_lat": 0.0, "lat": 38.927807333333334, "is_disabled": 0, "lon": -77.02317133333334, "is_reserved": 0}, {"bike_id": "652cc74a7b3838b3202c9fab4fb9b2f0", "fusion_lon": 0.0, "type": "electric_scooter", "name": "652cc74a7b3838b3202c9fab4fb9b2f0", "rental_uris": {"android": "https://dc.lft.to/lastmile_qr_scan", "ios": "https://dc.lft.to/lastmile_qr_scan"}, "fusion_lat": 0.0, "lat": 38.905021166666664, "is_disabled": 0, "lon": -77.04075, "is_reserved": 0}, {"bike_id": "2648374b85ac4fdeaf099a476b1baeaa", "fusion_lon": 0.0, "type": "electric_scooter", "name": "2648374b85ac4fdeaf099a476b1baeaa", "rental_uris": {"android": "https://dc.lft.to/lastmile_qr_scan", "ios": "https://dc.lft.to/lastmile_qr_scan"}, "fusion_lat": 0.0, "lat": 38.9175645, "is_disabled": 0, "lon": -77.02489166666666, "is_reserved": 0}, {"bike_id": "dca5382d2883b7b20fe04e18f298b47e", "fusion_lon": 0.0, "type": "electric_scooter", "name": "dca5382d2883b7b20fe04e18f298b47e", "rental_uris": {"android": "https://dc.lft.to/lastmile_qr_scan", "ios": "https://dc.lft.to/lastmile_qr_scan"}, "fusion_lat": 0.0, "lat": 38.913213666666664, "is_disabled": 0, "lon": -77.0140855, "is_reserved": 0}, {"bike_id": "e119ed401683e3ae288a3332bf52e1e9", "fusion_lon": 0.0, "type": "electric_bike", "name": "e119ed401683e3ae288a3332bf52e1e9", "rental_uris": {"android": "https://dc.lft.to/lastmile_qr_scan", "ios": "https://dc.lft.to/lastmile_qr_scan"}, "fusion_lat": 0.0, "lat": 38.85215083333333, "is_disabled": 0, "lon": -77.12954483333333, "is_reserved": 0}, {"bike_id": "00023585d933667a05354fd24861933e", "fusion_lon": 0.0, "type": "electric_scooter", "name": "00023585d933667a05354fd24861933e", "rental_uris": {"android": "https://dc.lft.to/lastmile_qr_scan", "ios": "https://dc.lft.to/lastmile_qr_scan"}, "fusion_lat": 0.0, "lat": 38.8967495, "is_disabled": 0, "lon": -76.94211016666667, "is_reserved": 0}, {"bike_id": "2c551c1aa6b6b41647d2058a5914a28d", "fusion_lon": 0.0, "type": "electric_scooter", "name": "2c551c1aa6b6b41647d2058a5914a28d", "rental_uris": {"android": "https://dc.lft.to/lastmile_qr_scan", "ios": "https://dc.lft.to/lastmile_qr_scan"}, "fusion_lat": 0.0, "lat": 38.912540166666666, "is_disabled": 0, "lon": -77.00932083333333, "is_reserved": 0}, {"bike_id": "08f7ec17ff52c21c73cfb4bbef6ef448", "fusion_lon": 0.0, "type": "electric_scooter", "name": "08f7ec17ff52c21c73cfb4bbef6ef448", "rental_uris": {"android": "https://dc.lft.to/lastmile_qr_scan", "ios": "https://dc.lft.to/lastmile_qr_scan"}, "fusion_lat": 0.0, "lat": 38.919143, "is_disabled": 0, "lon": -77.0337675, "is_reserved": 0}, {"bike_id": "b386136ffe9e1f1d7b7f498b4311e969", "fusion_lon": 0.0, "type": "electric_bike", "name": "b386136ffe9e1f1d7b7f498b4311e969", "rental_uris": {"android": "https://dc.lft.to/lastmile_qr_scan", "ios": "https://dc.lft.to/lastmile_qr_scan"}, "fusion_lat": 0.0, "lat": 38.86593116666667, "is_disabled": 0, "lon": -76.93234416666667, "is_reserved": 0}, {"bike_id": "fc1a59bc9bdeb016aa88b615504980cc", "fusion_lon": 0.0, "type": "electric_scooter", "name": "fc1a59bc9bdeb016aa88b615504980cc", "rental_uris": {"android": "https://dc.lft.to/lastmile_qr_scan", "ios": "https://dc.lft.to/lastmile_qr_scan"}, "fusion_lat": 0.0, "lat": 38.9278995, "is_disabled": 0, "lon": -77.02732483333334, "is_reserved": 0}, {"bike_id": "5ec66c927ba9786164b78fbcc96c7341", "fusion_lon": 0.0, "type": "electric_scooter", "name": "5ec66c927ba9786164b78fbcc96c7341", "rental_uris": {"android": "https://dc.lft.to/lastmile_qr_scan", "ios": "https://dc.lft.to/lastmile_qr_scan"}, "fusion_lat": 0.0, "lat": 38.8948515, "is_disabled": 0, "lon": -76.99516233333334, "is_reserved": 0}, {"bike_id": "e0153ee62e416ba79a03fbc9222625a0", "fusion_lon": 0.0, "type": "electric_scooter", "name": "e0153ee62e416ba79a03fbc9222625a0", "rental_uris": {"android": "https://dc.lft.to/lastmile_qr_scan", "ios": "https://dc.lft.to/lastmile_qr_scan"}, "fusion_lat": 0.0, "lat": 38.9007825, "is_disabled": 0, "lon": -77.00210833333334, "is_reserved": 0}, {"bike_id": "231874ce089a712a66b20cbbb426546d", "fusion_lon": 0.0, "type": "electric_bike", "name": "231874ce089a712a66b20cbbb426546d", "rental_uris": {"android": "https://dc.lft.to/lastmile_qr_scan", "ios": "https://dc.lft.to/lastmile_qr_scan"}, "fusion_lat": 0.0, "lat": 38.9037075, "is_disabled": 0, "lon": -77.01760116666667, "is_reserved": 0}, {"bike_id": "cde027b994ca24c438a9f353da7780c0", "fusion_lon": 0.0, "type": "electric_scooter", "name": "cde027b994ca24c438a9f353da7780c0", "rental_uris": {"android": "https://dc.lft.to/lastmile_qr_scan", "ios": "https://dc.lft.to/lastmile_qr_scan"}, "fusion_lat": 0.0, "lat": 38.90558333333333, "is_disabled": 0, "lon": -77.00600983333334, "is_reserved": 0}, {"bike_id": "a21e1c97893063365b4f73234081e25f", "fusion_lon": 0.0, "type": "electric_scooter", "name": "a21e1c97893063365b4f73234081e25f", "rental_uris": {"android": "https://dc.lft.to/lastmile_qr_scan", "ios": "https://dc.lft.to/lastmile_qr_scan"}, "fusion_lat": 0.0, "lat": 38.9413295, "is_disabled": 0, "lon": -77.09206916666666, "is_reserved": 0}, {"bike_id": "55feb346dea06a2e481be535b4a13803", "fusion_lon": 0.0, "type": "electric_scooter", "name": "55feb346dea06a2e481be535b4a13803", "rental_uris": {"android": "https://dc.lft.to/lastmile_qr_scan", "ios": "https://dc.lft.to/lastmile_qr_scan"}, "fusion_lat": 0.0, "lat": 38.92583166666667, "is_disabled": 0, "lon": -77.032484, "is_reserved": 0}, {"bike_id": "d4d2d5735e22866388c0770c3018a588", "fusion_lon": 0.0, "type": "electric_scooter", "name": "d4d2d5735e22866388c0770c3018a588", "rental_uris": {"android": "https://dc.lft.to/lastmile_qr_scan", "ios": "https://dc.lft.to/lastmile_qr_scan"}, "fusion_lat": 0.0, "lat": 38.8845035, "is_disabled": 0, "lon": -77.0104125, "is_reserved": 0}, {"bike_id": "47045fa519029ec5bf7c7046f745331c", "fusion_lon": 0.0, "type": "electric_scooter", "name": "47045fa519029ec5bf7c7046f745331c", "rental_uris": {"android": "https://dc.lft.to/lastmile_qr_scan", "ios": "https://dc.lft.to/lastmile_qr_scan"}, "fusion_lat": 0.0, "lat": 38.911411333333334, "is_disabled": 0, "lon": -76.99010533333333, "is_reserved": 0}, {"bike_id": "cc6d326cd760ea9b9f879bd5a70b309d", "fusion_lon": 0.0, "type": "electric_scooter", "name": "cc6d326cd760ea9b9f879bd5a70b309d", "rental_uris": {"android": "https://dc.lft.to/lastmile_qr_scan", "ios": "https://dc.lft.to/lastmile_qr_scan"}, "fusion_lat": 0.0, "lat": 38.88599133333334, "is_disabled": 0, "lon": -76.95268683333333, "is_reserved": 0}, {"bike_id": "b1fca99911cf5e3623d56b8489de05a7", "fusion_lon": 0.0, "type": "electric_scooter", "name": "b1fca99911cf5e3623d56b8489de05a7", "rental_uris": {"android": "https://dc.lft.to/lastmile_qr_scan", "ios": "https://dc.lft.to/lastmile_qr_scan"}, "fusion_lat": 0.0, "lat": 38.90389616666667, "is_disabled": 0, "lon": -76.97902533333334, "is_reserved": 0}, {"bike_id": "a50cc25fdb1f589321fc6f920dea8bfe", "fusion_lon": 0.0, "type": "electric_scooter", "name": "a50cc25fdb1f589321fc6f920dea8bfe", "rental_uris": {"android": "https://dc.lft.to/lastmile_qr_scan", "ios": "https://dc.lft.to/lastmile_qr_scan"}, "fusion_lat": 0.0, "lat": 38.91045783333333, "is_disabled": 0, "lon": -77.06458633333334, "is_reserved": 0}, {"bike_id": "47522d3bcf164a4fb999180d0afc1de5", "fusion_lon": 0.0, "type": "electric_scooter", "name": "47522d3bcf164a4fb999180d0afc1de5", "rental_uris": {"android": "https://dc.lft.to/lastmile_qr_scan", "ios": "https://dc.lft.to/lastmile_qr_scan"}, "fusion_lat": 0.0, "lat": 38.906816666666664, "is_disabled": 0, "lon": -77.0344795, "is_reserved": 0}, {"bike_id": "41fbbdf2ffeff39ea3e4a3c0267d04c6", "fusion_lon": 0.0, "type": "electric_scooter", "name": "41fbbdf2ffeff39ea3e4a3c0267d04c6", "rental_uris": {"android": "https://dc.lft.to/lastmile_qr_scan", "ios": "https://dc.lft.to/lastmile_qr_scan"}, "fusion_lat": 0.0, "lat": 38.92881283333333, "is_disabled": 0, "lon": -77.02707466666666, "is_reserved": 0}, {"bike_id": "349e75bc702f2cdeb7b4d889581eccf2", "fusion_lon": 0.0, "type": "electric_scooter", "name": "349e75bc702f2cdeb7b4d889581eccf2", "rental_uris": {"android": "https://dc.lft.to/lastmile_qr_scan", "ios": "https://dc.lft.to/lastmile_qr_scan"}, "fusion_lat": 0.0, "lat": 38.932795, "is_disabled": 0, "lon": -77.02391983333334, "is_reserved": 0}, {"bike_id": "bc2723a8fe29ac6c6f6e206daae56b90", "fusion_lon": 0.0, "type": "electric_scooter", "name": "bc2723a8fe29ac6c6f6e206daae56b90", "rental_uris": {"android": "https://dc.lft.to/lastmile_qr_scan", "ios": "https://dc.lft.to/lastmile_qr_scan"}, "fusion_lat": 0.0, "lat": 38.87935483333333, "is_disabled": 0, "lon": -77.01717, "is_reserved": 0}, {"bike_id": "651271f7d5eca714e89b56f71ea75c64", "fusion_lon": 0.0, "type": "electric_scooter", "name": "651271f7d5eca714e89b56f71ea75c64", "rental_uris": {"android": "https://dc.lft.to/lastmile_qr_scan", "ios": "https://dc.lft.to/lastmile_qr_scan"}, "fusion_lat": 0.0, "lat": 38.934252, "is_disabled": 0, "lon": -77.04315816666667, "is_reserved": 0}, {"bike_id": "6b78eca8a2d6d2399d8be0caa068f1eb", "fusion_lon": 0.0, "type": "electric_scooter", "name": "6b78eca8a2d6d2399d8be0caa068f1eb", "rental_uris": {"android": "https://dc.lft.to/lastmile_qr_scan", "ios": "https://dc.lft.to/lastmile_qr_scan"}, "fusion_lat": 0.0, "lat": 38.89670433333333, "is_disabled": 0, "lon": -77.0434695, "is_reserved": 0}, {"bike_id": "25249f41057a8149a2da9c3c0a77affa", "fusion_lon": 0.0, "type": "electric_scooter", "name": "25249f41057a8149a2da9c3c0a77affa", "rental_uris": {"android": "https://dc.lft.to/lastmile_qr_scan", "ios": "https://dc.lft.to/lastmile_qr_scan"}, "fusion_lat": 0.0, "lat": 38.863551, "is_disabled": 0, "lon": -76.990908, "is_reserved": 0}, {"bike_id": "6be82708b4b66128efd3893fea44f6f7", "fusion_lon": 0.0, "type": "electric_scooter", "name": "6be82708b4b66128efd3893fea44f6f7", "rental_uris": {"android": "https://dc.lft.to/lastmile_qr_scan", "ios": "https://dc.lft.to/lastmile_qr_scan"}, "fusion_lat": 0.0, "lat": 38.88743866666667, "is_disabled": 0, "lon": -77.02833066666666, "is_reserved": 0}, {"bike_id": "547bc150963726a22f810984c8e34f53", "fusion_lon": 0.0, "type": "electric_scooter", "name": "547bc150963726a22f810984c8e34f53", "rental_uris": {"android": "https://dc.lft.to/lastmile_qr_scan", "ios": "https://dc.lft.to/lastmile_qr_scan"}, "fusion_lat": 0.0, "lat": 38.93980116666667, "is_disabled": 0, "lon": -77.02706266666667, "is_reserved": 0}, {"bike_id": "a742d9a1fccb576cfd36a1757ecc386d", "fusion_lon": 0.0, "type": "electric_bike", "name": "a742d9a1fccb576cfd36a1757ecc386d", "rental_uris": {"android": "https://dc.lft.to/lastmile_qr_scan", "ios": "https://dc.lft.to/lastmile_qr_scan"}, "fusion_lat": 0.0, "lat": 38.935355333333334, "is_disabled": 0, "lon": -77.05218016666667, "is_reserved": 0}, {"bike_id": "2b435729c006cf0bd23d9ceeea1df23b", "fusion_lon": 0.0, "type": "electric_scooter", "name": "2b435729c006cf0bd23d9ceeea1df23b", "rental_uris": {"android": "https://dc.lft.to/lastmile_qr_scan", "ios": "https://dc.lft.to/lastmile_qr_scan"}, "fusion_lat": 0.0, "lat": 38.9199315, "is_disabled": 0, "lon": -77.07184566666666, "is_reserved": 0}, {"bike_id": "1df2ac9bedc746d9b956bb1a43cf3032", "fusion_lon": 0.0, "type": "electric_scooter", "name": "1df2ac9bedc746d9b956bb1a43cf3032", "rental_uris": {"android": "https://dc.lft.to/lastmile_qr_scan", "ios": "https://dc.lft.to/lastmile_qr_scan"}, "fusion_lat": 0.0, "lat": 38.9023595, "is_disabled": 0, "lon": -77.02039783333333, "is_reserved": 0}, {"bike_id": "3fd47786baa23887e74ca862dd0d4ec3", "fusion_lon": 0.0, "type": "electric_scooter", "name": "3fd47786baa23887e74ca862dd0d4ec3", "rental_uris": {"android": "https://dc.lft.to/lastmile_qr_scan", "ios": "https://dc.lft.to/lastmile_qr_scan"}, "fusion_lat": 0.0, "lat": 38.935879666666665, "is_disabled": 0, "lon": -77.03528933333334, "is_reserved": 0}, {"bike_id": "a850a611561359f66558484af50a1d61", "fusion_lon": 0.0, "type": "electric_scooter", "name": "a850a611561359f66558484af50a1d61", "rental_uris": {"android": "https://dc.lft.to/lastmile_qr_scan", "ios": "https://dc.lft.to/lastmile_qr_scan"}, "fusion_lat": 0.0, "lat": 38.900395, "is_disabled": 0, "lon": -76.99364616666666, "is_reserved": 0}, {"bike_id": "37f73e9381739622f23972f5c9def724", "fusion_lon": 0.0, "type": "electric_scooter", "name": "37f73e9381739622f23972f5c9def724", "rental_uris": {"android": "https://dc.lft.to/lastmile_qr_scan", "ios": "https://dc.lft.to/lastmile_qr_scan"}, "fusion_lat": 0.0, "lat": 38.8532385, "is_disabled": 0, "lon": -76.9800695, "is_reserved": 0}, {"bike_id": "ec13b9efd8a37049406d6bcee30f434b", "fusion_lon": 0.0, "type": "electric_scooter", "name": "ec13b9efd8a37049406d6bcee30f434b", "rental_uris": {"android": "https://dc.lft.to/lastmile_qr_scan", "ios": "https://dc.lft.to/lastmile_qr_scan"}, "fusion_lat": 0.0, "lat": 38.92967766666666, "is_disabled": 0, "lon": -77.0324615, "is_reserved": 0}, {"bike_id": "661109235c7cd10e6729eea3a22bd6b0", "fusion_lon": 0.0, "type": "electric_scooter", "name": "661109235c7cd10e6729eea3a22bd6b0", "rental_uris": {"android": "https://dc.lft.to/lastmile_qr_scan", "ios": "https://dc.lft.to/lastmile_qr_scan"}, "fusion_lat": 0.0, "lat": 38.95711383333333, "is_disabled": 0, "lon": -77.02395883333334, "is_reserved": 0}, {"bike_id": "0a980d57cf8f38216760462099213f0e", "fusion_lon": 0.0, "type": "electric_scooter", "name": "0a980d57cf8f38216760462099213f0e", "rental_uris": {"android": "https://dc.lft.to/lastmile_qr_scan", "ios": "https://dc.lft.to/lastmile_qr_scan"}, "fusion_lat": 0.0, "lat": 38.89015633333333, "is_disabled": 0, "lon": -76.9373765, "is_reserved": 0}, {"bike_id": "59292a8df0b4749465f4e5440d550846", "fusion_lon": 0.0, "type": "electric_scooter", "name": "59292a8df0b4749465f4e5440d550846", "rental_uris": {"android": "https://dc.lft.to/lastmile_qr_scan", "ios": "https://dc.lft.to/lastmile_qr_scan"}, "fusion_lat": 0.0, "lat": 38.89139483333334, "is_disabled": 0, "lon": -76.95186516666666, "is_reserved": 0}, {"bike_id": "02c849e60a77ae07af58540e2586d356", "fusion_lon": 0.0, "type": "electric_scooter", "name": "02c849e60a77ae07af58540e2586d356", "rental_uris": {"android": "https://dc.lft.to/lastmile_qr_scan", "ios": "https://dc.lft.to/lastmile_qr_scan"}, "fusion_lat": 0.0, "lat": 38.9056035, "is_disabled": 0, "lon": -77.00592966666666, "is_reserved": 0}, {"bike_id": "beee3eea862140c67356faa82830439f", "fusion_lon": 0.0, "type": "electric_scooter", "name": "beee3eea862140c67356faa82830439f", "rental_uris": {"android": "https://dc.lft.to/lastmile_qr_scan", "ios": "https://dc.lft.to/lastmile_qr_scan"}, "fusion_lat": 0.0, "lat": 38.92600066666667, "is_disabled": 0, "lon": -77.02416666666667, "is_reserved": 0}, {"bike_id": "5496efa6c844f175750e36a6ad648e8e", "fusion_lon": 0.0, "type": "electric_scooter", "name": "5496efa6c844f175750e36a6ad648e8e", "rental_uris": {"android": "https://dc.lft.to/lastmile_qr_scan", "ios": "https://dc.lft.to/lastmile_qr_scan"}, "fusion_lat": 0.0, "lat": 38.927101, "is_disabled": 0, "lon": -77.02396166666666, "is_reserved": 0}, {"bike_id": "ec300fd022e4096e27c8dae8a3b2aeae", "fusion_lon": 0.0, "type": "electric_scooter", "name": "ec300fd022e4096e27c8dae8a3b2aeae", "rental_uris": {"android": "https://dc.lft.to/lastmile_qr_scan", "ios": "https://dc.lft.to/lastmile_qr_scan"}, "fusion_lat": 0.0, "lat": 38.91557516666667, "is_disabled": 0, "lon": -77.02046783333333, "is_reserved": 0}, {"bike_id": "91ac3770cc18390abfaf1d0804e1bc7a", "fusion_lon": 0.0, "type": "electric_scooter", "name": "91ac3770cc18390abfaf1d0804e1bc7a", "rental_uris": {"android": "https://dc.lft.to/lastmile_qr_scan", "ios": "https://dc.lft.to/lastmile_qr_scan"}, "fusion_lat": 0.0, "lat": 38.957588, "is_disabled": 0, "lon": -77.015896, "is_reserved": 0}, {"bike_id": "96880f7fe067fa3736be47e7e32df94d", "fusion_lon": 0.0, "type": "electric_scooter", "name": "96880f7fe067fa3736be47e7e32df94d", "rental_uris": {"android": "https://dc.lft.to/lastmile_qr_scan", "ios": "https://dc.lft.to/lastmile_qr_scan"}, "fusion_lat": 0.0, "lat": 38.907242, "is_disabled": 0, "lon": -77.0237605, "is_reserved": 0}, {"bike_id": "2a72e1681915bc4a3dd8ac0d0478c646", "fusion_lon": 0.0, "type": "electric_scooter", "name": "2a72e1681915bc4a3dd8ac0d0478c646", "rental_uris": {"android": "https://dc.lft.to/lastmile_qr_scan", "ios": "https://dc.lft.to/lastmile_qr_scan"}, "fusion_lat": 0.0, "lat": 38.876322, "is_disabled": 0, "lon": -77.012512, "is_reserved": 0}, {"bike_id": "1e5b934fc4370483244b3bca3d988093", "fusion_lon": 0.0, "type": "electric_scooter", "name": "1e5b934fc4370483244b3bca3d988093", "rental_uris": {"android": "https://dc.lft.to/lastmile_qr_scan", "ios": "https://dc.lft.to/lastmile_qr_scan"}, "fusion_lat": 0.0, "lat": 38.93, "is_disabled": 0, "lon": -77.03285033333333, "is_reserved": 0}, {"bike_id": "223399a2f9533f95ab81931d26edeff4", "fusion_lon": 0.0, "type": "electric_scooter", "name": "223399a2f9533f95ab81931d26edeff4", "rental_uris": {"android": "https://dc.lft.to/lastmile_qr_scan", "ios": "https://dc.lft.to/lastmile_qr_scan"}, "fusion_lat": 0.0, "lat": 38.90476133333333, "is_disabled": 0, "lon": -77.040268, "is_reserved": 0}, {"bike_id": "d2b28ee3a2fc3d1b8ce1b48e6bb28e08", "fusion_lon": 0.0, "type": "electric_scooter", "name": "d2b28ee3a2fc3d1b8ce1b48e6bb28e08", "rental_uris": {"android": "https://dc.lft.to/lastmile_qr_scan", "ios": "https://dc.lft.to/lastmile_qr_scan"}, "fusion_lat": 0.0, "lat": 38.902720333333335, "is_disabled": 0, "lon": -77.0383675, "is_reserved": 0}, {"bike_id": "31dad95733dc97786a97fe8673a9c3de", "fusion_lon": 0.0, "type": "electric_scooter", "name": "31dad95733dc97786a97fe8673a9c3de", "rental_uris": {"android": "https://dc.lft.to/lastmile_qr_scan", "ios": "https://dc.lft.to/lastmile_qr_scan"}, "fusion_lat": 0.0, "lat": 38.9167385, "is_disabled": 0, "lon": -77.02377233333333, "is_reserved": 0}, {"bike_id": "2db12a73f567a2c74b699db409777211", "fusion_lon": 0.0, "type": "electric_scooter", "name": "2db12a73f567a2c74b699db409777211", "rental_uris": {"android": "https://dc.lft.to/lastmile_qr_scan", "ios": "https://dc.lft.to/lastmile_qr_scan"}, "fusion_lat": 0.0, "lat": 38.838365, "is_disabled": 0, "lon": -76.9997825, "is_reserved": 0}, {"bike_id": "411da2039f18282016f8b2c71d73ce09", "fusion_lon": 0.0, "type": "electric_scooter", "name": "411da2039f18282016f8b2c71d73ce09", "rental_uris": {"android": "https://dc.lft.to/lastmile_qr_scan", "ios": "https://dc.lft.to/lastmile_qr_scan"}, "fusion_lat": 0.0, "lat": 38.918361166666664, "is_disabled": 0, "lon": -77.02317133333334, "is_reserved": 0}, {"bike_id": "3bc2d9e9f60bc8368026e54758424079", "fusion_lon": 0.0, "type": "electric_scooter", "name": "3bc2d9e9f60bc8368026e54758424079", "rental_uris": {"android": "https://dc.lft.to/lastmile_qr_scan", "ios": "https://dc.lft.to/lastmile_qr_scan"}, "fusion_lat": 0.0, "lat": 38.934096333333336, "is_disabled": 0, "lon": -77.02506366666667, "is_reserved": 0}, {"bike_id": "e88f1e607950e65e4fe8be4acd8c0917", "fusion_lon": 0.0, "type": "electric_scooter", "name": "e88f1e607950e65e4fe8be4acd8c0917", "rental_uris": {"android": "https://dc.lft.to/lastmile_qr_scan", "ios": "https://dc.lft.to/lastmile_qr_scan"}, "fusion_lat": 0.0, "lat": 38.907901833333334, "is_disabled": 0, "lon": -77.0096595, "is_reserved": 0}, {"bike_id": "4f1e673339ca9b4c62c90166e28fb13b", "fusion_lon": 0.0, "type": "electric_scooter", "name": "4f1e673339ca9b4c62c90166e28fb13b", "rental_uris": {"android": "https://dc.lft.to/lastmile_qr_scan", "ios": "https://dc.lft.to/lastmile_qr_scan"}, "fusion_lat": 0.0, "lat": 38.86057516666666, "is_disabled": 0, "lon": -76.9907165, "is_reserved": 0}, {"bike_id": "11673f22909912b5c57fb2a5abca5e96", "fusion_lon": 0.0, "type": "electric_scooter", "name": "11673f22909912b5c57fb2a5abca5e96", "rental_uris": {"android": "https://dc.lft.to/lastmile_qr_scan", "ios": "https://dc.lft.to/lastmile_qr_scan"}, "fusion_lat": 0.0, "lat": 38.86507266666667, "is_disabled": 0, "lon": -76.99003383333333, "is_reserved": 0}, {"bike_id": "7b9c9ce62fef5635027499cd79c1a3b7", "fusion_lon": 0.0, "type": "electric_scooter", "name": "7b9c9ce62fef5635027499cd79c1a3b7", "rental_uris": {"android": "https://dc.lft.to/lastmile_qr_scan", "ios": "https://dc.lft.to/lastmile_qr_scan"}, "fusion_lat": 0.0, "lat": 38.92330033333333, "is_disabled": 0, "lon": -77.03898666666667, "is_reserved": 0}, {"bike_id": "d72aae79cf47c1a9e08b5f7fe8284911", "fusion_lon": 0.0, "type": "electric_scooter", "name": "d72aae79cf47c1a9e08b5f7fe8284911", "rental_uris": {"android": "https://dc.lft.to/lastmile_qr_scan", "ios": "https://dc.lft.to/lastmile_qr_scan"}, "fusion_lat": 0.0, "lat": 38.91688666666667, "is_disabled": 0, "lon": -77.02817516666667, "is_reserved": 0}, {"bike_id": "8cc9cd2714088054e953074526fc8d56", "fusion_lon": 0.0, "type": "electric_scooter", "name": "8cc9cd2714088054e953074526fc8d56", "rental_uris": {"android": "https://dc.lft.to/lastmile_qr_scan", "ios": "https://dc.lft.to/lastmile_qr_scan"}, "fusion_lat": 0.0, "lat": 38.928394, "is_disabled": 0, "lon": -76.9936475, "is_reserved": 0}, {"bike_id": "3d9c6d887013d511958523ac493f6417", "fusion_lon": 0.0, "type": "electric_bike", "name": "3d9c6d887013d511958523ac493f6417", "rental_uris": {"android": "https://dc.lft.to/lastmile_qr_scan", "ios": "https://dc.lft.to/lastmile_qr_scan"}, "fusion_lat": 0.0, "lat": 38.82872866666666, "is_disabled": 0, "lon": -77.11222466666666, "is_reserved": 0}, {"bike_id": "c39714b6d10dce67316bda69bcc76655", "fusion_lon": 0.0, "type": "electric_scooter", "name": "c39714b6d10dce67316bda69bcc76655", "rental_uris": {"android": "https://dc.lft.to/lastmile_qr_scan", "ios": "https://dc.lft.to/lastmile_qr_scan"}, "fusion_lat": 0.0, "lat": 38.88032333333334, "is_disabled": 0, "lon": -76.9962845, "is_reserved": 0}, {"bike_id": "9ed36592c953affab1b6862b786a2321", "fusion_lon": 0.0, "type": "electric_scooter", "name": "9ed36592c953affab1b6862b786a2321", "rental_uris": {"android": "https://dc.lft.to/lastmile_qr_scan", "ios": "https://dc.lft.to/lastmile_qr_scan"}, "fusion_lat": 0.0, "lat": 38.915640833333335, "is_disabled": 0, "lon": -77.03136016666667, "is_reserved": 0}, {"bike_id": "f7679d8c88ebf541ed4f1c0edc801981", "fusion_lon": 0.0, "type": "electric_scooter", "name": "f7679d8c88ebf541ed4f1c0edc801981", "rental_uris": {"android": "https://dc.lft.to/lastmile_qr_scan", "ios": "https://dc.lft.to/lastmile_qr_scan"}, "fusion_lat": 0.0, "lat": 38.918482833333336, "is_disabled": 0, "lon": -76.965489, "is_reserved": 0}, {"bike_id": "f81256bbb0ed21e1b9e6af277d59dd42", "fusion_lon": 0.0, "type": "electric_scooter", "name": "f81256bbb0ed21e1b9e6af277d59dd42", "rental_uris": {"android": "https://dc.lft.to/lastmile_qr_scan", "ios": "https://dc.lft.to/lastmile_qr_scan"}, "fusion_lat": 0.0, "lat": 38.921369, "is_disabled": 0, "lon": -77.0095675, "is_reserved": 0}, {"bike_id": "baf7ff2ead8fe57c6f2685897c6d16dd", "fusion_lon": 0.0, "type": "electric_bike", "name": "baf7ff2ead8fe57c6f2685897c6d16dd", "rental_uris": {"android": "https://dc.lft.to/lastmile_qr_scan", "ios": "https://dc.lft.to/lastmile_qr_scan"}, "fusion_lat": 0.0, "lat": 38.990888166666664, "is_disabled": 0, "lon": -76.87495, "is_reserved": 0}, {"bike_id": "dde8f21e70771f2df32e879d894c3f95", "fusion_lon": 0.0, "type": "electric_scooter", "name": "dde8f21e70771f2df32e879d894c3f95", "rental_uris": {"android": "https://dc.lft.to/lastmile_qr_scan", "ios": "https://dc.lft.to/lastmile_qr_scan"}, "fusion_lat": 0.0, "lat": 38.89882816666667, "is_disabled": 0, "lon": -76.931621, "is_reserved": 0}, {"bike_id": "efbcb64c6eaf67ba37c58054ca68b2e8", "fusion_lon": 0.0, "type": "electric_scooter", "name": "efbcb64c6eaf67ba37c58054ca68b2e8", "rental_uris": {"android": "https://dc.lft.to/lastmile_qr_scan", "ios": "https://dc.lft.to/lastmile_qr_scan"}, "fusion_lat": 0.0, "lat": 38.90218616666667, "is_disabled": 0, "lon": -77.0020665, "is_reserved": 0}, {"bike_id": "f82792a74c5ab0edbe723b54b1b69492", "fusion_lon": 0.0, "type": "electric_scooter", "name": "f82792a74c5ab0edbe723b54b1b69492", "rental_uris": {"android": "https://dc.lft.to/lastmile_qr_scan", "ios": "https://dc.lft.to/lastmile_qr_scan"}, "fusion_lat": 0.0, "lat": 38.952120666666666, "is_disabled": 0, "lon": -77.06779183333333, "is_reserved": 0}, {"bike_id": "c36ab777539d8233b1bbb9ecffcd8668", "fusion_lon": 0.0, "type": "electric_scooter", "name": "c36ab777539d8233b1bbb9ecffcd8668", "rental_uris": {"android": "https://dc.lft.to/lastmile_qr_scan", "ios": "https://dc.lft.to/lastmile_qr_scan"}, "fusion_lat": 0.0, "lat": 38.930407333333335, "is_disabled": 0, "lon": -77.0329505, "is_reserved": 0}, {"bike_id": "96763d6d693e8383a57573e38fb2fe64", "fusion_lon": 0.0, "type": "electric_scooter", "name": "96763d6d693e8383a57573e38fb2fe64", "rental_uris": {"android": "https://dc.lft.to/lastmile_qr_scan", "ios": "https://dc.lft.to/lastmile_qr_scan"}, "fusion_lat": 0.0, "lat": 38.94995933333333, "is_disabled": 0, "lon": -77.01845683333333, "is_reserved": 0}, {"bike_id": "607579de0afac748610cc6463bf132d1", "fusion_lon": 0.0, "type": "electric_scooter", "name": "607579de0afac748610cc6463bf132d1", "rental_uris": {"android": "https://dc.lft.to/lastmile_qr_scan", "ios": "https://dc.lft.to/lastmile_qr_scan"}, "fusion_lat": 0.0, "lat": 38.91921716666667, "is_disabled": 0, "lon": -77.031827, "is_reserved": 0}, {"bike_id": "99a24ddbde6f6a86c9b1092ead03cc2a", "fusion_lon": 0.0, "type": "electric_scooter", "name": "99a24ddbde6f6a86c9b1092ead03cc2a", "rental_uris": {"android": "https://dc.lft.to/lastmile_qr_scan", "ios": "https://dc.lft.to/lastmile_qr_scan"}, "fusion_lat": 0.0, "lat": 38.939594166666666, "is_disabled": 0, "lon": -77.0249565, "is_reserved": 0}, {"bike_id": "84346bf45a3cad1bd131b84dc4e04a96", "fusion_lon": 0.0, "type": "electric_scooter", "name": "84346bf45a3cad1bd131b84dc4e04a96", "rental_uris": {"android": "https://dc.lft.to/lastmile_qr_scan", "ios": "https://dc.lft.to/lastmile_qr_scan"}, "fusion_lat": 0.0, "lat": 38.928736666666666, "is_disabled": 0, "lon": -77.02819183333334, "is_reserved": 0}, {"bike_id": "fdc696cb17ff57eb4efd5ed5fffbe83a", "fusion_lon": 0.0, "type": "electric_scooter", "name": "fdc696cb17ff57eb4efd5ed5fffbe83a", "rental_uris": {"android": "https://dc.lft.to/lastmile_qr_scan", "ios": "https://dc.lft.to/lastmile_qr_scan"}, "fusion_lat": 0.0, "lat": 38.921276166666665, "is_disabled": 0, "lon": -77.044233, "is_reserved": 0}, {"bike_id": "615670e738f5b045fec4779e3a46d0c6", "fusion_lon": 0.0, "type": "electric_scooter", "name": "615670e738f5b045fec4779e3a46d0c6", "rental_uris": {"android": "https://dc.lft.to/lastmile_qr_scan", "ios": "https://dc.lft.to/lastmile_qr_scan"}, "fusion_lat": 0.0, "lat": 38.95521466666667, "is_disabled": 0, "lon": -77.00738216666667, "is_reserved": 0}, {"bike_id": "e0a9448e49cf7f4bb1cadd86189067a7", "fusion_lon": 0.0, "type": "electric_scooter", "name": "e0a9448e49cf7f4bb1cadd86189067a7", "rental_uris": {"android": "https://dc.lft.to/lastmile_qr_scan", "ios": "https://dc.lft.to/lastmile_qr_scan"}, "fusion_lat": 0.0, "lat": 38.90540416666666, "is_disabled": 0, "lon": -77.02184616666666, "is_reserved": 0}, {"bike_id": "6f6189be0ba2dec0ad303d5d5678991b", "fusion_lon": 0.0, "type": "electric_scooter", "name": "6f6189be0ba2dec0ad303d5d5678991b", "rental_uris": {"android": "https://dc.lft.to/lastmile_qr_scan", "ios": "https://dc.lft.to/lastmile_qr_scan"}, "fusion_lat": 0.0, "lat": 38.92418216666667, "is_disabled": 0, "lon": -77.02001716666666, "is_reserved": 0}, {"bike_id": "4ef8fc74b1a6bf67b68f45c87a4e5bfc", "fusion_lon": 0.0, "type": "electric_scooter", "name": "4ef8fc74b1a6bf67b68f45c87a4e5bfc", "rental_uris": {"android": "https://dc.lft.to/lastmile_qr_scan", "ios": "https://dc.lft.to/lastmile_qr_scan"}, "fusion_lat": 0.0, "lat": 38.925533333333334, "is_disabled": 0, "lon": -77.05297233333333, "is_reserved": 0}, {"bike_id": "0d1bdb48e77b076622ef407231b42fb1", "fusion_lon": 0.0, "type": "electric_scooter", "name": "0d1bdb48e77b076622ef407231b42fb1", "rental_uris": {"android": "https://dc.lft.to/lastmile_qr_scan", "ios": "https://dc.lft.to/lastmile_qr_scan"}, "fusion_lat": 0.0, "lat": 38.907642333333335, "is_disabled": 0, "lon": -77.03209583333333, "is_reserved": 0}, {"bike_id": "2a790a44573de05ff6e04cd2d1405eca", "fusion_lon": 0.0, "type": "electric_scooter", "name": "2a790a44573de05ff6e04cd2d1405eca", "rental_uris": {"android": "https://dc.lft.to/lastmile_qr_scan", "ios": "https://dc.lft.to/lastmile_qr_scan"}, "fusion_lat": 0.0, "lat": 38.925089, "is_disabled": 0, "lon": -77.02360316666666, "is_reserved": 0}, {"bike_id": "296844b5a03bcca556c801db37758b0d", "fusion_lon": 0.0, "type": "electric_scooter", "name": "296844b5a03bcca556c801db37758b0d", "rental_uris": {"android": "https://dc.lft.to/lastmile_qr_scan", "ios": "https://dc.lft.to/lastmile_qr_scan"}, "fusion_lat": 0.0, "lat": 38.918994833333336, "is_disabled": 0, "lon": -77.041563, "is_reserved": 0}, {"bike_id": "fc752843dcd6fae0664c5ff007a94a9d", "fusion_lon": 0.0, "type": "electric_scooter", "name": "fc752843dcd6fae0664c5ff007a94a9d", "rental_uris": {"android": "https://dc.lft.to/lastmile_qr_scan", "ios": "https://dc.lft.to/lastmile_qr_scan"}, "fusion_lat": 0.0, "lat": 38.92712183333333, "is_disabled": 0, "lon": -77.04053466666667, "is_reserved": 0}, {"bike_id": "7af3210b7b48620519e121bebe5f6846", "fusion_lon": 0.0, "type": "electric_scooter", "name": "7af3210b7b48620519e121bebe5f6846", "rental_uris": {"android": "https://dc.lft.to/lastmile_qr_scan", "ios": "https://dc.lft.to/lastmile_qr_scan"}, "fusion_lat": 0.0, "lat": 38.87647716666667, "is_disabled": 0, "lon": -76.96504983333334, "is_reserved": 0}, {"bike_id": "2037d1cdd2fdbbc2a8f89a986ef6be6f", "fusion_lon": 0.0, "type": "electric_bike", "name": "2037d1cdd2fdbbc2a8f89a986ef6be6f", "rental_uris": {"android": "https://dc.lft.to/lastmile_qr_scan", "ios": "https://dc.lft.to/lastmile_qr_scan"}, "fusion_lat": 0.0, "lat": 39.105657666666666, "is_disabled": 0, "lon": -77.152663, "is_reserved": 0}, {"bike_id": "7f45cb542839b02d5c969495e2565c6d", "fusion_lon": 0.0, "type": "electric_scooter", "name": "7f45cb542839b02d5c969495e2565c6d", "rental_uris": {"android": "https://dc.lft.to/lastmile_qr_scan", "ios": "https://dc.lft.to/lastmile_qr_scan"}, "fusion_lat": 0.0, "lat": 38.861723833333336, "is_disabled": 0, "lon": -76.9832635, "is_reserved": 0}, {"bike_id": "d3692676bbeab726d5083c1208b87422", "fusion_lon": 0.0, "type": "electric_scooter", "name": "d3692676bbeab726d5083c1208b87422", "rental_uris": {"android": "https://dc.lft.to/lastmile_qr_scan", "ios": "https://dc.lft.to/lastmile_qr_scan"}, "fusion_lat": 0.0, "lat": 38.915652333333334, "is_disabled": 0, "lon": -77.0303335, "is_reserved": 0}, {"bike_id": "67b42bd7505826f68198b66ad26d0345", "fusion_lon": 0.0, "type": "electric_scooter", "name": "67b42bd7505826f68198b66ad26d0345", "rental_uris": {"android": "https://dc.lft.to/lastmile_qr_scan", "ios": "https://dc.lft.to/lastmile_qr_scan"}, "fusion_lat": 0.0, "lat": 38.88431816666667, "is_disabled": 0, "lon": -76.95759483333333, "is_reserved": 0}, {"bike_id": "785ba90487a923ab0221d81a7b824934", "fusion_lon": 0.0, "type": "electric_scooter", "name": "785ba90487a923ab0221d81a7b824934", "rental_uris": {"android": "https://dc.lft.to/lastmile_qr_scan", "ios": "https://dc.lft.to/lastmile_qr_scan"}, "fusion_lat": 0.0, "lat": 38.918124166666665, "is_disabled": 0, "lon": -77.03444783333333, "is_reserved": 0}, {"bike_id": "74bddb6c5d63e9622fdef913cc22400b", "fusion_lon": 0.0, "type": "electric_scooter", "name": "74bddb6c5d63e9622fdef913cc22400b", "rental_uris": {"android": "https://dc.lft.to/lastmile_qr_scan", "ios": "https://dc.lft.to/lastmile_qr_scan"}, "fusion_lat": 0.0, "lat": 38.91419233333333, "is_disabled": 0, "lon": -77.03143616666667, "is_reserved": 0}, {"bike_id": "d3fd4d4bbb4b94b145ed3d92f8b4edde", "fusion_lon": 0.0, "type": "electric_scooter", "name": "d3fd4d4bbb4b94b145ed3d92f8b4edde", "rental_uris": {"android": "https://dc.lft.to/lastmile_qr_scan", "ios": "https://dc.lft.to/lastmile_qr_scan"}, "fusion_lat": 0.0, "lat": 38.91820633333333, "is_disabled": 0, "lon": -77.02702883333333, "is_reserved": 0}, {"bike_id": "b6ce46cd779cf9e357e4f33bb86acfb5", "fusion_lon": 0.0, "type": "electric_bike", "name": "b6ce46cd779cf9e357e4f33bb86acfb5", "rental_uris": {"android": "https://dc.lft.to/lastmile_qr_scan", "ios": "https://dc.lft.to/lastmile_qr_scan"}, "fusion_lat": 0.0, "lat": 38.95351466666666, "is_disabled": 0, "lon": -77.00976483333334, "is_reserved": 0}, {"bike_id": "5987d8ffa6d4230926431a6920d004b3", "fusion_lon": 0.0, "type": "electric_scooter", "name": "5987d8ffa6d4230926431a6920d004b3", "rental_uris": {"android": "https://dc.lft.to/lastmile_qr_scan", "ios": "https://dc.lft.to/lastmile_qr_scan"}, "fusion_lat": 0.0, "lat": 38.90764216666667, "is_disabled": 0, "lon": -77.032156, "is_reserved": 0}, {"bike_id": "36f57caecd4a7aac8e0dae8d7afd450c", "fusion_lon": 0.0, "type": "electric_scooter", "name": "36f57caecd4a7aac8e0dae8d7afd450c", "rental_uris": {"android": "https://dc.lft.to/lastmile_qr_scan", "ios": "https://dc.lft.to/lastmile_qr_scan"}, "fusion_lat": 0.0, "lat": 38.90044, "is_disabled": 0, "lon": -77.017375, "is_reserved": 0}, {"bike_id": "9e18f071b316ce2b04a051b0de4b6c1d", "fusion_lon": 0.0, "type": "electric_scooter", "name": "9e18f071b316ce2b04a051b0de4b6c1d", "rental_uris": {"android": "https://dc.lft.to/lastmile_qr_scan", "ios": "https://dc.lft.to/lastmile_qr_scan"}, "fusion_lat": 0.0, "lat": 38.9017755, "is_disabled": 0, "lon": -76.980719, "is_reserved": 0}, {"bike_id": "41959f1434c65a166c33780663c05fd3", "fusion_lon": 0.0, "type": "electric_scooter", "name": "41959f1434c65a166c33780663c05fd3", "rental_uris": {"android": "https://dc.lft.to/lastmile_qr_scan", "ios": "https://dc.lft.to/lastmile_qr_scan"}, "fusion_lat": 0.0, "lat": 38.92908966666667, "is_disabled": 0, "lon": -77.0639545, "is_reserved": 0}, {"bike_id": "6014fb698dc6ae05f937067ba94a2afd", "fusion_lon": 0.0, "type": "electric_scooter", "name": "6014fb698dc6ae05f937067ba94a2afd", "rental_uris": {"android": "https://dc.lft.to/lastmile_qr_scan", "ios": "https://dc.lft.to/lastmile_qr_scan"}, "fusion_lat": 0.0, "lat": 38.8992085, "is_disabled": 0, "lon": -76.98604716666667, "is_reserved": 0}, {"bike_id": "371251f1535f323d428b83a555582dc0", "fusion_lon": 0.0, "type": "electric_scooter", "name": "371251f1535f323d428b83a555582dc0", "rental_uris": {"android": "https://dc.lft.to/lastmile_qr_scan", "ios": "https://dc.lft.to/lastmile_qr_scan"}, "fusion_lat": 0.0, "lat": 38.877816333333335, "is_disabled": 0, "lon": -76.99412333333333, "is_reserved": 0}, {"bike_id": "545ad1b1eff08310c0f5168c6db983c4", "fusion_lon": 0.0, "type": "electric_scooter", "name": "545ad1b1eff08310c0f5168c6db983c4", "rental_uris": {"android": "https://dc.lft.to/lastmile_qr_scan", "ios": "https://dc.lft.to/lastmile_qr_scan"}, "fusion_lat": 0.0, "lat": 38.898785333333336, "is_disabled": 0, "lon": -77.05296133333333, "is_reserved": 0}, {"bike_id": "470f2cd023d544a41ef2eafc161f93f8", "fusion_lon": 0.0, "type": "electric_scooter", "name": "470f2cd023d544a41ef2eafc161f93f8", "rental_uris": {"android": "https://dc.lft.to/lastmile_qr_scan", "ios": "https://dc.lft.to/lastmile_qr_scan"}, "fusion_lat": 0.0, "lat": 38.91971233333334, "is_disabled": 0, "lon": -77.04151216666666, "is_reserved": 0}, {"bike_id": "b5325c8b6436a85143b89bba5943ca48", "fusion_lon": 0.0, "type": "electric_bike", "name": "b5325c8b6436a85143b89bba5943ca48", "rental_uris": {"android": "https://dc.lft.to/lastmile_qr_scan", "ios": "https://dc.lft.to/lastmile_qr_scan"}, "fusion_lat": 0.0, "lat": 38.89282433333333, "is_disabled": 0, "lon": -76.9762715, "is_reserved": 0}, {"bike_id": "a79a245eeac55092a2797c971a9868a4", "fusion_lon": 0.0, "type": "electric_scooter", "name": "a79a245eeac55092a2797c971a9868a4", "rental_uris": {"android": "https://dc.lft.to/lastmile_qr_scan", "ios": "https://dc.lft.to/lastmile_qr_scan"}, "fusion_lat": 0.0, "lat": 38.9336905, "is_disabled": 0, "lon": -77.03737116666667, "is_reserved": 0}, {"bike_id": "cea241771fa742e166700f389c94403c", "fusion_lon": 0.0, "type": "electric_scooter", "name": "cea241771fa742e166700f389c94403c", "rental_uris": {"android": "https://dc.lft.to/lastmile_qr_scan", "ios": "https://dc.lft.to/lastmile_qr_scan"}, "fusion_lat": 0.0, "lat": 38.9056725, "is_disabled": 0, "lon": -77.01669433333333, "is_reserved": 0}, {"bike_id": "dae61a8c36130268766007c9fdae50da", "fusion_lon": 0.0, "type": "electric_bike", "name": "dae61a8c36130268766007c9fdae50da", "rental_uris": {"android": "https://dc.lft.to/lastmile_qr_scan", "ios": "https://dc.lft.to/lastmile_qr_scan"}, "fusion_lat": 0.0, "lat": 38.96261366666667, "is_disabled": 0, "lon": -77.01075933333334, "is_reserved": 0}, {"bike_id": "c1b8b1cf1cdcb170a398a1e49940fd33", "fusion_lon": 0.0, "type": "electric_bike", "name": "c1b8b1cf1cdcb170a398a1e49940fd33", "rental_uris": {"android": "https://dc.lft.to/lastmile_qr_scan", "ios": "https://dc.lft.to/lastmile_qr_scan"}, "fusion_lat": 0.0, "lat": 38.88529233333333, "is_disabled": 0, "lon": -76.93570683333333, "is_reserved": 0}, {"bike_id": "114adb8e31ecf864231933f8b1baa129", "fusion_lon": 0.0, "type": "electric_scooter", "name": "114adb8e31ecf864231933f8b1baa129", "rental_uris": {"android": "https://dc.lft.to/lastmile_qr_scan", "ios": "https://dc.lft.to/lastmile_qr_scan"}, "fusion_lat": 0.0, "lat": 38.927903, "is_disabled": 0, "lon": -77.03079616666666, "is_reserved": 0}, {"bike_id": "435d650c1256288e7ff04190f563241f", "fusion_lon": 0.0, "type": "electric_scooter", "name": "435d650c1256288e7ff04190f563241f", "rental_uris": {"android": "https://dc.lft.to/lastmile_qr_scan", "ios": "https://dc.lft.to/lastmile_qr_scan"}, "fusion_lat": 0.0, "lat": 38.933840833333335, "is_disabled": 0, "lon": -77.03103433333334, "is_reserved": 0}, {"bike_id": "5777bc55aedf2055fe0c28328a296f76", "fusion_lon": 0.0, "type": "electric_scooter", "name": "5777bc55aedf2055fe0c28328a296f76", "rental_uris": {"android": "https://dc.lft.to/lastmile_qr_scan", "ios": "https://dc.lft.to/lastmile_qr_scan"}, "fusion_lat": 0.0, "lat": 38.9335665, "is_disabled": 0, "lon": -77.037275, "is_reserved": 0}, {"bike_id": "a3152d10791087dbfa631a12aa05f2e2", "fusion_lon": 0.0, "type": "electric_bike", "name": "a3152d10791087dbfa631a12aa05f2e2", "rental_uris": {"android": "https://dc.lft.to/lastmile_qr_scan", "ios": "https://dc.lft.to/lastmile_qr_scan"}, "fusion_lat": 0.0, "lat": 38.90569816666667, "is_disabled": 0, "lon": -77.01699366666666, "is_reserved": 0}, {"bike_id": "26c0dcaf397946df4c67294cbb81a0fd", "fusion_lon": 0.0, "type": "electric_scooter", "name": "26c0dcaf397946df4c67294cbb81a0fd", "rental_uris": {"android": "https://dc.lft.to/lastmile_qr_scan", "ios": "https://dc.lft.to/lastmile_qr_scan"}, "fusion_lat": 0.0, "lat": 38.902462166666666, "is_disabled": 0, "lon": -77.029363, "is_reserved": 0}, {"bike_id": "05c3d4bd7328731f4002c5bbafb4e0e3", "fusion_lon": 0.0, "type": "electric_scooter", "name": "05c3d4bd7328731f4002c5bbafb4e0e3", "rental_uris": {"android": "https://dc.lft.to/lastmile_qr_scan", "ios": "https://dc.lft.to/lastmile_qr_scan"}, "fusion_lat": 0.0, "lat": 38.8546395, "is_disabled": 0, "lon": -76.98616333333334, "is_reserved": 0}, {"bike_id": "a3747dceb5219bb52dd12044b8b92697", "fusion_lon": 0.0, "type": "electric_scooter", "name": "a3747dceb5219bb52dd12044b8b92697", "rental_uris": {"android": "https://dc.lft.to/lastmile_qr_scan", "ios": "https://dc.lft.to/lastmile_qr_scan"}, "fusion_lat": 0.0, "lat": 38.917710666666665, "is_disabled": 0, "lon": -77.04057533333334, "is_reserved": 0}, {"bike_id": "8c4769c90b085dc5e458708f5a305fb5", "fusion_lon": 0.0, "type": "electric_scooter", "name": "8c4769c90b085dc5e458708f5a305fb5", "rental_uris": {"android": "https://dc.lft.to/lastmile_qr_scan", "ios": "https://dc.lft.to/lastmile_qr_scan"}, "fusion_lat": 0.0, "lat": 38.91047866666667, "is_disabled": 0, "lon": -77.00919616666667, "is_reserved": 0}, {"bike_id": "bebe4581ef6d7f180890dbf3bb8fde6e", "fusion_lon": 0.0, "type": "electric_bike", "name": "bebe4581ef6d7f180890dbf3bb8fde6e", "rental_uris": {"android": "https://dc.lft.to/lastmile_qr_scan", "ios": "https://dc.lft.to/lastmile_qr_scan"}, "fusion_lat": 0.0, "lat": 38.83920083333334, "is_disabled": 0, "lon": -76.998364, "is_reserved": 0}, {"bike_id": "296094febb672af2e0686032a14e64cd", "fusion_lon": 0.0, "type": "electric_scooter", "name": "296094febb672af2e0686032a14e64cd", "rental_uris": {"android": "https://dc.lft.to/lastmile_qr_scan", "ios": "https://dc.lft.to/lastmile_qr_scan"}, "fusion_lat": 0.0, "lat": 38.887418, "is_disabled": 0, "lon": -77.02830333333333, "is_reserved": 0}, {"bike_id": "39d042c3aff2f945f66af5c66872c28b", "fusion_lon": 0.0, "type": "electric_scooter", "name": "39d042c3aff2f945f66af5c66872c28b", "rental_uris": {"android": "https://dc.lft.to/lastmile_qr_scan", "ios": "https://dc.lft.to/lastmile_qr_scan"}, "fusion_lat": 0.0, "lat": 38.9037825, "is_disabled": 0, "lon": -76.98025, "is_reserved": 0}, {"bike_id": "1b0bbda0a5b38e8e2bb2c10e87db8c57", "fusion_lon": 0.0, "type": "electric_scooter", "name": "1b0bbda0a5b38e8e2bb2c10e87db8c57", "rental_uris": {"android": "https://dc.lft.to/lastmile_qr_scan", "ios": "https://dc.lft.to/lastmile_qr_scan"}, "fusion_lat": 0.0, "lat": 38.916067166666664, "is_disabled": 0, "lon": -77.01712533333334, "is_reserved": 0}, {"bike_id": "fafa31dd726157a7a20a398c7c8d89b7", "fusion_lon": 0.0, "type": "electric_scooter", "name": "fafa31dd726157a7a20a398c7c8d89b7", "rental_uris": {"android": "https://dc.lft.to/lastmile_qr_scan", "ios": "https://dc.lft.to/lastmile_qr_scan"}, "fusion_lat": 0.0, "lat": 38.9298525, "is_disabled": 0, "lon": -77.02341033333333, "is_reserved": 0}, {"bike_id": "104be2921f5a3d6a32e74a1fbb0475f2", "fusion_lon": 0.0, "type": "electric_scooter", "name": "104be2921f5a3d6a32e74a1fbb0475f2", "rental_uris": {"android": "https://dc.lft.to/lastmile_qr_scan", "ios": "https://dc.lft.to/lastmile_qr_scan"}, "fusion_lat": 0.0, "lat": 38.90269516666667, "is_disabled": 0, "lon": -77.05440416666667, "is_reserved": 0}, {"bike_id": "a4d03f86022698cf15c0812beb759b5f", "fusion_lon": 0.0, "type": "electric_bike", "name": "a4d03f86022698cf15c0812beb759b5f", "rental_uris": {"android": "https://dc.lft.to/lastmile_qr_scan", "ios": "https://dc.lft.to/lastmile_qr_scan"}, "fusion_lat": 0.0, "lat": 38.87550866666667, "is_disabled": 0, "lon": -76.9649045, "is_reserved": 0}, {"bike_id": "fbcdcd418906c3ef855defba13b76a4e", "fusion_lon": 0.0, "type": "electric_scooter", "name": "fbcdcd418906c3ef855defba13b76a4e", "rental_uris": {"android": "https://dc.lft.to/lastmile_qr_scan", "ios": "https://dc.lft.to/lastmile_qr_scan"}, "fusion_lat": 0.0, "lat": 38.91730483333333, "is_disabled": 0, "lon": -77.03212033333334, "is_reserved": 0}, {"bike_id": "08d3ebab3f0150af166d6445736991d1", "fusion_lon": 0.0, "type": "electric_scooter", "name": "08d3ebab3f0150af166d6445736991d1", "rental_uris": {"android": "https://dc.lft.to/lastmile_qr_scan", "ios": "https://dc.lft.to/lastmile_qr_scan"}, "fusion_lat": 0.0, "lat": 38.919200000000004, "is_disabled": 0, "lon": -77.0341125, "is_reserved": 0}, {"bike_id": "820a712c84bb598eda9761fb031d0873", "fusion_lon": 0.0, "type": "electric_scooter", "name": "820a712c84bb598eda9761fb031d0873", "rental_uris": {"android": "https://dc.lft.to/lastmile_qr_scan", "ios": "https://dc.lft.to/lastmile_qr_scan"}, "fusion_lat": 0.0, "lat": 38.92777683333333, "is_disabled": 0, "lon": -77.02780283333334, "is_reserved": 0}, {"bike_id": "d7ce976f166b8e01d6199977515fa9e4", "fusion_lon": 0.0, "type": "electric_scooter", "name": "d7ce976f166b8e01d6199977515fa9e4", "rental_uris": {"android": "https://dc.lft.to/lastmile_qr_scan", "ios": "https://dc.lft.to/lastmile_qr_scan"}, "fusion_lat": 0.0, "lat": 38.898748499999996, "is_disabled": 0, "lon": -76.93184716666667, "is_reserved": 0}, {"bike_id": "6eb3664b8b5586c32485a6f91745b5a7", "fusion_lon": 0.0, "type": "electric_scooter", "name": "6eb3664b8b5586c32485a6f91745b5a7", "rental_uris": {"android": "https://dc.lft.to/lastmile_qr_scan", "ios": "https://dc.lft.to/lastmile_qr_scan"}, "fusion_lat": 0.0, "lat": 38.876777833333335, "is_disabled": 0, "lon": -77.01603966666667, "is_reserved": 0}, {"bike_id": "fea4c5dffa4045651c41c716d3145fe8", "fusion_lon": 0.0, "type": "electric_scooter", "name": "fea4c5dffa4045651c41c716d3145fe8", "rental_uris": {"android": "https://dc.lft.to/lastmile_qr_scan", "ios": "https://dc.lft.to/lastmile_qr_scan"}, "fusion_lat": 0.0, "lat": 38.900443333333335, "is_disabled": 0, "lon": -76.98851316666666, "is_reserved": 0}, {"bike_id": "c2ebc9048de0dfeb24a2927beda3f3dc", "fusion_lon": 0.0, "type": "electric_scooter", "name": "c2ebc9048de0dfeb24a2927beda3f3dc", "rental_uris": {"android": "https://dc.lft.to/lastmile_qr_scan", "ios": "https://dc.lft.to/lastmile_qr_scan"}, "fusion_lat": 0.0, "lat": 38.923755166666666, "is_disabled": 0, "lon": -77.0355125, "is_reserved": 0}, {"bike_id": "7605881e149f4e8ac3b039b0d37d0e6e", "fusion_lon": 0.0, "type": "electric_scooter", "name": "7605881e149f4e8ac3b039b0d37d0e6e", "rental_uris": {"android": "https://dc.lft.to/lastmile_qr_scan", "ios": "https://dc.lft.to/lastmile_qr_scan"}, "fusion_lat": 0.0, "lat": 38.90408216666667, "is_disabled": 0, "lon": -77.001362, "is_reserved": 0}, {"bike_id": "348ab893e475baad974b8e622393437f", "fusion_lon": 0.0, "type": "electric_scooter", "name": "348ab893e475baad974b8e622393437f", "rental_uris": {"android": "https://dc.lft.to/lastmile_qr_scan", "ios": "https://dc.lft.to/lastmile_qr_scan"}, "fusion_lat": 0.0, "lat": 38.92871266666667, "is_disabled": 0, "lon": -77.0138055, "is_reserved": 0}, {"bike_id": "d2b6863b163e606880363c94e248b49e", "fusion_lon": 0.0, "type": "electric_bike", "name": "d2b6863b163e606880363c94e248b49e", "rental_uris": {"android": "https://dc.lft.to/lastmile_qr_scan", "ios": "https://dc.lft.to/lastmile_qr_scan"}, "fusion_lat": 0.0, "lat": 38.93668183333333, "is_disabled": 0, "lon": -76.95209483333333, "is_reserved": 0}, {"bike_id": "fa5139d795c5fddaf97d2dd0e9b38175", "fusion_lon": 0.0, "type": "electric_scooter", "name": "fa5139d795c5fddaf97d2dd0e9b38175", "rental_uris": {"android": "https://dc.lft.to/lastmile_qr_scan", "ios": "https://dc.lft.to/lastmile_qr_scan"}, "fusion_lat": 0.0, "lat": 38.89617783333333, "is_disabled": 0, "lon": -76.99936116666666, "is_reserved": 0}, {"bike_id": "5795822bc5f164ec793ad3199774ff30", "fusion_lon": 0.0, "type": "electric_scooter", "name": "5795822bc5f164ec793ad3199774ff30", "rental_uris": {"android": "https://dc.lft.to/lastmile_qr_scan", "ios": "https://dc.lft.to/lastmile_qr_scan"}, "fusion_lat": 0.0, "lat": 38.92396866666667, "is_disabled": 0, "lon": -77.04091616666666, "is_reserved": 0}, {"bike_id": "44ff38f8343dbae91aee12d050ac8e64", "fusion_lon": 0.0, "type": "electric_scooter", "name": "44ff38f8343dbae91aee12d050ac8e64", "rental_uris": {"android": "https://dc.lft.to/lastmile_qr_scan", "ios": "https://dc.lft.to/lastmile_qr_scan"}, "fusion_lat": 0.0, "lat": 38.9464, "is_disabled": 0, "lon": -77.01845383333334, "is_reserved": 0}, {"bike_id": "95378dffe6aea76614f0231f4bfa818c", "fusion_lon": 0.0, "type": "electric_scooter", "name": "95378dffe6aea76614f0231f4bfa818c", "rental_uris": {"android": "https://dc.lft.to/lastmile_qr_scan", "ios": "https://dc.lft.to/lastmile_qr_scan"}, "fusion_lat": 0.0, "lat": 38.958468833333335, "is_disabled": 0, "lon": -77.02902916666666, "is_reserved": 0}, {"bike_id": "03f5756c3b87d23b02207992768d2f2a", "fusion_lon": 0.0, "type": "electric_scooter", "name": "03f5756c3b87d23b02207992768d2f2a", "rental_uris": {"android": "https://dc.lft.to/lastmile_qr_scan", "ios": "https://dc.lft.to/lastmile_qr_scan"}, "fusion_lat": 0.0, "lat": 38.896192666666664, "is_disabled": 0, "lon": -76.9993595, "is_reserved": 0}, {"bike_id": "ad83a9196bd509852b1c1136ab7530b1", "fusion_lon": 0.0, "type": "electric_bike", "name": "ad83a9196bd509852b1c1136ab7530b1", "rental_uris": {"android": "https://dc.lft.to/lastmile_qr_scan", "ios": "https://dc.lft.to/lastmile_qr_scan"}, "fusion_lat": 0.0, "lat": 38.909674, "is_disabled": 0, "lon": -77.08824116666666, "is_reserved": 0}, {"bike_id": "3d3ccddfc0beacc05599063eeec78306", "fusion_lon": 0.0, "type": "electric_scooter", "name": "3d3ccddfc0beacc05599063eeec78306", "rental_uris": {"android": "https://dc.lft.to/lastmile_qr_scan", "ios": "https://dc.lft.to/lastmile_qr_scan"}, "fusion_lat": 0.0, "lat": 38.914979, "is_disabled": 0, "lon": -77.01205416666667, "is_reserved": 0}, {"bike_id": "4e7c3d6a71dcd186750a96bcf38d31b1", "fusion_lon": 0.0, "type": "electric_scooter", "name": "4e7c3d6a71dcd186750a96bcf38d31b1", "rental_uris": {"android": "https://dc.lft.to/lastmile_qr_scan", "ios": "https://dc.lft.to/lastmile_qr_scan"}, "fusion_lat": 0.0, "lat": 38.88459233333333, "is_disabled": 0, "lon": -77.0235685, "is_reserved": 0}, {"bike_id": "de402310e55ef7bcdf9c3d6b0aec0c9b", "fusion_lon": 0.0, "type": "electric_scooter", "name": "de402310e55ef7bcdf9c3d6b0aec0c9b", "rental_uris": {"android": "https://dc.lft.to/lastmile_qr_scan", "ios": "https://dc.lft.to/lastmile_qr_scan"}, "fusion_lat": 0.0, "lat": 38.908713166666665, "is_disabled": 0, "lon": -77.03260533333334, "is_reserved": 0}, {"bike_id": "c8f2d52b431e8898b3dfa4e9d05cd9f7", "fusion_lon": 0.0, "type": "electric_scooter", "name": "c8f2d52b431e8898b3dfa4e9d05cd9f7", "rental_uris": {"android": "https://dc.lft.to/lastmile_qr_scan", "ios": "https://dc.lft.to/lastmile_qr_scan"}, "fusion_lat": 0.0, "lat": 38.8671945, "is_disabled": 0, "lon": -76.98729833333333, "is_reserved": 0}, {"bike_id": "188736bb3a7de7ee7461df1e7a187050", "fusion_lon": 0.0, "type": "electric_scooter", "name": "188736bb3a7de7ee7461df1e7a187050", "rental_uris": {"android": "https://dc.lft.to/lastmile_qr_scan", "ios": "https://dc.lft.to/lastmile_qr_scan"}, "fusion_lat": 0.0, "lat": 38.902434166666666, "is_disabled": 0, "lon": -77.03256683333333, "is_reserved": 0}, {"bike_id": "1ba642b866feb56479e20aca2469cc58", "fusion_lon": 0.0, "type": "electric_scooter", "name": "1ba642b866feb56479e20aca2469cc58", "rental_uris": {"android": "https://dc.lft.to/lastmile_qr_scan", "ios": "https://dc.lft.to/lastmile_qr_scan"}, "fusion_lat": 0.0, "lat": 38.906399, "is_disabled": 0, "lon": -77.034446, "is_reserved": 0}, {"bike_id": "2e8e329540ce0bc25aa2071dd77be59a", "fusion_lon": 0.0, "type": "electric_scooter", "name": "2e8e329540ce0bc25aa2071dd77be59a", "rental_uris": {"android": "https://dc.lft.to/lastmile_qr_scan", "ios": "https://dc.lft.to/lastmile_qr_scan"}, "fusion_lat": 0.0, "lat": 38.91566383333333, "is_disabled": 0, "lon": -77.00590816666667, "is_reserved": 0}, {"bike_id": "6b894c4a40ae5a0d067900b50e16f003", "fusion_lon": 0.0, "type": "electric_scooter", "name": "6b894c4a40ae5a0d067900b50e16f003", "rental_uris": {"android": "https://dc.lft.to/lastmile_qr_scan", "ios": "https://dc.lft.to/lastmile_qr_scan"}, "fusion_lat": 0.0, "lat": 38.962096, "is_disabled": 0, "lon": -77.02341116666666, "is_reserved": 0}, {"bike_id": "45566fdfc0bb88b443a82d64bf8fb9da", "fusion_lon": 0.0, "type": "electric_scooter", "name": "45566fdfc0bb88b443a82d64bf8fb9da", "rental_uris": {"android": "https://dc.lft.to/lastmile_qr_scan", "ios": "https://dc.lft.to/lastmile_qr_scan"}, "fusion_lat": 0.0, "lat": 38.909187333333335, "is_disabled": 0, "lon": -77.03873683333333, "is_reserved": 0}, {"bike_id": "9369a01556c333860c1e7d283cd83ada", "fusion_lon": 0.0, "type": "electric_scooter", "name": "9369a01556c333860c1e7d283cd83ada", "rental_uris": {"android": "https://dc.lft.to/lastmile_qr_scan", "ios": "https://dc.lft.to/lastmile_qr_scan"}, "fusion_lat": 0.0, "lat": 38.86239233333333, "is_disabled": 0, "lon": -76.99478083333334, "is_reserved": 0}, {"bike_id": "ef0df799f5756baa7ab409a55e4eb4d3", "fusion_lon": 0.0, "type": "electric_bike", "name": "ef0df799f5756baa7ab409a55e4eb4d3", "rental_uris": {"android": "https://dc.lft.to/lastmile_qr_scan", "ios": "https://dc.lft.to/lastmile_qr_scan"}, "fusion_lat": 0.0, "lat": 39.024204166666664, "is_disabled": 0, "lon": -77.12497766666667, "is_reserved": 0}, {"bike_id": "a5385b291fd229c228925ee86a14b6b8", "fusion_lon": 0.0, "type": "electric_scooter", "name": "a5385b291fd229c228925ee86a14b6b8", "rental_uris": {"android": "https://dc.lft.to/lastmile_qr_scan", "ios": "https://dc.lft.to/lastmile_qr_scan"}, "fusion_lat": 0.0, "lat": 38.93286533333333, "is_disabled": 0, "lon": -77.036232, "is_reserved": 0}, {"bike_id": "ee1103281f3332de6f62b6529e24ba14", "fusion_lon": 0.0, "type": "electric_scooter", "name": "ee1103281f3332de6f62b6529e24ba14", "rental_uris": {"android": "https://dc.lft.to/lastmile_qr_scan", "ios": "https://dc.lft.to/lastmile_qr_scan"}, "fusion_lat": 0.0, "lat": 38.915517, "is_disabled": 0, "lon": -77.02635933333333, "is_reserved": 0}, {"bike_id": "1f006b4ad19eb3d77c39c4cd910f2b1c", "fusion_lon": 0.0, "type": "electric_scooter", "name": "1f006b4ad19eb3d77c39c4cd910f2b1c", "rental_uris": {"android": "https://dc.lft.to/lastmile_qr_scan", "ios": "https://dc.lft.to/lastmile_qr_scan"}, "fusion_lat": 0.0, "lat": 38.931097, "is_disabled": 0, "lon": -77.02413616666666, "is_reserved": 0}, {"bike_id": "b6a424e7e28f5a5028cb2b218869ef0a", "fusion_lon": 0.0, "type": "electric_scooter", "name": "b6a424e7e28f5a5028cb2b218869ef0a", "rental_uris": {"android": "https://dc.lft.to/lastmile_qr_scan", "ios": "https://dc.lft.to/lastmile_qr_scan"}, "fusion_lat": 0.0, "lat": 38.919705666666665, "is_disabled": 0, "lon": -77.07111333333333, "is_reserved": 0}, {"bike_id": "8940ef3a217545de503fd8b408e45fe1", "fusion_lon": 0.0, "type": "electric_scooter", "name": "8940ef3a217545de503fd8b408e45fe1", "rental_uris": {"android": "https://dc.lft.to/lastmile_qr_scan", "ios": "https://dc.lft.to/lastmile_qr_scan"}, "fusion_lat": 0.0, "lat": 38.90254, "is_disabled": 0, "lon": -77.00584116666667, "is_reserved": 0}, {"bike_id": "e207cc91e50d14a3003c10bcc634013b", "fusion_lon": 0.0, "type": "electric_scooter", "name": "e207cc91e50d14a3003c10bcc634013b", "rental_uris": {"android": "https://dc.lft.to/lastmile_qr_scan", "ios": "https://dc.lft.to/lastmile_qr_scan"}, "fusion_lat": 0.0, "lat": 38.92222966666667, "is_disabled": 0, "lon": -77.04327783333333, "is_reserved": 0}, {"bike_id": "367b5c91c199d0ca07e5f73f89d43753", "fusion_lon": 0.0, "type": "electric_scooter", "name": "367b5c91c199d0ca07e5f73f89d43753", "rental_uris": {"android": "https://dc.lft.to/lastmile_qr_scan", "ios": "https://dc.lft.to/lastmile_qr_scan"}, "fusion_lat": 0.0, "lat": 38.938617, "is_disabled": 0, "lon": -77.026494, "is_reserved": 0}, {"bike_id": "6e58e88c143ae5872bebf2ffb99b7d4b", "fusion_lon": 0.0, "type": "electric_scooter", "name": "6e58e88c143ae5872bebf2ffb99b7d4b", "rental_uris": {"android": "https://dc.lft.to/lastmile_qr_scan", "ios": "https://dc.lft.to/lastmile_qr_scan"}, "fusion_lat": 0.0, "lat": 38.90867633333333, "is_disabled": 0, "lon": -77.0124695, "is_reserved": 0}, {"bike_id": "e954ae881f7d4f248d9cba8556c98d36", "fusion_lon": 0.0, "type": "electric_scooter", "name": "e954ae881f7d4f248d9cba8556c98d36", "rental_uris": {"android": "https://dc.lft.to/lastmile_qr_scan", "ios": "https://dc.lft.to/lastmile_qr_scan"}, "fusion_lat": 0.0, "lat": 38.922813, "is_disabled": 0, "lon": -76.99410383333333, "is_reserved": 0}, {"bike_id": "cc3f9d0309cfffd703abee72143eca74", "fusion_lon": 0.0, "type": "electric_scooter", "name": "cc3f9d0309cfffd703abee72143eca74", "rental_uris": {"android": "https://dc.lft.to/lastmile_qr_scan", "ios": "https://dc.lft.to/lastmile_qr_scan"}, "fusion_lat": 0.0, "lat": 38.90017116666667, "is_disabled": 0, "lon": -76.98844866666667, "is_reserved": 0}, {"bike_id": "99a245e0123d0b4d3a5a842cd672e423", "fusion_lon": 0.0, "type": "electric_scooter", "name": "99a245e0123d0b4d3a5a842cd672e423", "rental_uris": {"android": "https://dc.lft.to/lastmile_qr_scan", "ios": "https://dc.lft.to/lastmile_qr_scan"}, "fusion_lat": 0.0, "lat": 38.87479233333333, "is_disabled": 0, "lon": -76.96521833333334, "is_reserved": 0}, {"bike_id": "6dca1c39ebe7b6b49639f74de4fcc304", "fusion_lon": 0.0, "type": "electric_scooter", "name": "6dca1c39ebe7b6b49639f74de4fcc304", "rental_uris": {"android": "https://dc.lft.to/lastmile_qr_scan", "ios": "https://dc.lft.to/lastmile_qr_scan"}, "fusion_lat": 0.0, "lat": 38.933367833333335, "is_disabled": 0, "lon": -77.03265716666667, "is_reserved": 0}, {"bike_id": "1b8d1be6cd9c16b18c0ce3552d5931c7", "fusion_lon": 0.0, "type": "electric_scooter", "name": "1b8d1be6cd9c16b18c0ce3552d5931c7", "rental_uris": {"android": "https://dc.lft.to/lastmile_qr_scan", "ios": "https://dc.lft.to/lastmile_qr_scan"}, "fusion_lat": 0.0, "lat": 38.91213833333333, "is_disabled": 0, "lon": -77.0384645, "is_reserved": 0}, {"bike_id": "687b26fdf622dbbdf5d788dfa3f493d0", "fusion_lon": 0.0, "type": "electric_scooter", "name": "687b26fdf622dbbdf5d788dfa3f493d0", "rental_uris": {"android": "https://dc.lft.to/lastmile_qr_scan", "ios": "https://dc.lft.to/lastmile_qr_scan"}, "fusion_lat": 0.0, "lat": 38.949994, "is_disabled": 0, "lon": -77.0270995, "is_reserved": 0}, {"bike_id": "7e3fbf7a62a1f0f520e9a36ae08d25fd", "fusion_lon": 0.0, "type": "electric_scooter", "name": "7e3fbf7a62a1f0f520e9a36ae08d25fd", "rental_uris": {"android": "https://dc.lft.to/lastmile_qr_scan", "ios": "https://dc.lft.to/lastmile_qr_scan"}, "fusion_lat": 0.0, "lat": 38.9171245, "is_disabled": 0, "lon": -77.038678, "is_reserved": 0}, {"bike_id": "a34ed9c69e8bc641d63a34bd8ddd5787", "fusion_lon": 0.0, "type": "electric_scooter", "name": "a34ed9c69e8bc641d63a34bd8ddd5787", "rental_uris": {"android": "https://dc.lft.to/lastmile_qr_scan", "ios": "https://dc.lft.to/lastmile_qr_scan"}, "fusion_lat": 0.0, "lat": 38.91202783333333, "is_disabled": 0, "lon": -77.01446866666667, "is_reserved": 0}, {"bike_id": "ff29f285f6801a436dd7e4e91d131d00", "fusion_lon": 0.0, "type": "electric_scooter", "name": "ff29f285f6801a436dd7e4e91d131d00", "rental_uris": {"android": "https://dc.lft.to/lastmile_qr_scan", "ios": "https://dc.lft.to/lastmile_qr_scan"}, "fusion_lat": 0.0, "lat": 38.914359833333336, "is_disabled": 0, "lon": -77.01806433333333, "is_reserved": 0}, {"bike_id": "d5be8ab53cbea4083151ae0df79d1146", "fusion_lon": 0.0, "type": "electric_scooter", "name": "d5be8ab53cbea4083151ae0df79d1146", "rental_uris": {"android": "https://dc.lft.to/lastmile_qr_scan", "ios": "https://dc.lft.to/lastmile_qr_scan"}, "fusion_lat": 0.0, "lat": 38.919420333333335, "is_disabled": 0, "lon": -77.01359216666667, "is_reserved": 0}, {"bike_id": "21afed0dab47d6c839298057ca95e1e1", "fusion_lon": 0.0, "type": "electric_scooter", "name": "21afed0dab47d6c839298057ca95e1e1", "rental_uris": {"android": "https://dc.lft.to/lastmile_qr_scan", "ios": "https://dc.lft.to/lastmile_qr_scan"}, "fusion_lat": 0.0, "lat": 38.918818333333334, "is_disabled": 0, "lon": -77.03499083333334, "is_reserved": 0}, {"bike_id": "e6c598e2b5a30b8ac736f1f2e52822aa", "fusion_lon": 0.0, "type": "electric_scooter", "name": "e6c598e2b5a30b8ac736f1f2e52822aa", "rental_uris": {"android": "https://dc.lft.to/lastmile_qr_scan", "ios": "https://dc.lft.to/lastmile_qr_scan"}, "fusion_lat": 0.0, "lat": 38.9393355, "is_disabled": 0, "lon": -77.060316, "is_reserved": 0}, {"bike_id": "de7d93da8c200b8a37cbe0eef308ac2e", "fusion_lon": 0.0, "type": "electric_scooter", "name": "de7d93da8c200b8a37cbe0eef308ac2e", "rental_uris": {"android": "https://dc.lft.to/lastmile_qr_scan", "ios": "https://dc.lft.to/lastmile_qr_scan"}, "fusion_lat": 0.0, "lat": 38.89701133333333, "is_disabled": 0, "lon": -77.02192216666667, "is_reserved": 0}, {"bike_id": "a1a1074ef3ccc0317e5f927d05ff3ad7", "fusion_lon": 0.0, "type": "electric_scooter", "name": "a1a1074ef3ccc0317e5f927d05ff3ad7", "rental_uris": {"android": "https://dc.lft.to/lastmile_qr_scan", "ios": "https://dc.lft.to/lastmile_qr_scan"}, "fusion_lat": 0.0, "lat": 38.94276633333333, "is_disabled": 0, "lon": -77.02925716666667, "is_reserved": 0}, {"bike_id": "39d2fc51f7874b95d32af38cfef4c149", "fusion_lon": 0.0, "type": "electric_bike", "name": "39d2fc51f7874b95d32af38cfef4c149", "rental_uris": {"android": "https://dc.lft.to/lastmile_qr_scan", "ios": "https://dc.lft.to/lastmile_qr_scan"}, "fusion_lat": 0.0, "lat": 38.86378216666667, "is_disabled": 0, "lon": -77.1290245, "is_reserved": 0}, {"bike_id": "d3741fbfb71c570a337cd0e4a0dbc80b", "fusion_lon": 0.0, "type": "electric_scooter", "name": "d3741fbfb71c570a337cd0e4a0dbc80b", "rental_uris": {"android": "https://dc.lft.to/lastmile_qr_scan", "ios": "https://dc.lft.to/lastmile_qr_scan"}, "fusion_lat": 0.0, "lat": 38.875325333333336, "is_disabled": 0, "lon": -77.0055055, "is_reserved": 0}, {"bike_id": "1e0cd4d52f1b691bb653434a51c31e65", "fusion_lon": 0.0, "type": "electric_scooter", "name": "1e0cd4d52f1b691bb653434a51c31e65", "rental_uris": {"android": "https://dc.lft.to/lastmile_qr_scan", "ios": "https://dc.lft.to/lastmile_qr_scan"}, "fusion_lat": 0.0, "lat": 38.93098966666667, "is_disabled": 0, "lon": -77.02396783333333, "is_reserved": 0}, {"bike_id": "711dbf1332fec35eecd9ee21b6659410", "fusion_lon": 0.0, "type": "electric_scooter", "name": "711dbf1332fec35eecd9ee21b6659410", "rental_uris": {"android": "https://dc.lft.to/lastmile_qr_scan", "ios": "https://dc.lft.to/lastmile_qr_scan"}, "fusion_lat": 0.0, "lat": 38.90053566666667, "is_disabled": 0, "lon": -77.044873, "is_reserved": 0}, {"bike_id": "26dab8dd819fcda9c9cda2baf508af43", "fusion_lon": 0.0, "type": "electric_scooter", "name": "26dab8dd819fcda9c9cda2baf508af43", "rental_uris": {"android": "https://dc.lft.to/lastmile_qr_scan", "ios": "https://dc.lft.to/lastmile_qr_scan"}, "fusion_lat": 0.0, "lat": 38.8865985, "is_disabled": 0, "lon": -77.03388933333333, "is_reserved": 0}, {"bike_id": "00b9b6e75d86fd0500a1bf74cfdafa5e", "fusion_lon": 0.0, "type": "electric_scooter", "name": "00b9b6e75d86fd0500a1bf74cfdafa5e", "rental_uris": {"android": "https://dc.lft.to/lastmile_qr_scan", "ios": "https://dc.lft.to/lastmile_qr_scan"}, "fusion_lat": 0.0, "lat": 38.9148345, "is_disabled": 0, "lon": -77.04652183333333, "is_reserved": 0}, {"bike_id": "7684de9c8d06ec5cd7fa4ae9c4a6ac14", "fusion_lon": 0.0, "type": "electric_scooter", "name": "7684de9c8d06ec5cd7fa4ae9c4a6ac14", "rental_uris": {"android": "https://dc.lft.to/lastmile_qr_scan", "ios": "https://dc.lft.to/lastmile_qr_scan"}, "fusion_lat": 0.0, "lat": 38.84467266666667, "is_disabled": 0, "lon": -76.99515216666667, "is_reserved": 0}, {"bike_id": "37a4bf21f588bca95e2ccd91b221c68f", "fusion_lon": 0.0, "type": "electric_bike", "name": "37a4bf21f588bca95e2ccd91b221c68f", "rental_uris": {"android": "https://dc.lft.to/lastmile_qr_scan", "ios": "https://dc.lft.to/lastmile_qr_scan"}, "fusion_lat": 0.0, "lat": 38.803052, "is_disabled": 0, "lon": -77.039818, "is_reserved": 0}, {"bike_id": "6e50b05f06b8415ab33a070f0f93b2d2", "fusion_lon": 0.0, "type": "electric_scooter", "name": "6e50b05f06b8415ab33a070f0f93b2d2", "rental_uris": {"android": "https://dc.lft.to/lastmile_qr_scan", "ios": "https://dc.lft.to/lastmile_qr_scan"}, "fusion_lat": 0.0, "lat": 38.9291365, "is_disabled": 0, "lon": -77.03282183333333, "is_reserved": 0}, {"bike_id": "00abbb43af6cb39ea1d2657ff8d8490f", "fusion_lon": 0.0, "type": "electric_bike", "name": "00abbb43af6cb39ea1d2657ff8d8490f", "rental_uris": {"android": "https://dc.lft.to/lastmile_qr_scan", "ios": "https://dc.lft.to/lastmile_qr_scan"}, "fusion_lat": 0.0, "lat": 38.86683983333333, "is_disabled": 0, "lon": -76.98235716666667, "is_reserved": 0}, {"bike_id": "5b0e0f1522fe270436ecaf3469ef50a5", "fusion_lon": 0.0, "type": "electric_scooter", "name": "5b0e0f1522fe270436ecaf3469ef50a5", "rental_uris": {"android": "https://dc.lft.to/lastmile_qr_scan", "ios": "https://dc.lft.to/lastmile_qr_scan"}, "fusion_lat": 0.0, "lat": 38.90390416666666, "is_disabled": 0, "lon": -77.04042416666667, "is_reserved": 0}, {"bike_id": "1f018ec17a9e4347d6e4a0e5a50744a8", "fusion_lon": 0.0, "type": "electric_scooter", "name": "1f018ec17a9e4347d6e4a0e5a50744a8", "rental_uris": {"android": "https://dc.lft.to/lastmile_qr_scan", "ios": "https://dc.lft.to/lastmile_qr_scan"}, "fusion_lat": 0.0, "lat": 38.909404333333335, "is_disabled": 0, "lon": -76.9991725, "is_reserved": 0}, {"bike_id": "2a95b2ada29d70c0cf127ce8b34e5af4", "fusion_lon": 0.0, "type": "electric_scooter", "name": "2a95b2ada29d70c0cf127ce8b34e5af4", "rental_uris": {"android": "https://dc.lft.to/lastmile_qr_scan", "ios": "https://dc.lft.to/lastmile_qr_scan"}, "fusion_lat": 0.0, "lat": 38.9031195, "is_disabled": 0, "lon": -76.970331, "is_reserved": 0}, {"bike_id": "3d8c4119e38c12cc888f824b43db8990", "fusion_lon": 0.0, "type": "electric_scooter", "name": "3d8c4119e38c12cc888f824b43db8990", "rental_uris": {"android": "https://dc.lft.to/lastmile_qr_scan", "ios": "https://dc.lft.to/lastmile_qr_scan"}, "fusion_lat": 0.0, "lat": 38.96625083333333, "is_disabled": 0, "lon": -77.02750083333333, "is_reserved": 0}, {"bike_id": "55651b5c104c1e20b0c389ed9b5e26be", "fusion_lon": 0.0, "type": "electric_scooter", "name": "55651b5c104c1e20b0c389ed9b5e26be", "rental_uris": {"android": "https://dc.lft.to/lastmile_qr_scan", "ios": "https://dc.lft.to/lastmile_qr_scan"}, "fusion_lat": 0.0, "lat": 38.88744666666667, "is_disabled": 0, "lon": -77.02569866666667, "is_reserved": 0}, {"bike_id": "d659b19f1167ffcf34e33dba552a8ff4", "fusion_lon": 0.0, "type": "electric_scooter", "name": "d659b19f1167ffcf34e33dba552a8ff4", "rental_uris": {"android": "https://dc.lft.to/lastmile_qr_scan", "ios": "https://dc.lft.to/lastmile_qr_scan"}, "fusion_lat": 0.0, "lat": 38.9268365, "is_disabled": 0, "lon": -77.02290516666666, "is_reserved": 0}, {"bike_id": "f8245670074a529cdb5140e03b7ec49f", "fusion_lon": 0.0, "type": "electric_scooter", "name": "f8245670074a529cdb5140e03b7ec49f", "rental_uris": {"android": "https://dc.lft.to/lastmile_qr_scan", "ios": "https://dc.lft.to/lastmile_qr_scan"}, "fusion_lat": 0.0, "lat": 38.90674166666667, "is_disabled": 0, "lon": -77.02706416666666, "is_reserved": 0}, {"bike_id": "f5f6ec2d0bfe5b7f6f31a219c81d7436", "fusion_lon": 0.0, "type": "electric_scooter", "name": "f5f6ec2d0bfe5b7f6f31a219c81d7436", "rental_uris": {"android": "https://dc.lft.to/lastmile_qr_scan", "ios": "https://dc.lft.to/lastmile_qr_scan"}, "fusion_lat": 0.0, "lat": 38.928388166666664, "is_disabled": 0, "lon": -77.02159233333333, "is_reserved": 0}, {"bike_id": "d70ea8a8b84099bf9a18c152a91868f2", "fusion_lon": 0.0, "type": "electric_scooter", "name": "d70ea8a8b84099bf9a18c152a91868f2", "rental_uris": {"android": "https://dc.lft.to/lastmile_qr_scan", "ios": "https://dc.lft.to/lastmile_qr_scan"}, "fusion_lat": 0.0, "lat": 38.90931916666667, "is_disabled": 0, "lon": -77.02820616666666, "is_reserved": 0}, {"bike_id": "3a0d4b5e313630023b5481c76235beb5", "fusion_lon": 0.0, "type": "electric_scooter", "name": "3a0d4b5e313630023b5481c76235beb5", "rental_uris": {"android": "https://dc.lft.to/lastmile_qr_scan", "ios": "https://dc.lft.to/lastmile_qr_scan"}, "fusion_lat": 0.0, "lat": 38.90053733333333, "is_disabled": 0, "lon": -77.01333116666666, "is_reserved": 0}, {"bike_id": "79b80cceef0c74af473198bcf467a2dd", "fusion_lon": 0.0, "type": "electric_scooter", "name": "79b80cceef0c74af473198bcf467a2dd", "rental_uris": {"android": "https://dc.lft.to/lastmile_qr_scan", "ios": "https://dc.lft.to/lastmile_qr_scan"}, "fusion_lat": 0.0, "lat": 38.95970533333333, "is_disabled": 0, "lon": -77.00729683333333, "is_reserved": 0}, {"bike_id": "cf953e96dcabc28d5abdf60cec53dced", "fusion_lon": 0.0, "type": "electric_scooter", "name": "cf953e96dcabc28d5abdf60cec53dced", "rental_uris": {"android": "https://dc.lft.to/lastmile_qr_scan", "ios": "https://dc.lft.to/lastmile_qr_scan"}, "fusion_lat": 0.0, "lat": 38.94970816666667, "is_disabled": 0, "lon": -77.06761416666667, "is_reserved": 0}, {"bike_id": "15bb39ecec701715f223ba2792046c01", "fusion_lon": 0.0, "type": "electric_bike", "name": "15bb39ecec701715f223ba2792046c01", "rental_uris": {"android": "https://dc.lft.to/lastmile_qr_scan", "ios": "https://dc.lft.to/lastmile_qr_scan"}, "fusion_lat": 0.0, "lat": 38.876738833333334, "is_disabled": 0, "lon": -77.01462016666666, "is_reserved": 0}, {"bike_id": "f5700d443d8ebc110e0324b4d78682bd", "fusion_lon": 0.0, "type": "electric_scooter", "name": "f5700d443d8ebc110e0324b4d78682bd", "rental_uris": {"android": "https://dc.lft.to/lastmile_qr_scan", "ios": "https://dc.lft.to/lastmile_qr_scan"}, "fusion_lat": 0.0, "lat": 38.9222255, "is_disabled": 0, "lon": -77.04238333333333, "is_reserved": 0}, {"bike_id": "d2a6f6ebbd57b7464a51b817782147d6", "fusion_lon": 0.0, "type": "electric_bike", "name": "d2a6f6ebbd57b7464a51b817782147d6", "rental_uris": {"android": "https://dc.lft.to/lastmile_qr_scan", "ios": "https://dc.lft.to/lastmile_qr_scan"}, "fusion_lat": 0.0, "lat": 38.84479266666666, "is_disabled": 0, "lon": -76.972178, "is_reserved": 0}, {"bike_id": "2b69e81e34aabbebde45be25cee678b2", "fusion_lon": 0.0, "type": "electric_bike", "name": "2b69e81e34aabbebde45be25cee678b2", "rental_uris": {"android": "https://dc.lft.to/lastmile_qr_scan", "ios": "https://dc.lft.to/lastmile_qr_scan"}, "fusion_lat": 0.0, "lat": 38.92225083333334, "is_disabled": 0, "lon": -77.02237166666667, "is_reserved": 0}, {"bike_id": "6f9c3776f87105dc7271c2617be2306a", "fusion_lon": 0.0, "type": "electric_scooter", "name": "6f9c3776f87105dc7271c2617be2306a", "rental_uris": {"android": "https://dc.lft.to/lastmile_qr_scan", "ios": "https://dc.lft.to/lastmile_qr_scan"}, "fusion_lat": 0.0, "lat": 38.919612666666666, "is_disabled": 0, "lon": -77.01852933333333, "is_reserved": 0}, {"bike_id": "9c6f2b5902229342faba1e56d7cb1e6e", "fusion_lon": 0.0, "type": "electric_scooter", "name": "9c6f2b5902229342faba1e56d7cb1e6e", "rental_uris": {"android": "https://dc.lft.to/lastmile_qr_scan", "ios": "https://dc.lft.to/lastmile_qr_scan"}, "fusion_lat": 0.0, "lat": 38.90011783333333, "is_disabled": 0, "lon": -76.99122683333333, "is_reserved": 0}, {"bike_id": "4902cca4a2bb19bc94e65573be6a6763", "fusion_lon": 0.0, "type": "electric_bike", "name": "4902cca4a2bb19bc94e65573be6a6763", "rental_uris": {"android": "https://dc.lft.to/lastmile_qr_scan", "ios": "https://dc.lft.to/lastmile_qr_scan"}, "fusion_lat": 0.0, "lat": 38.846041166666666, "is_disabled": 0, "lon": -76.96877866666667, "is_reserved": 0}, {"bike_id": "c9358ecd1d5e73b548094e924f36cf24", "fusion_lon": 0.0, "type": "electric_scooter", "name": "c9358ecd1d5e73b548094e924f36cf24", "rental_uris": {"android": "https://dc.lft.to/lastmile_qr_scan", "ios": "https://dc.lft.to/lastmile_qr_scan"}, "fusion_lat": 0.0, "lat": 38.924225666666665, "is_disabled": 0, "lon": -77.03638216666667, "is_reserved": 0}, {"bike_id": "44d760cb71cbe46447461a524c32da7b", "fusion_lon": 0.0, "type": "electric_scooter", "name": "44d760cb71cbe46447461a524c32da7b", "rental_uris": {"android": "https://dc.lft.to/lastmile_qr_scan", "ios": "https://dc.lft.to/lastmile_qr_scan"}, "fusion_lat": 0.0, "lat": 38.92787466666667, "is_disabled": 0, "lon": -77.0314225, "is_reserved": 0}, {"bike_id": "e6ae4a44fef4c7ad36349aad141cf44c", "fusion_lon": 0.0, "type": "electric_scooter", "name": "e6ae4a44fef4c7ad36349aad141cf44c", "rental_uris": {"android": "https://dc.lft.to/lastmile_qr_scan", "ios": "https://dc.lft.to/lastmile_qr_scan"}, "fusion_lat": 0.0, "lat": 38.9323695, "is_disabled": 0, "lon": -77.03869516666667, "is_reserved": 0}, {"bike_id": "05ae483e0c34c767655da1265b5ce1f9", "fusion_lon": 0.0, "type": "electric_scooter", "name": "05ae483e0c34c767655da1265b5ce1f9", "rental_uris": {"android": "https://dc.lft.to/lastmile_qr_scan", "ios": "https://dc.lft.to/lastmile_qr_scan"}, "fusion_lat": 0.0, "lat": 38.89682666666667, "is_disabled": 0, "lon": -76.94724466666666, "is_reserved": 0}, {"bike_id": "99214433762e3e1af83e53362959f029", "fusion_lon": 0.0, "type": "electric_scooter", "name": "99214433762e3e1af83e53362959f029", "rental_uris": {"android": "https://dc.lft.to/lastmile_qr_scan", "ios": "https://dc.lft.to/lastmile_qr_scan"}, "fusion_lat": 0.0, "lat": 38.842949833333336, "is_disabled": 0, "lon": -76.9994805, "is_reserved": 0}, {"bike_id": "712a368f8615f03562c6e60f6978f9cc", "fusion_lon": 0.0, "type": "electric_scooter", "name": "712a368f8615f03562c6e60f6978f9cc", "rental_uris": {"android": "https://dc.lft.to/lastmile_qr_scan", "ios": "https://dc.lft.to/lastmile_qr_scan"}, "fusion_lat": 0.0, "lat": 38.90044983333333, "is_disabled": 0, "lon": -77.03332566666667, "is_reserved": 0}, {"bike_id": "37f351d687ce10eb163cf2c698ad0c92", "fusion_lon": 0.0, "type": "electric_bike", "name": "37f351d687ce10eb163cf2c698ad0c92", "rental_uris": {"android": "https://dc.lft.to/lastmile_qr_scan", "ios": "https://dc.lft.to/lastmile_qr_scan"}, "fusion_lat": 0.0, "lat": 38.852106166666665, "is_disabled": 0, "lon": -77.046433, "is_reserved": 0}, {"bike_id": "26abb9d70bb91fef852f94fb5f27df1d", "fusion_lon": 0.0, "type": "electric_scooter", "name": "26abb9d70bb91fef852f94fb5f27df1d", "rental_uris": {"android": "https://dc.lft.to/lastmile_qr_scan", "ios": "https://dc.lft.to/lastmile_qr_scan"}, "fusion_lat": 0.0, "lat": 38.91742766666667, "is_disabled": 0, "lon": -77.02303916666666, "is_reserved": 0}, {"bike_id": "795f7a181342f5d6d04fb834385fa294", "fusion_lon": 0.0, "type": "electric_scooter", "name": "795f7a181342f5d6d04fb834385fa294", "rental_uris": {"android": "https://dc.lft.to/lastmile_qr_scan", "ios": "https://dc.lft.to/lastmile_qr_scan"}, "fusion_lat": 0.0, "lat": 38.9040555, "is_disabled": 0, "lon": -77.06265333333333, "is_reserved": 0}, {"bike_id": "7a6b5fbd5ffe681314e02971075f0799", "fusion_lon": 0.0, "type": "electric_scooter", "name": "7a6b5fbd5ffe681314e02971075f0799", "rental_uris": {"android": "https://dc.lft.to/lastmile_qr_scan", "ios": "https://dc.lft.to/lastmile_qr_scan"}, "fusion_lat": 0.0, "lat": 38.8850035, "is_disabled": 0, "lon": -77.00571983333333, "is_reserved": 0}, {"bike_id": "b7e4b96643c73e451857f6fc6e2ccddf", "fusion_lon": 0.0, "type": "electric_scooter", "name": "b7e4b96643c73e451857f6fc6e2ccddf", "rental_uris": {"android": "https://dc.lft.to/lastmile_qr_scan", "ios": "https://dc.lft.to/lastmile_qr_scan"}, "fusion_lat": 0.0, "lat": 38.900775, "is_disabled": 0, "lon": -77.0508465, "is_reserved": 0}, {"bike_id": "006e6896ead5d0ed30bb4c8490d764d7", "fusion_lon": 0.0, "type": "electric_bike", "name": "006e6896ead5d0ed30bb4c8490d764d7", "rental_uris": {"android": "https://dc.lft.to/lastmile_qr_scan", "ios": "https://dc.lft.to/lastmile_qr_scan"}, "fusion_lat": 0.0, "lat": 38.974042, "is_disabled": 0, "lon": -77.02495716666667, "is_reserved": 0}, {"bike_id": "a603993de91be24fdfb65dc837d0efaf", "fusion_lon": 0.0, "type": "electric_scooter", "name": "a603993de91be24fdfb65dc837d0efaf", "rental_uris": {"android": "https://dc.lft.to/lastmile_qr_scan", "ios": "https://dc.lft.to/lastmile_qr_scan"}, "fusion_lat": 0.0, "lat": 38.895040333333334, "is_disabled": 0, "lon": -77.01104033333333, "is_reserved": 0}, {"bike_id": "b9618bc0d17bcce9bf4c8b00cde4f87b", "fusion_lon": 0.0, "type": "electric_bike", "name": "b9618bc0d17bcce9bf4c8b00cde4f87b", "rental_uris": {"android": "https://dc.lft.to/lastmile_qr_scan", "ios": "https://dc.lft.to/lastmile_qr_scan"}, "fusion_lat": 0.0, "lat": 38.842884166666664, "is_disabled": 0, "lon": -77.1141495, "is_reserved": 0}, {"bike_id": "75a05ccfd6a42abdfcb87a316fc150ae", "fusion_lon": 0.0, "type": "electric_scooter", "name": "75a05ccfd6a42abdfcb87a316fc150ae", "rental_uris": {"android": "https://dc.lft.to/lastmile_qr_scan", "ios": "https://dc.lft.to/lastmile_qr_scan"}, "fusion_lat": 0.0, "lat": 38.86946016666667, "is_disabled": 0, "lon": -77.00859583333333, "is_reserved": 0}, {"bike_id": "b3a371e6250a54cabfe24ff6c0d1f326", "fusion_lon": 0.0, "type": "electric_scooter", "name": "b3a371e6250a54cabfe24ff6c0d1f326", "rental_uris": {"android": "https://dc.lft.to/lastmile_qr_scan", "ios": "https://dc.lft.to/lastmile_qr_scan"}, "fusion_lat": 0.0, "lat": 38.914851, "is_disabled": 0, "lon": -77.01324966666667, "is_reserved": 0}, {"bike_id": "e3853cb97a605416155cf28d8d87e4b5", "fusion_lon": 0.0, "type": "electric_scooter", "name": "e3853cb97a605416155cf28d8d87e4b5", "rental_uris": {"android": "https://dc.lft.to/lastmile_qr_scan", "ios": "https://dc.lft.to/lastmile_qr_scan"}, "fusion_lat": 0.0, "lat": 38.90499166666667, "is_disabled": 0, "lon": -77.0295115, "is_reserved": 0}, {"bike_id": "aa045e512104940b21462dcab1d7d55b", "fusion_lon": 0.0, "type": "electric_bike", "name": "aa045e512104940b21462dcab1d7d55b", "rental_uris": {"android": "https://dc.lft.to/lastmile_qr_scan", "ios": "https://dc.lft.to/lastmile_qr_scan"}, "fusion_lat": 0.0, "lat": 38.8393625, "is_disabled": 0, "lon": -77.07901166666667, "is_reserved": 0}, {"bike_id": "50c40d98544d6f6ffa492f420a522521", "fusion_lon": 0.0, "type": "electric_scooter", "name": "50c40d98544d6f6ffa492f420a522521", "rental_uris": {"android": "https://dc.lft.to/lastmile_qr_scan", "ios": "https://dc.lft.to/lastmile_qr_scan"}, "fusion_lat": 0.0, "lat": 38.9141575, "is_disabled": 0, "lon": -77.03163916666666, "is_reserved": 0}, {"bike_id": "4c785c6f1267f7726c1aef6ded3b5327", "fusion_lon": 0.0, "type": "electric_scooter", "name": "4c785c6f1267f7726c1aef6ded3b5327", "rental_uris": {"android": "https://dc.lft.to/lastmile_qr_scan", "ios": "https://dc.lft.to/lastmile_qr_scan"}, "fusion_lat": 0.0, "lat": 38.914599833333334, "is_disabled": 0, "lon": -77.03842633333333, "is_reserved": 0}, {"bike_id": "3fc5d7a30327efb946804165843bfd00", "fusion_lon": 0.0, "type": "electric_scooter", "name": "3fc5d7a30327efb946804165843bfd00", "rental_uris": {"android": "https://dc.lft.to/lastmile_qr_scan", "ios": "https://dc.lft.to/lastmile_qr_scan"}, "fusion_lat": 0.0, "lat": 38.917691833333336, "is_disabled": 0, "lon": -77.040616, "is_reserved": 0}, {"bike_id": "273b14f55bf787ad391ae04078c94e29", "fusion_lon": 0.0, "type": "electric_scooter", "name": "273b14f55bf787ad391ae04078c94e29", "rental_uris": {"android": "https://dc.lft.to/lastmile_qr_scan", "ios": "https://dc.lft.to/lastmile_qr_scan"}, "fusion_lat": 0.0, "lat": 38.887417, "is_disabled": 0, "lon": -77.01537, "is_reserved": 0}, {"bike_id": "3b9166c2b51ff2fa8fc66f105e49456f", "fusion_lon": 0.0, "type": "electric_bike", "name": "3b9166c2b51ff2fa8fc66f105e49456f", "rental_uris": {"android": "https://dc.lft.to/lastmile_qr_scan", "ios": "https://dc.lft.to/lastmile_qr_scan"}, "fusion_lat": 0.0, "lat": 38.813289166666664, "is_disabled": 0, "lon": -77.05085933333334, "is_reserved": 0}, {"bike_id": "6654de3bc494401ab7374fc984dd6154", "fusion_lon": 0.0, "type": "electric_scooter", "name": "6654de3bc494401ab7374fc984dd6154", "rental_uris": {"android": "https://dc.lft.to/lastmile_qr_scan", "ios": "https://dc.lft.to/lastmile_qr_scan"}, "fusion_lat": 0.0, "lat": 38.91618366666667, "is_disabled": 0, "lon": -77.02816983333334, "is_reserved": 0}, {"bike_id": "b3dd89050860bc961b4a6ca22e6dbf5d", "fusion_lon": 0.0, "type": "electric_scooter", "name": "b3dd89050860bc961b4a6ca22e6dbf5d", "rental_uris": {"android": "https://dc.lft.to/lastmile_qr_scan", "ios": "https://dc.lft.to/lastmile_qr_scan"}, "fusion_lat": 0.0, "lat": 38.8845625, "is_disabled": 0, "lon": -77.02900833333334, "is_reserved": 0}, {"bike_id": "78fbfe5c64c3059ef047595f6ace51f9", "fusion_lon": 0.0, "type": "electric_scooter", "name": "78fbfe5c64c3059ef047595f6ace51f9", "rental_uris": {"android": "https://dc.lft.to/lastmile_qr_scan", "ios": "https://dc.lft.to/lastmile_qr_scan"}, "fusion_lat": 0.0, "lat": 38.901983333333334, "is_disabled": 0, "lon": -77.023779, "is_reserved": 0}, {"bike_id": "c1646ca049326088368e6032f8e52b6d", "fusion_lon": 0.0, "type": "electric_scooter", "name": "c1646ca049326088368e6032f8e52b6d", "rental_uris": {"android": "https://dc.lft.to/lastmile_qr_scan", "ios": "https://dc.lft.to/lastmile_qr_scan"}, "fusion_lat": 0.0, "lat": 38.90819316666666, "is_disabled": 0, "lon": -77.039324, "is_reserved": 0}, {"bike_id": "c414de98fd7a873013ae70f8044a7b5b", "fusion_lon": 0.0, "type": "electric_scooter", "name": "c414de98fd7a873013ae70f8044a7b5b", "rental_uris": {"android": "https://dc.lft.to/lastmile_qr_scan", "ios": "https://dc.lft.to/lastmile_qr_scan"}, "fusion_lat": 0.0, "lat": 38.898701833333334, "is_disabled": 0, "lon": -76.9466495, "is_reserved": 0}, {"bike_id": "377f217d8bbea5563d80b90ccd38309f", "fusion_lon": 0.0, "type": "electric_scooter", "name": "377f217d8bbea5563d80b90ccd38309f", "rental_uris": {"android": "https://dc.lft.to/lastmile_qr_scan", "ios": "https://dc.lft.to/lastmile_qr_scan"}, "fusion_lat": 0.0, "lat": 38.930801833333334, "is_disabled": 0, "lon": -77.02793783333334, "is_reserved": 0}, {"bike_id": "f433114924df8dbc905d61a5d018b603", "fusion_lon": 0.0, "type": "electric_scooter", "name": "f433114924df8dbc905d61a5d018b603", "rental_uris": {"android": "https://dc.lft.to/lastmile_qr_scan", "ios": "https://dc.lft.to/lastmile_qr_scan"}, "fusion_lat": 0.0, "lat": 38.92130133333333, "is_disabled": 0, "lon": -77.04694, "is_reserved": 0}, {"bike_id": "afedaf93b6ad0b90f6714107705d8030", "fusion_lon": 0.0, "type": "electric_scooter", "name": "afedaf93b6ad0b90f6714107705d8030", "rental_uris": {"android": "https://dc.lft.to/lastmile_qr_scan", "ios": "https://dc.lft.to/lastmile_qr_scan"}, "fusion_lat": 0.0, "lat": 38.914316166666666, "is_disabled": 0, "lon": -77.0020155, "is_reserved": 0}, {"bike_id": "9ef630afed624c515448151bf0424fd8", "fusion_lon": 0.0, "type": "electric_scooter", "name": "9ef630afed624c515448151bf0424fd8", "rental_uris": {"android": "https://dc.lft.to/lastmile_qr_scan", "ios": "https://dc.lft.to/lastmile_qr_scan"}, "fusion_lat": 0.0, "lat": 38.91260283333333, "is_disabled": 0, "lon": -77.04739683333334, "is_reserved": 0}, {"bike_id": "6fa382eb08d2e6714871109c6ffd13c4", "fusion_lon": 0.0, "type": "electric_bike", "name": "6fa382eb08d2e6714871109c6ffd13c4", "rental_uris": {"android": "https://dc.lft.to/lastmile_qr_scan", "ios": "https://dc.lft.to/lastmile_qr_scan"}, "fusion_lat": 0.0, "lat": 38.96298, "is_disabled": 0, "lon": -77.011131, "is_reserved": 0}, {"bike_id": "72866cb98a869900126ed12019bd570c", "fusion_lon": 0.0, "type": "electric_scooter", "name": "72866cb98a869900126ed12019bd570c", "rental_uris": {"android": "https://dc.lft.to/lastmile_qr_scan", "ios": "https://dc.lft.to/lastmile_qr_scan"}, "fusion_lat": 0.0, "lat": 38.902672333333335, "is_disabled": 0, "lon": -77.03446066666666, "is_reserved": 0}, {"bike_id": "6c7a7c47805dc31bade5c371f2c7ae7d", "fusion_lon": 0.0, "type": "electric_scooter", "name": "6c7a7c47805dc31bade5c371f2c7ae7d", "rental_uris": {"android": "https://dc.lft.to/lastmile_qr_scan", "ios": "https://dc.lft.to/lastmile_qr_scan"}, "fusion_lat": 0.0, "lat": 38.90479783333333, "is_disabled": 0, "lon": -76.97331166666666, "is_reserved": 0}, {"bike_id": "c5bb9caa6e18b5e3e4723b9a1fba4bd9", "fusion_lon": 0.0, "type": "electric_bike", "name": "c5bb9caa6e18b5e3e4723b9a1fba4bd9", "rental_uris": {"android": "https://dc.lft.to/lastmile_qr_scan", "ios": "https://dc.lft.to/lastmile_qr_scan"}, "fusion_lat": 0.0, "lat": 38.83042833333333, "is_disabled": 0, "lon": -77.1089715, "is_reserved": 0}, {"bike_id": "7b41a749a6688e3e23bac9f37a4dc71e", "fusion_lon": 0.0, "type": "electric_scooter", "name": "7b41a749a6688e3e23bac9f37a4dc71e", "rental_uris": {"android": "https://dc.lft.to/lastmile_qr_scan", "ios": "https://dc.lft.to/lastmile_qr_scan"}, "fusion_lat": 0.0, "lat": 38.915447666666665, "is_disabled": 0, "lon": -77.0385265, "is_reserved": 0}, {"bike_id": "6898d4dbf01cd54bafd190bca0e2e901", "fusion_lon": 0.0, "type": "electric_scooter", "name": "6898d4dbf01cd54bafd190bca0e2e901", "rental_uris": {"android": "https://dc.lft.to/lastmile_qr_scan", "ios": "https://dc.lft.to/lastmile_qr_scan"}, "fusion_lat": 0.0, "lat": 38.90407733333333, "is_disabled": 0, "lon": -77.00132233333333, "is_reserved": 0}, {"bike_id": "62ebf5ebd9a8cf632700c03a27927451", "fusion_lon": 0.0, "type": "electric_bike", "name": "62ebf5ebd9a8cf632700c03a27927451", "rental_uris": {"android": "https://dc.lft.to/lastmile_qr_scan", "ios": "https://dc.lft.to/lastmile_qr_scan"}, "fusion_lat": 0.0, "lat": 38.9260105, "is_disabled": 0, "lon": -77.0242535, "is_reserved": 0}, {"bike_id": "d65069283ab77629f50725d8480578b6", "fusion_lon": 0.0, "type": "electric_bike", "name": "d65069283ab77629f50725d8480578b6", "rental_uris": {"android": "https://dc.lft.to/lastmile_qr_scan", "ios": "https://dc.lft.to/lastmile_qr_scan"}, "fusion_lat": 0.0, "lat": 38.8918365, "is_disabled": 0, "lon": -76.95031733333333, "is_reserved": 0}, {"bike_id": "bd7ff75627ea8ad6155bfdea20b5f932", "fusion_lon": 0.0, "type": "electric_scooter", "name": "bd7ff75627ea8ad6155bfdea20b5f932", "rental_uris": {"android": "https://dc.lft.to/lastmile_qr_scan", "ios": "https://dc.lft.to/lastmile_qr_scan"}, "fusion_lat": 0.0, "lat": 38.906479833333336, "is_disabled": 0, "lon": -77.02948883333333, "is_reserved": 0}, {"bike_id": "8fc8149bd4986172c6793d1b75e2e12e", "fusion_lon": 0.0, "type": "electric_bike", "name": "8fc8149bd4986172c6793d1b75e2e12e", "rental_uris": {"android": "https://dc.lft.to/lastmile_qr_scan", "ios": "https://dc.lft.to/lastmile_qr_scan"}, "fusion_lat": 0.0, "lat": 38.9602495, "is_disabled": 0, "lon": -77.01999516666666, "is_reserved": 0}, {"bike_id": "c339086b9dbf2680eccf5a3ca7d44011", "fusion_lon": 0.0, "type": "electric_scooter", "name": "c339086b9dbf2680eccf5a3ca7d44011", "rental_uris": {"android": "https://dc.lft.to/lastmile_qr_scan", "ios": "https://dc.lft.to/lastmile_qr_scan"}, "fusion_lat": 0.0, "lat": 38.923168833333335, "is_disabled": 0, "lon": -77.05434416666667, "is_reserved": 0},