{"data": {"bikes": [{"is_reserved": 0, "fusion_lon": 0.0, "fusion_lat": 0.0, "name": "153e39b12f73284b5dc30197b27f37ff", "type": "electric_scooter", "is_disabled": 0, "lat": 38.9471395, "rental_uris": {"android": "https://dc.lft.to/lastmile_qr_scan", "ios": "https://dc.lft.to/lastmile_qr_scan"}, "bike_id": "153e39b12f73284b5dc30197b27f37ff", "lon": -77.03345616666667}, {"is_reserved": 0, "fusion_lon": 0.0, "fusion_lat": 0.0, "name": "017b9f066fe4eb2affa09e10b99b4dd3", "type": "electric_scooter", "is_disabled": 0, "lat": 38.83572483333333, "rental_uris": {"android": "https://dc.lft.to/lastmile_qr_scan", "ios": "https://dc.lft.to/lastmile_qr_scan"}, "bike_id": "017b9f066fe4eb2affa09e10b99b4dd3", "lon": -76.99488766666667}, {"is_reserved": 0, "fusion_lon": 0.0, "fusion_lat": 0.0, "name": "bb9360e4c81886e37d4e7828dfdb106d", "type": "electric_scooter", "is_disabled": 0, "lat": 38.874585833333335, "rental_uris": {"android": "https://dc.lft.to/lastmile_qr_scan", "ios": "https://dc.lft.to/lastmile_qr_scan"}, "bike_id": "bb9360e4c81886e37d4e7828dfdb106d", "lon": -77.005562}, {"is_reserved": 0, "fusion_lon": 0.0, "fusion_lat": 0.0, "name": "b6c954633d246258e8d9521c1abd4528", "type": "electric_scooter", "is_disabled": 0, "lat": 38.88833966666667, "rental_uris": {"android": "https://dc.lft.to/lastmile_qr_scan", "ios": "https://dc.lft.to/lastmile_qr_scan"}, "bike_id": "b6c954633d246258e8d9521c1abd4528", "lon": -76.97715316666667}, {"is_reserved": 0, "fusion_lon": 0.0, "fusion_lat": 0.0, "name": "88ff13440bec1b4b3ae88faf3d7ca1ef", "type": "electric_scooter", "is_disabled": 0, "lat": 38.89981233333334, "rental_uris": {"android": "https://dc.lft.to/lastmile_qr_scan", "ios": "https://dc.lft.to/lastmile_qr_scan"}, "bike_id": "88ff13440bec1b4b3ae88faf3d7ca1ef", "lon": -77.04835516666667}, {"is_reserved": 0, "fusion_lon": 0.0, "fusion_lat": 0.0, "name": "44ab11eabcc34be35a7c5a51bc998a64", "type": "electric_scooter", "is_disabled": 0, "lat": 38.90684533333334, "rental_uris": {"android": "https://dc.lft.to/lastmile_qr_scan", "ios": "https://dc.lft.to/lastmile_qr_scan"}, "bike_id": "44ab11eabcc34be35a7c5a51bc998a64", "lon": -77.03476266666667}, {"is_reserved": 0, "fusion_lon": 0.0, "fusion_lat": 0.0, "name": "0327baa160ec2b5b527512bc0308511f", "type": "electric_scooter", "is_disabled": 0, "lat": 38.88157566666667, "rental_uris": {"android": "https://dc.lft.to/lastmile_qr_scan", "ios": "https://dc.lft.to/lastmile_qr_scan"}, "bike_id": "0327baa160ec2b5b527512bc0308511f", "lon": -76.929705}, {"is_reserved": 0, "fusion_lon": 0.0, "fusion_lat": 0.0, "name": "178ef20281ba19fd5e003acf2abb9dcf", "type": "electric_scooter", "is_disabled": 0, "lat": 38.92844516666667, "rental_uris": {"android": "https://dc.lft.to/lastmile_qr_scan", "ios": "https://dc.lft.to/lastmile_qr_scan"}, "bike_id": "178ef20281ba19fd5e003acf2abb9dcf", "lon": -77.03620766666667}, {"is_reserved": 0, "fusion_lon": 0.0, "fusion_lat": 0.0, "name": "96658b3a34df8e692bf0bc923bcbbe6a", "type": "electric_scooter", "is_disabled": 0, "lat": 38.89691666666667, "rental_uris": {"android": "https://dc.lft.to/lastmile_qr_scan", "ios": "https://dc.lft.to/lastmile_qr_scan"}, "bike_id": "96658b3a34df8e692bf0bc923bcbbe6a", "lon": -77.03188683333333}, {"is_reserved": 0, "fusion_lon": 0.0, "fusion_lat": 0.0, "name": "a4b6cb9dfe84b9b54d3519ce93cfa12c", "type": "electric_scooter", "is_disabled": 0, "lat": 38.9155665, "rental_uris": {"android": "https://dc.lft.to/lastmile_qr_scan", "ios": "https://dc.lft.to/lastmile_qr_scan"}, "bike_id": "a4b6cb9dfe84b9b54d3519ce93cfa12c", "lon": -77.0255155}, {"is_reserved": 0, "fusion_lon": 0.0, "fusion_lat": 0.0, "name": "861773c18cd35671fa2f9da67a0fd15a", "type": "electric_scooter", "is_disabled": 0, "lat": 38.920615833333336, "rental_uris": {"android": "https://dc.lft.to/lastmile_qr_scan", "ios": "https://dc.lft.to/lastmile_qr_scan"}, "bike_id": "861773c18cd35671fa2f9da67a0fd15a", "lon": -77.03800616666666}, {"is_reserved": 0, "fusion_lon": 0.0, "fusion_lat": 0.0, "name": "bdaf345aaee23fe9fccf26491bf7441d", "type": "electric_scooter", "is_disabled": 0, "lat": 38.9050855, "rental_uris": {"android": "https://dc.lft.to/lastmile_qr_scan", "ios": "https://dc.lft.to/lastmile_qr_scan"}, "bike_id": "bdaf345aaee23fe9fccf26491bf7441d", "lon": -77.06385233333333}, {"is_reserved": 0, "fusion_lon": 0.0, "fusion_lat": 0.0, "name": "44d35c70824fc201fb164db145ee542e", "type": "electric_scooter", "is_disabled": 0, "lat": 38.926698, "rental_uris": {"android": "https://dc.lft.to/lastmile_qr_scan", "ios": "https://dc.lft.to/lastmile_qr_scan"}, "bike_id": "44d35c70824fc201fb164db145ee542e", "lon": -77.04287766666667}, {"is_reserved": 0, "fusion_lon": 0.0, "fusion_lat": 0.0, "name": "7eff48f561d54aa0f4f4e0d00b260c12", "type": "electric_scooter", "is_disabled": 0, "lat": 38.923711, "rental_uris": {"android": "https://dc.lft.to/lastmile_qr_scan", "ios": "https://dc.lft.to/lastmile_qr_scan"}, "bike_id": "7eff48f561d54aa0f4f4e0d00b260c12", "lon": -77.0292845}, {"is_reserved": 0, "fusion_lon": 0.0, "fusion_lat": 0.0, "name": "a6732ada5820745bd6350a8a84f13218", "type": "electric_scooter", "is_disabled": 0, "lat": 38.909068, "rental_uris": {"android": "https://dc.lft.to/lastmile_qr_scan", "ios": "https://dc.lft.to/lastmile_qr_scan"}, "bike_id": "a6732ada5820745bd6350a8a84f13218", "lon": -77.0727725}, {"is_reserved": 0, "fusion_lon": 0.0, "fusion_lat": 0.0, "name": "40c67858aacd5fa32b85b33592987f15", "type": "electric_scooter", "is_disabled": 0, "lat": 38.8669545, "rental_uris": {"android": "https://dc.lft.to/lastmile_qr_scan", "ios": "https://dc.lft.to/lastmile_qr_scan"}, "bike_id": "40c67858aacd5fa32b85b33592987f15", "lon": -76.98711683333333}, {"is_reserved": 0, "fusion_lon": 0.0, "fusion_lat": 0.0, "name": "9df88deedce1df908fdb61adb07d567c", "type": "electric_scooter", "is_disabled": 0, "lat": 38.867273, "rental_uris": {"android": "https://dc.lft.to/lastmile_qr_scan", "ios": "https://dc.lft.to/lastmile_qr_scan"}, "bike_id": "9df88deedce1df908fdb61adb07d567c", "lon": -76.98784833333333}, {"is_reserved": 0, "fusion_lon": 0.0, "fusion_lat": 0.0, "name": "96a54af157b8b3be94173a9b9bd0badb", "type": "electric_scooter", "is_disabled": 0, "lat": 38.923123, "rental_uris": {"android": "https://dc.lft.to/lastmile_qr_scan", "ios": "https://dc.lft.to/lastmile_qr_scan"}, "bike_id": "96a54af157b8b3be94173a9b9bd0badb", "lon": -77.04391083333333}, {"is_reserved": 0, "fusion_lon": 0.0, "fusion_lat": 0.0, "name": "75d8254ba65539360b533b373301b058", "type": "electric_scooter", "is_disabled": 0, "lat": 38.89354633333333, "rental_uris": {"android": "https://dc.lft.to/lastmile_qr_scan", "ios": "https://dc.lft.to/lastmile_qr_scan"}, "bike_id": "75d8254ba65539360b533b373301b058", "lon": -77.0319945}, {"is_reserved": 0, "fusion_lon": 0.0, "fusion_lat": 0.0, "name": "ad7019e871132064d685f9f8eb73f1a6", "type": "electric_bike", "is_disabled": 0, "lat": 38.88046966666667, "rental_uris": {"android": "https://dc.lft.to/lastmile_qr_scan", "ios": "https://dc.lft.to/lastmile_qr_scan"}, "bike_id": "ad7019e871132064d685f9f8eb73f1a6", "lon": -77.01134766666667}, {"is_reserved": 0, "fusion_lon": 0.0, "fusion_lat": 0.0, "name": "43c3d5a28f02a5da733c573b2df5f05a", "type": "electric_scooter", "is_disabled": 0, "lat": 38.82385766666667, "rental_uris": {"android": "https://dc.lft.to/lastmile_qr_scan", "ios": "https://dc.lft.to/lastmile_qr_scan"}, "bike_id": "43c3d5a28f02a5da733c573b2df5f05a", "lon": -77.01191133333333}, {"is_reserved": 0, "fusion_lon": 0.0, "fusion_lat": 0.0, "name": "e0b37fbbd6fd081666394cf66dfda0dd", "type": "electric_scooter", "is_disabled": 0, "lat": 38.90016166666667, "rental_uris": {"android": "https://dc.lft.to/lastmile_qr_scan", "ios": "https://dc.lft.to/lastmile_qr_scan"}, "bike_id": "e0b37fbbd6fd081666394cf66dfda0dd", "lon": -77.0403345}, {"is_reserved": 0, "fusion_lon": 0.0, "fusion_lat": 0.0, "name": "25bc95198f0cf95f5620f6e227de20df", "type": "electric_scooter", "is_disabled": 0, "lat": 38.9001345, "rental_uris": {"android": "https://dc.lft.to/lastmile_qr_scan", "ios": "https://dc.lft.to/lastmile_qr_scan"}, "bike_id": "25bc95198f0cf95f5620f6e227de20df", "lon": -76.98872533333333}, {"is_reserved": 0, "fusion_lon": 0.0, "fusion_lat": 0.0, "name": "5e48719984f55cb80d0f22d828dfc00c", "type": "electric_scooter", "is_disabled": 0, "lat": 38.87365916666667, "rental_uris": {"android": "https://dc.lft.to/lastmile_qr_scan", "ios": "https://dc.lft.to/lastmile_qr_scan"}, "bike_id": "5e48719984f55cb80d0f22d828dfc00c", "lon": -77.00605666666667}, {"is_reserved": 0, "fusion_lon": 0.0, "fusion_lat": 0.0, "name": "d9d2b590a0fbd563e295faf511d8eceb", "type": "electric_scooter", "is_disabled": 0, "lat": 38.92769633333333, "rental_uris": {"android": "https://dc.lft.to/lastmile_qr_scan", "ios": "https://dc.lft.to/lastmile_qr_scan"}, "bike_id": "d9d2b590a0fbd563e295faf511d8eceb", "lon": -77.02784416666667}, {"is_reserved": 0, "fusion_lon": 0.0, "fusion_lat": 0.0, "name": "8065c6a47cb4bc50db13c2dc66037e2e", "type": "electric_scooter", "is_disabled": 0, "lat": 38.917437166666666, "rental_uris": {"android": "https://dc.lft.to/lastmile_qr_scan", "ios": "https://dc.lft.to/lastmile_qr_scan"}, "bike_id": "8065c6a47cb4bc50db13c2dc66037e2e", "lon": -77.0108655}, {"is_reserved": 0, "fusion_lon": 0.0, "fusion_lat": 0.0, "name": "e4d5626db333f3ce23f8b099e8c74cfe", "type": "electric_scooter", "is_disabled": 0, "lat": 38.864098166666665, "rental_uris": {"android": "https://dc.lft.to/lastmile_qr_scan", "ios": "https://dc.lft.to/lastmile_qr_scan"}, "bike_id": "e4d5626db333f3ce23f8b099e8c74cfe", "lon": -77.01222283333334}, {"is_reserved": 0, "fusion_lon": 0.0, "fusion_lat": 0.0, "name": "efa39fd6dfcbedc2ec1885ec8aff7871", "type": "electric_bike", "is_disabled": 0, "lat": 38.87633683333333, "rental_uris": {"android": "https://dc.lft.to/lastmile_qr_scan", "ios": "https://dc.lft.to/lastmile_qr_scan"}, "bike_id": "efa39fd6dfcbedc2ec1885ec8aff7871", "lon": -76.9886555}, {"is_reserved": 0, "fusion_lon": 0.0, "fusion_lat": 0.0, "name": "6dc0fd04fba37fa782bc4d02b1f72f86", "type": "electric_scooter", "is_disabled": 0, "lat": 38.8858455, "rental_uris": {"android": "https://dc.lft.to/lastmile_qr_scan", "ios": "https://dc.lft.to/lastmile_qr_scan"}, "bike_id": "6dc0fd04fba37fa782bc4d02b1f72f86", "lon": -76.92987066666667}, {"is_reserved": 0, "fusion_lon": 0.0, "fusion_lat": 0.0, "name": "b33546dda462c00d1260267ac396de1c", "type": "electric_scooter", "is_disabled": 0, "lat": 38.892221, "rental_uris": {"android": "https://dc.lft.to/lastmile_qr_scan", "ios": "https://dc.lft.to/lastmile_qr_scan"}, "bike_id": "b33546dda462c00d1260267ac396de1c", "lon": -77.0430705}, {"is_reserved": 0, "fusion_lon": 0.0, "fusion_lat": 0.0, "name": "eccdd4314659b190cd17f8034a47f624", "type": "electric_bike", "is_disabled": 0, "lat": 38.9004295, "rental_uris": {"android": "https://dc.lft.to/lastmile_qr_scan", "ios": "https://dc.lft.to/lastmile_qr_scan"}, "bike_id": "eccdd4314659b190cd17f8034a47f624", "lon": -76.99138183333334}, {"is_reserved": 0, "fusion_lon": 0.0, "fusion_lat": 0.0, "name": "c45b4521daa6ec227e7c8017bf7186cd", "type": "electric_scooter", "is_disabled": 0, "lat": 38.90039733333333, "rental_uris": {"android": "https://dc.lft.to/lastmile_qr_scan", "ios": "https://dc.lft.to/lastmile_qr_scan"}, "bike_id": "c45b4521daa6ec227e7c8017bf7186cd", "lon": -77.003045}, {"is_reserved": 0, "fusion_lon": 0.0, "fusion_lat": 0.0, "name": "c7540b5d3e48f020f100404aa040835a", "type": "electric_scooter", "is_disabled": 0, "lat": 38.885467166666665, "rental_uris": {"android": "https://dc.lft.to/lastmile_qr_scan", "ios": "https://dc.lft.to/lastmile_qr_scan"}, "bike_id": "c7540b5d3e48f020f100404aa040835a", "lon": -77.0201505}, {"is_reserved": 0, "fusion_lon": 0.0, "fusion_lat": 0.0, "name": "883b78b3f4da68ea22f7130b33c8435f", "type": "electric_scooter", "is_disabled": 0, "lat": 38.8922825, "rental_uris": {"android": "https://dc.lft.to/lastmile_qr_scan", "ios": "https://dc.lft.to/lastmile_qr_scan"}, "bike_id": "883b78b3f4da68ea22f7130b33c8435f", "lon": -77.014665}, {"is_reserved": 0, "fusion_lon": 0.0, "fusion_lat": 0.0, "name": "721d53f0f7d7a261c631ee1f6397799d", "type": "electric_scooter", "is_disabled": 0, "lat": 38.91270983333333, "rental_uris": {"android": "https://dc.lft.to/lastmile_qr_scan", "ios": "https://dc.lft.to/lastmile_qr_scan"}, "bike_id": "721d53f0f7d7a261c631ee1f6397799d", "lon": -77.03071483333333}, {"is_reserved": 0, "fusion_lon": 0.0, "fusion_lat": 0.0, "name": "e12d576cf243bbf8b9a7c7903ab5bfbf", "type": "electric_scooter", "is_disabled": 0, "lat": 38.90974583333333, "rental_uris": {"android": "https://dc.lft.to/lastmile_qr_scan", "ios": "https://dc.lft.to/lastmile_qr_scan"}, "bike_id": "e12d576cf243bbf8b9a7c7903ab5bfbf", "lon": -77.03299366666667}, {"is_reserved": 0, "fusion_lon": 0.0, "fusion_lat": 0.0, "name": "bd76098000cfdf3ed973ce468f2960d3", "type": "electric_scooter", "is_disabled": 0, "lat": 38.89225483333333, "rental_uris": {"android": "https://dc.lft.to/lastmile_qr_scan", "ios": "https://dc.lft.to/lastmile_qr_scan"}, "bike_id": "bd76098000cfdf3ed973ce468f2960d3", "lon": -77.04504566666667}, {"is_reserved": 0, "fusion_lon": 0.0, "fusion_lat": 0.0, "name": "d1be11378813251439943e41ef4962a2", "type": "electric_scooter", "is_disabled": 0, "lat": 38.902595166666664, "rental_uris": {"android": "https://dc.lft.to/lastmile_qr_scan", "ios": "https://dc.lft.to/lastmile_qr_scan"}, "bike_id": "d1be11378813251439943e41ef4962a2", "lon": -77.03884633333334}, {"is_reserved": 0, "fusion_lon": 0.0, "fusion_lat": 0.0, "name": "c8fae94ad31580818494db1df01ff4d1", "type": "electric_scooter", "is_disabled": 0, "lat": 38.920845, "rental_uris": {"android": "https://dc.lft.to/lastmile_qr_scan", "ios": "https://dc.lft.to/lastmile_qr_scan"}, "bike_id": "c8fae94ad31580818494db1df01ff4d1", "lon": -77.02415816666667}, {"is_reserved": 0, "fusion_lon": 0.0, "fusion_lat": 0.0, "name": "66e0535965be3ae30f63930c3ccfcc0e", "type": "electric_scooter", "is_disabled": 0, "lat": 38.95525816666667, "rental_uris": {"android": "https://dc.lft.to/lastmile_qr_scan", "ios": "https://dc.lft.to/lastmile_qr_scan"}, "bike_id": "66e0535965be3ae30f63930c3ccfcc0e", "lon": -77.02220266666667}, {"is_reserved": 0, "fusion_lon": 0.0, "fusion_lat": 0.0, "name": "4617048384d597405f8a6fee5ef5254b", "type": "electric_scooter", "is_disabled": 0, "lat": 38.877211, "rental_uris": {"android": "https://dc.lft.to/lastmile_qr_scan", "ios": "https://dc.lft.to/lastmile_qr_scan"}, "bike_id": "4617048384d597405f8a6fee5ef5254b", "lon": -77.0176595}, {"is_reserved": 0, "fusion_lon": 0.0, "fusion_lat": 0.0, "name": "7aad6df55977069b1b436ce560a27977", "type": "electric_scooter", "is_disabled": 0, "lat": 38.87393566666667, "rental_uris": {"android": "https://dc.lft.to/lastmile_qr_scan", "ios": "https://dc.lft.to/lastmile_qr_scan"}, "bike_id": "7aad6df55977069b1b436ce560a27977", "lon": -77.00042416666666}, {"is_reserved": 0, "fusion_lon": 0.0, "fusion_lat": 0.0, "name": "93cfdd39ac1cbe303bb90c0f658812dc", "type": "electric_scooter", "is_disabled": 0, "lat": 38.92221133333334, "rental_uris": {"android": "https://dc.lft.to/lastmile_qr_scan", "ios": "https://dc.lft.to/lastmile_qr_scan"}, "bike_id": "93cfdd39ac1cbe303bb90c0f658812dc", "lon": -77.04246133333334}, {"is_reserved": 0, "fusion_lon": 0.0, "fusion_lat": 0.0, "name": "b11a6e6dd0f844384f6d6b47ae6b7de6", "type": "electric_scooter", "is_disabled": 0, "lat": 38.904881, "rental_uris": {"android": "https://dc.lft.to/lastmile_qr_scan", "ios": "https://dc.lft.to/lastmile_qr_scan"}, "bike_id": "b11a6e6dd0f844384f6d6b47ae6b7de6", "lon": -76.97422916666666}, {"is_reserved": 0, "fusion_lon": 0.0, "fusion_lat": 0.0, "name": "fd67bd0aeb21df1f4268a701b2adf433", "type": "electric_bike", "is_disabled": 0, "lat": 38.896142833333336, "rental_uris": {"android": "https://dc.lft.to/lastmile_qr_scan", "ios": "https://dc.lft.to/lastmile_qr_scan"}, "bike_id": "fd67bd0aeb21df1f4268a701b2adf433", "lon": -76.90742983333334}, {"is_reserved": 0, "fusion_lon": 0.0, "fusion_lat": 0.0, "name": "ac3babf30b84227d009128bdfc990bbe", "type": "electric_scooter", "is_disabled": 0, "lat": 38.9025015, "rental_uris": {"android": "https://dc.lft.to/lastmile_qr_scan", "ios": "https://dc.lft.to/lastmile_qr_scan"}, "bike_id": "ac3babf30b84227d009128bdfc990bbe", "lon": -77.04280566666667}, {"is_reserved": 0, "fusion_lon": 0.0, "fusion_lat": 0.0, "name": "5bf93d816a495601acd0e02605517dc8", "type": "electric_scooter", "is_disabled": 0, "lat": 38.866675666666666, "rental_uris": {"android": "https://dc.lft.to/lastmile_qr_scan", "ios": "https://dc.lft.to/lastmile_qr_scan"}, "bike_id": "5bf93d816a495601acd0e02605517dc8", "lon": -76.9852465}, {"is_reserved": 0, "fusion_lon": 0.0, "fusion_lat": 0.0, "name": "bfb24ca5eb3044cc17ed1a1e39d77180", "type": "electric_scooter", "is_disabled": 0, "lat": 38.9038365, "rental_uris": {"android": "https://dc.lft.to/lastmile_qr_scan", "ios": "https://dc.lft.to/lastmile_qr_scan"}, "bike_id": "bfb24ca5eb3044cc17ed1a1e39d77180", "lon": -77.0301825}, {"is_reserved": 0, "fusion_lon": 0.0, "fusion_lat": 0.0, "name": "d5d7a7b1581391ed996e0342a9a0f708", "type": "electric_scooter", "is_disabled": 0, "lat": 38.897284166666665, "rental_uris": {"android": "https://dc.lft.to/lastmile_qr_scan", "ios": "https://dc.lft.to/lastmile_qr_scan"}, "bike_id": "d5d7a7b1581391ed996e0342a9a0f708", "lon": -77.05577083333333}, {"is_reserved": 0, "fusion_lon": 0.0, "fusion_lat": 0.0, "name": "c7c21f26d7048ac55bd98f618fb448d4", "type": "electric_scooter", "is_disabled": 0, "lat": 38.89746483333333, "rental_uris": {"android": "https://dc.lft.to/lastmile_qr_scan", "ios": "https://dc.lft.to/lastmile_qr_scan"}, "bike_id": "c7c21f26d7048ac55bd98f618fb448d4", "lon": -77.033524}, {"is_reserved": 0, "fusion_lon": 0.0, "fusion_lat": 0.0, "name": "a6d40d857744743d399a10ee2597c5b7", "type": "electric_scooter", "is_disabled": 0, "lat": 38.93320633333333, "rental_uris": {"android": "https://dc.lft.to/lastmile_qr_scan", "ios": "https://dc.lft.to/lastmile_qr_scan"}, "bike_id": "a6d40d857744743d399a10ee2597c5b7", "lon": -77.03422116666667}, {"is_reserved": 0, "fusion_lon": 0.0, "fusion_lat": 0.0, "name": "fd8b2e8bfa4b5cbc2823d97a24919342", "type": "electric_scooter", "is_disabled": 0, "lat": 38.918280333333335, "rental_uris": {"android": "https://dc.lft.to/lastmile_qr_scan", "ios": "https://dc.lft.to/lastmile_qr_scan"}, "bike_id": "fd8b2e8bfa4b5cbc2823d97a24919342", "lon": -77.03455866666667}, {"is_reserved": 0, "fusion_lon": 0.0, "fusion_lat": 0.0, "name": "45c6f4e66c8703fe21997494e7f1f589", "type": "electric_scooter", "is_disabled": 0, "lat": 38.88461233333334, "rental_uris": {"android": "https://dc.lft.to/lastmile_qr_scan", "ios": "https://dc.lft.to/lastmile_qr_scan"}, "bike_id": "45c6f4e66c8703fe21997494e7f1f589", "lon": -76.926213}, {"is_reserved": 0, "fusion_lon": 0.0, "fusion_lat": 0.0, "name": "01e14e7d9358515c36173b6422be9dfa", "type": "electric_scooter", "is_disabled": 0, "lat": 38.90537066666667, "rental_uris": {"android": "https://dc.lft.to/lastmile_qr_scan", "ios": "https://dc.lft.to/lastmile_qr_scan"}, "bike_id": "01e14e7d9358515c36173b6422be9dfa", "lon": -77.05076933333333}, {"is_reserved": 0, "fusion_lon": 0.0, "fusion_lat": 0.0, "name": "36f134d1bdeb8951ffe8d47d4e40f87f", "type": "electric_scooter", "is_disabled": 0, "lat": 38.876626333333334, "rental_uris": {"android": "https://dc.lft.to/lastmile_qr_scan", "ios": "https://dc.lft.to/lastmile_qr_scan"}, "bike_id": "36f134d1bdeb8951ffe8d47d4e40f87f", "lon": -77.01575833333334}, {"is_reserved": 0, "fusion_lon": 0.0, "fusion_lat": 0.0, "name": "ac8ab7bc2e94ca560da763f5c422fa63", "type": "electric_bike", "is_disabled": 0, "lat": 38.96231616666667, "rental_uris": {"android": "https://dc.lft.to/lastmile_qr_scan", "ios": "https://dc.lft.to/lastmile_qr_scan"}, "bike_id": "ac8ab7bc2e94ca560da763f5c422fa63", "lon": -77.02630233333333}, {"is_reserved": 0, "fusion_lon": 0.0, "fusion_lat": 0.0, "name": "affd55517b722495ffb8b85171c11666", "type": "electric_scooter", "is_disabled": 0, "lat": 38.91693466666667, "rental_uris": {"android": "https://dc.lft.to/lastmile_qr_scan", "ios": "https://dc.lft.to/lastmile_qr_scan"}, "bike_id": "affd55517b722495ffb8b85171c11666", "lon": -77.03179816666666}, {"is_reserved": 0, "fusion_lon": 0.0, "fusion_lat": 0.0, "name": "3ef1e9ff545eb4cc066bd2191e39b06a", "type": "electric_scooter", "is_disabled": 0, "lat": 38.886111166666666, "rental_uris": {"android": "https://dc.lft.to/lastmile_qr_scan", "ios": "https://dc.lft.to/lastmile_qr_scan"}, "bike_id": "3ef1e9ff545eb4cc066bd2191e39b06a", "lon": -76.99511566666666}, {"is_reserved": 0, "fusion_lon": 0.0, "fusion_lat": 0.0, "name": "01497c37dc32f9cda6df58c227455cea", "type": "electric_scooter", "is_disabled": 0, "lat": 38.885238666666666, "rental_uris": {"android": "https://dc.lft.to/lastmile_qr_scan", "ios": "https://dc.lft.to/lastmile_qr_scan"}, "bike_id": "01497c37dc32f9cda6df58c227455cea", "lon": -76.99615866666667}, {"is_reserved": 0, "fusion_lon": 0.0, "fusion_lat": 0.0, "name": "c19860efd139a4730bc68d2b775353b7", "type": "electric_scooter", "is_disabled": 0, "lat": 38.915585666666665, "rental_uris": {"android": "https://dc.lft.to/lastmile_qr_scan", "ios": "https://dc.lft.to/lastmile_qr_scan"}, "bike_id": "c19860efd139a4730bc68d2b775353b7", "lon": -77.03771616666667}, {"is_reserved": 0, "fusion_lon": 0.0, "fusion_lat": 0.0, "name": "3da440bc753a12cc0db866bc1e6a76f4", "type": "electric_scooter", "is_disabled": 0, "lat": 38.924578833333335, "rental_uris": {"android": "https://dc.lft.to/lastmile_qr_scan", "ios": "https://dc.lft.to/lastmile_qr_scan"}, "bike_id": "3da440bc753a12cc0db866bc1e6a76f4", "lon": -77.03233833333333}, {"is_reserved": 0, "fusion_lon": 0.0, "fusion_lat": 0.0, "name": "44c011dee5cfaecdd741f5a3e516bba7", "type": "electric_scooter", "is_disabled": 0, "lat": 38.911048666666666, "rental_uris": {"android": "https://dc.lft.to/lastmile_qr_scan", "ios": "https://dc.lft.to/lastmile_qr_scan"}, "bike_id": "44c011dee5cfaecdd741f5a3e516bba7", "lon": -77.04460616666667}, {"is_reserved": 0, "fusion_lon": 0.0, "fusion_lat": 0.0, "name": "176b1c9a606c1156a60eab5a954d1fb3", "type": "electric_scooter", "is_disabled": 0, "lat": 38.927497333333335, "rental_uris": {"android": "https://dc.lft.to/lastmile_qr_scan", "ios": "https://dc.lft.to/lastmile_qr_scan"}, "bike_id": "176b1c9a606c1156a60eab5a954d1fb3", "lon": -77.02965616666667}, {"is_reserved": 0, "fusion_lon": 0.0, "fusion_lat": 0.0, "name": "4186080ccf82546e1d5e94f64f5669ec", "type": "electric_bike", "is_disabled": 0, "lat": 38.81203683333333, "rental_uris": {"android": "https://dc.lft.to/lastmile_qr_scan", "ios": "https://dc.lft.to/lastmile_qr_scan"}, "bike_id": "4186080ccf82546e1d5e94f64f5669ec", "lon": -77.108318}, {"is_reserved": 0, "fusion_lon": 0.0, "fusion_lat": 0.0, "name": "9d32ff0b206f7fac8e6f9a0fa88e035b", "type": "electric_scooter", "is_disabled": 0, "lat": 38.91685316666667, "rental_uris": {"android": "https://dc.lft.to/lastmile_qr_scan", "ios": "https://dc.lft.to/lastmile_qr_scan"}, "bike_id": "9d32ff0b206f7fac8e6f9a0fa88e035b", "lon": -77.0252185}, {"is_reserved": 0, "fusion_lon": 0.0, "fusion_lat": 0.0, "name": "b4117f834150409c4cb748226ce53d16", "type": "electric_scooter", "is_disabled": 0, "lat": 38.87161566666666, "rental_uris": {"android": "https://dc.lft.to/lastmile_qr_scan", "ios": "https://dc.lft.to/lastmile_qr_scan"}, "bike_id": "b4117f834150409c4cb748226ce53d16", "lon": -77.01355116666667}, {"is_reserved": 0, "fusion_lon": 0.0, "fusion_lat": 0.0, "name": "ab91721339c90a2187a2adafda684c96", "type": "electric_bike", "is_disabled": 0, "lat": 38.959536666666665, "rental_uris": {"android": "https://dc.lft.to/lastmile_qr_scan", "ios": "https://dc.lft.to/lastmile_qr_scan"}, "bike_id": "ab91721339c90a2187a2adafda684c96", "lon": -77.100923}, {"is_reserved": 0, "fusion_lon": 0.0, "fusion_lat": 0.0, "name": "b611a843d78b7777713d5a771d0be724", "type": "electric_bike", "is_disabled": 0, "lat": 38.938698333333335, "rental_uris": {"android": "https://dc.lft.to/lastmile_qr_scan", "ios": "https://dc.lft.to/lastmile_qr_scan"}, "bike_id": "b611a843d78b7777713d5a771d0be724", "lon": -76.94291633333333}, {"is_reserved": 0, "fusion_lon": 0.0, "fusion_lat": 0.0, "name": "512f5e7c371c97632b1d55e2b082ce79", "type": "electric_scooter", "is_disabled": 0, "lat": 38.9214105, "rental_uris": {"android": "https://dc.lft.to/lastmile_qr_scan", "ios": "https://dc.lft.to/lastmile_qr_scan"}, "bike_id": "512f5e7c371c97632b1d55e2b082ce79", "lon": -77.02874883333334}, {"is_reserved": 0, "fusion_lon": 0.0, "fusion_lat": 0.0, "name": "11891159c917745bb74300cc5d6f20df", "type": "electric_scooter", "is_disabled": 0, "lat": 38.9168785, "rental_uris": {"android": "https://dc.lft.to/lastmile_qr_scan", "ios": "https://dc.lft.to/lastmile_qr_scan"}, "bike_id": "11891159c917745bb74300cc5d6f20df", "lon": -77.030346}, {"is_reserved": 0, "fusion_lon": 0.0, "fusion_lat": 0.0, "name": "1a02cbb06738d9fab22f47020cafc6af", "type": "electric_scooter", "is_disabled": 0, "lat": 38.866577, "rental_uris": {"android": "https://dc.lft.to/lastmile_qr_scan", "ios": "https://dc.lft.to/lastmile_qr_scan"}, "bike_id": "1a02cbb06738d9fab22f47020cafc6af", "lon": -76.98530516666666}, {"is_reserved": 0, "fusion_lon": 0.0, "fusion_lat": 0.0, "name": "355839e38e7a68080e9d8b05e12f694c", "type": "electric_scooter", "is_disabled": 0, "lat": 38.90002533333333, "rental_uris": {"android": "https://dc.lft.to/lastmile_qr_scan", "ios": "https://dc.lft.to/lastmile_qr_scan"}, "bike_id": "355839e38e7a68080e9d8b05e12f694c", "lon": -77.03175366666666}, {"is_reserved": 0, "fusion_lon": 0.0, "fusion_lat": 0.0, "name": "dc896dfaf2afcce36a01a102f03c2800", "type": "electric_scooter", "is_disabled": 0, "lat": 38.9045585, "rental_uris": {"android": "https://dc.lft.to/lastmile_qr_scan", "ios": "https://dc.lft.to/lastmile_qr_scan"}, "bike_id": "dc896dfaf2afcce36a01a102f03c2800", "lon": -77.04791733333333}, {"is_reserved": 0, "fusion_lon": 0.0, "fusion_lat": 0.0, "name": "182f318fc024c2e40f9d63e1888041f6", "type": "electric_scooter", "is_disabled": 0, "lat": 38.92224383333333, "rental_uris": {"android": "https://dc.lft.to/lastmile_qr_scan", "ios": "https://dc.lft.to/lastmile_qr_scan"}, "bike_id": "182f318fc024c2e40f9d63e1888041f6", "lon": -77.042441}, {"is_reserved": 0, "fusion_lon": 0.0, "fusion_lat": 0.0, "name": "29d6a58fa767e02c4e54327e6a689d1b", "type": "electric_bike", "is_disabled": 0, "lat": 38.9934455, "rental_uris": {"android": "https://dc.lft.to/lastmile_qr_scan", "ios": "https://dc.lft.to/lastmile_qr_scan"}, "bike_id": "29d6a58fa767e02c4e54327e6a689d1b", "lon": -77.11580183333334}, {"is_reserved": 0, "fusion_lon": 0.0, "fusion_lat": 0.0, "name": "aa074979ba0dc844b007b5479653baff", "type": "electric_bike", "is_disabled": 0, "lat": 38.84554983333334, "rental_uris": {"android": "https://dc.lft.to/lastmile_qr_scan", "ios": "https://dc.lft.to/lastmile_qr_scan"}, "bike_id": "aa074979ba0dc844b007b5479653baff", "lon": -77.06692733333334}, {"is_reserved": 0, "fusion_lon": 0.0, "fusion_lat": 0.0, "name": "de8196ef63317aabe57390b6dc8d4934", "type": "electric_scooter", "is_disabled": 0, "lat": 38.930203166666665, "rental_uris": {"android": "https://dc.lft.to/lastmile_qr_scan", "ios": "https://dc.lft.to/lastmile_qr_scan"}, "bike_id": "de8196ef63317aabe57390b6dc8d4934", "lon": -77.05521666666667}, {"is_reserved": 0, "fusion_lon": 0.0, "fusion_lat": 0.0, "name": "11ccfc8c8e235f4a70c874903abd37c0", "type": "electric_scooter", "is_disabled": 0, "lat": 38.91717833333333, "rental_uris": {"android": "https://dc.lft.to/lastmile_qr_scan", "ios": "https://dc.lft.to/lastmile_qr_scan"}, "bike_id": "11ccfc8c8e235f4a70c874903abd37c0", "lon": -77.03659583333334}, {"is_reserved": 0, "fusion_lon": 0.0, "fusion_lat": 0.0, "name": "b8d624d4ed43edafa9406d8df0272ec0", "type": "electric_scooter", "is_disabled": 0, "lat": 38.93095783333333, "rental_uris": {"android": "https://dc.lft.to/lastmile_qr_scan", "ios": "https://dc.lft.to/lastmile_qr_scan"}, "bike_id": "b8d624d4ed43edafa9406d8df0272ec0", "lon": -77.02796666666667}, {"is_reserved": 0, "fusion_lon": 0.0, "fusion_lat": 0.0, "name": "15e81a37bef15021db45870a3419b444", "type": "electric_scooter", "is_disabled": 0, "lat": 38.9063925, "rental_uris": {"android": "https://dc.lft.to/lastmile_qr_scan", "ios": "https://dc.lft.to/lastmile_qr_scan"}, "bike_id": "15e81a37bef15021db45870a3419b444", "lon": -77.06897866666667}, {"is_reserved": 0, "fusion_lon": 0.0, "fusion_lat": 0.0, "name": "ed6143e11608e7fca66a44efe095552c", "type": "electric_scooter", "is_disabled": 0, "lat": 38.95494333333333, "rental_uris": {"android": "https://dc.lft.to/lastmile_qr_scan", "ios": "https://dc.lft.to/lastmile_qr_scan"}, "bike_id": "ed6143e11608e7fca66a44efe095552c", "lon": -77.02963733333333}, {"is_reserved": 0, "fusion_lon": 0.0, "fusion_lat": 0.0, "name": "d39df9ea276470846b8d42cfa3379095", "type": "electric_scooter", "is_disabled": 0, "lat": 38.900616166666666, "rental_uris": {"android": "https://dc.lft.to/lastmile_qr_scan", "ios": "https://dc.lft.to/lastmile_qr_scan"}, "bike_id": "d39df9ea276470846b8d42cfa3379095", "lon": -77.04533983333333}, {"is_reserved": 0, "fusion_lon": 0.0, "fusion_lat": 0.0, "name": "dbc22bc7f5507e04eaf235ca2e47d920", "type": "electric_scooter", "is_disabled": 0, "lat": 38.926083, "rental_uris": {"android": "https://dc.lft.to/lastmile_qr_scan", "ios": "https://dc.lft.to/lastmile_qr_scan"}, "bike_id": "dbc22bc7f5507e04eaf235ca2e47d920", "lon": -77.02170566666666}, {"is_reserved": 0, "fusion_lon": 0.0, "fusion_lat": 0.0, "name": "bd109d856fe9aed37b2bba8867f365f8", "type": "electric_scooter", "is_disabled": 0, "lat": 38.92873383333333, "rental_uris": {"android": "https://dc.lft.to/lastmile_qr_scan", "ios": "https://dc.lft.to/lastmile_qr_scan"}, "bike_id": "bd109d856fe9aed37b2bba8867f365f8", "lon": -77.03333933333333}, {"is_reserved": 0, "fusion_lon": 0.0, "fusion_lat": 0.0, "name": "455cd185088723ae4dd9c5d82f8ed1f9", "type": "electric_scooter", "is_disabled": 0, "lat": 38.9044845, "rental_uris": {"android": "https://dc.lft.to/lastmile_qr_scan", "ios": "https://dc.lft.to/lastmile_qr_scan"}, "bike_id": "455cd185088723ae4dd9c5d82f8ed1f9", "lon": -77.04335416666666}, {"is_reserved": 0, "fusion_lon": 0.0, "fusion_lat": 0.0, "name": "9714af9f97d75842355cab8b5aef4ea2", "type": "electric_scooter", "is_disabled": 0, "lat": 38.916939166666666, "rental_uris": {"android": "https://dc.lft.to/lastmile_qr_scan", "ios": "https://dc.lft.to/lastmile_qr_scan"}, "bike_id": "9714af9f97d75842355cab8b5aef4ea2", "lon": -77.03310683333333}, {"is_reserved": 0, "fusion_lon": 0.0, "fusion_lat": 0.0, "name": "18cd9fc861bdae24a9143e8d7995694d", "type": "electric_scooter", "is_disabled": 0, "lat": 38.92671466666667, "rental_uris": {"android": "https://dc.lft.to/lastmile_qr_scan", "ios": "https://dc.lft.to/lastmile_qr_scan"}, "bike_id": "18cd9fc861bdae24a9143e8d7995694d", "lon": -77.01511866666667}, {"is_reserved": 0, "fusion_lon": 0.0, "fusion_lat": 0.0, "name": "6293b59da42aa27128fbeae6b25f0d79", "type": "electric_scooter", "is_disabled": 0, "lat": 38.92749833333333, "rental_uris": {"android": "https://dc.lft.to/lastmile_qr_scan", "ios": "https://dc.lft.to/lastmile_qr_scan"}, "bike_id": "6293b59da42aa27128fbeae6b25f0d79", "lon": -77.02153416666667}, {"is_reserved": 0, "fusion_lon": 0.0, "fusion_lat": 0.0, "name": "5f5f74c8da63bef5cc0c7184bc990a7b", "type": "electric_scooter", "is_disabled": 0, "lat": 38.92120083333333, "rental_uris": {"android": "https://dc.lft.to/lastmile_qr_scan", "ios": "https://dc.lft.to/lastmile_qr_scan"}, "bike_id": "5f5f74c8da63bef5cc0c7184bc990a7b", "lon": -77.04377816666667}, {"is_reserved": 0, "fusion_lon": 0.0, "fusion_lat": 0.0, "name": "a79479c5c2fd82484bc1ed5fe3fe62c5", "type": "electric_scooter", "is_disabled": 0, "lat": 38.90603816666667, "rental_uris": {"android": "https://dc.lft.to/lastmile_qr_scan", "ios": "https://dc.lft.to/lastmile_qr_scan"}, "bike_id": "a79479c5c2fd82484bc1ed5fe3fe62c5", "lon": -77.01619266666667}, {"is_reserved": 0, "fusion_lon": 0.0, "fusion_lat": 0.0, "name": "904cd3cfd6cdf90b800638213137e715", "type": "electric_scooter", "is_disabled": 0, "lat": 38.92046583333333, "rental_uris": {"android": "https://dc.lft.to/lastmile_qr_scan", "ios": "https://dc.lft.to/lastmile_qr_scan"}, "bike_id": "904cd3cfd6cdf90b800638213137e715", "lon": -76.98951933333333}, {"is_reserved": 0, "fusion_lon": 0.0, "fusion_lat": 0.0, "name": "bc1912b90311abc2440459cd9553dc01", "type": "electric_scooter", "is_disabled": 0, "lat": 38.90040333333334, "rental_uris": {"android": "https://dc.lft.to/lastmile_qr_scan", "ios": "https://dc.lft.to/lastmile_qr_scan"}, "bike_id": "bc1912b90311abc2440459cd9553dc01", "lon": -77.03951966666666}, {"is_reserved": 0, "fusion_lon": 0.0, "fusion_lat": 0.0, "name": "74989372084be6b872b8f8828e859049", "type": "electric_scooter", "is_disabled": 0, "lat": 38.92648716666667, "rental_uris": {"android": "https://dc.lft.to/lastmile_qr_scan", "ios": "https://dc.lft.to/lastmile_qr_scan"}, "bike_id": "74989372084be6b872b8f8828e859049", "lon": -77.02501666666667}, {"is_reserved": 0, "fusion_lon": 0.0, "fusion_lat": 0.0, "name": "76015db3b970e764e2160e56ec26e1ce", "type": "electric_scooter", "is_disabled": 0, "lat": 38.88044466666667, "rental_uris": {"android": "https://dc.lft.to/lastmile_qr_scan", "ios": "https://dc.lft.to/lastmile_qr_scan"}, "bike_id": "76015db3b970e764e2160e56ec26e1ce", "lon": -76.986302}, {"is_reserved": 0, "fusion_lon": 0.0, "fusion_lat": 0.0, "name": "3853bfc330779e2020a0780d0ef5a544", "type": "electric_scooter", "is_disabled": 0, "lat": 38.93608533333333, "rental_uris": {"android": "https://dc.lft.to/lastmile_qr_scan", "ios": "https://dc.lft.to/lastmile_qr_scan"}, "bike_id": "3853bfc330779e2020a0780d0ef5a544", "lon": -77.03799016666666}, {"is_reserved": 0, "fusion_lon": 0.0, "fusion_lat": 0.0, "name": "5eed3dfb71c48e474c2325b8beb220aa", "type": "electric_bike", "is_disabled": 0, "lat": 38.945607833333334, "rental_uris": {"android": "https://dc.lft.to/lastmile_qr_scan", "ios": "https://dc.lft.to/lastmile_qr_scan"}, "bike_id": "5eed3dfb71c48e474c2325b8beb220aa", "lon": -76.96690083333333}, {"is_reserved": 0, "fusion_lon": 0.0, "fusion_lat": 0.0, "name": "9927ea37555a8217887cb3a58ad96045", "type": "electric_scooter", "is_disabled": 0, "lat": 38.92272066666666, "rental_uris": {"android": "https://dc.lft.to/lastmile_qr_scan", "ios": "https://dc.lft.to/lastmile_qr_scan"}, "bike_id": "9927ea37555a8217887cb3a58ad96045", "lon": -77.03223466666667}, {"is_reserved": 0, "fusion_lon": 0.0, "fusion_lat": 0.0, "name": "6fa50c326e9e62e0f42b6f8ec5dc7b7d", "type": "electric_bike", "is_disabled": 0, "lat": 38.829546666666666, "rental_uris": {"android": "https://dc.lft.to/lastmile_qr_scan", "ios": "https://dc.lft.to/lastmile_qr_scan"}, "bike_id": "6fa50c326e9e62e0f42b6f8ec5dc7b7d", "lon": -77.12354416666666}, {"is_reserved": 0, "fusion_lon": 0.0, "fusion_lat": 0.0, "name": "e4954403c1bb896623d99b91bc12b22c", "type": "electric_scooter", "is_disabled": 0, "lat": 38.918154, "rental_uris": {"android": "https://dc.lft.to/lastmile_qr_scan", "ios": "https://dc.lft.to/lastmile_qr_scan"}, "bike_id": "e4954403c1bb896623d99b91bc12b22c", "lon": -77.0344805}, {"is_reserved": 0, "fusion_lon": 0.0, "fusion_lat": 0.0, "name": "619ab724bbe0e0f63a26f237ac2c2445", "type": "electric_scooter", "is_disabled": 0, "lat": 38.920699, "rental_uris": {"android": "https://dc.lft.to/lastmile_qr_scan", "ios": "https://dc.lft.to/lastmile_qr_scan"}, "bike_id": "619ab724bbe0e0f63a26f237ac2c2445", "lon": -77.043778}, {"is_reserved": 0, "fusion_lon": 0.0, "fusion_lat": 0.0, "name": "ceb7b9adfee6dabd67c4db5db26a3c64", "type": "electric_scooter", "is_disabled": 0, "lat": 38.92910416666667, "rental_uris": {"android": "https://dc.lft.to/lastmile_qr_scan", "ios": "https://dc.lft.to/lastmile_qr_scan"}, "bike_id": "ceb7b9adfee6dabd67c4db5db26a3c64", "lon": -77.03250383333334}, {"is_reserved": 0, "fusion_lon": 0.0, "fusion_lat": 0.0, "name": "f03da29c642bf4872b175c6f46063c77", "type": "electric_scooter", "is_disabled": 0, "lat": 38.918238833333334, "rental_uris": {"android": "https://dc.lft.to/lastmile_qr_scan", "ios": "https://dc.lft.to/lastmile_qr_scan"}, "bike_id": "f03da29c642bf4872b175c6f46063c77", "lon": -77.034583}, {"is_reserved": 0, "fusion_lon": 0.0, "fusion_lat": 0.0, "name": "7f9817f9ebe6f1b0c22b54c5042f80d1", "type": "electric_scooter", "is_disabled": 0, "lat": 38.9365515, "rental_uris": {"android": "https://dc.lft.to/lastmile_qr_scan", "ios": "https://dc.lft.to/lastmile_qr_scan"}, "bike_id": "7f9817f9ebe6f1b0c22b54c5042f80d1", "lon": -77.036764}, {"is_reserved": 0, "fusion_lon": 0.0, "fusion_lat": 0.0, "name": "d04bdf2deae387c5c7f1850c047f76be", "type": "electric_scooter", "is_disabled": 0, "lat": 38.900131, "rental_uris": {"android": "https://dc.lft.to/lastmile_qr_scan", "ios": "https://dc.lft.to/lastmile_qr_scan"}, "bike_id": "d04bdf2deae387c5c7f1850c047f76be", "lon": -76.93029933333334}, {"is_reserved": 0, "fusion_lon": 0.0, "fusion_lat": 0.0, "name": "78a5aef92bb1063ff303aa7de54fff4d", "type": "electric_scooter", "is_disabled": 0, "lat": 38.89233383333333, "rental_uris": {"android": "https://dc.lft.to/lastmile_qr_scan", "ios": "https://dc.lft.to/lastmile_qr_scan"}, "bike_id": "78a5aef92bb1063ff303aa7de54fff4d", "lon": -77.0238195}, {"is_reserved": 0, "fusion_lon": 0.0, "fusion_lat": 0.0, "name": "11886b1bdeacf63307c0ca7307ed884f", "type": "electric_scooter", "is_disabled": 0, "lat": 38.925352833333335, "rental_uris": {"android": "https://dc.lft.to/lastmile_qr_scan", "ios": "https://dc.lft.to/lastmile_qr_scan"}, "bike_id": "11886b1bdeacf63307c0ca7307ed884f", "lon": -76.97217216666667}, {"is_reserved": 0, "fusion_lon": 0.0, "fusion_lat": 0.0, "name": "9f17868425a71d898c42498e012dcdd4", "type": "electric_scooter", "is_disabled": 0, "lat": 38.86697216666666, "rental_uris": {"android": "https://dc.lft.to/lastmile_qr_scan", "ios": "https://dc.lft.to/lastmile_qr_scan"}, "bike_id": "9f17868425a71d898c42498e012dcdd4", "lon": -76.98598266666667}, {"is_reserved": 0, "fusion_lon": 0.0, "fusion_lat": 0.0, "name": "492c20e39789d2a89eb977f21f8f2d31", "type": "electric_scooter", "is_disabled": 0, "lat": 38.92848433333333, "rental_uris": {"android": "https://dc.lft.to/lastmile_qr_scan", "ios": "https://dc.lft.to/lastmile_qr_scan"}, "bike_id": "492c20e39789d2a89eb977f21f8f2d31", "lon": -77.03734216666666}, {"is_reserved": 0, "fusion_lon": 0.0, "fusion_lat": 0.0, "name": "a770d974ad96fbbc0eddaed4801073d1", "type": "electric_scooter", "is_disabled": 0, "lat": 38.91192733333333, "rental_uris": {"android": "https://dc.lft.to/lastmile_qr_scan", "ios": "https://dc.lft.to/lastmile_qr_scan"}, "bike_id": "a770d974ad96fbbc0eddaed4801073d1", "lon": -77.03218966666667}, {"is_reserved": 0, "fusion_lon": 0.0, "fusion_lat": 0.0, "name": "e0dbbaf97424e549c4d7f23a26203804", "type": "electric_scooter", "is_disabled": 0, "lat": 38.90805366666667, "rental_uris": {"android": "https://dc.lft.to/lastmile_qr_scan", "ios": "https://dc.lft.to/lastmile_qr_scan"}, "bike_id": "e0dbbaf97424e549c4d7f23a26203804", "lon": -77.034608}, {"is_reserved": 0, "fusion_lon": 0.0, "fusion_lat": 0.0, "name": "76115d1af84f7252437613b9007a9b60", "type": "electric_bike", "is_disabled": 0, "lat": 38.96829683333333, "rental_uris": {"android": "https://dc.lft.to/lastmile_qr_scan", "ios": "https://dc.lft.to/lastmile_qr_scan"}, "bike_id": "76115d1af84f7252437613b9007a9b60", "lon": -77.00068666666667}, {"is_reserved": 0, "fusion_lon": 0.0, "fusion_lat": 0.0, "name": "88fb73f70d96bd83f374fba2f256bd6a", "type": "electric_scooter", "is_disabled": 0, "lat": 38.91050333333333, "rental_uris": {"android": "https://dc.lft.to/lastmile_qr_scan", "ios": "https://dc.lft.to/lastmile_qr_scan"}, "bike_id": "88fb73f70d96bd83f374fba2f256bd6a", "lon": -77.0318975}, {"is_reserved": 0, "fusion_lon": 0.0, "fusion_lat": 0.0, "name": "dfae323f1e8da8549019662bf7d17341", "type": "electric_scooter", "is_disabled": 0, "lat": 38.905274, "rental_uris": {"android": "https://dc.lft.to/lastmile_qr_scan", "ios": "https://dc.lft.to/lastmile_qr_scan"}, "bike_id": "dfae323f1e8da8549019662bf7d17341", "lon": -77.061882}, {"is_reserved": 0, "fusion_lon": 0.0, "fusion_lat": 0.0, "name": "bf572b007088b04945251ca72dc9c590", "type": "electric_scooter", "is_disabled": 0, "lat": 38.892363333333336, "rental_uris": {"android": "https://dc.lft.to/lastmile_qr_scan", "ios": "https://dc.lft.to/lastmile_qr_scan"}, "bike_id": "bf572b007088b04945251ca72dc9c590", "lon": -77.03210116666666}, {"is_reserved": 0, "fusion_lon": 0.0, "fusion_lat": 0.0, "name": "3a4518beed44f9f0aec40e08f2ee1c2a", "type": "electric_scooter", "is_disabled": 0, "lat": 38.900258, "rental_uris": {"android": "https://dc.lft.to/lastmile_qr_scan", "ios": "https://dc.lft.to/lastmile_qr_scan"}, "bike_id": "3a4518beed44f9f0aec40e08f2ee1c2a", "lon": -76.98441633333333}, {"is_reserved": 0, "fusion_lon": 0.0, "fusion_lat": 0.0, "name": "635dce33553310e3806d73a3bf2865a4", "type": "electric_scooter", "is_disabled": 0, "lat": 38.915545, "rental_uris": {"android": "https://dc.lft.to/lastmile_qr_scan", "ios": "https://dc.lft.to/lastmile_qr_scan"}, "bike_id": "635dce33553310e3806d73a3bf2865a4", "lon": -77.0036615}, {"is_reserved": 0, "fusion_lon": 0.0, "fusion_lat": 0.0, "name": "7f3d00801fcc51ef2d3a643556c4996f", "type": "electric_scooter", "is_disabled": 0, "lat": 38.914222, "rental_uris": {"android": "https://dc.lft.to/lastmile_qr_scan", "ios": "https://dc.lft.to/lastmile_qr_scan"}, "bike_id": "7f3d00801fcc51ef2d3a643556c4996f", "lon": -77.04156983333333}, {"is_reserved": 0, "fusion_lon": 0.0, "fusion_lat": 0.0, "name": "9876d59957d1bc74a02e02b76614bc96", "type": "electric_scooter", "is_disabled": 0, "lat": 38.89746366666667, "rental_uris": {"android": "https://dc.lft.to/lastmile_qr_scan", "ios": "https://dc.lft.to/lastmile_qr_scan"}, "bike_id": "9876d59957d1bc74a02e02b76614bc96", "lon": -77.03348116666666}, {"is_reserved": 0, "fusion_lon": 0.0, "fusion_lat": 0.0, "name": "09fd7c349230e17d05d9939018c2a10d", "type": "electric_scooter", "is_disabled": 0, "lat": 38.89903433333333, "rental_uris": {"android": "https://dc.lft.to/lastmile_qr_scan", "ios": "https://dc.lft.to/lastmile_qr_scan"}, "bike_id": "09fd7c349230e17d05d9939018c2a10d", "lon": -77.0327985}, {"is_reserved": 0, "fusion_lon": 0.0, "fusion_lat": 0.0, "name": "762aa20ff61fb5968da91f70e7a0ba8c", "type": "electric_scooter", "is_disabled": 0, "lat": 38.942000666666665, "rental_uris": {"android": "https://dc.lft.to/lastmile_qr_scan", "ios": "https://dc.lft.to/lastmile_qr_scan"}, "bike_id": "762aa20ff61fb5968da91f70e7a0ba8c", "lon": -77.0250425}, {"is_reserved": 0, "fusion_lon": 0.0, "fusion_lat": 0.0, "name": "bbc2757abd4eaffbb6f4d35b4f259f6f", "type": "electric_scooter", "is_disabled": 0, "lat": 38.911296166666666, "rental_uris": {"android": "https://dc.lft.to/lastmile_qr_scan", "ios": "https://dc.lft.to/lastmile_qr_scan"}, "bike_id": "bbc2757abd4eaffbb6f4d35b4f259f6f", "lon": -77.04418716666666}, {"is_reserved": 0, "fusion_lon": 0.0, "fusion_lat": 0.0, "name": "1e5063725800ee636b45372aef5b8fbb", "type": "electric_scooter", "is_disabled": 0, "lat": 38.9333745, "rental_uris": {"android": "https://dc.lft.to/lastmile_qr_scan", "ios": "https://dc.lft.to/lastmile_qr_scan"}, "bike_id": "1e5063725800ee636b45372aef5b8fbb", "lon": -77.02623083333333}, {"is_reserved": 0, "fusion_lon": 0.0, "fusion_lat": 0.0, "name": "ae7ed3cf213813cf23fce41b09086156", "type": "electric_bike", "is_disabled": 0, "lat": 38.92423566666667, "rental_uris": {"android": "https://dc.lft.to/lastmile_qr_scan", "ios": "https://dc.lft.to/lastmile_qr_scan"}, "bike_id": "ae7ed3cf213813cf23fce41b09086156", "lon": -77.05052716666667}, {"is_reserved": 0, "fusion_lon": 0.0, "fusion_lat": 0.0, "name": "1db4c59ec5fe9ef5c6a1dddba1fde3fc", "type": "electric_scooter", "is_disabled": 0, "lat": 38.90086466666666, "rental_uris": {"android": "https://dc.lft.to/lastmile_qr_scan", "ios": "https://dc.lft.to/lastmile_qr_scan"}, "bike_id": "1db4c59ec5fe9ef5c6a1dddba1fde3fc", "lon": -76.93028633333333}, {"is_reserved": 0, "fusion_lon": 0.0, "fusion_lat": 0.0, "name": "7fae0e63c6cbe547cc969590a6f58721", "type": "electric_scooter", "is_disabled": 0, "lat": 38.886184666666665, "rental_uris": {"android": "https://dc.lft.to/lastmile_qr_scan", "ios": "https://dc.lft.to/lastmile_qr_scan"}, "bike_id": "7fae0e63c6cbe547cc969590a6f58721", "lon": -77.01973433333333}, {"is_reserved": 0, "fusion_lon": 0.0, "fusion_lat": 0.0, "name": "79dc2ca66ad9e403988c4ba0ebad3eb7", "type": "electric_scooter", "is_disabled": 0, "lat": 38.891974166666664, "rental_uris": {"android": "https://dc.lft.to/lastmile_qr_scan", "ios": "https://dc.lft.to/lastmile_qr_scan"}, "bike_id": "79dc2ca66ad9e403988c4ba0ebad3eb7", "lon": -76.95700816666667}, {"is_reserved": 0, "fusion_lon": 0.0, "fusion_lat": 0.0, "name": "fc92d11e4cc12717377606340c6cc7e5", "type": "electric_scooter", "is_disabled": 0, "lat": 38.945020666666665, "rental_uris": {"android": "https://dc.lft.to/lastmile_qr_scan", "ios": "https://dc.lft.to/lastmile_qr_scan"}, "bike_id": "fc92d11e4cc12717377606340c6cc7e5", "lon": -77.034993}, {"is_reserved": 0, "fusion_lon": 0.0, "fusion_lat": 0.0, "name": "0da3d3ea080062b80a5dd588b3c3982c", "type": "electric_scooter", "is_disabled": 0, "lat": 38.916362, "rental_uris": {"android": "https://dc.lft.to/lastmile_qr_scan", "ios": "https://dc.lft.to/lastmile_qr_scan"}, "bike_id": "0da3d3ea080062b80a5dd588b3c3982c", "lon": -77.0295425}, {"is_reserved": 0, "fusion_lon": 0.0, "fusion_lat": 0.0, "name": "2b96f7de723f999dce11941a2cab4900", "type": "electric_scooter", "is_disabled": 0, "lat": 38.9251025, "rental_uris": {"android": "https://dc.lft.to/lastmile_qr_scan", "ios": "https://dc.lft.to/lastmile_qr_scan"}, "bike_id": "2b96f7de723f999dce11941a2cab4900", "lon": -77.002241}, {"is_reserved": 0, "fusion_lon": 0.0, "fusion_lat": 0.0, "name": "5dec3fc1b3eac89ab9808f11740d3573", "type": "electric_scooter", "is_disabled": 0, "lat": 38.878441333333335, "rental_uris": {"android": "https://dc.lft.to/lastmile_qr_scan", "ios": "https://dc.lft.to/lastmile_qr_scan"}, "bike_id": "5dec3fc1b3eac89ab9808f11740d3573", "lon": -77.019629}, {"is_reserved": 0, "fusion_lon": 0.0, "fusion_lat": 0.0, "name": "fbf6d386699c8c47478031d94b1e964c", "type": "electric_scooter", "is_disabled": 0, "lat": 38.901400333333335, "rental_uris": {"android": "https://dc.lft.to/lastmile_qr_scan", "ios": "https://dc.lft.to/lastmile_qr_scan"}, "bike_id": "fbf6d386699c8c47478031d94b1e964c", "lon": -77.00008883333334}, {"is_reserved": 0, "fusion_lon": 0.0, "fusion_lat": 0.0, "name": "306d919916157f2baae4c837864a6393", "type": "electric_scooter", "is_disabled": 0, "lat": 38.899116166666666, "rental_uris": {"android": "https://dc.lft.to/lastmile_qr_scan", "ios": "https://dc.lft.to/lastmile_qr_scan"}, "bike_id": "306d919916157f2baae4c837864a6393", "lon": -76.93372933333333}, {"is_reserved": 0, "fusion_lon": 0.0, "fusion_lat": 0.0, "name": "9d9e8aec61a2f2286d19677d5fe4ef5d", "type": "electric_scooter", "is_disabled": 0, "lat": 38.914722833333336, "rental_uris": {"android": "https://dc.lft.to/lastmile_qr_scan", "ios": "https://dc.lft.to/lastmile_qr_scan"}, "bike_id": "9d9e8aec61a2f2286d19677d5fe4ef5d", "lon": -77.03885066666666}, {"is_reserved": 0, "fusion_lon": 0.0, "fusion_lat": 0.0, "name": "cbbc93e4395a11a06ec60e92a8aba092", "type": "electric_scooter", "is_disabled": 0, "lat": 38.9171455, "rental_uris": {"android": "https://dc.lft.to/lastmile_qr_scan", "ios": "https://dc.lft.to/lastmile_qr_scan"}, "bike_id": "cbbc93e4395a11a06ec60e92a8aba092", "lon": -77.0088525}, {"is_reserved": 0, "fusion_lon": 0.0, "fusion_lat": 0.0, "name": "0dfe6c339dfe1c055aefd50ec944c412", "type": "electric_scooter", "is_disabled": 0, "lat": 38.917907166666666, "rental_uris": {"android": "https://dc.lft.to/lastmile_qr_scan", "ios": "https://dc.lft.to/lastmile_qr_scan"}, "bike_id": "0dfe6c339dfe1c055aefd50ec944c412", "lon": -77.024009}, {"is_reserved": 0, "fusion_lon": 0.0, "fusion_lat": 0.0, "name": "16cd0060b2a5bfa58587bea708ffc3d5", "type": "electric_scooter", "is_disabled": 0, "lat": 38.91531883333333, "rental_uris": {"android": "https://dc.lft.to/lastmile_qr_scan", "ios": "https://dc.lft.to/lastmile_qr_scan"}, "bike_id": "16cd0060b2a5bfa58587bea708ffc3d5", "lon": -77.03185583333334}, {"is_reserved": 0, "fusion_lon": 0.0, "fusion_lat": 0.0, "name": "1d6280e5a79468bfad9417986014f339", "type": "electric_scooter", "is_disabled": 0, "lat": 38.901558, "rental_uris": {"android": "https://dc.lft.to/lastmile_qr_scan", "ios": "https://dc.lft.to/lastmile_qr_scan"}, "bike_id": "1d6280e5a79468bfad9417986014f339", "lon": -76.9763065}, {"is_reserved": 0, "fusion_lon": 0.0, "fusion_lat": 0.0, "name": "e2bc34efb6fb33d3b20c6e98a8994c6d", "type": "electric_scooter", "is_disabled": 0, "lat": 38.931720166666665, "rental_uris": {"android": "https://dc.lft.to/lastmile_qr_scan", "ios": "https://dc.lft.to/lastmile_qr_scan"}, "bike_id": "e2bc34efb6fb33d3b20c6e98a8994c6d", "lon": -77.0281795}, {"is_reserved": 0, "fusion_lon": 0.0, "fusion_lat": 0.0, "name": "1b44c311ae0b34aa1c2148f77934eac3", "type": "electric_scooter", "is_disabled": 0, "lat": 38.917766666666665, "rental_uris": {"android": "https://dc.lft.to/lastmile_qr_scan", "ios": "https://dc.lft.to/lastmile_qr_scan"}, "bike_id": "1b44c311ae0b34aa1c2148f77934eac3", "lon": -77.04549966666667}, {"is_reserved": 0, "fusion_lon": 0.0, "fusion_lat": 0.0, "name": "c0889e953e3eb0fee5af2f370a28eb0d", "type": "electric_scooter", "is_disabled": 0, "lat": 38.927696833333336, "rental_uris": {"android": "https://dc.lft.to/lastmile_qr_scan", "ios": "https://dc.lft.to/lastmile_qr_scan"}, "bike_id": "c0889e953e3eb0fee5af2f370a28eb0d", "lon": -77.0206495}, {"is_reserved": 0, "fusion_lon": 0.0, "fusion_lat": 0.0, "name": "223285053af8efec1b2dd8c57b43b3db", "type": "electric_scooter", "is_disabled": 0, "lat": 38.897275666666665, "rental_uris": {"android": "https://dc.lft.to/lastmile_qr_scan", "ios": "https://dc.lft.to/lastmile_qr_scan"}, "bike_id": "223285053af8efec1b2dd8c57b43b3db", "lon": -77.04363166666667}, {"is_reserved": 0, "fusion_lon": 0.0, "fusion_lat": 0.0, "name": "f30c87b048850f8f35360514e85aaf4a", "type": "electric_scooter", "is_disabled": 0, "lat": 38.920501333333334, "rental_uris": {"android": "https://dc.lft.to/lastmile_qr_scan", "ios": "https://dc.lft.to/lastmile_qr_scan"}, "bike_id": "f30c87b048850f8f35360514e85aaf4a", "lon": -77.01735133333334}, {"is_reserved": 0, "fusion_lon": 0.0, "fusion_lat": 0.0, "name": "a18e407d39dcb149f40e97a5688792d9", "type": "electric_scooter", "is_disabled": 0, "lat": 38.9071535, "rental_uris": {"android": "https://dc.lft.to/lastmile_qr_scan", "ios": "https://dc.lft.to/lastmile_qr_scan"}, "bike_id": "a18e407d39dcb149f40e97a5688792d9", "lon": -76.99820066666666}, {"is_reserved": 0, "fusion_lon": 0.0, "fusion_lat": 0.0, "name": "3af171bce2560eb7921bf372a9538afe", "type": "electric_scooter", "is_disabled": 0, "lat": 38.91185633333333, "rental_uris": {"android": "https://dc.lft.to/lastmile_qr_scan", "ios": "https://dc.lft.to/lastmile_qr_scan"}, "bike_id": "3af171bce2560eb7921bf372a9538afe", "lon": -77.00466833333333}, {"is_reserved": 0, "fusion_lon": 0.0, "fusion_lat": 0.0, "name": "226a2a688f1aaddd45010f8af3393c5b", "type": "electric_scooter", "is_disabled": 0, "lat": 38.93536233333333, "rental_uris": {"android": "https://dc.lft.to/lastmile_qr_scan", "ios": "https://dc.lft.to/lastmile_qr_scan"}, "bike_id": "226a2a688f1aaddd45010f8af3393c5b", "lon": -77.03478016666666}, {"is_reserved": 0, "fusion_lon": 0.0, "fusion_lat": 0.0, "name": "903f624e7c5ed9711c3d99261ba34fd8", "type": "electric_scooter", "is_disabled": 0, "lat": 38.94292033333333, "rental_uris": {"android": "https://dc.lft.to/lastmile_qr_scan", "ios": "https://dc.lft.to/lastmile_qr_scan"}, "bike_id": "903f624e7c5ed9711c3d99261ba34fd8", "lon": -77.02172433333334}, {"is_reserved": 0, "fusion_lon": 0.0, "fusion_lat": 0.0, "name": "30cfeaadfeae15342f84d471f8100d00", "type": "electric_scooter", "is_disabled": 0, "lat": 38.89495616666667, "rental_uris": {"android": "https://dc.lft.to/lastmile_qr_scan", "ios": "https://dc.lft.to/lastmile_qr_scan"}, "bike_id": "30cfeaadfeae15342f84d471f8100d00", "lon": -77.00215066666667}, {"is_reserved": 0, "fusion_lon": 0.0, "fusion_lat": 0.0, "name": "b1f8e9b36dc0586e4220a30cc2e4eec9", "type": "electric_scooter", "is_disabled": 0, "lat": 38.90554783333333, "rental_uris": {"android": "https://dc.lft.to/lastmile_qr_scan", "ios": "https://dc.lft.to/lastmile_qr_scan"}, "bike_id": "b1f8e9b36dc0586e4220a30cc2e4eec9", "lon": -77.03923433333334}, {"is_reserved": 0, "fusion_lon": 0.0, "fusion_lat": 0.0, "name": "ae2204c4a4659a5259da05e6132f9abc", "type": "electric_scooter", "is_disabled": 0, "lat": 38.898926, "rental_uris": {"android": "https://dc.lft.to/lastmile_qr_scan", "ios": "https://dc.lft.to/lastmile_qr_scan"}, "bike_id": "ae2204c4a4659a5259da05e6132f9abc", "lon": -77.03178516666667}, {"is_reserved": 0, "fusion_lon": 0.0, "fusion_lat": 0.0, "name": "b9aa3e744dc10ebf3aaff1656121af0f", "type": "electric_scooter", "is_disabled": 0, "lat": 38.93452633333333, "rental_uris": {"android": "https://dc.lft.to/lastmile_qr_scan", "ios": "https://dc.lft.to/lastmile_qr_scan"}, "bike_id": "b9aa3e744dc10ebf3aaff1656121af0f", "lon": -77.030772}, {"is_reserved": 0, "fusion_lon": 0.0, "fusion_lat": 0.0, "name": "11a76637d6458ad862e4ff9cfbb2d903", "type": "electric_bike", "is_disabled": 0, "lat": 38.9127115, "rental_uris": {"android": "https://dc.lft.to/lastmile_qr_scan", "ios": "https://dc.lft.to/lastmile_qr_scan"}, "bike_id": "11a76637d6458ad862e4ff9cfbb2d903", "lon": -77.0122405}, {"is_reserved": 0, "fusion_lon": 0.0, "fusion_lat": 0.0, "name": "66a6f69c1035ad4442317a0e67dc5613", "type": "electric_scooter", "is_disabled": 0, "lat": 38.90019216666666, "rental_uris": {"android": "https://dc.lft.to/lastmile_qr_scan", "ios": "https://dc.lft.to/lastmile_qr_scan"}, "bike_id": "66a6f69c1035ad4442317a0e67dc5613", "lon": -77.01106766666666}, {"is_reserved": 0, "fusion_lon": 0.0, "fusion_lat": 0.0, "name": "86032bc33dfd0a8ebce3846bdec75cd8", "type": "electric_scooter", "is_disabled": 0, "lat": 38.959304, "rental_uris": {"android": "https://dc.lft.to/lastmile_qr_scan", "ios": "https://dc.lft.to/lastmile_qr_scan"}, "bike_id": "86032bc33dfd0a8ebce3846bdec75cd8", "lon": -77.031288}, {"is_reserved": 0, "fusion_lon": 0.0, "fusion_lat": 0.0, "name": "a459e1ae2e3a4efb3b069f5e6bbbf034", "type": "electric_scooter", "is_disabled": 0, "lat": 38.895536, "rental_uris": {"android": "https://dc.lft.to/lastmile_qr_scan", "ios": "https://dc.lft.to/lastmile_qr_scan"}, "bike_id": "a459e1ae2e3a4efb3b069f5e6bbbf034", "lon": -76.99844983333334}, {"is_reserved": 0, "fusion_lon": 0.0, "fusion_lat": 0.0, "name": "a7c04962fa82856f6d1f516c4f45451c", "type": "electric_scooter", "is_disabled": 0, "lat": 38.87368716666667, "rental_uris": {"android": "https://dc.lft.to/lastmile_qr_scan", "ios": "https://dc.lft.to/lastmile_qr_scan"}, "bike_id": "a7c04962fa82856f6d1f516c4f45451c", "lon": -76.97017783333334}, {"is_reserved": 0, "fusion_lon": 0.0, "fusion_lat": 0.0, "name": "8822e993eb89d65676b45138e09bebfc", "type": "electric_scooter", "is_disabled": 0, "lat": 38.92711166666667, "rental_uris": {"android": "https://dc.lft.to/lastmile_qr_scan", "ios": "https://dc.lft.to/lastmile_qr_scan"}, "bike_id": "8822e993eb89d65676b45138e09bebfc", "lon": -77.02407783333334}, {"is_reserved": 0, "fusion_lon": 0.0, "fusion_lat": 0.0, "name": "5e1a1675be8b72ab0c97c253130c1fb9", "type": "electric_scooter", "is_disabled": 0, "lat": 38.900471333333336, "rental_uris": {"android": "https://dc.lft.to/lastmile_qr_scan", "ios": "https://dc.lft.to/lastmile_qr_scan"}, "bike_id": "5e1a1675be8b72ab0c97c253130c1fb9", "lon": -77.03353466666667}, {"is_reserved": 0, "fusion_lon": 0.0, "fusion_lat": 0.0, "name": "10063b0d4c8e5b64ce7c040284e94a40", "type": "electric_scooter", "is_disabled": 0, "lat": 38.922483666666665, "rental_uris": {"android": "https://dc.lft.to/lastmile_qr_scan", "ios": "https://dc.lft.to/lastmile_qr_scan"}, "bike_id": "10063b0d4c8e5b64ce7c040284e94a40", "lon": -77.02957066666667}, {"is_reserved": 0, "fusion_lon": 0.0, "fusion_lat": 0.0, "name": "34555244c259f589f5c696ea1fb94e24", "type": "electric_scooter", "is_disabled": 0, "lat": 38.91785933333333, "rental_uris": {"android": "https://dc.lft.to/lastmile_qr_scan", "ios": "https://dc.lft.to/lastmile_qr_scan"}, "bike_id": "34555244c259f589f5c696ea1fb94e24", "lon": -77.02591116666666}, {"is_reserved": 0, "fusion_lon": 0.0, "fusion_lat": 0.0, "name": "3252469a24ed35100731ff89c48d0da4", "type": "electric_scooter", "is_disabled": 0, "lat": 38.89601833333333, "rental_uris": {"android": "https://dc.lft.to/lastmile_qr_scan", "ios": "https://dc.lft.to/lastmile_qr_scan"}, "bike_id": "3252469a24ed35100731ff89c48d0da4", "lon": -77.01312366666667}, {"is_reserved": 0, "fusion_lon": 0.0, "fusion_lat": 0.0, "name": "969ff8422aef8cacb1ff42624c43ed28", "type": "electric_scooter", "is_disabled": 0, "lat": 38.9345105, "rental_uris": {"android": "https://dc.lft.to/lastmile_qr_scan", "ios": "https://dc.lft.to/lastmile_qr_scan"}, "bike_id": "969ff8422aef8cacb1ff42624c43ed28", "lon": -77.037468}, {"is_reserved": 0, "fusion_lon": 0.0, "fusion_lat": 0.0, "name": "fc4630681614b71c478d6ca04babe231", "type": "electric_scooter", "is_disabled": 0, "lat": 38.936997166666664, "rental_uris": {"android": "https://dc.lft.to/lastmile_qr_scan", "ios": "https://dc.lft.to/lastmile_qr_scan"}, "bike_id": "fc4630681614b71c478d6ca04babe231", "lon": -77.05598233333333}, {"is_reserved": 0, "fusion_lon": 0.0, "fusion_lat": 0.0, "name": "669e3eba45bf2962a47a1481cad49ec1", "type": "electric_scooter", "is_disabled": 0, "lat": 38.90552133333333, "rental_uris": {"android": "https://dc.lft.to/lastmile_qr_scan", "ios": "https://dc.lft.to/lastmile_qr_scan"}, "bike_id": "669e3eba45bf2962a47a1481cad49ec1", "lon": -77.00714183333334}, {"is_reserved": 0, "fusion_lon": 0.0, "fusion_lat": 0.0, "name": "fd13e5e202ce60d02b86178319d55b98", "type": "electric_scooter", "is_disabled": 0, "lat": 38.896176, "rental_uris": {"android": "https://dc.lft.to/lastmile_qr_scan", "ios": "https://dc.lft.to/lastmile_qr_scan"}, "bike_id": "fd13e5e202ce60d02b86178319d55b98", "lon": -77.03207166666667}, {"is_reserved": 0, "fusion_lon": 0.0, "fusion_lat": 0.0, "name": "e910ac9ce953645150a7d69a6ec86040", "type": "electric_scooter", "is_disabled": 0, "lat": 38.90753183333333, "rental_uris": {"android": "https://dc.lft.to/lastmile_qr_scan", "ios": "https://dc.lft.to/lastmile_qr_scan"}, "bike_id": "e910ac9ce953645150a7d69a6ec86040", "lon": -77.04159633333333}, {"is_reserved": 0, "fusion_lon": 0.0, "fusion_lat": 0.0, "name": "c787172d93723a5e120895ffc8b87921", "type": "electric_scooter", "is_disabled": 0, "lat": 38.89998666666666, "rental_uris": {"android": "https://dc.lft.to/lastmile_qr_scan", "ios": "https://dc.lft.to/lastmile_qr_scan"}, "bike_id": "c787172d93723a5e120895ffc8b87921", "lon": -76.95198733333334}, {"is_reserved": 0, "fusion_lon": 0.0, "fusion_lat": 0.0, "name": "55e82ef63a672b7e0f7c348dcc9c5785", "type": "electric_scooter", "is_disabled": 0, "lat": 38.928252666666666, "rental_uris": {"android": "https://dc.lft.to/lastmile_qr_scan", "ios": "https://dc.lft.to/lastmile_qr_scan"}, "bike_id": "55e82ef63a672b7e0f7c348dcc9c5785", "lon": -77.0225625}, {"is_reserved": 0, "fusion_lon": 0.0, "fusion_lat": 0.0, "name": "5da6c5429101cd38c83aa61f2fd09d9d", "type": "electric_scooter", "is_disabled": 0, "lat": 38.902089, "rental_uris": {"android": "https://dc.lft.to/lastmile_qr_scan", "ios": "https://dc.lft.to/lastmile_qr_scan"}, "bike_id": "5da6c5429101cd38c83aa61f2fd09d9d", "lon": -76.98841266666666}, {"is_reserved": 0, "fusion_lon": 0.0, "fusion_lat": 0.0, "name": "f26d9c0aacdc00e6003fc9cb8cb658c6", "type": "electric_scooter", "is_disabled": 0, "lat": 38.926672, "rental_uris": {"android": "https://dc.lft.to/lastmile_qr_scan", "ios": "https://dc.lft.to/lastmile_qr_scan"}, "bike_id": "f26d9c0aacdc00e6003fc9cb8cb658c6", "lon": -77.02286216666667}, {"is_reserved": 0, "fusion_lon": 0.0, "fusion_lat": 0.0, "name": "3ddbd6dd61c0558b536a99eafe3b3507", "type": "electric_bike", "is_disabled": 0, "lat": 38.96466616666667, "rental_uris": {"android": "https://dc.lft.to/lastmile_qr_scan", "ios": "https://dc.lft.to/lastmile_qr_scan"}, "bike_id": "3ddbd6dd61c0558b536a99eafe3b3507", "lon": -77.03566816666667}, {"is_reserved": 0, "fusion_lon": 0.0, "fusion_lat": 0.0, "name": "07deaab99807b170d0da9846f278a505", "type": "electric_scooter", "is_disabled": 0, "lat": 38.90138366666667, "rental_uris": {"android": "https://dc.lft.to/lastmile_qr_scan", "ios": "https://dc.lft.to/lastmile_qr_scan"}, "bike_id": "07deaab99807b170d0da9846f278a505", "lon": -77.04041083333334}, {"is_reserved": 0, "fusion_lon": 0.0, "fusion_lat": 0.0, "name": "187c26f652209e8d21370c2df7b7c303", "type": "electric_scooter", "is_disabled": 0, "lat": 38.8963305, "rental_uris": {"android": "https://dc.lft.to/lastmile_qr_scan", "ios": "https://dc.lft.to/lastmile_qr_scan"}, "bike_id": "187c26f652209e8d21370c2df7b7c303", "lon": -77.02200333333333}, {"is_reserved": 0, "fusion_lon": 0.0, "fusion_lat": 0.0, "name": "d14d24d7540f9b281e3f97ed01d9171d", "type": "electric_bike", "is_disabled": 0, "lat": 38.81203766666667, "rental_uris": {"android": "https://dc.lft.to/lastmile_qr_scan", "ios": "https://dc.lft.to/lastmile_qr_scan"}, "bike_id": "d14d24d7540f9b281e3f97ed01d9171d", "lon": -77.108423}, {"is_reserved": 0, "fusion_lon": 0.0, "fusion_lat": 0.0, "name": "ed9edc918116cd48f73c6496732a94ab", "type": "electric_scooter", "is_disabled": 0, "lat": 38.897760166666664, "rental_uris": {"android": "https://dc.lft.to/lastmile_qr_scan", "ios": "https://dc.lft.to/lastmile_qr_scan"}, "bike_id": "ed9edc918116cd48f73c6496732a94ab", "lon": -77.03357583333333}, {"is_reserved": 0, "fusion_lon": 0.0, "fusion_lat": 0.0, "name": "77442e3bc5ff1a7f8a65b75d2df460cb", "type": "electric_scooter", "is_disabled": 0, "lat": 38.901809, "rental_uris": {"android": "https://dc.lft.to/lastmile_qr_scan", "ios": "https://dc.lft.to/lastmile_qr_scan"}, "bike_id": "77442e3bc5ff1a7f8a65b75d2df460cb", "lon": -77.01303866666667}, {"is_reserved": 0, "fusion_lon": 0.0, "fusion_lat": 0.0, "name": "208db70994d369dd18b418c9e3b24a16", "type": "electric_bike", "is_disabled": 0, "lat": 38.948927833333336, "rental_uris": {"android": "https://dc.lft.to/lastmile_qr_scan", "ios": "https://dc.lft.to/lastmile_qr_scan"}, "bike_id": "208db70994d369dd18b418c9e3b24a16", "lon": -77.034493}, {"is_reserved": 0, "fusion_lon": 0.0, "fusion_lat": 0.0, "name": "afa1f85aaf9079d49bc3d2cb3a15d0cc", "type": "electric_scooter", "is_disabled": 0, "lat": 38.89314183333333, "rental_uris": {"android": "https://dc.lft.to/lastmile_qr_scan", "ios": "https://dc.lft.to/lastmile_qr_scan"}, "bike_id": "afa1f85aaf9079d49bc3d2cb3a15d0cc", "lon": -76.9291425}, {"is_reserved": 0, "fusion_lon": 0.0, "fusion_lat": 0.0, "name": "d7b055a12b3f3145f4b9ef6ecf65b3bf", "type": "electric_scooter", "is_disabled": 0, "lat": 38.91663716666667, "rental_uris": {"android": "https://dc.lft.to/lastmile_qr_scan", "ios": "https://dc.lft.to/lastmile_qr_scan"}, "bike_id": "d7b055a12b3f3145f4b9ef6ecf65b3bf", "lon": -77.03847283333333}, {"is_reserved": 0, "fusion_lon": 0.0, "fusion_lat": 0.0, "name": "eaef207e0b0a1e9f5c6ca3a63a9e02e5", "type": "electric_bike", "is_disabled": 0, "lat": 38.89968966666667, "rental_uris": {"android": "https://dc.lft.to/lastmile_qr_scan", "ios": "https://dc.lft.to/lastmile_qr_scan"}, "bike_id": "eaef207e0b0a1e9f5c6ca3a63a9e02e5", "lon": -76.9866995}, {"is_reserved": 0, "fusion_lon": 0.0, "fusion_lat": 0.0, "name": "0c0a45bcea4a9ae6d248f25769100079", "type": "electric_scooter", "is_disabled": 0, "lat": 38.90638716666667, "rental_uris": {"android": "https://dc.lft.to/lastmile_qr_scan", "ios": "https://dc.lft.to/lastmile_qr_scan"}, "bike_id": "0c0a45bcea4a9ae6d248f25769100079", "lon": -77.051457}, {"is_reserved": 0, "fusion_lon": 0.0, "fusion_lat": 0.0, "name": "d08e0e5424eb4c394ff59ccbe349a855", "type": "electric_bike", "is_disabled": 0, "lat": 38.96817016666667, "rental_uris": {"android": "https://dc.lft.to/lastmile_qr_scan", "ios": "https://dc.lft.to/lastmile_qr_scan"}, "bike_id": "d08e0e5424eb4c394ff59ccbe349a855", "lon": -77.07227266666666}, {"is_reserved": 0, "fusion_lon": 0.0, "fusion_lat": 0.0, "name": "18c46654ed3d881df46846a3c405dbba", "type": "electric_scooter", "is_disabled": 0, "lat": 38.928571, "rental_uris": {"android": "https://dc.lft.to/lastmile_qr_scan", "ios": "https://dc.lft.to/lastmile_qr_scan"}, "bike_id": "18c46654ed3d881df46846a3c405dbba", "lon": -77.030997}, {"is_reserved": 0, "fusion_lon": 0.0, "fusion_lat": 0.0, "name": "a12c5c4a9d20f4f1fc1f63ccebcfd954", "type": "electric_scooter", "is_disabled": 0, "lat": 38.9222595, "rental_uris": {"android": "https://dc.lft.to/lastmile_qr_scan", "ios": "https://dc.lft.to/lastmile_qr_scan"}, "bike_id": "a12c5c4a9d20f4f1fc1f63ccebcfd954", "lon": -77.04241033333334}, {"is_reserved": 0, "fusion_lon": 0.0, "fusion_lat": 0.0, "name": "c618df04f9162a3e63f07a670c9a25c3", "type": "electric_bike", "is_disabled": 0, "lat": 38.88871533333333, "rental_uris": {"android": "https://dc.lft.to/lastmile_qr_scan", "ios": "https://dc.lft.to/lastmile_qr_scan"}, "bike_id": "c618df04f9162a3e63f07a670c9a25c3", "lon": -76.97843766666666}, {"is_reserved": 0, "fusion_lon": 0.0, "fusion_lat": 0.0, "name": "d89d6dcd496d59625792c43a9aa72d04", "type": "electric_scooter", "is_disabled": 0, "lat": 38.9044405, "rental_uris": {"android": "https://dc.lft.to/lastmile_qr_scan", "ios": "https://dc.lft.to/lastmile_qr_scan"}, "bike_id": "d89d6dcd496d59625792c43a9aa72d04", "lon": -76.98491183333333}, {"is_reserved": 0, "fusion_lon": 0.0, "fusion_lat": 0.0, "name": "85b2440523b0357ef2eb26ce9236b118", "type": "electric_scooter", "is_disabled": 0, "lat": 38.92380333333333, "rental_uris": {"android": "https://dc.lft.to/lastmile_qr_scan", "ios": "https://dc.lft.to/lastmile_qr_scan"}, "bike_id": "85b2440523b0357ef2eb26ce9236b118", "lon": -77.0301585}, {"is_reserved": 0, "fusion_lon": 0.0, "fusion_lat": 0.0, "name": "be0490ac2c243b5b57d2a8624ea0deca", "type": "electric_scooter", "is_disabled": 0, "lat": 38.90040833333333, "rental_uris": {"android": "https://dc.lft.to/lastmile_qr_scan", "ios": "https://dc.lft.to/lastmile_qr_scan"}, "bike_id": "be0490ac2c243b5b57d2a8624ea0deca", "lon": -77.03225}, {"is_reserved": 0, "fusion_lon": 0.0, "fusion_lat": 0.0, "name": "38a26504660f752a392e90d0a3b23e96", "type": "electric_scooter", "is_disabled": 0, "lat": 38.9287235, "rental_uris": {"android": "https://dc.lft.to/lastmile_qr_scan", "ios": "https://dc.lft.to/lastmile_qr_scan"}, "bike_id": "38a26504660f752a392e90d0a3b23e96", "lon": -77.0135645}, {"is_reserved": 0, "fusion_lon": 0.0, "fusion_lat": 0.0, "name": "3fd6cd42c36cb2a9dc89962f810f7040", "type": "electric_scooter", "is_disabled": 0, "lat": 38.896048, "rental_uris": {"android": "https://dc.lft.to/lastmile_qr_scan", "ios": "https://dc.lft.to/lastmile_qr_scan"}, "bike_id": "3fd6cd42c36cb2a9dc89962f810f7040", "lon": -77.02978}, {"is_reserved": 0, "fusion_lon": 0.0, "fusion_lat": 0.0, "name": "21037f499ec2fca01cea559cced1912f", "type": "electric_scooter", "is_disabled": 0, "lat": 38.931519333333334, "rental_uris": {"android": "https://dc.lft.to/lastmile_qr_scan", "ios": "https://dc.lft.to/lastmile_qr_scan"}, "bike_id": "21037f499ec2fca01cea559cced1912f", "lon": -77.07870516666667}, {"is_reserved": 0, "fusion_lon": 0.0, "fusion_lat": 0.0, "name": "58058a73a16e5adace7ead3ac85313bf", "type": "electric_scooter", "is_disabled": 0, "lat": 38.94642283333334, "rental_uris": {"android": "https://dc.lft.to/lastmile_qr_scan", "ios": "https://dc.lft.to/lastmile_qr_scan"}, "bike_id": "58058a73a16e5adace7ead3ac85313bf", "lon": -77.01892066666667}, {"is_reserved": 0, "fusion_lon": 0.0, "fusion_lat": 0.0, "name": "8b43041c4afe13c13ca572d754c06885", "type": "electric_scooter", "is_disabled": 0, "lat": 38.88402133333334, "rental_uris": {"android": "https://dc.lft.to/lastmile_qr_scan", "ios": "https://dc.lft.to/lastmile_qr_scan"}, "bike_id": "8b43041c4afe13c13ca572d754c06885", "lon": -77.0259895}, {"is_reserved": 0, "fusion_lon": 0.0, "fusion_lat": 0.0, "name": "ac26128b78a35d373a1f8ed07be7cf2e", "type": "electric_bike", "is_disabled": 0, "lat": 38.9409495, "rental_uris": {"android": "https://dc.lft.to/lastmile_qr_scan", "ios": "https://dc.lft.to/lastmile_qr_scan"}, "bike_id": "ac26128b78a35d373a1f8ed07be7cf2e", "lon": -77.03282916666667}, {"is_reserved": 0, "fusion_lon": 0.0, "fusion_lat": 0.0, "name": "d664a0955a8d28dbee2a0199997fa819", "type": "electric_scooter", "is_disabled": 0, "lat": 38.922504, "rental_uris": {"android": "https://dc.lft.to/lastmile_qr_scan", "ios": "https://dc.lft.to/lastmile_qr_scan"}, "bike_id": "d664a0955a8d28dbee2a0199997fa819", "lon": -77.042556}, {"is_reserved": 0, "fusion_lon": 0.0, "fusion_lat": 0.0, "name": "6584c5333c2f3b79b5ef26951560a83c", "type": "electric_scooter", "is_disabled": 0, "lat": 38.8948145, "rental_uris": {"android": "https://dc.lft.to/lastmile_qr_scan", "ios": "https://dc.lft.to/lastmile_qr_scan"}, "bike_id": "6584c5333c2f3b79b5ef26951560a83c", "lon": -77.02315383333334}, {"is_reserved": 0, "fusion_lon": 0.0, "fusion_lat": 0.0, "name": "6badb769c6c165fb94db03d3be8f7003", "type": "electric_bike", "is_disabled": 0, "lat": 38.8824345, "rental_uris": {"android": "https://dc.lft.to/lastmile_qr_scan", "ios": "https://dc.lft.to/lastmile_qr_scan"}, "bike_id": "6badb769c6c165fb94db03d3be8f7003", "lon": -76.962601}, {"is_reserved": 0, "fusion_lon": 0.0, "fusion_lat": 0.0, "name": "b6d92a16e2ad994534f495e33afcabc5", "type": "electric_scooter", "is_disabled": 0, "lat": 38.8921975, "rental_uris": {"android": "https://dc.lft.to/lastmile_qr_scan", "ios": "https://dc.lft.to/lastmile_qr_scan"}, "bike_id": "b6d92a16e2ad994534f495e33afcabc5", "lon": -77.031573}, {"is_reserved": 0, "fusion_lon": 0.0, "fusion_lat": 0.0, "name": "9ded21f1fa25838c951737a03100eaa9", "type": "electric_scooter", "is_disabled": 0, "lat": 38.864176666666665, "rental_uris": {"android": "https://dc.lft.to/lastmile_qr_scan", "ios": "https://dc.lft.to/lastmile_qr_scan"}, "bike_id": "9ded21f1fa25838c951737a03100eaa9", "lon": -76.99137433333334}, {"is_reserved": 0, "fusion_lon": 0.0, "fusion_lat": 0.0, "name": "be376e2bf804961d5c6bb87fd7650892", "type": "electric_scooter", "is_disabled": 0, "lat": 38.90782133333333, "rental_uris": {"android": "https://dc.lft.to/lastmile_qr_scan", "ios": "https://dc.lft.to/lastmile_qr_scan"}, "bike_id": "be376e2bf804961d5c6bb87fd7650892", "lon": -77.01115083333333}, {"is_reserved": 0, "fusion_lon": 0.0, "fusion_lat": 0.0, "name": "56da7e6f34df3dc5ed6ce04f402cf2cd", "type": "electric_scooter", "is_disabled": 0, "lat": 38.912871, "rental_uris": {"android": "https://dc.lft.to/lastmile_qr_scan", "ios": "https://dc.lft.to/lastmile_qr_scan"}, "bike_id": "56da7e6f34df3dc5ed6ce04f402cf2cd", "lon": -77.03191233333334}, {"is_reserved": 0, "fusion_lon": 0.0, "fusion_lat": 0.0, "name": "cbef15f009ce05f3a5718d6da52a563f", "type": "electric_scooter", "is_disabled": 0, "lat": 38.90412233333333, "rental_uris": {"android": "https://dc.lft.to/lastmile_qr_scan", "ios": "https://dc.lft.to/lastmile_qr_scan"}, "bike_id": "cbef15f009ce05f3a5718d6da52a563f", "lon": -76.97329}, {"is_reserved": 0, "fusion_lon": 0.0, "fusion_lat": 0.0, "name": "d60afcffffcbc5b4eb723e5156d29223", "type": "electric_scooter", "is_disabled": 0, "lat": 38.91836816666667, "rental_uris": {"android": "https://dc.lft.to/lastmile_qr_scan", "ios": "https://dc.lft.to/lastmile_qr_scan"}, "bike_id": "d60afcffffcbc5b4eb723e5156d29223", "lon": -77.0594855}, {"is_reserved": 0, "fusion_lon": 0.0, "fusion_lat": 0.0, "name": "5a5fc81d2f43c2dee7c4fd4f8cabc4d3", "type": "electric_scooter", "is_disabled": 0, "lat": 38.8896175, "rental_uris": {"android": "https://dc.lft.to/lastmile_qr_scan", "ios": "https://dc.lft.to/lastmile_qr_scan"}, "bike_id": "5a5fc81d2f43c2dee7c4fd4f8cabc4d3", "lon": -76.9370925}, {"is_reserved": 0, "fusion_lon": 0.0, "fusion_lat": 0.0, "name": "d8c7ba80d9040dcae3b0119382a4d028", "type": "electric_bike", "is_disabled": 0, "lat": 38.93700916666667, "rental_uris": {"android": "https://dc.lft.to/lastmile_qr_scan", "ios": "https://dc.lft.to/lastmile_qr_scan"}, "bike_id": "d8c7ba80d9040dcae3b0119382a4d028", "lon": -77.02984366666666}, {"is_reserved": 0, "fusion_lon": 0.0, "fusion_lat": 0.0, "name": "fb4259612270c3ca5a99f95236e441e3", "type": "electric_bike", "is_disabled": 0, "lat": 38.96230533333333, "rental_uris": {"android": "https://dc.lft.to/lastmile_qr_scan", "ios": "https://dc.lft.to/lastmile_qr_scan"}, "bike_id": "fb4259612270c3ca5a99f95236e441e3", "lon": -77.02634833333333}, {"is_reserved": 0, "fusion_lon": 0.0, "fusion_lat": 0.0, "name": "09ff1c00e327ecba21a9b92a162e51fe", "type": "electric_scooter", "is_disabled": 0, "lat": 38.927402666666666, "rental_uris": {"android": "https://dc.lft.to/lastmile_qr_scan", "ios": "https://dc.lft.to/lastmile_qr_scan"}, "bike_id": "09ff1c00e327ecba21a9b92a162e51fe", "lon": -77.032384}, {"is_reserved": 0, "fusion_lon": 0.0, "fusion_lat": 0.0, "name": "9508feb92aacd0de8f370495705ef641", "type": "electric_scooter", "is_disabled": 0, "lat": 38.927501666666664, "rental_uris": {"android": "https://dc.lft.to/lastmile_qr_scan", "ios": "https://dc.lft.to/lastmile_qr_scan"}, "bike_id": "9508feb92aacd0de8f370495705ef641", "lon": -77.02537783333334}, {"is_reserved": 0, "fusion_lon": 0.0, "fusion_lat": 0.0, "name": "527d14d955a1339f28dcce5d0940da4c", "type": "electric_scooter", "is_disabled": 0, "lat": 38.90015183333333, "rental_uris": {"android": "https://dc.lft.to/lastmile_qr_scan", "ios": "https://dc.lft.to/lastmile_qr_scan"}, "bike_id": "527d14d955a1339f28dcce5d0940da4c", "lon": -76.9869265}, {"is_reserved": 0, "fusion_lon": 0.0, "fusion_lat": 0.0, "name": "adbf2602f77dcde8e69f9f5a92951c33", "type": "electric_scooter", "is_disabled": 0, "lat": 38.88831916666667, "rental_uris": {"android": "https://dc.lft.to/lastmile_qr_scan", "ios": "https://dc.lft.to/lastmile_qr_scan"}, "bike_id": "adbf2602f77dcde8e69f9f5a92951c33", "lon": -76.99364533333333}, {"is_reserved": 0, "fusion_lon": 0.0, "fusion_lat": 0.0, "name": "0b0de6e42abda65991ed94adb29cfbd0", "type": "electric_scooter", "is_disabled": 0, "lat": 38.8669225, "rental_uris": {"android": "https://dc.lft.to/lastmile_qr_scan", "ios": "https://dc.lft.to/lastmile_qr_scan"}, "bike_id": "0b0de6e42abda65991ed94adb29cfbd0", "lon": -76.98604783333333}, {"is_reserved": 0, "fusion_lon": 0.0, "fusion_lat": 0.0, "name": "36a6a2841b02600704b1fdb3482aa8bd", "type": "electric_scooter", "is_disabled": 0, "lat": 38.918687, "rental_uris": {"android": "https://dc.lft.to/lastmile_qr_scan", "ios": "https://dc.lft.to/lastmile_qr_scan"}, "bike_id": "36a6a2841b02600704b1fdb3482aa8bd", "lon": -77.04458166666667}, {"is_reserved": 0, "fusion_lon": 0.0, "fusion_lat": 0.0, "name": "58c6146fc078184d01c982c41f7974f7", "type": "electric_scooter", "is_disabled": 0, "lat": 38.939089833333334, "rental_uris": {"android": "https://dc.lft.to/lastmile_qr_scan", "ios": "https://dc.lft.to/lastmile_qr_scan"}, "bike_id": "58c6146fc078184d01c982c41f7974f7", "lon": -77.02468283333333}, {"is_reserved": 0, "fusion_lon": 0.0, "fusion_lat": 0.0, "name": "79b4cc21c6d467fb3ceeaff29856d971", "type": "electric_scooter", "is_disabled": 0, "lat": 38.91873366666667, "rental_uris": {"android": "https://dc.lft.to/lastmile_qr_scan", "ios": "https://dc.lft.to/lastmile_qr_scan"}, "bike_id": "79b4cc21c6d467fb3ceeaff29856d971", "lon": -77.041984}, {"is_reserved": 0, "fusion_lon": 0.0, "fusion_lat": 0.0, "name": "77861866b1327df88e255e29f9209d4a", "type": "electric_scooter", "is_disabled": 0, "lat": 38.912578333333336, "rental_uris": {"android": "https://dc.lft.to/lastmile_qr_scan", "ios": "https://dc.lft.to/lastmile_qr_scan"}, "bike_id": "77861866b1327df88e255e29f9209d4a", "lon": -77.0312255}, {"is_reserved": 0, "fusion_lon": 0.0, "fusion_lat": 0.0, "name": "b0f5c02caf3daca3e8c1c4c34e312722", "type": "electric_scooter", "is_disabled": 0, "lat": 38.91112666666667, "rental_uris": {"android": "https://dc.lft.to/lastmile_qr_scan", "ios": "https://dc.lft.to/lastmile_qr_scan"}, "bike_id": "b0f5c02caf3daca3e8c1c4c34e312722", "lon": -77.02382083333333}, {"is_reserved": 0, "fusion_lon": 0.0, "fusion_lat": 0.0, "name": "94a318e3d917562cbc26646bcb43dc88", "type": "electric_scooter", "is_disabled": 0, "lat": 38.92462583333333, "rental_uris": {"android": "https://dc.lft.to/lastmile_qr_scan", "ios": "https://dc.lft.to/lastmile_qr_scan"}, "bike_id": "94a318e3d917562cbc26646bcb43dc88", "lon": -77.021292}, {"is_reserved": 0, "fusion_lon": 0.0, "fusion_lat": 0.0, "name": "a3ae1dbfa8ee52bc259c537d45cf3607", "type": "electric_bike", "is_disabled": 0, "lat": 38.86581866666667, "rental_uris": {"android": "https://dc.lft.to/lastmile_qr_scan", "ios": "https://dc.lft.to/lastmile_qr_scan"}, "bike_id": "a3ae1dbfa8ee52bc259c537d45cf3607", "lon": -77.04758816666667}, {"is_reserved": 0, "fusion_lon": 0.0, "fusion_lat": 0.0, "name": "4ce901da084222d17cfff26388ea372f", "type": "electric_scooter", "is_disabled": 0, "lat": 38.927470666666665, "rental_uris": {"android": "https://dc.lft.to/lastmile_qr_scan", "ios": "https://dc.lft.to/lastmile_qr_scan"}, "bike_id": "4ce901da084222d17cfff26388ea372f", "lon": -76.99052783333333}, {"is_reserved": 0, "fusion_lon": 0.0, "fusion_lat": 0.0, "name": "25969436a171c64fe6ccf7c4e8012059", "type": "electric_scooter", "is_disabled": 0, "lat": 38.919535333333336, "rental_uris": {"android": "https://dc.lft.to/lastmile_qr_scan", "ios": "https://dc.lft.to/lastmile_qr_scan"}, "bike_id": "25969436a171c64fe6ccf7c4e8012059", "lon": -77.04172133333333}, {"is_reserved": 0, "fusion_lon": 0.0, "fusion_lat": 0.0, "name": "514eaa45aeaf88d758d2273da0067a98", "type": "electric_scooter", "is_disabled": 0, "lat": 38.938634666666665, "rental_uris": {"android": "https://dc.lft.to/lastmile_qr_scan", "ios": "https://dc.lft.to/lastmile_qr_scan"}, "bike_id": "514eaa45aeaf88d758d2273da0067a98", "lon": -77.02649266666667}, {"is_reserved": 0, "fusion_lon": 0.0, "fusion_lat": 0.0, "name": "adf72feb940762e1f5b4cfbff5923c3c", "type": "electric_scooter", "is_disabled": 0, "lat": 38.9155255, "rental_uris": {"android": "https://dc.lft.to/lastmile_qr_scan", "ios": "https://dc.lft.to/lastmile_qr_scan"}, "bike_id": "adf72feb940762e1f5b4cfbff5923c3c", "lon": -77.03162483333334}, {"is_reserved": 0, "fusion_lon": 0.0, "fusion_lat": 0.0, "name": "fab280e59b582f0ba81160be8fd05e39", "type": "electric_scooter", "is_disabled": 0, "lat": 38.89220383333333, "rental_uris": {"android": "https://dc.lft.to/lastmile_qr_scan", "ios": "https://dc.lft.to/lastmile_qr_scan"}, "bike_id": "fab280e59b582f0ba81160be8fd05e39", "lon": -77.0437825}, {"is_reserved": 0, "fusion_lon": 0.0, "fusion_lat": 0.0, "name": "a62b8def1b9ec91c18da7cdb4947d4c0", "type": "electric_scooter", "is_disabled": 0, "lat": 38.94201316666667, "rental_uris": {"android": "https://dc.lft.to/lastmile_qr_scan", "ios": "https://dc.lft.to/lastmile_qr_scan"}, "bike_id": "a62b8def1b9ec91c18da7cdb4947d4c0", "lon": -77.025037}, {"is_reserved": 0, "fusion_lon": 0.0, "fusion_lat": 0.0, "name": "bec1260722cb0b799af67e7ff38e535a", "type": "electric_scooter", "is_disabled": 0, "lat": 38.9176355, "rental_uris": {"android": "https://dc.lft.to/lastmile_qr_scan", "ios": "https://dc.lft.to/lastmile_qr_scan"}, "bike_id": "bec1260722cb0b799af67e7ff38e535a", "lon": -77.04770966666666}, {"is_reserved": 0, "fusion_lon": 0.0, "fusion_lat": 0.0, "name": "8b7c24c6f7a86c23a015a5c87387d62d", "type": "electric_scooter", "is_disabled": 0, "lat": 38.887455333333335, "rental_uris": {"android": "https://dc.lft.to/lastmile_qr_scan", "ios": "https://dc.lft.to/lastmile_qr_scan"}, "bike_id": "8b7c24c6f7a86c23a015a5c87387d62d", "lon": -77.02733166666667}, {"is_reserved": 0, "fusion_lon": 0.0, "fusion_lat": 0.0, "name": "5104f388ed2ce50f98d9f5b545022213", "type": "electric_bike", "is_disabled": 0, "lat": 38.86514416666667, "rental_uris": {"android": "https://dc.lft.to/lastmile_qr_scan", "ios": "https://dc.lft.to/lastmile_qr_scan"}, "bike_id": "5104f388ed2ce50f98d9f5b545022213", "lon": -76.97336233333333}, {"is_reserved": 0, "fusion_lon": 0.0, "fusion_lat": 0.0, "name": "3b815c341ab648b29d406866a9351cbd", "type": "electric_scooter", "is_disabled": 0, "lat": 38.939504666666664, "rental_uris": {"android": "https://dc.lft.to/lastmile_qr_scan", "ios": "https://dc.lft.to/lastmile_qr_scan"}, "bike_id": "3b815c341ab648b29d406866a9351cbd", "lon": -77.07249883333333}, {"is_reserved": 0, "fusion_lon": 0.0, "fusion_lat": 0.0, "name": "bc1220bdb2b010f020651f515b34bbbb", "type": "electric_scooter", "is_disabled": 0, "lat": 38.9102875, "rental_uris": {"android": "https://dc.lft.to/lastmile_qr_scan", "ios": "https://dc.lft.to/lastmile_qr_scan"}, "bike_id": "bc1220bdb2b010f020651f515b34bbbb", "lon": -77.04302383333334}, {"is_reserved": 0, "fusion_lon": 0.0, "fusion_lat": 0.0, "name": "a6c61f4276a1c6a192eb78053c8d759d", "type": "electric_scooter", "is_disabled": 0, "lat": 38.89727283333333, "rental_uris": {"android": "https://dc.lft.to/lastmile_qr_scan", "ios": "https://dc.lft.to/lastmile_qr_scan"}, "bike_id": "a6c61f4276a1c6a192eb78053c8d759d", "lon": -77.05529733333333}, {"is_reserved": 0, "fusion_lon": 0.0, "fusion_lat": 0.0, "name": "3d944fc0aa91498306785f7dcb100fc0", "type": "electric_bike", "is_disabled": 0, "lat": 38.8965675, "rental_uris": {"android": "https://dc.lft.to/lastmile_qr_scan", "ios": "https://dc.lft.to/lastmile_qr_scan"}, "bike_id": "3d944fc0aa91498306785f7dcb100fc0", "lon": -76.93014683333334}, {"is_reserved": 0, "fusion_lon": 0.0, "fusion_lat": 0.0, "name": "7f5c9f4aa79d020898cb65b3d957a4f5", "type": "electric_bike", "is_disabled": 0, "lat": 38.967346166666665, "rental_uris": {"android": "https://dc.lft.to/lastmile_qr_scan", "ios": "https://dc.lft.to/lastmile_qr_scan"}, "bike_id": "7f5c9f4aa79d020898cb65b3d957a4f5", "lon": -76.9605265}, {"is_reserved": 0, "fusion_lon": 0.0, "fusion_lat": 0.0, "name": "5fdb411dcdc2f1a9e41e839405ff754c", "type": "electric_bike", "is_disabled": 0, "lat": 38.9033055, "rental_uris": {"android": "https://dc.lft.to/lastmile_qr_scan", "ios": "https://dc.lft.to/lastmile_qr_scan"}, "bike_id": "5fdb411dcdc2f1a9e41e839405ff754c", "lon": -76.9753495}, {"is_reserved": 0, "fusion_lon": 0.0, "fusion_lat": 0.0, "name": "8e3433556b48bf332b81da3cf54dc77f", "type": "electric_scooter", "is_disabled": 0, "lat": 38.92614366666667, "rental_uris": {"android": "https://dc.lft.to/lastmile_qr_scan", "ios": "https://dc.lft.to/lastmile_qr_scan"}, "bike_id": "8e3433556b48bf332b81da3cf54dc77f", "lon": -77.02161966666667}, {"is_reserved": 0, "fusion_lon": 0.0, "fusion_lat": 0.0, "name": "ca3902c9ac2871e3c849928ced5b4ee8", "type": "electric_scooter", "is_disabled": 0, "lat": 38.92006083333333, "rental_uris": {"android": "https://dc.lft.to/lastmile_qr_scan", "ios": "https://dc.lft.to/lastmile_qr_scan"}, "bike_id": "ca3902c9ac2871e3c849928ced5b4ee8", "lon": -77.04172883333334}, {"is_reserved": 0, "fusion_lon": 0.0, "fusion_lat": 0.0, "name": "f0d7ada5b99a2eded29edc5278017610", "type": "electric_scooter", "is_disabled": 0, "lat": 38.919546833333335, "rental_uris": {"android": "https://dc.lft.to/lastmile_qr_scan", "ios": "https://dc.lft.to/lastmile_qr_scan"}, "bike_id": "f0d7ada5b99a2eded29edc5278017610", "lon": -76.98080566666667}, {"is_reserved": 0, "fusion_lon": 0.0, "fusion_lat": 0.0, "name": "59516cb76aa7cbfc1e66bda026083727", "type": "electric_scooter", "is_disabled": 0, "lat": 38.9294755, "rental_uris": {"android": "https://dc.lft.to/lastmile_qr_scan", "ios": "https://dc.lft.to/lastmile_qr_scan"}, "bike_id": "59516cb76aa7cbfc1e66bda026083727", "lon": -77.01637533333333}, {"is_reserved": 0, "fusion_lon": 0.0, "fusion_lat": 0.0, "name": "eacb7ef05c79334bb79eea24540c5aae", "type": "electric_scooter", "is_disabled": 0, "lat": 38.90908366666667, "rental_uris": {"android": "https://dc.lft.to/lastmile_qr_scan", "ios": "https://dc.lft.to/lastmile_qr_scan"}, "bike_id": "eacb7ef05c79334bb79eea24540c5aae", "lon": -77.04414633333333}, {"is_reserved": 0, "fusion_lon": 0.0, "fusion_lat": 0.0, "name": "d72d66b3292e256a9a9b39bc2fd2fd76", "type": "electric_scooter", "is_disabled": 0, "lat": 38.8861145, "rental_uris": {"android": "https://dc.lft.to/lastmile_qr_scan", "ios": "https://dc.lft.to/lastmile_qr_scan"}, "bike_id": "d72d66b3292e256a9a9b39bc2fd2fd76", "lon": -76.9951365}, {"is_reserved": 0, "fusion_lon": 0.0, "fusion_lat": 0.0, "name": "9238b2224bfd1a463eb643952b4fcbb4", "type": "electric_scooter", "is_disabled": 0, "lat": 38.93731866666667, "rental_uris": {"android": "https://dc.lft.to/lastmile_qr_scan", "ios": "https://dc.lft.to/lastmile_qr_scan"}, "bike_id": "9238b2224bfd1a463eb643952b4fcbb4", "lon": -77.03284683333334}, {"is_reserved": 0, "fusion_lon": 0.0, "fusion_lat": 0.0, "name": "baf308240faabd57ef5ddfdbc214e201", "type": "electric_scooter", "is_disabled": 0, "lat": 38.908306833333334, "rental_uris": {"android": "https://dc.lft.to/lastmile_qr_scan", "ios": "https://dc.lft.to/lastmile_qr_scan"}, "bike_id": "baf308240faabd57ef5ddfdbc214e201", "lon": -77.0395505}, {"is_reserved": 0, "fusion_lon": 0.0, "fusion_lat": 0.0, "name": "8d1a44e2a5f304fa3acf50ddead10764", "type": "electric_scooter", "is_disabled": 0, "lat": 38.91921083333333, "rental_uris": {"android": "https://dc.lft.to/lastmile_qr_scan", "ios": "https://dc.lft.to/lastmile_qr_scan"}, "bike_id": "8d1a44e2a5f304fa3acf50ddead10764", "lon": -77.025053}, {"is_reserved": 0, "fusion_lon": 0.0, "fusion_lat": 0.0, "name": "fa02afe860fce3afaaf1ac063e035c0d", "type": "electric_scooter", "is_disabled": 0, "lat": 38.905029666666664, "rental_uris": {"android": "https://dc.lft.to/lastmile_qr_scan", "ios": "https://dc.lft.to/lastmile_qr_scan"}, "bike_id": "fa02afe860fce3afaaf1ac063e035c0d", "lon": -77.04665533333333}, {"is_reserved": 0, "fusion_lon": 0.0, "fusion_lat": 0.0, "name": "0ccc19eb6a7319a97110dcdeb93d3dda", "type": "electric_scooter", "is_disabled": 0, "lat": 38.921805166666665, "rental_uris": {"android": "https://dc.lft.to/lastmile_qr_scan", "ios": "https://dc.lft.to/lastmile_qr_scan"}, "bike_id": "0ccc19eb6a7319a97110dcdeb93d3dda", "lon": -77.02653083333334}, {"is_reserved": 0, "fusion_lon": 0.0, "fusion_lat": 0.0, "name": "6981abdcb1fab07af50146af439485a8", "type": "electric_scooter", "is_disabled": 0, "lat": 38.9204735, "rental_uris": {"android": "https://dc.lft.to/lastmile_qr_scan", "ios": "https://dc.lft.to/lastmile_qr_scan"}, "bike_id": "6981abdcb1fab07af50146af439485a8", "lon": -77.04406066666667}, {"is_reserved": 0, "fusion_lon": 0.0, "fusion_lat": 0.0, "name": "c7e02362f6451d663e1b75eecf702e07", "type": "electric_scooter", "is_disabled": 0, "lat": 38.9002635, "rental_uris": {"android": "https://dc.lft.to/lastmile_qr_scan", "ios": "https://dc.lft.to/lastmile_qr_scan"}, "bike_id": "c7e02362f6451d663e1b75eecf702e07", "lon": -77.00727766666667}, {"is_reserved": 0, "fusion_lon": 0.0, "fusion_lat": 0.0, "name": "0c5b1912b46eaba93f71856651975246", "type": "electric_scooter", "is_disabled": 0, "lat": 38.907547, "rental_uris": {"android": "https://dc.lft.to/lastmile_qr_scan", "ios": "https://dc.lft.to/lastmile_qr_scan"}, "bike_id": "0c5b1912b46eaba93f71856651975246", "lon": -77.03601366666666}, {"is_reserved": 0, "fusion_lon": 0.0, "fusion_lat": 0.0, "name": "cc7b70add889817b348492fca2330e49", "type": "electric_bike", "is_disabled": 0, "lat": 38.93813183333333, "rental_uris": {"android": "https://dc.lft.to/lastmile_qr_scan", "ios": "https://dc.lft.to/lastmile_qr_scan"}, "bike_id": "cc7b70add889817b348492fca2330e49", "lon": -77.06856033333334}, {"is_reserved": 0, "fusion_lon": 0.0, "fusion_lat": 0.0, "name": "4dc754d29f409c6a4e80848a933090a9", "type": "electric_bike", "is_disabled": 0, "lat": 38.96960966666666, "rental_uris": {"android": "https://dc.lft.to/lastmile_qr_scan", "ios": "https://dc.lft.to/lastmile_qr_scan"}, "bike_id": "4dc754d29f409c6a4e80848a933090a9", "lon": -76.95746433333333}, {"is_reserved": 0, "fusion_lon": 0.0, "fusion_lat": 0.0, "name": "d4b2e9bf68a6ff0ca0f2d21f1b877749", "type": "electric_scooter", "is_disabled": 0, "lat": 38.8600845, "rental_uris": {"android": "https://dc.lft.to/lastmile_qr_scan", "ios": "https://dc.lft.to/lastmile_qr_scan"}, "bike_id": "d4b2e9bf68a6ff0ca0f2d21f1b877749", "lon": -76.98511583333334}, {"is_reserved": 0, "fusion_lon": 0.0, "fusion_lat": 0.0, "name": "78cd926968efe725b9dfd136ccae1253", "type": "electric_scooter", "is_disabled": 0, "lat": 38.8766415, "rental_uris": {"android": "https://dc.lft.to/lastmile_qr_scan", "ios": "https://dc.lft.to/lastmile_qr_scan"}, "bike_id": "78cd926968efe725b9dfd136ccae1253", "lon": -77.01951466666667}, {"is_reserved": 0, "fusion_lon": 0.0, "fusion_lat": 0.0, "name": "ec09dc322f4f9b66eb1f6a1784957ec6", "type": "electric_scooter", "is_disabled": 0, "lat": 38.90363966666666, "rental_uris": {"android": "https://dc.lft.to/lastmile_qr_scan", "ios": "https://dc.lft.to/lastmile_qr_scan"}, "bike_id": "ec09dc322f4f9b66eb1f6a1784957ec6", "lon": -77.04495183333333}, {"is_reserved": 0, "fusion_lon": 0.0, "fusion_lat": 0.0, "name": "7b83ea0b95b3ee913440deb0add716eb", "type": "electric_scooter", "is_disabled": 0, "lat": 38.94205916666667, "rental_uris": {"android": "https://dc.lft.to/lastmile_qr_scan", "ios": "https://dc.lft.to/lastmile_qr_scan"}, "bike_id": "7b83ea0b95b3ee913440deb0add716eb", "lon": -77.025164}, {"is_reserved": 0, "fusion_lon": 0.0, "fusion_lat": 0.0, "name": "2c37c438b18411c956d334f691719dcf", "type": "electric_scooter", "is_disabled": 0, "lat": 38.865343833333334, "rental_uris": {"android": "https://dc.lft.to/lastmile_qr_scan", "ios": "https://dc.lft.to/lastmile_qr_scan"}, "bike_id": "2c37c438b18411c956d334f691719dcf", "lon": -76.987093}, {"is_reserved": 0, "fusion_lon": 0.0, "fusion_lat": 0.0, "name": "c987cc37cf3f46b256035dcaa4b5bc41", "type": "electric_scooter", "is_disabled": 0, "lat": 38.8871795, "rental_uris": {"android": "https://dc.lft.to/lastmile_qr_scan", "ios": "https://dc.lft.to/lastmile_qr_scan"}, "bike_id": "c987cc37cf3f46b256035dcaa4b5bc41", "lon": -77.02802016666666}, {"is_reserved": 0, "fusion_lon": 0.0, "fusion_lat": 0.0, "name": "e9be0ab6f6164d03d6e4c864aa7e8982", "type": "electric_scooter", "is_disabled": 0, "lat": 38.90730516666667, "rental_uris": {"android": "https://dc.lft.to/lastmile_qr_scan", "ios": "https://dc.lft.to/lastmile_qr_scan"}, "bike_id": "e9be0ab6f6164d03d6e4c864aa7e8982", "lon": -77.0113695}, {"is_reserved": 0, "fusion_lon": 0.0, "fusion_lat": 0.0, "name": "0545ff58df663f2cde1c21e66558f685", "type": "electric_scooter", "is_disabled": 0, "lat": 38.86698783333333, "rental_uris": {"android": "https://dc.lft.to/lastmile_qr_scan", "ios": "https://dc.lft.to/lastmile_qr_scan"}, "bike_id": "0545ff58df663f2cde1c21e66558f685", "lon": -76.98591316666666}, {"is_reserved": 0, "fusion_lon": 0.0, "fusion_lat": 0.0, "name": "442aebc74900af5d33d287410407d4e8", "type": "electric_bike", "is_disabled": 0, "lat": 38.87278716666667, "rental_uris": {"android": "https://dc.lft.to/lastmile_qr_scan", "ios": "https://dc.lft.to/lastmile_qr_scan"}, "bike_id": "442aebc74900af5d33d287410407d4e8", "lon": -77.23320983333333}, {"is_reserved": 0, "fusion_lon": 0.0, "fusion_lat": 0.0, "name": "4f656388d3a1f0603a383b74d6d709a9", "type": "electric_scooter", "is_disabled": 0, "lat": 38.92445716666667, "rental_uris": {"android": "https://dc.lft.to/lastmile_qr_scan", "ios": "https://dc.lft.to/lastmile_qr_scan"}, "bike_id": "4f656388d3a1f0603a383b74d6d709a9", "lon": -77.04118883333334}, {"is_reserved": 0, "fusion_lon": 0.0, "fusion_lat": 0.0, "name": "972744fba853bd8bd1fc89c17b70f55d", "type": "electric_scooter", "is_disabled": 0, "lat": 38.915538166666664, "rental_uris": {"android": "https://dc.lft.to/lastmile_qr_scan", "ios": "https://dc.lft.to/lastmile_qr_scan"}, "bike_id": "972744fba853bd8bd1fc89c17b70f55d", "lon": -77.03163233333333}, {"is_reserved": 0, "fusion_lon": 0.0, "fusion_lat": 0.0, "name": "a6c738f461f09f21d9ada7095ab34503", "type": "electric_bike", "is_disabled": 0, "lat": 38.910129, "rental_uris": {"android": "https://dc.lft.to/lastmile_qr_scan", "ios": "https://dc.lft.to/lastmile_qr_scan"}, "bike_id": "a6c738f461f09f21d9ada7095ab34503", "lon": -77.22795883333333}, {"is_reserved": 0, "fusion_lon": 0.0, "fusion_lat": 0.0, "name": "1ccb6d31b1c79f65852ee2bc79404a4a", "type": "electric_scooter", "is_disabled": 0, "lat": 38.89742566666666, "rental_uris": {"android": "https://dc.lft.to/lastmile_qr_scan", "ios": "https://dc.lft.to/lastmile_qr_scan"}, "bike_id": "1ccb6d31b1c79f65852ee2bc79404a4a", "lon": -76.99571483333334}, {"is_reserved": 0, "fusion_lon": 0.0, "fusion_lat": 0.0, "name": "4044f21487adf0670e6a0f82d6cd79b0", "type": "electric_bike", "is_disabled": 0, "lat": 38.96138883333333, "rental_uris": {"android": "https://dc.lft.to/lastmile_qr_scan", "ios": "https://dc.lft.to/lastmile_qr_scan"}, "bike_id": "4044f21487adf0670e6a0f82d6cd79b0", "lon": -77.022889}, {"is_reserved": 0, "fusion_lon": 0.0, "fusion_lat": 0.0, "name": "d29a3fbad543f8e8c9e969edd5eda840", "type": "electric_bike", "is_disabled": 0, "lat": 38.95173966666667, "rental_uris": {"android": "https://dc.lft.to/lastmile_qr_scan", "ios": "https://dc.lft.to/lastmile_qr_scan"}, "bike_id": "d29a3fbad543f8e8c9e969edd5eda840", "lon": -76.96400833333334}, {"is_reserved": 0, "fusion_lon": 0.0, "fusion_lat": 0.0, "name": "312baf10823898a09ac5a0eac56f2299", "type": "electric_scooter", "is_disabled": 0, "lat": 38.92309866666667, "rental_uris": {"android": "https://dc.lft.to/lastmile_qr_scan", "ios": "https://dc.lft.to/lastmile_qr_scan"}, "bike_id": "312baf10823898a09ac5a0eac56f2299", "lon": -77.02757016666666}, {"is_reserved": 0, "fusion_lon": 0.0, "fusion_lat": 0.0, "name": "64e751e4aff67055d90f753dbfceb1e7", "type": "electric_scooter", "is_disabled": 0, "lat": 38.8749575, "rental_uris": {"android": "https://dc.lft.to/lastmile_qr_scan", "ios": "https://dc.lft.to/lastmile_qr_scan"}, "bike_id": "64e751e4aff67055d90f753dbfceb1e7", "lon": -76.99977466666667}, {"is_reserved": 0, "fusion_lon": 0.0, "fusion_lat": 0.0, "name": "a4491bafd8af8b8ad46afbea3a6f4aed", "type": "electric_scooter", "is_disabled": 0, "lat": 38.91879933333333, "rental_uris": {"android": "https://dc.lft.to/lastmile_qr_scan", "ios": "https://dc.lft.to/lastmile_qr_scan"}, "bike_id": "a4491bafd8af8b8ad46afbea3a6f4aed", "lon": -77.03505}, {"is_reserved": 0, "fusion_lon": 0.0, "fusion_lat": 0.0, "name": "74339d1f61315a8c7e3b680af78d509b", "type": "electric_scooter", "is_disabled": 0, "lat": 38.90507383333333, "rental_uris": {"android": "https://dc.lft.to/lastmile_qr_scan", "ios": "https://dc.lft.to/lastmile_qr_scan"}, "bike_id": "74339d1f61315a8c7e3b680af78d509b", "lon": -76.984825}, {"is_reserved": 0, "fusion_lon": 0.0, "fusion_lat": 0.0, "name": "d182534e3f0d44fdf108eff18c0da22c", "type": "electric_scooter", "is_disabled": 0, "lat": 38.87985916666667, "rental_uris": {"android": "https://dc.lft.to/lastmile_qr_scan", "ios": "https://dc.lft.to/lastmile_qr_scan"}, "bike_id": "d182534e3f0d44fdf108eff18c0da22c", "lon": -77.0152975}, {"is_reserved": 0, "fusion_lon": 0.0, "fusion_lat": 0.0, "name": "e90d1b816d4a2bbd97e20067820756cd", "type": "electric_scooter", "is_disabled": 0, "lat": 38.90373683333333, "rental_uris": {"android": "https://dc.lft.to/lastmile_qr_scan", "ios": "https://dc.lft.to/lastmile_qr_scan"}, "bike_id": "e90d1b816d4a2bbd97e20067820756cd", "lon": -77.00988116666667}, {"is_reserved": 0, "fusion_lon": 0.0, "fusion_lat": 0.0, "name": "a56209a8726b542fd8e2859e228c896d", "type": "electric_scooter", "is_disabled": 0, "lat": 38.9095405, "rental_uris": {"android": "https://dc.lft.to/lastmile_qr_scan", "ios": "https://dc.lft.to/lastmile_qr_scan"}, "bike_id": "a56209a8726b542fd8e2859e228c896d", "lon": -77.0457215}, {"is_reserved": 0, "fusion_lon": 0.0, "fusion_lat": 0.0, "name": "37d11c5faefcebacf1316b83457600fa", "type": "electric_bike", "is_disabled": 0, "lat": 38.827864166666664, "rental_uris": {"android": "https://dc.lft.to/lastmile_qr_scan", "ios": "https://dc.lft.to/lastmile_qr_scan"}, "bike_id": "37d11c5faefcebacf1316b83457600fa", "lon": -77.00917783333334}, {"is_reserved": 0, "fusion_lon": 0.0, "fusion_lat": 0.0, "name": "20aeb994a8f125afc769d167747d1557", "type": "electric_scooter", "is_disabled": 0, "lat": 38.921602166666666, "rental_uris": {"android": "https://dc.lft.to/lastmile_qr_scan", "ios": "https://dc.lft.to/lastmile_qr_scan"}, "bike_id": "20aeb994a8f125afc769d167747d1557", "lon": -77.03394283333333}, {"is_reserved": 0, "fusion_lon": 0.0, "fusion_lat": 0.0, "name": "3db3ea6f0bb7e0851792bfba399eda3d", "type": "electric_scooter", "is_disabled": 0, "lat": 38.91103716666667, "rental_uris": {"android": "https://dc.lft.to/lastmile_qr_scan", "ios": "https://dc.lft.to/lastmile_qr_scan"}, "bike_id": "3db3ea6f0bb7e0851792bfba399eda3d", "lon": -77.0115415}, {"is_reserved": 0, "fusion_lon": 0.0, "fusion_lat": 0.0, "name": "a864bde3927f5050df93a7a9521c51c2", "type": "electric_scooter", "is_disabled": 0, "lat": 38.90502933333333, "rental_uris": {"android": "https://dc.lft.to/lastmile_qr_scan", "ios": "https://dc.lft.to/lastmile_qr_scan"}, "bike_id": "a864bde3927f5050df93a7a9521c51c2", "lon": -77.0579125}, {"is_reserved": 0, "fusion_lon": 0.0, "fusion_lat": 0.0, "name": "8b247bad6aaffff5bc9c5831bebfbc12", "type": "electric_scooter", "is_disabled": 0, "lat": 38.91916716666667, "rental_uris": {"android": "https://dc.lft.to/lastmile_qr_scan", "ios": "https://dc.lft.to/lastmile_qr_scan"}, "bike_id": "8b247bad6aaffff5bc9c5831bebfbc12", "lon": -77.04169216666666}, {"is_reserved": 0, "fusion_lon": 0.0, "fusion_lat": 0.0, "name": "29296ddf0a543bea86bd20c22eaf8056", "type": "electric_bike", "is_disabled": 0, "lat": 38.83231383333333, "rental_uris": {"android": "https://dc.lft.to/lastmile_qr_scan", "ios": "https://dc.lft.to/lastmile_qr_scan"}, "bike_id": "29296ddf0a543bea86bd20c22eaf8056", "lon": -76.94620133333333}, {"is_reserved": 0, "fusion_lon": 0.0, "fusion_lat": 0.0, "name": "30602380e6faad2307d85ebbe80a165d", "type": "electric_scooter", "is_disabled": 0, "lat": 38.92184566666667, "rental_uris": {"android": "https://dc.lft.to/lastmile_qr_scan", "ios": "https://dc.lft.to/lastmile_qr_scan"}, "bike_id": "30602380e6faad2307d85ebbe80a165d", "lon": -77.0435295}, {"is_reserved": 0, "fusion_lon": 0.0, "fusion_lat": 0.0, "name": "c3b4a4ba6f06f481d44d1e0793129e7b", "type": "electric_scooter", "is_disabled": 0, "lat": 38.904104833333335, "rental_uris": {"android": "https://dc.lft.to/lastmile_qr_scan", "ios": "https://dc.lft.to/lastmile_qr_scan"}, "bike_id": "c3b4a4ba6f06f481d44d1e0793129e7b", "lon": -76.97332766666666}, {"is_reserved": 0, "fusion_lon": 0.0, "fusion_lat": 0.0, "name": "0381e1be0bc31e4c73fba2d44167cec1", "type": "electric_scooter", "is_disabled": 0, "lat": 38.87692283333333, "rental_uris": {"android": "https://dc.lft.to/lastmile_qr_scan", "ios": "https://dc.lft.to/lastmile_qr_scan"}, "bike_id": "0381e1be0bc31e4c73fba2d44167cec1", "lon": -77.00422566666667}, {"is_reserved": 0, "fusion_lon": 0.0, "fusion_lat": 0.0, "name": "f9cca73d46612ac37fb905b7895b2816", "type": "electric_scooter", "is_disabled": 0, "lat": 38.902064833333334, "rental_uris": {"android": "https://dc.lft.to/lastmile_qr_scan", "ios": "https://dc.lft.to/lastmile_qr_scan"}, "bike_id": "f9cca73d46612ac37fb905b7895b2816", "lon": -77.04812966666667}, {"is_reserved": 0, "fusion_lon": 0.0, "fusion_lat": 0.0, "name": "8e93471267f16d5b6c95b3cc85042615", "type": "electric_scooter", "is_disabled": 0, "lat": 38.9110235, "rental_uris": {"android": "https://dc.lft.to/lastmile_qr_scan", "ios": "https://dc.lft.to/lastmile_qr_scan"}, "bike_id": "8e93471267f16d5b6c95b3cc85042615", "lon": -77.02800616666667}, {"is_reserved": 0, "fusion_lon": 0.0, "fusion_lat": 0.0, "name": "982dde7c720f965dd7f74e0cb1ddbf26", "type": "electric_scooter", "is_disabled": 0, "lat": 38.885590666666666, "rental_uris": {"android": "https://dc.lft.to/lastmile_qr_scan", "ios": "https://dc.lft.to/lastmile_qr_scan"}, "bike_id": "982dde7c720f965dd7f74e0cb1ddbf26", "lon": -76.99805316666666},