{"data": {"bikes": [{"is_disabled": 0, "rental_uris": {"android": "https://dc.lft.to/lastmile_qr_scan", "ios": "https://dc.lft.to/lastmile_qr_scan"}, "is_reserved": 0, "name": "c8f1b451dd3168aa936d8c6b85ce7c3e", "lon": -77.072663, "type": "electric_scooter", "bike_id": "c8f1b451dd3168aa936d8c6b85ce7c3e", "fusion_lon": 0.0, "lat": 38.906763833333336, "fusion_lat": 0.0}, {"is_disabled": 0, "rental_uris": {"android": "https://dc.lft.to/lastmile_qr_scan", "ios": "https://dc.lft.to/lastmile_qr_scan"}, "is_reserved": 0, "name": "5219734d11248a3f79200e331ad39dd8", "lon": -77.0439855, "type": "electric_scooter", "bike_id": "5219734d11248a3f79200e331ad39dd8", "fusion_lon": 0.0, "lat": 38.910806666666666, "fusion_lat": 0.0}, {"is_disabled": 0, "rental_uris": {"android": "https://dc.lft.to/lastmile_qr_scan", "ios": "https://dc.lft.to/lastmile_qr_scan"}, "is_reserved": 0, "name": "3c3897a6f2c9d001a1a448719c0b0f52", "lon": -77.04017733333333, "type": "electric_scooter", "bike_id": "3c3897a6f2c9d001a1a448719c0b0f52", "fusion_lon": 0.0, "lat": 38.913115, "fusion_lat": 0.0}, {"is_disabled": 0, "rental_uris": {"android": "https://dc.lft.to/lastmile_qr_scan", "ios": "https://dc.lft.to/lastmile_qr_scan"}, "is_reserved": 0, "name": "a4a86482bd323dd94229312b86f4f1e5", "lon": -77.03856866666666, "type": "electric_scooter", "bike_id": "a4a86482bd323dd94229312b86f4f1e5", "fusion_lon": 0.0, "lat": 38.90782733333333, "fusion_lat": 0.0}, {"is_disabled": 0, "rental_uris": {"android": "https://dc.lft.to/lastmile_qr_scan", "ios": "https://dc.lft.to/lastmile_qr_scan"}, "is_reserved": 0, "name": "16ec010ec1b3c97f6b25cc046e528680", "lon": -77.02721283333334, "type": "electric_scooter", "bike_id": "16ec010ec1b3c97f6b25cc046e528680", "fusion_lon": 0.0, "lat": 38.908572166666666, "fusion_lat": 0.0}, {"is_disabled": 0, "rental_uris": {"android": "https://dc.lft.to/lastmile_qr_scan", "ios": "https://dc.lft.to/lastmile_qr_scan"}, "is_reserved": 0, "name": "6b804e9331e07e403385cf81dfb60707", "lon": -77.02720333333333, "type": "electric_scooter", "bike_id": "6b804e9331e07e403385cf81dfb60707", "fusion_lon": 0.0, "lat": 38.940866, "fusion_lat": 0.0}, {"is_disabled": 0, "rental_uris": {"android": "https://dc.lft.to/lastmile_qr_scan", "ios": "https://dc.lft.to/lastmile_qr_scan"}, "is_reserved": 0, "name": "c295d2c173c645fc4ea666e892a095af", "lon": -77.0278895, "type": "electric_scooter", "bike_id": "c295d2c173c645fc4ea666e892a095af", "fusion_lon": 0.0, "lat": 38.926841, "fusion_lat": 0.0}, {"is_disabled": 0, "rental_uris": {"android": "https://dc.lft.to/lastmile_qr_scan", "ios": "https://dc.lft.to/lastmile_qr_scan"}, "is_reserved": 0, "name": "b38f3fe3399951c51947882d272eee5d", "lon": -77.03159166666667, "type": "electric_scooter", "bike_id": "b38f3fe3399951c51947882d272eee5d", "fusion_lon": 0.0, "lat": 38.927926166666666, "fusion_lat": 0.0}, {"is_disabled": 0, "rental_uris": {"android": "https://dc.lft.to/lastmile_qr_scan", "ios": "https://dc.lft.to/lastmile_qr_scan"}, "is_reserved": 0, "name": "ce97ed0874de7561bad6bfd92b80fdc7", "lon": -77.043751, "type": "electric_scooter", "bike_id": "ce97ed0874de7561bad6bfd92b80fdc7", "fusion_lon": 0.0, "lat": 38.9213235, "fusion_lat": 0.0}, {"is_disabled": 0, "rental_uris": {"android": "https://dc.lft.to/lastmile_qr_scan", "ios": "https://dc.lft.to/lastmile_qr_scan"}, "is_reserved": 0, "name": "b379f776529b8e825d40dcf21fd1f70e", "lon": -77.0210315, "type": "electric_bike", "bike_id": "b379f776529b8e825d40dcf21fd1f70e", "fusion_lon": 0.0, "lat": 39.02298416666667, "fusion_lat": 0.0}, {"is_disabled": 0, "rental_uris": {"android": "https://dc.lft.to/lastmile_qr_scan", "ios": "https://dc.lft.to/lastmile_qr_scan"}, "is_reserved": 0, "name": "8b3a5d2dd4fc1a64f8fc49f4289427d0", "lon": -77.0386175, "type": "electric_scooter", "bike_id": "8b3a5d2dd4fc1a64f8fc49f4289427d0", "fusion_lon": 0.0, "lat": 38.90679, "fusion_lat": 0.0}, {"is_disabled": 0, "rental_uris": {"android": "https://dc.lft.to/lastmile_qr_scan", "ios": "https://dc.lft.to/lastmile_qr_scan"}, "is_reserved": 0, "name": "421d0091ce13f7c9513f3d87f172fd17", "lon": -77.05940633333333, "type": "electric_scooter", "bike_id": "421d0091ce13f7c9513f3d87f172fd17", "fusion_lon": 0.0, "lat": 38.93678533333333, "fusion_lat": 0.0}, {"is_disabled": 0, "rental_uris": {"android": "https://dc.lft.to/lastmile_qr_scan", "ios": "https://dc.lft.to/lastmile_qr_scan"}, "is_reserved": 0, "name": "088303575cdf4c85ba40ec11a15d971f", "lon": -77.128991, "type": "electric_bike", "bike_id": "088303575cdf4c85ba40ec11a15d971f", "fusion_lon": 0.0, "lat": 38.863777, "fusion_lat": 0.0}, {"is_disabled": 0, "rental_uris": {"android": "https://dc.lft.to/lastmile_qr_scan", "ios": "https://dc.lft.to/lastmile_qr_scan"}, "is_reserved": 0, "name": "58b2e56531f818538c2cf74c16d73600", "lon": -77.00914583333333, "type": "electric_scooter", "bike_id": "58b2e56531f818538c2cf74c16d73600", "fusion_lon": 0.0, "lat": 38.959548833333336, "fusion_lat": 0.0}, {"is_disabled": 0, "rental_uris": {"android": "https://dc.lft.to/lastmile_qr_scan", "ios": "https://dc.lft.to/lastmile_qr_scan"}, "is_reserved": 0, "name": "09963b4a83c6090feb5ff34b39e4e4a6", "lon": -77.0541545, "type": "electric_scooter", "bike_id": "09963b4a83c6090feb5ff34b39e4e4a6", "fusion_lon": 0.0, "lat": 38.928174, "fusion_lat": 0.0}, {"is_disabled": 0, "rental_uris": {"android": "https://dc.lft.to/lastmile_qr_scan", "ios": "https://dc.lft.to/lastmile_qr_scan"}, "is_reserved": 0, "name": "b6f798577904250c637238321f412927", "lon": -77.01222416666667, "type": "electric_scooter", "bike_id": "b6f798577904250c637238321f412927", "fusion_lon": 0.0, "lat": 38.9169695, "fusion_lat": 0.0}, {"is_disabled": 0, "rental_uris": {"android": "https://dc.lft.to/lastmile_qr_scan", "ios": "https://dc.lft.to/lastmile_qr_scan"}, "is_reserved": 0, "name": "821f96ac4d10aa93cda0b94f634aca3c", "lon": -76.94698966666667, "type": "electric_scooter", "bike_id": "821f96ac4d10aa93cda0b94f634aca3c", "fusion_lon": 0.0, "lat": 38.896704, "fusion_lat": 0.0}, {"is_disabled": 0, "rental_uris": {"android": "https://dc.lft.to/lastmile_qr_scan", "ios": "https://dc.lft.to/lastmile_qr_scan"}, "is_reserved": 0, "name": "3d04afc1b67b395ce52a1d7f19d3682a", "lon": -77.04590333333333, "type": "electric_scooter", "bike_id": "3d04afc1b67b395ce52a1d7f19d3682a", "fusion_lon": 0.0, "lat": 38.91712666666667, "fusion_lat": 0.0}, {"is_disabled": 0, "rental_uris": {"android": "https://dc.lft.to/lastmile_qr_scan", "ios": "https://dc.lft.to/lastmile_qr_scan"}, "is_reserved": 0, "name": "7ac2288adf40e7fc890f2712f410d34e", "lon": -77.022221, "type": "electric_scooter", "bike_id": "7ac2288adf40e7fc890f2712f410d34e", "fusion_lon": 0.0, "lat": 38.887474833333336, "fusion_lat": 0.0}, {"is_disabled": 0, "rental_uris": {"android": "https://dc.lft.to/lastmile_qr_scan", "ios": "https://dc.lft.to/lastmile_qr_scan"}, "is_reserved": 0, "name": "239374392d84003b4aecab050649093d", "lon": -76.95750766666667, "type": "electric_scooter", "bike_id": "239374392d84003b4aecab050649093d", "fusion_lon": 0.0, "lat": 38.884305499999996, "fusion_lat": 0.0}, {"is_disabled": 0, "rental_uris": {"android": "https://dc.lft.to/lastmile_qr_scan", "ios": "https://dc.lft.to/lastmile_qr_scan"}, "is_reserved": 0, "name": "dead5123c0e8a30bf6b107b793db8fc2", "lon": -76.966857, "type": "electric_bike", "bike_id": "dead5123c0e8a30bf6b107b793db8fc2", "fusion_lon": 0.0, "lat": 38.95893783333333, "fusion_lat": 0.0}, {"is_disabled": 0, "rental_uris": {"android": "https://dc.lft.to/lastmile_qr_scan", "ios": "https://dc.lft.to/lastmile_qr_scan"}, "is_reserved": 0, "name": "a2ac8a8fda40ed83117755800227c088", "lon": -77.03464816666667, "type": "electric_scooter", "bike_id": "a2ac8a8fda40ed83117755800227c088", "fusion_lon": 0.0, "lat": 38.90982233333333, "fusion_lat": 0.0}, {"is_disabled": 0, "rental_uris": {"android": "https://dc.lft.to/lastmile_qr_scan", "ios": "https://dc.lft.to/lastmile_qr_scan"}, "is_reserved": 0, "name": "994c31ebd426b8a1cce6919613c6ad9a", "lon": -77.05026616666666, "type": "electric_scooter", "bike_id": "994c31ebd426b8a1cce6919613c6ad9a", "fusion_lon": 0.0, "lat": 38.895765, "fusion_lat": 0.0}, {"is_disabled": 0, "rental_uris": {"android": "https://dc.lft.to/lastmile_qr_scan", "ios": "https://dc.lft.to/lastmile_qr_scan"}, "is_reserved": 0, "name": "3576fdfe16ac5754ba57c273af43c537", "lon": -76.988314, "type": "electric_scooter", "bike_id": "3576fdfe16ac5754ba57c273af43c537", "fusion_lon": 0.0, "lat": 38.8998705, "fusion_lat": 0.0}, {"is_disabled": 0, "rental_uris": {"android": "https://dc.lft.to/lastmile_qr_scan", "ios": "https://dc.lft.to/lastmile_qr_scan"}, "is_reserved": 0, "name": "b231138d135a3ce4fd38d62d242743b2", "lon": -76.9499305, "type": "electric_scooter", "bike_id": "b231138d135a3ce4fd38d62d242743b2", "fusion_lon": 0.0, "lat": 38.8939185, "fusion_lat": 0.0}, {"is_disabled": 0, "rental_uris": {"android": "https://dc.lft.to/lastmile_qr_scan", "ios": "https://dc.lft.to/lastmile_qr_scan"}, "is_reserved": 0, "name": "933acbd125565d587501093101f05941", "lon": -77.04658516666667, "type": "electric_scooter", "bike_id": "933acbd125565d587501093101f05941", "fusion_lon": 0.0, "lat": 38.893376833333335, "fusion_lat": 0.0}, {"is_disabled": 0, "rental_uris": {"android": "https://dc.lft.to/lastmile_qr_scan", "ios": "https://dc.lft.to/lastmile_qr_scan"}, "is_reserved": 0, "name": "7de667bf3aff332108486a9f36098f89", "lon": -77.01990433333333, "type": "electric_scooter", "bike_id": "7de667bf3aff332108486a9f36098f89", "fusion_lon": 0.0, "lat": 38.875766166666665, "fusion_lat": 0.0}, {"is_disabled": 0, "rental_uris": {"android": "https://dc.lft.to/lastmile_qr_scan", "ios": "https://dc.lft.to/lastmile_qr_scan"}, "is_reserved": 0, "name": "212943e1cc0fdc8ff0e3d90dea0660be", "lon": -77.065297, "type": "electric_scooter", "bike_id": "212943e1cc0fdc8ff0e3d90dea0660be", "fusion_lon": 0.0, "lat": 38.90519283333333, "fusion_lat": 0.0}, {"is_disabled": 0, "rental_uris": {"android": "https://dc.lft.to/lastmile_qr_scan", "ios": "https://dc.lft.to/lastmile_qr_scan"}, "is_reserved": 0, "name": "2c56828f6f44855854a0310bad968552", "lon": -77.0445525, "type": "electric_scooter", "bike_id": "2c56828f6f44855854a0310bad968552", "fusion_lon": 0.0, "lat": 38.908514833333335, "fusion_lat": 0.0}, {"is_disabled": 0, "rental_uris": {"android": "https://dc.lft.to/lastmile_qr_scan", "ios": "https://dc.lft.to/lastmile_qr_scan"}, "is_reserved": 0, "name": "09d99992496207260bdd712d3e58e96a", "lon": -77.05194466666667, "type": "electric_scooter", "bike_id": "09d99992496207260bdd712d3e58e96a", "fusion_lon": 0.0, "lat": 38.925588833333336, "fusion_lat": 0.0}, {"is_disabled": 0, "rental_uris": {"android": "https://dc.lft.to/lastmile_qr_scan", "ios": "https://dc.lft.to/lastmile_qr_scan"}, "is_reserved": 0, "name": "42198763a6a6f5e1700b4557ec8609b0", "lon": -77.0269065, "type": "electric_scooter", "bike_id": "42198763a6a6f5e1700b4557ec8609b0", "fusion_lon": 0.0, "lat": 38.9073625, "fusion_lat": 0.0}, {"is_disabled": 0, "rental_uris": {"android": "https://dc.lft.to/lastmile_qr_scan", "ios": "https://dc.lft.to/lastmile_qr_scan"}, "is_reserved": 0, "name": "f229d9a07deb00f676e9fde68dee1f0e", "lon": -77.080473, "type": "electric_bike", "bike_id": "f229d9a07deb00f676e9fde68dee1f0e", "fusion_lon": 0.0, "lat": 38.84842716666667, "fusion_lat": 0.0}, {"is_disabled": 0, "rental_uris": {"android": "https://dc.lft.to/lastmile_qr_scan", "ios": "https://dc.lft.to/lastmile_qr_scan"}, "is_reserved": 0, "name": "24d1bcac6d0526dc2e0cadea28b534f4", "lon": -77.02041616666666, "type": "electric_scooter", "bike_id": "24d1bcac6d0526dc2e0cadea28b534f4", "fusion_lon": 0.0, "lat": 38.91559616666667, "fusion_lat": 0.0}, {"is_disabled": 0, "rental_uris": {"android": "https://dc.lft.to/lastmile_qr_scan", "ios": "https://dc.lft.to/lastmile_qr_scan"}, "is_reserved": 0, "name": "c5dd31184e4909684e33af3c44ce459d", "lon": -77.041587, "type": "electric_scooter", "bike_id": "c5dd31184e4909684e33af3c44ce459d", "fusion_lon": 0.0, "lat": 38.91419533333333, "fusion_lat": 0.0}, {"is_disabled": 0, "rental_uris": {"android": "https://dc.lft.to/lastmile_qr_scan", "ios": "https://dc.lft.to/lastmile_qr_scan"}, "is_reserved": 0, "name": "901d4ef82ee79a1edf1f769aa0ab0696", "lon": -77.02415166666667, "type": "electric_scooter", "bike_id": "901d4ef82ee79a1edf1f769aa0ab0696", "fusion_lon": 0.0, "lat": 38.909618333333334, "fusion_lat": 0.0}, {"is_disabled": 0, "rental_uris": {"android": "https://dc.lft.to/lastmile_qr_scan", "ios": "https://dc.lft.to/lastmile_qr_scan"}, "is_reserved": 0, "name": "98a882eb4f4cdc5e4070bc50963db274", "lon": -77.0318095, "type": "electric_scooter", "bike_id": "98a882eb4f4cdc5e4070bc50963db274", "fusion_lon": 0.0, "lat": 38.8923265, "fusion_lat": 0.0}, {"is_disabled": 0, "rental_uris": {"android": "https://dc.lft.to/lastmile_qr_scan", "ios": "https://dc.lft.to/lastmile_qr_scan"}, "is_reserved": 0, "name": "c604ac62a380b5cb570d2d8ceea66be6", "lon": -77.00190566666667, "type": "electric_scooter", "bike_id": "c604ac62a380b5cb570d2d8ceea66be6", "fusion_lon": 0.0, "lat": 38.902395, "fusion_lat": 0.0}, {"is_disabled": 0, "rental_uris": {"android": "https://dc.lft.to/lastmile_qr_scan", "ios": "https://dc.lft.to/lastmile_qr_scan"}, "is_reserved": 0, "name": "9723ed358f9a21ba62ed20d753032b90", "lon": -76.99957066666667, "type": "electric_scooter", "bike_id": "9723ed358f9a21ba62ed20d753032b90", "fusion_lon": 0.0, "lat": 38.903377166666665, "fusion_lat": 0.0}, {"is_disabled": 0, "rental_uris": {"android": "https://dc.lft.to/lastmile_qr_scan", "ios": "https://dc.lft.to/lastmile_qr_scan"}, "is_reserved": 0, "name": "092f7e489348fb19da7cb9e1a9e7602c", "lon": -77.006449, "type": "electric_bike", "bike_id": "092f7e489348fb19da7cb9e1a9e7602c", "fusion_lon": 0.0, "lat": 38.94474733333333, "fusion_lat": 0.0}, {"is_disabled": 0, "rental_uris": {"android": "https://dc.lft.to/lastmile_qr_scan", "ios": "https://dc.lft.to/lastmile_qr_scan"}, "is_reserved": 0, "name": "221572c7da06c00922c2c410384db35b", "lon": -77.03186533333333, "type": "electric_scooter", "bike_id": "221572c7da06c00922c2c410384db35b", "fusion_lon": 0.0, "lat": 38.91913666666667, "fusion_lat": 0.0}, {"is_disabled": 0, "rental_uris": {"android": "https://dc.lft.to/lastmile_qr_scan", "ios": "https://dc.lft.to/lastmile_qr_scan"}, "is_reserved": 0, "name": "f9d0d08d039addd8e50b912b2af10924", "lon": -77.0387695, "type": "electric_scooter", "bike_id": "f9d0d08d039addd8e50b912b2af10924", "fusion_lon": 0.0, "lat": 38.93429283333333, "fusion_lat": 0.0}, {"is_disabled": 0, "rental_uris": {"android": "https://dc.lft.to/lastmile_qr_scan", "ios": "https://dc.lft.to/lastmile_qr_scan"}, "is_reserved": 0, "name": "4ae43c9926d2e57fa4b310f50aa2a93a", "lon": -77.04356133333333, "type": "electric_scooter", "bike_id": "4ae43c9926d2e57fa4b310f50aa2a93a", "fusion_lon": 0.0, "lat": 38.901259833333334, "fusion_lat": 0.0}, {"is_disabled": 0, "rental_uris": {"android": "https://dc.lft.to/lastmile_qr_scan", "ios": "https://dc.lft.to/lastmile_qr_scan"}, "is_reserved": 0, "name": "61aa3d8222381807faf404fb0af154d8", "lon": -77.03185, "type": "electric_scooter", "bike_id": "61aa3d8222381807faf404fb0af154d8", "fusion_lon": 0.0, "lat": 38.91905883333333, "fusion_lat": 0.0}, {"is_disabled": 0, "rental_uris": {"android": "https://dc.lft.to/lastmile_qr_scan", "ios": "https://dc.lft.to/lastmile_qr_scan"}, "is_reserved": 0, "name": "6c772aeabcd504a6f1985e6dd27eff69", "lon": -77.02174933333333, "type": "electric_scooter", "bike_id": "6c772aeabcd504a6f1985e6dd27eff69", "fusion_lon": 0.0, "lat": 38.89747116666667, "fusion_lat": 0.0}, {"is_disabled": 0, "rental_uris": {"android": "https://dc.lft.to/lastmile_qr_scan", "ios": "https://dc.lft.to/lastmile_qr_scan"}, "is_reserved": 0, "name": "6551ef13cebc4f94a30955d282e31fd9", "lon": -77.05109883333333, "type": "electric_bike", "bike_id": "6551ef13cebc4f94a30955d282e31fd9", "fusion_lon": 0.0, "lat": 38.9456105, "fusion_lat": 0.0}, {"is_disabled": 0, "rental_uris": {"android": "https://dc.lft.to/lastmile_qr_scan", "ios": "https://dc.lft.to/lastmile_qr_scan"}, "is_reserved": 0, "name": "71f14012086108cc317f3f205facb28b", "lon": -77.03330733333334, "type": "electric_scooter", "bike_id": "71f14012086108cc317f3f205facb28b", "fusion_lon": 0.0, "lat": 38.89829733333333, "fusion_lat": 0.0}, {"is_disabled": 0, "rental_uris": {"android": "https://dc.lft.to/lastmile_qr_scan", "ios": "https://dc.lft.to/lastmile_qr_scan"}, "is_reserved": 0, "name": "eafe0c16042997cc5ec52cf1e5d87567", "lon": -77.10715766666667, "type": "electric_bike", "bike_id": "eafe0c16042997cc5ec52cf1e5d87567", "fusion_lon": 0.0, "lat": 38.8553305, "fusion_lat": 0.0}, {"is_disabled": 0, "rental_uris": {"android": "https://dc.lft.to/lastmile_qr_scan", "ios": "https://dc.lft.to/lastmile_qr_scan"}, "is_reserved": 0, "name": "6d91d5b8cbe28e4f80313a816a231c02", "lon": -76.9836665, "type": "electric_scooter", "bike_id": "6d91d5b8cbe28e4f80313a816a231c02", "fusion_lon": 0.0, "lat": 38.921995333333335, "fusion_lat": 0.0}, {"is_disabled": 0, "rental_uris": {"android": "https://dc.lft.to/lastmile_qr_scan", "ios": "https://dc.lft.to/lastmile_qr_scan"}, "is_reserved": 0, "name": "b96b67498ca75dc86a49152054d64844", "lon": -77.03196916666667, "type": "electric_scooter", "bike_id": "b96b67498ca75dc86a49152054d64844", "fusion_lon": 0.0, "lat": 38.930651, "fusion_lat": 0.0}, {"is_disabled": 0, "rental_uris": {"android": "https://dc.lft.to/lastmile_qr_scan", "ios": "https://dc.lft.to/lastmile_qr_scan"}, "is_reserved": 0, "name": "0c42a0d47ebe29687308c0a0d50c8d16", "lon": -77.06361116666666, "type": "electric_scooter", "bike_id": "0c42a0d47ebe29687308c0a0d50c8d16", "fusion_lon": 0.0, "lat": 38.944154833333336, "fusion_lat": 0.0}, {"is_disabled": 0, "rental_uris": {"android": "https://dc.lft.to/lastmile_qr_scan", "ios": "https://dc.lft.to/lastmile_qr_scan"}, "is_reserved": 0, "name": "e00822d200d391199ecbb76910873237", "lon": -77.04030616666667, "type": "electric_scooter", "bike_id": "e00822d200d391199ecbb76910873237", "fusion_lon": 0.0, "lat": 38.91785316666667, "fusion_lat": 0.0}, {"is_disabled": 0, "rental_uris": {"android": "https://dc.lft.to/lastmile_qr_scan", "ios": "https://dc.lft.to/lastmile_qr_scan"}, "is_reserved": 0, "name": "b3ba3b5be5b0b3e525f9d6e47138c237", "lon": -77.01553766666666, "type": "electric_scooter", "bike_id": "b3ba3b5be5b0b3e525f9d6e47138c237", "fusion_lon": 0.0, "lat": 38.87264066666667, "fusion_lat": 0.0}, {"is_disabled": 0, "rental_uris": {"android": "https://dc.lft.to/lastmile_qr_scan", "ios": "https://dc.lft.to/lastmile_qr_scan"}, "is_reserved": 0, "name": "dfd2e0c7dc32ac8459c9c7dece20aa43", "lon": -76.995347, "type": "electric_scooter", "bike_id": "dfd2e0c7dc32ac8459c9c7dece20aa43", "fusion_lon": 0.0, "lat": 38.862558666666665, "fusion_lat": 0.0}, {"is_disabled": 0, "rental_uris": {"android": "https://dc.lft.to/lastmile_qr_scan", "ios": "https://dc.lft.to/lastmile_qr_scan"}, "is_reserved": 0, "name": "791559e0443984afaf84d5732ac6d0ed", "lon": -77.007111, "type": "electric_scooter", "bike_id": "791559e0443984afaf84d5732ac6d0ed", "fusion_lon": 0.0, "lat": 38.88491466666667, "fusion_lat": 0.0}, {"is_disabled": 0, "rental_uris": {"android": "https://dc.lft.to/lastmile_qr_scan", "ios": "https://dc.lft.to/lastmile_qr_scan"}, "is_reserved": 0, "name": "cb4513bfe4c8855b7fddf3fdaf80c678", "lon": -77.0300035, "type": "electric_scooter", "bike_id": "cb4513bfe4c8855b7fddf3fdaf80c678", "fusion_lon": 0.0, "lat": 38.92480616666667, "fusion_lat": 0.0}, {"is_disabled": 0, "rental_uris": {"android": "https://dc.lft.to/lastmile_qr_scan", "ios": "https://dc.lft.to/lastmile_qr_scan"}, "is_reserved": 0, "name": "3eb1ca3b11190f716dfca74606e84cf0", "lon": -77.0222365, "type": "electric_scooter", "bike_id": "3eb1ca3b11190f716dfca74606e84cf0", "fusion_lon": 0.0, "lat": 38.912696833333335, "fusion_lat": 0.0}, {"is_disabled": 0, "rental_uris": {"android": "https://dc.lft.to/lastmile_qr_scan", "ios": "https://dc.lft.to/lastmile_qr_scan"}, "is_reserved": 0, "name": "de6a37b7f9303782fbaa8f17709df0a9", "lon": -77.03983516666666, "type": "electric_bike", "bike_id": "de6a37b7f9303782fbaa8f17709df0a9", "fusion_lon": 0.0, "lat": 38.802981, "fusion_lat": 0.0}, {"is_disabled": 0, "rental_uris": {"android": "https://dc.lft.to/lastmile_qr_scan", "ios": "https://dc.lft.to/lastmile_qr_scan"}, "is_reserved": 0, "name": "3ba74c6e7d392dc9c59f39e3eb8b7faf", "lon": -77.01759266666667, "type": "electric_scooter", "bike_id": "3ba74c6e7d392dc9c59f39e3eb8b7faf", "fusion_lon": 0.0, "lat": 38.883408833333334, "fusion_lat": 0.0}, {"is_disabled": 0, "rental_uris": {"android": "https://dc.lft.to/lastmile_qr_scan", "ios": "https://dc.lft.to/lastmile_qr_scan"}, "is_reserved": 0, "name": "b3f2228138bc9b77d2a00d964cb653ea", "lon": -77.03658783333333, "type": "electric_scooter", "bike_id": "b3f2228138bc9b77d2a00d964cb653ea", "fusion_lon": 0.0, "lat": 38.912310166666664, "fusion_lat": 0.0}, {"is_disabled": 0, "rental_uris": {"android": "https://dc.lft.to/lastmile_qr_scan", "ios": "https://dc.lft.to/lastmile_qr_scan"}, "is_reserved": 0, "name": "7751a7b0cc3991fe025580485c36ce56", "lon": -77.03992716666667, "type": "electric_scooter", "bike_id": "7751a7b0cc3991fe025580485c36ce56", "fusion_lon": 0.0, "lat": 38.907324333333335, "fusion_lat": 0.0}, {"is_disabled": 0, "rental_uris": {"android": "https://dc.lft.to/lastmile_qr_scan", "ios": "https://dc.lft.to/lastmile_qr_scan"}, "is_reserved": 0, "name": "d1e12aad94b9177182cc461b4b0a9dcb", "lon": -77.095659, "type": "electric_bike", "bike_id": "d1e12aad94b9177182cc461b4b0a9dcb", "fusion_lon": 0.0, "lat": 38.9167725, "fusion_lat": 0.0}, {"is_disabled": 0, "rental_uris": {"android": "https://dc.lft.to/lastmile_qr_scan", "ios": "https://dc.lft.to/lastmile_qr_scan"}, "is_reserved": 0, "name": "6d1bec3816f80487bec7aef4fb024b79", "lon": -77.01469783333333, "type": "electric_scooter", "bike_id": "6d1bec3816f80487bec7aef4fb024b79", "fusion_lon": 0.0, "lat": 38.91770433333333, "fusion_lat": 0.0}, {"is_disabled": 0, "rental_uris": {"android": "https://dc.lft.to/lastmile_qr_scan", "ios": "https://dc.lft.to/lastmile_qr_scan"}, "is_reserved": 0, "name": "0a648ea1cf6463028eb479ab8c95e2b6", "lon": -77.04371216666667, "type": "electric_scooter", "bike_id": "0a648ea1cf6463028eb479ab8c95e2b6", "fusion_lon": 0.0, "lat": 38.9027085, "fusion_lat": 0.0}, {"is_disabled": 0, "rental_uris": {"android": "https://dc.lft.to/lastmile_qr_scan", "ios": "https://dc.lft.to/lastmile_qr_scan"}, "is_reserved": 0, "name": "9c1a00504a998f8b8da2e99c87374c2e", "lon": -77.0153145, "type": "electric_scooter", "bike_id": "9c1a00504a998f8b8da2e99c87374c2e", "fusion_lon": 0.0, "lat": 38.88747583333333, "fusion_lat": 0.0}, {"is_disabled": 0, "rental_uris": {"android": "https://dc.lft.to/lastmile_qr_scan", "ios": "https://dc.lft.to/lastmile_qr_scan"}, "is_reserved": 0, "name": "bb6d52eef5f0b40e716916f78c9ec9e2", "lon": -76.98355866666667, "type": "electric_scooter", "bike_id": "bb6d52eef5f0b40e716916f78c9ec9e2", "fusion_lon": 0.0, "lat": 38.91546533333333, "fusion_lat": 0.0}, {"is_disabled": 0, "rental_uris": {"android": "https://dc.lft.to/lastmile_qr_scan", "ios": "https://dc.lft.to/lastmile_qr_scan"}, "is_reserved": 0, "name": "3a4c7bec1742980ba62b45e761a26cbd", "lon": -77.03139866666666, "type": "electric_scooter", "bike_id": "3a4c7bec1742980ba62b45e761a26cbd", "fusion_lon": 0.0, "lat": 38.9248675, "fusion_lat": 0.0}, {"is_disabled": 0, "rental_uris": {"android": "https://dc.lft.to/lastmile_qr_scan", "ios": "https://dc.lft.to/lastmile_qr_scan"}, "is_reserved": 0, "name": "892497529d15de12ab7643539601973a", "lon": -77.01105633333333, "type": "electric_scooter", "bike_id": "892497529d15de12ab7643539601973a", "fusion_lon": 0.0, "lat": 38.90969183333333, "fusion_lat": 0.0}, {"is_disabled": 0, "rental_uris": {"android": "https://dc.lft.to/lastmile_qr_scan", "ios": "https://dc.lft.to/lastmile_qr_scan"}, "is_reserved": 0, "name": "b7e3dea61f27e0ac479fd793a8e0ffaa", "lon": -77.0407385, "type": "electric_scooter", "bike_id": "b7e3dea61f27e0ac479fd793a8e0ffaa", "fusion_lon": 0.0, "lat": 38.900257333333336, "fusion_lat": 0.0}, {"is_disabled": 0, "rental_uris": {"android": "https://dc.lft.to/lastmile_qr_scan", "ios": "https://dc.lft.to/lastmile_qr_scan"}, "is_reserved": 0, "name": "40db09e363dc568b1811bb9eb110b2de", "lon": -77.038642, "type": "electric_scooter", "bike_id": "40db09e363dc568b1811bb9eb110b2de", "fusion_lon": 0.0, "lat": 38.909739333333334, "fusion_lat": 0.0}, {"is_disabled": 0, "rental_uris": {"android": "https://dc.lft.to/lastmile_qr_scan", "ios": "https://dc.lft.to/lastmile_qr_scan"}, "is_reserved": 0, "name": "8717ab74f228c17d18a3db858ee7453c", "lon": -76.98111916666667, "type": "electric_scooter", "bike_id": "8717ab74f228c17d18a3db858ee7453c", "fusion_lon": 0.0, "lat": 38.8961135, "fusion_lat": 0.0}, {"is_disabled": 0, "rental_uris": {"android": "https://dc.lft.to/lastmile_qr_scan", "ios": "https://dc.lft.to/lastmile_qr_scan"}, "is_reserved": 0, "name": "8fbc30424a2e8f538db190825f194d8b", "lon": -77.00336733333333, "type": "electric_scooter", "bike_id": "8fbc30424a2e8f538db190825f194d8b", "fusion_lon": 0.0, "lat": 38.88987083333333, "fusion_lat": 0.0}, {"is_disabled": 0, "rental_uris": {"android": "https://dc.lft.to/lastmile_qr_scan", "ios": "https://dc.lft.to/lastmile_qr_scan"}, "is_reserved": 0, "name": "4f622c734095a2c57a3d90189e38a765", "lon": -77.01391083333333, "type": "electric_scooter", "bike_id": "4f622c734095a2c57a3d90189e38a765", "fusion_lon": 0.0, "lat": 38.880359, "fusion_lat": 0.0}, {"is_disabled": 0, "rental_uris": {"android": "https://dc.lft.to/lastmile_qr_scan", "ios": "https://dc.lft.to/lastmile_qr_scan"}, "is_reserved": 0, "name": "4369231ce3e2d1b6c92401d74148b1ce", "lon": -77.031962, "type": "electric_scooter", "bike_id": "4369231ce3e2d1b6c92401d74148b1ce", "fusion_lon": 0.0, "lat": 38.91014883333333, "fusion_lat": 0.0}, {"is_disabled": 0, "rental_uris": {"android": "https://dc.lft.to/lastmile_qr_scan", "ios": "https://dc.lft.to/lastmile_qr_scan"}, "is_reserved": 0, "name": "c8b7fc726a1a78f2199495645b0b9329", "lon": -77.021733, "type": "electric_scooter", "bike_id": "c8b7fc726a1a78f2199495645b0b9329", "fusion_lon": 0.0, "lat": 38.9015315, "fusion_lat": 0.0}, {"is_disabled": 0, "rental_uris": {"android": "https://dc.lft.to/lastmile_qr_scan", "ios": "https://dc.lft.to/lastmile_qr_scan"}, "is_reserved": 0, "name": "38c236b20da4785c5fb3a4116e38705f", "lon": -77.070768, "type": "electric_scooter", "bike_id": "38c236b20da4785c5fb3a4116e38705f", "fusion_lon": 0.0, "lat": 38.93905483333333, "fusion_lat": 0.0}, {"is_disabled": 0, "rental_uris": {"android": "https://dc.lft.to/lastmile_qr_scan", "ios": "https://dc.lft.to/lastmile_qr_scan"}, "is_reserved": 0, "name": "84f1572c14ad14c456ea36a614410898", "lon": -76.99605266666667, "type": "electric_scooter", "bike_id": "84f1572c14ad14c456ea36a614410898", "fusion_lon": 0.0, "lat": 38.86465033333333, "fusion_lat": 0.0}, {"is_disabled": 0, "rental_uris": {"android": "https://dc.lft.to/lastmile_qr_scan", "ios": "https://dc.lft.to/lastmile_qr_scan"}, "is_reserved": 0, "name": "40259fd9bd4d22b51d7fd39284b0de40", "lon": -77.0207915, "type": "electric_scooter", "bike_id": "40259fd9bd4d22b51d7fd39284b0de40", "fusion_lon": 0.0, "lat": 38.88457416666667, "fusion_lat": 0.0}, {"is_disabled": 0, "rental_uris": {"android": "https://dc.lft.to/lastmile_qr_scan", "ios": "https://dc.lft.to/lastmile_qr_scan"}, "is_reserved": 0, "name": "2a91a3a421d444634f787525c1e02421", "lon": -77.04289166666666, "type": "electric_scooter", "bike_id": "2a91a3a421d444634f787525c1e02421", "fusion_lon": 0.0, "lat": 38.910441, "fusion_lat": 0.0}, {"is_disabled": 0, "rental_uris": {"android": "https://dc.lft.to/lastmile_qr_scan", "ios": "https://dc.lft.to/lastmile_qr_scan"}, "is_reserved": 0, "name": "c34e1a542c3b0c75d8bb46cd54a501af", "lon": -77.03626866666667, "type": "electric_scooter", "bike_id": "c34e1a542c3b0c75d8bb46cd54a501af", "fusion_lon": 0.0, "lat": 38.9368495, "fusion_lat": 0.0}, {"is_disabled": 0, "rental_uris": {"android": "https://dc.lft.to/lastmile_qr_scan", "ios": "https://dc.lft.to/lastmile_qr_scan"}, "is_reserved": 0, "name": "c0247b5ceffefd26be0e078958bba800", "lon": -77.00532216666667, "type": "electric_scooter", "bike_id": "c0247b5ceffefd26be0e078958bba800", "fusion_lon": 0.0, "lat": 38.874702166666665, "fusion_lat": 0.0}, {"is_disabled": 0, "rental_uris": {"android": "https://dc.lft.to/lastmile_qr_scan", "ios": "https://dc.lft.to/lastmile_qr_scan"}, "is_reserved": 0, "name": "6716592e694e915a5cb237ff5c3b9325", "lon": -76.988832, "type": "electric_scooter", "bike_id": "6716592e694e915a5cb237ff5c3b9325", "fusion_lon": 0.0, "lat": 38.86676666666666, "fusion_lat": 0.0}, {"is_disabled": 0, "rental_uris": {"android": "https://dc.lft.to/lastmile_qr_scan", "ios": "https://dc.lft.to/lastmile_qr_scan"}, "is_reserved": 0, "name": "fe2ec760df54803af7964ec872cbf656", "lon": -77.05120266666667, "type": "electric_scooter", "bike_id": "fe2ec760df54803af7964ec872cbf656", "fusion_lon": 0.0, "lat": 38.923413833333335, "fusion_lat": 0.0}, {"is_disabled": 0, "rental_uris": {"android": "https://dc.lft.to/lastmile_qr_scan", "ios": "https://dc.lft.to/lastmile_qr_scan"}, "is_reserved": 0, "name": "d4a8c2ce76adade286f9c40b3c931d04", "lon": -77.05010983333334, "type": "electric_scooter", "bike_id": "d4a8c2ce76adade286f9c40b3c931d04", "fusion_lon": 0.0, "lat": 38.897838, "fusion_lat": 0.0}, {"is_disabled": 0, "rental_uris": {"android": "https://dc.lft.to/lastmile_qr_scan", "ios": "https://dc.lft.to/lastmile_qr_scan"}, "is_reserved": 0, "name": "7458f05e97bee05351471c6e2012a16f", "lon": -77.022048, "type": "electric_scooter", "bike_id": "7458f05e97bee05351471c6e2012a16f", "fusion_lon": 0.0, "lat": 38.89610866666666, "fusion_lat": 0.0}, {"is_disabled": 0, "rental_uris": {"android": "https://dc.lft.to/lastmile_qr_scan", "ios": "https://dc.lft.to/lastmile_qr_scan"}, "is_reserved": 0, "name": "ed43965244f2b947c380c30be40fb8da", "lon": -77.17802416666666, "type": "electric_bike", "bike_id": "ed43965244f2b947c380c30be40fb8da", "fusion_lon": 0.0, "lat": 39.0884275, "fusion_lat": 0.0}, {"is_disabled": 0, "rental_uris": {"android": "https://dc.lft.to/lastmile_qr_scan", "ios": "https://dc.lft.to/lastmile_qr_scan"}, "is_reserved": 0, "name": "e4a334cfcf22b0372f5e8a51ceed6bc3", "lon": -77.03283033333334, "type": "electric_scooter", "bike_id": "e4a334cfcf22b0372f5e8a51ceed6bc3", "fusion_lon": 0.0, "lat": 38.92056216666667, "fusion_lat": 0.0}, {"is_disabled": 0, "rental_uris": {"android": "https://dc.lft.to/lastmile_qr_scan", "ios": "https://dc.lft.to/lastmile_qr_scan"}, "is_reserved": 0, "name": "7994b21962d5938990e9d95b3f526392", "lon": -77.0326745, "type": "electric_scooter", "bike_id": "7994b21962d5938990e9d95b3f526392", "fusion_lon": 0.0, "lat": 38.913386833333334, "fusion_lat": 0.0}, {"is_disabled": 0, "rental_uris": {"android": "https://dc.lft.to/lastmile_qr_scan", "ios": "https://dc.lft.to/lastmile_qr_scan"}, "is_reserved": 0, "name": "98b4b78a51a0c8423d4776cddc748158", "lon": -77.04356066666666, "type": "electric_scooter", "bike_id": "98b4b78a51a0c8423d4776cddc748158", "fusion_lon": 0.0, "lat": 38.89836483333333, "fusion_lat": 0.0}, {"is_disabled": 0, "rental_uris": {"android": "https://dc.lft.to/lastmile_qr_scan", "ios": "https://dc.lft.to/lastmile_qr_scan"}, "is_reserved": 0, "name": "f4df2c37a2fd4089d0ffc8200c6e25d0", "lon": -76.99004016666666, "type": "electric_scooter", "bike_id": "f4df2c37a2fd4089d0ffc8200c6e25d0", "fusion_lon": 0.0, "lat": 38.865089, "fusion_lat": 0.0}, {"is_disabled": 0, "rental_uris": {"android": "https://dc.lft.to/lastmile_qr_scan", "ios": "https://dc.lft.to/lastmile_qr_scan"}, "is_reserved": 0, "name": "9124800020fa8adfd54c283a2275efa7", "lon": -77.00346083333334, "type": "electric_scooter", "bike_id": "9124800020fa8adfd54c283a2275efa7", "fusion_lon": 0.0, "lat": 38.87753266666667, "fusion_lat": 0.0}, {"is_disabled": 0, "rental_uris": {"android": "https://dc.lft.to/lastmile_qr_scan", "ios": "https://dc.lft.to/lastmile_qr_scan"}, "is_reserved": 0, "name": "d0bc646b0e3957d9dda23fe16f4be70f", "lon": -76.99611033333333, "type": "electric_scooter", "bike_id": "d0bc646b0e3957d9dda23fe16f4be70f", "fusion_lon": 0.0, "lat": 38.90037, "fusion_lat": 0.0}, {"is_disabled": 0, "rental_uris": {"android": "https://dc.lft.to/lastmile_qr_scan", "ios": "https://dc.lft.to/lastmile_qr_scan"}, "is_reserved": 0, "name": "620afa3ff158e60ca16791b20523f15d", "lon": -76.95411433333334, "type": "electric_scooter", "bike_id": "620afa3ff158e60ca16791b20523f15d", "fusion_lon": 0.0, "lat": 38.884206, "fusion_lat": 0.0}, {"is_disabled": 0, "rental_uris": {"android": "https://dc.lft.to/lastmile_qr_scan", "ios": "https://dc.lft.to/lastmile_qr_scan"}, "is_reserved": 0, "name": "c3150dfd9fd79f5a9e6a8495cb3bcc3b", "lon": -77.03334433333333, "type": "electric_scooter", "bike_id": "c3150dfd9fd79f5a9e6a8495cb3bcc3b", "fusion_lon": 0.0, "lat": 38.89836066666667, "fusion_lat": 0.0}, {"is_disabled": 0, "rental_uris": {"android": "https://dc.lft.to/lastmile_qr_scan", "ios": "https://dc.lft.to/lastmile_qr_scan"}, "is_reserved": 0, "name": "dfe64cd72ca2eabe747eb3a45cb5f590", "lon": -77.04079216666666, "type": "electric_bike", "bike_id": "dfe64cd72ca2eabe747eb3a45cb5f590", "fusion_lon": 0.0, "lat": 38.903809333333335, "fusion_lat": 0.0}, {"is_disabled": 0, "rental_uris": {"android": "https://dc.lft.to/lastmile_qr_scan", "ios": "https://dc.lft.to/lastmile_qr_scan"}, "is_reserved": 0, "name": "674782014ac34f30de4bbf1c56f40836", "lon": -77.028312, "type": "electric_scooter", "bike_id": "674782014ac34f30de4bbf1c56f40836", "fusion_lon": 0.0, "lat": 38.931941333333334, "fusion_lat": 0.0}, {"is_disabled": 0, "rental_uris": {"android": "https://dc.lft.to/lastmile_qr_scan", "ios": "https://dc.lft.to/lastmile_qr_scan"}, "is_reserved": 0, "name": "4a04f09e61377dd75dc4f543c6ec9ed1", "lon": -77.03584583333334, "type": "electric_scooter", "bike_id": "4a04f09e61377dd75dc4f543c6ec9ed1", "fusion_lon": 0.0, "lat": 38.9075465, "fusion_lat": 0.0}, {"is_disabled": 0, "rental_uris": {"android": "https://dc.lft.to/lastmile_qr_scan", "ios": "https://dc.lft.to/lastmile_qr_scan"}, "is_reserved": 0, "name": "926eaa08291d59d744b80078ef696fda", "lon": -77.0365185, "type": "electric_scooter", "bike_id": "926eaa08291d59d744b80078ef696fda", "fusion_lon": 0.0, "lat": 38.917315333333335, "fusion_lat": 0.0}, {"is_disabled": 0, "rental_uris": {"android": "https://dc.lft.to/lastmile_qr_scan", "ios": "https://dc.lft.to/lastmile_qr_scan"}, "is_reserved": 0, "name": "59cfd5d9f0f876d10125766549cc19ca", "lon": -77.03230133333334, "type": "electric_scooter", "bike_id": "59cfd5d9f0f876d10125766549cc19ca", "fusion_lon": 0.0, "lat": 38.91630833333333, "fusion_lat": 0.0}, {"is_disabled": 0, "rental_uris": {"android": "https://dc.lft.to/lastmile_qr_scan", "ios": "https://dc.lft.to/lastmile_qr_scan"}, "is_reserved": 0, "name": "e47d640876a7770616ea25799dba95c5", "lon": -76.93832066666667, "type": "electric_scooter", "bike_id": "e47d640876a7770616ea25799dba95c5", "fusion_lon": 0.0, "lat": 38.890118666666666, "fusion_lat": 0.0}, {"is_disabled": 0, "rental_uris": {"android": "https://dc.lft.to/lastmile_qr_scan", "ios": "https://dc.lft.to/lastmile_qr_scan"}, "is_reserved": 0, "name": "61da28d1ac7ed0c29efc558c45d105a0", "lon": -77.02315666666667, "type": "electric_scooter", "bike_id": "61da28d1ac7ed0c29efc558c45d105a0", "fusion_lon": 0.0, "lat": 38.926613833333334, "fusion_lat": 0.0}, {"is_disabled": 0, "rental_uris": {"android": "https://dc.lft.to/lastmile_qr_scan", "ios": "https://dc.lft.to/lastmile_qr_scan"}, "is_reserved": 0, "name": "66eafc511ac55a57f9d27b67a55bb47f", "lon": -77.03631833333333, "type": "electric_scooter", "bike_id": "66eafc511ac55a57f9d27b67a55bb47f", "fusion_lon": 0.0, "lat": 38.918176833333334, "fusion_lat": 0.0}, {"is_disabled": 0, "rental_uris": {"android": "https://dc.lft.to/lastmile_qr_scan", "ios": "https://dc.lft.to/lastmile_qr_scan"}, "is_reserved": 0, "name": "ab1b1ea4728273d752631e70259cdc88", "lon": -77.05602366666666, "type": "electric_scooter", "bike_id": "ab1b1ea4728273d752631e70259cdc88", "fusion_lon": 0.0, "lat": 38.936971166666666, "fusion_lat": 0.0}, {"is_disabled": 0, "rental_uris": {"android": "https://dc.lft.to/lastmile_qr_scan", "ios": "https://dc.lft.to/lastmile_qr_scan"}, "is_reserved": 0, "name": "f5f45abfd2707bc57a781d4f07098e80", "lon": -77.05089716666667, "type": "electric_scooter", "bike_id": "f5f45abfd2707bc57a781d4f07098e80", "fusion_lon": 0.0, "lat": 38.906396, "fusion_lat": 0.0}, {"is_disabled": 0, "rental_uris": {"android": "https://dc.lft.to/lastmile_qr_scan", "ios": "https://dc.lft.to/lastmile_qr_scan"}, "is_reserved": 0, "name": "390b4401ac0ee98ec2f440ad57506cb2", "lon": -77.02956266666666, "type": "electric_scooter", "bike_id": "390b4401ac0ee98ec2f440ad57506cb2", "fusion_lon": 0.0, "lat": 38.917075833333335, "fusion_lat": 0.0}, {"is_disabled": 0, "rental_uris": {"android": "https://dc.lft.to/lastmile_qr_scan", "ios": "https://dc.lft.to/lastmile_qr_scan"}, "is_reserved": 0, "name": "9686360f1af47c9e79fc78293493eef7", "lon": -77.025396, "type": "electric_scooter", "bike_id": "9686360f1af47c9e79fc78293493eef7", "fusion_lon": 0.0, "lat": 38.9841515, "fusion_lat": 0.0}, {"is_disabled": 0, "rental_uris": {"android": "https://dc.lft.to/lastmile_qr_scan", "ios": "https://dc.lft.to/lastmile_qr_scan"}, "is_reserved": 0, "name": "15c1a28b9c7a783124a4f0fa71b3263f", "lon": -77.0321815, "type": "electric_scooter", "bike_id": "15c1a28b9c7a783124a4f0fa71b3263f", "fusion_lon": 0.0, "lat": 38.92550683333333, "fusion_lat": 0.0}, {"is_disabled": 0, "rental_uris": {"android": "https://dc.lft.to/lastmile_qr_scan", "ios": "https://dc.lft.to/lastmile_qr_scan"}, "is_reserved": 0, "name": "22f89a1af62a80e9940181db0503f212", "lon": -77.03179016666667, "type": "electric_scooter", "bike_id": "22f89a1af62a80e9940181db0503f212", "fusion_lon": 0.0, "lat": 38.89231633333333, "fusion_lat": 0.0}, {"is_disabled": 0, "rental_uris": {"android": "https://dc.lft.to/lastmile_qr_scan", "ios": "https://dc.lft.to/lastmile_qr_scan"}, "is_reserved": 0, "name": "e3631168606dd5c51e1e9845ee4bdc93", "lon": -77.03313833333333, "type": "electric_scooter", "bike_id": "e3631168606dd5c51e1e9845ee4bdc93", "fusion_lon": 0.0, "lat": 38.91633183333333, "fusion_lat": 0.0}, {"is_disabled": 0, "rental_uris": {"android": "https://dc.lft.to/lastmile_qr_scan", "ios": "https://dc.lft.to/lastmile_qr_scan"}, "is_reserved": 0, "name": "267e6878e61ae0bf5296857a4f68b8f7", "lon": -77.066028, "type": "electric_scooter", "bike_id": "267e6878e61ae0bf5296857a4f68b8f7", "fusion_lon": 0.0, "lat": 38.90748033333333, "fusion_lat": 0.0}, {"is_disabled": 0, "rental_uris": {"android": "https://dc.lft.to/lastmile_qr_scan", "ios": "https://dc.lft.to/lastmile_qr_scan"}, "is_reserved": 0, "name": "c7f5cf7ea32295e85738cab35af223e0", "lon": -76.98794516666666, "type": "electric_bike", "bike_id": "c7f5cf7ea32295e85738cab35af223e0", "fusion_lon": 0.0, "lat": 38.9221245, "fusion_lat": 0.0}, {"is_disabled": 0, "rental_uris": {"android": "https://dc.lft.to/lastmile_qr_scan", "ios": "https://dc.lft.to/lastmile_qr_scan"}, "is_reserved": 0, "name": "0741af39f53dcd937fe2da6fae767bd7", "lon": -77.00032116666667, "type": "electric_scooter", "bike_id": "0741af39f53dcd937fe2da6fae767bd7", "fusion_lon": 0.0, "lat": 38.9208265, "fusion_lat": 0.0}, {"is_disabled": 0, "rental_uris": {"android": "https://dc.lft.to/lastmile_qr_scan", "ios": "https://dc.lft.to/lastmile_qr_scan"}, "is_reserved": 0, "name": "a19b6b6507bacf942e41d40978e909c2", "lon": -77.13227733333333, "type": "electric_bike", "bike_id": "a19b6b6507bacf942e41d40978e909c2", "fusion_lon": 0.0, "lat": 38.869777666666664, "fusion_lat": 0.0}, {"is_disabled": 0, "rental_uris": {"android": "https://dc.lft.to/lastmile_qr_scan", "ios": "https://dc.lft.to/lastmile_qr_scan"}, "is_reserved": 0, "name": "ae46c67a5d9826433f232d8782b37b0b", "lon": -77.05115666666667, "type": "electric_scooter", "bike_id": "ae46c67a5d9826433f232d8782b37b0b", "fusion_lon": 0.0, "lat": 38.92340933333333, "fusion_lat": 0.0}, {"is_disabled": 0, "rental_uris": {"android": "https://dc.lft.to/lastmile_qr_scan", "ios": "https://dc.lft.to/lastmile_qr_scan"}, "is_reserved": 0, "name": "22c4434b8cac327438d272ec024f5b78", "lon": -77.0036025, "type": "electric_scooter", "bike_id": "22c4434b8cac327438d272ec024f5b78", "fusion_lon": 0.0, "lat": 38.877521333333334, "fusion_lat": 0.0}, {"is_disabled": 0, "rental_uris": {"android": "https://dc.lft.to/lastmile_qr_scan", "ios": "https://dc.lft.to/lastmile_qr_scan"}, "is_reserved": 0, "name": "23abdbc274fde229941452f75283eb1d", "lon": -76.99602266666666, "type": "electric_scooter", "bike_id": "23abdbc274fde229941452f75283eb1d", "fusion_lon": 0.0, "lat": 38.900393, "fusion_lat": 0.0}, {"is_disabled": 0, "rental_uris": {"android": "https://dc.lft.to/lastmile_qr_scan", "ios": "https://dc.lft.to/lastmile_qr_scan"}, "is_reserved": 0, "name": "01b66497cb7d7a43b780fb40a187f9b6", "lon": -77.03197966666667, "type": "electric_bike", "bike_id": "01b66497cb7d7a43b780fb40a187f9b6", "fusion_lon": 0.0, "lat": 38.92363533333334, "fusion_lat": 0.0}, {"is_disabled": 0, "rental_uris": {"android": "https://dc.lft.to/lastmile_qr_scan", "ios": "https://dc.lft.to/lastmile_qr_scan"}, "is_reserved": 0, "name": "637c7c56139f1d2b7934a80e1f660413", "lon": -77.00557933333333, "type": "electric_scooter", "bike_id": "637c7c56139f1d2b7934a80e1f660413", "fusion_lon": 0.0, "lat": 38.879044, "fusion_lat": 0.0}, {"is_disabled": 0, "rental_uris": {"android": "https://dc.lft.to/lastmile_qr_scan", "ios": "https://dc.lft.to/lastmile_qr_scan"}, "is_reserved": 0, "name": "7810af37ec6ad4ee20e978d0aecec084", "lon": -77.017595, "type": "electric_scooter", "bike_id": "7810af37ec6ad4ee20e978d0aecec084", "fusion_lon": 0.0, "lat": 38.877115, "fusion_lat": 0.0}, {"is_disabled": 0, "rental_uris": {"android": "https://dc.lft.to/lastmile_qr_scan", "ios": "https://dc.lft.to/lastmile_qr_scan"}, "is_reserved": 0, "name": "70a9464328cdb22aa24f91189bc8c152", "lon": -77.02293066666667, "type": "electric_scooter", "bike_id": "70a9464328cdb22aa24f91189bc8c152", "fusion_lon": 0.0, "lat": 38.9179105, "fusion_lat": 0.0}, {"is_disabled": 0, "rental_uris": {"android": "https://dc.lft.to/lastmile_qr_scan", "ios": "https://dc.lft.to/lastmile_qr_scan"}, "is_reserved": 0, "name": "ed2b9cba90df5824c57508aee9de7efb", "lon": -77.021705, "type": "electric_scooter", "bike_id": "ed2b9cba90df5824c57508aee9de7efb", "fusion_lon": 0.0, "lat": 38.942993666666666, "fusion_lat": 0.0}, {"is_disabled": 0, "rental_uris": {"android": "https://dc.lft.to/lastmile_qr_scan", "ios": "https://dc.lft.to/lastmile_qr_scan"}, "is_reserved": 0, "name": "f5f0e4e87cca907d44022395aec16556", "lon": -77.0248225, "type": "electric_scooter", "bike_id": "f5f0e4e87cca907d44022395aec16556", "fusion_lon": 0.0, "lat": 38.88451583333333, "fusion_lat": 0.0}, {"is_disabled": 0, "rental_uris": {"android": "https://dc.lft.to/lastmile_qr_scan", "ios": "https://dc.lft.to/lastmile_qr_scan"}, "is_reserved": 0, "name": "dbf96e6d2c79fbdc1932a4ad05f66423", "lon": -77.03895833333333, "type": "electric_scooter", "bike_id": "dbf96e6d2c79fbdc1932a4ad05f66423", "fusion_lon": 0.0, "lat": 38.9250025, "fusion_lat": 0.0}, {"is_disabled": 0, "rental_uris": {"android": "https://dc.lft.to/lastmile_qr_scan", "ios": "https://dc.lft.to/lastmile_qr_scan"}, "is_reserved": 0, "name": "cdafb4ce412cf5235cb606cf3ae4903e", "lon": -77.03946566666667, "type": "electric_scooter", "bike_id": "cdafb4ce412cf5235cb606cf3ae4903e", "fusion_lon": 0.0, "lat": 38.91399416666667, "fusion_lat": 0.0}, {"is_disabled": 0, "rental_uris": {"android": "https://dc.lft.to/lastmile_qr_scan", "ios": "https://dc.lft.to/lastmile_qr_scan"}, "is_reserved": 0, "name": "4ab3de3dacea3a47440c7180ee1ea13b", "lon": -77.00191133333334, "type": "electric_scooter", "bike_id": "4ab3de3dacea3a47440c7180ee1ea13b", "fusion_lon": 0.0, "lat": 38.900399, "fusion_lat": 0.0}, {"is_disabled": 0, "rental_uris": {"android": "https://dc.lft.to/lastmile_qr_scan", "ios": "https://dc.lft.to/lastmile_qr_scan"}, "is_reserved": 0, "name": "0d81a6371ebb523112eb63d42168e871", "lon": -77.02359416666667, "type": "electric_scooter", "bike_id": "0d81a6371ebb523112eb63d42168e871", "fusion_lon": 0.0, "lat": 38.92512766666667, "fusion_lat": 0.0}, {"is_disabled": 0, "rental_uris": {"android": "https://dc.lft.to/lastmile_qr_scan", "ios": "https://dc.lft.to/lastmile_qr_scan"}, "is_reserved": 0, "name": "20ae1c68f914fc5e7e668e1d391d98be", "lon": -77.02225283333334, "type": "electric_scooter", "bike_id": "20ae1c68f914fc5e7e668e1d391d98be", "fusion_lon": 0.0, "lat": 38.89221583333333, "fusion_lat": 0.0}, {"is_disabled": 0, "rental_uris": {"android": "https://dc.lft.to/lastmile_qr_scan", "ios": "https://dc.lft.to/lastmile_qr_scan"}, "is_reserved": 0, "name": "411b41051fbd38d9caefd9f01001b0a5", "lon": -77.006555, "type": "electric_scooter", "bike_id": "411b41051fbd38d9caefd9f01001b0a5", "fusion_lon": 0.0, "lat": 38.9446195, "fusion_lat": 0.0}, {"is_disabled": 0, "rental_uris": {"android": "https://dc.lft.to/lastmile_qr_scan", "ios": "https://dc.lft.to/lastmile_qr_scan"}, "is_reserved": 0, "name": "34eccff15ceead46c49f037204be0af9", "lon": -77.02894083333334, "type": "electric_bike", "bike_id": "34eccff15ceead46c49f037204be0af9", "fusion_lon": 0.0, "lat": 38.998448333333336, "fusion_lat": 0.0}, {"is_disabled": 0, "rental_uris": {"android": "https://dc.lft.to/lastmile_qr_scan", "ios": "https://dc.lft.to/lastmile_qr_scan"}, "is_reserved": 0, "name": "2e3306486ac2a0fadb66cfa16d8247ff", "lon": -77.005705, "type": "electric_scooter", "bike_id": "2e3306486ac2a0fadb66cfa16d8247ff", "fusion_lon": 0.0, "lat": 38.885033166666666, "fusion_lat": 0.0}, {"is_disabled": 0, "rental_uris": {"android": "https://dc.lft.to/lastmile_qr_scan", "ios": "https://dc.lft.to/lastmile_qr_scan"}, "is_reserved": 0, "name": "4fda63bc99a2d2357eb6b239f60a53ad", "lon": -77.22937, "type": "electric_bike", "bike_id": "4fda63bc99a2d2357eb6b239f60a53ad", "fusion_lon": 0.0, "lat": 38.931872, "fusion_lat": 0.0}, {"is_disabled": 0, "rental_uris": {"android": "https://dc.lft.to/lastmile_qr_scan", "ios": "https://dc.lft.to/lastmile_qr_scan"}, "is_reserved": 0, "name": "0e1ff16f0900574141b99461dbff1d7e", "lon": -77.03667083333333, "type": "electric_scooter", "bike_id": "0e1ff16f0900574141b99461dbff1d7e", "fusion_lon": 0.0, "lat": 38.9233115, "fusion_lat": 0.0}, {"is_disabled": 0, "rental_uris": {"android": "https://dc.lft.to/lastmile_qr_scan", "ios": "https://dc.lft.to/lastmile_qr_scan"}, "is_reserved": 0, "name": "88efd0de8f64ec8c7972b82bb0e1dd5e", "lon": -76.91658233333334, "type": "electric_bike", "bike_id": "88efd0de8f64ec8c7972b82bb0e1dd5e", "fusion_lon": 0.0, "lat": 38.86860033333333, "fusion_lat": 0.0}, {"is_disabled": 0, "rental_uris": {"android": "https://dc.lft.to/lastmile_qr_scan", "ios": "https://dc.lft.to/lastmile_qr_scan"}, "is_reserved": 0, "name": "3a141e86f5a8fb28824881af21794222", "lon": -76.93181316666667, "type": "electric_scooter", "bike_id": "3a141e86f5a8fb28824881af21794222", "fusion_lon": 0.0, "lat": 38.898756, "fusion_lat": 0.0}, {"is_disabled": 0, "rental_uris": {"android": "https://dc.lft.to/lastmile_qr_scan", "ios": "https://dc.lft.to/lastmile_qr_scan"}, "is_reserved": 0, "name": "71b0cf40a230c0024ae1d9ffee70d7e8", "lon": -77.03599483333333, "type": "electric_scooter", "bike_id": "71b0cf40a230c0024ae1d9ffee70d7e8", "fusion_lon": 0.0, "lat": 38.934826666666666, "fusion_lat": 0.0}, {"is_disabled": 0, "rental_uris": {"android": "https://dc.lft.to/lastmile_qr_scan", "ios": "https://dc.lft.to/lastmile_qr_scan"}, "is_reserved": 0, "name": "c5bd4d4555fd4d38222e9d5d7bbfb046", "lon": -77.03351733333334, "type": "electric_scooter", "bike_id": "c5bd4d4555fd4d38222e9d5d7bbfb046", "fusion_lon": 0.0, "lat": 38.9180625, "fusion_lat": 0.0}, {"is_disabled": 0, "rental_uris": {"android": "https://dc.lft.to/lastmile_qr_scan", "ios": "https://dc.lft.to/lastmile_qr_scan"}, "is_reserved": 0, "name": "2ebaa3913b844766ac85cbde20197d5d", "lon": -76.93049, "type": "electric_scooter", "bike_id": "2ebaa3913b844766ac85cbde20197d5d", "fusion_lon": 0.0, "lat": 38.897952, "fusion_lat": 0.0}, {"is_disabled": 0, "rental_uris": {"android": "https://dc.lft.to/lastmile_qr_scan", "ios": "https://dc.lft.to/lastmile_qr_scan"}, "is_reserved": 0, "name": "c9a76f8d94105c6e13a79f1d7ad82c00", "lon": -77.01758333333333, "type": "electric_scooter", "bike_id": "c9a76f8d94105c6e13a79f1d7ad82c00", "fusion_lon": 0.0, "lat": 38.921161, "fusion_lat": 0.0}, {"is_disabled": 0, "rental_uris": {"android": "https://dc.lft.to/lastmile_qr_scan", "ios": "https://dc.lft.to/lastmile_qr_scan"}, "is_reserved": 0, "name": "83bee754c7ce2b599be997d0adb45e62", "lon": -77.12738416666667, "type": "electric_bike", "bike_id": "83bee754c7ce2b599be997d0adb45e62", "fusion_lon": 0.0, "lat": 38.895664, "fusion_lat": 0.0}, {"is_disabled": 0, "rental_uris": {"android": "https://dc.lft.to/lastmile_qr_scan", "ios": "https://dc.lft.to/lastmile_qr_scan"}, "is_reserved": 0, "name": "408b652448e337c1656e9f682c00cd6d", "lon": -77.03209933333333, "type": "electric_scooter", "bike_id": "408b652448e337c1656e9f682c00cd6d", "fusion_lon": 0.0, "lat": 38.920086166666664, "fusion_lat": 0.0}, {"is_disabled": 0, "rental_uris": {"android": "https://dc.lft.to/lastmile_qr_scan", "ios": "https://dc.lft.to/lastmile_qr_scan"}, "is_reserved": 0, "name": "43f916b2373ebd4c6f2006ae3853a84c", "lon": -77.021621, "type": "electric_scooter", "bike_id": "43f916b2373ebd4c6f2006ae3853a84c", "fusion_lon": 0.0, "lat": 38.894655166666666, "fusion_lat": 0.0}, {"is_disabled": 0, "rental_uris": {"android": "https://dc.lft.to/lastmile_qr_scan", "ios": "https://dc.lft.to/lastmile_qr_scan"}, "is_reserved": 0, "name": "a56757c14749b0cebf2b6784eaeda857", "lon": -77.03207633333334, "type": "electric_scooter", "bike_id": "a56757c14749b0cebf2b6784eaeda857", "fusion_lon": 0.0, "lat": 38.918435333333335, "fusion_lat": 0.0}, {"is_disabled": 0, "rental_uris": {"android": "https://dc.lft.to/lastmile_qr_scan", "ios": "https://dc.lft.to/lastmile_qr_scan"}, "is_reserved": 0, "name": "a7f93172fc9e22303fc201d4f48224cd", "lon": -76.996328, "type": "electric_scooter", "bike_id": "a7f93172fc9e22303fc201d4f48224cd", "fusion_lon": 0.0, "lat": 38.84620966666667, "fusion_lat": 0.0}, {"is_disabled": 0, "rental_uris": {"android": "https://dc.lft.to/lastmile_qr_scan", "ios": "https://dc.lft.to/lastmile_qr_scan"}, "is_reserved": 0, "name": "bb3fa89422808d900dae8abae1fa13f1", "lon": -77.0317365, "type": "electric_scooter", "bike_id": "bb3fa89422808d900dae8abae1fa13f1", "fusion_lon": 0.0, "lat": 38.91416733333333, "fusion_lat": 0.0}, {"is_disabled": 0, "rental_uris": {"android": "https://dc.lft.to/lastmile_qr_scan", "ios": "https://dc.lft.to/lastmile_qr_scan"}, "is_reserved": 0, "name": "7e678c8a6238c68c850f8b43bfda7d52", "lon": -77.0222025, "type": "electric_scooter", "bike_id": "7e678c8a6238c68c850f8b43bfda7d52", "fusion_lon": 0.0, "lat": 38.935512333333335, "fusion_lat": 0.0}, {"is_disabled": 0, "rental_uris": {"android": "https://dc.lft.to/lastmile_qr_scan", "ios": "https://dc.lft.to/lastmile_qr_scan"}, "is_reserved": 0, "name": "3990b908959c3deff0073e4a148a3c31", "lon": -77.03918233333333, "type": "electric_scooter", "bike_id": "3990b908959c3deff0073e4a148a3c31", "fusion_lon": 0.0, "lat": 38.91914, "fusion_lat": 0.0}, {"is_disabled": 0, "rental_uris": {"android": "https://dc.lft.to/lastmile_qr_scan", "ios": "https://dc.lft.to/lastmile_qr_scan"}, "is_reserved": 0, "name": "34e9a2c040d940876bdeb0c633d49e73", "lon": -77.04036166666667, "type": "electric_scooter", "bike_id": "34e9a2c040d940876bdeb0c633d49e73", "fusion_lon": 0.0, "lat": 38.9002855, "fusion_lat": 0.0}, {"is_disabled": 0, "rental_uris": {"android": "https://dc.lft.to/lastmile_qr_scan", "ios": "https://dc.lft.to/lastmile_qr_scan"}, "is_reserved": 0, "name": "f7baedbe595538f70069b49e1119bf40", "lon": -77.03641333333333, "type": "electric_scooter", "bike_id": "f7baedbe595538f70069b49e1119bf40", "fusion_lon": 0.0, "lat": 38.927975833333335, "fusion_lat": 0.0}, {"is_disabled": 0, "rental_uris": {"android": "https://dc.lft.to/lastmile_qr_scan", "ios": "https://dc.lft.to/lastmile_qr_scan"}, "is_reserved": 0, "name": "e8c4078de6c087e31d3885210a21c574", "lon": -77.04154883333334, "type": "electric_scooter", "bike_id": "e8c4078de6c087e31d3885210a21c574", "fusion_lon": 0.0, "lat": 38.91423433333333, "fusion_lat": 0.0}, {"is_disabled": 0, "rental_uris": {"android": "https://dc.lft.to/lastmile_qr_scan", "ios": "https://dc.lft.to/lastmile_qr_scan"}, "is_reserved": 0, "name": "1b7d41db56cae9a2522e8f3bc26d5af4", "lon": -77.04034016666667, "type": "electric_scooter", "bike_id": "1b7d41db56cae9a2522e8f3bc26d5af4", "fusion_lon": 0.0, "lat": 38.909737, "fusion_lat": 0.0}, {"is_disabled": 0, "rental_uris": {"android": "https://dc.lft.to/lastmile_qr_scan", "ios": "https://dc.lft.to/lastmile_qr_scan"}, "is_reserved": 0, "name": "e8de1149a52816c6a5af4f7cb0ed11c5", "lon": -77.04164, "type": "electric_scooter", "bike_id": "e8de1149a52816c6a5af4f7cb0ed11c5", "fusion_lon": 0.0, "lat": 38.9162635, "fusion_lat": 0.0}, {"is_disabled": 0, "rental_uris": {"android": "https://dc.lft.to/lastmile_qr_scan", "ios": "https://dc.lft.to/lastmile_qr_scan"}, "is_reserved": 0, "name": "7918cdd2d205dd173f4df3ba39a86ef2", "lon": -77.02931633333333, "type": "electric_scooter", "bike_id": "7918cdd2d205dd173f4df3ba39a86ef2", "fusion_lon": 0.0, "lat": 38.8981275, "fusion_lat": 0.0}, {"is_disabled": 0, "rental_uris": {"android": "https://dc.lft.to/lastmile_qr_scan", "ios": "https://dc.lft.to/lastmile_qr_scan"}, "is_reserved": 0, "name": "bcd3b95575bdc8cb15db0d25ef5ad451", "lon": -76.93151933333333, "type": "electric_scooter", "bike_id": "bcd3b95575bdc8cb15db0d25ef5ad451", "fusion_lon": 0.0, "lat": 38.898523833333336, "fusion_lat": 0.0}, {"is_disabled": 0, "rental_uris": {"android": "https://dc.lft.to/lastmile_qr_scan", "ios": "https://dc.lft.to/lastmile_qr_scan"}, "is_reserved": 0, "name": "44b23503e8d985ce7cc147ed9c321ab2", "lon": -77.02210333333333, "type": "electric_scooter", "bike_id": "44b23503e8d985ce7cc147ed9c321ab2", "fusion_lon": 0.0, "lat": 38.88740416666667, "fusion_lat": 0.0}, {"is_disabled": 0, "rental_uris": {"android": "https://dc.lft.to/lastmile_qr_scan", "ios": "https://dc.lft.to/lastmile_qr_scan"}, "is_reserved": 0, "name": "13efd9df6609b29bb33e810151a6e62d", "lon": -76.98714316666667, "type": "electric_scooter", "bike_id": "13efd9df6609b29bb33e810151a6e62d", "fusion_lon": 0.0, "lat": 38.86700283333333, "fusion_lat": 0.0}, {"is_disabled": 0, "rental_uris": {"android": "https://dc.lft.to/lastmile_qr_scan", "ios": "https://dc.lft.to/lastmile_qr_scan"}, "is_reserved": 0, "name": "a9012088fcdf4a644c95d5b544f64545", "lon": -77.02504566666667, "type": "electric_scooter", "bike_id": "a9012088fcdf4a644c95d5b544f64545", "fusion_lon": 0.0, "lat": 38.938757333333335, "fusion_lat": 0.0}, {"is_disabled": 0, "rental_uris": {"android": "https://dc.lft.to/lastmile_qr_scan", "ios": "https://dc.lft.to/lastmile_qr_scan"}, "is_reserved": 0, "name": "d80ec871515a2931324b994c3cad7f50", "lon": -77.022453, "type": "electric_scooter", "bike_id": "d80ec871515a2931324b994c3cad7f50", "fusion_lon": 0.0, "lat": 38.916407166666666, "fusion_lat": 0.0}, {"is_disabled": 0, "rental_uris": {"android": "https://dc.lft.to/lastmile_qr_scan", "ios": "https://dc.lft.to/lastmile_qr_scan"}, "is_reserved": 0, "name": "93efcd39f6df1d8aab1d5bffd7486a3c", "lon": -77.04145483333333, "type": "electric_scooter", "bike_id": "93efcd39f6df1d8aab1d5bffd7486a3c", "fusion_lon": 0.0, "lat": 38.92242433333333, "fusion_lat": 0.0}, {"is_disabled": 0, "rental_uris": {"android": "https://dc.lft.to/lastmile_qr_scan", "ios": "https://dc.lft.to/lastmile_qr_scan"}, "is_reserved": 0, "name": "829bc7894d9a9bccdc948fb2f25ff5df", "lon": -76.98715416666667, "type": "electric_scooter", "bike_id": "829bc7894d9a9bccdc948fb2f25ff5df", "fusion_lon": 0.0, "lat": 38.867208, "fusion_lat": 0.0}, {"is_disabled": 0, "rental_uris": {"android": "https://dc.lft.to/lastmile_qr_scan", "ios": "https://dc.lft.to/lastmile_qr_scan"}, "is_reserved": 0, "name": "9339d6af07dbae29a2a634628265779b", "lon": -76.98351933333333, "type": "electric_scooter", "bike_id": "9339d6af07dbae29a2a634628265779b", "fusion_lon": 0.0, "lat": 38.8917165, "fusion_lat": 0.0}, {"is_disabled": 0, "rental_uris": {"android": "https://dc.lft.to/lastmile_qr_scan", "ios": "https://dc.lft.to/lastmile_qr_scan"}, "is_reserved": 0, "name": "dab004805c04c31eae82c401a31f6451", "lon": -77.0316985, "type": "electric_scooter", "bike_id": "dab004805c04c31eae82c401a31f6451", "fusion_lon": 0.0, "lat": 38.9033415, "fusion_lat": 0.0}, {"is_disabled": 0, "rental_uris": {"android": "https://dc.lft.to/lastmile_qr_scan", "ios": "https://dc.lft.to/lastmile_qr_scan"}, "is_reserved": 0, "name": "fa684420503500adbb5c90b751cca60a", "lon": -77.03997083333333, "type": "electric_scooter", "bike_id": "fa684420503500adbb5c90b751cca60a", "fusion_lon": 0.0, "lat": 38.91811466666667, "fusion_lat": 0.0}, {"is_disabled": 0, "rental_uris": {"android": "https://dc.lft.to/lastmile_qr_scan", "ios": "https://dc.lft.to/lastmile_qr_scan"}, "is_reserved": 0, "name": "121828ca9e74aef36da19e393711d43d", "lon": -77.03658883333334, "type": "electric_scooter", "bike_id": "121828ca9e74aef36da19e393711d43d", "fusion_lon": 0.0, "lat": 38.935838, "fusion_lat": 0.0}, {"is_disabled": 0, "rental_uris": {"android": "https://dc.lft.to/lastmile_qr_scan", "ios": "https://dc.lft.to/lastmile_qr_scan"}, "is_reserved": 0, "name": "ddda6ecbb7b0c9971673eabc50aa4a70", "lon": -77.06651583333333, "type": "electric_scooter", "bike_id": "ddda6ecbb7b0c9971673eabc50aa4a70", "fusion_lon": 0.0, "lat": 38.94972833333333, "fusion_lat": 0.0}, {"is_disabled": 0, "rental_uris": {"android": "https://dc.lft.to/lastmile_qr_scan", "ios": "https://dc.lft.to/lastmile_qr_scan"}, "is_reserved": 0, "name": "565411507a2560b36241fbfab535f13d", "lon": -77.0317605, "type": "electric_scooter", "bike_id": "565411507a2560b36241fbfab535f13d", "fusion_lon": 0.0, "lat": 38.91903033333333, "fusion_lat": 0.0}, {"is_disabled": 0, "rental_uris": {"android": "https://dc.lft.to/lastmile_qr_scan", "ios": "https://dc.lft.to/lastmile_qr_scan"}, "is_reserved": 0, "name": "630e68c8cc5d7a062a038f6362856218", "lon": -77.01219533333334, "type": "electric_scooter", "bike_id": "630e68c8cc5d7a062a038f6362856218", "fusion_lon": 0.0, "lat": 38.91502666666667, "fusion_lat": 0.0}, {"is_disabled": 0, "rental_uris": {"android": "https://dc.lft.to/lastmile_qr_scan", "ios": "https://dc.lft.to/lastmile_qr_scan"}, "is_reserved": 0, "name": "fdfe427906461a526b08a9bdc9ee1e4a", "lon": -76.98882266666666, "type": "electric_scooter", "bike_id": "fdfe427906461a526b08a9bdc9ee1e4a", "fusion_lon": 0.0, "lat": 38.86672266666667, "fusion_lat": 0.0}, {"is_disabled": 0, "rental_uris": {"android": "https://dc.lft.to/lastmile_qr_scan", "ios": "https://dc.lft.to/lastmile_qr_scan"}, "is_reserved": 0, "name": "d173d783de009ecd4e4ccdc356102559", "lon": -77.01168683333333, "type": "electric_scooter", "bike_id": "d173d783de009ecd4e4ccdc356102559", "fusion_lon": 0.0, "lat": 38.86806766666667, "fusion_lat": 0.0}, {"is_disabled": 0, "rental_uris": {"android": "https://dc.lft.to/lastmile_qr_scan", "ios": "https://dc.lft.to/lastmile_qr_scan"}, "is_reserved": 0, "name": "3d9dbe124bc071252751ef5cd0a703fc", "lon": -77.0345595, "type": "electric_scooter", "bike_id": "3d9dbe124bc071252751ef5cd0a703fc", "fusion_lon": 0.0, "lat": 38.9166355, "fusion_lat": 0.0}, {"is_disabled": 0, "rental_uris": {"android": "https://dc.lft.to/lastmile_qr_scan", "ios": "https://dc.lft.to/lastmile_qr_scan"}, "is_reserved": 0, "name": "19d71e18ab2b523e9bf71f37b9a8e595", "lon": -77.03824666666667, "type": "electric_scooter", "bike_id": "19d71e18ab2b523e9bf71f37b9a8e595", "fusion_lon": 0.0, "lat": 38.9111325, "fusion_lat": 0.0}, {"is_disabled": 0, "rental_uris": {"android": "https://dc.lft.to/lastmile_qr_scan", "ios": "https://dc.lft.to/lastmile_qr_scan"}, "is_reserved": 0, "name": "0f19131201b8a8c8d01fa53d04271c09", "lon": -77.3441635, "type": "electric_bike", "bike_id": "0f19131201b8a8c8d01fa53d04271c09", "fusion_lon": 0.0, "lat": 38.945967833333334, "fusion_lat": 0.0}, {"is_disabled": 0, "rental_uris": {"android": "https://dc.lft.to/lastmile_qr_scan", "ios": "https://dc.lft.to/lastmile_qr_scan"}, "is_reserved": 0, "name": "831f0bb31a7fd30a5fc25051aeccc30f", "lon": -77.14323116666667, "type": "electric_bike", "bike_id": "831f0bb31a7fd30a5fc25051aeccc30f", "fusion_lon": 0.0, "lat": 39.054576833333336, "fusion_lat": 0.0}, {"is_disabled": 0, "rental_uris": {"android": "https://dc.lft.to/lastmile_qr_scan", "ios": "https://dc.lft.to/lastmile_qr_scan"}, "is_reserved": 0, "name": "4bb710d3f4f362fa1655c4793e543faa", "lon": -77.04507583333333, "type": "electric_scooter", "bike_id": "4bb710d3f4f362fa1655c4793e543faa", "fusion_lon": 0.0, "lat": 38.90779883333333, "fusion_lat": 0.0}, {"is_disabled": 0, "rental_uris": {"android": "https://dc.lft.to/lastmile_qr_scan", "ios": "https://dc.lft.to/lastmile_qr_scan"}, "is_reserved": 0, "name": "b72d188fd5e06a3c324adcc4608b4bcb", "lon": -76.948947, "type": "electric_scooter", "bike_id": "b72d188fd5e06a3c324adcc4608b4bcb", "fusion_lon": 0.0, "lat": 38.895313333333334, "fusion_lat": 0.0}, {"is_disabled": 0, "rental_uris": {"android": "https://dc.lft.to/lastmile_qr_scan", "ios": "https://dc.lft.to/lastmile_qr_scan"}, "is_reserved": 0, "name": "bb4c82089d5171c6e93d7beb25717fd6", "lon": -77.02932466666667, "type": "electric_scooter", "bike_id": "bb4c82089d5171c6e93d7beb25717fd6", "fusion_lon": 0.0, "lat": 38.8987865, "fusion_lat": 0.0}, {"is_disabled": 0, "rental_uris": {"android": "https://dc.lft.to/lastmile_qr_scan", "ios": "https://dc.lft.to/lastmile_qr_scan"}, "is_reserved": 0, "name": "b4fdc0c662ff8030c1cec236896b150c", "lon": -77.06185616666667, "type": "electric_scooter", "bike_id": "b4fdc0c662ff8030c1cec236896b150c", "fusion_lon": 0.0, "lat": 38.9301185, "fusion_lat": 0.0}, {"is_disabled": 0, "rental_uris": {"android": "https://dc.lft.to/lastmile_qr_scan", "ios": "https://dc.lft.to/lastmile_qr_scan"}, "is_reserved": 0, "name": "39493173db60a6e4de6d66b6c322b014", "lon": -77.0466155, "type": "electric_scooter", "bike_id": "39493173db60a6e4de6d66b6c322b014", "fusion_lon": 0.0, "lat": 38.911808, "fusion_lat": 0.0}, {"is_disabled": 0, "rental_uris": {"android": "https://dc.lft.to/lastmile_qr_scan", "ios": "https://dc.lft.to/lastmile_qr_scan"}, "is_reserved": 0, "name": "4c08d845ef2aa10f6e34751a14049bbf", "lon": -76.99162416666667, "type": "electric_scooter", "bike_id": "4c08d845ef2aa10f6e34751a14049bbf", "fusion_lon": 0.0, "lat": 38.881435333333336, "fusion_lat": 0.0}, {"is_disabled": 0, "rental_uris": {"android": "https://dc.lft.to/lastmile_qr_scan", "ios": "https://dc.lft.to/lastmile_qr_scan"}, "is_reserved": 0, "name": "2cfcef0032e5e9142858c37f2b3565e4", "lon": -77.04642666666666, "type": "electric_scooter", "bike_id": "2cfcef0032e5e9142858c37f2b3565e4", "fusion_lon": 0.0, "lat": 38.905532666666666, "fusion_lat": 0.0}, {"is_disabled": 0, "rental_uris": {"android": "https://dc.lft.to/lastmile_qr_scan", "ios": "https://dc.lft.to/lastmile_qr_scan"}, "is_reserved": 0, "name": "5be9fe3880eb953910a4eacda87962d8", "lon": -77.01543016666666, "type": "electric_scooter", "bike_id": "5be9fe3880eb953910a4eacda87962d8", "fusion_lon": 0.0, "lat": 38.8876875, "fusion_lat": 0.0}, {"is_disabled": 0, "rental_uris": {"android": "https://dc.lft.to/lastmile_qr_scan", "ios": "https://dc.lft.to/lastmile_qr_scan"}, "is_reserved": 0, "name": "8a360f3fb5eeda0becda09901b0bb1e7", "lon": -77.03661716666667, "type": "electric_scooter", "bike_id": "8a360f3fb5eeda0becda09901b0bb1e7", "fusion_lon": 0.0, "lat": 38.92334116666667, "fusion_lat": 0.0}, {"is_disabled": 0, "rental_uris": {"android": "https://dc.lft.to/lastmile_qr_scan", "ios": "https://dc.lft.to/lastmile_qr_scan"}, "is_reserved": 0, "name": "bfb03ac9b8aeb21ff9d33201ba55b27a", "lon": -77.04473266666666, "type": "electric_scooter", "bike_id": "bfb03ac9b8aeb21ff9d33201ba55b27a", "fusion_lon": 0.0, "lat": 38.90856333333333, "fusion_lat": 0.0}, {"is_disabled": 0, "rental_uris": {"android": "https://dc.lft.to/lastmile_qr_scan", "ios": "https://dc.lft.to/lastmile_qr_scan"}, "is_reserved": 0, "name": "03310feefc4c0fbd17516c3be558a628", "lon": -77.04007616666667, "type": "electric_scooter", "bike_id": "03310feefc4c0fbd17516c3be558a628", "fusion_lon": 0.0, "lat": 38.917986, "fusion_lat": 0.0}, {"is_disabled": 0, "rental_uris": {"android": "https://dc.lft.to/lastmile_qr_scan", "ios": "https://dc.lft.to/lastmile_qr_scan"}, "is_reserved": 0, "name": "87509ea95a91064ca7670c9f240e6a86", "lon": -77.02946683333333, "type": "electric_scooter", "bike_id": "87509ea95a91064ca7670c9f240e6a86", "fusion_lon": 0.0, "lat": 38.90458266666667, "fusion_lat": 0.0}, {"is_disabled": 0, "rental_uris": {"android": "https://dc.lft.to/lastmile_qr_scan", "ios": "https://dc.lft.to/lastmile_qr_scan"}, "is_reserved": 0, "name": "cc183c41df077a2a4ee4b86337d0f696", "lon": -77.024902, "type": "electric_scooter", "bike_id": "cc183c41df077a2a4ee4b86337d0f696", "fusion_lon": 0.0, "lat": 38.9180895, "fusion_lat": 0.0}, {"is_disabled": 0, "rental_uris": {"android": "https://dc.lft.to/lastmile_qr_scan", "ios": "https://dc.lft.to/lastmile_qr_scan"}, "is_reserved": 0, "name": "e15c0196592ebd4b2aff4804836cc6a6", "lon": -77.0433765, "type": "electric_scooter", "bike_id": "e15c0196592ebd4b2aff4804836cc6a6", "fusion_lon": 0.0, "lat": 38.90843183333333, "fusion_lat": 0.0}, {"is_disabled": 0, "rental_uris": {"android": "https://dc.lft.to/lastmile_qr_scan", "ios": "https://dc.lft.to/lastmile_qr_scan"}, "is_reserved": 0, "name": "2dfa13a23a49beff72abda4f5d87f152", "lon": -76.96975016666667, "type": "electric_scooter", "bike_id": "2dfa13a23a49beff72abda4f5d87f152", "fusion_lon": 0.0, "lat": 38.87296516666667, "fusion_lat": 0.0}, {"is_disabled": 0, "rental_uris": {"android": "https://dc.lft.to/lastmile_qr_scan", "ios": "https://dc.lft.to/lastmile_qr_scan"}, "is_reserved": 0, "name": "bc59a9243e000d6d3834af8b0138212a", "lon": -77.0419185, "type": "electric_scooter", "bike_id": "bc59a9243e000d6d3834af8b0138212a", "fusion_lon": 0.0, "lat": 38.916756166666666, "fusion_lat": 0.0}, {"is_disabled": 0, "rental_uris": {"android": "https://dc.lft.to/lastmile_qr_scan", "ios": "https://dc.lft.to/lastmile_qr_scan"}, "is_reserved": 0, "name": "f5f4bf13bc4e185f2fa71c874a1c67f3", "lon": -77.021629, "type": "electric_scooter", "bike_id": "f5f4bf13bc4e185f2fa71c874a1c67f3", "fusion_lon": 0.0, "lat": 38.909884166666664, "fusion_lat": 0.0}, {"is_disabled": 0, "rental_uris": {"android": "https://dc.lft.to/lastmile_qr_scan", "ios": "https://dc.lft.to/lastmile_qr_scan"}, "is_reserved": 0, "name": "0bdea002699d15b74f4e09239eaf85a8", "lon": -77.03855733333333, "type": "electric_scooter", "bike_id": "0bdea002699d15b74f4e09239eaf85a8", "fusion_lon": 0.0, "lat": 38.903728666666666, "fusion_lat": 0.0}, {"is_disabled": 0, "rental_uris": {"android": "https://dc.lft.to/lastmile_qr_scan", "ios": "https://dc.lft.to/lastmile_qr_scan"}, "is_reserved": 0, "name": "435aac986e41537b9837f1d1517d9ebe", "lon": -77.02172683333333, "type": "electric_scooter", "bike_id": "435aac986e41537b9837f1d1517d9ebe", "fusion_lon": 0.0, "lat": 38.90170033333333, "fusion_lat": 0.0}, {"is_disabled": 0, "rental_uris": {"android": "https://dc.lft.to/lastmile_qr_scan", "ios": "https://dc.lft.to/lastmile_qr_scan"}, "is_reserved": 0, "name": "5cde3d1ec53a52fda7410e11cfd548c0", "lon": -77.032351, "type": "electric_scooter", "bike_id": "5cde3d1ec53a52fda7410e11cfd548c0", "fusion_lon": 0.0, "lat": 38.909509, "fusion_lat": 0.0}, {"is_disabled": 0, "rental_uris": {"android": "https://dc.lft.to/lastmile_qr_scan", "ios": "https://dc.lft.to/lastmile_qr_scan"}, "is_reserved": 0, "name": "199537c1bccc4ee61be62bf08ab9d916", "lon": -77.03861566666667, "type": "electric_scooter", "bike_id": "199537c1bccc4ee61be62bf08ab9d916", "fusion_lon": 0.0, "lat": 38.912650166666666, "fusion_lat": 0.0}, {"is_disabled": 0, "rental_uris": {"android": "https://dc.lft.to/lastmile_qr_scan", "ios": "https://dc.lft.to/lastmile_qr_scan"}, "is_reserved": 0, "name": "0078f65e545e6a743eb04bd5b9234ec0", "lon": -77.05919483333334, "type": "electric_scooter", "bike_id": "0078f65e545e6a743eb04bd5b9234ec0", "fusion_lon": 0.0, "lat": 38.8623695, "fusion_lat": 0.0}, {"is_disabled": 0, "rental_uris": {"android": "https://dc.lft.to/lastmile_qr_scan", "ios": "https://dc.lft.to/lastmile_qr_scan"}, "is_reserved": 0, "name": "e9d2ca7be87591b5a2561ff4a970f078", "lon": -76.979964, "type": "electric_scooter", "bike_id": "e9d2ca7be87591b5a2561ff4a970f078", "fusion_lon": 0.0, "lat": 38.888738833333335, "fusion_lat": 0.0}, {"is_disabled": 0, "rental_uris": {"android": "https://dc.lft.to/lastmile_qr_scan", "ios": "https://dc.lft.to/lastmile_qr_scan"}, "is_reserved": 0, "name": "90b4ca640e002b6dbc9338fd5b6e565b", "lon": -77.00196533333333, "type": "electric_scooter", "bike_id": "90b4ca640e002b6dbc9338fd5b6e565b", "fusion_lon": 0.0, "lat": 38.900357666666665, "fusion_lat": 0.0}, {"is_disabled": 0, "rental_uris": {"android": "https://dc.lft.to/lastmile_qr_scan", "ios": "https://dc.lft.to/lastmile_qr_scan"}, "is_reserved": 0, "name": "fb0680ac883f21ba6233161b77d4e3dd", "lon": -77.029546, "type": "electric_scooter", "bike_id": "fb0680ac883f21ba6233161b77d4e3dd", "fusion_lon": 0.0, "lat": 38.9119845, "fusion_lat": 0.0}, {"is_disabled": 0, "rental_uris": {"android": "https://dc.lft.to/lastmile_qr_scan", "ios": "https://dc.lft.to/lastmile_qr_scan"}, "is_reserved": 0, "name": "da86c9ef0e4441ca77bd72227e7d0acb", "lon": -76.97730633333333, "type": "electric_scooter", "bike_id": "da86c9ef0e4441ca77bd72227e7d0acb", "fusion_lon": 0.0, "lat": 38.89488133333333, "fusion_lat": 0.0}, {"is_disabled": 0, "rental_uris": {"android": "https://dc.lft.to/lastmile_qr_scan", "ios": "https://dc.lft.to/lastmile_qr_scan"}, "is_reserved": 0, "name": "c5463637ea570d56f6d6c1113bafc9dd", "lon": -76.98467616666667, "type": "electric_scooter", "bike_id": "c5463637ea570d56f6d6c1113bafc9dd", "fusion_lon": 0.0, "lat": 38.893599333333334, "fusion_lat": 0.0}, {"is_disabled": 0, "rental_uris": {"android": "https://dc.lft.to/lastmile_qr_scan", "ios": "https://dc.lft.to/lastmile_qr_scan"}, "is_reserved": 0, "name": "6e1d6e6feff9274ccea2eb89d66d5f43", "lon": -77.0307975, "type": "electric_scooter", "bike_id": "6e1d6e6feff9274ccea2eb89d66d5f43", "fusion_lon": 0.0, "lat": 38.92242866666667, "fusion_lat": 0.0}, {"is_disabled": 0, "rental_uris": {"android": "https://dc.lft.to/lastmile_qr_scan", "ios": "https://dc.lft.to/lastmile_qr_scan"}, "is_reserved": 0, "name": "90a4b44ab08893a26c8844828e52e31c", "lon": -77.1151105, "type": "electric_bike", "bike_id": "90a4b44ab08893a26c8844828e52e31c", "fusion_lon": 0.0, "lat": 38.88188983333333, "fusion_lat": 0.0}, {"is_disabled": 0, "rental_uris": {"android": "https://dc.lft.to/lastmile_qr_scan", "ios": "https://dc.lft.to/lastmile_qr_scan"}, "is_reserved": 0, "name": "fc7da01324f618553ecbf655ac244982", "lon": -77.06532583333333, "type": "electric_scooter", "bike_id": "fc7da01324f618553ecbf655ac244982", "fusion_lon": 0.0, "lat": 38.905223, "fusion_lat": 0.0}, {"is_disabled": 0, "rental_uris": {"android": "https://dc.lft.to/lastmile_qr_scan", "ios": "https://dc.lft.to/lastmile_qr_scan"}, "is_reserved": 0, "name": "8495a4786325627d9ea13f71c440d7a1", "lon": -77.03515533333334, "type": "electric_scooter", "bike_id": "8495a4786325627d9ea13f71c440d7a1", "fusion_lon": 0.0, "lat": 38.922438166666666, "fusion_lat": 0.0}, {"is_disabled": 0, "rental_uris": {"android": "https://dc.lft.to/lastmile_qr_scan", "ios": "https://dc.lft.to/lastmile_qr_scan"}, "is_reserved": 0, "name": "1463757aac44027fc44073e7eecfad71", "lon": -77.05397316666667, "type": "electric_scooter", "bike_id": "1463757aac44027fc44073e7eecfad71", "fusion_lon": 0.0, "lat": 38.9278555, "fusion_lat": 0.0}, {"is_disabled": 0, "rental_uris": {"android": "https://dc.lft.to/lastmile_qr_scan", "ios": "https://dc.lft.to/lastmile_qr_scan"}, "is_reserved": 0, "name": "eca97ea47b06369aaf5bd034d79cfc10", "lon": -77.027933, "type": "electric_scooter", "bike_id": "eca97ea47b06369aaf5bd034d79cfc10", "fusion_lon": 0.0, "lat": 38.88418683333333, "fusion_lat": 0.0}, {"is_disabled": 0, "rental_uris": {"android": "https://dc.lft.to/lastmile_qr_scan", "ios": "https://dc.lft.to/lastmile_qr_scan"}, "is_reserved": 0, "name": "3a219a3f8c4e81ac388af71e321b5b80", "lon": -76.93757733333334, "type": "electric_scooter", "bike_id": "3a219a3f8c4e81ac388af71e321b5b80", "fusion_lon": 0.0, "lat": 38.890347166666665, "fusion_lat": 0.0}, {"is_disabled": 0, "rental_uris": {"android": "https://dc.lft.to/lastmile_qr_scan", "ios": "https://dc.lft.to/lastmile_qr_scan"}, "is_reserved": 0, "name": "798b7d8e2604fca94af27b210321ecaf", "lon": -77.038181, "type": "electric_scooter", "bike_id": "798b7d8e2604fca94af27b210321ecaf", "fusion_lon": 0.0, "lat": 38.909744333333336, "fusion_lat": 0.0}, {"is_disabled": 0, "rental_uris": {"android": "https://dc.lft.to/lastmile_qr_scan", "ios": "https://dc.lft.to/lastmile_qr_scan"}, "is_reserved": 0, "name": "84dbea44fb2644bbe66d5825586a5945", "lon": -77.017655, "type": "electric_scooter", "bike_id": "84dbea44fb2644bbe66d5825586a5945", "fusion_lon": 0.0, "lat": 38.921124666666664, "fusion_lat": 0.0}, {"is_disabled": 0, "rental_uris": {"android": "https://dc.lft.to/lastmile_qr_scan", "ios": "https://dc.lft.to/lastmile_qr_scan"}, "is_reserved": 0, "name": "21849ff4849398cc53e0cdba72912333", "lon": -76.8749945, "type": "electric_bike", "bike_id": "21849ff4849398cc53e0cdba72912333", "fusion_lon": 0.0, "lat": 38.99091633333333, "fusion_lat": 0.0}, {"is_disabled": 0, "rental_uris": {"android": "https://dc.lft.to/lastmile_qr_scan", "ios": "https://dc.lft.to/lastmile_qr_scan"}, "is_reserved": 0, "name": "dc4cd86deba99bb74e72a1336830b03e", "lon": -77.01994366666666, "type": "electric_scooter", "bike_id": "dc4cd86deba99bb74e72a1336830b03e", "fusion_lon": 0.0, "lat": 38.8957235, "fusion_lat": 0.0}, {"is_disabled": 0, "rental_uris": {"android": "https://dc.lft.to/lastmile_qr_scan", "ios": "https://dc.lft.to/lastmile_qr_scan"}, "is_reserved": 0, "name": "5574e44aedfea8e6b7fec493ffb6ba3c", "lon": -77.01216183333334, "type": "electric_scooter", "bike_id": "5574e44aedfea8e6b7fec493ffb6ba3c", "fusion_lon": 0.0, "lat": 38.910251833333334, "fusion_lat": 0.0}, {"is_disabled": 0, "rental_uris": {"android": "https://dc.lft.to/lastmile_qr_scan", "ios": "https://dc.lft.to/lastmile_qr_scan"}, "is_reserved": 0, "name": "32dc69ce506ea34d47f44c7b7fabd146", "lon": -77.03980483333333, "type": "electric_scooter", "bike_id": "32dc69ce506ea34d47f44c7b7fabd146", "fusion_lon": 0.0, "lat": 38.90221183333333, "fusion_lat": 0.0}, {"is_disabled": 0, "rental_uris": {"android": "https://dc.lft.to/lastmile_qr_scan", "ios": "https://dc.lft.to/lastmile_qr_scan"}, "is_reserved": 0, "name": "efac71fee0f3d9e9a9b308106cb507db", "lon": -77.11224033333333, "type": "electric_bike", "bike_id": "efac71fee0f3d9e9a9b308106cb507db", "fusion_lon": 0.0, "lat": 38.82866516666667, "fusion_lat": 0.0}, {"is_disabled": 0, "rental_uris": {"android": "https://dc.lft.to/lastmile_qr_scan", "ios": "https://dc.lft.to/lastmile_qr_scan"}, "is_reserved": 0, "name": "22f50fc6bc9aa4968322f398d807cfad", "lon": -77.03439733333333, "type": "electric_scooter", "bike_id": "22f50fc6bc9aa4968322f398d807cfad", "fusion_lon": 0.0, "lat": 38.91808416666667, "fusion_lat": 0.0}, {"is_disabled": 0, "rental_uris": {"android": "https://dc.lft.to/lastmile_qr_scan", "ios": "https://dc.lft.to/lastmile_qr_scan"}, "is_reserved": 0, "name": "758d5b0ae70107fac126434dfe121430", "lon": -77.07292916666667, "type": "electric_scooter", "bike_id": "758d5b0ae70107fac126434dfe121430", "fusion_lon": 0.0, "lat": 38.922831, "fusion_lat": 0.0}, {"is_disabled": 0, "rental_uris": {"android": "https://dc.lft.to/lastmile_qr_scan", "ios": "https://dc.lft.to/lastmile_qr_scan"}, "is_reserved": 0, "name": "aed9b2f439ff199601146e756063ba87", "lon": -77.0317985, "type": "electric_scooter", "bike_id": "aed9b2f439ff199601146e756063ba87", "fusion_lon": 0.0, "lat": 38.89232233333333, "fusion_lat": 0.0}, {"is_disabled": 0, "rental_uris": {"android": "https://dc.lft.to/lastmile_qr_scan", "ios": "https://dc.lft.to/lastmile_qr_scan"}, "is_reserved": 0, "name": "2b20170f1773767d0ede879c45f0ad86", "lon": -77.03837533333333, "type": "electric_scooter", "bike_id": "2b20170f1773767d0ede879c45f0ad86", "fusion_lon": 0.0, "lat": 38.9086835, "fusion_lat": 0.0}, {"is_disabled": 0, "rental_uris": {"android": "https://dc.lft.to/lastmile_qr_scan", "ios": "https://dc.lft.to/lastmile_qr_scan"}, "is_reserved": 0, "name": "e93dd908e5981e508676d3c6f7f5f856", "lon": -77.05019616666667, "type": "electric_scooter", "bike_id": "e93dd908e5981e508676d3c6f7f5f856", "fusion_lon": 0.0, "lat": 38.90415433333333, "fusion_lat": 0.0}, {"is_disabled": 0, "rental_uris": {"android": "https://dc.lft.to/lastmile_qr_scan", "ios": "https://dc.lft.to/lastmile_qr_scan"}, "is_reserved": 0, "name": "ef52a0513862d623ab183182f59aec7d", "lon": -77.0408665, "type": "electric_scooter", "bike_id": "ef52a0513862d623ab183182f59aec7d", "fusion_lon": 0.0, "lat": 38.907886, "fusion_lat": 0.0}, {"is_disabled": 0, "rental_uris": {"android": "https://dc.lft.to/lastmile_qr_scan", "ios": "https://dc.lft.to/lastmile_qr_scan"}, "is_reserved": 0, "name": "e598cd230925019afe79c86522980fe9", "lon": -76.965227, "type": "electric_scooter", "bike_id": "e598cd230925019afe79c86522980fe9", "fusion_lon": 0.0, "lat": 38.87628866666667, "fusion_lat": 0.0}, {"is_disabled": 0, "rental_uris": {"android": "https://dc.lft.to/lastmile_qr_scan", "ios": "https://dc.lft.to/lastmile_qr_scan"}, "is_reserved": 0, "name": "b1e1faf631b38d322323ca451750cffb", "lon": -76.96553766666666, "type": "electric_bike", "bike_id": "b1e1faf631b38d322323ca451750cffb", "fusion_lon": 0.0, "lat": 38.95087683333333, "fusion_lat": 0.0}, {"is_disabled": 0, "rental_uris": {"android": "https://dc.lft.to/lastmile_qr_scan", "ios": "https://dc.lft.to/lastmile_qr_scan"}, "is_reserved": 0, "name": "a7d8bd7e47ae68c5fe944ce53e1c5c8e", "lon": -77.0190035, "type": "electric_scooter", "bike_id": "a7d8bd7e47ae68c5fe944ce53e1c5c8e", "fusion_lon": 0.0, "lat": 38.90649366666667, "fusion_lat": 0.0}, {"is_disabled": 0, "rental_uris": {"android": "https://dc.lft.to/lastmile_qr_scan", "ios": "https://dc.lft.to/lastmile_qr_scan"}, "is_reserved": 0, "name": "0577ae033717253fbafeb7474853a38b", "lon": -77.04104883333333, "type": "electric_scooter", "bike_id": "0577ae033717253fbafeb7474853a38b", "fusion_lon": 0.0, "lat": 38.91075683333333, "fusion_lat": 0.0}, {"is_disabled": 0, "rental_uris": {"android": "https://dc.lft.to/lastmile_qr_scan", "ios": "https://dc.lft.to/lastmile_qr_scan"}, "is_reserved": 0, "name": "36f05c488aa3612799b7e2c58c0665f6", "lon": -77.002266, "type": "electric_scooter", "bike_id": "36f05c488aa3612799b7e2c58c0665f6", "fusion_lon": 0.0, "lat": 38.92509183333333, "fusion_lat": 0.0}, {"is_disabled": 0, "rental_uris": {"android": "https://dc.lft.to/lastmile_qr_scan", "ios": "https://dc.lft.to/lastmile_qr_scan"}, "is_reserved": 0, "name": "23d235b903ea2c30d4cc7d65f174cf92", "lon": -77.046623, "type": "electric_scooter", "bike_id": "23d235b903ea2c30d4cc7d65f174cf92", "fusion_lon": 0.0, "lat": 38.90745366666667, "fusion_lat": 0.0}, {"is_disabled": 0, "rental_uris": {"android": "https://dc.lft.to/lastmile_qr_scan", "ios": "https://dc.lft.to/lastmile_qr_scan"}, "is_reserved": 0, "name": "6799259b7864fdaa09ce778ffc7695a2", "lon": -77.02794783333333, "type": "electric_scooter", "bike_id": "6799259b7864fdaa09ce778ffc7695a2", "fusion_lon": 0.0, "lat": 38.91249083333334, "fusion_lat": 0.0}, {"is_disabled": 0, "rental_uris": {"android": "https://dc.lft.to/lastmile_qr_scan", "ios": "https://dc.lft.to/lastmile_qr_scan"}, "is_reserved": 0, "name": "2bf690d734b0df3bca612cd2410ac924", "lon": -77.02415716666667, "type": "electric_scooter", "bike_id": "2bf690d734b0df3bca612cd2410ac924", "fusion_lon": 0.0, "lat": 38.909652666666666, "fusion_lat": 0.0}, {"is_disabled": 0, "rental_uris": {"android": "https://dc.lft.to/lastmile_qr_scan", "ios": "https://dc.lft.to/lastmile_qr_scan"}, "is_reserved": 0, "name": "6f0e3fa857dc6f2d5ab5a269e2f94890", "lon": -77.04104883333333, "type": "electric_scooter", "bike_id": "6f0e3fa857dc6f2d5ab5a269e2f94890", "fusion_lon": 0.0, "lat": 38.916942, "fusion_lat": 0.0}, {"is_disabled": 0, "rental_uris": {"android": "https://dc.lft.to/lastmile_qr_scan", "ios": "https://dc.lft.to/lastmile_qr_scan"}, "is_reserved": 0, "name": "0aa1b99cb720b118a8e746415a746f95", "lon": -77.01652433333334, "type": "electric_bike", "bike_id": "0aa1b99cb720b118a8e746415a746f95", "fusion_lon": 0.0, "lat": 38.9543315, "fusion_lat": 0.0}, {"is_disabled": 0, "rental_uris": {"android": "https://dc.lft.to/lastmile_qr_scan", "ios": "https://dc.lft.to/lastmile_qr_scan"}, "is_reserved": 0, "name": "53c72d131a56d4cbfe1a4ebcc02ab6ff", "lon": -77.03267716666667, "type": "electric_scooter", "bike_id": "53c72d131a56d4cbfe1a4ebcc02ab6ff", "fusion_lon": 0.0, "lat": 38.9332745, "fusion_lat": 0.0}, {"is_disabled": 0, "rental_uris": {"android": "https://dc.lft.to/lastmile_qr_scan", "ios": "https://dc.lft.to/lastmile_qr_scan"}, "is_reserved": 0, "name": "5c84f526666bf83a746cb26e0bcc7722", "lon": -76.98715266666666, "type": "electric_scooter", "bike_id": "5c84f526666bf83a746cb26e0bcc7722", "fusion_lon": 0.0, "lat": 38.86701583333333, "fusion_lat": 0.0}, {"is_disabled": 0, "rental_uris": {"android": "https://dc.lft.to/lastmile_qr_scan", "ios": "https://dc.lft.to/lastmile_qr_scan"}, "is_reserved": 0, "name": "397400fdf3734b4ad8942eea22b07e7f", "lon": -77.00608083333333, "type": "electric_scooter", "bike_id": "397400fdf3734b4ad8942eea22b07e7f", "fusion_lon": 0.0, "lat": 38.90587283333333, "fusion_lat": 0.0}, {"is_disabled": 0, "rental_uris": {"android": "https://dc.lft.to/lastmile_qr_scan", "ios": "https://dc.lft.to/lastmile_qr_scan"}, "is_reserved": 0, "name": "1a9bfd3d7dee852d89fb0609662636c1", "lon": -77.02692033333334, "type": "electric_scooter", "bike_id": "1a9bfd3d7dee852d89fb0609662636c1", "fusion_lon": 0.0, "lat": 38.90737983333333, "fusion_lat": 0.0}, {"is_disabled": 0, "rental_uris": {"android": "https://dc.lft.to/lastmile_qr_scan", "ios": "https://dc.lft.to/lastmile_qr_scan"}, "is_reserved": 0, "name": "28aa9d64a50b571103321860a2b60432", "lon": -77.00918266666666, "type": "electric_scooter", "bike_id": "28aa9d64a50b571103321860a2b60432", "fusion_lon": 0.0, "lat": 38.89786433333333, "fusion_lat": 0.0}, {"is_disabled": 0, "rental_uris": {"android": "https://dc.lft.to/lastmile_qr_scan", "ios": "https://dc.lft.to/lastmile_qr_scan"}, "is_reserved": 0, "name": "69cfcb102eceb73ac2082a7f6b70f744", "lon": -77.04194933333333, "type": "electric_scooter", "bike_id": "69cfcb102eceb73ac2082a7f6b70f744", "fusion_lon": 0.0, "lat": 38.92959716666667, "fusion_lat": 0.0}, {"is_disabled": 0, "rental_uris": {"android": "https://dc.lft.to/lastmile_qr_scan", "ios": "https://dc.lft.to/lastmile_qr_scan"}, "is_reserved": 0, "name": "9fb3d2f574dde511b02cc4474e4fa71b", "lon": -77.02263433333333, "type": "electric_scooter", "bike_id": "9fb3d2f574dde511b02cc4474e4fa71b", "fusion_lon": 0.0, "lat": 38.927355666666664, "fusion_lat": 0.0}, {"is_disabled": 0, "rental_uris": {"android": "https://dc.lft.to/lastmile_qr_scan", "ios": "https://dc.lft.to/lastmile_qr_scan"}, "is_reserved": 0, "name": "eb142328df6c5aad08aebf7ca6d194ec", "lon": -77.041495, "type": "electric_scooter", "bike_id": "eb142328df6c5aad08aebf7ca6d194ec", "fusion_lon": 0.0, "lat": 38.91025466666667, "fusion_lat": 0.0}, {"is_disabled": 0, "rental_uris": {"android": "https://dc.lft.to/lastmile_qr_scan", "ios": "https://dc.lft.to/lastmile_qr_scan"}, "is_reserved": 0, "name": "11845e7d8118949d70d989021523fa0c", "lon": -76.94995566666667, "type": "electric_scooter", "bike_id": "11845e7d8118949d70d989021523fa0c", "fusion_lon": 0.0, "lat": 38.893912666666665, "fusion_lat": 0.0}, {"is_disabled": 0, "rental_uris": {"android": "https://dc.lft.to/lastmile_qr_scan", "ios": "https://dc.lft.to/lastmile_qr_scan"}, "is_reserved": 0, "name": "daadff126c63a0f01694ab786cfefddd", "lon": -77.05255983333333, "type": "electric_scooter", "bike_id": "daadff126c63a0f01694ab786cfefddd", "fusion_lon": 0.0, "lat": 38.927367, "fusion_lat": 0.0}, {"is_disabled": 0, "rental_uris": {"android": "https://dc.lft.to/lastmile_qr_scan", "ios": "https://dc.lft.to/lastmile_qr_scan"}, "is_reserved": 0, "name": "0fec99d19577720c52c0af0b58cbd02d", "lon": -77.0529085, "type": "electric_scooter", "bike_id": "0fec99d19577720c52c0af0b58cbd02d", "fusion_lon": 0.0, "lat": 38.903437, "fusion_lat": 0.0}, {"is_disabled": 0, "rental_uris": {"android": "https://dc.lft.to/lastmile_qr_scan", "ios": "https://dc.lft.to/lastmile_qr_scan"}, "is_reserved": 0, "name": "9f568eaebbf652dce310d2671b22735c", "lon": -77.03030933333334, "type": "electric_scooter", "bike_id": "9f568eaebbf652dce310d2671b22735c", "fusion_lon": 0.0, "lat": 38.931042, "fusion_lat": 0.0}, {"is_disabled": 0, "rental_uris": {"android": "https://dc.lft.to/lastmile_qr_scan", "ios": "https://dc.lft.to/lastmile_qr_scan"}, "is_reserved": 0, "name": "437713e01d12ef4322b509b85812c9a9", "lon": -77.04871166666666, "type": "electric_scooter", "bike_id": "437713e01d12ef4322b509b85812c9a9", "fusion_lon": 0.0, "lat": 38.90952566666667, "fusion_lat": 0.0}, {"is_disabled": 0, "rental_uris": {"android": "https://dc.lft.to/lastmile_qr_scan", "ios": "https://dc.lft.to/lastmile_qr_scan"}, "is_reserved": 0, "name": "e3de2a5f96aac31ae0813359cd1e9a4f", "lon": -77.03141, "type": "electric_scooter", "bike_id": "e3de2a5f96aac31ae0813359cd1e9a4f", "fusion_lon": 0.0, "lat": 38.92025866666667, "fusion_lat": 0.0}, {"is_disabled": 0, "rental_uris": {"android": "https://dc.lft.to/lastmile_qr_scan", "ios": "https://dc.lft.to/lastmile_qr_scan"}, "is_reserved": 0, "name": "f14d8d699c8e89337105c3bd8c45230b", "lon": -77.0387135, "type": "electric_scooter", "bike_id": "f14d8d699c8e89337105c3bd8c45230b", "fusion_lon": 0.0, "lat": 38.908126333333335, "fusion_lat": 0.0}, {"is_disabled": 0, "rental_uris": {"android": "https://dc.lft.to/lastmile_qr_scan", "ios": "https://dc.lft.to/lastmile_qr_scan"}, "is_reserved": 0, "name": "63d473859ed200e73c6b893fb012cd54", "lon": -77.02157016666666, "type": "electric_scooter", "bike_id": "63d473859ed200e73c6b893fb012cd54", "fusion_lon": 0.0, "lat": 38.899491166666664, "fusion_lat": 0.0}, {"is_disabled": 0, "rental_uris": {"android": "https://dc.lft.to/lastmile_qr_scan", "ios": "https://dc.lft.to/lastmile_qr_scan"}, "is_reserved": 0, "name": "fce96563ff30bdff7112e337218cab8b", "lon": -77.048445, "type": "electric_scooter", "bike_id": "fce96563ff30bdff7112e337218cab8b", "fusion_lon": 0.0, "lat": 38.9115715, "fusion_lat": 0.0}, {"is_disabled": 0, "rental_uris": {"android": "https://dc.lft.to/lastmile_qr_scan", "ios": "https://dc.lft.to/lastmile_qr_scan"}, "is_reserved": 0, "name": "a65fe69a1bdae5ba824d6c281ed2392d", "lon": -77.016032, "type": "electric_scooter", "bike_id": "a65fe69a1bdae5ba824d6c281ed2392d", "fusion_lon": 0.0, "lat": 38.87876216666667, "fusion_lat": 0.0}, {"is_disabled": 0, "rental_uris": {"android": "https://dc.lft.to/lastmile_qr_scan", "ios": "https://dc.lft.to/lastmile_qr_scan"}, "is_reserved": 0, "name": "bf29469f2a44c88fd48ee3351f469ed6", "lon": -76.9652555, "type": "electric_scooter", "bike_id": "bf29469f2a44c88fd48ee3351f469ed6", "fusion_lon": 0.0, "lat": 38.876288, "fusion_lat": 0.0}, {"is_disabled": 0, "rental_uris": {"android": "https://dc.lft.to/lastmile_qr_scan", "ios": "https://dc.lft.to/lastmile_qr_scan"}, "is_reserved": 0, "name": "e06c6e6ae7394fbe784102dc04231689", "lon": -77.01619216666667, "type": "electric_scooter", "bike_id": "e06c6e6ae7394fbe784102dc04231689", "fusion_lon": 0.0, "lat": 38.92047616666667, "fusion_lat": 0.0}, {"is_disabled": 0, "rental_uris": {"android": "https://dc.lft.to/lastmile_qr_scan", "ios": "https://dc.lft.to/lastmile_qr_scan"}, "is_reserved": 0, "name": "404099115c70fce0835ba14746a10cef", "lon": -77.03755416666667, "type": "electric_scooter", "bike_id": "404099115c70fce0835ba14746a10cef", "fusion_lon": 0.0, "lat": 38.9291535, "fusion_lat": 0.0}, {"is_disabled": 0, "rental_uris": {"android": "https://dc.lft.to/lastmile_qr_scan", "ios": "https://dc.lft.to/lastmile_qr_scan"}, "is_reserved": 0, "name": "a764025ddbab72441997e27029dfcf35", "lon": -77.02677283333334, "type": "electric_scooter", "bike_id": "a764025ddbab72441997e27029dfcf35", "fusion_lon": 0.0, "lat": 38.912684666666664, "fusion_lat": 0.0}, {"is_disabled": 0, "rental_uris": {"android": "https://dc.lft.to/lastmile_qr_scan", "ios": "https://dc.lft.to/lastmile_qr_scan"}, "is_reserved": 0, "name": "8ea71848301c9dab6858c985d090b103", "lon": -77.042419, "type": "electric_scooter", "bike_id": "8ea71848301c9dab6858c985d090b103", "fusion_lon": 0.0, "lat": 38.92225716666667, "fusion_lat": 0.0}, {"is_disabled": 0, "rental_uris": {"android": "https://dc.lft.to/lastmile_qr_scan", "ios": "https://dc.lft.to/lastmile_qr_scan"}, "is_reserved": 0, "name": "01bbbd67a05191178a510fcaf8cd0302", "lon": -77.05516266666666, "type": "electric_scooter", "bike_id": "01bbbd67a05191178a510fcaf8cd0302", "fusion_lon": 0.0, "lat": 38.930097, "fusion_lat": 0.0}, {"is_disabled": 0, "rental_uris": {"android": "https://dc.lft.to/lastmile_qr_scan", "ios": "https://dc.lft.to/lastmile_qr_scan"}, "is_reserved": 0, "name": "7be3081a7d454601085e5a11a98a6b47", "lon": -76.946335, "type": "electric_scooter", "bike_id": "7be3081a7d454601085e5a11a98a6b47", "fusion_lon": 0.0, "lat": 38.89833933333333, "fusion_lat": 0.0}, {"is_disabled": 0, "rental_uris": {"android": "https://dc.lft.to/lastmile_qr_scan", "ios": "https://dc.lft.to/lastmile_qr_scan"}, "is_reserved": 0, "name": "6aa820bfb37a07f4101bbc413a16af55", "lon": -77.05937616666667, "type": "electric_scooter", "bike_id": "6aa820bfb37a07f4101bbc413a16af55", "fusion_lon": 0.0, "lat": 38.93678, "fusion_lat": 0.0}, {"is_disabled": 0, "rental_uris": {"android": "https://dc.lft.to/lastmile_qr_scan", "ios": "https://dc.lft.to/lastmile_qr_scan"}, "is_reserved": 0, "name": "606cebe03a43b627d8fc379efaae7cb4", "lon": -77.03251216666666, "type": "electric_scooter", "bike_id": "606cebe03a43b627d8fc379efaae7cb4", "fusion_lon": 0.0, "lat": 38.93701166666666, "fusion_lat": 0.0}, {"is_disabled": 0, "rental_uris": {"android": "https://dc.lft.to/lastmile_qr_scan", "ios": "https://dc.lft.to/lastmile_qr_scan"}, "is_reserved": 0, "name": "7b3e3efed485ec332ec37cd5e3302f8c", "lon": -77.00502733333333, "type": "electric_bike", "bike_id": "7b3e3efed485ec332ec37cd5e3302f8c", "fusion_lon": 0.0, "lat": 38.90992816666667, "fusion_lat": 0.0}, {"is_disabled": 0, "rental_uris": {"android": "https://dc.lft.to/lastmile_qr_scan", "ios": "https://dc.lft.to/lastmile_qr_scan"}, "is_reserved": 0, "name": "4639baabd8c89732cfe7621a5d086b11", "lon": -77.03055533333334, "type": "electric_scooter", "bike_id": "4639baabd8c89732cfe7621a5d086b11", "fusion_lon": 0.0, "lat": 38.923783, "fusion_lat": 0.0}, {"is_disabled": 0, "rental_uris": {"android": "https://dc.lft.to/lastmile_qr_scan", "ios": "https://dc.lft.to/lastmile_qr_scan"}, "is_reserved": 0, "name": "8a8db9d806f17d27d130ca4363807b1a", "lon": -76.9985095, "type": "electric_scooter", "bike_id": "8a8db9d806f17d27d130ca4363807b1a", "fusion_lon": 0.0, "lat": 38.90887466666667, "fusion_lat": 0.0}, {"is_disabled": 0, "rental_uris": {"android": "https://dc.lft.to/lastmile_qr_scan", "ios": "https://dc.lft.to/lastmile_qr_scan"}, "is_reserved": 0, "name": "6b06443230f3c7435c4a55d53c44ca3c", "lon": -77.0454275, "type": "electric_scooter", "bike_id": "6b06443230f3c7435c4a55d53c44ca3c", "fusion_lon": 0.0, "lat": 38.91327366666667, "fusion_lat": 0.0}, {"is_disabled": 0, "rental_uris": {"android": "https://dc.lft.to/lastmile_qr_scan", "ios": "https://dc.lft.to/lastmile_qr_scan"}, "is_reserved": 0, "name": "07f7cb11e90b58ab1a32d413dc0ebe1a", "lon": -77.00734266666667, "type": "electric_scooter", "bike_id": "07f7cb11e90b58ab1a32d413dc0ebe1a", "fusion_lon": 0.0, "lat": 38.903333, "fusion_lat": 0.0}, {"is_disabled": 0, "rental_uris": {"android": "https://dc.lft.to/lastmile_qr_scan", "ios": "https://dc.lft.to/lastmile_qr_scan"}, "is_reserved": 0, "name": "5a36d67030be691dd6418a85b643ca22", "lon": -77.04220483333333, "type": "electric_scooter", "bike_id": "5a36d67030be691dd6418a85b643ca22", "fusion_lon": 0.0, "lat": 38.907763833333334, "fusion_lat": 0.0}, {"is_disabled": 0, "rental_uris": {"android": "https://dc.lft.to/lastmile_qr_scan", "ios": "https://dc.lft.to/lastmile_qr_scan"}, "is_reserved": 0, "name": "041ee005a7badc37e4e6b4eb64f7907b", "lon": -76.99872366666666, "type": "electric_scooter", "bike_id": "041ee005a7badc37e4e6b4eb64f7907b", "fusion_lon": 0.0, "lat": 38.900297333333334, "fusion_lat": 0.0}, {"is_disabled": 0, "rental_uris": {"android": "https://dc.lft.to/lastmile_qr_scan", "ios": "https://dc.lft.to/lastmile_qr_scan"}, "is_reserved": 0, "name": "68285cfcb43679e3c4743d353d07f78c", "lon": -76.99863116666667, "type": "electric_scooter", "bike_id": "68285cfcb43679e3c4743d353d07f78c", "fusion_lon": 0.0, "lat": 38.9001705, "fusion_lat": 0.0}, {"is_disabled": 0, "rental_uris": {"android": "https://dc.lft.to/lastmile_qr_scan", "ios": "https://dc.lft.to/lastmile_qr_scan"}, "is_reserved": 0, "name": "90235f1c845939da1efc74ec74480f98", "lon": -77.03853233333334, "type": "electric_scooter", "bike_id": "90235f1c845939da1efc74ec74480f98", "fusion_lon": 0.0, "lat": 38.91838516666667, "fusion_lat": 0.0}, {"is_disabled": 0, "rental_uris": {"android": "https://dc.lft.to/lastmile_qr_scan", "ios": "https://dc.lft.to/lastmile_qr_scan"}, "is_reserved": 0, "name": "1506c09633b892928236d7e560a428a5", "lon": -77.02584216666666, "type": "electric_scooter", "bike_id": "1506c09633b892928236d7e560a428a5", "fusion_lon": 0.0, "lat": 38.920351333333336, "fusion_lat": 0.0}, {"is_disabled": 0, "rental_uris": {"android": "https://dc.lft.to/lastmile_qr_scan", "ios": "https://dc.lft.to/lastmile_qr_scan"}, "is_reserved": 0, "name": "edd03af18521a43196e5eacc6335b11c", "lon": -77.03303, "type": "electric_scooter", "bike_id": "edd03af18521a43196e5eacc6335b11c", "fusion_lon": 0.0, "lat": 38.9180895, "fusion_lat": 0.0}, {"is_disabled": 0, "rental_uris": {"android": "https://dc.lft.to/lastmile_qr_scan", "ios": "https://dc.lft.to/lastmile_qr_scan"}, "is_reserved": 0, "name": "af1adb3365521e9272fefa43c674124b", "lon": -77.0384895, "type": "electric_scooter", "bike_id": "af1adb3365521e9272fefa43c674124b", "fusion_lon": 0.0, "lat": 38.93205616666667, "fusion_lat": 0.0}, {"is_disabled": 0, "rental_uris": {"android": "https://dc.lft.to/lastmile_qr_scan", "ios": "https://dc.lft.to/lastmile_qr_scan"}, "is_reserved": 0, "name": "b8d00cab8f91b5ddfcc4912d0fa2d657", "lon": -77.0521435, "type": "electric_scooter", "bike_id": "b8d00cab8f91b5ddfcc4912d0fa2d657", "fusion_lon": 0.0, "lat": 38.92476683333334, "fusion_lat": 0.0}, {"is_disabled": 0, "rental_uris": {"android": "https://dc.lft.to/lastmile_qr_scan", "ios": "https://dc.lft.to/lastmile_qr_scan"}, "is_reserved": 0, "name": "3b1bb2d10f387fa44c3c0b185c16c5fb", "lon": -77.03207866666666, "type": "electric_scooter", "bike_id": "3b1bb2d10f387fa44c3c0b185c16c5fb", "fusion_lon": 0.0, "lat": 38.925794333333336, "fusion_lat": 0.0}, {"is_disabled": 0, "rental_uris": {"android": "https://dc.lft.to/lastmile_qr_scan", "ios": "https://dc.lft.to/lastmile_qr_scan"}, "is_reserved": 0, "name": "c07708c839bf6e1a221c8efb0eb21352", "lon": -77.02961633333334, "type": "electric_scooter", "bike_id": "c07708c839bf6e1a221c8efb0eb21352", "fusion_lon": 0.0, "lat": 38.91775, "fusion_lat": 0.0}, {"is_disabled": 0, "rental_uris": {"android": "https://dc.lft.to/lastmile_qr_scan", "ios": "https://dc.lft.to/lastmile_qr_scan"}, "is_reserved": 0, "name": "5ecabc9cbd602f5ce961650539a99f5d", "lon": -77.04036466666666, "type": "electric_scooter", "bike_id": "5ecabc9cbd602f5ce961650539a99f5d", "fusion_lon": 0.0, "lat": 38.917064333333336, "fusion_lat": 0.0}, {"is_disabled": 0, "rental_uris": {"android": "https://dc.lft.to/lastmile_qr_scan", "ios": "https://dc.lft.to/lastmile_qr_scan"}, "is_reserved": 0, "name": "256b3d87201eda8705c4748055b87944", "lon": -77.0216085, "type": "electric_scooter", "bike_id": "256b3d87201eda8705c4748055b87944", "fusion_lon": 0.0, "lat": 38.926057, "fusion_lat": 0.0}, {"is_disabled": 0, "rental_uris": {"android": "https://dc.lft.to/lastmile_qr_scan", "ios": "https://dc.lft.to/lastmile_qr_scan"}, "is_reserved": 0, "name": "00bf0aba3ffa7b90d9e0da0ee21a5fb3", "lon": -76.99571716666667, "type": "electric_bike", "bike_id": "00bf0aba3ffa7b90d9e0da0ee21a5fb3", "fusion_lon": 0.0, "lat": 39.007888666666666, "fusion_lat": 0.0}, {"is_disabled": 0, "rental_uris": {"android": "https://dc.lft.to/lastmile_qr_scan", "ios": "https://dc.lft.to/lastmile_qr_scan"}, "is_reserved": 0, "name": "80b575c21ab3969a149c3f27a8303cbf", "lon": -77.02233066666666, "type": "electric_scooter", "bike_id": "80b575c21ab3969a149c3f27a8303cbf", "fusion_lon": 0.0, "lat": 38.9057325, "fusion_lat": 0.0}, {"is_disabled": 0, "rental_uris": {"android": "https://dc.lft.to/lastmile_qr_scan", "ios": "https://dc.lft.to/lastmile_qr_scan"}, "is_reserved": 0, "name": "f1c1a4ca2e9254b3204c2c6240c6468a", "lon": -77.02262533333334, "type": "electric_scooter", "bike_id": "f1c1a4ca2e9254b3204c2c6240c6468a", "fusion_lon": 0.0, "lat": 38.927349, "fusion_lat": 0.0}, {"is_disabled": 0, "rental_uris": {"android": "https://dc.lft.to/lastmile_qr_scan", "ios": "https://dc.lft.to/lastmile_qr_scan"}, "is_reserved": 0, "name": "0fb0da15d78b8b64c090e91104737174", "lon": -76.98717116666667, "type": "electric_scooter", "bike_id": "0fb0da15d78b8b64c090e91104737174", "fusion_lon": 0.0, "lat": 38.866987, "fusion_lat": 0.0}, {"is_disabled": 0, "rental_uris": {"android": "https://dc.lft.to/lastmile_qr_scan", "ios": "https://dc.lft.to/lastmile_qr_scan"}, "is_reserved": 0, "name": "ca8d1057bb0b63a0b12a59465fbce785", "lon": -77.036596, "type": "electric_scooter", "bike_id": "ca8d1057bb0b63a0b12a59465fbce785", "fusion_lon": 0.0, "lat": 38.91730333333334, "fusion_lat": 0.0}, {"is_disabled": 0, "rental_uris": {"android": "https://dc.lft.to/lastmile_qr_scan", "ios": "https://dc.lft.to/lastmile_qr_scan"}, "is_reserved": 0, "name": "b953bf757f8802a249db0a0527e4ca70", "lon": -76.98877233333333, "type": "electric_scooter", "bike_id": "b953bf757f8802a249db0a0527e4ca70", "fusion_lon": 0.0, "lat": 38.892196, "fusion_lat": 0.0}, {"is_disabled": 0, "rental_uris": {"android": "https://dc.lft.to/lastmile_qr_scan", "ios": "https://dc.lft.to/lastmile_qr_scan"}, "is_reserved": 0, "name": "8e23d982d4f1ba9628190bfb17ed1a6c", "lon": -77.026724, "type": "electric_scooter", "bike_id": "8e23d982d4f1ba9628190bfb17ed1a6c", "fusion_lon": 0.0, "lat": 38.896068666666665, "fusion_lat": 0.0}, {"is_disabled": 0, "rental_uris": {"android": "https://dc.lft.to/lastmile_qr_scan", "ios": "https://dc.lft.to/lastmile_qr_scan"}, "is_reserved": 0, "name": "6d1fb9c1be3435c80cefd00212907314", "lon": -77.022229, "type": "electric_scooter", "bike_id": "6d1fb9c1be3435c80cefd00212907314", "fusion_lon": 0.0, "lat": 38.91270466666667, "fusion_lat": 0.0}, {"is_disabled": 0, "rental_uris": {"android": "https://dc.lft.to/lastmile_qr_scan", "ios": "https://dc.lft.to/lastmile_qr_scan"}, "is_reserved": 0, "name": "cd25243486011f31458e71a2946090b6", "lon": -77.0318325, "type": "electric_scooter", "bike_id": "cd25243486011f31458e71a2946090b6", "fusion_lon": 0.0, "lat": 38.91572466666667, "fusion_lat": 0.0}, {"is_disabled": 0, "rental_uris": {"android": "https://dc.lft.to/lastmile_qr_scan", "ios": "https://dc.lft.to/lastmile_qr_scan"}, "is_reserved": 0, "name": "16b5f6e27ff9c5a4db95d62c46026faf", "lon": -77.03998233333333, "type": "electric_scooter", "bike_id": "16b5f6e27ff9c5a4db95d62c46026faf", "fusion_lon": 0.0, "lat": 38.910008833333336, "fusion_lat": 0.0}, {"is_disabled": 0, "rental_uris": {"android": "https://dc.lft.to/lastmile_qr_scan", "ios": "https://dc.lft.to/lastmile_qr_scan"},