{"data": {"bikes": [{"rental_uris": {"ios": "https://dc.lft.to/lastmile_qr_scan", "android": "https://dc.lft.to/lastmile_qr_scan"}, "lon": -77.0439685, "type": "electric_scooter", "fusion_lat": 0.0, "lat": 38.9003165, "name": "1596dd14916822da75e256c2eb853906", "fusion_lon": 0.0, "bike_id": "1596dd14916822da75e256c2eb853906", "is_disabled": 0, "is_reserved": 0}, {"rental_uris": {"ios": "https://dc.lft.to/lastmile_qr_scan", "android": "https://dc.lft.to/lastmile_qr_scan"}, "lon": -77.0245285, "type": "electric_scooter", "fusion_lat": 0.0, "lat": 38.93741816666667, "name": "d3d5c524f99971562599cf5e3f6580c8", "fusion_lon": 0.0, "bike_id": "d3d5c524f99971562599cf5e3f6580c8", "is_disabled": 0, "is_reserved": 0}, {"rental_uris": {"ios": "https://dc.lft.to/lastmile_qr_scan", "android": "https://dc.lft.to/lastmile_qr_scan"}, "lon": -76.98179633333334, "type": "electric_scooter", "fusion_lat": 0.0, "lat": 38.8957985, "name": "f401a3c9ac6be05791fa32fce27e14c0", "fusion_lon": 0.0, "bike_id": "f401a3c9ac6be05791fa32fce27e14c0", "is_disabled": 0, "is_reserved": 0}, {"rental_uris": {"ios": "https://dc.lft.to/lastmile_qr_scan", "android": "https://dc.lft.to/lastmile_qr_scan"}, "lon": -77.0434675, "type": "electric_scooter", "fusion_lat": 0.0, "lat": 38.903238333333334, "name": "10d0c6637c3256d3fa49d17d4fadd974", "fusion_lon": 0.0, "bike_id": "10d0c6637c3256d3fa49d17d4fadd974", "is_disabled": 0, "is_reserved": 0}, {"rental_uris": {"ios": "https://dc.lft.to/lastmile_qr_scan", "android": "https://dc.lft.to/lastmile_qr_scan"}, "lon": -76.90969916666667, "type": "electric_bike", "fusion_lat": 0.0, "lat": 38.854222166666666, "name": "3f109041914966855267fbd31907cb2d", "fusion_lon": 0.0, "bike_id": "3f109041914966855267fbd31907cb2d", "is_disabled": 0, "is_reserved": 0}, {"rental_uris": {"ios": "https://dc.lft.to/lastmile_qr_scan", "android": "https://dc.lft.to/lastmile_qr_scan"}, "lon": -77.03299483333333, "type": "electric_scooter", "fusion_lat": 0.0, "lat": 38.91806316666667, "name": "208af81367c030b37597b6291c3c93e9", "fusion_lon": 0.0, "bike_id": "208af81367c030b37597b6291c3c93e9", "is_disabled": 0, "is_reserved": 0}, {"rental_uris": {"ios": "https://dc.lft.to/lastmile_qr_scan", "android": "https://dc.lft.to/lastmile_qr_scan"}, "lon": -77.03674, "type": "electric_scooter", "fusion_lat": 0.0, "lat": 38.9393105, "name": "586222324dc36d2ec171e49c101ebd4f", "fusion_lon": 0.0, "bike_id": "586222324dc36d2ec171e49c101ebd4f", "is_disabled": 0, "is_reserved": 0}, {"rental_uris": {"ios": "https://dc.lft.to/lastmile_qr_scan", "android": "https://dc.lft.to/lastmile_qr_scan"}, "lon": -76.94892216666666, "type": "electric_scooter", "fusion_lat": 0.0, "lat": 38.89529316666667, "name": "d5a1af0fede08fbf90d4726d2de5ec9a", "fusion_lon": 0.0, "bike_id": "d5a1af0fede08fbf90d4726d2de5ec9a", "is_disabled": 0, "is_reserved": 0}, {"rental_uris": {"ios": "https://dc.lft.to/lastmile_qr_scan", "android": "https://dc.lft.to/lastmile_qr_scan"}, "lon": -77.0130295, "type": "electric_scooter", "fusion_lat": 0.0, "lat": 38.9212175, "name": "314331a72af3a23398ccd3cdb6c5594c", "fusion_lon": 0.0, "bike_id": "314331a72af3a23398ccd3cdb6c5594c", "is_disabled": 0, "is_reserved": 0}, {"rental_uris": {"ios": "https://dc.lft.to/lastmile_qr_scan", "android": "https://dc.lft.to/lastmile_qr_scan"}, "lon": -77.0235845, "type": "electric_scooter", "fusion_lat": 0.0, "lat": 38.9250075, "name": "d648477567fb9868151b725ee1f98b84", "fusion_lon": 0.0, "bike_id": "d648477567fb9868151b725ee1f98b84", "is_disabled": 0, "is_reserved": 0}, {"rental_uris": {"ios": "https://dc.lft.to/lastmile_qr_scan", "android": "https://dc.lft.to/lastmile_qr_scan"}, "lon": -77.02416533333333, "type": "electric_scooter", "fusion_lat": 0.0, "lat": 38.934941333333335, "name": "f006edfe84c3d6c2d7c1bf9353cad5ce", "fusion_lon": 0.0, "bike_id": "f006edfe84c3d6c2d7c1bf9353cad5ce", "is_disabled": 0, "is_reserved": 0}, {"rental_uris": {"ios": "https://dc.lft.to/lastmile_qr_scan", "android": "https://dc.lft.to/lastmile_qr_scan"}, "lon": -77.02728816666666, "type": "electric_scooter", "fusion_lat": 0.0, "lat": 38.9169465, "name": "0ec7d90166f1cffbbb8b80cd8efd6cd4", "fusion_lon": 0.0, "bike_id": "0ec7d90166f1cffbbb8b80cd8efd6cd4", "is_disabled": 0, "is_reserved": 0}, {"rental_uris": {"ios": "https://dc.lft.to/lastmile_qr_scan", "android": "https://dc.lft.to/lastmile_qr_scan"}, "lon": -77.00102433333333, "type": "electric_scooter", "fusion_lat": 0.0, "lat": 38.89427466666667, "name": "0ff400df906ae0175ef76555e78676e3", "fusion_lon": 0.0, "bike_id": "0ff400df906ae0175ef76555e78676e3", "is_disabled": 0, "is_reserved": 0}, {"rental_uris": {"ios": "https://dc.lft.to/lastmile_qr_scan", "android": "https://dc.lft.to/lastmile_qr_scan"}, "lon": -77.03852116666667, "type": "electric_scooter", "fusion_lat": 0.0, "lat": 38.91663833333333, "name": "a9a4f41f33d56984547dafbc890b227b", "fusion_lon": 0.0, "bike_id": "a9a4f41f33d56984547dafbc890b227b", "is_disabled": 0, "is_reserved": 0}, {"rental_uris": {"ios": "https://dc.lft.to/lastmile_qr_scan", "android": "https://dc.lft.to/lastmile_qr_scan"}, "lon": -77.04160316666666, "type": "electric_scooter", "fusion_lat": 0.0, "lat": 38.9120455, "name": "d1ae133cd2b0b8184f2acca5dc07bebd", "fusion_lon": 0.0, "bike_id": "d1ae133cd2b0b8184f2acca5dc07bebd", "is_disabled": 0, "is_reserved": 0}, {"rental_uris": {"ios": "https://dc.lft.to/lastmile_qr_scan", "android": "https://dc.lft.to/lastmile_qr_scan"}, "lon": -77.01432516666667, "type": "electric_scooter", "fusion_lat": 0.0, "lat": 38.92989133333333, "name": "a4ef0546d1b85e38938a179a549bc771", "fusion_lon": 0.0, "bike_id": "a4ef0546d1b85e38938a179a549bc771", "is_disabled": 0, "is_reserved": 0}, {"rental_uris": {"ios": "https://dc.lft.to/lastmile_qr_scan", "android": "https://dc.lft.to/lastmile_qr_scan"}, "lon": -77.01184233333333, "type": "electric_scooter", "fusion_lat": 0.0, "lat": 38.9002845, "name": "22e72d9b5a5ba10cddb07ff0da2a6378", "fusion_lon": 0.0, "bike_id": "22e72d9b5a5ba10cddb07ff0da2a6378", "is_disabled": 0, "is_reserved": 0}, {"rental_uris": {"ios": "https://dc.lft.to/lastmile_qr_scan", "android": "https://dc.lft.to/lastmile_qr_scan"}, "lon": -77.04543066666666, "type": "electric_scooter", "fusion_lat": 0.0, "lat": 38.907243666666666, "name": "7dadd7905f08f5a252b6951b30a686a9", "fusion_lon": 0.0, "bike_id": "7dadd7905f08f5a252b6951b30a686a9", "is_disabled": 0, "is_reserved": 0}, {"rental_uris": {"ios": "https://dc.lft.to/lastmile_qr_scan", "android": "https://dc.lft.to/lastmile_qr_scan"}, "lon": -77.03310916666666, "type": "electric_scooter", "fusion_lat": 0.0, "lat": 38.900209333333336, "name": "b0bfb93bb40b99c10827317fedd7902a", "fusion_lon": 0.0, "bike_id": "b0bfb93bb40b99c10827317fedd7902a", "is_disabled": 0, "is_reserved": 0}, {"rental_uris": {"ios": "https://dc.lft.to/lastmile_qr_scan", "android": "https://dc.lft.to/lastmile_qr_scan"}, "lon": -77.0353615, "type": "electric_scooter", "fusion_lat": 0.0, "lat": 38.918073666666665, "name": "6b0b31ea6c3efd84a9b8a5d31fc409f0", "fusion_lon": 0.0, "bike_id": "6b0b31ea6c3efd84a9b8a5d31fc409f0", "is_disabled": 0, "is_reserved": 0}, {"rental_uris": {"ios": "https://dc.lft.to/lastmile_qr_scan", "android": "https://dc.lft.to/lastmile_qr_scan"}, "lon": -77.077051, "type": "electric_scooter", "fusion_lat": 0.0, "lat": 38.95613216666667, "name": "fc041381621d92895cea504700d266f8", "fusion_lon": 0.0, "bike_id": "fc041381621d92895cea504700d266f8", "is_disabled": 0, "is_reserved": 0}, {"rental_uris": {"ios": "https://dc.lft.to/lastmile_qr_scan", "android": "https://dc.lft.to/lastmile_qr_scan"}, "lon": -77.00525133333333, "type": "electric_scooter", "fusion_lat": 0.0, "lat": 38.928970166666666, "name": "98bbebd8855cc90b9dbfe523682aa17e", "fusion_lon": 0.0, "bike_id": "98bbebd8855cc90b9dbfe523682aa17e", "is_disabled": 0, "is_reserved": 0}, {"rental_uris": {"ios": "https://dc.lft.to/lastmile_qr_scan", "android": "https://dc.lft.to/lastmile_qr_scan"}, "lon": -76.98713066666667, "type": "electric_scooter", "fusion_lat": 0.0, "lat": 38.86540466666667, "name": "6a34f87769395fcc0abffaa9586410af", "fusion_lon": 0.0, "bike_id": "6a34f87769395fcc0abffaa9586410af", "is_disabled": 0, "is_reserved": 0}, {"rental_uris": {"ios": "https://dc.lft.to/lastmile_qr_scan", "android": "https://dc.lft.to/lastmile_qr_scan"}, "lon": -77.037527, "type": "electric_scooter", "fusion_lat": 0.0, "lat": 38.92906933333333, "name": "9aee18f0ff568260fa83590fc9c5e106", "fusion_lon": 0.0, "bike_id": "9aee18f0ff568260fa83590fc9c5e106", "is_disabled": 0, "is_reserved": 0}, {"rental_uris": {"ios": "https://dc.lft.to/lastmile_qr_scan", "android": "https://dc.lft.to/lastmile_qr_scan"}, "lon": -77.03191783333334, "type": "electric_scooter", "fusion_lat": 0.0, "lat": 38.8995845, "name": "5b09bcea0558fe97e681a2af062d76a4", "fusion_lon": 0.0, "bike_id": "5b09bcea0558fe97e681a2af062d76a4", "is_disabled": 0, "is_reserved": 0}, {"rental_uris": {"ios": "https://dc.lft.to/lastmile_qr_scan", "android": "https://dc.lft.to/lastmile_qr_scan"}, "lon": -77.03447533333333, "type": "electric_scooter", "fusion_lat": 0.0, "lat": 38.907343, "name": "8fd0e41dd6d5f006c72587e8d2b33a28", "fusion_lon": 0.0, "bike_id": "8fd0e41dd6d5f006c72587e8d2b33a28", "is_disabled": 0, "is_reserved": 0}, {"rental_uris": {"ios": "https://dc.lft.to/lastmile_qr_scan", "android": "https://dc.lft.to/lastmile_qr_scan"}, "lon": -77.03207733333333, "type": "electric_scooter", "fusion_lat": 0.0, "lat": 38.9082555, "name": "3ca64db77eca669c03bc40ac5a1ed605", "fusion_lon": 0.0, "bike_id": "3ca64db77eca669c03bc40ac5a1ed605", "is_disabled": 0, "is_reserved": 0}, {"rental_uris": {"ios": "https://dc.lft.to/lastmile_qr_scan", "android": "https://dc.lft.to/lastmile_qr_scan"}, "lon": -77.03719766666667, "type": "electric_scooter", "fusion_lat": 0.0, "lat": 38.9517965, "name": "51ef38eb2f974710be482aedda7d3df6", "fusion_lon": 0.0, "bike_id": "51ef38eb2f974710be482aedda7d3df6", "is_disabled": 0, "is_reserved": 0}, {"rental_uris": {"ios": "https://dc.lft.to/lastmile_qr_scan", "android": "https://dc.lft.to/lastmile_qr_scan"}, "lon": -77.0429025, "type": "electric_bike", "fusion_lat": 0.0, "lat": 38.900173833333334, "name": "6c670bd938194a366cd41afc69fd8296", "fusion_lon": 0.0, "bike_id": "6c670bd938194a366cd41afc69fd8296", "is_disabled": 0, "is_reserved": 0}, {"rental_uris": {"ios": "https://dc.lft.to/lastmile_qr_scan", "android": "https://dc.lft.to/lastmile_qr_scan"}, "lon": -77.04115916666667, "type": "electric_scooter", "fusion_lat": 0.0, "lat": 38.92160966666667, "name": "ec6d4efbdeac6865b85fc1d4e1cba5d6", "fusion_lon": 0.0, "bike_id": "ec6d4efbdeac6865b85fc1d4e1cba5d6", "is_disabled": 0, "is_reserved": 0}, {"rental_uris": {"ios": "https://dc.lft.to/lastmile_qr_scan", "android": "https://dc.lft.to/lastmile_qr_scan"}, "lon": -77.0449855, "type": "electric_scooter", "fusion_lat": 0.0, "lat": 38.91286983333333, "name": "30c8ebe85e1cac47565cfa3a7f8905ea", "fusion_lon": 0.0, "bike_id": "30c8ebe85e1cac47565cfa3a7f8905ea", "is_disabled": 0, "is_reserved": 0}, {"rental_uris": {"ios": "https://dc.lft.to/lastmile_qr_scan", "android": "https://dc.lft.to/lastmile_qr_scan"}, "lon": -76.95738233333333, "type": "electric_scooter", "fusion_lat": 0.0, "lat": 38.89181816666667, "name": "e6a5c9a83a171839eed723843631a550", "fusion_lon": 0.0, "bike_id": "e6a5c9a83a171839eed723843631a550", "is_disabled": 0, "is_reserved": 0}, {"rental_uris": {"ios": "https://dc.lft.to/lastmile_qr_scan", "android": "https://dc.lft.to/lastmile_qr_scan"}, "lon": -77.02189133333333, "type": "electric_scooter", "fusion_lat": 0.0, "lat": 38.9148255, "name": "da8207448aea187764e54b34d277b500", "fusion_lon": 0.0, "bike_id": "da8207448aea187764e54b34d277b500", "is_disabled": 0, "is_reserved": 0}, {"rental_uris": {"ios": "https://dc.lft.to/lastmile_qr_scan", "android": "https://dc.lft.to/lastmile_qr_scan"}, "lon": -76.986198, "type": "electric_scooter", "fusion_lat": 0.0, "lat": 38.868156, "name": "586364d4c0a132ab92b2b2dc17addbe7", "fusion_lon": 0.0, "bike_id": "586364d4c0a132ab92b2b2dc17addbe7", "is_disabled": 0, "is_reserved": 0}, {"rental_uris": {"ios": "https://dc.lft.to/lastmile_qr_scan", "android": "https://dc.lft.to/lastmile_qr_scan"}, "lon": -77.09524283333333, "type": "electric_bike", "fusion_lat": 0.0, "lat": 38.838119666666664, "name": "bc6149c538745984bbbc8c0ad6fbdfe1", "fusion_lon": 0.0, "bike_id": "bc6149c538745984bbbc8c0ad6fbdfe1", "is_disabled": 0, "is_reserved": 0}, {"rental_uris": {"ios": "https://dc.lft.to/lastmile_qr_scan", "android": "https://dc.lft.to/lastmile_qr_scan"}, "lon": -77.05596516666667, "type": "electric_scooter", "fusion_lat": 0.0, "lat": 38.92783166666667, "name": "ea271f8e0c6accacce0eb647e2349f54", "fusion_lon": 0.0, "bike_id": "ea271f8e0c6accacce0eb647e2349f54", "is_disabled": 0, "is_reserved": 0}, {"rental_uris": {"ios": "https://dc.lft.to/lastmile_qr_scan", "android": "https://dc.lft.to/lastmile_qr_scan"}, "lon": -77.030362, "type": "electric_scooter", "fusion_lat": 0.0, "lat": 38.897160666666664, "name": "dbef08eccc7b1b25ccd8ce9e1a2f0432", "fusion_lon": 0.0, "bike_id": "dbef08eccc7b1b25ccd8ce9e1a2f0432", "is_disabled": 0, "is_reserved": 0}, {"rental_uris": {"ios": "https://dc.lft.to/lastmile_qr_scan", "android": "https://dc.lft.to/lastmile_qr_scan"}, "lon": -77.03442216666667, "type": "electric_scooter", "fusion_lat": 0.0, "lat": 38.907337166666665, "name": "077ae4ad4a78624011bbc469dc9a8077", "fusion_lon": 0.0, "bike_id": "077ae4ad4a78624011bbc469dc9a8077", "is_disabled": 0, "is_reserved": 0}, {"rental_uris": {"ios": "https://dc.lft.to/lastmile_qr_scan", "android": "https://dc.lft.to/lastmile_qr_scan"}, "lon": -77.0222465, "type": "electric_scooter", "fusion_lat": 0.0, "lat": 38.892190166666666, "name": "620b1ad4ef8a45d758936bd0c55eb433", "fusion_lon": 0.0, "bike_id": "620b1ad4ef8a45d758936bd0c55eb433", "is_disabled": 0, "is_reserved": 0}, {"rental_uris": {"ios": "https://dc.lft.to/lastmile_qr_scan", "android": "https://dc.lft.to/lastmile_qr_scan"}, "lon": -77.038756, "type": "electric_scooter", "fusion_lat": 0.0, "lat": 38.93435, "name": "7407a3ed8aee6d1c05d91ec6a2d69876", "fusion_lon": 0.0, "bike_id": "7407a3ed8aee6d1c05d91ec6a2d69876", "is_disabled": 0, "is_reserved": 0}, {"rental_uris": {"ios": "https://dc.lft.to/lastmile_qr_scan", "android": "https://dc.lft.to/lastmile_qr_scan"}, "lon": -76.93624433333333, "type": "electric_scooter", "fusion_lat": 0.0, "lat": 38.8899205, "name": "81753c8a27d0e7f51634f77d85a37a8f", "fusion_lon": 0.0, "bike_id": "81753c8a27d0e7f51634f77d85a37a8f", "is_disabled": 0, "is_reserved": 0}, {"rental_uris": {"ios": "https://dc.lft.to/lastmile_qr_scan", "android": "https://dc.lft.to/lastmile_qr_scan"}, "lon": -77.0329585, "type": "electric_scooter", "fusion_lat": 0.0, "lat": 38.9097155, "name": "480e09ac6135b04bf18ca3c5b048e256", "fusion_lon": 0.0, "bike_id": "480e09ac6135b04bf18ca3c5b048e256", "is_disabled": 0, "is_reserved": 0}, {"rental_uris": {"ios": "https://dc.lft.to/lastmile_qr_scan", "android": "https://dc.lft.to/lastmile_qr_scan"}, "lon": -77.032019, "type": "electric_scooter", "fusion_lat": 0.0, "lat": 38.918616, "name": "0993aab719a3f8a8019fed56728d4b05", "fusion_lon": 0.0, "bike_id": "0993aab719a3f8a8019fed56728d4b05", "is_disabled": 0, "is_reserved": 0}, {"rental_uris": {"ios": "https://dc.lft.to/lastmile_qr_scan", "android": "https://dc.lft.to/lastmile_qr_scan"}, "lon": -77.02125, "type": "electric_scooter", "fusion_lat": 0.0, "lat": 38.916120166666666, "name": "5322844d1c56047407f14db3f7f6a18e", "fusion_lon": 0.0, "bike_id": "5322844d1c56047407f14db3f7f6a18e", "is_disabled": 0, "is_reserved": 0}, {"rental_uris": {"ios": "https://dc.lft.to/lastmile_qr_scan", "android": "https://dc.lft.to/lastmile_qr_scan"}, "lon": -77.02579733333333, "type": "electric_scooter", "fusion_lat": 0.0, "lat": 38.887364166666664, "name": "49c8ae58babd6c6ce17652b73418ba98", "fusion_lon": 0.0, "bike_id": "49c8ae58babd6c6ce17652b73418ba98", "is_disabled": 0, "is_reserved": 0}, {"rental_uris": {"ios": "https://dc.lft.to/lastmile_qr_scan", "android": "https://dc.lft.to/lastmile_qr_scan"}, "lon": -76.9336705, "type": "electric_scooter", "fusion_lat": 0.0, "lat": 38.899171833333334, "name": "0534d9160ad7c7377f4d035395c8b549", "fusion_lon": 0.0, "bike_id": "0534d9160ad7c7377f4d035395c8b549", "is_disabled": 0, "is_reserved": 0}, {"rental_uris": {"ios": "https://dc.lft.to/lastmile_qr_scan", "android": "https://dc.lft.to/lastmile_qr_scan"}, "lon": -77.00583316666666, "type": "electric_scooter", "fusion_lat": 0.0, "lat": 38.88022566666667, "name": "ce95df5e85a1d56d5a421ea8ddbfd97d", "fusion_lon": 0.0, "bike_id": "ce95df5e85a1d56d5a421ea8ddbfd97d", "is_disabled": 0, "is_reserved": 0}, {"rental_uris": {"ios": "https://dc.lft.to/lastmile_qr_scan", "android": "https://dc.lft.to/lastmile_qr_scan"}, "lon": -77.19909, "type": "electric_bike", "fusion_lat": 0.0, "lat": 38.87526533333333, "name": "a357f0fd49fa285978ac66ecf59e567e", "fusion_lon": 0.0, "bike_id": "a357f0fd49fa285978ac66ecf59e567e", "is_disabled": 0, "is_reserved": 0}, {"rental_uris": {"ios": "https://dc.lft.to/lastmile_qr_scan", "android": "https://dc.lft.to/lastmile_qr_scan"}, "lon": -76.93363, "type": "electric_scooter", "fusion_lat": 0.0, "lat": 38.8991575, "name": "52211040437b5e91bec589994b28c441", "fusion_lon": 0.0, "bike_id": "52211040437b5e91bec589994b28c441", "is_disabled": 0, "is_reserved": 0}, {"rental_uris": {"ios": "https://dc.lft.to/lastmile_qr_scan", "android": "https://dc.lft.to/lastmile_qr_scan"}, "lon": -77.02919566666667, "type": "electric_scooter", "fusion_lat": 0.0, "lat": 38.895590166666665, "name": "06a7787d394a0ae742c23fb5e84efd61", "fusion_lon": 0.0, "bike_id": "06a7787d394a0ae742c23fb5e84efd61", "is_disabled": 0, "is_reserved": 0}, {"rental_uris": {"ios": "https://dc.lft.to/lastmile_qr_scan", "android": "https://dc.lft.to/lastmile_qr_scan"}, "lon": -77.017793, "type": "electric_scooter", "fusion_lat": 0.0, "lat": 38.90135983333333, "name": "0eb031e052aaf583fb6382863063201a", "fusion_lon": 0.0, "bike_id": "0eb031e052aaf583fb6382863063201a", "is_disabled": 0, "is_reserved": 0}, {"rental_uris": {"ios": "https://dc.lft.to/lastmile_qr_scan", "android": "https://dc.lft.to/lastmile_qr_scan"}, "lon": -77.03206366666667, "type": "electric_scooter", "fusion_lat": 0.0, "lat": 38.91104, "name": "b428f1a50fc0882e23f815da45462b25", "fusion_lon": 0.0, "bike_id": "b428f1a50fc0882e23f815da45462b25", "is_disabled": 0, "is_reserved": 0}, {"rental_uris": {"ios": "https://dc.lft.to/lastmile_qr_scan", "android": "https://dc.lft.to/lastmile_qr_scan"}, "lon": -77.05685116666666, "type": "electric_scooter", "fusion_lat": 0.0, "lat": 38.937027666666665, "name": "aeae247f3c6946c9b708f3092e9cac30", "fusion_lon": 0.0, "bike_id": "aeae247f3c6946c9b708f3092e9cac30", "is_disabled": 0, "is_reserved": 0}, {"rental_uris": {"ios": "https://dc.lft.to/lastmile_qr_scan", "android": "https://dc.lft.to/lastmile_qr_scan"}, "lon": -76.93544833333333, "type": "electric_bike", "fusion_lat": 0.0, "lat": 38.951864, "name": "39cea2d5e5a092993223f3f9367c1369", "fusion_lon": 0.0, "bike_id": "39cea2d5e5a092993223f3f9367c1369", "is_disabled": 0, "is_reserved": 0}, {"rental_uris": {"ios": "https://dc.lft.to/lastmile_qr_scan", "android": "https://dc.lft.to/lastmile_qr_scan"}, "lon": -77.03568616666666, "type": "electric_scooter", "fusion_lat": 0.0, "lat": 38.91815483333333, "name": "794fd71b0a0c7e435c0dbd3f7156346a", "fusion_lon": 0.0, "bike_id": "794fd71b0a0c7e435c0dbd3f7156346a", "is_disabled": 0, "is_reserved": 0}, {"rental_uris": {"ios": "https://dc.lft.to/lastmile_qr_scan", "android": "https://dc.lft.to/lastmile_qr_scan"}, "lon": -77.04810833333333, "type": "electric_scooter", "fusion_lat": 0.0, "lat": 38.897420333333336, "name": "12f158b13b3a6d5cfd2782088a1dc996", "fusion_lon": 0.0, "bike_id": "12f158b13b3a6d5cfd2782088a1dc996", "is_disabled": 0, "is_reserved": 0}, {"rental_uris": {"ios": "https://dc.lft.to/lastmile_qr_scan", "android": "https://dc.lft.to/lastmile_qr_scan"}, "lon": -76.99548683333333, "type": "electric_scooter", "fusion_lat": 0.0, "lat": 38.923171333333336, "name": "733720bc7ded8739a305ffbfb08e2f52", "fusion_lon": 0.0, "bike_id": "733720bc7ded8739a305ffbfb08e2f52", "is_disabled": 0, "is_reserved": 0}, {"rental_uris": {"ios": "https://dc.lft.to/lastmile_qr_scan", "android": "https://dc.lft.to/lastmile_qr_scan"}, "lon": -76.97331866666667, "type": "electric_scooter", "fusion_lat": 0.0, "lat": 38.904804666666664, "name": "4e6872dcc74cca6d197eaba08cf17150", "fusion_lon": 0.0, "bike_id": "4e6872dcc74cca6d197eaba08cf17150", "is_disabled": 0, "is_reserved": 0}, {"rental_uris": {"ios": "https://dc.lft.to/lastmile_qr_scan", "android": "https://dc.lft.to/lastmile_qr_scan"}, "lon": -77.0580925, "type": "electric_scooter", "fusion_lat": 0.0, "lat": 38.902975, "name": "2a9cd0bfa855ead3c6e52ac1662fa877", "fusion_lon": 0.0, "bike_id": "2a9cd0bfa855ead3c6e52ac1662fa877", "is_disabled": 0, "is_reserved": 0}, {"rental_uris": {"ios": "https://dc.lft.to/lastmile_qr_scan", "android": "https://dc.lft.to/lastmile_qr_scan"}, "lon": -77.02131516666667, "type": "electric_scooter", "fusion_lat": 0.0, "lat": 38.894948166666666, "name": "4f985ec867fb61f34b2603c7da6e879f", "fusion_lon": 0.0, "bike_id": "4f985ec867fb61f34b2603c7da6e879f", "is_disabled": 0, "is_reserved": 0}, {"rental_uris": {"ios": "https://dc.lft.to/lastmile_qr_scan", "android": "https://dc.lft.to/lastmile_qr_scan"}, "lon": -76.93962683333334, "type": "electric_scooter", "fusion_lat": 0.0, "lat": 38.899665166666665, "name": "a6cf6e44ad87e0b8b36a3467e6d54337", "fusion_lon": 0.0, "bike_id": "a6cf6e44ad87e0b8b36a3467e6d54337", "is_disabled": 0, "is_reserved": 0}, {"rental_uris": {"ios": "https://dc.lft.to/lastmile_qr_scan", "android": "https://dc.lft.to/lastmile_qr_scan"}, "lon": -76.9574675, "type": "electric_scooter", "fusion_lat": 0.0, "lat": 38.88425466666666, "name": "33f21b892b62fedf8dfef02ae6cc16d7", "fusion_lon": 0.0, "bike_id": "33f21b892b62fedf8dfef02ae6cc16d7", "is_disabled": 0, "is_reserved": 0}, {"rental_uris": {"ios": "https://dc.lft.to/lastmile_qr_scan", "android": "https://dc.lft.to/lastmile_qr_scan"}, "lon": -77.03217183333334, "type": "electric_scooter", "fusion_lat": 0.0, "lat": 38.89221833333333, "name": "a824ec0df16c956179890f0225d1cd04", "fusion_lon": 0.0, "bike_id": "a824ec0df16c956179890f0225d1cd04", "is_disabled": 0, "is_reserved": 0}, {"rental_uris": {"ios": "https://dc.lft.to/lastmile_qr_scan", "android": "https://dc.lft.to/lastmile_qr_scan"}, "lon": -77.06299216666666, "type": "electric_scooter", "fusion_lat": 0.0, "lat": 38.9066515, "name": "e734aea73ce459bc491afedccf0c8598", "fusion_lon": 0.0, "bike_id": "e734aea73ce459bc491afedccf0c8598", "is_disabled": 0, "is_reserved": 0}, {"rental_uris": {"ios": "https://dc.lft.to/lastmile_qr_scan", "android": "https://dc.lft.to/lastmile_qr_scan"}, "lon": -76.9812685, "type": "electric_scooter", "fusion_lat": 0.0, "lat": 38.8570875, "name": "2dc7f735f81785bc4ae7a12f7e429d0a", "fusion_lon": 0.0, "bike_id": "2dc7f735f81785bc4ae7a12f7e429d0a", "is_disabled": 0, "is_reserved": 0}, {"rental_uris": {"ios": "https://dc.lft.to/lastmile_qr_scan", "android": "https://dc.lft.to/lastmile_qr_scan"}, "lon": -77.080461, "type": "electric_bike", "fusion_lat": 0.0, "lat": 38.848429333333335, "name": "80f148142a1337a5c7168737bffe712a", "fusion_lon": 0.0, "bike_id": "80f148142a1337a5c7168737bffe712a", "is_disabled": 0, "is_reserved": 0}, {"rental_uris": {"ios": "https://dc.lft.to/lastmile_qr_scan", "android": "https://dc.lft.to/lastmile_qr_scan"}, "lon": -77.05474033333333, "type": "electric_scooter", "fusion_lat": 0.0, "lat": 38.91061966666667, "name": "4d16b12267a9f1c27cb97959d39a3537", "fusion_lon": 0.0, "bike_id": "4d16b12267a9f1c27cb97959d39a3537", "is_disabled": 0, "is_reserved": 0}, {"rental_uris": {"ios": "https://dc.lft.to/lastmile_qr_scan", "android": "https://dc.lft.to/lastmile_qr_scan"}, "lon": -77.01268483333334, "type": "electric_scooter", "fusion_lat": 0.0, "lat": 38.915425, "name": "db9e73ffdeebdf4380659e177472b62b", "fusion_lon": 0.0, "bike_id": "db9e73ffdeebdf4380659e177472b62b", "is_disabled": 0, "is_reserved": 0}, {"rental_uris": {"ios": "https://dc.lft.to/lastmile_qr_scan", "android": "https://dc.lft.to/lastmile_qr_scan"}, "lon": -77.0383695, "type": "electric_scooter", "fusion_lat": 0.0, "lat": 38.90763316666666, "name": "1aec9ba87718bec2bfdea03394273600", "fusion_lon": 0.0, "bike_id": "1aec9ba87718bec2bfdea03394273600", "is_disabled": 0, "is_reserved": 0}, {"rental_uris": {"ios": "https://dc.lft.to/lastmile_qr_scan", "android": "https://dc.lft.to/lastmile_qr_scan"}, "lon": -77.04720583333334, "type": "electric_scooter", "fusion_lat": 0.0, "lat": 38.89968966666667, "name": "188f8f6b99df73406ef66aefbc158cda", "fusion_lon": 0.0, "bike_id": "188f8f6b99df73406ef66aefbc158cda", "is_disabled": 0, "is_reserved": 0}, {"rental_uris": {"ios": "https://dc.lft.to/lastmile_qr_scan", "android": "https://dc.lft.to/lastmile_qr_scan"}, "lon": -76.98610133333334, "type": "electric_scooter", "fusion_lat": 0.0, "lat": 38.878381833333336, "name": "6322b65cfc28004a8c7485d09fc6322d", "fusion_lon": 0.0, "bike_id": "6322b65cfc28004a8c7485d09fc6322d", "is_disabled": 0, "is_reserved": 0}, {"rental_uris": {"ios": "https://dc.lft.to/lastmile_qr_scan", "android": "https://dc.lft.to/lastmile_qr_scan"}, "lon": -76.99460816666667, "type": "electric_scooter", "fusion_lat": 0.0, "lat": 38.85162433333333, "name": "d5aa6da067cfad0c18ea06093c128f44", "fusion_lon": 0.0, "bike_id": "d5aa6da067cfad0c18ea06093c128f44", "is_disabled": 0, "is_reserved": 0}, {"rental_uris": {"ios": "https://dc.lft.to/lastmile_qr_scan", "android": "https://dc.lft.to/lastmile_qr_scan"}, "lon": -77.05554116666667, "type": "electric_scooter", "fusion_lat": 0.0, "lat": 38.92530416666666, "name": "0beac3004c5982eca52f06fb4b533206", "fusion_lon": 0.0, "bike_id": "0beac3004c5982eca52f06fb4b533206", "is_disabled": 0, "is_reserved": 0}, {"rental_uris": {"ios": "https://dc.lft.to/lastmile_qr_scan", "android": "https://dc.lft.to/lastmile_qr_scan"}, "lon": -77.03562383333333, "type": "electric_scooter", "fusion_lat": 0.0, "lat": 38.939817, "name": "91b29e34b0c88374e60a80473070eaeb", "fusion_lon": 0.0, "bike_id": "91b29e34b0c88374e60a80473070eaeb", "is_disabled": 0, "is_reserved": 0}, {"rental_uris": {"ios": "https://dc.lft.to/lastmile_qr_scan", "android": "https://dc.lft.to/lastmile_qr_scan"}, "lon": -77.04190016666666, "type": "electric_scooter", "fusion_lat": 0.0, "lat": 38.90530566666666, "name": "92b077a9ada3d65bae9facafaa81f041", "fusion_lon": 0.0, "bike_id": "92b077a9ada3d65bae9facafaa81f041", "is_disabled": 0, "is_reserved": 0}, {"rental_uris": {"ios": "https://dc.lft.to/lastmile_qr_scan", "android": "https://dc.lft.to/lastmile_qr_scan"}, "lon": -77.0229615, "type": "electric_scooter", "fusion_lat": 0.0, "lat": 38.91790066666667, "name": "0eb6b27cbcce46bda43389b33f20d840", "fusion_lon": 0.0, "bike_id": "0eb6b27cbcce46bda43389b33f20d840", "is_disabled": 0, "is_reserved": 0}, {"rental_uris": {"ios": "https://dc.lft.to/lastmile_qr_scan", "android": "https://dc.lft.to/lastmile_qr_scan"}, "lon": -77.03212116666667, "type": "electric_scooter", "fusion_lat": 0.0, "lat": 38.912499833333335, "name": "873021406686f0ee5701e0b839fb2af1", "fusion_lon": 0.0, "bike_id": "873021406686f0ee5701e0b839fb2af1", "is_disabled": 0, "is_reserved": 0}, {"rental_uris": {"ios": "https://dc.lft.to/lastmile_qr_scan", "android": "https://dc.lft.to/lastmile_qr_scan"}, "lon": -77.043568, "type": "electric_scooter", "fusion_lat": 0.0, "lat": 38.921259666666664, "name": "d0169d9a89b7c1e0532db19b6ca84e61", "fusion_lon": 0.0, "bike_id": "d0169d9a89b7c1e0532db19b6ca84e61", "is_disabled": 0, "is_reserved": 0}, {"rental_uris": {"ios": "https://dc.lft.to/lastmile_qr_scan", "android": "https://dc.lft.to/lastmile_qr_scan"}, "lon": -76.984128, "type": "electric_scooter", "fusion_lat": 0.0, "lat": 38.91390366666667, "name": "a3f53b77fb599782f2b9ca2cd24395db", "fusion_lon": 0.0, "bike_id": "a3f53b77fb599782f2b9ca2cd24395db", "is_disabled": 0, "is_reserved": 0}, {"rental_uris": {"ios": "https://dc.lft.to/lastmile_qr_scan", "android": "https://dc.lft.to/lastmile_qr_scan"}, "lon": -77.105219, "type": "electric_bike", "fusion_lat": 0.0, "lat": 38.85166433333333, "name": "95b5775f729e2a3481a4053760d4fe00", "fusion_lon": 0.0, "bike_id": "95b5775f729e2a3481a4053760d4fe00", "is_disabled": 0, "is_reserved": 0}, {"rental_uris": {"ios": "https://dc.lft.to/lastmile_qr_scan", "android": "https://dc.lft.to/lastmile_qr_scan"}, "lon": -77.00320566666667, "type": "electric_scooter", "fusion_lat": 0.0, "lat": 38.908862666666664, "name": "3f42585a9d589a16dae4cf467a33af73", "fusion_lon": 0.0, "bike_id": "3f42585a9d589a16dae4cf467a33af73", "is_disabled": 0, "is_reserved": 0}, {"rental_uris": {"ios": "https://dc.lft.to/lastmile_qr_scan", "android": "https://dc.lft.to/lastmile_qr_scan"}, "lon": -77.00226833333333, "type": "electric_scooter", "fusion_lat": 0.0, "lat": 38.905685, "name": "68bfd7db07441309b305a564cff8e96d", "fusion_lon": 0.0, "bike_id": "68bfd7db07441309b305a564cff8e96d", "is_disabled": 0, "is_reserved": 0}, {"rental_uris": {"ios": "https://dc.lft.to/lastmile_qr_scan", "android": "https://dc.lft.to/lastmile_qr_scan"}, "lon": -76.96777583333333, "type": "electric_scooter", "fusion_lat": 0.0, "lat": 38.8613955, "name": "d0238c0c094de45ab7cbf201d059b036", "fusion_lon": 0.0, "bike_id": "d0238c0c094de45ab7cbf201d059b036", "is_disabled": 0, "is_reserved": 0}, {"rental_uris": {"ios": "https://dc.lft.to/lastmile_qr_scan", "android": "https://dc.lft.to/lastmile_qr_scan"}, "lon": -76.93175683333334, "type": "electric_scooter", "fusion_lat": 0.0, "lat": 38.89883533333333, "name": "a6ec52d2404f0c31702522c82d42d06e", "fusion_lon": 0.0, "bike_id": "a6ec52d2404f0c31702522c82d42d06e", "is_disabled": 0, "is_reserved": 0}, {"rental_uris": {"ios": "https://dc.lft.to/lastmile_qr_scan", "android": "https://dc.lft.to/lastmile_qr_scan"}, "lon": -77.013666, "type": "electric_scooter", "fusion_lat": 0.0, "lat": 38.886522666666664, "name": "99e2c193aa3faf94bec10e92aae74f44", "fusion_lon": 0.0, "bike_id": "99e2c193aa3faf94bec10e92aae74f44", "is_disabled": 0, "is_reserved": 0}, {"rental_uris": {"ios": "https://dc.lft.to/lastmile_qr_scan", "android": "https://dc.lft.to/lastmile_qr_scan"}, "lon": -77.04288566666666, "type": "electric_scooter", "fusion_lat": 0.0, "lat": 38.895330333333334, "name": "6e08bb0d50c58acdc961fb754807e085", "fusion_lon": 0.0, "bike_id": "6e08bb0d50c58acdc961fb754807e085", "is_disabled": 0, "is_reserved": 0}, {"rental_uris": {"ios": "https://dc.lft.to/lastmile_qr_scan", "android": "https://dc.lft.to/lastmile_qr_scan"}, "lon": -77.05790583333334, "type": "electric_scooter", "fusion_lat": 0.0, "lat": 38.93476416666667, "name": "ff711585aff464afa06745a606232baf", "fusion_lon": 0.0, "bike_id": "ff711585aff464afa06745a606232baf", "is_disabled": 0, "is_reserved": 0}, {"rental_uris": {"ios": "https://dc.lft.to/lastmile_qr_scan", "android": "https://dc.lft.to/lastmile_qr_scan"}, "lon": -77.08190133333333, "type": "electric_bike", "fusion_lat": 0.0, "lat": 38.922068, "name": "dee2cc71f1a38ac2b96d4c649fa9cf4b", "fusion_lon": 0.0, "bike_id": "dee2cc71f1a38ac2b96d4c649fa9cf4b", "is_disabled": 0, "is_reserved": 0}, {"rental_uris": {"ios": "https://dc.lft.to/lastmile_qr_scan", "android": "https://dc.lft.to/lastmile_qr_scan"}, "lon": -77.04881283333333, "type": "electric_scooter", "fusion_lat": 0.0, "lat": 38.90595533333333, "name": "9bd2a8b3cc06314c5c52ed1f3fbf0e52", "fusion_lon": 0.0, "bike_id": "9bd2a8b3cc06314c5c52ed1f3fbf0e52", "is_disabled": 0, "is_reserved": 0}, {"rental_uris": {"ios": "https://dc.lft.to/lastmile_qr_scan", "android": "https://dc.lft.to/lastmile_qr_scan"}, "lon": -77.00197183333333, "type": "electric_scooter", "fusion_lat": 0.0, "lat": 38.90036666666666, "name": "974f483d0c2e878116eb41493f72ed5c", "fusion_lon": 0.0, "bike_id": "974f483d0c2e878116eb41493f72ed5c", "is_disabled": 0, "is_reserved": 0}, {"rental_uris": {"ios": "https://dc.lft.to/lastmile_qr_scan", "android": "https://dc.lft.to/lastmile_qr_scan"}, "lon": -77.011141, "type": "electric_scooter", "fusion_lat": 0.0, "lat": 38.90355683333333, "name": "9abb9d78992c46bb6186e9b0fdeb63cd", "fusion_lon": 0.0, "bike_id": "9abb9d78992c46bb6186e9b0fdeb63cd", "is_disabled": 0, "is_reserved": 0}, {"rental_uris": {"ios": "https://dc.lft.to/lastmile_qr_scan", "android": "https://dc.lft.to/lastmile_qr_scan"}, "lon": -77.06318466666667, "type": "electric_scooter", "fusion_lat": 0.0, "lat": 38.9437795, "name": "989ee286ae2e0f6d289e6b6a04a4d6f2", "fusion_lon": 0.0, "bike_id": "989ee286ae2e0f6d289e6b6a04a4d6f2", "is_disabled": 0, "is_reserved": 0}, {"rental_uris": {"ios": "https://dc.lft.to/lastmile_qr_scan", "android": "https://dc.lft.to/lastmile_qr_scan"}, "lon": -77.03674083333334, "type": "electric_scooter", "fusion_lat": 0.0, "lat": 38.9186995, "name": "5208dc30319c1d79a8dd3c0acf8e7517", "fusion_lon": 0.0, "bike_id": "5208dc30319c1d79a8dd3c0acf8e7517", "is_disabled": 0, "is_reserved": 0}, {"rental_uris": {"ios": "https://dc.lft.to/lastmile_qr_scan", "android": "https://dc.lft.to/lastmile_qr_scan"}, "lon": -76.95183683333333, "type": "electric_bike", "fusion_lat": 0.0, "lat": 38.90690266666667, "name": "251f6c7884b14b314ff50c7efa456aaf", "fusion_lon": 0.0, "bike_id": "251f6c7884b14b314ff50c7efa456aaf", "is_disabled": 0, "is_reserved": 0}, {"rental_uris": {"ios": "https://dc.lft.to/lastmile_qr_scan", "android": "https://dc.lft.to/lastmile_qr_scan"}, "lon": -77.04416316666666, "type": "electric_scooter", "fusion_lat": 0.0, "lat": 38.91311833333334, "name": "555708867e31e316bbc7abc3c6b625c0", "fusion_lon": 0.0, "bike_id": "555708867e31e316bbc7abc3c6b625c0", "is_disabled": 0, "is_reserved": 0}, {"rental_uris": {"ios": "https://dc.lft.to/lastmile_qr_scan", "android": "https://dc.lft.to/lastmile_qr_scan"}, "lon": -77.028539, "type": "electric_scooter", "fusion_lat": 0.0, "lat": 38.888728666666665, "name": "0a136b68847b71a9347347fde5de1656", "fusion_lon": 0.0, "bike_id": "0a136b68847b71a9347347fde5de1656", "is_disabled": 0, "is_reserved": 0}, {"rental_uris": {"ios": "https://dc.lft.to/lastmile_qr_scan", "android": "https://dc.lft.to/lastmile_qr_scan"}, "lon": -77.05527533333333, "type": "electric_scooter", "fusion_lat": 0.0, "lat": 38.92801333333333, "name": "0cd238be72e5be9e44269c141e277219", "fusion_lon": 0.0, "bike_id": "0cd238be72e5be9e44269c141e277219", "is_disabled": 0, "is_reserved": 0}, {"rental_uris": {"ios": "https://dc.lft.to/lastmile_qr_scan", "android": "https://dc.lft.to/lastmile_qr_scan"}, "lon": -77.03208716666667, "type": "electric_scooter", "fusion_lat": 0.0, "lat": 38.915394, "name": "a93b0adad16e15c861d0c75c16e9ef63", "fusion_lon": 0.0, "bike_id": "a93b0adad16e15c861d0c75c16e9ef63", "is_disabled": 0, "is_reserved": 0}, {"rental_uris": {"ios": "https://dc.lft.to/lastmile_qr_scan", "android": "https://dc.lft.to/lastmile_qr_scan"}, "lon": -77.129638, "type": "electric_bike", "fusion_lat": 0.0, "lat": 38.807900333333336, "name": "c3f715784c7e4c0998825bd41a52bf20", "fusion_lon": 0.0, "bike_id": "c3f715784c7e4c0998825bd41a52bf20", "is_disabled": 0, "is_reserved": 0}, {"rental_uris": {"ios": "https://dc.lft.to/lastmile_qr_scan", "android": "https://dc.lft.to/lastmile_qr_scan"}, "lon": -77.08391383333333, "type": "electric_scooter", "fusion_lat": 0.0, "lat": 38.960932666666665, "name": "7e021ec36bd86505d354b377fda557f9", "fusion_lon": 0.0, "bike_id": "7e021ec36bd86505d354b377fda557f9", "is_disabled": 0, "is_reserved": 0}, {"rental_uris": {"ios": "https://dc.lft.to/lastmile_qr_scan", "android": "https://dc.lft.to/lastmile_qr_scan"}, "lon": -77.01284516666666, "type": "electric_bike", "fusion_lat": 0.0, "lat": 39.003795833333335, "name": "88edf9286bb7303757ce0a567261e79f", "fusion_lon": 0.0, "bike_id": "88edf9286bb7303757ce0a567261e79f", "is_disabled": 0, "is_reserved": 0}, {"rental_uris": {"ios": "https://dc.lft.to/lastmile_qr_scan", "android": "https://dc.lft.to/lastmile_qr_scan"}, "lon": -77.03188983333334, "type": "electric_scooter", "fusion_lat": 0.0, "lat": 38.88748183333333, "name": "fbc50c03ce204ec3eb2c50ef0c631006", "fusion_lon": 0.0, "bike_id": "fbc50c03ce204ec3eb2c50ef0c631006", "is_disabled": 0, "is_reserved": 0}, {"rental_uris": {"ios": "https://dc.lft.to/lastmile_qr_scan", "android": "https://dc.lft.to/lastmile_qr_scan"}, "lon": -77.04668466666666, "type": "electric_scooter", "fusion_lat": 0.0, "lat": 38.93295466666667, "name": "fda1275f5b32a8e200e61cf45f93a898", "fusion_lon": 0.0, "bike_id": "fda1275f5b32a8e200e61cf45f93a898", "is_disabled": 0, "is_reserved": 0}, {"rental_uris": {"ios": "https://dc.lft.to/lastmile_qr_scan", "android": "https://dc.lft.to/lastmile_qr_scan"}, "lon": -77.01584416666667, "type": "electric_scooter", "fusion_lat": 0.0, "lat": 38.90199116666667, "name": "928bc6103a738fe153cc1f7108a7cf2e", "fusion_lon": 0.0, "bike_id": "928bc6103a738fe153cc1f7108a7cf2e", "is_disabled": 0, "is_reserved": 0}, {"rental_uris": {"ios": "https://dc.lft.to/lastmile_qr_scan", "android": "https://dc.lft.to/lastmile_qr_scan"}, "lon": -77.02966416666666, "type": "electric_scooter", "fusion_lat": 0.0, "lat": 38.90837916666667, "name": "39b5eb433a422ceefe39c3d83ecb2c7c", "fusion_lon": 0.0, "bike_id": "39b5eb433a422ceefe39c3d83ecb2c7c", "is_disabled": 0, "is_reserved": 0}, {"rental_uris": {"ios": "https://dc.lft.to/lastmile_qr_scan", "android": "https://dc.lft.to/lastmile_qr_scan"}, "lon": -77.04644733333333, "type": "electric_bike", "fusion_lat": 0.0, "lat": 38.852096, "name": "3f825aab562731ca33ba26508708f661", "fusion_lon": 0.0, "bike_id": "3f825aab562731ca33ba26508708f661", "is_disabled": 0, "is_reserved": 0}, {"rental_uris": {"ios": "https://dc.lft.to/lastmile_qr_scan", "android": "https://dc.lft.to/lastmile_qr_scan"}, "lon": -76.990398, "type": "electric_scooter", "fusion_lat": 0.0, "lat": 38.85660766666667, "name": "bba87fc2d93e6788fb912840fba3e109", "fusion_lon": 0.0, "bike_id": "bba87fc2d93e6788fb912840fba3e109", "is_disabled": 0, "is_reserved": 0}, {"rental_uris": {"ios": "https://dc.lft.to/lastmile_qr_scan", "android": "https://dc.lft.to/lastmile_qr_scan"}, "lon": -76.9324265, "type": "electric_scooter", "fusion_lat": 0.0, "lat": 38.89405133333333, "name": "3c8dc80e015a23b4f1dffe5765808cd9", "fusion_lon": 0.0, "bike_id": "3c8dc80e015a23b4f1dffe5765808cd9", "is_disabled": 0, "is_reserved": 0}, {"rental_uris": {"ios": "https://dc.lft.to/lastmile_qr_scan", "android": "https://dc.lft.to/lastmile_qr_scan"}, "lon": -77.03338683333334, "type": "electric_scooter", "fusion_lat": 0.0, "lat": 38.89684283333333, "name": "e832a62f42cace5605f5191d0ff7312e", "fusion_lon": 0.0, "bike_id": "e832a62f42cace5605f5191d0ff7312e", "is_disabled": 0, "is_reserved": 0}, {"rental_uris": {"ios": "https://dc.lft.to/lastmile_qr_scan", "android": "https://dc.lft.to/lastmile_qr_scan"}, "lon": -77.03221283333333, "type": "electric_scooter", "fusion_lat": 0.0, "lat": 38.9086615, "name": "dcc4ee19e91439146bce99c058c21022", "fusion_lon": 0.0, "bike_id": "dcc4ee19e91439146bce99c058c21022", "is_disabled": 0, "is_reserved": 0}, {"rental_uris": {"ios": "https://dc.lft.to/lastmile_qr_scan", "android": "https://dc.lft.to/lastmile_qr_scan"}, "lon": -76.98884966666667, "type": "electric_scooter", "fusion_lat": 0.0, "lat": 38.8665795, "name": "d17104d6a994b4e653589d8fdde73588", "fusion_lon": 0.0, "bike_id": "d17104d6a994b4e653589d8fdde73588", "is_disabled": 0, "is_reserved": 0}, {"rental_uris": {"ios": "https://dc.lft.to/lastmile_qr_scan", "android": "https://dc.lft.to/lastmile_qr_scan"}, "lon": -77.03900916666667, "type": "electric_scooter", "fusion_lat": 0.0, "lat": 38.921847666666665, "name": "43216fc0a7a98293654e625aeb4ce96c", "fusion_lon": 0.0, "bike_id": "43216fc0a7a98293654e625aeb4ce96c", "is_disabled": 0, "is_reserved": 0}, {"rental_uris": {"ios": "https://dc.lft.to/lastmile_qr_scan", "android": "https://dc.lft.to/lastmile_qr_scan"}, "lon": -77.04687583333333, "type": "electric_scooter", "fusion_lat": 0.0, "lat": 38.89605183333333, "name": "d12cb9ea53d62ea6e454fa5c2c8f57cc", "fusion_lon": 0.0, "bike_id": "d12cb9ea53d62ea6e454fa5c2c8f57cc", "is_disabled": 0, "is_reserved": 0}, {"rental_uris": {"ios": "https://dc.lft.to/lastmile_qr_scan", "android": "https://dc.lft.to/lastmile_qr_scan"}, "lon": -76.97705383333333, "type": "electric_scooter", "fusion_lat": 0.0, "lat": 38.902562333333336, "name": "2ae0d00f361ba6704f757cc1419f4e67", "fusion_lon": 0.0, "bike_id": "2ae0d00f361ba6704f757cc1419f4e67", "is_disabled": 0, "is_reserved": 0}, {"rental_uris": {"ios": "https://dc.lft.to/lastmile_qr_scan", "android": "https://dc.lft.to/lastmile_qr_scan"}, "lon": -77.03178333333334, "type": "electric_scooter", "fusion_lat": 0.0, "lat": 38.918083333333335, "name": "2105518233f3fb1ae98d13a005c7d446", "fusion_lon": 0.0, "bike_id": "2105518233f3fb1ae98d13a005c7d446", "is_disabled": 0, "is_reserved": 0}, {"rental_uris": {"ios": "https://dc.lft.to/lastmile_qr_scan", "android": "https://dc.lft.to/lastmile_qr_scan"}, "lon": -77.01061466666667, "type": "electric_scooter", "fusion_lat": 0.0, "lat": 38.8757845, "name": "ff82cf69384e67eda98fdb5a0e7f031f", "fusion_lon": 0.0, "bike_id": "ff82cf69384e67eda98fdb5a0e7f031f", "is_disabled": 0, "is_reserved": 0}, {"rental_uris": {"ios": "https://dc.lft.to/lastmile_qr_scan", "android": "https://dc.lft.to/lastmile_qr_scan"}, "lon": -76.93744983333333, "type": "electric_scooter", "fusion_lat": 0.0, "lat": 38.91278466666667, "name": "a91fa91cbdac4b6557e260fb8a6dbc04", "fusion_lon": 0.0, "bike_id": "a91fa91cbdac4b6557e260fb8a6dbc04", "is_disabled": 0, "is_reserved": 0}, {"rental_uris": {"ios": "https://dc.lft.to/lastmile_qr_scan", "android": "https://dc.lft.to/lastmile_qr_scan"}, "lon": -77.033647, "type": "electric_scooter", "fusion_lat": 0.0, "lat": 38.91698066666667, "name": "cfbeccd2768528d130ee0268f0d73da3", "fusion_lon": 0.0, "bike_id": "cfbeccd2768528d130ee0268f0d73da3", "is_disabled": 0, "is_reserved": 0}, {"rental_uris": {"ios": "https://dc.lft.to/lastmile_qr_scan", "android": "https://dc.lft.to/lastmile_qr_scan"}, "lon": -77.04260166666667, "type": "electric_scooter", "fusion_lat": 0.0, "lat": 38.92060033333333, "name": "ce58b8bc587f5c37477c27a15c74ff2c", "fusion_lon": 0.0, "bike_id": "ce58b8bc587f5c37477c27a15c74ff2c", "is_disabled": 0, "is_reserved": 0}, {"rental_uris": {"ios": "https://dc.lft.to/lastmile_qr_scan", "android": "https://dc.lft.to/lastmile_qr_scan"}, "lon": -77.02228766666667, "type": "electric_scooter", "fusion_lat": 0.0, "lat": 38.891926, "name": "6d6347d111766c2f56644b68206abd6b", "fusion_lon": 0.0, "bike_id": "6d6347d111766c2f56644b68206abd6b", "is_disabled": 0, "is_reserved": 0}, {"rental_uris": {"ios": "https://dc.lft.to/lastmile_qr_scan", "android": "https://dc.lft.to/lastmile_qr_scan"}, "lon": -77.09669116666667, "type": "electric_scooter", "fusion_lat": 0.0, "lat": 38.917693666666665, "name": "4561c2d642f68c58700c4f736278af62", "fusion_lon": 0.0, "bike_id": "4561c2d642f68c58700c4f736278af62", "is_disabled": 0, "is_reserved": 0}, {"rental_uris": {"ios": "https://dc.lft.to/lastmile_qr_scan", "android": "https://dc.lft.to/lastmile_qr_scan"}, "lon": -77.038664, "type": "electric_scooter", "fusion_lat": 0.0, "lat": 38.91557383333333, "name": "82eded825876603472e674707a5cc5e9", "fusion_lon": 0.0, "bike_id": "82eded825876603472e674707a5cc5e9", "is_disabled": 0, "is_reserved": 0}, {"rental_uris": {"ios": "https://dc.lft.to/lastmile_qr_scan", "android": "https://dc.lft.to/lastmile_qr_scan"}, "lon": -76.98713733333334, "type": "electric_scooter", "fusion_lat": 0.0, "lat": 38.86258633333333, "name": "c99c3bdcf6a2ffc7f24464eaddcb8e1e", "fusion_lon": 0.0, "bike_id": "c99c3bdcf6a2ffc7f24464eaddcb8e1e", "is_disabled": 0, "is_reserved": 0}, {"rental_uris": {"ios": "https://dc.lft.to/lastmile_qr_scan", "android": "https://dc.lft.to/lastmile_qr_scan"}, "lon": -77.0425965, "type": "electric_scooter", "fusion_lat": 0.0, "lat": 38.922037, "name": "580ba73ea5db1b9d9aba4b7d656eed93", "fusion_lon": 0.0, "bike_id": "580ba73ea5db1b9d9aba4b7d656eed93", "is_disabled": 0, "is_reserved": 0}, {"rental_uris": {"ios": "https://dc.lft.to/lastmile_qr_scan", "android": "https://dc.lft.to/lastmile_qr_scan"}, "lon": -77.043662, "type": "electric_scooter", "fusion_lat": 0.0, "lat": 38.901401, "name": "ab7cf8b2da1e9b6cbb28256b150a2b4c", "fusion_lon": 0.0, "bike_id": "ab7cf8b2da1e9b6cbb28256b150a2b4c", "is_disabled": 0, "is_reserved": 0}, {"rental_uris": {"ios": "https://dc.lft.to/lastmile_qr_scan", "android": "https://dc.lft.to/lastmile_qr_scan"}, "lon": -76.99143516666666, "type": "electric_scooter", "fusion_lat": 0.0, "lat": 38.90038366666667, "name": "224ba7419d72341a20b55b9e35ab93a0", "fusion_lon": 0.0, "bike_id": "224ba7419d72341a20b55b9e35ab93a0", "is_disabled": 0, "is_reserved": 0}, {"rental_uris": {"ios": "https://dc.lft.to/lastmile_qr_scan", "android": "https://dc.lft.to/lastmile_qr_scan"}, "lon": -76.95523833333333, "type": "electric_scooter", "fusion_lat": 0.0, "lat": 38.88783566666667, "name": "3a1e940b44973a9f91512d59249ca675", "fusion_lon": 0.0, "bike_id": "3a1e940b44973a9f91512d59249ca675", "is_disabled": 0, "is_reserved": 0}, {"rental_uris": {"ios": "https://dc.lft.to/lastmile_qr_scan", "android": "https://dc.lft.to/lastmile_qr_scan"}, "lon": -77.06007, "type": "electric_scooter", "fusion_lat": 0.0, "lat": 38.912622, "name": "b5211dd520c1525cd02cc104112e4749", "fusion_lon": 0.0, "bike_id": "b5211dd520c1525cd02cc104112e4749", "is_disabled": 0, "is_reserved": 0}, {"rental_uris": {"ios": "https://dc.lft.to/lastmile_qr_scan", "android": "https://dc.lft.to/lastmile_qr_scan"}, "lon": -77.02096, "type": "electric_scooter", "fusion_lat": 0.0, "lat": 38.914121, "name": "2dd021147f92082073a92e47d3b83726", "fusion_lon": 0.0, "bike_id": "2dd021147f92082073a92e47d3b83726", "is_disabled": 0, "is_reserved": 0}, {"rental_uris": {"ios": "https://dc.lft.to/lastmile_qr_scan", "android": "https://dc.lft.to/lastmile_qr_scan"}, "lon": -76.995066, "type": "electric_scooter", "fusion_lat": 0.0, "lat": 38.880090833333334, "name": "7a0477e131612e5cb21d04e9451bfe2c", "fusion_lon": 0.0, "bike_id": "7a0477e131612e5cb21d04e9451bfe2c", "is_disabled": 0, "is_reserved": 0}, {"rental_uris": {"ios": "https://dc.lft.to/lastmile_qr_scan", "android": "https://dc.lft.to/lastmile_qr_scan"}, "lon": -76.94178433333333, "type": "electric_scooter", "fusion_lat": 0.0, "lat": 38.8822075, "name": "bd7c77bf6e70dcd6b33acb76bd6c50ff", "fusion_lon": 0.0, "bike_id": "bd7c77bf6e70dcd6b33acb76bd6c50ff", "is_disabled": 0, "is_reserved": 0}, {"rental_uris": {"ios": "https://dc.lft.to/lastmile_qr_scan", "android": "https://dc.lft.to/lastmile_qr_scan"}, "lon": -77.05475833333334, "type": "electric_scooter", "fusion_lat": 0.0, "lat": 38.92095916666667, "name": "dbc8ddac2429e20491c16974157dc9c1", "fusion_lon": 0.0, "bike_id": "dbc8ddac2429e20491c16974157dc9c1", "is_disabled": 0, "is_reserved": 0}, {"rental_uris": {"ios": "https://dc.lft.to/lastmile_qr_scan", "android": "https://dc.lft.to/lastmile_qr_scan"}, "lon": -77.03616733333334, "type": "electric_scooter", "fusion_lat": 0.0, "lat": 38.932566, "name": "d9f2f253f9a1448d1bc1f23c2bfba85d", "fusion_lon": 0.0, "bike_id": "d9f2f253f9a1448d1bc1f23c2bfba85d", "is_disabled": 0, "is_reserved": 0}, {"rental_uris": {"ios": "https://dc.lft.to/lastmile_qr_scan", "android": "https://dc.lft.to/lastmile_qr_scan"}, "lon": -77.04492933333333, "type": "electric_scooter", "fusion_lat": 0.0, "lat": 38.9105235, "name": "afc182c94d622558b22160b32e54c4bf", "fusion_lon": 0.0, "bike_id": "afc182c94d622558b22160b32e54c4bf", "is_disabled": 0, "is_reserved": 0}, {"rental_uris": {"ios": "https://dc.lft.to/lastmile_qr_scan", "android": "https://dc.lft.to/lastmile_qr_scan"}, "lon": -76.93175366666667, "type": "electric_scooter", "fusion_lat": 0.0, "lat": 38.898833333333336, "name": "4043c1f6c64148259f4dd433ea9535ad", "fusion_lon": 0.0, "bike_id": "4043c1f6c64148259f4dd433ea9535ad", "is_disabled": 0, "is_reserved": 0}, {"rental_uris": {"ios": "https://dc.lft.to/lastmile_qr_scan", "android": "https://dc.lft.to/lastmile_qr_scan"}, "lon": -77.03666216666667, "type": "electric_scooter", "fusion_lat": 0.0, "lat": 38.918116, "name": "1104c5d558559941b3b713fd707dcdd3", "fusion_lon": 0.0, "bike_id": "1104c5d558559941b3b713fd707dcdd3", "is_disabled": 0, "is_reserved": 0}, {"rental_uris": {"ios": "https://dc.lft.to/lastmile_qr_scan", "android": "https://dc.lft.to/lastmile_qr_scan"}, "lon": -77.0359505, "type": "electric_scooter", "fusion_lat": 0.0, "lat": 38.928536333333334, "name": "03ecc162c7f94268bf3b7a5abcb68ccd", "fusion_lon": 0.0, "bike_id": "03ecc162c7f94268bf3b7a5abcb68ccd", "is_disabled": 0, "is_reserved": 0}, {"rental_uris": {"ios": "https://dc.lft.to/lastmile_qr_scan", "android": "https://dc.lft.to/lastmile_qr_scan"}, "lon": -77.02980483333333, "type": "electric_scooter", "fusion_lat": 0.0, "lat": 38.9460145, "name": "da4dcc216634ca782cf0c8e51e974a7c", "fusion_lon": 0.0, "bike_id": "da4dcc216634ca782cf0c8e51e974a7c", "is_disabled": 0, "is_reserved": 0}, {"rental_uris": {"ios": "https://dc.lft.to/lastmile_qr_scan", "android": "https://dc.lft.to/lastmile_qr_scan"}, "lon": -77.00204783333334, "type": "electric_scooter", "fusion_lat": 0.0, "lat": 38.90039816666667, "name": "a758c15f059239774eef5ad181a26fa9", "fusion_lon": 0.0, "bike_id": "a758c15f059239774eef5ad181a26fa9", "is_disabled": 0, "is_reserved": 0}, {"rental_uris": {"ios": "https://dc.lft.to/lastmile_qr_scan", "android": "https://dc.lft.to/lastmile_qr_scan"}, "lon": -77.11285033333333, "type": "electric_bike", "fusion_lat": 0.0, "lat": 38.856263166666665, "name": "693c7e77a97c551cb3277deb6ad58d13", "fusion_lon": 0.0, "bike_id": "693c7e77a97c551cb3277deb6ad58d13", "is_disabled": 0, "is_reserved": 0}, {"rental_uris": {"ios": "https://dc.lft.to/lastmile_qr_scan", "android": "https://dc.lft.to/lastmile_qr_scan"}, "lon": -77.04210833333333, "type": "electric_scooter", "fusion_lat": 0.0, "lat": 38.92095316666666, "name": "56c35dbf8f304ef01efd006d5fff4b15", "fusion_lon": 0.0, "bike_id": "56c35dbf8f304ef01efd006d5fff4b15", "is_disabled": 0, "is_reserved": 0}, {"rental_uris": {"ios": "https://dc.lft.to/lastmile_qr_scan", "android": "https://dc.lft.to/lastmile_qr_scan"}, "lon": -76.99493816666667, "type": "electric_scooter", "fusion_lat": 0.0, "lat": 38.862427333333336, "name": "dd537ea98adfa9319af352ae9deb56b6", "fusion_lon": 0.0, "bike_id": "dd537ea98adfa9319af352ae9deb56b6", "is_disabled": 0, "is_reserved": 0}, {"rental_uris": {"ios": "https://dc.lft.to/lastmile_qr_scan", "android": "https://dc.lft.to/lastmile_qr_scan"}, "lon": -77.039785, "type": "electric_scooter", "fusion_lat": 0.0, "lat": 38.898971833333334, "name": "a053f0e6161bf98e9d52864f051a4492", "fusion_lon": 0.0, "bike_id": "a053f0e6161bf98e9d52864f051a4492", "is_disabled": 0, "is_reserved": 0}, {"rental_uris": {"ios": "https://dc.lft.to/lastmile_qr_scan", "android": "https://dc.lft.to/lastmile_qr_scan"}, "lon": -77.01345683333334, "type": "electric_scooter", "fusion_lat": 0.0, "lat": 38.91936916666667, "name": "a2967f0b7ab39b8966e6b370483f58bd", "fusion_lon": 0.0, "bike_id": "a2967f0b7ab39b8966e6b370483f58bd", "is_disabled": 0, "is_reserved": 0}, {"rental_uris": {"ios": "https://dc.lft.to/lastmile_qr_scan", "android": "https://dc.lft.to/lastmile_qr_scan"}, "lon": -77.01138583333334, "type": "electric_scooter", "fusion_lat": 0.0, "lat": 38.89543, "name": "2517f90511e5740d99141b676c6d4cbd", "fusion_lon": 0.0, "bike_id": "2517f90511e5740d99141b676c6d4cbd", "is_disabled": 0, "is_reserved": 0}, {"rental_uris": {"ios": "https://dc.lft.to/lastmile_qr_scan", "android": "https://dc.lft.to/lastmile_qr_scan"}, "lon": -76.98348083333333, "type": "electric_bike", "fusion_lat": 0.0, "lat": 38.915552, "name": "53bc005895f53d8df36dcad0647d9080", "fusion_lon": 0.0, "bike_id": "53bc005895f53d8df36dcad0647d9080", "is_disabled": 0, "is_reserved": 0}, {"rental_uris": {"ios": "https://dc.lft.to/lastmile_qr_scan", "android": "https://dc.lft.to/lastmile_qr_scan"}, "lon": -77.032083, "type": "electric_scooter", "fusion_lat": 0.0, "lat": 38.91537966666667, "name": "fab013a6a12aa259c620b539b5b77dd5", "fusion_lon": 0.0, "bike_id": "fab013a6a12aa259c620b539b5b77dd5", "is_disabled": 0, "is_reserved": 0}, {"rental_uris": {"ios": "https://dc.lft.to/lastmile_qr_scan", "android": "https://dc.lft.to/lastmile_qr_scan"}, "lon": -77.00742266666667, "type": "electric_scooter", "fusion_lat": 0.0, "lat": 38.898333666666666, "name": "935bed006a86d871f2148aac98604f26", "fusion_lon": 0.0, "bike_id": "935bed006a86d871f2148aac98604f26", "is_disabled": 0, "is_reserved": 0}, {"rental_uris": {"ios": "https://dc.lft.to/lastmile_qr_scan", "android": "https://dc.lft.to/lastmile_qr_scan"}, "lon": -76.90813083333333, "type": "electric_bike", "fusion_lat": 0.0, "lat": 38.99452216666667, "name": "7f7675c85905e5f30772ccf177b0823f", "fusion_lon": 0.0, "bike_id": "7f7675c85905e5f30772ccf177b0823f", "is_disabled": 0, "is_reserved": 0}, {"rental_uris": {"ios": "https://dc.lft.to/lastmile_qr_scan", "android": "https://dc.lft.to/lastmile_qr_scan"}, "lon": -76.96021316666666, "type": "electric_bike", "fusion_lat": 0.0, "lat": 38.87010216666667, "name": "d46063b60e6262ce15cc4ff3f30b2059", "fusion_lon": 0.0, "bike_id": "d46063b60e6262ce15cc4ff3f30b2059", "is_disabled": 0, "is_reserved": 0}, {"rental_uris": {"ios": "https://dc.lft.to/lastmile_qr_scan", "android": "https://dc.lft.to/lastmile_qr_scan"}, "lon": -77.043625, "type": "electric_scooter", "fusion_lat": 0.0, "lat": 38.9235105, "name": "4bfae6f9f89fa250d77275be5578481f", "fusion_lon": 0.0, "bike_id": "4bfae6f9f89fa250d77275be5578481f", "is_disabled": 0, "is_reserved": 0}, {"rental_uris": {"ios": "https://dc.lft.to/lastmile_qr_scan", "android": "https://dc.lft.to/lastmile_qr_scan"}, "lon": -77.0481845, "type": "electric_scooter", "fusion_lat": 0.0, "lat": 38.91333783333333, "name": "ef8f05f9cc980ea0fe21a53ea5b757be", "fusion_lon": 0.0, "bike_id": "ef8f05f9cc980ea0fe21a53ea5b757be", "is_disabled": 0, "is_reserved": 0}, {"rental_uris": {"ios": "https://dc.lft.to/lastmile_qr_scan", "android": "https://dc.lft.to/lastmile_qr_scan"}, "lon": -77.0414665, "type": "electric_scooter", "fusion_lat": 0.0, "lat": 38.922955333333334, "name": "7a0a5bcb4550e58cbf0c9bb105d9cdb4", "fusion_lon": 0.0, "bike_id": "7a0a5bcb4550e58cbf0c9bb105d9cdb4", "is_disabled": 0, "is_reserved": 0}, {"rental_uris": {"ios": "https://dc.lft.to/lastmile_qr_scan", "android": "https://dc.lft.to/lastmile_qr_scan"}, "lon": -77.02581816666667, "type": "electric_scooter", "fusion_lat": 0.0, "lat": 38.88738383333333, "name": "af015f6c2a53ba46c2cbd150d6032746", "fusion_lon": 0.0, "bike_id": "af015f6c2a53ba46c2cbd150d6032746", "is_disabled": 0, "is_reserved": 0}, {"rental_uris": {"ios": "https://dc.lft.to/lastmile_qr_scan", "android": "https://dc.lft.to/lastmile_qr_scan"}, "lon": -77.0269685, "type": "electric_scooter", "fusion_lat": 0.0, "lat": 38.925961, "name": "158aca925db37f78cf3501e7f1237536", "fusion_lon": 0.0, "bike_id": "158aca925db37f78cf3501e7f1237536", "is_disabled": 0, "is_reserved": 0}, {"rental_uris": {"ios": "https://dc.lft.to/lastmile_qr_scan", "android": "https://dc.lft.to/lastmile_qr_scan"}, "lon": -77.0416825, "type": "electric_scooter", "fusion_lat": 0.0, "lat": 38.91202083333334, "name": "4b03cc36323393e9e783e1b82538a5c7", "fusion_lon": 0.0, "bike_id": "4b03cc36323393e9e783e1b82538a5c7", "is_disabled": 0, "is_reserved": 0}, {"rental_uris": {"ios": "https://dc.lft.to/lastmile_qr_scan", "android": "https://dc.lft.to/lastmile_qr_scan"}, "lon": -77.08196833333334, "type": "electric_scooter", "fusion_lat": 0.0, "lat": 38.949288333333335, "name": "644f9a992506dfe4e3f855a8302714be", "fusion_lon": 0.0, "bike_id": "644f9a992506dfe4e3f855a8302714be", "is_disabled": 0, "is_reserved": 0}, {"rental_uris": {"ios": "https://dc.lft.to/lastmile_qr_scan", "android": "https://dc.lft.to/lastmile_qr_scan"}, "lon": -77.03857766666667, "type": "electric_scooter", "fusion_lat": 0.0, "lat": 38.93249466666666, "name": "c54f42d685536fbe944005c1481d7d57", "fusion_lon": 0.0, "bike_id": "c54f42d685536fbe944005c1481d7d57", "is_disabled": 0, "is_reserved": 0}, {"rental_uris": {"ios": "https://dc.lft.to/lastmile_qr_scan", "android": "https://dc.lft.to/lastmile_qr_scan"}, "lon": -77.03225083333334, "type": "electric_scooter", "fusion_lat": 0.0, "lat": 38.926709833333334, "name": "3c0d1ca0b0e28ab627b35f543abeebb4", "fusion_lon": 0.0, "bike_id": "3c0d1ca0b0e28ab627b35f543abeebb4", "is_disabled": 0, "is_reserved": 0}, {"rental_uris": {"ios": "https://dc.lft.to/lastmile_qr_scan", "android": "https://dc.lft.to/lastmile_qr_scan"}, "lon": -76.98956366666667, "type": "electric_scooter", "fusion_lat": 0.0, "lat": 38.900313, "name": "ca2e6b2b45fbc687cf7cdbd44a6f657b", "fusion_lon": 0.0, "bike_id": "ca2e6b2b45fbc687cf7cdbd44a6f657b", "is_disabled": 0, "is_reserved": 0}, {"rental_uris": {"ios": "https://dc.lft.to/lastmile_qr_scan", "android": "https://dc.lft.to/lastmile_qr_scan"}, "lon": -77.1290045, "type": "electric_bike", "fusion_lat": 0.0, "lat": 38.86376216666667, "name": "cbe039681741a385887ff0a49df0561c", "fusion_lon": 0.0, "bike_id": "cbe039681741a385887ff0a49df0561c", "is_disabled": 0, "is_reserved": 0}, {"rental_uris": {"ios": "https://dc.lft.to/lastmile_qr_scan", "android": "https://dc.lft.to/lastmile_qr_scan"}, "lon": -77.0677175, "type": "electric_bike", "fusion_lat": 0.0, "lat": 38.915447666666665, "name": "0cc2e296b90dbac0b70e94522af442ee", "fusion_lon": 0.0, "bike_id": "0cc2e296b90dbac0b70e94522af442ee", "is_disabled": 0, "is_reserved": 0}, {"rental_uris": {"ios": "https://dc.lft.to/lastmile_qr_scan", "android": "https://dc.lft.to/lastmile_qr_scan"}, "lon": -77.03180283333333, "type": "electric_scooter", "fusion_lat": 0.0, "lat": 38.88729433333334, "name": "56b27299effeeca7dc42adb165bdf044", "fusion_lon": 0.0, "bike_id": "56b27299effeeca7dc42adb165bdf044", "is_disabled": 0, "is_reserved": 0}, {"rental_uris": {"ios": "https://dc.lft.to/lastmile_qr_scan", "android": "https://dc.lft.to/lastmile_qr_scan"}, "lon": -77.0529115, "type": "electric_scooter", "fusion_lat": 0.0, "lat": 38.927891, "name": "90832beeacfd1d052615e5e1efc06560", "fusion_lon": 0.0, "bike_id": "90832beeacfd1d052615e5e1efc06560", "is_disabled": 0, "is_reserved": 0}, {"rental_uris": {"ios": "https://dc.lft.to/lastmile_qr_scan", "android": "https://dc.lft.to/lastmile_qr_scan"}, "lon": -77.03859616666666, "type": "electric_scooter", "fusion_lat": 0.0, "lat": 38.91016533333333, "name": "030599e0e41d07f82c469db82e8ba740", "fusion_lon": 0.0, "bike_id": "030599e0e41d07f82c469db82e8ba740", "is_disabled": 0, "is_reserved": 0}, {"rental_uris": {"ios": "https://dc.lft.to/lastmile_qr_scan", "android": "https://dc.lft.to/lastmile_qr_scan"}, "lon": -77.04863033333334, "type": "electric_scooter", "fusion_lat": 0.0, "lat": 38.908493666666665, "name": "f55144fa084418dff7e0369f1fe90a7a", "fusion_lon": 0.0, "bike_id": "f55144fa084418dff7e0369f1fe90a7a", "is_disabled": 0, "is_reserved": 0}, {"rental_uris": {"ios": "https://dc.lft.to/lastmile_qr_scan", "android": "https://dc.lft.to/lastmile_qr_scan"}, "lon": -77.05617033333333, "type": "electric_bike", "fusion_lat": 0.0, "lat": 38.92420766666667, "name": "d24f942473dc7b70df68bd9324b1e5be", "fusion_lon": 0.0, "bike_id": "d24f942473dc7b70df68bd9324b1e5be", "is_disabled": 0, "is_reserved": 0}, {"rental_uris": {"ios": "https://dc.lft.to/lastmile_qr_scan", "android": "https://dc.lft.to/lastmile_qr_scan"}, "lon": -77.0233855, "type": "electric_scooter", "fusion_lat": 0.0, "lat": 38.92513066666667, "name": "48229b42b75b6fa2451e1b67115eb837", "fusion_lon": 0.0, "bike_id": "48229b42b75b6fa2451e1b67115eb837", "is_disabled": 0, "is_reserved": 0}, {"rental_uris": {"ios": "https://dc.lft.to/lastmile_qr_scan", "android": "https://dc.lft.to/lastmile_qr_scan"}, "lon": -77.03223, "type": "electric_scooter", "fusion_lat": 0.0, "lat": 38.926716666666664, "name": "51179f828a9c00ad0c9d01e6d5807330", "fusion_lon": 0.0, "bike_id": "51179f828a9c00ad0c9d01e6d5807330", "is_disabled": 0, "is_reserved": 0}, {"rental_uris": {"ios": "https://dc.lft.to/lastmile_qr_scan", "android": "https://dc.lft.to/lastmile_qr_scan"}, "lon": -77.05811466666667, "type": "electric_scooter", "fusion_lat": 0.0, "lat": 38.9344965, "name": "88644b55fb86e3736f705b2fe666ee27", "fusion_lon": 0.0, "bike_id": "88644b55fb86e3736f705b2fe666ee27", "is_disabled": 0, "is_reserved": 0}, {"rental_uris": {"ios": "https://dc.lft.to/lastmile_qr_scan", "android": "https://dc.lft.to/lastmile_qr_scan"}, "lon": -76.97407766666667, "type": "electric_scooter", "fusion_lat": 0.0, "lat": 38.901561, "name": "e4b81538b929d2d2b670a545d6f868eb", "fusion_lon": 0.0, "bike_id": "e4b81538b929d2d2b670a545d6f868eb", "is_disabled": 0, "is_reserved": 0}, {"rental_uris": {"ios": "https://dc.lft.to/lastmile_qr_scan", "android": "https://dc.lft.to/lastmile_qr_scan"}, "lon": -76.974886, "type": "electric_bike", "fusion_lat": 0.0, "lat": 38.92006933333333, "name": "881fddbacc3281772464dba5228cbdda", "fusion_lon": 0.0, "bike_id": "881fddbacc3281772464dba5228cbdda", "is_disabled": 0, "is_reserved": 0}, {"rental_uris": {"ios": "https://dc.lft.to/lastmile_qr_scan", "android": "https://dc.lft.to/lastmile_qr_scan"}, "lon": -77.0326005, "type": "electric_scooter", "fusion_lat": 0.0, "lat": 38.930001, "name": "1217a16d7b2703a1b40535c3bdbe29ea", "fusion_lon": 0.0, "bike_id": "1217a16d7b2703a1b40535c3bdbe29ea", "is_disabled": 0, "is_reserved": 0}, {"rental_uris": {"ios": "https://dc.lft.to/lastmile_qr_scan", "android": "https://dc.lft.to/lastmile_qr_scan"}, "lon": -76.93718316666667, "type": "electric_scooter", "fusion_lat": 0.0, "lat": 38.895890333333334, "name": "0beb4c645b80e6d394ef52ccddebf140", "fusion_lon": 0.0, "bike_id": "0beb4c645b80e6d394ef52ccddebf140", "is_disabled": 0, "is_reserved": 0}, {"rental_uris": {"ios": "https://dc.lft.to/lastmile_qr_scan", "android": "https://dc.lft.to/lastmile_qr_scan"}, "lon": -77.04110033333333, "type": "electric_scooter", "fusion_lat": 0.0, "lat": 38.924468, "name": "c62f1dd086e4e73663c629a8b6924556", "fusion_lon": 0.0, "bike_id": "c62f1dd086e4e73663c629a8b6924556", "is_disabled": 0, "is_reserved": 0}, {"rental_uris": {"ios": "https://dc.lft.to/lastmile_qr_scan", "android": "https://dc.lft.to/lastmile_qr_scan"}, "lon": -77.04286366666666, "type": "electric_scooter", "fusion_lat": 0.0, "lat": 38.908175166666666, "name": "e4bd28ffb491a9f5c07722e32af8ea45", "fusion_lon": 0.0, "bike_id": "e4bd28ffb491a9f5c07722e32af8ea45", "is_disabled": 0, "is_reserved": 0}, {"rental_uris": {"ios": "https://dc.lft.to/lastmile_qr_scan", "android": "https://dc.lft.to/lastmile_qr_scan"}, "lon": -77.00368783333333, "type": "electric_scooter", "fusion_lat": 0.0, "lat": 38.908569166666666, "name": "8a2a3f46e9753429ba0cc50d779f1e96", "fusion_lon": 0.0, "bike_id": "8a2a3f46e9753429ba0cc50d779f1e96", "is_disabled": 0, "is_reserved": 0}, {"rental_uris": {"ios": "https://dc.lft.to/lastmile_qr_scan", "android": "https://dc.lft.to/lastmile_qr_scan"}, "lon": -77.02599516666666, "type": "electric_scooter", "fusion_lat": 0.0, "lat": 38.892682666666666, "name": "1218494ffd7edb6d708415d27138764e", "fusion_lon": 0.0, "bike_id": "1218494ffd7edb6d708415d27138764e", "is_disabled": 0, "is_reserved": 0}, {"rental_uris": {"ios": "https://dc.lft.to/lastmile_qr_scan", "android": "https://dc.lft.to/lastmile_qr_scan"}, "lon": -77.00654883333333, "type": "electric_scooter", "fusion_lat": 0.0, "lat": 38.87177366666667, "name": "ced8e5ffd9752e11ae933fad8fd22512", "fusion_lon": 0.0, "bike_id": "ced8e5ffd9752e11ae933fad8fd22512", "is_disabled": 0, "is_reserved": 0}, {"rental_uris": {"ios": "https://dc.lft.to/lastmile_qr_scan", "android": "https://dc.lft.to/lastmile_qr_scan"}, "lon": -77.032303, "type": "electric_scooter", "fusion_lat": 0.0, "lat": 38.92990616666667, "name": "22954457645e3dc9e8c3146f03f38e18", "fusion_lon": 0.0, "bike_id": "22954457645e3dc9e8c3146f03f38e18", "is_disabled": 0, "is_reserved": 0}, {"rental_uris": {"ios": "https://dc.lft.to/lastmile_qr_scan", "android": "https://dc.lft.to/lastmile_qr_scan"}, "lon": -77.04643866666666, "type": "electric_scooter", "fusion_lat": 0.0, "lat": 38.915294333333335, "name": "590468f76768465f5643727355222f95", "fusion_lon": 0.0, "bike_id": "590468f76768465f5643727355222f95", "is_disabled": 0, "is_reserved": 0}, {"rental_uris": {"ios": "https://dc.lft.to/lastmile_qr_scan", "android": "https://dc.lft.to/lastmile_qr_scan"}, "lon": -76.99693183333333, "type": "electric_scooter", "fusion_lat": 0.0, "lat": 38.907940333333336, "name": "d02f44930fd6ba628a0276c9bd753c33", "fusion_lon": 0.0, "bike_id": "d02f44930fd6ba628a0276c9bd753c33", "is_disabled": 0, "is_reserved": 0}, {"rental_uris": {"ios": "https://dc.lft.to/lastmile_qr_scan", "android": "https://dc.lft.to/lastmile_qr_scan"}, "lon": -77.038419, "type": "electric_scooter", "fusion_lat": 0.0, "lat": 38.9310495, "name": "80db5b18847d1c7c72369f5445b9c1f0", "fusion_lon": 0.0, "bike_id": "80db5b18847d1c7c72369f5445b9c1f0", "is_disabled": 0, "is_reserved": 0}, {"rental_uris": {"ios": "https://dc.lft.to/lastmile_qr_scan", "android": "https://dc.lft.to/lastmile_qr_scan"}, "lon": -77.01641216666667, "type": "electric_scooter", "fusion_lat": 0.0, "lat": 38.929457666666664, "name": "aae92e5bd4105db802ee37d9c013950a", "fusion_lon": 0.0, "bike_id": "aae92e5bd4105db802ee37d9c013950a", "is_disabled": 0, "is_reserved": 0}, {"rental_uris": {"ios": "https://dc.lft.to/lastmile_qr_scan", "android": "https://dc.lft.to/lastmile_qr_scan"}, "lon": -77.06365333333333, "type": "electric_scooter", "fusion_lat": 0.0, "lat": 38.90929233333333, "name": "d307dee995c31946926aac035c0ec8cc", "fusion_lon": 0.0, "bike_id": "d307dee995c31946926aac035c0ec8cc", "is_disabled": 0, "is_reserved": 0}, {"rental_uris": {"ios": "https://dc.lft.to/lastmile_qr_scan", "android": "https://dc.lft.to/lastmile_qr_scan"}, "lon": -77.06934816666667, "type": "electric_scooter", "fusion_lat": 0.0, "lat": 38.90520466666667, "name": "ec09e4ddc6f3504ad380a88b5d52acad", "fusion_lon": 0.0, "bike_id": "ec09e4ddc6f3504ad380a88b5d52acad", "is_disabled": 0, "is_reserved": 0}, {"rental_uris": {"ios": "https://dc.lft.to/lastmile_qr_scan", "android": "https://dc.lft.to/lastmile_qr_scan"}, "lon": -77.02178816666667, "type": "electric_bike", "fusion_lat": 0.0, "lat": 38.8924705, "name": "19afd7f5fbcad9f4992a5f06020f4996", "fusion_lon": 0.0, "bike_id": "19afd7f5fbcad9f4992a5f06020f4996", "is_disabled": 0, "is_reserved": 0}, {"rental_uris": {"ios": "https://dc.lft.to/lastmile_qr_scan", "android": "https://dc.lft.to/lastmile_qr_scan"}, "lon": -77.03843333333333, "type": "electric_scooter", "fusion_lat": 0.0, "lat": 38.910874, "name": "28cbca14925e75ff048c7f3c5612606b", "fusion_lon": 0.0, "bike_id": "28cbca14925e75ff048c7f3c5612606b", "is_disabled": 0, "is_reserved": 0}, {"rental_uris": {"ios": "https://dc.lft.to/lastmile_qr_scan", "android": "https://dc.lft.to/lastmile_qr_scan"}, "lon": -76.98996816666667, "type": "electric_scooter", "fusion_lat": 0.0, "lat": 38.90388133333333, "name": "63963af4ee0b89f58c65ab0e2a54ad69", "fusion_lon": 0.0, "bike_id": "63963af4ee0b89f58c65ab0e2a54ad69", "is_disabled": 0, "is_reserved": 0}, {"rental_uris": {"ios": "https://dc.lft.to/lastmile_qr_scan", "android": "https://dc.lft.to/lastmile_qr_scan"}, "lon": -77.0283725, "type": "electric_scooter", "fusion_lat": 0.0, "lat": 38.928614, "name": "434d3b85be2ccd5e49929860c100cb44", "fusion_lon": 0.0, "bike_id": "434d3b85be2ccd5e49929860c100cb44", "is_disabled": 0, "is_reserved": 0}, {"rental_uris": {"ios": "https://dc.lft.to/lastmile_qr_scan", "android": "https://dc.lft.to/lastmile_qr_scan"}, "lon": -77.010171, "type": "electric_scooter", "fusion_lat": 0.0, "lat": 38.91804333333333, "name": "a7f0fadada8034da0ac138afa6cd8872", "fusion_lon": 0.0, "bike_id": "a7f0fadada8034da0ac138afa6cd8872", "is_disabled": 0, "is_reserved": 0}, {"rental_uris": {"ios": "https://dc.lft.to/lastmile_qr_scan", "android": "https://dc.lft.to/lastmile_qr_scan"}, "lon": -77.02466, "type": "electric_scooter", "fusion_lat": 0.0, "lat": 38.937150833333334, "name": "2a6322bad3a8e38f6f0077b55cf7aeaf", "fusion_lon": 0.0, "bike_id": "2a6322bad3a8e38f6f0077b55cf7aeaf", "is_disabled": 0, "is_reserved": 0}, {"rental_uris": {"ios": "https://dc.lft.to/lastmile_qr_scan", "android": "https://dc.lft.to/lastmile_qr_scan"}, "lon": -77.03563, "type": "electric_scooter", "fusion_lat": 0.0, "lat": 38.927437166666664, "name": "34467fed709442b20228ec4ae0377434", "fusion_lon": 0.0, "bike_id": "34467fed709442b20228ec4ae0377434", "is_disabled": 0, "is_reserved": 0}, {"rental_uris": {"ios": "https://dc.lft.to/lastmile_qr_scan", "android": "https://dc.lft.to/lastmile_qr_scan"}, "lon": -77.02612633333334, "type": "electric_scooter", "fusion_lat": 0.0, "lat": 38.91690783333333, "name": "c45537adc217e794847db6dfe6ba9585", "fusion_lon": 0.0, "bike_id": "c45537adc217e794847db6dfe6ba9585", "is_disabled": 0, "is_reserved": 0}, {"rental_uris": {"ios": "https://dc.lft.to/lastmile_qr_scan", "android": "https://dc.lft.to/lastmile_qr_scan"}, "lon": -77.00854116666666, "type": "electric_scooter", "fusion_lat": 0.0, "lat": 38.92591866666667, "name": "7c7c26746992c178c5b745a2f8f74053", "fusion_lon": 0.0, "bike_id": "7c7c26746992c178c5b745a2f8f74053", "is_disabled": 0, "is_reserved": 0}, {"rental_uris": {"ios": "https://dc.lft.to/lastmile_qr_scan", "android": "https://dc.lft.to/lastmile_qr_scan"}, "lon": -76.9379465, "type": "electric_scooter", "fusion_lat": 0.0, "lat": 38.91286233333334, "name": "f5629c3967492d8884f2c8d10b4aa644", "fusion_lon": 0.0, "bike_id": "f5629c3967492d8884f2c8d10b4aa644", "is_disabled": 0, "is_reserved": 0}, {"rental_uris": {"ios": "https://dc.lft.to/lastmile_qr_scan", "android": "https://dc.lft.to/lastmile_qr_scan"}, "lon": -77.03590166666666, "type": "electric_scooter", "fusion_lat": 0.0, "lat": 38.90691183333333, "name": "d0626840616f9d5a37ff04af5d41d066", "fusion_lon": 0.0, "bike_id": "d0626840616f9d5a37ff04af5d41d066", "is_disabled": 0, "is_reserved": 0}, {"rental_uris": {"ios": "https://dc.lft.to/lastmile_qr_scan", "android": "https://dc.lft.to/lastmile_qr_scan"}, "lon": -76.97883516666667, "type": "electric_scooter", "fusion_lat": 0.0, "lat": 38.91670083333333, "name": "9f7cd191d396180e659db34290e65f4f", "fusion_lon": 0.0, "bike_id": "9f7cd191d396180e659db34290e65f4f", "is_disabled": 0, "is_reserved": 0}, {"rental_uris": {"ios": "https://dc.lft.to/lastmile_qr_scan", "android": "https://dc.lft.to/lastmile_qr_scan"}, "lon": -76.98771433333333, "type": "electric_scooter", "fusion_lat": 0.0, "lat": 38.9117395, "name": "61f601f3fa10a1733335bd7e2389b525", "fusion_lon": 0.0, "bike_id": "61f601f3fa10a1733335bd7e2389b525", "is_disabled": 0, "is_reserved": 0}, {"rental_uris": {"ios": "https://dc.lft.to/lastmile_qr_scan", "android": "https://dc.lft.to/lastmile_qr_scan"}, "lon": -77.051377, "type": "electric_scooter", "fusion_lat": 0.0, "lat": 38.90233766666667, "name": "e7123b72636e0f4b8aeafe8d0c8fa522", "fusion_lon": 0.0, "bike_id": "e7123b72636e0f4b8aeafe8d0c8fa522", "is_disabled": 0, "is_reserved": 0}, {"rental_uris": {"ios": "https://dc.lft.to/lastmile_qr_scan", "android": "https://dc.lft.to/lastmile_qr_scan"}, "lon": -77.0836715, "type": "electric_scooter", "fusion_lat": 0.0, "lat": 38.93034466666667, "name": "0933d1f9f7f852595e999c150310f53e", "fusion_lon": 0.0, "bike_id": "0933d1f9f7f852595e999c150310f53e", "is_disabled": 0, "is_reserved": 0}, {"rental_uris": {"ios": "https://dc.lft.to/lastmile_qr_scan", "android": "https://dc.lft.to/lastmile_qr_scan"}, "lon": -77.049272, "type": "electric_scooter", "fusion_lat": 0.0, "lat": 38.896709, "name": "9a943b57e6bd20f86709a301c26f5c2c", "fusion_lon": 0.0, "bike_id": "9a943b57e6bd20f86709a301c26f5c2c", "is_disabled": 0, "is_reserved": 0}, {"rental_uris": {"ios": "https://dc.lft.to/lastmile_qr_scan", "android": "https://dc.lft.to/lastmile_qr_scan"}, "lon": -76.99532083333334, "type": "electric_scooter", "fusion_lat": 0.0, "lat": 38.9267005, "name": "5343ad39c5ad244cfc969e9ca9677389", "fusion_lon": 0.0, "bike_id": "5343ad39c5ad244cfc969e9ca9677389", "is_disabled": 0, "is_reserved": 0}, {"rental_uris": {"ios": "https://dc.lft.to/lastmile_qr_scan", "android": "https://dc.lft.to/lastmile_qr_scan"}, "lon": -77.127404, "type": "electric_bike", "fusion_lat": 0.0, "lat": 38.88821516666667, "name": "12e90af0776586593e7d7cadaf3da688", "fusion_lon": 0.0, "bike_id": "12e90af0776586593e7d7cadaf3da688", "is_disabled": 0, "is_reserved": 0}, {"rental_uris": {"ios": "https://dc.lft.to/lastmile_qr_scan", "android": "https://dc.lft.to/lastmile_qr_scan"}, "lon": -77.0465515, "type": "electric_scooter", "fusion_lat": 0.0, "lat": 38.915690833333336, "name": "0cda5ec698fe5683722c9501d174d769", "fusion_lon": 0.0, "bike_id": "0cda5ec698fe5683722c9501d174d769", "is_disabled": 0, "is_reserved": 0}, {"rental_uris": {"ios": "https://dc.lft.to/lastmile_qr_scan", "android": "https://dc.lft.to/lastmile_qr_scan"}, "lon": -77.02714516666667, "type": "electric_scooter", "fusion_lat": 0.0, "lat": 38.92482533333333, "name": "9da72be61301eee52bb72076fdaa5f71", "fusion_lon": 0.0, "bike_id": "9da72be61301eee52bb72076fdaa5f71", "is_disabled": 0, "is_reserved": 0}, {"rental_uris": {"ios": "https://dc.lft.to/lastmile_qr_scan", "android": "https://dc.lft.to/lastmile_qr_scan"}, "lon": -77.01758483333333, "type": "electric_scooter", "fusion_lat": 0.0, "lat": 38.9389465, "name": "83484e4cbbc93b428b000281994bc13e", "fusion_lon": 0.0, "bike_id": "83484e4cbbc93b428b000281994bc13e", "is_disabled": 0, "is_reserved": 0}, {"rental_uris": {"ios": "https://dc.lft.to/lastmile_qr_scan", "android": "https://dc.lft.to/lastmile_qr_scan"}, "lon": -77.02980216666667, "type": "electric_scooter", "fusion_lat": 0.0, "lat": 38.90048733333333, "name": "d266d1b400c86518e74ac726ddc00b76", "fusion_lon": 0.0, "bike_id": "d266d1b400c86518e74ac726ddc00b76", "is_disabled": 0, "is_reserved": 0}, {"rental_uris": {"ios": "https://dc.lft.to/lastmile_qr_scan", "android": "https://dc.lft.to/lastmile_qr_scan"}, "lon": -77.0257745, "type": "electric_scooter", "fusion_lat": 0.0, "lat": 38.892215, "name": "8ee29cdc4970f3eff4306a71cd2f43eb", "fusion_lon": 0.0, "bike_id": "8ee29cdc4970f3eff4306a71cd2f43eb", "is_disabled": 0, "is_reserved": 0}, {"rental_uris": {"ios": "https://dc.lft.to/lastmile_qr_scan", "android": "https://dc.lft.to/lastmile_qr_scan"}, "lon": -77.03409016666667, "type": "electric_scooter", "fusion_lat": 0.0, "lat": 38.92320566666667, "name": "4b730b5acd996e81e41cdb29342e3894", "fusion_lon": 0.0, "bike_id": "4b730b5acd996e81e41cdb29342e3894", "is_disabled": 0, "is_reserved": 0}, {"rental_uris": {"ios": "https://dc.lft.to/lastmile_qr_scan", "android": "https://dc.lft.to/lastmile_qr_scan"}, "lon": -77.02706733333333, "type": "electric_scooter", "fusion_lat": 0.0, "lat": 38.899272, "name": "7f51e7e5281fb143c23ade8470390f8c", "fusion_lon": 0.0, "bike_id": "7f51e7e5281fb143c23ade8470390f8c", "is_disabled": 0, "is_reserved": 0}, {"rental_uris": {"ios": "https://dc.lft.to/lastmile_qr_scan", "android": "https://dc.lft.to/lastmile_qr_scan"}, "lon": -76.94652566666667, "type": "electric_scooter", "fusion_lat": 0.0, "lat": 38.89824983333333, "name": "dd3792c602ab60d4149d276283b89f9b", "fusion_lon": 0.0, "bike_id": "dd3792c602ab60d4149d276283b89f9b", "is_disabled": 0, "is_reserved": 0}, {"rental_uris": {"ios": "https://dc.lft.to/lastmile_qr_scan", "android": "https://dc.lft.to/lastmile_qr_scan"}, "lon": -77.03866733333334, "type": "electric_scooter", "fusion_lat": 0.0, "lat": 38.9155435, "name": "43ee329a7d86d1ec9eb7c9580ab8fe7d", "fusion_lon": 0.0, "bike_id": "43ee329a7d86d1ec9eb7c9580ab8fe7d", "is_disabled": 0, "is_reserved": 0}, {"rental_uris": {"ios": "https://dc.lft.to/lastmile_qr_scan", "android": "https://dc.lft.to/lastmile_qr_scan"}, "lon": -77.0287105, "type": "electric_scooter", "fusion_lat": 0.0, "lat": 38.88298133333333, "name": "e0197ae81a9c822fa6de3d87bad493d3", "fusion_lon": 0.0, "bike_id": "e0197ae81a9c822fa6de3d87bad493d3", "is_disabled": 0, "is_reserved": 0}, {"rental_uris": {"ios": "https://dc.lft.to/lastmile_qr_scan", "android": "https://dc.lft.to/lastmile_qr_scan"}, "lon": -77.02068433333334, "type": "electric_scooter", "fusion_lat": 0.0, "lat": 38.899832333333336, "name": "a0aff42ea5cb4101d7d71197cf5e0a82", "fusion_lon": 0.0, "bike_id": "a0aff42ea5cb4101d7d71197cf5e0a82", "is_disabled": 0, "is_reserved": 0}, {"rental_uris": {"ios": "https://dc.lft.to/lastmile_qr_scan", "android": "https://dc.lft.to/lastmile_qr_scan"}, "lon": -76.97667733333333, "type": "electric_bike", "fusion_lat": 0.0, "lat": 38.96621066666667, "name": "597a212fa3473fa3923d02b3894aed4b", "fusion_lon": 0.0, "bike_id": "597a212fa3473fa3923d02b3894aed4b", "is_disabled": 0, "is_reserved": 0}, {"rental_uris": {"ios": "https://dc.lft.to/lastmile_qr_scan", "android": "https://dc.lft.to/lastmile_qr_scan"}, "lon": -76.93171933333333, "type": "electric_scooter", "fusion_lat": 0.0, "lat": 38.898853, "name": "d55adede570c7f0ad5253225592c6be8", "fusion_lon": 0.0, "bike_id": "d55adede570c7f0ad5253225592c6be8", "is_disabled": 0, "is_reserved": 0}, {"rental_uris": {"ios": "https://dc.lft.to/lastmile_qr_scan", "android": "https://dc.lft.to/lastmile_qr_scan"}, "lon": -77.022116, "type": "electric_scooter", "fusion_lat": 0.0, "lat": 38.9222925, "name": "1d42077a261ed30358cb1e8e2c4f0a7d", "fusion_lon": 0.0, "bike_id": "1d42077a261ed30358cb1e8e2c4f0a7d", "is_disabled": 0, "is_reserved": 0}, {"rental_uris": {"ios": "https://dc.lft.to/lastmile_qr_scan", "android": "https://dc.lft.to/lastmile_qr_scan"}, "lon": -76.99859333333333, "type": "electric_scooter", "fusion_lat": 0.0, "lat": 38.90781116666667, "name": "dd50ac420a465f6488d96f1eb4c2698e", "fusion_lon": 0.0, "bike_id": "dd50ac420a465f6488d96f1eb4c2698e", "is_disabled": 0, "is_reserved": 0}, {"rental_uris": {"ios": "https://dc.lft.to/lastmile_qr_scan", "android": "https://dc.lft.to/lastmile_qr_scan"}, "lon": -77.03867966666667, "type": "electric_scooter", "fusion_lat": 0.0, "lat": 38.91555983333333, "name": "c1224f5a3f1faa53f39883fc07fd3fa3", "fusion_lon": 0.0, "bike_id": "c1224f5a3f1faa53f39883fc07fd3fa3", "is_disabled": 0, "is_reserved": 0}, {"rental_uris": {"ios": "https://dc.lft.to/lastmile_qr_scan", "android": "https://dc.lft.to/lastmile_qr_scan"}, "lon": -76.98711516666667, "type": "electric_scooter", "fusion_lat": 0.0, "lat": 38.8670075, "name": "4a50eb680072f8d393544ea8eaea730b", "fusion_lon": 0.0, "bike_id": "4a50eb680072f8d393544ea8eaea730b", "is_disabled": 0, "is_reserved": 0}, {"rental_uris": {"ios": "https://dc.lft.to/lastmile_qr_scan", "android": "https://dc.lft.to/lastmile_qr_scan"}, "lon": -77.05275133333333, "type": "electric_scooter", "fusion_lat": 0.0, "lat": 38.910233166666664, "name": "35067b81d402d6bb251fc4b80bb4d818", "fusion_lon": 0.0, "bike_id": "35067b81d402d6bb251fc4b80bb4d818", "is_disabled": 0, "is_reserved": 0}, {"rental_uris": {"ios": "https://dc.lft.to/lastmile_qr_scan", "android": "https://dc.lft.to/lastmile_qr_scan"}, "lon": -77.0721455, "type": "electric_scooter", "fusion_lat": 0.0, "lat": 38.92108483333333, "name": "16988905aa06a08ea4c70e3db35e0040", "fusion_lon": 0.0, "bike_id": "16988905aa06a08ea4c70e3db35e0040", "is_disabled": 0, "is_reserved": 0}, {"rental_uris": {"ios": "https://dc.lft.to/lastmile_qr_scan", "android": "https://dc.lft.to/lastmile_qr_scan"}, "lon": -77.00719033333333, "type": "electric_scooter", "fusion_lat": 0.0, "lat": 38.9133955, "name": "e8c8dc40f6089049b155ea8e22e6b06c", "fusion_lon": 0.0, "bike_id": "e8c8dc40f6089049b155ea8e22e6b06c", "is_disabled": 0, "is_reserved": 0}, {"rental_uris": {"ios": "https://dc.lft.to/lastmile_qr_scan", "android": "https://dc.lft.to/lastmile_qr_scan"}, "lon": -77.00119583333333, "type": "electric_scooter", "fusion_lat": 0.0, "lat": 38.874847833333334, "name": "4f5ffd26dad5d8360c8b84650de42289", "fusion_lon": 0.0, "bike_id": "4f5ffd26dad5d8360c8b84650de42289", "is_disabled": 0, "is_reserved": 0}, {"rental_uris": {"ios": "https://dc.lft.to/lastmile_qr_scan", "android": "https://dc.lft.to/lastmile_qr_scan"}, "lon": -77.03180416666666, "type": "electric_scooter", "fusion_lat": 0.0, "lat": 38.9180095, "name": "b864d38e80c6f32fde381149e0b266fa", "fusion_lon": 0.0, "bike_id": "b864d38e80c6f32fde381149e0b266fa", "is_disabled": 0, "is_reserved": 0}, {"rental_uris": {"ios": "https://dc.lft.to/lastmile_qr_scan", "android": "https://dc.lft.to/lastmile_qr_scan"}, "lon": -77.0288835, "type": "electric_scooter", "fusion_lat": 0.0, "lat": 38.9032015, "name": "6c056d401f453a93cf5e8cd2455e0798", "fusion_lon": 0.0, "bike_id": "6c056d401f453a93cf5e8cd2455e0798", "is_disabled": 0, "is_reserved": 0}, {"rental_uris": {"ios": "https://dc.lft.to/lastmile_qr_scan", "android": "https://dc.lft.to/lastmile_qr_scan"}, "lon": -76.9395835, "type": "electric_scooter", "fusion_lat": 0.0, "lat": 38.894147333333336, "name": "91984a5a8041183e8cfcc3597a4297ba", "fusion_lon": 0.0, "bike_id": "91984a5a8041183e8cfcc3597a4297ba", "is_disabled": 0, "is_reserved": 0}, {"rental_uris": {"ios": "https://dc.lft.to/lastmile_qr_scan", "android": "https://dc.lft.to/lastmile_qr_scan"}, "lon": -76.92998183333333, "type": "electric_bike", "fusion_lat": 0.0, "lat": 38.887957666666665, "name": "1d78236c500d783bdcf7d235bda143c3", "fusion_lon": 0.0, "bike_id": "1d78236c500d783bdcf7d235bda143c3", "is_disabled": 0, "is_reserved": 0}, {"rental_uris": {"ios": "https://dc.lft.to/lastmile_qr_scan", "android": "https://dc.lft.to/lastmile_qr_scan"}, "lon": -76.9857155, "type": "electric_scooter", "fusion_lat": 0.0, "lat": 38.89886933333333, "name": "a9d9e03eea6da6eeef526f428f2f6f6c", "fusion_lon": 0.0, "bike_id": "a9d9e03eea6da6eeef526f428f2f6f6c", "is_disabled": 0, "is_reserved": 0}, {"rental_uris": {"ios": "https://dc.lft.to/lastmile_qr_scan", "android": "https://dc.lft.to/lastmile_qr_scan"}, "lon": -77.0463925, "type": "electric_scooter", "fusion_lat": 0.0, "lat": 38.89340166666667, "name": "6bbf347b1f2a76d19050a49d5035f3f5", "fusion_lon": 0.0, "bike_id": "6bbf347b1f2a76d19050a49d5035f3f5", "is_disabled": 0, "is_reserved": 0}, {"rental_uris": {"ios": "https://dc.lft.to/lastmile_qr_scan", "android": "https://dc.lft.to/lastmile_qr_scan"}, "lon": -77.02607366666666, "type": "electric_scooter", "fusion_lat": 0.0, "lat": 38.89658633333333, "name": "f45bd754bc3bb87ebbfa561411caa56c", "fusion_lon": 0.0, "bike_id": "f45bd754bc3bb87ebbfa561411caa56c", "is_disabled": 0, "is_reserved": 0}, {"rental_uris": {"ios": "https://dc.lft.to/lastmile_qr_scan", "android": "https://dc.lft.to/lastmile_qr_scan"}, "lon": -77.03198966666666, "type": "electric_scooter", "fusion_lat": 0.0, "lat": 38.90987966666667, "name": "6572102568f476f1d932559c4a8fe89c", "fusion_lon": 0.0, "bike_id": "6572102568f476f1d932559c4a8fe89c", "is_disabled": 0, "is_reserved": 0}, {"rental_uris": {"ios": "https://dc.lft.to/lastmile_qr_scan", "android": "https://dc.lft.to/lastmile_qr_scan"}, "lon": -77.10027616666666, "type": "electric_bike", "fusion_lat": 0.0, "lat": 38.990623666666664, "name": "75952dc61608f60a8742bf4421ee19a0", "fusion_lon": 0.0, "bike_id": "75952dc61608f60a8742bf4421ee19a0", "is_disabled": 0, "is_reserved": 0}, {"rental_uris": {"ios": "https://dc.lft.to/lastmile_qr_scan", "android": "https://dc.lft.to/lastmile_qr_scan"}, "lon": -76.9865285, "type": "electric_scooter", "fusion_lat": 0.0, "lat": 38.8580555, "name": "f0073008d66555b1364357110fe7dd32", "fusion_lon": 0.0, "bike_id": "f0073008d66555b1364357110fe7dd32", "is_disabled": 0, "is_reserved": 0}, {"rental_uris": {"ios": "https://dc.lft.to/lastmile_qr_scan", "android": "https://dc.lft.to/lastmile_qr_scan"}, "lon": -76.992044, "type": "electric_scooter", "fusion_lat": 0.0, "lat": 38.846821, "name": "4a1f4c086fd0fd35c81219e3fc69d2d3", "fusion_lon": 0.0, "bike_id": "4a1f4c086fd0fd35c81219e3fc69d2d3", "is_disabled": 0, "is_reserved": 0}, {"rental_uris": {"ios": "https://dc.lft.to/lastmile_qr_scan", "android": "https://dc.lft.to/lastmile_qr_scan"}, "lon": -76.98089083333333, "type": "electric_scooter", "fusion_lat": 0.0, "lat": 38.8571855, "name": "e7de49018c94e566f52ec280525bf264", "fusion_lon": 0.0, "bike_id": "e7de49018c94e566f52ec280525bf264", "is_disabled": 0, "is_reserved": 0}, {"rental_uris": {"ios": "https://dc.lft.to/lastmile_qr_scan", "android": "https://dc.lft.to/lastmile_qr_scan"}, "lon": -76.98758733333334, "type": "electric_scooter", "fusion_lat": 0.0, "lat": 38.84501233333334, "name": "e07d8bedf462e781b6898f73c664c3c0", "fusion_lon": 0.0, "bike_id": "e07d8bedf462e781b6898f73c664c3c0", "is_disabled": 0, "is_reserved": 0}, {"rental_uris": {"ios": "https://dc.lft.to/lastmile_qr_scan", "android": "https://dc.lft.to/lastmile_qr_scan"}, "lon": -77.0223555, "type": "electric_scooter", "fusion_lat": 0.0, "lat": 38.962201, "name": "294d44d21feda4af3e6dff2d49d4f599", "fusion_lon": 0.0, "bike_id": "294d44d21feda4af3e6dff2d49d4f599", "is_disabled": 0, "is_reserved": 0}, {"rental_uris": {"ios": "https://dc.lft.to/lastmile_qr_scan", "android": "https://dc.lft.to/lastmile_qr_scan"}, "lon": -77.03322233333333, "type": "electric_scooter", "fusion_lat": 0.0, "lat": 38.900107166666665, "name": "3af22d93342ea4f4de2da74bcbe202bd", "fusion_lon": 0.0, "bike_id": "3af22d93342ea4f4de2da74bcbe202bd", "is_disabled": 0, "is_reserved": 0}, {"rental_uris": {"ios": "https://dc.lft.to/lastmile_qr_scan", "android": "https://dc.lft.to/lastmile_qr_scan"}, "lon": -76.97659133333333, "type": "electric_scooter", "fusion_lat": 0.0, "lat": 38.898562, "name": "a0f167ee2061b99c236cbb04e9ced780", "fusion_lon": 0.0, "bike_id": "a0f167ee2061b99c236cbb04e9ced780", "is_disabled": 0, "is_reserved": 0}, {"rental_uris": {"ios": "https://dc.lft.to/lastmile_qr_scan", "android": "https://dc.lft.to/lastmile_qr_scan"}, "lon": -76.99800566666667, "type": "electric_scooter", "fusion_lat": 0.0, "lat": 38.90851716666667, "name": "8220cd086ca8d5fef6254fe842a99db5", "fusion_lon": 0.0, "bike_id": "8220cd086ca8d5fef6254fe842a99db5", "is_disabled": 0, "is_reserved": 0}, {"rental_uris": {"ios": "https://dc.lft.to/lastmile_qr_scan", "android": "https://dc.lft.to/lastmile_qr_scan"}, "lon": -76.94651883333333, "type": "electric_scooter", "fusion_lat": 0.0, "lat": 38.89826983333333, "name": "02a8506814ed00bb4aeb14dd9ad2c9c4", "fusion_lon": 0.0, "bike_id": "02a8506814ed00bb4aeb14dd9ad2c9c4", "is_disabled": 0, "is_reserved": 0}, {"rental_uris": {"ios": "https://dc.lft.to/lastmile_qr_scan", "android": "https://dc.lft.to/lastmile_qr_scan"}, "lon": -77.0036515, "type": "electric_scooter", "fusion_lat": 0.0, "lat": 38.89768483333334, "name": "14278fd83ad50aa20ed12ab5945d67c8", "fusion_lon": 0.0, "bike_id": "14278fd83ad50aa20ed12ab5945d67c8", "is_disabled": 0, "is_reserved": 0}, {"rental_uris": {"ios": "https://dc.lft.to/lastmile_qr_scan", "android": "https://dc.lft.to/lastmile_qr_scan"}, "lon": -77.01365233333334, "type": "electric_scooter", "fusion_lat": 0.0, "lat": 38.864279833333335, "name": "e6ec4f2770f2196781c5920b81a35272", "fusion_lon": 0.0, "bike_id": "e6ec4f2770f2196781c5920b81a35272", "is_disabled": 0, "is_reserved": 0}, {"rental_uris": {"ios": "https://dc.lft.to/lastmile_qr_scan", "android": "https://dc.lft.to/lastmile_qr_scan"}, "lon": -77.027679, "type": "electric_scooter", "fusion_lat": 0.0, "lat": 38.971527333333334, "name": "0e562934dac5297fb0e4fa699d200cc1", "fusion_lon": 0.0, "bike_id": "0e562934dac5297fb0e4fa699d200cc1", "is_disabled": 0, "is_reserved": 0}, {"rental_uris": {"ios": "https://dc.lft.to/lastmile_qr_scan", "android": "https://dc.lft.to/lastmile_qr_scan"}, "lon": -77.04190633333333, "type": "electric_scooter", "fusion_lat": 0.0, "lat": 38.920207166666664, "name": "8c2e9752e6860cd1128c76980fa4403e", "fusion_lon": 0.0, "bike_id": "8c2e9752e6860cd1128c76980fa4403e", "is_disabled": 0, "is_reserved": 0}, {"rental_uris": {"ios": "https://dc.lft.to/lastmile_qr_scan", "android": "https://dc.lft.to/lastmile_qr_scan"}, "lon": -77.0857075, "type": "electric_bike", "fusion_lat": 0.0, "lat": 38.90974283333333, "name": "2f6d7a7cf8237d922bd64a56f378627a", "fusion_lon": 0.0, "bike_id": "2f6d7a7cf8237d922bd64a56f378627a", "is_disabled": 0, "is_reserved": 0}, {"rental_uris": {"ios": "https://dc.lft.to/lastmile_qr_scan", "android": "https://dc.lft.to/lastmile_qr_scan"}, "lon": -77.05508083333334, "type": "electric_scooter", "fusion_lat": 0.0, "lat": 38.92973716666667, "name": "95c28cacdabe37b8cefa5698486adeda", "fusion_lon": 0.0, "bike_id": "95c28cacdabe37b8cefa5698486adeda", "is_disabled": 0, "is_reserved": 0}, {"rental_uris": {"ios": "https://dc.lft.to/lastmile_qr_scan", "android": "https://dc.lft.to/lastmile_qr_scan"}, "lon": -77.02361333333333, "type": "electric_scooter", "fusion_lat": 0.0, "lat": 38.93553983333334, "name": "cb697d671627c8f910b680c81cdaab93", "fusion_lon": 0.0, "bike_id": "cb697d671627c8f910b680c81cdaab93", "is_disabled": 0, "is_reserved": 0}, {"rental_uris": {"ios": "https://dc.lft.to/lastmile_qr_scan", "android": "https://dc.lft.to/lastmile_qr_scan"}, "lon": -77.044809, "type": "electric_scooter", "fusion_lat": 0.0, "lat": 38.92240566666667, "name": "432e5af414c71cb770e440b9dfd8f48c", "fusion_lon": 0.0, "bike_id": "432e5af414c71cb770e440b9dfd8f48c", "is_disabled": 0, "is_reserved": 0}, {"rental_uris": {"ios": "https://dc.lft.to/lastmile_qr_scan", "android": "https://dc.lft.to/lastmile_qr_scan"}, "lon": -77.041892, "type": "electric_scooter", "fusion_lat": 0.0, "lat": 38.92210016666667, "name": "2f186a57177e4d32d88af64057a5a359", "fusion_lon": 0.0, "bike_id": "2f186a57177e4d32d88af64057a5a359", "is_disabled": 0, "is_reserved": 0}, {"rental_uris": {"ios": "https://dc.lft.to/lastmile_qr_scan", "android": "https://dc.lft.to/lastmile_qr_scan"}, "lon": -76.99509866666666, "type": "electric_scooter", "fusion_lat": 0.0, "lat": 38.88030933333334, "name": "a82731e3cff7a6ba9debf02a18439f53", "fusion_lon": 0.0, "bike_id": "a82731e3cff7a6ba9debf02a18439f53", "is_disabled": 0, "is_reserved": 0}, {"rental_uris": {"ios": "https://dc.lft.to/lastmile_qr_scan", "android": "https://dc.lft.to/lastmile_qr_scan"}, "lon": -76.99612333333333, "type": "electric_scooter", "fusion_lat": 0.0, "lat": 38.897443333333335, "name": "ec65b88f5c882e65ae41284050e0f92a", "fusion_lon": 0.0, "bike_id": "ec65b88f5c882e65ae41284050e0f92a", "is_disabled": 0, "is_reserved": 0}, {"rental_uris": {"ios": "https://dc.lft.to/lastmile_qr_scan", "android": "https://dc.lft.to/lastmile_qr_scan"}, "lon": -76.93236816666666, "type": "electric_bike", "fusion_lat": 0.0, "lat": 38.882769833333334, "name": "6f1f1877eb62affdbb6152500edbf55c", "fusion_lon": 0.0, "bike_id": "6f1f1877eb62affdbb6152500edbf55c", "is_disabled": 0, "is_reserved": 0}, {"rental_uris": {"ios": "https://dc.lft.to/lastmile_qr_scan", "android": "https://dc.lft.to/lastmile_qr_scan"}, "lon": -77.05341033333333, "type": "electric_scooter", "fusion_lat": 0.0, "lat": 38.902333166666665, "name": "e9f069ad86d44c46b0bb1e8f15624ba7", "fusion_lon": 0.0, "bike_id": "e9f069ad86d44c46b0bb1e8f15624ba7", "is_disabled": 0, "is_reserved": 0}, {"rental_uris": {"ios": "https://dc.lft.to/lastmile_qr_scan", "android": "https://dc.lft.to/lastmile_qr_scan"}, "lon": -77.07093466666667, "type": "electric_scooter", "fusion_lat": 0.0, "lat": 38.933677333333335, "name": "e9eb7bd2b6ae38ac39c91d0703042c3c", "fusion_lon": 0.0, "bike_id": "e9eb7bd2b6ae38ac39c91d0703042c3c", "is_disabled": 0, "is_reserved": 0}, {"rental_uris": {"ios": "https://dc.lft.to/lastmile_qr_scan", "android": "https://dc.lft.to/lastmile_qr_scan"}, "lon": -77.03351916666666, "type": "electric_bike", "fusion_lat": 0.0, "lat": 38.968037, "name": "aeeea84908afd45eba742b19b58b2fa8", "fusion_lon": 0.0, "bike_id": "aeeea84908afd45eba742b19b58b2fa8", "is_disabled": 0, "is_reserved": 0}, {"rental_uris": {"ios": "https://dc.lft.to/lastmile_qr_scan", "android": "https://dc.lft.to/lastmile_qr_scan"}, "lon": -77.04686483333333, "type": "electric_scooter", "fusion_lat": 0.0, "lat": 38.896075, "name": "f9c108bfd8c65e513e90683397aeb0f8", "fusion_lon": 0.0, "bike_id": "f9c108bfd8c65e513e90683397aeb0f8", "is_disabled": 0, "is_reserved": 0}, {"rental_uris": {"ios": "https://dc.lft.to/lastmile_qr_scan", "android": "https://dc.lft.to/lastmile_qr_scan"}, "lon": -76.98683033333333, "type": "electric_scooter", "fusion_lat": 0.0, "lat": 38.88208616666667, "name": "f35c357a842dfbd66148848396c5c2d1", "fusion_lon": 0.0, "bike_id": "f35c357a842dfbd66148848396c5c2d1", "is_disabled": 0, "is_reserved": 0}, {"rental_uris": {"ios": "https://dc.lft.to/lastmile_qr_scan", "android": "https://dc.lft.to/lastmile_qr_scan"}, "lon": -77.01834816666667, "type": "electric_scooter", "fusion_lat": 0.0, "lat": 38.911101, "name": "22ae6d9fe534b4b1baa2a026cd3abced", "fusion_lon": 0.0, "bike_id": "22ae6d9fe534b4b1baa2a026cd3abced", "is_disabled": 0, "is_reserved": 0}, {"rental_uris": {"ios": "https://dc.lft.to/lastmile_qr_scan", "android": "https://dc.lft.to/lastmile_qr_scan"}, "lon": -77.05039433333333, "type": "electric_scooter", "fusion_lat": 0.0, "lat": 38.90083516666667, "name": "19f57e1101d58134b71ddd8159367dbc", "fusion_lon": 0.0, "bike_id": "19f57e1101d58134b71ddd8159367dbc", "is_disabled": 0, "is_reserved": 0}, {"rental_uris": {"ios": "https://dc.lft.to/lastmile_qr_scan", "android": "https://dc.lft.to/lastmile_qr_scan"}, "lon": -77.02915133333333, "type": "electric_scooter", "fusion_lat": 0.0, "lat": 38.8955725, "name": "bce1e76533acd12f1e6830dcd491449e", "fusion_lon": 0.0, "bike_id": "bce1e76533acd12f1e6830dcd491449e", "is_disabled": 0, "is_reserved": 0}, {"rental_uris": {"ios": "https://dc.lft.to/lastmile_qr_scan", "android": "https://dc.lft.to/lastmile_qr_scan"}, "lon": -77.031275, "type": "electric_scooter", "fusion_lat": 0.0, "lat": 38.899808166666666, "name": "6e0354d8108e705b7ab5d99200807e07", "fusion_lon": 0.0, "bike_id": "6e0354d8108e705b7ab5d99200807e07", "is_disabled": 0, "is_reserved": 0}, {"rental_uris": {"ios": "https://dc.lft.to/lastmile_qr_scan", "android": "https://dc.lft.to/lastmile_qr_scan"}, "lon": -76.99484366666667, "type": "electric_scooter", "fusion_lat": 0.0, "lat": 38.862179, "name": "105245d347ff459eca9bb3ddb5cb1640", "fusion_lon": 0.0, "bike_id": "105245d347ff459eca9bb3ddb5cb1640", "is_disabled": 0, "is_reserved": 0}, {"rental_uris": {"ios": "https://dc.lft.to/lastmile_qr_scan", "android": "https://dc.lft.to/lastmile_qr_scan"}, "lon": -76.98564133333333, "type": "electric_scooter", "fusion_lat": 0.0, "lat": 38.88670466666667, "name": "4bd5526145dbaee9d241dd8b696c6fa1", "fusion_lon": 0.0, "bike_id": "4bd5526145dbaee9d241dd8b696c6fa1", "is_disabled": 0, "is_reserved": 0}, {"rental_uris": {"ios": "https://dc.lft.to/lastmile_qr_scan", "android": "https://dc.lft.to/lastmile_qr_scan"}, "lon": -77.03119516666666, "type": "electric_scooter", "fusion_lat": 0.0, "lat": 38.91335866666667, "name": "48561f174762c29379a0039e31306c3a", "fusion_lon": 0.0, "bike_id": "48561f174762c29379a0039e31306c3a", "is_disabled": 0, "is_reserved": 0}, {"rental_uris": {"ios": "https://dc.lft.to/lastmile_qr_scan", "android": "https://dc.lft.to/lastmile_qr_scan"}, "lon": -77.02893733333333, "type": "electric_scooter", "fusion_lat": 0.0, "lat": 38.925694166666666, "name": "d3cf07f8a7d213d56e028aa5bbbb443f", "fusion_lon": 0.0, "bike_id": "d3cf07f8a7d213d56e028aa5bbbb443f", "is_disabled": 0, "is_reserved": 0}, {"rental_uris": {"ios": "https://dc.lft.to/lastmile_qr_scan", "android": "https://dc.lft.to/lastmile_qr_scan"}, "lon": -77.05883983333334, "type": "electric_scooter", "fusion_lat": 0.0, "lat": 38.93634866666667, "name": "fdf64333b1d7ebb45b172ba86e51bebd", "fusion_lon": 0.0, "bike_id": "fdf64333b1d7ebb45b172ba86e51bebd", "is_disabled": 0, "is_reserved": 0}, {"rental_uris": {"ios": "https://dc.lft.to/lastmile_qr_scan", "android": "https://dc.lft.to/lastmile_qr_scan"}, "lon": -77.04495816666666, "type": "electric_scooter", "fusion_lat": 0.0, "lat": 38.9121585, "name": "d6bba2a1f84802d958a42896451ad594", "fusion_lon": 0.0, "bike_id": "d6bba2a1f84802d958a42896451ad594", "is_disabled": 0, "is_reserved": 0}, {"rental_uris": {"ios": "https://dc.lft.to/lastmile_qr_scan", "android": "https://dc.lft.to/lastmile_qr_scan"}, "lon": -77.03261466666666, "type": "electric_scooter", "fusion_lat": 0.0, "lat": 38.93902966666667, "name": "92700c827e3ce79b02091052462151ab", "fusion_lon": 0.0, "bike_id": "92700c827e3ce79b02091052462151ab", "is_disabled": 0, "is_reserved": 0}, {"rental_uris": {"ios": "https://dc.lft.to/lastmile_qr_scan", "android": "https://dc.lft.to/lastmile_qr_scan"}, "lon": -77.01822983333334, "type": "electric_scooter", "fusion_lat": 0.0, "lat": 38.900807, "name": "d1008bfa0ea3439f78361a96b5f2de74", "fusion_lon": 0.0, "bike_id": "d1008bfa0ea3439f78361a96b5f2de74", "is_disabled": 0, "is_reserved": 0}, {"rental_uris": {"ios": "https://dc.lft.to/lastmile_qr_scan", "android": "https://dc.lft.to/lastmile_qr_scan"}, "lon": -76.97875233333333, "type": "electric_scooter", "fusion_lat": 0.0, "lat": 38.885100666666666, "name": "40128cd4f7b8c78115f863823c107c66", "fusion_lon": 0.0, "bike_id": "40128cd4f7b8c78115f863823c107c66", "is_disabled": 0, "is_reserved": 0}, {"rental_uris": {"ios": "https://dc.lft.to/lastmile_qr_scan", "android": "https://dc.lft.to/lastmile_qr_scan"}, "lon": -76.9869755, "type": "electric_scooter", "fusion_lat": 0.0, "lat": 38.90705416666667, "name": "355ce0bc3443bbcbb4a3623653e50fd8", "fusion_lon": 0.0, "bike_id": "355ce0bc3443bbcbb4a3623653e50fd8", "is_disabled": 0, "is_reserved": 0}, {"rental_uris": {"ios": "https://dc.lft.to/lastmile_qr_scan", "android": "https://dc.lft.to/lastmile_qr_scan"}, "lon": -77.01095033333333, "type": "electric_scooter", "fusion_lat": 0.0, "lat": 38.89447533333333, "name": "bd2fe4fc2279b092da9291086d065700", "fusion_lon": 0.0, "bike_id": "bd2fe4fc2279b092da9291086d065700", "is_disabled": 0, "is_reserved": 0}, {"rental_uris": {"ios": "https://dc.lft.to/lastmile_qr_scan", "android": "https://dc.lft.to/lastmile_qr_scan"}, "lon": -77.03870483333333, "type": "electric_scooter", "fusion_lat": 0.0, "lat": 38.92024116666666, "name": "e5c5eeffd57b2198711e29cb63331b91", "fusion_lon": 0.0, "bike_id": "e5c5eeffd57b2198711e29cb63331b91", "is_disabled": 0, "is_reserved": 0}, {"rental_uris": {"ios": "https://dc.lft.to/lastmile_qr_scan", "android": "https://dc.lft.to/lastmile_qr_scan"}, "lon": -77.00204433333333, "type": "electric_bike", "fusion_lat": 0.0, "lat": 38.819379166666664, "name": "1866d1d703bbe82c22738b935e5c867f", "fusion_lon": 0.0, "bike_id": "1866d1d703bbe82c22738b935e5c867f", "is_disabled": 0, "is_reserved": 0}, {"rental_uris": {"ios": "https://dc.lft.to/lastmile_qr_scan", "android": "https://dc.lft.to/lastmile_qr_scan"}, "lon": -77.03520066666667, "type": "electric_bike", "fusion_lat": 0.0, "lat": 38.96536583333334, "name": "03efcb0e6a7aa6cdeb3ac24c4a1856af", "fusion_lon": 0.0, "bike_id": "03efcb0e6a7aa6cdeb3ac24c4a1856af", "is_disabled": 0, "is_reserved": 0}, {"rental_uris": {"ios": "https://dc.lft.to/lastmile_qr_scan", "android": "https://dc.lft.to/lastmile_qr_scan"}, "lon": -77.0101445, "type": "electric_scooter", "fusion_lat": 0.0, "lat": 38.89488816666667, "name": "ee608afcf36a4047f3a2f41cb50a274d", "fusion_lon": 0.0, "bike_id": "ee608afcf36a4047f3a2f41cb50a274d", "is_disabled": 0, "is_reserved": 0}, {"rental_uris": {"ios": "https://dc.lft.to/lastmile_qr_scan", "android": "https://dc.lft.to/lastmile_qr_scan"}, "lon": -77.06525283333333, "type": "electric_bike", "fusion_lat": 0.0, "lat": 38.90453683333333, "name": "dd9528e656437b6e256f00cfc7a7735c", "fusion_lon": 0.0, "bike_id": "dd9528e656437b6e256f00cfc7a7735c", "is_disabled": 0, "is_reserved": 0}, {"rental_uris": {"ios": "https://dc.lft.to/lastmile_qr_scan", "android": "https://dc.lft.to/lastmile_qr_scan"}, "lon": -77.04067933333333, "type": "electric_scooter", "fusion_lat": 0.0, "lat": 38.902659, "name": "2ca40bad42bddc4b284f3e6b5245e03c", "fusion_lon": 0.0, "bike_id": "2ca40bad42bddc4b284f3e6b5245e03c", "is_disabled": 0, "is_reserved": 0}, {"rental_uris": {"ios": "https://dc.lft.to/lastmile_qr_scan", "android": "https://dc.lft.to/lastmile_qr_scan"}, "lon": -76.95000616666667, "type": "electric_scooter", "fusion_lat": 0.0, "lat": 38.89373666666667, "name": "7980aff51c8162b35da4cef92210805e", "fusion_lon": 0.0, "bike_id": "7980aff51c8162b35da4cef92210805e", "is_disabled": 0, "is_reserved": 0},