{"data": {"bikes": [{"bike_id": "48fc67dded29e6d4b4605f354dffd512", "fusion_lon": 0.0, "lon": -77.029686, "name": "48fc67dded29e6d4b4605f354dffd512", "is_disabled": 0, "rental_uris": {"android": "https://dc.lft.to/lastmile_qr_scan", "ios": "https://dc.lft.to/lastmile_qr_scan"}, "type": "electric_scooter", "lat": 38.92331633333333, "is_reserved": 0, "fusion_lat": 0.0}, {"bike_id": "cfa0995e3fdf50698ab4e3b5f52696cd", "fusion_lon": 0.0, "lon": -77.05230466666667, "name": "cfa0995e3fdf50698ab4e3b5f52696cd", "is_disabled": 0, "rental_uris": {"android": "https://dc.lft.to/lastmile_qr_scan", "ios": "https://dc.lft.to/lastmile_qr_scan"}, "type": "electric_scooter", "lat": 38.92465833333333, "is_reserved": 0, "fusion_lat": 0.0}, {"bike_id": "4b5a95020720d5d689c6a2581fabd202", "fusion_lon": 0.0, "lon": -76.98613166666667, "name": "4b5a95020720d5d689c6a2581fabd202", "is_disabled": 0, "rental_uris": {"android": "https://dc.lft.to/lastmile_qr_scan", "ios": "https://dc.lft.to/lastmile_qr_scan"}, "type": "electric_scooter", "lat": 38.938289833333336, "is_reserved": 0, "fusion_lat": 0.0}, {"bike_id": "5c28d7f5ed0c9259c7a94cd1bc55979e", "fusion_lon": 0.0, "lon": -77.04332833333333, "name": "5c28d7f5ed0c9259c7a94cd1bc55979e", "is_disabled": 0, "rental_uris": {"android": "https://dc.lft.to/lastmile_qr_scan", "ios": "https://dc.lft.to/lastmile_qr_scan"}, "type": "electric_scooter", "lat": 38.89967166666667, "is_reserved": 0, "fusion_lat": 0.0}, {"bike_id": "46dbb8cce99000c264eb98dbcf8d15fb", "fusion_lon": 0.0, "lon": -77.041553, "name": "46dbb8cce99000c264eb98dbcf8d15fb", "is_disabled": 0, "rental_uris": {"android": "https://dc.lft.to/lastmile_qr_scan", "ios": "https://dc.lft.to/lastmile_qr_scan"}, "type": "electric_scooter", "lat": 38.91652466666667, "is_reserved": 0, "fusion_lat": 0.0}, {"bike_id": "7b44bd621314813c184d0acf54fd7f1e", "fusion_lon": 0.0, "lon": -76.9939155, "name": "7b44bd621314813c184d0acf54fd7f1e", "is_disabled": 0, "rental_uris": {"android": "https://dc.lft.to/lastmile_qr_scan", "ios": "https://dc.lft.to/lastmile_qr_scan"}, "type": "electric_scooter", "lat": 38.89732516666667, "is_reserved": 0, "fusion_lat": 0.0}, {"bike_id": "15c7e67ab1b1cec1b43a1d230c6ef2f0", "fusion_lon": 0.0, "lon": -77.00249816666667, "name": "15c7e67ab1b1cec1b43a1d230c6ef2f0", "is_disabled": 0, "rental_uris": {"android": "https://dc.lft.to/lastmile_qr_scan", "ios": "https://dc.lft.to/lastmile_qr_scan"}, "type": "electric_scooter", "lat": 38.8802145, "is_reserved": 0, "fusion_lat": 0.0}, {"bike_id": "c0409e7e4de508e228f4205434eb8e93", "fusion_lon": 0.0, "lon": -77.01987216666667, "name": "c0409e7e4de508e228f4205434eb8e93", "is_disabled": 0, "rental_uris": {"android": "https://dc.lft.to/lastmile_qr_scan", "ios": "https://dc.lft.to/lastmile_qr_scan"}, "type": "electric_scooter", "lat": 38.89562316666667, "is_reserved": 0, "fusion_lat": 0.0}, {"bike_id": "225652b1bf8d657d3d9692537fcab43d", "fusion_lon": 0.0, "lon": -77.02724216666667, "name": "225652b1bf8d657d3d9692537fcab43d", "is_disabled": 0, "rental_uris": {"android": "https://dc.lft.to/lastmile_qr_scan", "ios": "https://dc.lft.to/lastmile_qr_scan"}, "type": "electric_scooter", "lat": 38.9496095, "is_reserved": 0, "fusion_lat": 0.0}, {"bike_id": "699627ba5fa749c80bf561b513ef4670", "fusion_lon": 0.0, "lon": -77.0395685, "name": "699627ba5fa749c80bf561b513ef4670", "is_disabled": 0, "rental_uris": {"android": "https://dc.lft.to/lastmile_qr_scan", "ios": "https://dc.lft.to/lastmile_qr_scan"}, "type": "electric_scooter", "lat": 38.91554333333333, "is_reserved": 0, "fusion_lat": 0.0}, {"bike_id": "a9b75ed018d0fd6a7d6e8b50504cb50a", "fusion_lon": 0.0, "lon": -77.016138, "name": "a9b75ed018d0fd6a7d6e8b50504cb50a", "is_disabled": 0, "rental_uris": {"android": "https://dc.lft.to/lastmile_qr_scan", "ios": "https://dc.lft.to/lastmile_qr_scan"}, "type": "electric_scooter", "lat": 38.895079333333335, "is_reserved": 0, "fusion_lat": 0.0}, {"bike_id": "f3be116d01660253ef437e6fe164deee", "fusion_lon": 0.0, "lon": -76.99947016666667, "name": "f3be116d01660253ef437e6fe164deee", "is_disabled": 0, "rental_uris": {"android": "https://dc.lft.to/lastmile_qr_scan", "ios": "https://dc.lft.to/lastmile_qr_scan"}, "type": "electric_scooter", "lat": 38.842953333333334, "is_reserved": 0, "fusion_lat": 0.0}, {"bike_id": "43e3fb70c893c5207a28f5e063ec5f72", "fusion_lon": 0.0, "lon": -77.01809033333333, "name": "43e3fb70c893c5207a28f5e063ec5f72", "is_disabled": 0, "rental_uris": {"android": "https://dc.lft.to/lastmile_qr_scan", "ios": "https://dc.lft.to/lastmile_qr_scan"}, "type": "electric_scooter", "lat": 38.9213055, "is_reserved": 0, "fusion_lat": 0.0}, {"bike_id": "8933771e9f51c94f191289f331bb3587", "fusion_lon": 0.0, "lon": -77.04200166666666, "name": "8933771e9f51c94f191289f331bb3587", "is_disabled": 0, "rental_uris": {"android": "https://dc.lft.to/lastmile_qr_scan", "ios": "https://dc.lft.to/lastmile_qr_scan"}, "type": "electric_scooter", "lat": 38.907448, "is_reserved": 0, "fusion_lat": 0.0}, {"bike_id": "877d892857dac642b5f11ac5e3507907", "fusion_lon": 0.0, "lon": -77.06405383333333, "name": "877d892857dac642b5f11ac5e3507907", "is_disabled": 0, "rental_uris": {"android": "https://dc.lft.to/lastmile_qr_scan", "ios": "https://dc.lft.to/lastmile_qr_scan"}, "type": "electric_scooter", "lat": 38.913694666666665, "is_reserved": 0, "fusion_lat": 0.0}, {"bike_id": "10f2e63d051afef2258773dedcd00685", "fusion_lon": 0.0, "lon": -77.0307675, "name": "10f2e63d051afef2258773dedcd00685", "is_disabled": 0, "rental_uris": {"android": "https://dc.lft.to/lastmile_qr_scan", "ios": "https://dc.lft.to/lastmile_qr_scan"}, "type": "electric_scooter", "lat": 38.9174885, "is_reserved": 0, "fusion_lat": 0.0}, {"bike_id": "867b2313a3fb28f43910704497344456", "fusion_lon": 0.0, "lon": -77.036407, "name": "867b2313a3fb28f43910704497344456", "is_disabled": 0, "rental_uris": {"android": "https://dc.lft.to/lastmile_qr_scan", "ios": "https://dc.lft.to/lastmile_qr_scan"}, "type": "electric_scooter", "lat": 38.9317905, "is_reserved": 0, "fusion_lat": 0.0}, {"bike_id": "b82c3d9494e7d6dc343610c4dc82b862", "fusion_lon": 0.0, "lon": -77.01943533333333, "name": "b82c3d9494e7d6dc343610c4dc82b862", "is_disabled": 0, "rental_uris": {"android": "https://dc.lft.to/lastmile_qr_scan", "ios": "https://dc.lft.to/lastmile_qr_scan"}, "type": "electric_scooter", "lat": 38.94702516666667, "is_reserved": 0, "fusion_lat": 0.0}, {"bike_id": "637e622f978325c90534017dd3de9033", "fusion_lon": 0.0, "lon": -77.03901133333333, "name": "637e622f978325c90534017dd3de9033", "is_disabled": 0, "rental_uris": {"android": "https://dc.lft.to/lastmile_qr_scan", "ios": "https://dc.lft.to/lastmile_qr_scan"}, "type": "electric_scooter", "lat": 38.924699333333336, "is_reserved": 0, "fusion_lat": 0.0}, {"bike_id": "04ce775f780818426732286b14064a3e", "fusion_lon": 0.0, "lon": -77.05028533333333, "name": "04ce775f780818426732286b14064a3e", "is_disabled": 0, "rental_uris": {"android": "https://dc.lft.to/lastmile_qr_scan", "ios": "https://dc.lft.to/lastmile_qr_scan"}, "type": "electric_bike", "lat": 39.039013, "is_reserved": 0, "fusion_lat": 0.0}, {"bike_id": "627b1ca0999e6744ca8d5a1232aa993f", "fusion_lon": 0.0, "lon": -76.93158383333333, "name": "627b1ca0999e6744ca8d5a1232aa993f", "is_disabled": 0, "rental_uris": {"android": "https://dc.lft.to/lastmile_qr_scan", "ios": "https://dc.lft.to/lastmile_qr_scan"}, "type": "electric_scooter", "lat": 38.898846166666665, "is_reserved": 0, "fusion_lat": 0.0}, {"bike_id": "c829a4a23df6b97d75cc9b47f42794d6", "fusion_lon": 0.0, "lon": -77.03364783333333, "name": "c829a4a23df6b97d75cc9b47f42794d6", "is_disabled": 0, "rental_uris": {"android": "https://dc.lft.to/lastmile_qr_scan", "ios": "https://dc.lft.to/lastmile_qr_scan"}, "type": "electric_scooter", "lat": 38.94189033333333, "is_reserved": 0, "fusion_lat": 0.0}, {"bike_id": "d6a9376f0c211068969d4be3dcce6c6f", "fusion_lon": 0.0, "lon": -77.01201383333333, "name": "d6a9376f0c211068969d4be3dcce6c6f", "is_disabled": 0, "rental_uris": {"android": "https://dc.lft.to/lastmile_qr_scan", "ios": "https://dc.lft.to/lastmile_qr_scan"}, "type": "electric_scooter", "lat": 38.900132, "is_reserved": 0, "fusion_lat": 0.0}, {"bike_id": "90d1844d5d49aec3443b1c6d5ef82188", "fusion_lon": 0.0, "lon": -77.02577016666666, "name": "90d1844d5d49aec3443b1c6d5ef82188", "is_disabled": 0, "rental_uris": {"android": "https://dc.lft.to/lastmile_qr_scan", "ios": "https://dc.lft.to/lastmile_qr_scan"}, "type": "electric_scooter", "lat": 38.892294166666666, "is_reserved": 0, "fusion_lat": 0.0}, {"bike_id": "e12defe34b57e2626be3c3df30a9bc78", "fusion_lon": 0.0, "lon": -76.98797866666666, "name": "e12defe34b57e2626be3c3df30a9bc78", "is_disabled": 0, "rental_uris": {"android": "https://dc.lft.to/lastmile_qr_scan", "ios": "https://dc.lft.to/lastmile_qr_scan"}, "type": "electric_bike", "lat": 38.92210266666667, "is_reserved": 0, "fusion_lat": 0.0}, {"bike_id": "c5c7df2b3f0e6e7063ce24ff3e4ff4dc", "fusion_lon": 0.0, "lon": -76.927391, "name": "c5c7df2b3f0e6e7063ce24ff3e4ff4dc", "is_disabled": 0, "rental_uris": {"android": "https://dc.lft.to/lastmile_qr_scan", "ios": "https://dc.lft.to/lastmile_qr_scan"}, "type": "electric_scooter", "lat": 38.88967783333333, "is_reserved": 0, "fusion_lat": 0.0}, {"bike_id": "99a7a7eb62246d873ba83cc5c9e04842", "fusion_lon": 0.0, "lon": -77.02334983333333, "name": "99a7a7eb62246d873ba83cc5c9e04842", "is_disabled": 0, "rental_uris": {"android": "https://dc.lft.to/lastmile_qr_scan", "ios": "https://dc.lft.to/lastmile_qr_scan"}, "type": "electric_scooter", "lat": 38.928847833333336, "is_reserved": 0, "fusion_lat": 0.0}, {"bike_id": "a3fa18d899e923349afb8cce1db5fdd6", "fusion_lon": 0.0, "lon": -77.02691616666667, "name": "a3fa18d899e923349afb8cce1db5fdd6", "is_disabled": 0, "rental_uris": {"android": "https://dc.lft.to/lastmile_qr_scan", "ios": "https://dc.lft.to/lastmile_qr_scan"}, "type": "electric_scooter", "lat": 38.88134316666667, "is_reserved": 0, "fusion_lat": 0.0}, {"bike_id": "83dc83d2b1567a25153d99f065d821db", "fusion_lon": 0.0, "lon": -77.06866183333334, "name": "83dc83d2b1567a25153d99f065d821db", "is_disabled": 0, "rental_uris": {"android": "https://dc.lft.to/lastmile_qr_scan", "ios": "https://dc.lft.to/lastmile_qr_scan"}, "type": "electric_bike", "lat": 38.805796666666666, "is_reserved": 0, "fusion_lat": 0.0}, {"bike_id": "3efaf79390a42a09ca38bf489a0bc047", "fusion_lon": 0.0, "lon": -76.98512033333333, "name": "3efaf79390a42a09ca38bf489a0bc047", "is_disabled": 0, "rental_uris": {"android": "https://dc.lft.to/lastmile_qr_scan", "ios": "https://dc.lft.to/lastmile_qr_scan"}, "type": "electric_scooter", "lat": 38.866661666666666, "is_reserved": 0, "fusion_lat": 0.0}, {"bike_id": "e6352d4f9a66c29becd3d70f045bcd59", "fusion_lon": 0.0, "lon": -77.02319783333333, "name": "e6352d4f9a66c29becd3d70f045bcd59", "is_disabled": 0, "rental_uris": {"android": "https://dc.lft.to/lastmile_qr_scan", "ios": "https://dc.lft.to/lastmile_qr_scan"}, "type": "electric_scooter", "lat": 38.90735383333333, "is_reserved": 0, "fusion_lat": 0.0}, {"bike_id": "526736e155893925466f3f9ac6e28c55", "fusion_lon": 0.0, "lon": -76.98649383333333, "name": "526736e155893925466f3f9ac6e28c55", "is_disabled": 0, "rental_uris": {"android": "https://dc.lft.to/lastmile_qr_scan", "ios": "https://dc.lft.to/lastmile_qr_scan"}, "type": "electric_scooter", "lat": 38.90168116666667, "is_reserved": 0, "fusion_lat": 0.0}, {"bike_id": "1d6abd8a68d725a4b5f6ca0d503baeb8", "fusion_lon": 0.0, "lon": -77.07333366666667, "name": "1d6abd8a68d725a4b5f6ca0d503baeb8", "is_disabled": 0, "rental_uris": {"android": "https://dc.lft.to/lastmile_qr_scan", "ios": "https://dc.lft.to/lastmile_qr_scan"}, "type": "electric_scooter", "lat": 38.9256795, "is_reserved": 0, "fusion_lat": 0.0}, {"bike_id": "befeb32fd0fdbc1bb16367d75b1b3848", "fusion_lon": 0.0, "lon": -77.03238066666667, "name": "befeb32fd0fdbc1bb16367d75b1b3848", "is_disabled": 0, "rental_uris": {"android": "https://dc.lft.to/lastmile_qr_scan", "ios": "https://dc.lft.to/lastmile_qr_scan"}, "type": "electric_scooter", "lat": 38.927654833333335, "is_reserved": 0, "fusion_lat": 0.0}, {"bike_id": "e0ce7fd5303c25495f58779f9825e743", "fusion_lon": 0.0, "lon": -77.00204033333333, "name": "e0ce7fd5303c25495f58779f9825e743", "is_disabled": 0, "rental_uris": {"android": "https://dc.lft.to/lastmile_qr_scan", "ios": "https://dc.lft.to/lastmile_qr_scan"}, "type": "electric_scooter", "lat": 38.902415166666664, "is_reserved": 0, "fusion_lat": 0.0}, {"bike_id": "d71eb5ee904af0be5e9ef09298c91853", "fusion_lon": 0.0, "lon": -77.02892683333333, "name": "d71eb5ee904af0be5e9ef09298c91853", "is_disabled": 0, "rental_uris": {"android": "https://dc.lft.to/lastmile_qr_scan", "ios": "https://dc.lft.to/lastmile_qr_scan"}, "type": "electric_scooter", "lat": 38.9398145, "is_reserved": 0, "fusion_lat": 0.0}, {"bike_id": "d8179375b4e4a989c0c8671670cf9fea", "fusion_lon": 0.0, "lon": -77.020932, "name": "d8179375b4e4a989c0c8671670cf9fea", "is_disabled": 0, "rental_uris": {"android": "https://dc.lft.to/lastmile_qr_scan", "ios": "https://dc.lft.to/lastmile_qr_scan"}, "type": "electric_scooter", "lat": 38.92206083333333, "is_reserved": 0, "fusion_lat": 0.0}, {"bike_id": "8e4d92b82feaefecb6f77aeef80acda5", "fusion_lon": 0.0, "lon": -76.98850533333334, "name": "8e4d92b82feaefecb6f77aeef80acda5", "is_disabled": 0, "rental_uris": {"android": "https://dc.lft.to/lastmile_qr_scan", "ios": "https://dc.lft.to/lastmile_qr_scan"}, "type": "electric_scooter", "lat": 38.9002065, "is_reserved": 0, "fusion_lat": 0.0}, {"bike_id": "95373e062e52a8f2e78ca87cafe55f38", "fusion_lon": 0.0, "lon": -77.022246, "name": "95373e062e52a8f2e78ca87cafe55f38", "is_disabled": 0, "rental_uris": {"android": "https://dc.lft.to/lastmile_qr_scan", "ios": "https://dc.lft.to/lastmile_qr_scan"}, "type": "electric_scooter", "lat": 38.892245833333334, "is_reserved": 0, "fusion_lat": 0.0}, {"bike_id": "de68537c13697e49a3ed837a9392dd20", "fusion_lon": 0.0, "lon": -77.014071, "name": "de68537c13697e49a3ed837a9392dd20", "is_disabled": 0, "rental_uris": {"android": "https://dc.lft.to/lastmile_qr_scan", "ios": "https://dc.lft.to/lastmile_qr_scan"}, "type": "electric_scooter", "lat": 38.881236333333334, "is_reserved": 0, "fusion_lat": 0.0}, {"bike_id": "25685d19bbd8d462c7b6a7270304cd00", "fusion_lon": 0.0, "lon": -77.04122033333333, "name": "25685d19bbd8d462c7b6a7270304cd00", "is_disabled": 0, "rental_uris": {"android": "https://dc.lft.to/lastmile_qr_scan", "ios": "https://dc.lft.to/lastmile_qr_scan"}, "type": "electric_scooter", "lat": 38.90963033333333, "is_reserved": 0, "fusion_lat": 0.0}, {"bike_id": "612a5031d78f9dc7bb52f4e17524b179", "fusion_lon": 0.0, "lon": -77.0438865, "name": "612a5031d78f9dc7bb52f4e17524b179", "is_disabled": 0, "rental_uris": {"android": "https://dc.lft.to/lastmile_qr_scan", "ios": "https://dc.lft.to/lastmile_qr_scan"}, "type": "electric_scooter", "lat": 38.90148583333333, "is_reserved": 0, "fusion_lat": 0.0}, {"bike_id": "f7d6a0a350d1f190206092238f6d15f7", "fusion_lon": 0.0, "lon": -77.01437866666667, "name": "f7d6a0a350d1f190206092238f6d15f7", "is_disabled": 0, "rental_uris": {"android": "https://dc.lft.to/lastmile_qr_scan", "ios": "https://dc.lft.to/lastmile_qr_scan"}, "type": "electric_scooter", "lat": 38.919722, "is_reserved": 0, "fusion_lat": 0.0}, {"bike_id": "267fa29d217deda0a4a6c9de01e586a1", "fusion_lon": 0.0, "lon": -77.00907766666667, "name": "267fa29d217deda0a4a6c9de01e586a1", "is_disabled": 0, "rental_uris": {"android": "https://dc.lft.to/lastmile_qr_scan", "ios": "https://dc.lft.to/lastmile_qr_scan"}, "type": "electric_scooter", "lat": 38.881881, "is_reserved": 0, "fusion_lat": 0.0}, {"bike_id": "5735d3e18e5bd1cb05e2144ddff0aa39", "fusion_lon": 0.0, "lon": -76.93878216666667, "name": "5735d3e18e5bd1cb05e2144ddff0aa39", "is_disabled": 0, "rental_uris": {"android": "https://dc.lft.to/lastmile_qr_scan", "ios": "https://dc.lft.to/lastmile_qr_scan"}, "type": "electric_bike", "lat": 38.956390999999996, "is_reserved": 0, "fusion_lat": 0.0}, {"bike_id": "278134fa08a0d6ea6e94068eb768fc64", "fusion_lon": 0.0, "lon": -76.98790766666667, "name": "278134fa08a0d6ea6e94068eb768fc64", "is_disabled": 0, "rental_uris": {"android": "https://dc.lft.to/lastmile_qr_scan", "ios": "https://dc.lft.to/lastmile_qr_scan"}, "type": "electric_bike", "lat": 38.845399, "is_reserved": 0, "fusion_lat": 0.0}, {"bike_id": "779fe3748cb09648358a8ae65c5f14e7", "fusion_lon": 0.0, "lon": -77.045067, "name": "779fe3748cb09648358a8ae65c5f14e7", "is_disabled": 0, "rental_uris": {"android": "https://dc.lft.to/lastmile_qr_scan", "ios": "https://dc.lft.to/lastmile_qr_scan"}, "type": "electric_scooter", "lat": 38.90871516666667, "is_reserved": 0, "fusion_lat": 0.0}, {"bike_id": "7f59aaa84c0cf78f2a8f17f534acf198", "fusion_lon": 0.0, "lon": -76.99350266666667, "name": "7f59aaa84c0cf78f2a8f17f534acf198", "is_disabled": 0, "rental_uris": {"android": "https://dc.lft.to/lastmile_qr_scan", "ios": "https://dc.lft.to/lastmile_qr_scan"}, "type": "electric_scooter", "lat": 38.9148505, "is_reserved": 0, "fusion_lat": 0.0}, {"bike_id": "e85e1b0a1db4367a8c929fdcae0976db", "fusion_lon": 0.0, "lon": -77.0272385, "name": "e85e1b0a1db4367a8c929fdcae0976db", "is_disabled": 0, "rental_uris": {"android": "https://dc.lft.to/lastmile_qr_scan", "ios": "https://dc.lft.to/lastmile_qr_scan"}, "type": "electric_scooter", "lat": 38.94957316666667, "is_reserved": 0, "fusion_lat": 0.0}, {"bike_id": "f1ff54216d5240f924cc6bceaac42b79", "fusion_lon": 0.0, "lon": -77.03212566666667, "name": "f1ff54216d5240f924cc6bceaac42b79", "is_disabled": 0, "rental_uris": {"android": "https://dc.lft.to/lastmile_qr_scan", "ios": "https://dc.lft.to/lastmile_qr_scan"}, "type": "electric_scooter", "lat": 38.89594483333333, "is_reserved": 0, "fusion_lat": 0.0}, {"bike_id": "a5a6851925b30174ea7ef871c6c3d36d", "fusion_lon": 0.0, "lon": -77.03456066666666, "name": "a5a6851925b30174ea7ef871c6c3d36d", "is_disabled": 0, "rental_uris": {"android": "https://dc.lft.to/lastmile_qr_scan", "ios": "https://dc.lft.to/lastmile_qr_scan"}, "type": "electric_scooter", "lat": 38.90399983333333, "is_reserved": 0, "fusion_lat": 0.0}, {"bike_id": "c31e930a5d8e2c0f6a00e23d2a4c2d12", "fusion_lon": 0.0, "lon": -77.05858366666666, "name": "c31e930a5d8e2c0f6a00e23d2a4c2d12", "is_disabled": 0, "rental_uris": {"android": "https://dc.lft.to/lastmile_qr_scan", "ios": "https://dc.lft.to/lastmile_qr_scan"}, "type": "electric_scooter", "lat": 38.9361035, "is_reserved": 0, "fusion_lat": 0.0}, {"bike_id": "713ce1f976495577e8c4c5704a882898", "fusion_lon": 0.0, "lon": -76.98108583333334, "name": "713ce1f976495577e8c4c5704a882898", "is_disabled": 0, "rental_uris": {"android": "https://dc.lft.to/lastmile_qr_scan", "ios": "https://dc.lft.to/lastmile_qr_scan"}, "type": "electric_bike", "lat": 38.877336, "is_reserved": 0, "fusion_lat": 0.0}, {"bike_id": "bc842f165eb0aa3569ea34cc70f9b725", "fusion_lon": 0.0, "lon": -77.06647283333334, "name": "bc842f165eb0aa3569ea34cc70f9b725", "is_disabled": 0, "rental_uris": {"android": "https://dc.lft.to/lastmile_qr_scan", "ios": "https://dc.lft.to/lastmile_qr_scan"}, "type": "electric_bike", "lat": 38.94968883333333, "is_reserved": 0, "fusion_lat": 0.0}, {"bike_id": "f0c41959ced0fb6f016f96a122181619", "fusion_lon": 0.0, "lon": -77.03003983333333, "name": "f0c41959ced0fb6f016f96a122181619", "is_disabled": 0, "rental_uris": {"android": "https://dc.lft.to/lastmile_qr_scan", "ios": "https://dc.lft.to/lastmile_qr_scan"}, "type": "electric_scooter", "lat": 38.9000015, "is_reserved": 0, "fusion_lat": 0.0}, {"bike_id": "2cb1b3803defeea49fc726cd2312acfd", "fusion_lon": 0.0, "lon": -77.04602416666667, "name": "2cb1b3803defeea49fc726cd2312acfd", "is_disabled": 0, "rental_uris": {"android": "https://dc.lft.to/lastmile_qr_scan", "ios": "https://dc.lft.to/lastmile_qr_scan"}, "type": "electric_scooter", "lat": 38.919175333333335, "is_reserved": 0, "fusion_lat": 0.0}, {"bike_id": "b1821c3f194d7f26a25041b51a19e8c0", "fusion_lon": 0.0, "lon": -77.04346883333334, "name": "b1821c3f194d7f26a25041b51a19e8c0", "is_disabled": 0, "rental_uris": {"android": "https://dc.lft.to/lastmile_qr_scan", "ios": "https://dc.lft.to/lastmile_qr_scan"}, "type": "electric_scooter", "lat": 38.90363083333333, "is_reserved": 0, "fusion_lat": 0.0}, {"bike_id": "61fb986fbaf3d7fa0c990f32380bff7b", "fusion_lon": 0.0, "lon": -77.03900466666667, "name": "61fb986fbaf3d7fa0c990f32380bff7b", "is_disabled": 0, "rental_uris": {"android": "https://dc.lft.to/lastmile_qr_scan", "ios": "https://dc.lft.to/lastmile_qr_scan"}, "type": "electric_scooter", "lat": 38.922419, "is_reserved": 0, "fusion_lat": 0.0}, {"bike_id": "303175498c4bd17f67b836ea8ad0324e", "fusion_lon": 0.0, "lon": -77.034751, "name": "303175498c4bd17f67b836ea8ad0324e", "is_disabled": 0, "rental_uris": {"android": "https://dc.lft.to/lastmile_qr_scan", "ios": "https://dc.lft.to/lastmile_qr_scan"}, "type": "electric_scooter", "lat": 38.91714283333334, "is_reserved": 0, "fusion_lat": 0.0}, {"bike_id": "379972ac621af770d3ba5166cc8925dd", "fusion_lon": 0.0, "lon": -77.02717533333333, "name": "379972ac621af770d3ba5166cc8925dd", "is_disabled": 0, "rental_uris": {"android": "https://dc.lft.to/lastmile_qr_scan", "ios": "https://dc.lft.to/lastmile_qr_scan"}, "type": "electric_scooter", "lat": 38.91567283333333, "is_reserved": 0, "fusion_lat": 0.0}, {"bike_id": "8e0c231ef60cb274aa3f2ebf8c967be7", "fusion_lon": 0.0, "lon": -77.04144166666667, "name": "8e0c231ef60cb274aa3f2ebf8c967be7", "is_disabled": 0, "rental_uris": {"android": "https://dc.lft.to/lastmile_qr_scan", "ios": "https://dc.lft.to/lastmile_qr_scan"}, "type": "electric_scooter", "lat": 38.923010166666664, "is_reserved": 0, "fusion_lat": 0.0}, {"bike_id": "86a818a26eb9945cce52fdf569fabfa3", "fusion_lon": 0.0, "lon": -77.05532383333333, "name": "86a818a26eb9945cce52fdf569fabfa3", "is_disabled": 0, "rental_uris": {"android": "https://dc.lft.to/lastmile_qr_scan", "ios": "https://dc.lft.to/lastmile_qr_scan"}, "type": "electric_scooter", "lat": 38.930178166666664, "is_reserved": 0, "fusion_lat": 0.0}, {"bike_id": "57ca775ed95cef360058fdc0bd4341c6", "fusion_lon": 0.0, "lon": -77.04503166666667, "name": "57ca775ed95cef360058fdc0bd4341c6", "is_disabled": 0, "rental_uris": {"android": "https://dc.lft.to/lastmile_qr_scan", "ios": "https://dc.lft.to/lastmile_qr_scan"}, "type": "electric_scooter", "lat": 38.9054455, "is_reserved": 0, "fusion_lat": 0.0}, {"bike_id": "41230e772c306d1314d0a86b7e583f7f", "fusion_lon": 0.0, "lon": -77.01592483333333, "name": "41230e772c306d1314d0a86b7e583f7f", "is_disabled": 0, "rental_uris": {"android": "https://dc.lft.to/lastmile_qr_scan", "ios": "https://dc.lft.to/lastmile_qr_scan"}, "type": "electric_scooter", "lat": 38.949397833333336, "is_reserved": 0, "fusion_lat": 0.0}, {"bike_id": "179b3ac783c5c90b339d73ea8c482714", "fusion_lon": 0.0, "lon": -77.00354966666667, "name": "179b3ac783c5c90b339d73ea8c482714", "is_disabled": 0, "rental_uris": {"android": "https://dc.lft.to/lastmile_qr_scan", "ios": "https://dc.lft.to/lastmile_qr_scan"}, "type": "electric_scooter", "lat": 38.90149266666667, "is_reserved": 0, "fusion_lat": 0.0}, {"bike_id": "246ac59b6e851e16610dae590ff37b16", "fusion_lon": 0.0, "lon": -77.24444733333333, "name": "246ac59b6e851e16610dae590ff37b16", "is_disabled": 0, "rental_uris": {"android": "https://dc.lft.to/lastmile_qr_scan", "ios": "https://dc.lft.to/lastmile_qr_scan"}, "type": "electric_bike", "lat": 38.88195283333334, "is_reserved": 0, "fusion_lat": 0.0}, {"bike_id": "fbc14f7a51efd09aa3f2fe706ee43b5b", "fusion_lon": 0.0, "lon": -77.04329433333334, "name": "fbc14f7a51efd09aa3f2fe706ee43b5b", "is_disabled": 0, "rental_uris": {"android": "https://dc.lft.to/lastmile_qr_scan", "ios": "https://dc.lft.to/lastmile_qr_scan"}, "type": "electric_scooter", "lat": 38.89230283333333, "is_reserved": 0, "fusion_lat": 0.0}, {"bike_id": "b5141be4d0b09342f3d687865530e011", "fusion_lon": 0.0, "lon": -77.03288416666666, "name": "b5141be4d0b09342f3d687865530e011", "is_disabled": 0, "rental_uris": {"android": "https://dc.lft.to/lastmile_qr_scan", "ios": "https://dc.lft.to/lastmile_qr_scan"}, "type": "electric_scooter", "lat": 38.928621, "is_reserved": 0, "fusion_lat": 0.0}, {"bike_id": "c8eddca660c9e119d6daf04d13845d35", "fusion_lon": 0.0, "lon": -76.93754766666666, "name": "c8eddca660c9e119d6daf04d13845d35", "is_disabled": 0, "rental_uris": {"android": "https://dc.lft.to/lastmile_qr_scan", "ios": "https://dc.lft.to/lastmile_qr_scan"}, "type": "electric_scooter", "lat": 38.890541166666665, "is_reserved": 0, "fusion_lat": 0.0}, {"bike_id": "61c4d02dede9e2ea002318b6a2a7021c", "fusion_lon": 0.0, "lon": -77.03242383333334, "name": "61c4d02dede9e2ea002318b6a2a7021c", "is_disabled": 0, "rental_uris": {"android": "https://dc.lft.to/lastmile_qr_scan", "ios": "https://dc.lft.to/lastmile_qr_scan"}, "type": "electric_scooter", "lat": 38.96163, "is_reserved": 0, "fusion_lat": 0.0}, {"bike_id": "8db0e56ee8f05e62a246d42efc2e5149", "fusion_lon": 0.0, "lon": -76.995283, "name": "8db0e56ee8f05e62a246d42efc2e5149", "is_disabled": 0, "rental_uris": {"android": "https://dc.lft.to/lastmile_qr_scan", "ios": "https://dc.lft.to/lastmile_qr_scan"}, "type": "electric_scooter", "lat": 38.86250066666667, "is_reserved": 0, "fusion_lat": 0.0}, {"bike_id": "41e99494e87c00488774303837c0b14d", "fusion_lon": 0.0, "lon": -77.043291, "name": "41e99494e87c00488774303837c0b14d", "is_disabled": 0, "rental_uris": {"android": "https://dc.lft.to/lastmile_qr_scan", "ios": "https://dc.lft.to/lastmile_qr_scan"}, "type": "electric_scooter", "lat": 38.892257, "is_reserved": 0, "fusion_lat": 0.0}, {"bike_id": "a801b4822104b0e3843573c1c6262422", "fusion_lon": 0.0, "lon": -77.023727, "name": "a801b4822104b0e3843573c1c6262422", "is_disabled": 0, "rental_uris": {"android": "https://dc.lft.to/lastmile_qr_scan", "ios": "https://dc.lft.to/lastmile_qr_scan"}, "type": "electric_bike", "lat": 38.87935, "is_reserved": 0, "fusion_lat": 0.0}, {"bike_id": "0d323768065baed6bbe6254a054d3ad7", "fusion_lon": 0.0, "lon": -77.03174466666667, "name": "0d323768065baed6bbe6254a054d3ad7", "is_disabled": 0, "rental_uris": {"android": "https://dc.lft.to/lastmile_qr_scan", "ios": "https://dc.lft.to/lastmile_qr_scan"}, "type": "electric_scooter", "lat": 38.90249333333333, "is_reserved": 0, "fusion_lat": 0.0}, {"bike_id": "9dad496d840a5cd0de8118226351ab1c", "fusion_lon": 0.0, "lon": -76.97178783333334, "name": "9dad496d840a5cd0de8118226351ab1c", "is_disabled": 0, "rental_uris": {"android": "https://dc.lft.to/lastmile_qr_scan", "ios": "https://dc.lft.to/lastmile_qr_scan"}, "type": "electric_bike", "lat": 38.9164865, "is_reserved": 0, "fusion_lat": 0.0}, {"bike_id": "b2c66e2636e66774f392a8f377fd80ee", "fusion_lon": 0.0, "lon": -77.02086216666666, "name": "b2c66e2636e66774f392a8f377fd80ee", "is_disabled": 0, "rental_uris": {"android": "https://dc.lft.to/lastmile_qr_scan", "ios": "https://dc.lft.to/lastmile_qr_scan"}, "type": "electric_scooter", "lat": 38.89751533333333, "is_reserved": 0, "fusion_lat": 0.0}, {"bike_id": "3d7c663e9a3c64aad0a8278134a410e7", "fusion_lon": 0.0, "lon": -77.02173333333333, "name": "3d7c663e9a3c64aad0a8278134a410e7", "is_disabled": 0, "rental_uris": {"android": "https://dc.lft.to/lastmile_qr_scan", "ios": "https://dc.lft.to/lastmile_qr_scan"}, "type": "electric_scooter", "lat": 38.883340833333335, "is_reserved": 0, "fusion_lat": 0.0}, {"bike_id": "989fc1577ab5d34a7ca52b32b5ab820f", "fusion_lon": 0.0, "lon": -77.04188916666666, "name": "989fc1577ab5d34a7ca52b32b5ab820f", "is_disabled": 0, "rental_uris": {"android": "https://dc.lft.to/lastmile_qr_scan", "ios": "https://dc.lft.to/lastmile_qr_scan"}, "type": "electric_scooter", "lat": 38.903602166666666, "is_reserved": 0, "fusion_lat": 0.0}, {"bike_id": "176412d78a6d94202f2ee9c76454bf75", "fusion_lon": 0.0, "lon": -77.233207, "name": "176412d78a6d94202f2ee9c76454bf75", "is_disabled": 0, "rental_uris": {"android": "https://dc.lft.to/lastmile_qr_scan", "ios": "https://dc.lft.to/lastmile_qr_scan"}, "type": "electric_bike", "lat": 38.872878666666665, "is_reserved": 0, "fusion_lat": 0.0}, {"bike_id": "12f2f14f6df95b384ca94ad71f7447d9", "fusion_lon": 0.0, "lon": -77.0469445, "name": "12f2f14f6df95b384ca94ad71f7447d9", "is_disabled": 0, "rental_uris": {"android": "https://dc.lft.to/lastmile_qr_scan", "ios": "https://dc.lft.to/lastmile_qr_scan"}, "type": "electric_scooter", "lat": 38.90971866666667, "is_reserved": 0, "fusion_lat": 0.0}, {"bike_id": "973484c8ecf35d91f3ebeb4da25076b4", "fusion_lon": 0.0, "lon": -76.997303, "name": "973484c8ecf35d91f3ebeb4da25076b4", "is_disabled": 0, "rental_uris": {"android": "https://dc.lft.to/lastmile_qr_scan", "ios": "https://dc.lft.to/lastmile_qr_scan"}, "type": "electric_scooter", "lat": 38.90795983333334, "is_reserved": 0, "fusion_lat": 0.0}, {"bike_id": "f7ddd46be290d475238bcd3c16748991", "fusion_lon": 0.0, "lon": -77.04699783333334, "name": "f7ddd46be290d475238bcd3c16748991", "is_disabled": 0, "rental_uris": {"android": "https://dc.lft.to/lastmile_qr_scan", "ios": "https://dc.lft.to/lastmile_qr_scan"}, "type": "electric_scooter", "lat": 38.90594933333333, "is_reserved": 0, "fusion_lat": 0.0}, {"bike_id": "2651a5c885473224c5ce783b0a17380c", "fusion_lon": 0.0, "lon": -77.03694483333334, "name": "2651a5c885473224c5ce783b0a17380c", "is_disabled": 0, "rental_uris": {"android": "https://dc.lft.to/lastmile_qr_scan", "ios": "https://dc.lft.to/lastmile_qr_scan"}, "type": "electric_scooter", "lat": 38.92647616666667, "is_reserved": 0, "fusion_lat": 0.0}, {"bike_id": "c3f3ceea536eab2916bbcedc8c0d692f", "fusion_lon": 0.0, "lon": -77.00141333333333, "name": "c3f3ceea536eab2916bbcedc8c0d692f", "is_disabled": 0, "rental_uris": {"android": "https://dc.lft.to/lastmile_qr_scan", "ios": "https://dc.lft.to/lastmile_qr_scan"}, "type": "electric_scooter", "lat": 38.89470333333333, "is_reserved": 0, "fusion_lat": 0.0}, {"bike_id": "1c6002a81c408837b771a922c1d7c368", "fusion_lon": 0.0, "lon": -76.995101, "name": "1c6002a81c408837b771a922c1d7c368", "is_disabled": 0, "rental_uris": {"android": "https://dc.lft.to/lastmile_qr_scan", "ios": "https://dc.lft.to/lastmile_qr_scan"}, "type": "electric_scooter", "lat": 38.89910483333333, "is_reserved": 0, "fusion_lat": 0.0}, {"bike_id": "b403a96255f18bf79493f61b20ad30c1", "fusion_lon": 0.0, "lon": -77.02593216666666, "name": "b403a96255f18bf79493f61b20ad30c1", "is_disabled": 0, "rental_uris": {"android": "https://dc.lft.to/lastmile_qr_scan", "ios": "https://dc.lft.to/lastmile_qr_scan"}, "type": "electric_scooter", "lat": 38.963915166666666, "is_reserved": 0, "fusion_lat": 0.0}, {"bike_id": "a5ffb4397da4d0ad7fb56aa31db1ebc4", "fusion_lon": 0.0, "lon": -77.03477733333334, "name": "a5ffb4397da4d0ad7fb56aa31db1ebc4", "is_disabled": 0, "rental_uris": {"android": "https://dc.lft.to/lastmile_qr_scan", "ios": "https://dc.lft.to/lastmile_qr_scan"}, "type": "electric_scooter", "lat": 38.90284616666667, "is_reserved": 0, "fusion_lat": 0.0}, {"bike_id": "bce25f2d917e50ff5edabb39058693ed", "fusion_lon": 0.0, "lon": -77.0209215, "name": "bce25f2d917e50ff5edabb39058693ed", "is_disabled": 0, "rental_uris": {"android": "https://dc.lft.to/lastmile_qr_scan", "ios": "https://dc.lft.to/lastmile_qr_scan"}, "type": "electric_scooter", "lat": 38.927155, "is_reserved": 0, "fusion_lat": 0.0}, {"bike_id": "c1b98468061228c808f6f0d66c98fe23", "fusion_lon": 0.0, "lon": -76.98608283333333, "name": "c1b98468061228c808f6f0d66c98fe23", "is_disabled": 0, "rental_uris": {"android": "https://dc.lft.to/lastmile_qr_scan", "ios": "https://dc.lft.to/lastmile_qr_scan"}, "type": "electric_scooter", "lat": 38.8652565, "is_reserved": 0, "fusion_lat": 0.0}, {"bike_id": "dac6d35ae06ec3fc90accd9c1dfb008c", "fusion_lon": 0.0, "lon": -76.94640583333333, "name": "dac6d35ae06ec3fc90accd9c1dfb008c", "is_disabled": 0, "rental_uris": {"android": "https://dc.lft.to/lastmile_qr_scan", "ios": "https://dc.lft.to/lastmile_qr_scan"}, "type": "electric_scooter", "lat": 38.8984585, "is_reserved": 0, "fusion_lat": 0.0}, {"bike_id": "338a0a3e87e4cba1cbe1e7a4395ee26e", "fusion_lon": 0.0, "lon": -77.03962516666667, "name": "338a0a3e87e4cba1cbe1e7a4395ee26e", "is_disabled": 0, "rental_uris": {"android": "https://dc.lft.to/lastmile_qr_scan", "ios": "https://dc.lft.to/lastmile_qr_scan"}, "type": "electric_scooter", "lat": 38.908281333333335, "is_reserved": 0, "fusion_lat": 0.0}, {"bike_id": "f1b0724913f0966ad164a6a5bee07b15", "fusion_lon": 0.0, "lon": -77.03839566666667, "name": "f1b0724913f0966ad164a6a5bee07b15", "is_disabled": 0, "rental_uris": {"android": "https://dc.lft.to/lastmile_qr_scan", "ios": "https://dc.lft.to/lastmile_qr_scan"}, "type": "electric_scooter", "lat": 38.91576716666667, "is_reserved": 0, "fusion_lat": 0.0}, {"bike_id": "5b6f92b239461700061f98817aaa6c14", "fusion_lon": 0.0, "lon": -76.9871435, "name": "5b6f92b239461700061f98817aaa6c14", "is_disabled": 0, "rental_uris": {"android": "https://dc.lft.to/lastmile_qr_scan", "ios": "https://dc.lft.to/lastmile_qr_scan"}, "type": "electric_scooter", "lat": 38.8670225, "is_reserved": 0, "fusion_lat": 0.0}, {"bike_id": "c28887f4281dbba27d408bc68d2a43b2", "fusion_lon": 0.0, "lon": -76.99632583333333, "name": "c28887f4281dbba27d408bc68d2a43b2", "is_disabled": 0, "rental_uris": {"android": "https://dc.lft.to/lastmile_qr_scan", "ios": "https://dc.lft.to/lastmile_qr_scan"}, "type": "electric_scooter", "lat": 38.8861075, "is_reserved": 0, "fusion_lat": 0.0}, {"bike_id": "adf26de374737c98700edf53e4cab18a", "fusion_lon": 0.0, "lon": -77.02095033333333, "name": "adf26de374737c98700edf53e4cab18a", "is_disabled": 0, "rental_uris": {"android": "https://dc.lft.to/lastmile_qr_scan", "ios": "https://dc.lft.to/lastmile_qr_scan"}, "type": "electric_scooter", "lat": 38.931209, "is_reserved": 0, "fusion_lat": 0.0}, {"bike_id": "e4ae793efdeec2cf9c8dd0373c0cd8d2", "fusion_lon": 0.0, "lon": -76.999089, "name": "e4ae793efdeec2cf9c8dd0373c0cd8d2", "is_disabled": 0, "rental_uris": {"android": "https://dc.lft.to/lastmile_qr_scan", "ios": "https://dc.lft.to/lastmile_qr_scan"}, "type": "electric_scooter", "lat": 38.946915, "is_reserved": 0, "fusion_lat": 0.0}, {"bike_id": "d76464337fdca539df688181600a3abf", "fusion_lon": 0.0, "lon": -77.013185, "name": "d76464337fdca539df688181600a3abf", "is_disabled": 0, "rental_uris": {"android": "https://dc.lft.to/lastmile_qr_scan", "ios": "https://dc.lft.to/lastmile_qr_scan"}, "type": "electric_scooter", "lat": 38.930292, "is_reserved": 0, "fusion_lat": 0.0}, {"bike_id": "e9df3b187283c81c7346c9e2bf1f3679", "fusion_lon": 0.0, "lon": -77.023101, "name": "e9df3b187283c81c7346c9e2bf1f3679", "is_disabled": 0, "rental_uris": {"android": "https://dc.lft.to/lastmile_qr_scan", "ios": "https://dc.lft.to/lastmile_qr_scan"}, "type": "electric_scooter", "lat": 38.917728333333336, "is_reserved": 0, "fusion_lat": 0.0}, {"bike_id": "71c80f3bd897b920370efdabf359112f", "fusion_lon": 0.0, "lon": -77.0772945, "name": "71c80f3bd897b920370efdabf359112f", "is_disabled": 0, "rental_uris": {"android": "https://dc.lft.to/lastmile_qr_scan", "ios": "https://dc.lft.to/lastmile_qr_scan"}, "type": "electric_scooter", "lat": 38.957653, "is_reserved": 0, "fusion_lat": 0.0}, {"bike_id": "e40e960a72e15c5be13af34c7cdfbbc4", "fusion_lon": 0.0, "lon": -77.02709816666666, "name": "e40e960a72e15c5be13af34c7cdfbbc4", "is_disabled": 0, "rental_uris": {"android": "https://dc.lft.to/lastmile_qr_scan", "ios": "https://dc.lft.to/lastmile_qr_scan"}, "type": "electric_scooter", "lat": 38.906676833333336, "is_reserved": 0, "fusion_lat": 0.0}, {"bike_id": "b8b034fbe58748a1510f480571ebbac6", "fusion_lon": 0.0, "lon": -77.0234965, "name": "b8b034fbe58748a1510f480571ebbac6", "is_disabled": 0, "rental_uris": {"android": "https://dc.lft.to/lastmile_qr_scan", "ios": "https://dc.lft.to/lastmile_qr_scan"}, "type": "electric_scooter", "lat": 38.9461535, "is_reserved": 0, "fusion_lat": 0.0}, {"bike_id": "301b557d761b3f77047cdf3099a03092", "fusion_lon": 0.0, "lon": -77.01573766666667, "name": "301b557d761b3f77047cdf3099a03092", "is_disabled": 0, "rental_uris": {"android": "https://dc.lft.to/lastmile_qr_scan", "ios": "https://dc.lft.to/lastmile_qr_scan"}, "type": "electric_scooter", "lat": 38.926843, "is_reserved": 0, "fusion_lat": 0.0}, {"bike_id": "43604f4826b830787220ceab64a1a265", "fusion_lon": 0.0, "lon": -77.02204766666667, "name": "43604f4826b830787220ceab64a1a265", "is_disabled": 0, "rental_uris": {"android": "https://dc.lft.to/lastmile_qr_scan", "ios": "https://dc.lft.to/lastmile_qr_scan"}, "type": "electric_scooter", "lat": 38.89625133333333, "is_reserved": 0, "fusion_lat": 0.0}, {"bike_id": "0d459e6a9b38ccf6686656d903b1498d", "fusion_lon": 0.0, "lon": -77.02695083333333, "name": "0d459e6a9b38ccf6686656d903b1498d", "is_disabled": 0, "rental_uris": {"android": "https://dc.lft.to/lastmile_qr_scan", "ios": "https://dc.lft.to/lastmile_qr_scan"}, "type": "electric_scooter", "lat": 38.90683883333333, "is_reserved": 0, "fusion_lat": 0.0}, {"bike_id": "9b8447cb2d4a0d9efc71c48f4895af74", "fusion_lon": 0.0, "lon": -76.99332133333333, "name": "9b8447cb2d4a0d9efc71c48f4895af74", "is_disabled": 0, "rental_uris": {"android": "https://dc.lft.to/lastmile_qr_scan", "ios": "https://dc.lft.to/lastmile_qr_scan"}, "type": "electric_scooter", "lat": 38.9244405, "is_reserved": 0, "fusion_lat": 0.0}, {"bike_id": "d602bc2626668cd9f697252e12b1afee", "fusion_lon": 0.0, "lon": -77.029752, "name": "d602bc2626668cd9f697252e12b1afee", "is_disabled": 0, "rental_uris": {"android": "https://dc.lft.to/lastmile_qr_scan", "ios": "https://dc.lft.to/lastmile_qr_scan"}, "type": "electric_scooter", "lat": 38.9347655, "is_reserved": 0, "fusion_lat": 0.0}, {"bike_id": "8ba1dc86541c21298b699486c3ec0f0a", "fusion_lon": 0.0, "lon": -77.05235116666667, "name": "8ba1dc86541c21298b699486c3ec0f0a", "is_disabled": 0, "rental_uris": {"android": "https://dc.lft.to/lastmile_qr_scan", "ios": "https://dc.lft.to/lastmile_qr_scan"}, "type": "electric_scooter", "lat": 38.92468316666667, "is_reserved": 0, "fusion_lat": 0.0}, {"bike_id": "60329f54381ad5b1425c30c8e4e48527", "fusion_lon": 0.0, "lon": -77.00137783333334, "name": "60329f54381ad5b1425c30c8e4e48527", "is_disabled": 0, "rental_uris": {"android": "https://dc.lft.to/lastmile_qr_scan", "ios": "https://dc.lft.to/lastmile_qr_scan"}, "type": "electric_scooter", "lat": 38.905371333333335, "is_reserved": 0, "fusion_lat": 0.0}, {"bike_id": "5e31c8933627f84581179f9ea7794442", "fusion_lon": 0.0, "lon": -76.97240133333334, "name": "5e31c8933627f84581179f9ea7794442", "is_disabled": 0, "rental_uris": {"android": "https://dc.lft.to/lastmile_qr_scan", "ios": "https://dc.lft.to/lastmile_qr_scan"}, "type": "electric_bike", "lat": 38.9490635, "is_reserved": 0, "fusion_lat": 0.0}, {"bike_id": "d1b9b30e28be4524889ec3e4b773f8a7", "fusion_lon": 0.0, "lon": -76.99936716666667, "name": "d1b9b30e28be4524889ec3e4b773f8a7", "is_disabled": 0, "rental_uris": {"android": "https://dc.lft.to/lastmile_qr_scan", "ios": "https://dc.lft.to/lastmile_qr_scan"}, "type": "electric_scooter", "lat": 38.89211683333333, "is_reserved": 0, "fusion_lat": 0.0}, {"bike_id": "e523e96b629d69434d3d922bd9f3c4ee", "fusion_lon": 0.0, "lon": -77.03363266666666, "name": "e523e96b629d69434d3d922bd9f3c4ee", "is_disabled": 0, "rental_uris": {"android": "https://dc.lft.to/lastmile_qr_scan", "ios": "https://dc.lft.to/lastmile_qr_scan"}, "type": "electric_scooter", "lat": 38.901283166666666, "is_reserved": 0, "fusion_lat": 0.0}, {"bike_id": "3b856341d3e7cb372f2039f59b7fee25", "fusion_lon": 0.0, "lon": -77.08588783333333, "name": "3b856341d3e7cb372f2039f59b7fee25", "is_disabled": 0, "rental_uris": {"android": "https://dc.lft.to/lastmile_qr_scan", "ios": "https://dc.lft.to/lastmile_qr_scan"}, "type": "electric_bike", "lat": 38.8444355, "is_reserved": 0, "fusion_lat": 0.0}, {"bike_id": "c65e7857df3409cac6d892b457ee93e7", "fusion_lon": 0.0, "lon": -77.10725183333334, "name": "c65e7857df3409cac6d892b457ee93e7", "is_disabled": 0, "rental_uris": {"android": "https://dc.lft.to/lastmile_qr_scan", "ios": "https://dc.lft.to/lastmile_qr_scan"}, "type": "electric_bike", "lat": 38.96488133333333, "is_reserved": 0, "fusion_lat": 0.0}, {"bike_id": "a9745d21f3829c85bda206828f6471ff", "fusion_lon": 0.0, "lon": -77.02156166666667, "name": "a9745d21f3829c85bda206828f6471ff", "is_disabled": 0, "rental_uris": {"android": "https://dc.lft.to/lastmile_qr_scan", "ios": "https://dc.lft.to/lastmile_qr_scan"}, "type": "electric_scooter", "lat": 38.909628166666664, "is_reserved": 0, "fusion_lat": 0.0}, {"bike_id": "c8d856d6a200f5d3d2aaad900000ddbe", "fusion_lon": 0.0, "lon": -77.03908716666666, "name": "c8d856d6a200f5d3d2aaad900000ddbe", "is_disabled": 0, "rental_uris": {"android": "https://dc.lft.to/lastmile_qr_scan", "ios": "https://dc.lft.to/lastmile_qr_scan"}, "type": "electric_scooter", "lat": 38.92206733333333, "is_reserved": 0, "fusion_lat": 0.0}, {"bike_id": "4b58cd9a7cbd292e6526faa75b1c1afa", "fusion_lon": 0.0, "lon": -77.04687633333333, "name": "4b58cd9a7cbd292e6526faa75b1c1afa", "is_disabled": 0, "rental_uris": {"android": "https://dc.lft.to/lastmile_qr_scan", "ios": "https://dc.lft.to/lastmile_qr_scan"}, "type": "electric_scooter", "lat": 38.9003545, "is_reserved": 0, "fusion_lat": 0.0}, {"bike_id": "aa416382f42fdae50ea8fd2f39263c97", "fusion_lon": 0.0, "lon": -77.02493333333334, "name": "aa416382f42fdae50ea8fd2f39263c97", "is_disabled": 0, "rental_uris": {"android": "https://dc.lft.to/lastmile_qr_scan", "ios": "https://dc.lft.to/lastmile_qr_scan"}, "type": "electric_scooter", "lat": 38.8974625, "is_reserved": 0, "fusion_lat": 0.0}, {"bike_id": "844e9300a436d5ef3ea5831482b718d9", "fusion_lon": 0.0, "lon": -77.046042, "name": "844e9300a436d5ef3ea5831482b718d9", "is_disabled": 0, "rental_uris": {"android": "https://dc.lft.to/lastmile_qr_scan", "ios": "https://dc.lft.to/lastmile_qr_scan"}, "type": "electric_scooter", "lat": 38.917007, "is_reserved": 0, "fusion_lat": 0.0}, {"bike_id": "de3ce4d6757b12590506b43a2cacdb03", "fusion_lon": 0.0, "lon": -77.02718883333333, "name": "de3ce4d6757b12590506b43a2cacdb03", "is_disabled": 0, "rental_uris": {"android": "https://dc.lft.to/lastmile_qr_scan", "ios": "https://dc.lft.to/lastmile_qr_scan"}, "type": "electric_scooter", "lat": 38.9068895, "is_reserved": 0, "fusion_lat": 0.0}, {"bike_id": "4a07786dc55b72d7b422cb92b34e64e8", "fusion_lon": 0.0, "lon": -77.026154, "name": "4a07786dc55b72d7b422cb92b34e64e8", "is_disabled": 0, "rental_uris": {"android": "https://dc.lft.to/lastmile_qr_scan", "ios": "https://dc.lft.to/lastmile_qr_scan"}, "type": "electric_scooter", "lat": 38.89445083333333, "is_reserved": 0, "fusion_lat": 0.0}, {"bike_id": "5c29ff4bdf18af839a8d1e1e8d2b6eca", "fusion_lon": 0.0, "lon": -77.01611833333334, "name": "5c29ff4bdf18af839a8d1e1e8d2b6eca", "is_disabled": 0, "rental_uris": {"android": "https://dc.lft.to/lastmile_qr_scan", "ios": "https://dc.lft.to/lastmile_qr_scan"}, "type": "electric_scooter", "lat": 38.912774666666664, "is_reserved": 0, "fusion_lat": 0.0}, {"bike_id": "34680a20f70ddbddb18c6583a2bafae5", "fusion_lon": 0.0, "lon": -77.0270845, "name": "34680a20f70ddbddb18c6583a2bafae5", "is_disabled": 0, "rental_uris": {"android": "https://dc.lft.to/lastmile_qr_scan", "ios": "https://dc.lft.to/lastmile_qr_scan"}, "type": "electric_scooter", "lat": 38.9008205, "is_reserved": 0, "fusion_lat": 0.0}, {"bike_id": "061cdc1224b9331757ad749d4fd11773", "fusion_lon": 0.0, "lon": -77.01755383333334, "name": "061cdc1224b9331757ad749d4fd11773", "is_disabled": 0, "rental_uris": {"android": "https://dc.lft.to/lastmile_qr_scan", "ios": "https://dc.lft.to/lastmile_qr_scan"}, "type": "electric_scooter", "lat": 38.87728533333333, "is_reserved": 0, "fusion_lat": 0.0}, {"bike_id": "220cecd0532ebe37aedf2f19d7335f7d", "fusion_lon": 0.0, "lon": -76.98177233333334, "name": "220cecd0532ebe37aedf2f19d7335f7d", "is_disabled": 0, "rental_uris": {"android": "https://dc.lft.to/lastmile_qr_scan", "ios": "https://dc.lft.to/lastmile_qr_scan"}, "type": "electric_scooter", "lat": 38.85681483333333, "is_reserved": 0, "fusion_lat": 0.0}, {"bike_id": "5a75d631415a1bf8ad7de96ce52ed3ff", "fusion_lon": 0.0, "lon": -76.93220366666667, "name": "5a75d631415a1bf8ad7de96ce52ed3ff", "is_disabled": 0, "rental_uris": {"android": "https://dc.lft.to/lastmile_qr_scan", "ios": "https://dc.lft.to/lastmile_qr_scan"}, "type": "electric_scooter", "lat": 38.880693666666666, "is_reserved": 0, "fusion_lat": 0.0}, {"bike_id": "b2b75888de5bb9b5e725c600c712e97d", "fusion_lon": 0.0, "lon": -77.04892983333333, "name": "b2b75888de5bb9b5e725c600c712e97d", "is_disabled": 0, "rental_uris": {"android": "https://dc.lft.to/lastmile_qr_scan", "ios": "https://dc.lft.to/lastmile_qr_scan"}, "type": "electric_scooter", "lat": 38.90077183333333, "is_reserved": 0, "fusion_lat": 0.0}, {"bike_id": "11d9bbdb1ce95dd06acb833967d96cc2", "fusion_lon": 0.0, "lon": -77.04389166666667, "name": "11d9bbdb1ce95dd06acb833967d96cc2", "is_disabled": 0, "rental_uris": {"android": "https://dc.lft.to/lastmile_qr_scan", "ios": "https://dc.lft.to/lastmile_qr_scan"}, "type": "electric_scooter", "lat": 38.9205545, "is_reserved": 0, "fusion_lat": 0.0}, {"bike_id": "feeae7aa80d4a07ce3a6c8029ec37fa3", "fusion_lon": 0.0, "lon": -77.03476783333333, "name": "feeae7aa80d4a07ce3a6c8029ec37fa3", "is_disabled": 0, "rental_uris": {"android": "https://dc.lft.to/lastmile_qr_scan", "ios": "https://dc.lft.to/lastmile_qr_scan"}, "type": "electric_scooter", "lat": 38.90560166666667, "is_reserved": 0, "fusion_lat": 0.0}, {"bike_id": "d5e56187790e3b1ce92e60a0bf97a458", "fusion_lon": 0.0, "lon": -77.03229766666666, "name": "d5e56187790e3b1ce92e60a0bf97a458", "is_disabled": 0, "rental_uris": {"android": "https://dc.lft.to/lastmile_qr_scan", "ios": "https://dc.lft.to/lastmile_qr_scan"}, "type": "electric_scooter", "lat": 38.91709933333333, "is_reserved": 0, "fusion_lat": 0.0}, {"bike_id": "779315960920a516c4c3c480648c1108", "fusion_lon": 0.0, "lon": -77.01761133333333, "name": "779315960920a516c4c3c480648c1108", "is_disabled": 0, "rental_uris": {"android": "https://dc.lft.to/lastmile_qr_scan", "ios": "https://dc.lft.to/lastmile_qr_scan"}, "type": "electric_scooter", "lat": 38.90253283333333, "is_reserved": 0, "fusion_lat": 0.0}, {"bike_id": "bb41ed131b7161babf45029d7a512b3d", "fusion_lon": 0.0, "lon": -77.036704, "name": "bb41ed131b7161babf45029d7a512b3d", "is_disabled": 0, "rental_uris": {"android": "https://dc.lft.to/lastmile_qr_scan", "ios": "https://dc.lft.to/lastmile_qr_scan"}, "type": "electric_scooter", "lat": 38.9232755, "is_reserved": 0, "fusion_lat": 0.0}, {"bike_id": "b2224f5d12c3e2d152e716b295bb387c", "fusion_lon": 0.0, "lon": -76.9970765, "name": "b2224f5d12c3e2d152e716b295bb387c", "is_disabled": 0, "rental_uris": {"android": "https://dc.lft.to/lastmile_qr_scan", "ios": "https://dc.lft.to/lastmile_qr_scan"}, "type": "electric_bike", "lat": 38.83867133333333, "is_reserved": 0, "fusion_lat": 0.0}, {"bike_id": "317eae29b74cf762b986e4def23b93ec", "fusion_lon": 0.0, "lon": -77.0229575, "name": "317eae29b74cf762b986e4def23b93ec", "is_disabled": 0, "rental_uris": {"android": "https://dc.lft.to/lastmile_qr_scan", "ios": "https://dc.lft.to/lastmile_qr_scan"}, "type": "electric_scooter", "lat": 38.936760666666665, "is_reserved": 0, "fusion_lat": 0.0}, {"bike_id": "f74859408eb65dbcba292c710cd80818", "fusion_lon": 0.0, "lon": -77.13103283333334, "name": "f74859408eb65dbcba292c710cd80818", "is_disabled": 0, "rental_uris": {"android": "https://dc.lft.to/lastmile_qr_scan", "ios": "https://dc.lft.to/lastmile_qr_scan"}, "type": "electric_bike", "lat": 39.024347166666665, "is_reserved": 0, "fusion_lat": 0.0}, {"bike_id": "e5dff9c3a4a80257f377238374715d8b", "fusion_lon": 0.0, "lon": -77.02219566666666, "name": "e5dff9c3a4a80257f377238374715d8b", "is_disabled": 0, "rental_uris": {"android": "https://dc.lft.to/lastmile_qr_scan", "ios": "https://dc.lft.to/lastmile_qr_scan"}, "type": "electric_scooter", "lat": 38.878872666666666, "is_reserved": 0, "fusion_lat": 0.0}, {"bike_id": "4613c49cabddf22896c1598996738696", "fusion_lon": 0.0, "lon": -77.0270955, "name": "4613c49cabddf22896c1598996738696", "is_disabled": 0, "rental_uris": {"android": "https://dc.lft.to/lastmile_qr_scan", "ios": "https://dc.lft.to/lastmile_qr_scan"}, "type": "electric_scooter", "lat": 38.906712666666664, "is_reserved": 0, "fusion_lat": 0.0}, {"bike_id": "ee37676af451919ff787e033caee658a", "fusion_lon": 0.0, "lon": -77.02752283333334, "name": "ee37676af451919ff787e033caee658a", "is_disabled": 0, "rental_uris": {"android": "https://dc.lft.to/lastmile_qr_scan", "ios": "https://dc.lft.to/lastmile_qr_scan"}, "type": "electric_scooter", "lat": 38.951694333333336, "is_reserved": 0, "fusion_lat": 0.0}, {"bike_id": "043f2a4c4e9fa2ce2e74a14f2814ddfb", "fusion_lon": 0.0, "lon": -77.09485083333334, "name": "043f2a4c4e9fa2ce2e74a14f2814ddfb", "is_disabled": 0, "rental_uris": {"android": "https://dc.lft.to/lastmile_qr_scan", "ios": "https://dc.lft.to/lastmile_qr_scan"}, "type": "electric_bike", "lat": 39.030521666666665, "is_reserved": 0, "fusion_lat": 0.0}, {"bike_id": "122e17cdafb0c619eb4dba8d17d271ad", "fusion_lon": 0.0, "lon": -77.06077366666666, "name": "122e17cdafb0c619eb4dba8d17d271ad", "is_disabled": 0, "rental_uris": {"android": "https://dc.lft.to/lastmile_qr_scan", "ios": "https://dc.lft.to/lastmile_qr_scan"}, "type": "electric_bike", "lat": 38.88583766666667, "is_reserved": 0, "fusion_lat": 0.0}, {"bike_id": "a1aae96e7bc0ca9493673435eb814e38", "fusion_lon": 0.0, "lon": -76.99002083333333, "name": "a1aae96e7bc0ca9493673435eb814e38", "is_disabled": 0, "rental_uris": {"android": "https://dc.lft.to/lastmile_qr_scan", "ios": "https://dc.lft.to/lastmile_qr_scan"}, "type": "electric_scooter", "lat": 38.92452, "is_reserved": 0, "fusion_lat": 0.0}, {"bike_id": "96729b421703b9d907b4df3b82390d66", "fusion_lon": 0.0, "lon": -77.0343825, "name": "96729b421703b9d907b4df3b82390d66", "is_disabled": 0, "rental_uris": {"android": "https://dc.lft.to/lastmile_qr_scan", "ios": "https://dc.lft.to/lastmile_qr_scan"}, "type": "electric_scooter", "lat": 38.902714333333336, "is_reserved": 0, "fusion_lat": 0.0}, {"bike_id": "291e972dda936f5c611db94d387e9b89", "fusion_lon": 0.0, "lon": -77.0194865, "name": "291e972dda936f5c611db94d387e9b89", "is_disabled": 0, "rental_uris": {"android": "https://dc.lft.to/lastmile_qr_scan", "ios": "https://dc.lft.to/lastmile_qr_scan"}, "type": "electric_scooter", "lat": 38.92421866666667, "is_reserved": 0, "fusion_lat": 0.0}, {"bike_id": "c848e9918738bbbbcedea250e03ab10d", "fusion_lon": 0.0, "lon": -77.03365533333333, "name": "c848e9918738bbbbcedea250e03ab10d", "is_disabled": 0, "rental_uris": {"android": "https://dc.lft.to/lastmile_qr_scan", "ios": "https://dc.lft.to/lastmile_qr_scan"}, "type": "electric_scooter", "lat": 38.932243666666665, "is_reserved": 0, "fusion_lat": 0.0}, {"bike_id": "e4b97097d3624ffc6ede0342d2606566", "fusion_lon": 0.0, "lon": -77.04512816666667, "name": "e4b97097d3624ffc6ede0342d2606566", "is_disabled": 0, "rental_uris": {"android": "https://dc.lft.to/lastmile_qr_scan", "ios": "https://dc.lft.to/lastmile_qr_scan"}, "type": "electric_scooter", "lat": 38.90380283333333, "is_reserved": 0, "fusion_lat": 0.0}, {"bike_id": "855364c94eb388f04f51fef3170a5f50", "fusion_lon": 0.0, "lon": -77.027912, "name": "855364c94eb388f04f51fef3170a5f50", "is_disabled": 0, "rental_uris": {"android": "https://dc.lft.to/lastmile_qr_scan", "ios": "https://dc.lft.to/lastmile_qr_scan"}, "type": "electric_scooter", "lat": 38.930636666666665, "is_reserved": 0, "fusion_lat": 0.0}, {"bike_id": "8bbd996161c82c103793b87f1d302fc7", "fusion_lon": 0.0, "lon": -77.0434805, "name": "8bbd996161c82c103793b87f1d302fc7", "is_disabled": 0, "rental_uris": {"android": "https://dc.lft.to/lastmile_qr_scan", "ios": "https://dc.lft.to/lastmile_qr_scan"}, "type": "electric_scooter", "lat": 38.90739816666667, "is_reserved": 0, "fusion_lat": 0.0}, {"bike_id": "c345ee80e5df96abd7e24aadf80752ca", "fusion_lon": 0.0, "lon": -76.94739416666667, "name": "c345ee80e5df96abd7e24aadf80752ca", "is_disabled": 0, "rental_uris": {"android": "https://dc.lft.to/lastmile_qr_scan", "ios": "https://dc.lft.to/lastmile_qr_scan"}, "type": "electric_scooter", "lat": 38.89672266666667, "is_reserved": 0, "fusion_lat": 0.0}, {"bike_id": "d498ce4303dd74204bf2bdfbecda8d10", "fusion_lon": 0.0, "lon": -77.01186533333333, "name": "d498ce4303dd74204bf2bdfbecda8d10", "is_disabled": 0, "rental_uris": {"android": "https://dc.lft.to/lastmile_qr_scan", "ios": "https://dc.lft.to/lastmile_qr_scan"}, "type": "electric_scooter", "lat": 38.9155, "is_reserved": 0, "fusion_lat": 0.0}, {"bike_id": "15b07355e629987a091eee2ea1adcb58", "fusion_lon": 0.0, "lon": -76.998484, "name": "15b07355e629987a091eee2ea1adcb58", "is_disabled": 0, "rental_uris": {"android": "https://dc.lft.to/lastmile_qr_scan", "ios": "https://dc.lft.to/lastmile_qr_scan"}, "type": "electric_scooter", "lat": 38.907412666666666, "is_reserved": 0, "fusion_lat": 0.0}, {"bike_id": "414d9571f959bea804dd69a02558ab74", "fusion_lon": 0.0, "lon": -77.03654883333333, "name": "414d9571f959bea804dd69a02558ab74", "is_disabled": 0, "rental_uris": {"android": "https://dc.lft.to/lastmile_qr_scan", "ios": "https://dc.lft.to/lastmile_qr_scan"}, "type": "electric_scooter", "lat": 38.929880833333335, "is_reserved": 0, "fusion_lat": 0.0}, {"bike_id": "d9ec03199c0f39ce319ca6c095d06d0e", "fusion_lon": 0.0, "lon": -77.03526033333333, "name": "d9ec03199c0f39ce319ca6c095d06d0e", "is_disabled": 0, "rental_uris": {"android": "https://dc.lft.to/lastmile_qr_scan", "ios": "https://dc.lft.to/lastmile_qr_scan"}, "type": "electric_scooter", "lat": 38.92320516666667, "is_reserved": 0, "fusion_lat": 0.0}, {"bike_id": "824dd05dfdd257b685fe0caa67c9d512", "fusion_lon": 0.0, "lon": -77.02520583333333, "name": "824dd05dfdd257b685fe0caa67c9d512", "is_disabled": 0, "rental_uris": {"android": "https://dc.lft.to/lastmile_qr_scan", "ios": "https://dc.lft.to/lastmile_qr_scan"}, "type": "electric_scooter", "lat": 38.94622316666667, "is_reserved": 0, "fusion_lat": 0.0}, {"bike_id": "a8bba8354d36fe2e59b83e0898bebacc", "fusion_lon": 0.0, "lon": -77.00677083333333, "name": "a8bba8354d36fe2e59b83e0898bebacc", "is_disabled": 0, "rental_uris": {"android": "https://dc.lft.to/lastmile_qr_scan", "ios": "https://dc.lft.to/lastmile_qr_scan"}, "type": "electric_bike", "lat": 38.945120333333335, "is_reserved": 0, "fusion_lat": 0.0}, {"bike_id": "22b4df34968826fa34497c8d78583ba8", "fusion_lon": 0.0, "lon": -76.95367533333334, "name": "22b4df34968826fa34497c8d78583ba8", "is_disabled": 0, "rental_uris": {"android": "https://dc.lft.to/lastmile_qr_scan", "ios": "https://dc.lft.to/lastmile_qr_scan"}, "type": "electric_scooter", "lat": 38.892093833333334, "is_reserved": 0, "fusion_lat": 0.0}, {"bike_id": "50d4deacd18ddae613c5fbd215fa343d", "fusion_lon": 0.0, "lon": -77.01955616666666, "name": "50d4deacd18ddae613c5fbd215fa343d", "is_disabled": 0, "rental_uris": {"android": "https://dc.lft.to/lastmile_qr_scan", "ios": "https://dc.lft.to/lastmile_qr_scan"}, "type": "electric_scooter", "lat": 38.92424466666667, "is_reserved": 0, "fusion_lat": 0.0}, {"bike_id": "4ddfe15072c6de47aeafffe9258b90d4", "fusion_lon": 0.0, "lon": -77.054019, "name": "4ddfe15072c6de47aeafffe9258b90d4", "is_disabled": 0, "rental_uris": {"android": "https://dc.lft.to/lastmile_qr_scan", "ios": "https://dc.lft.to/lastmile_qr_scan"}, "type": "electric_scooter", "lat": 38.92817683333333, "is_reserved": 0, "fusion_lat": 0.0}, {"bike_id": "228cff643cb040273631d47328d69d9f", "fusion_lon": 0.0, "lon": -76.987134, "name": "228cff643cb040273631d47328d69d9f", "is_disabled": 0, "rental_uris": {"android": "https://dc.lft.to/lastmile_qr_scan", "ios": "https://dc.lft.to/lastmile_qr_scan"}, "type": "electric_scooter", "lat": 38.86699866666667, "is_reserved": 0, "fusion_lat": 0.0}, {"bike_id": "4e542a6b4ed18874c0449035298455e4", "fusion_lon": 0.0, "lon": -76.93185466666667, "name": "4e542a6b4ed18874c0449035298455e4", "is_disabled": 0, "rental_uris": {"android": "https://dc.lft.to/lastmile_qr_scan", "ios": "https://dc.lft.to/lastmile_qr_scan"}, "type": "electric_scooter", "lat": 38.898799, "is_reserved": 0, "fusion_lat": 0.0}, {"bike_id": "faf5fd4120d05f14d5ff91b432c1a7c9", "fusion_lon": 0.0, "lon": -77.03987716666667, "name": "faf5fd4120d05f14d5ff91b432c1a7c9", "is_disabled": 0, "rental_uris": {"android": "https://dc.lft.to/lastmile_qr_scan", "ios": "https://dc.lft.to/lastmile_qr_scan"}, "type": "electric_scooter", "lat": 38.905675, "is_reserved": 0, "fusion_lat": 0.0}, {"bike_id": "848f16f04a43bb86ba6fc34564fc5890", "fusion_lon": 0.0, "lon": -77.00067516666667, "name": "848f16f04a43bb86ba6fc34564fc5890", "is_disabled": 0, "rental_uris": {"android": "https://dc.lft.to/lastmile_qr_scan", "ios": "https://dc.lft.to/lastmile_qr_scan"}, "type": "electric_scooter", "lat": 38.925528666666665, "is_reserved": 0, "fusion_lat": 0.0}, {"bike_id": "020d1b1a0fa4fe36e7c15b667c6095df", "fusion_lon": 0.0, "lon": -77.00720416666667, "name": "020d1b1a0fa4fe36e7c15b667c6095df", "is_disabled": 0, "rental_uris": {"android": "https://dc.lft.to/lastmile_qr_scan", "ios": "https://dc.lft.to/lastmile_qr_scan"}, "type": "electric_scooter", "lat": 38.8982385, "is_reserved": 0, "fusion_lat": 0.0}, {"bike_id": "a7a55e1c589b9bd1994de2e349db23b6", "fusion_lon": 0.0, "lon": -76.99968966666667, "name": "a7a55e1c589b9bd1994de2e349db23b6", "is_disabled": 0, "rental_uris": {"android": "https://dc.lft.to/lastmile_qr_scan", "ios": "https://dc.lft.to/lastmile_qr_scan"}, "type": "electric_scooter", "lat": 38.908597666666665, "is_reserved": 0, "fusion_lat": 0.0}, {"bike_id": "d1242071a42e74340bbcf6695e7737a2", "fusion_lon": 0.0, "lon": -77.03471483333334, "name": "d1242071a42e74340bbcf6695e7737a2", "is_disabled": 0, "rental_uris": {"android": "https://dc.lft.to/lastmile_qr_scan", "ios": "https://dc.lft.to/lastmile_qr_scan"}, "type": "electric_scooter", "lat": 38.90888783333333, "is_reserved": 0, "fusion_lat": 0.0}, {"bike_id": "9ed2198c65bbc1dabef4b72f86927188", "fusion_lon": 0.0, "lon": -76.96540333333333, "name": "9ed2198c65bbc1dabef4b72f86927188", "is_disabled": 0, "rental_uris": {"android": "https://dc.lft.to/lastmile_qr_scan", "ios": "https://dc.lft.to/lastmile_qr_scan"}, "type": "electric_scooter", "lat": 38.918534333333334, "is_reserved": 0, "fusion_lat": 0.0}, {"bike_id": "5e46bfbbe3722bf5ec54678cc36dc421", "fusion_lon": 0.0, "lon": -77.02371466666666, "name": "5e46bfbbe3722bf5ec54678cc36dc421", "is_disabled": 0, "rental_uris": {"android": "https://dc.lft.to/lastmile_qr_scan", "ios": "https://dc.lft.to/lastmile_qr_scan"}, "type": "electric_scooter", "lat": 38.8922535, "is_reserved": 0, "fusion_lat": 0.0}, {"bike_id": "6e72f5a6bc2fbc85dd51257f9ff1d592", "fusion_lon": 0.0, "lon": -77.01611416666667, "name": "6e72f5a6bc2fbc85dd51257f9ff1d592", "is_disabled": 0, "rental_uris": {"android": "https://dc.lft.to/lastmile_qr_scan", "ios": "https://dc.lft.to/lastmile_qr_scan"}, "type": "electric_scooter", "lat": 38.92053466666667, "is_reserved": 0, "fusion_lat": 0.0}, {"bike_id": "375434885ec422a6ba22f3d855ac9a51", "fusion_lon": 0.0, "lon": -77.04067966666666, "name": "375434885ec422a6ba22f3d855ac9a51", "is_disabled": 0, "rental_uris": {"android": "https://dc.lft.to/lastmile_qr_scan", "ios": "https://dc.lft.to/lastmile_qr_scan"}, "type": "electric_scooter", "lat": 38.90512433333333, "is_reserved": 0, "fusion_lat": 0.0}, {"bike_id": "12ef84981778d5d8390ad5d51060ac1a", "fusion_lon": 0.0, "lon": -77.02905483333333, "name": "12ef84981778d5d8390ad5d51060ac1a", "is_disabled": 0, "rental_uris": {"android": "https://dc.lft.to/lastmile_qr_scan", "ios": "https://dc.lft.to/lastmile_qr_scan"}, "type": "electric_scooter", "lat": 38.92570833333333, "is_reserved": 0, "fusion_lat": 0.0}, {"bike_id": "c048f32fa60468f80f8a24ca43874a71", "fusion_lon": 0.0, "lon": -77.10131116666666, "name": "c048f32fa60468f80f8a24ca43874a71", "is_disabled": 0, "rental_uris": {"android": "https://dc.lft.to/lastmile_qr_scan", "ios": "https://dc.lft.to/lastmile_qr_scan"}, "type": "electric_bike", "lat": 38.85208766666667, "is_reserved": 0, "fusion_lat": 0.0}, {"bike_id": "7f47ade6dfa5c0102e72ea481de2df03", "fusion_lon": 0.0, "lon": -77.04222183333333, "name": "7f47ade6dfa5c0102e72ea481de2df03", "is_disabled": 0, "rental_uris": {"android": "https://dc.lft.to/lastmile_qr_scan", "ios": "https://dc.lft.to/lastmile_qr_scan"}, "type": "electric_scooter", "lat": 38.92309133333333, "is_reserved": 0, "fusion_lat": 0.0}, {"bike_id": "36cf6e23004c9b2891d3b01cb9b3bd24", "fusion_lon": 0.0, "lon": -77.04177633333333, "name": "36cf6e23004c9b2891d3b01cb9b3bd24", "is_disabled": 0, "rental_uris": {"android": "https://dc.lft.to/lastmile_qr_scan", "ios": "https://dc.lft.to/lastmile_qr_scan"}, "type": "electric_scooter", "lat": 38.90458016666667, "is_reserved": 0, "fusion_lat": 0.0}, {"bike_id": "107b574465927e44df70110e4183eab1", "fusion_lon": 0.0, "lon": -77.028531, "name": "107b574465927e44df70110e4183eab1", "is_disabled": 0, "rental_uris": {"android": "https://dc.lft.to/lastmile_qr_scan", "ios": "https://dc.lft.to/lastmile_qr_scan"}, "type": "electric_scooter", "lat": 38.89859366666666, "is_reserved": 0, "fusion_lat": 0.0}, {"bike_id": "ce398986d5a4369bd4370c8075c8fc6d", "fusion_lon": 0.0, "lon": -77.01954583333334, "name": "ce398986d5a4369bd4370c8075c8fc6d", "is_disabled": 0, "rental_uris": {"android": "https://dc.lft.to/lastmile_qr_scan", "ios": "https://dc.lft.to/lastmile_qr_scan"}, "type": "electric_scooter", "lat": 38.922585833333336, "is_reserved": 0, "fusion_lat": 0.0}, {"bike_id": "a3a7cad56758bcc3c51bae3b2c018583", "fusion_lon": 0.0, "lon": -77.02789783333333, "name": "a3a7cad56758bcc3c51bae3b2c018583", "is_disabled": 0, "rental_uris": {"android": "https://dc.lft.to/lastmile_qr_scan", "ios": "https://dc.lft.to/lastmile_qr_scan"}, "type": "electric_scooter", "lat": 38.954153, "is_reserved": 0, "fusion_lat": 0.0}, {"bike_id": "287de32ad74c86d7384ce18cb91b2289", "fusion_lon": 0.0, "lon": -77.05124766666667, "name": "287de32ad74c86d7384ce18cb91b2289", "is_disabled": 0, "rental_uris": {"android": "https://dc.lft.to/lastmile_qr_scan", "ios": "https://dc.lft.to/lastmile_qr_scan"}, "type": "electric_scooter", "lat": 38.92348116666667, "is_reserved": 0, "fusion_lat": 0.0}, {"bike_id": "74f7766f3442980178127e51f5ee2ba4", "fusion_lon": 0.0, "lon": -77.0505545, "name": "74f7766f3442980178127e51f5ee2ba4", "is_disabled": 0, "rental_uris": {"android": "https://dc.lft.to/lastmile_qr_scan", "ios": "https://dc.lft.to/lastmile_qr_scan"}, "type": "electric_scooter", "lat": 38.9242395, "is_reserved": 0, "fusion_lat": 0.0}, {"bike_id": "12374336641a038c6344a7e55b0da32d", "fusion_lon": 0.0, "lon": -76.95974666666666, "name": "12374336641a038c6344a7e55b0da32d", "is_disabled": 0, "rental_uris": {"android": "https://dc.lft.to/lastmile_qr_scan", "ios": "https://dc.lft.to/lastmile_qr_scan"}, "type": "electric_bike", "lat": 38.869994, "is_reserved": 0, "fusion_lat": 0.0}, {"bike_id": "cf0c6a56d6dd087bc67830e5288e4460", "fusion_lon": 0.0, "lon": -77.04466916666667, "name": "cf0c6a56d6dd087bc67830e5288e4460", "is_disabled": 0, "rental_uris": {"android": "https://dc.lft.to/lastmile_qr_scan", "ios": "https://dc.lft.to/lastmile_qr_scan"}, "type": "electric_scooter", "lat": 38.91124083333333, "is_reserved": 0, "fusion_lat": 0.0}, {"bike_id": "878b57b819da22a8c229c07c931f0efb", "fusion_lon": 0.0, "lon": -77.0417485, "name": "878b57b819da22a8c229c07c931f0efb", "is_disabled": 0, "rental_uris": {"android": "https://dc.lft.to/lastmile_qr_scan", "ios": "https://dc.lft.to/lastmile_qr_scan"}, "type": "electric_scooter", "lat": 38.91913316666667, "is_reserved": 0, "fusion_lat": 0.0}, {"bike_id": "b9afc5b6c270e64faf94dbc91945b23b", "fusion_lon": 0.0, "lon": -77.04177366666667, "name": "b9afc5b6c270e64faf94dbc91945b23b", "is_disabled": 0, "rental_uris": {"android": "https://dc.lft.to/lastmile_qr_scan", "ios": "https://dc.lft.to/lastmile_qr_scan"}, "type": "electric_scooter", "lat": 38.91733883333333, "is_reserved": 0, "fusion_lat": 0.0}, {"bike_id": "1483b7dbeab23b92f4fb5f2cae2ca2ca", "fusion_lon": 0.0, "lon": -77.02606966666667, "name": "1483b7dbeab23b92f4fb5f2cae2ca2ca", "is_disabled": 0, "rental_uris": {"android": "https://dc.lft.to/lastmile_qr_scan", "ios": "https://dc.lft.to/lastmile_qr_scan"}, "type": "electric_bike", "lat": 38.90261016666667, "is_reserved": 0, "fusion_lat": 0.0}, {"bike_id": "5aa9c645f2151a56641ec2077c4676f1", "fusion_lon": 0.0, "lon": -77.0312155, "name": "5aa9c645f2151a56641ec2077c4676f1", "is_disabled": 0, "rental_uris": {"android": "https://dc.lft.to/lastmile_qr_scan", "ios": "https://dc.lft.to/lastmile_qr_scan"}, "type": "electric_scooter", "lat": 38.92022216666667, "is_reserved": 0, "fusion_lat": 0.0}, {"bike_id": "8b6001d6f91a700b84abd8a0102edcf4", "fusion_lon": 0.0, "lon": -76.97950816666666, "name": "8b6001d6f91a700b84abd8a0102edcf4", "is_disabled": 0, "rental_uris": {"android": "https://dc.lft.to/lastmile_qr_scan", "ios": "https://dc.lft.to/lastmile_qr_scan"}, "type": "electric_bike", "lat": 38.89915366666666, "is_reserved": 0, "fusion_lat": 0.0}, {"bike_id": "e5ec235c3795f10e5094b2b956b34394", "fusion_lon": 0.0, "lon": -77.02811933333334, "name": "e5ec235c3795f10e5094b2b956b34394", "is_disabled": 0, "rental_uris": {"android": "https://dc.lft.to/lastmile_qr_scan", "ios": "https://dc.lft.to/lastmile_qr_scan"}, "type": "electric_scooter", "lat": 38.91691933333333, "is_reserved": 0, "fusion_lat": 0.0}, {"bike_id": "2d98e12173a384dcf42e601b1122ca06", "fusion_lon": 0.0, "lon": -76.949632, "name": "2d98e12173a384dcf42e601b1122ca06", "is_disabled": 0, "rental_uris": {"android": "https://dc.lft.to/lastmile_qr_scan", "ios": "https://dc.lft.to/lastmile_qr_scan"}, "type": "electric_scooter", "lat": 38.90494316666667, "is_reserved": 0, "fusion_lat": 0.0}, {"bike_id": "a394d38294511a455b3bd6b4e873b2f7", "fusion_lon": 0.0, "lon": -77.03831133333334, "name": "a394d38294511a455b3bd6b4e873b2f7", "is_disabled": 0, "rental_uris": {"android": "https://dc.lft.to/lastmile_qr_scan", "ios": "https://dc.lft.to/lastmile_qr_scan"}, "type": "electric_scooter", "lat": 38.918190833333334, "is_reserved": 0, "fusion_lat": 0.0}, {"bike_id": "aba7e25a86c99bbcad98fdccdb4b7595", "fusion_lon": 0.0, "lon": -77.03128233333334, "name": "aba7e25a86c99bbcad98fdccdb4b7595", "is_disabled": 0, "rental_uris": {"android": "https://dc.lft.to/lastmile_qr_scan", "ios": "https://dc.lft.to/lastmile_qr_scan"}, "type": "electric_scooter", "lat": 38.914965, "is_reserved": 0, "fusion_lat": 0.0}, {"bike_id": "bbf64f5bfc5673e827d531283bd0a81f", "fusion_lon": 0.0, "lon": -76.99012266666666, "name": "bbf64f5bfc5673e827d531283bd0a81f", "is_disabled": 0, "rental_uris": {"android": "https://dc.lft.to/lastmile_qr_scan", "ios": "https://dc.lft.to/lastmile_qr_scan"}, "type": "electric_scooter", "lat": 38.85886466666667, "is_reserved": 0, "fusion_lat": 0.0}, {"bike_id": "5ee8c706215d257ae74f4bb24ea88318", "fusion_lon": 0.0, "lon": -77.032583, "name": "5ee8c706215d257ae74f4bb24ea88318", "is_disabled": 0, "rental_uris": {"android": "https://dc.lft.to/lastmile_qr_scan", "ios": "https://dc.lft.to/lastmile_qr_scan"}, "type": "electric_scooter", "lat": 38.93739466666667, "is_reserved": 0, "fusion_lat": 0.0}, {"bike_id": "0bc815e73468673efee58fbe36e7e265", "fusion_lon": 0.0, "lon": -77.03846066666667, "name": "0bc815e73468673efee58fbe36e7e265", "is_disabled": 0, "rental_uris": {"android": "https://dc.lft.to/lastmile_qr_scan", "ios": "https://dc.lft.to/lastmile_qr_scan"}, "type": "electric_scooter", "lat": 38.91555666666667, "is_reserved": 0, "fusion_lat": 0.0}, {"bike_id": "7a5b67d2ba83bedee4555816a82b98e5", "fusion_lon": 0.0, "lon": -77.02407333333333, "name": "7a5b67d2ba83bedee4555816a82b98e5", "is_disabled": 0, "rental_uris": {"android": "https://dc.lft.to/lastmile_qr_scan", "ios": "https://dc.lft.to/lastmile_qr_scan"}, "type": "electric_scooter", "lat": 38.9570965, "is_reserved": 0, "fusion_lat": 0.0}, {"bike_id": "9a5c8cdaf05c3aec7b2960bdeaadebfa", "fusion_lon": 0.0, "lon": -77.0118705, "name": "9a5c8cdaf05c3aec7b2960bdeaadebfa", "is_disabled": 0, "rental_uris": {"android": "https://dc.lft.to/lastmile_qr_scan", "ios": "https://dc.lft.to/lastmile_qr_scan"}, "type": "electric_scooter", "lat": 38.9033335, "is_reserved": 0, "fusion_lat": 0.0}, {"bike_id": "5ea7a28e9b3200b3b963d2daef041bfc", "fusion_lon": 0.0, "lon": -77.02464433333333, "name": "5ea7a28e9b3200b3b963d2daef041bfc", "is_disabled": 0, "rental_uris": {"android": "https://dc.lft.to/lastmile_qr_scan", "ios": "https://dc.lft.to/lastmile_qr_scan"}, "type": "electric_scooter", "lat": 38.938817, "is_reserved": 0, "fusion_lat": 0.0}, {"bike_id": "8b9b881de6560e62941d00e157a88ee4", "fusion_lon": 0.0, "lon": -76.9866155, "name": "8b9b881de6560e62941d00e157a88ee4", "is_disabled": 0, "rental_uris": {"android": "https://dc.lft.to/lastmile_qr_scan", "ios": "https://dc.lft.to/lastmile_qr_scan"}, "type": "electric_scooter", "lat": 38.867332166666664, "is_reserved": 0, "fusion_lat": 0.0}, {"bike_id": "fa03c24055bb732c3117bd99eb319852", "fusion_lon": 0.0, "lon": -76.95501583333333, "name": "fa03c24055bb732c3117bd99eb319852", "is_disabled": 0, "rental_uris": {"android": "https://dc.lft.to/lastmile_qr_scan", "ios": "https://dc.lft.to/lastmile_qr_scan"}, "type": "electric_scooter", "lat": 38.88732266666667, "is_reserved": 0, "fusion_lat": 0.0}, {"bike_id": "add6fe96e0fb5e4e777ec5b137b4d23d", "fusion_lon": 0.0, "lon": -76.99601933333334, "name": "add6fe96e0fb5e4e777ec5b137b4d23d", "is_disabled": 0, "rental_uris": {"android": "https://dc.lft.to/lastmile_qr_scan", "ios": "https://dc.lft.to/lastmile_qr_scan"}, "type": "electric_scooter", "lat": 38.856958666666664, "is_reserved": 0, "fusion_lat": 0.0}, {"bike_id": "a325d2364cb3858db58c56d49942c9fe", "fusion_lon": 0.0, "lon": -77.04347683333333, "name": "a325d2364cb3858db58c56d49942c9fe", "is_disabled": 0, "rental_uris": {"android": "https://dc.lft.to/lastmile_qr_scan", "ios": "https://dc.lft.to/lastmile_qr_scan"}, "type": "electric_scooter", "lat": 38.912517333333334, "is_reserved": 0, "fusion_lat": 0.0}, {"bike_id": "2f8d301a31d54693d31b6819d39e7cdd", "fusion_lon": 0.0, "lon": -76.95743, "name": "2f8d301a31d54693d31b6819d39e7cdd", "is_disabled": 0, "rental_uris": {"android": "https://dc.lft.to/lastmile_qr_scan", "ios": "https://dc.lft.to/lastmile_qr_scan"}, "type": "electric_scooter", "lat": 38.896324166666666, "is_reserved": 0, "fusion_lat": 0.0}, {"bike_id": "b8928512196ebd8aadfc435d9bee4f22", "fusion_lon": 0.0, "lon": -77.02966733333334, "name": "b8928512196ebd8aadfc435d9bee4f22", "is_disabled": 0, "rental_uris": {"android": "https://dc.lft.to/lastmile_qr_scan", "ios": "https://dc.lft.to/lastmile_qr_scan"}, "type": "electric_scooter", "lat": 38.916889, "is_reserved": 0, "fusion_lat": 0.0}, {"bike_id": "f035f932378bed5e54f00c1f6d06af23", "fusion_lon": 0.0, "lon": -77.04495233333333, "name": "f035f932378bed5e54f00c1f6d06af23", "is_disabled": 0, "rental_uris": {"android": "https://dc.lft.to/lastmile_qr_scan", "ios": "https://dc.lft.to/lastmile_qr_scan"}, "type": "electric_scooter", "lat": 38.9109825, "is_reserved": 0, "fusion_lat": 0.0}, {"bike_id": "ce52dc63984377fc110d564df69e84ae", "fusion_lon": 0.0, "lon": -77.03280616666666, "name": "ce52dc63984377fc110d564df69e84ae", "is_disabled": 0, "rental_uris": {"android": "https://dc.lft.to/lastmile_qr_scan", "ios": "https://dc.lft.to/lastmile_qr_scan"}, "type": "electric_scooter", "lat": 38.929376, "is_reserved": 0, "fusion_lat": 0.0}, {"bike_id": "0740ba35391663598ff7eb8095ff740e", "fusion_lon": 0.0, "lon": -77.04355283333334, "name": "0740ba35391663598ff7eb8095ff740e", "is_disabled": 0, "rental_uris": {"android": "https://dc.lft.to/lastmile_qr_scan", "ios": "https://dc.lft.to/lastmile_qr_scan"}, "type": "electric_scooter", "lat": 38.903415333333335, "is_reserved": 0, "fusion_lat": 0.0}, {"bike_id": "fca658e2b88c8af4281850bb79deca52", "fusion_lon": 0.0, "lon": -77.01779716666667, "name": "fca658e2b88c8af4281850bb79deca52", "is_disabled": 0, "rental_uris": {"android": "https://dc.lft.to/lastmile_qr_scan", "ios": "https://dc.lft.to/lastmile_qr_scan"}, "type": "electric_scooter", "lat": 38.90781883333333, "is_reserved": 0, "fusion_lat": 0.0}, {"bike_id": "0c6eda6111f0a4ec4e2b9b1cfb8a59ca", "fusion_lon": 0.0, "lon": -77.005379, "name": "0c6eda6111f0a4ec4e2b9b1cfb8a59ca", "is_disabled": 0, "rental_uris": {"android": "https://dc.lft.to/lastmile_qr_scan", "ios": "https://dc.lft.to/lastmile_qr_scan"}, "type": "electric_scooter", "lat": 38.875478333333334, "is_reserved": 0, "fusion_lat": 0.0}, {"bike_id": "ac5ab7e8eb3a0882864186e76688058b", "fusion_lon": 0.0, "lon": -77.02478583333334, "name": "ac5ab7e8eb3a0882864186e76688058b", "is_disabled": 0, "rental_uris": {"android": "https://dc.lft.to/lastmile_qr_scan", "ios": "https://dc.lft.to/lastmile_qr_scan"}, "type": "electric_scooter", "lat": 38.918164, "is_reserved": 0, "fusion_lat": 0.0}, {"bike_id": "515b57668173864e49585de20c348b40", "fusion_lon": 0.0, "lon": -76.9518495, "name": "515b57668173864e49585de20c348b40", "is_disabled": 0, "rental_uris": {"android": "https://dc.lft.to/lastmile_qr_scan", "ios": "https://dc.lft.to/lastmile_qr_scan"}, "type": "electric_scooter", "lat": 38.907421, "is_reserved": 0, "fusion_lat": 0.0}, {"bike_id": "d3c2f45de01de7901fe5d74806fd97b0", "fusion_lon": 0.0, "lon": -77.03563966666667, "name": "d3c2f45de01de7901fe5d74806fd97b0", "is_disabled": 0, "rental_uris": {"android": "https://dc.lft.to/lastmile_qr_scan", "ios": "https://dc.lft.to/lastmile_qr_scan"}, "type": "electric_scooter", "lat": 38.90843233333333, "is_reserved": 0, "fusion_lat": 0.0}, {"bike_id": "61d7774fa0827f3f3b686baac8caa270", "fusion_lon": 0.0, "lon": -77.02360033333333, "name": "61d7774fa0827f3f3b686baac8caa270", "is_disabled": 0, "rental_uris": {"android": "https://dc.lft.to/lastmile_qr_scan", "ios": "https://dc.lft.to/lastmile_qr_scan"}, "type": "electric_scooter", "lat": 38.925161833333334, "is_reserved": 0, "fusion_lat": 0.0}, {"bike_id": "02f871ee9c785c2911ec37d780a336e9", "fusion_lon": 0.0, "lon": -77.0819535, "name": "02f871ee9c785c2911ec37d780a336e9", "is_disabled": 0, "rental_uris": {"android": "https://dc.lft.to/lastmile_qr_scan", "ios": "https://dc.lft.to/lastmile_qr_scan"}, "type": "electric_bike", "lat": 38.8556715, "is_reserved": 0, "fusion_lat": 0.0}, {"bike_id": "6a7ed544e10d5378b6329fa3ad9ce4a8", "fusion_lon": 0.0, "lon": -77.00570916666666, "name": "6a7ed544e10d5378b6329fa3ad9ce4a8", "is_disabled": 0, "rental_uris": {"android": "https://dc.lft.to/lastmile_qr_scan", "ios": "https://dc.lft.to/lastmile_qr_scan"}, "type": "electric_scooter", "lat": 38.8850705, "is_reserved": 0, "fusion_lat": 0.0}, {"bike_id": "33762b138a23a9c3a5fd57f69c0b9c63", "fusion_lon": 0.0, "lon": -76.93737716666666, "name": "33762b138a23a9c3a5fd57f69c0b9c63", "is_disabled": 0, "rental_uris": {"android": "https://dc.lft.to/lastmile_qr_scan", "ios": "https://dc.lft.to/lastmile_qr_scan"}, "type": "electric_scooter", "lat": 38.89019316666667, "is_reserved": 0, "fusion_lat": 0.0}, {"bike_id": "b7d7319fabfc7fc0a54881f0bc440baa", "fusion_lon": 0.0, "lon": -77.00139766666666, "name": "b7d7319fabfc7fc0a54881f0bc440baa", "is_disabled": 0, "rental_uris": {"android": "https://dc.lft.to/lastmile_qr_scan", "ios": "https://dc.lft.to/lastmile_qr_scan"}, "type": "electric_scooter", "lat": 38.905188833333334, "is_reserved": 0, "fusion_lat": 0.0}, {"bike_id": "4be5c4d5ed2057b310ea0341052ed9b6", "fusion_lon": 0.0, "lon": -76.98978983333333, "name": "4be5c4d5ed2057b310ea0341052ed9b6", "is_disabled": 0, "rental_uris": {"android": "https://dc.lft.to/lastmile_qr_scan", "ios": "https://dc.lft.to/lastmile_qr_scan"}, "type": "electric_scooter", "lat": 38.86512533333333, "is_reserved": 0, "fusion_lat": 0.0}, {"bike_id": "315fac66cddfc01b5675a16cc5d7467f", "fusion_lon": 0.0, "lon": -77.04407383333333, "name": "315fac66cddfc01b5675a16cc5d7467f", "is_disabled": 0, "rental_uris": {"android": "https://dc.lft.to/lastmile_qr_scan", "ios": "https://dc.lft.to/lastmile_qr_scan"}, "type": "electric_scooter", "lat": 38.9207525, "is_reserved": 0, "fusion_lat": 0.0}, {"bike_id": "310fd33f0a64bcfbc0f69486afb1e3c2", "fusion_lon": 0.0, "lon": -77.04180016666666, "name": "310fd33f0a64bcfbc0f69486afb1e3c2", "is_disabled": 0, "rental_uris": {"android": "https://dc.lft.to/lastmile_qr_scan", "ios": "https://dc.lft.to/lastmile_qr_scan"}, "type": "electric_scooter", "lat": 38.90577733333333, "is_reserved": 0, "fusion_lat": 0.0}, {"bike_id": "af0c174e60a585a267f27236898bf418", "fusion_lon": 0.0, "lon": -77.0353735, "name": "af0c174e60a585a267f27236898bf418", "is_disabled": 0, "rental_uris": {"android": "https://dc.lft.to/lastmile_qr_scan", "ios": "https://dc.lft.to/lastmile_qr_scan"}, "type": "electric_scooter", "lat": 38.92473833333333, "is_reserved": 0, "fusion_lat": 0.0}, {"bike_id": "f08677d60a40b70c24775f6d920a1f5a", "fusion_lon": 0.0, "lon": -77.03324133333334, "name": "f08677d60a40b70c24775f6d920a1f5a", "is_disabled": 0, "rental_uris": {"android": "https://dc.lft.to/lastmile_qr_scan", "ios": "https://dc.lft.to/lastmile_qr_scan"}, "type": "electric_scooter", "lat": 38.92164983333333, "is_reserved": 0, "fusion_lat": 0.0}, {"bike_id": "7d8cbaaf6c836ad5515ba2c1564f3705", "fusion_lon": 0.0, "lon": -77.01764566666667, "name": "7d8cbaaf6c836ad5515ba2c1564f3705", "is_disabled": 0, "rental_uris": {"android": "https://dc.lft.to/lastmile_qr_scan", "ios": "https://dc.lft.to/lastmile_qr_scan"}, "type": "electric_scooter", "lat": 38.90252066666667, "is_reserved": 0, "fusion_lat": 0.0}, {"bike_id": "ba86adce2e269feaecae4fe3ac131b80", "fusion_lon": 0.0, "lon": -77.15826816666667, "name": "ba86adce2e269feaecae4fe3ac131b80", "is_disabled": 0, "rental_uris": {"android": "https://dc.lft.to/lastmile_qr_scan", "ios": "https://dc.lft.to/lastmile_qr_scan"}, "type": "electric_bike", "lat": 38.89452383333333, "is_reserved": 0, "fusion_lat": 0.0}, {"bike_id": "59167e7f0a46d3afdb14efbe17646b6e", "fusion_lon": 0.0, "lon": -77.05860166666666, "name": "59167e7f0a46d3afdb14efbe17646b6e", "is_disabled": 0, "rental_uris": {"android": "https://dc.lft.to/lastmile_qr_scan", "ios": "https://dc.lft.to/lastmile_qr_scan"}, "type": "electric_scooter", "lat": 38.936082666666664, "is_reserved": 0, "fusion_lat": 0.0}, {"bike_id": "327e0e74718a7c53f1eb0928cf7295f9", "fusion_lon": 0.0, "lon": -76.99032883333334, "name": "327e0e74718a7c53f1eb0928cf7295f9", "is_disabled": 0, "rental_uris": {"android": "https://dc.lft.to/lastmile_qr_scan", "ios": "https://dc.lft.to/lastmile_qr_scan"}, "type": "electric_scooter", "lat": 38.86377683333333, "is_reserved": 0, "fusion_lat": 0.0}, {"bike_id": "acafd83625e3f8df869d7da754600fe3", "fusion_lon": 0.0, "lon": -77.065232, "name": "acafd83625e3f8df869d7da754600fe3", "is_disabled": 0, "rental_uris": {"android": "https://dc.lft.to/lastmile_qr_scan", "ios": "https://dc.lft.to/lastmile_qr_scan"}, "type": "electric_scooter", "lat": 38.9058845, "is_reserved": 0, "fusion_lat": 0.0}, {"bike_id": "2f00875967289a6402406524543c8fc8", "fusion_lon": 0.0, "lon": -77.040855, "name": "2f00875967289a6402406524543c8fc8", "is_disabled": 0, "rental_uris": {"android": "https://dc.lft.to/lastmile_qr_scan", "ios": "https://dc.lft.to/lastmile_qr_scan"}, "type": "electric_scooter", "lat": 38.923967, "is_reserved": 0, "fusion_lat": 0.0}, {"bike_id": "1e5048a226b66ced13f5f7e6f6b1a889", "fusion_lon": 0.0, "lon": -77.0282735, "name": "1e5048a226b66ced13f5f7e6f6b1a889", "is_disabled": 0, "rental_uris": {"android": "https://dc.lft.to/lastmile_qr_scan", "ios": "https://dc.lft.to/lastmile_qr_scan"}, "type": "electric_scooter", "lat": 38.894980833333335, "is_reserved": 0, "fusion_lat": 0.0}, {"bike_id": "e7fe93fe659b4bd52081fd514d2dc7b4", "fusion_lon": 0.0, "lon": -76.99368966666667, "name": "e7fe93fe659b4bd52081fd514d2dc7b4", "is_disabled": 0, "rental_uris": {"android": "https://dc.lft.to/lastmile_qr_scan", "ios": "https://dc.lft.to/lastmile_qr_scan"}, "type": "electric_scooter", "lat": 38.92842233333333, "is_reserved": 0, "fusion_lat": 0.0}, {"bike_id": "4da152a9daadd469d3c03df27af16d5e", "fusion_lon": 0.0, "lon": -77.03166466666667, "name": "4da152a9daadd469d3c03df27af16d5e", "is_disabled": 0, "rental_uris": {"android": "https://dc.lft.to/lastmile_qr_scan", "ios": "https://dc.lft.to/lastmile_qr_scan"}, "type": "electric_scooter", "lat": 38.89221833333333, "is_reserved": 0, "fusion_lat": 0.0}, {"bike_id": "435aed251d9a6706841cacb2a96723c2", "fusion_lon": 0.0, "lon": -77.03220383333333, "name": "435aed251d9a6706841cacb2a96723c2", "is_disabled": 0, "rental_uris": {"android": "https://dc.lft.to/lastmile_qr_scan", "ios": "https://dc.lft.to/lastmile_qr_scan"}, "type": "electric_scooter", "lat": 38.915676, "is_reserved": 0, "fusion_lat": 0.0}, {"bike_id": "985dbec4d6ddc5961277cd77d62f929e", "fusion_lon": 0.0, "lon": -76.98769716666666, "name": "985dbec4d6ddc5961277cd77d62f929e", "is_disabled": 0, "rental_uris": {"android": "https://dc.lft.to/lastmile_qr_scan", "ios": "https://dc.lft.to/lastmile_qr_scan"}, "type": "electric_bike", "lat": 38.85770933333333, "is_reserved": 0, "fusion_lat": 0.0}, {"bike_id": "92677ce8f428bdf99e49ecae0a728af8", "fusion_lon": 0.0, "lon": -77.03209683333333, "name": "92677ce8f428bdf99e49ecae0a728af8", "is_disabled": 0, "rental_uris": {"android": "https://dc.lft.to/lastmile_qr_scan", "ios": "https://dc.lft.to/lastmile_qr_scan"}, "type": "electric_scooter", "lat": 38.89534466666667, "is_reserved": 0, "fusion_lat": 0.0}, {"bike_id": "166233905b65ac2457561754d23bf67e", "fusion_lon": 0.0, "lon": -76.9843335, "name": "166233905b65ac2457561754d23bf67e", "is_disabled": 0, "rental_uris": {"android": "https://dc.lft.to/lastmile_qr_scan", "ios": "https://dc.lft.to/lastmile_qr_scan"}, "type": "electric_bike", "lat": 38.855146833333336, "is_reserved": 0, "fusion_lat": 0.0}, {"bike_id": "af00c61e322c719d722161fb8caef39f", "fusion_lon": 0.0, "lon": -77.04979866666666, "name": "af00c61e322c719d722161fb8caef39f", "is_disabled": 0, "rental_uris": {"android": "https://dc.lft.to/lastmile_qr_scan", "ios": "https://dc.lft.to/lastmile_qr_scan"}, "type": "electric_bike", "lat": 39.062963833333335, "is_reserved": 0, "fusion_lat": 0.0}, {"bike_id": "823b7813d68cf0836b8292b5d5d6f4a7", "fusion_lon": 0.0, "lon": -77.0395575, "name": "823b7813d68cf0836b8292b5d5d6f4a7", "is_disabled": 0, "rental_uris": {"android": "https://dc.lft.to/lastmile_qr_scan", "ios": "https://dc.lft.to/lastmile_qr_scan"}, "type": "electric_scooter", "lat": 38.90254, "is_reserved": 0, "fusion_lat": 0.0}, {"bike_id": "9ccd8cacf612dfec3cb50d4ed09c513f", "fusion_lon": 0.0, "lon": -77.0254625, "name": "9ccd8cacf612dfec3cb50d4ed09c513f", "is_disabled": 0, "rental_uris": {"android": "https://dc.lft.to/lastmile_qr_scan", "ios": "https://dc.lft.to/lastmile_qr_scan"}, "type": "electric_scooter", "lat": 38.916414333333336, "is_reserved": 0, "fusion_lat": 0.0}, {"bike_id": "b596525ad10daba6d8db2e4b16f4360d", "fusion_lon": 0.0, "lon": -77.0089115, "name": "b596525ad10daba6d8db2e4b16f4360d", "is_disabled": 0, "rental_uris": {"android": "https://dc.lft.to/lastmile_qr_scan", "ios": "https://dc.lft.to/lastmile_qr_scan"}, "type": "electric_scooter", "lat": 38.9249125, "is_reserved": 0, "fusion_lat": 0.0}, {"bike_id": "e3621fb8fcdd3dc2e158a0712e35436d", "fusion_lon": 0.0, "lon": -77.028049, "name": "e3621fb8fcdd3dc2e158a0712e35436d", "is_disabled": 0, "rental_uris": {"android": "https://dc.lft.to/lastmile_qr_scan", "ios": "https://dc.lft.to/lastmile_qr_scan"}, "type": "electric_scooter", "lat": 38.962393666666664, "is_reserved": 0, "fusion_lat": 0.0}, {"bike_id": "367942cba31f36c03a3eda7127a26618", "fusion_lon": 0.0, "lon": -77.03971316666667, "name": "367942cba31f36c03a3eda7127a26618", "is_disabled": 0, "rental_uris": {"android": "https://dc.lft.to/lastmile_qr_scan", "ios": "https://dc.lft.to/lastmile_qr_scan"}, "type": "electric_scooter", "lat": 38.89638883333333, "is_reserved": 0, "fusion_lat": 0.0}, {"bike_id": "ab5de77dd4b6ea62296c0c14617756d8", "fusion_lon": 0.0, "lon": -77.05756266666667, "name": "ab5de77dd4b6ea62296c0c14617756d8", "is_disabled": 0, "rental_uris": {"android": "https://dc.lft.to/lastmile_qr_scan", "ios": "https://dc.lft.to/lastmile_qr_scan"}, "type": "electric_scooter", "lat": 38.925027, "is_reserved": 0, "fusion_lat": 0.0}, {"bike_id": "a628384f8b524a651b84944b5e87938e", "fusion_lon": 0.0, "lon": -77.00242166666666, "name": "a628384f8b524a651b84944b5e87938e", "is_disabled": 0, "rental_uris": {"android": "https://dc.lft.to/lastmile_qr_scan", "ios": "https://dc.lft.to/lastmile_qr_scan"}, "type": "electric_scooter", "lat": 38.8851645, "is_reserved": 0, "fusion_lat": 0.0}, {"bike_id": "19c87efa6796b4630f7401ce8472ba67", "fusion_lon": 0.0, "lon": -77.0320905, "name": "19c87efa6796b4630f7401ce8472ba67", "is_disabled": 0, "rental_uris": {"android": "https://dc.lft.to/lastmile_qr_scan", "ios": "https://dc.lft.to/lastmile_qr_scan"}, "type": "electric_scooter", "lat": 38.90925216666667, "is_reserved": 0, "fusion_lat": 0.0}, {"bike_id": "7cad9ce2e233d92d3249b1d96001db81", "fusion_lon": 0.0, "lon": -77.04176866666667, "name": "7cad9ce2e233d92d3249b1d96001db81", "is_disabled": 0, "rental_uris": {"android": "https://dc.lft.to/lastmile_qr_scan", "ios": "https://dc.lft.to/lastmile_qr_scan"}, "type": "electric_scooter", "lat": 38.917352, "is_reserved": 0, "fusion_lat": 0.0}, {"bike_id": "5ba9c17e4a3a113f08fa82892a13e478", "fusion_lon": 0.0, "lon": -77.03262766666667, "name": "5ba9c17e4a3a113f08fa82892a13e478", "is_disabled": 0, "rental_uris": {"android": "https://dc.lft.to/lastmile_qr_scan", "ios": "https://dc.lft.to/lastmile_qr_scan"}, "type": "electric_scooter", "lat": 38.93894683333333, "is_reserved": 0, "fusion_lat": 0.0}, {"bike_id": "f919f33f80a7c2932de0343c13b77bc1", "fusion_lon": 0.0, "lon": -76.98379083333333, "name": "f919f33f80a7c2932de0343c13b77bc1", "is_disabled": 0, "rental_uris": {"android": "https://dc.lft.to/lastmile_qr_scan", "ios": "https://dc.lft.to/lastmile_qr_scan"}, "type": "electric_scooter", "lat": 38.861213666666664, "is_reserved": 0, "fusion_lat": 0.0}, {"bike_id": "e02f3a20e9e7e48566283566afeb7a3d", "fusion_lon": 0.0, "lon": -77.06351866666667, "name": "e02f3a20e9e7e48566283566afeb7a3d", "is_disabled": 0, "rental_uris": {"android": "https://dc.lft.to/lastmile_qr_scan", "ios": "https://dc.lft.to/lastmile_qr_scan"}, "type": "electric_scooter", "lat": 38.9444975, "is_reserved": 0, "fusion_lat": 0.0}, {"bike_id": "b4ddefcdd3736780bf7eb2a4c5113f39", "fusion_lon": 0.0, "lon": -76.9953185, "name": "b4ddefcdd3736780bf7eb2a4c5113f39", "is_disabled": 0, "rental_uris": {"android": "https://dc.lft.to/lastmile_qr_scan", "ios": "https://dc.lft.to/lastmile_qr_scan"}, "type": "electric_scooter", "lat": 38.86250116666667, "is_reserved": 0, "fusion_lat": 0.0}, {"bike_id": "56a4988c625560d20c57229d03e84c22", "fusion_lon": 0.0, "lon": -77.01199966666667, "name": "56a4988c625560d20c57229d03e84c22", "is_disabled": 0, "rental_uris": {"android": "https://dc.lft.to/lastmile_qr_scan", "ios": "https://dc.lft.to/lastmile_qr_scan"}, "type": "electric_scooter", "lat": 38.90014933333333, "is_reserved": 0, "fusion_lat": 0.0}, {"bike_id": "0f5d17b26490b47dfc517c5b8215cece", "fusion_lon": 0.0, "lon": -76.997017, "name": "0f5d17b26490b47dfc517c5b8215cece", "is_disabled": 0, "rental_uris": {"android": "https://dc.lft.to/lastmile_qr_scan", "ios": "https://dc.lft.to/lastmile_qr_scan"}, "type": "electric_scooter", "lat": 38.884267666666666, "is_reserved": 0, "fusion_lat": 0.0}, {"bike_id": "59e08183f8b3f994517637edd476f776", "fusion_lon": 0.0, "lon": -77.01802383333333, "name": "59e08183f8b3f994517637edd476f776", "is_disabled": 0, "rental_uris": {"android": "https://dc.lft.to/lastmile_qr_scan", "ios": "https://dc.lft.to/lastmile_qr_scan"}, "type": "electric_scooter", "lat": 38.876752, "is_reserved": 0, "fusion_lat": 0.0}, {"bike_id": "4e03f52ad08c00d08a5db69131932510", "fusion_lon": 0.0, "lon": -76.98115433333334, "name": "4e03f52ad08c00d08a5db69131932510", "is_disabled": 0, "rental_uris": {"android": "https://dc.lft.to/lastmile_qr_scan", "ios": "https://dc.lft.to/lastmile_qr_scan"}, "type": "electric_scooter", "lat": 38.9147085, "is_reserved": 0, "fusion_lat": 0.0}, {"bike_id": "5880f78e3cde11e73bc0fcd94685ee2e", "fusion_lon": 0.0, "lon": -77.03190783333334, "name": "5880f78e3cde11e73bc0fcd94685ee2e", "is_disabled": 0, "rental_uris": {"android": "https://dc.lft.to/lastmile_qr_scan", "ios": "https://dc.lft.to/lastmile_qr_scan"}, "type": "electric_scooter", "lat": 38.92389416666666, "is_reserved": 0, "fusion_lat": 0.0}, {"bike_id": "4c9a23597c7afdceb03e1e93640a2853", "fusion_lon": 0.0, "lon": -77.02200283333333, "name": "4c9a23597c7afdceb03e1e93640a2853", "is_disabled": 0, "rental_uris": {"android": "https://dc.lft.to/lastmile_qr_scan", "ios": "https://dc.lft.to/lastmile_qr_scan"}, "type": "electric_scooter", "lat": 38.91104283333333, "is_reserved": 0, "fusion_lat": 0.0}, {"bike_id": "131edbc0454d9f577ad626eb9cbf632d", "fusion_lon": 0.0, "lon": -77.03131233333333, "name": "131edbc0454d9f577ad626eb9cbf632d", "is_disabled": 0, "rental_uris": {"android": "https://dc.lft.to/lastmile_qr_scan", "ios": "https://dc.lft.to/lastmile_qr_scan"}, "type": "electric_scooter", "lat": 38.92375766666667, "is_reserved": 0, "fusion_lat": 0.0}, {"bike_id": "ce3ee77fb6692339a8cda77f00f1a724", "fusion_lon": 0.0, "lon": -77.04418066666666, "name": "ce3ee77fb6692339a8cda77f00f1a724", "is_disabled": 0, "rental_uris": {"android": "https://dc.lft.to/lastmile_qr_scan", "ios": "https://dc.lft.to/lastmile_qr_scan"}, "type": "electric_scooter", "lat": 38.917868666666664, "is_reserved": 0, "fusion_lat": 0.0}, {"bike_id": "dd37f5b02ef08ef5e6c85f5f038467ca", "fusion_lon": 0.0, "lon": -77.0416225, "name": "dd37f5b02ef08ef5e6c85f5f038467ca", "is_disabled": 0, "rental_uris": {"android": "https://dc.lft.to/lastmile_qr_scan", "ios": "https://dc.lft.to/lastmile_qr_scan"}, "type": "electric_scooter", "lat": 38.9149215, "is_reserved": 0, "fusion_lat": 0.0}, {"bike_id": "6a11e1c8dd86d9b47e495bb66b72f165", "fusion_lon": 0.0, "lon": -77.0366055, "name": "6a11e1c8dd86d9b47e495bb66b72f165", "is_disabled": 0, "rental_uris": {"android": "https://dc.lft.to/lastmile_qr_scan", "ios": "https://dc.lft.to/lastmile_qr_scan"}, "type": "electric_scooter", "lat": 38.9229305, "is_reserved": 0, "fusion_lat": 0.0}, {"bike_id": "54f8e885205a058086f0d451d376b8c1", "fusion_lon": 0.0, "lon": -77.017141, "name": "54f8e885205a058086f0d451d376b8c1", "is_disabled": 0, "rental_uris": {"android": "https://dc.lft.to/lastmile_qr_scan", "ios": "https://dc.lft.to/lastmile_qr_scan"}, "type": "electric_scooter", "lat": 38.917494166666664, "is_reserved": 0, "fusion_lat": 0.0}, {"bike_id": "b8def9f5ac78522420563e9e4663d134", "fusion_lon": 0.0, "lon": -76.98327766666667, "name": "b8def9f5ac78522420563e9e4663d134", "is_disabled": 0, "rental_uris": {"android": "https://dc.lft.to/lastmile_qr_scan", "ios": "https://dc.lft.to/lastmile_qr_scan"}, "type": "electric_scooter", "lat": 38.9087265, "is_reserved": 0, "fusion_lat": 0.0}, {"bike_id": "0bf825476624c57f122fe26202642808", "fusion_lon": 0.0, "lon": -77.0346985, "name": "0bf825476624c57f122fe26202642808", "is_disabled": 0, "rental_uris": {"android": "https://dc.lft.to/lastmile_qr_scan", "ios": "https://dc.lft.to/lastmile_qr_scan"}, "type": "electric_scooter", "lat": 38.90466266666667, "is_reserved": 0, "fusion_lat": 0.0}, {"bike_id": "8b2c6bb12a02d8478807659afb653f6b", "fusion_lon": 0.0, "lon": -77.0405, "name": "8b2c6bb12a02d8478807659afb653f6b", "is_disabled": 0, "rental_uris": {"android": "https://dc.lft.to/lastmile_qr_scan", "ios": "https://dc.lft.to/lastmile_qr_scan"}, "type": "electric_scooter", "lat": 38.9001245, "is_reserved": 0, "fusion_lat": 0.0}, {"bike_id": "74f30ad75a48f3c6ae0f8ff91ec7c6f3", "fusion_lon": 0.0, "lon": -77.0461345, "name": "74f30ad75a48f3c6ae0f8ff91ec7c6f3", "is_disabled": 0, "rental_uris": {"android": "https://dc.lft.to/lastmile_qr_scan", "ios": "https://dc.lft.to/lastmile_qr_scan"}, "type": "electric_scooter", "lat": 38.919374166666664, "is_reserved": 0, "fusion_lat": 0.0}, {"bike_id": "4ac0a60b3059167f8e3790b9f0e59583", "fusion_lon": 0.0, "lon": -77.08280533333334, "name": "4ac0a60b3059167f8e3790b9f0e59583", "is_disabled": 0, "rental_uris": {"android": "https://dc.lft.to/lastmile_qr_scan", "ios": "https://dc.lft.to/lastmile_qr_scan"}, "type": "electric_scooter", "lat": 38.93021066666667, "is_reserved": 0, "fusion_lat": 0.0}, {"bike_id": "7ac1c2da6bcf6ed53748ac1359c97b9c", "fusion_lon": 0.0, "lon": -77.03331133333333, "name": "7ac1c2da6bcf6ed53748ac1359c97b9c", "is_disabled": 0, "rental_uris": {"android": "https://dc.lft.to/lastmile_qr_scan", "ios": "https://dc.lft.to/lastmile_qr_scan"}, "type": "electric_scooter", "lat": 38.928899666666666, "is_reserved": 0, "fusion_lat": 0.0}, {"bike_id": "f67f18865cb09b4633a463a2ca6817a8", "fusion_lon": 0.0, "lon": -76.99699716666667, "name": "f67f18865cb09b4633a463a2ca6817a8", "is_disabled": 0, "rental_uris": {"android": "https://dc.lft.to/lastmile_qr_scan", "ios": "https://dc.lft.to/lastmile_qr_scan"}, "type": "electric_scooter", "lat": 38.9083885, "is_reserved": 0, "fusion_lat": 0.0}, {"bike_id": "b8912b35c5a351d84288abe83a5f27b8", "fusion_lon": 0.0, "lon": -77.02495816666666, "name": "b8912b35c5a351d84288abe83a5f27b8", "is_disabled": 0, "rental_uris": {"android": "https://dc.lft.to/lastmile_qr_scan", "ios": "https://dc.lft.to/lastmile_qr_scan"}, "type": "electric_scooter", "lat": 38.94188966666667, "is_reserved": 0, "fusion_lat": 0.0}, {"bike_id": "901375c857ef1bfca949a261f8eef82e", "fusion_lon": 0.0, "lon": -77.0347685, "name": "901375c857ef1bfca949a261f8eef82e", "is_disabled": 0, "rental_uris": {"android": "https://dc.lft.to/lastmile_qr_scan", "ios": "https://dc.lft.to/lastmile_qr_scan"}, "type": "electric_scooter", "lat": 38.92484783333333, "is_reserved": 0, "fusion_lat": 0.0}, {"bike_id": "b3a762bb9ff571feb609167ccfcc3c62", "fusion_lon": 0.0, "lon": -76.93740016666666, "name": "b3a762bb9ff571feb609167ccfcc3c62", "is_disabled": 0, "rental_uris": {"android": "https://dc.lft.to/lastmile_qr_scan", "ios": "https://dc.lft.to/lastmile_qr_scan"}, "type": "electric_scooter", "lat": 38.89017283333333, "is_reserved": 0, "fusion_lat": 0.0}, {"bike_id": "b6de391efbcc0788019ce9394de3020c", "fusion_lon": 0.0, "lon": -77.03321583333333, "name": "b6de391efbcc0788019ce9394de3020c", "is_disabled": 0, "rental_uris": {"android": "https://dc.lft.to/lastmile_qr_scan", "ios": "https://dc.lft.to/lastmile_qr_scan"}, "type": "electric_scooter", "lat": 38.90361466666667, "is_reserved": 0, "fusion_lat": 0.0}, {"bike_id": "d3db0428e2d8c254bede660af4517d48", "fusion_lon": 0.0, "lon": -77.0455485, "name": "d3db0428e2d8c254bede660af4517d48", "is_disabled": 0, "rental_uris": {"android": "https://dc.lft.to/lastmile_qr_scan", "ios": "https://dc.lft.to/lastmile_qr_scan"}, "type": "electric_scooter", "lat": 38.92422883333333, "is_reserved": 0, "fusion_lat": 0.0}, {"bike_id": "011900c03b9434bddb8d57e5830c4c24", "fusion_lon": 0.0, "lon": -76.9463275, "name": "011900c03b9434bddb8d57e5830c4c24", "is_disabled": 0, "rental_uris": {"android": "https://dc.lft.to/lastmile_qr_scan", "ios": "https://dc.lft.to/lastmile_qr_scan"}, "type": "electric_scooter", "lat": 38.898457, "is_reserved": 0, "fusion_lat": 0.0}, {"bike_id": "8d5034ba6bab966782466c68ca7ff27a", "fusion_lon": 0.0, "lon": -76.9995005, "name": "8d5034ba6bab966782466c68ca7ff27a", "is_disabled": 0, "rental_uris": {"android": "https://dc.lft.to/lastmile_qr_scan", "ios": "https://dc.lft.to/lastmile_qr_scan"}, "type": "electric_scooter", "lat": 38.842944833333334, "is_reserved": 0, "fusion_lat": 0.0}, {"bike_id": "7455ce0b3b80bde0ad41f328d48eef5c", "fusion_lon": 0.0, "lon": -77.03918133333333, "name": "7455ce0b3b80bde0ad41f328d48eef5c", "is_disabled": 0, "rental_uris": {"android": "https://dc.lft.to/lastmile_qr_scan", "ios": "https://dc.lft.to/lastmile_qr_scan"}, "type": "electric_scooter", "lat": 38.91558033333333, "is_reserved": 0, "fusion_lat": 0.0}, {"bike_id": "80d7292fac522cafdba21431d38913ad", "fusion_lon": 0.0, "lon": -77.0324765, "name": "80d7292fac522cafdba21431d38913ad", "is_disabled": 0, "rental_uris": {"android": "https://dc.lft.to/lastmile_qr_scan", "ios": "https://dc.lft.to/lastmile_qr_scan"}, "type": "electric_scooter", "lat": 38.92926633333333, "is_reserved": 0, "fusion_lat": 0.0}, {"bike_id": "4c97b9b5114c759937091e202d82a2f0", "fusion_lon": 0.0, "lon": -77.06714316666667, "name": "4c97b9b5114c759937091e202d82a2f0", "is_disabled": 0, "rental_uris": {"android": "https://dc.lft.to/lastmile_qr_scan", "ios": "https://dc.lft.to/lastmile_qr_scan"}, "type": "electric_scooter", "lat": 38.950139666666665, "is_reserved": 0, "fusion_lat": 0.0}, {"bike_id": "aaeed0321c1aeed4d459d4d90243c86e", "fusion_lon": 0.0, "lon": -77.04681933333333, "name": "aaeed0321c1aeed4d459d4d90243c86e", "is_disabled": 0, "rental_uris": {"android": "https://dc.lft.to/lastmile_qr_scan", "ios": "https://dc.lft.to/lastmile_qr_scan"}, "type": "electric_scooter", "lat": 38.89511683333333, "is_reserved": 0, "fusion_lat": 0.0}, {"bike_id": "8f1ca71fb251cdff406dd379738dfd6d", "fusion_lon": 0.0, "lon": -76.98399566666667, "name": "8f1ca71fb251cdff406dd379738dfd6d", "is_disabled": 0, "rental_uris": {"android": "https://dc.lft.to/lastmile_qr_scan", "ios": "https://dc.lft.to/lastmile_qr_scan"}, "type": "electric_scooter", "lat": 38.86702666666667, "is_reserved": 0, "fusion_lat": 0.0}, {"bike_id": "1bc40e19452bf7efe1b6315ac90cf618", "fusion_lon": 0.0, "lon": -77.01998266666666, "name": "1bc40e19452bf7efe1b6315ac90cf618", "is_disabled": 0, "rental_uris": {"android": "https://dc.lft.to/lastmile_qr_scan", "ios": "https://dc.lft.to/lastmile_qr_scan"}, "type": "electric_scooter", "lat": 38.895671, "is_reserved": 0, "fusion_lat": 0.0}, {"bike_id": "b95c45b5d70ca8ae0f23ba69bc3d5dad", "fusion_lon": 0.0, "lon": -77.01341933333333, "name": "b95c45b5d70ca8ae0f23ba69bc3d5dad", "is_disabled": 0, "rental_uris": {"android": "https://dc.lft.to/lastmile_qr_scan", "ios": "https://dc.lft.to/lastmile_qr_scan"}, "type": "electric_scooter", "lat": 38.899174, "is_reserved": 0, "fusion_lat": 0.0}, {"bike_id": "7e23c5bdfdfc7dc5e4524aa0dc344541", "fusion_lon": 0.0, "lon": -77.02299233333333, "name": "7e23c5bdfdfc7dc5e4524aa0dc344541", "is_disabled": 0, "rental_uris": {"android": "https://dc.lft.to/lastmile_qr_scan", "ios": "https://dc.lft.to/lastmile_qr_scan"}, "type": "electric_scooter", "lat": 38.919200833333335, "is_reserved": 0, "fusion_lat": 0.0}, {"bike_id": "f9e38926902ba8f4e03aa2d041e488e1", "fusion_lon": 0.0, "lon": -77.02193833333334, "name": "f9e38926902ba8f4e03aa2d041e488e1", "is_disabled": 0, "rental_uris": {"android": "https://dc.lft.to/lastmile_qr_scan", "ios": "https://dc.lft.to/lastmile_qr_scan"}, "type": "electric_scooter", "lat": 38.910653333333336, "is_reserved": 0, "fusion_lat": 0.0}, {"bike_id": "72d3ff52b1af832a1b8b9eac752355dc", "fusion_lon": 0.0, "lon": -77.03206, "name": "72d3ff52b1af832a1b8b9eac752355dc", "is_disabled": 0, "rental_uris": {"android": "https://dc.lft.to/lastmile_qr_scan", "ios": "https://dc.lft.to/lastmile_qr_scan"}, "type": "electric_scooter", "lat": 38.91745683333333, "is_reserved": 0, "fusion_lat": 0.0}, {"bike_id": "84ea9f024a38458a6375b212f2b18615", "fusion_lon": 0.0, "lon": -77.01534966666667, "name": "84ea9f024a38458a6375b212f2b18615", "is_disabled": 0, "rental_uris": {"android": "https://dc.lft.to/lastmile_qr_scan", "ios": "https://dc.lft.to/lastmile_qr_scan"}, "type": "electric_scooter", "lat": 38.887483833333334, "is_reserved": 0, "fusion_lat": 0.0}, {"bike_id": "bc6c8c0ac678bbe4db72dfa6d4ec4489", "fusion_lon": 0.0, "lon": -77.0344765, "name": "bc6c8c0ac678bbe4db72dfa6d4ec4489", "is_disabled": 0, "rental_uris": {"android": "https://dc.lft.to/lastmile_qr_scan", "ios": "https://dc.lft.to/lastmile_qr_scan"}, "type": "electric_scooter", "lat": 38.909511333333334, "is_reserved": 0, "fusion_lat": 0.0}, {"bike_id": "d18954f21b82bbefe23562c446fd5e0f", "fusion_lon": 0.0, "lon": -77.0178555, "name": "d18954f21b82bbefe23562c446fd5e0f", "is_disabled": 0, "rental_uris": {"android": "https://dc.lft.to/lastmile_qr_scan", "ios": "https://dc.lft.to/lastmile_qr_scan"}, "type": "electric_scooter", "lat": 38.911146333333335, "is_reserved": 0, "fusion_lat": 0.0},