{"data": {"bikes": [{"rental_uris": {"ios": "https://dc.lft.to/lastmile_qr_scan", "android": "https://dc.lft.to/lastmile_qr_scan"}, "lon": -76.94698183333334, "type": "electric_scooter", "fusion_lat": 0.0, "lat": 38.897295, "name": "e11602a6fa6613c2c6b18b216b33d249", "fusion_lon": 0.0, "bike_id": "e11602a6fa6613c2c6b18b216b33d249", "is_disabled": 0, "is_reserved": 0}, {"rental_uris": {"ios": "https://dc.lft.to/lastmile_qr_scan", "android": "https://dc.lft.to/lastmile_qr_scan"}, "lon": -77.075635, "type": "electric_bike", "fusion_lat": 0.0, "lat": 38.910495, "name": "cdf0bc072314b92d8430b68ce6a00238", "fusion_lon": 0.0, "bike_id": "cdf0bc072314b92d8430b68ce6a00238", "is_disabled": 0, "is_reserved": 0}, {"rental_uris": {"ios": "https://dc.lft.to/lastmile_qr_scan", "android": "https://dc.lft.to/lastmile_qr_scan"}, "lon": -77.00574766666666, "type": "electric_scooter", "fusion_lat": 0.0, "lat": 38.87284316666667, "name": "b1a0aecc7a2abc241cd7c96ce28890a0", "fusion_lon": 0.0, "bike_id": "b1a0aecc7a2abc241cd7c96ce28890a0", "is_disabled": 0, "is_reserved": 0}, {"rental_uris": {"ios": "https://dc.lft.to/lastmile_qr_scan", "android": "https://dc.lft.to/lastmile_qr_scan"}, "lon": -76.98839466666666, "type": "electric_bike", "fusion_lat": 0.0, "lat": 38.896094166666664, "name": "594da87a1111043143a28370373a3b64", "fusion_lon": 0.0, "bike_id": "594da87a1111043143a28370373a3b64", "is_disabled": 0, "is_reserved": 0}, {"rental_uris": {"ios": "https://dc.lft.to/lastmile_qr_scan", "android": "https://dc.lft.to/lastmile_qr_scan"}, "lon": -77.0455105, "type": "electric_scooter", "fusion_lat": 0.0, "lat": 38.93408616666667, "name": "4152ece3689cc9ce80a758329f000c89", "fusion_lon": 0.0, "bike_id": "4152ece3689cc9ce80a758329f000c89", "is_disabled": 0, "is_reserved": 0}, {"rental_uris": {"ios": "https://dc.lft.to/lastmile_qr_scan", "android": "https://dc.lft.to/lastmile_qr_scan"}, "lon": -77.03663616666667, "type": "electric_scooter", "fusion_lat": 0.0, "lat": 38.92236716666667, "name": "969be339f508fc521ac098ff41d256d9", "fusion_lon": 0.0, "bike_id": "969be339f508fc521ac098ff41d256d9", "is_disabled": 0, "is_reserved": 0}, {"rental_uris": {"ios": "https://dc.lft.to/lastmile_qr_scan", "android": "https://dc.lft.to/lastmile_qr_scan"}, "lon": -77.023089, "type": "electric_scooter", "fusion_lat": 0.0, "lat": 38.9299815, "name": "7c079d2d2b4484fb78496f447c92cb2e", "fusion_lon": 0.0, "bike_id": "7c079d2d2b4484fb78496f447c92cb2e", "is_disabled": 0, "is_reserved": 0}, {"rental_uris": {"ios": "https://dc.lft.to/lastmile_qr_scan", "android": "https://dc.lft.to/lastmile_qr_scan"}, "lon": -77.0329165, "type": "electric_scooter", "fusion_lat": 0.0, "lat": 38.92354566666667, "name": "c6bfaadf91c43b9da6dde26757519b94", "fusion_lon": 0.0, "bike_id": "c6bfaadf91c43b9da6dde26757519b94", "is_disabled": 0, "is_reserved": 0}, {"rental_uris": {"ios": "https://dc.lft.to/lastmile_qr_scan", "android": "https://dc.lft.to/lastmile_qr_scan"}, "lon": -77.03218966666667, "type": "electric_scooter", "fusion_lat": 0.0, "lat": 38.887375, "name": "b61dcd6ba87fcf237bac5579d8de18ae", "fusion_lon": 0.0, "bike_id": "b61dcd6ba87fcf237bac5579d8de18ae", "is_disabled": 0, "is_reserved": 0}, {"rental_uris": {"ios": "https://dc.lft.to/lastmile_qr_scan", "android": "https://dc.lft.to/lastmile_qr_scan"}, "lon": -77.0588255, "type": "electric_scooter", "fusion_lat": 0.0, "lat": 38.93634983333333, "name": "c6ac911adba0f59904449549da55a0fe", "fusion_lon": 0.0, "bike_id": "c6ac911adba0f59904449549da55a0fe", "is_disabled": 0, "is_reserved": 0}, {"rental_uris": {"ios": "https://dc.lft.to/lastmile_qr_scan", "android": "https://dc.lft.to/lastmile_qr_scan"}, "lon": -77.04500333333333, "type": "electric_scooter", "fusion_lat": 0.0, "lat": 38.912181333333336, "name": "ae4a9c02119bd06e26e8549992d134f2", "fusion_lon": 0.0, "bike_id": "ae4a9c02119bd06e26e8549992d134f2", "is_disabled": 0, "is_reserved": 0}, {"rental_uris": {"ios": "https://dc.lft.to/lastmile_qr_scan", "android": "https://dc.lft.to/lastmile_qr_scan"}, "lon": -77.01833783333333, "type": "electric_scooter", "fusion_lat": 0.0, "lat": 38.911157833333334, "name": "6939fb60635c27af763ffa21dac04baa", "fusion_lon": 0.0, "bike_id": "6939fb60635c27af763ffa21dac04baa", "is_disabled": 0, "is_reserved": 0}, {"rental_uris": {"ios": "https://dc.lft.to/lastmile_qr_scan", "android": "https://dc.lft.to/lastmile_qr_scan"}, "lon": -77.04685116666667, "type": "electric_scooter", "fusion_lat": 0.0, "lat": 38.8960865, "name": "bd77f15d2eb3d2ce357380ff12b128c0", "fusion_lon": 0.0, "bike_id": "bd77f15d2eb3d2ce357380ff12b128c0", "is_disabled": 0, "is_reserved": 0}, {"rental_uris": {"ios": "https://dc.lft.to/lastmile_qr_scan", "android": "https://dc.lft.to/lastmile_qr_scan"}, "lon": -76.986796, "type": "electric_scooter", "fusion_lat": 0.0, "lat": 38.882164333333336, "name": "028ccd18e118589e68882cf8e9d9ae1c", "fusion_lon": 0.0, "bike_id": "028ccd18e118589e68882cf8e9d9ae1c", "is_disabled": 0, "is_reserved": 0}, {"rental_uris": {"ios": "https://dc.lft.to/lastmile_qr_scan", "android": "https://dc.lft.to/lastmile_qr_scan"}, "lon": -76.99487133333334, "type": "electric_scooter", "fusion_lat": 0.0, "lat": 38.86221616666667, "name": "fd30e8dcdc74eb93f987ae9f0822587d", "fusion_lon": 0.0, "bike_id": "fd30e8dcdc74eb93f987ae9f0822587d", "is_disabled": 0, "is_reserved": 0}, {"rental_uris": {"ios": "https://dc.lft.to/lastmile_qr_scan", "android": "https://dc.lft.to/lastmile_qr_scan"}, "lon": -77.033437, "type": "electric_bike", "fusion_lat": 0.0, "lat": 38.96806516666667, "name": "48b65e857f888ca9456e834744816aad", "fusion_lon": 0.0, "bike_id": "48b65e857f888ca9456e834744816aad", "is_disabled": 0, "is_reserved": 0}, {"rental_uris": {"ios": "https://dc.lft.to/lastmile_qr_scan", "android": "https://dc.lft.to/lastmile_qr_scan"}, "lon": -77.02714683333333, "type": "electric_scooter", "fusion_lat": 0.0, "lat": 38.9248835, "name": "01949341aaf06798a942754b3147339f", "fusion_lon": 0.0, "bike_id": "01949341aaf06798a942754b3147339f", "is_disabled": 0, "is_reserved": 0}, {"rental_uris": {"ios": "https://dc.lft.to/lastmile_qr_scan", "android": "https://dc.lft.to/lastmile_qr_scan"}, "lon": -77.02917866666667, "type": "electric_scooter", "fusion_lat": 0.0, "lat": 38.89557416666667, "name": "24ca40fc5e51a6079b093784afa68ac1", "fusion_lon": 0.0, "bike_id": "24ca40fc5e51a6079b093784afa68ac1", "is_disabled": 0, "is_reserved": 0}, {"rental_uris": {"ios": "https://dc.lft.to/lastmile_qr_scan", "android": "https://dc.lft.to/lastmile_qr_scan"}, "lon": -77.050102, "type": "electric_scooter", "fusion_lat": 0.0, "lat": 38.90073116666667, "name": "7c76b57af1dd4584c4763623919eb1d0", "fusion_lon": 0.0, "bike_id": "7c76b57af1dd4584c4763623919eb1d0", "is_disabled": 0, "is_reserved": 0}, {"rental_uris": {"ios": "https://dc.lft.to/lastmile_qr_scan", "android": "https://dc.lft.to/lastmile_qr_scan"}, "lon": -77.03108166666667, "type": "electric_scooter", "fusion_lat": 0.0, "lat": 38.8995455, "name": "aa9b4e43de6a8cccfa0f0a56bfaf7d1e", "fusion_lon": 0.0, "bike_id": "aa9b4e43de6a8cccfa0f0a56bfaf7d1e", "is_disabled": 0, "is_reserved": 0}, {"rental_uris": {"ios": "https://dc.lft.to/lastmile_qr_scan", "android": "https://dc.lft.to/lastmile_qr_scan"}, "lon": -77.03121366666667, "type": "electric_scooter", "fusion_lat": 0.0, "lat": 38.91332166666667, "name": "1ccd30aae6f12fda37750481e223440b", "fusion_lon": 0.0, "bike_id": "1ccd30aae6f12fda37750481e223440b", "is_disabled": 0, "is_reserved": 0}, {"rental_uris": {"ios": "https://dc.lft.to/lastmile_qr_scan", "android": "https://dc.lft.to/lastmile_qr_scan"}, "lon": -77.028923, "type": "electric_scooter", "fusion_lat": 0.0, "lat": 38.925765, "name": "d1d9143836a8369d6062fe8729d4c095", "fusion_lon": 0.0, "bike_id": "d1d9143836a8369d6062fe8729d4c095", "is_disabled": 0, "is_reserved": 0}, {"rental_uris": {"ios": "https://dc.lft.to/lastmile_qr_scan", "android": "https://dc.lft.to/lastmile_qr_scan"}, "lon": -77.038244, "type": "electric_scooter", "fusion_lat": 0.0, "lat": 38.93123166666667, "name": "822ca6f641ffbc3973b13aba5821f98b", "fusion_lon": 0.0, "bike_id": "822ca6f641ffbc3973b13aba5821f98b", "is_disabled": 0, "is_reserved": 0}, {"rental_uris": {"ios": "https://dc.lft.to/lastmile_qr_scan", "android": "https://dc.lft.to/lastmile_qr_scan"}, "lon": -76.98564016666667, "type": "electric_scooter", "fusion_lat": 0.0, "lat": 38.899567, "name": "ce4fabc9d182c2144ca8310619ba8700", "fusion_lon": 0.0, "bike_id": "ce4fabc9d182c2144ca8310619ba8700", "is_disabled": 0, "is_reserved": 0}, {"rental_uris": {"ios": "https://dc.lft.to/lastmile_qr_scan", "android": "https://dc.lft.to/lastmile_qr_scan"}, "lon": -77.032062, "type": "electric_scooter", "fusion_lat": 0.0, "lat": 38.911057166666666, "name": "1147e3c7d7fb3e9bd5da0c9ffa49f76e", "fusion_lon": 0.0, "bike_id": "1147e3c7d7fb3e9bd5da0c9ffa49f76e", "is_disabled": 0, "is_reserved": 0}, {"rental_uris": {"ios": "https://dc.lft.to/lastmile_qr_scan", "android": "https://dc.lft.to/lastmile_qr_scan"}, "lon": -77.011859, "type": "electric_scooter", "fusion_lat": 0.0, "lat": 38.911109833333335, "name": "5bdc4e4630faa68e5cd095b832a98a90", "fusion_lon": 0.0, "bike_id": "5bdc4e4630faa68e5cd095b832a98a90", "is_disabled": 0, "is_reserved": 0}, {"rental_uris": {"ios": "https://dc.lft.to/lastmile_qr_scan", "android": "https://dc.lft.to/lastmile_qr_scan"}, "lon": -76.93174666666667, "type": "electric_scooter", "fusion_lat": 0.0, "lat": 38.89889866666667, "name": "e7f013b3c325260359a029b085d27e13", "fusion_lon": 0.0, "bike_id": "e7f013b3c325260359a029b085d27e13", "is_disabled": 0, "is_reserved": 0}, {"rental_uris": {"ios": "https://dc.lft.to/lastmile_qr_scan", "android": "https://dc.lft.to/lastmile_qr_scan"}, "lon": -77.03656883333333, "type": "electric_scooter", "fusion_lat": 0.0, "lat": 38.93633583333333, "name": "c359ecb3ffb8f7675b6413d2483e4e79", "fusion_lon": 0.0, "bike_id": "c359ecb3ffb8f7675b6413d2483e4e79", "is_disabled": 0, "is_reserved": 0}, {"rental_uris": {"ios": "https://dc.lft.to/lastmile_qr_scan", "android": "https://dc.lft.to/lastmile_qr_scan"}, "lon": -77.03184583333334, "type": "electric_scooter", "fusion_lat": 0.0, "lat": 38.9248365, "name": "aafe7102a2cf0dbedfd931bb4ce0cec3", "fusion_lon": 0.0, "bike_id": "aafe7102a2cf0dbedfd931bb4ce0cec3", "is_disabled": 0, "is_reserved": 0}, {"rental_uris": {"ios": "https://dc.lft.to/lastmile_qr_scan", "android": "https://dc.lft.to/lastmile_qr_scan"}, "lon": -77.0215565, "type": "electric_scooter", "fusion_lat": 0.0, "lat": 38.94229, "name": "7463391a56ce18e18b9e98e35e795087", "fusion_lon": 0.0, "bike_id": "7463391a56ce18e18b9e98e35e795087", "is_disabled": 0, "is_reserved": 0}, {"rental_uris": {"ios": "https://dc.lft.to/lastmile_qr_scan", "android": "https://dc.lft.to/lastmile_qr_scan"}, "lon": -76.96521433333334, "type": "electric_bike", "fusion_lat": 0.0, "lat": 38.8747705, "name": "fa46f3b5e71ef0e97a9c3405ea413a1c", "fusion_lon": 0.0, "bike_id": "fa46f3b5e71ef0e97a9c3405ea413a1c", "is_disabled": 0, "is_reserved": 0}, {"rental_uris": {"ios": "https://dc.lft.to/lastmile_qr_scan", "android": "https://dc.lft.to/lastmile_qr_scan"}, "lon": -77.026613, "type": "electric_scooter", "fusion_lat": 0.0, "lat": 38.895747666666665, "name": "a6e4a04a27bc018f351f59072df23ab6", "fusion_lon": 0.0, "bike_id": "a6e4a04a27bc018f351f59072df23ab6", "is_disabled": 0, "is_reserved": 0}, {"rental_uris": {"ios": "https://dc.lft.to/lastmile_qr_scan", "android": "https://dc.lft.to/lastmile_qr_scan"}, "lon": -77.01957383333334, "type": "electric_scooter", "fusion_lat": 0.0, "lat": 38.88593566666667, "name": "e65397ba8eb64cfc0413c31df99f2b2e", "fusion_lon": 0.0, "bike_id": "e65397ba8eb64cfc0413c31df99f2b2e", "is_disabled": 0, "is_reserved": 0}, {"rental_uris": {"ios": "https://dc.lft.to/lastmile_qr_scan", "android": "https://dc.lft.to/lastmile_qr_scan"}, "lon": -77.01060733333334, "type": "electric_scooter", "fusion_lat": 0.0, "lat": 38.875791666666665, "name": "cc629720100bdbe83dff7f00e52e44b8", "fusion_lon": 0.0, "bike_id": "cc629720100bdbe83dff7f00e52e44b8", "is_disabled": 0, "is_reserved": 0}, {"rental_uris": {"ios": "https://dc.lft.to/lastmile_qr_scan", "android": "https://dc.lft.to/lastmile_qr_scan"}, "lon": -77.105871, "type": "electric_bike", "fusion_lat": 0.0, "lat": 38.885385666666664, "name": "2244d347deac87be94361e052ccb792b", "fusion_lon": 0.0, "bike_id": "2244d347deac87be94361e052ccb792b", "is_disabled": 0, "is_reserved": 0}, {"rental_uris": {"ios": "https://dc.lft.to/lastmile_qr_scan", "android": "https://dc.lft.to/lastmile_qr_scan"}, "lon": -77.113153, "type": "electric_bike", "fusion_lat": 0.0, "lat": 38.85568516666667, "name": "4fe960843da4247c4026bf39e4d1ebe5", "fusion_lon": 0.0, "bike_id": "4fe960843da4247c4026bf39e4d1ebe5", "is_disabled": 0, "is_reserved": 0}, {"rental_uris": {"ios": "https://dc.lft.to/lastmile_qr_scan", "android": "https://dc.lft.to/lastmile_qr_scan"}, "lon": -77.03215566666667, "type": "electric_scooter", "fusion_lat": 0.0, "lat": 38.8922375, "name": "90cca0d6ecbe4dee57e1e311537d0091", "fusion_lon": 0.0, "bike_id": "90cca0d6ecbe4dee57e1e311537d0091", "is_disabled": 0, "is_reserved": 0}, {"rental_uris": {"ios": "https://dc.lft.to/lastmile_qr_scan", "android": "https://dc.lft.to/lastmile_qr_scan"}, "lon": -77.0300775, "type": "electric_scooter", "fusion_lat": 0.0, "lat": 38.91269666666667, "name": "4407b30ef30c45568dc1494ce958d236", "fusion_lon": 0.0, "bike_id": "4407b30ef30c45568dc1494ce958d236", "is_disabled": 0, "is_reserved": 0}, {"rental_uris": {"ios": "https://dc.lft.to/lastmile_qr_scan", "android": "https://dc.lft.to/lastmile_qr_scan"}, "lon": -77.07085016666667, "type": "electric_bike", "fusion_lat": 0.0, "lat": 38.955616666666664, "name": "47d992fdeb5d074fb66c2c57c069cc76", "fusion_lon": 0.0, "bike_id": "47d992fdeb5d074fb66c2c57c069cc76", "is_disabled": 0, "is_reserved": 0}, {"rental_uris": {"ios": "https://dc.lft.to/lastmile_qr_scan", "android": "https://dc.lft.to/lastmile_qr_scan"}, "lon": -76.9888085, "type": "electric_scooter", "fusion_lat": 0.0, "lat": 38.86663716666666, "name": "e8d15c278aad44b4fc9cbd954fa8eeac", "fusion_lon": 0.0, "bike_id": "e8d15c278aad44b4fc9cbd954fa8eeac", "is_disabled": 0, "is_reserved": 0}, {"rental_uris": {"ios": "https://dc.lft.to/lastmile_qr_scan", "android": "https://dc.lft.to/lastmile_qr_scan"}, "lon": -77.02278683333333, "type": "electric_scooter", "fusion_lat": 0.0, "lat": 38.924182333333334, "name": "459bdfcd2eecbd0a5ba6da7b45934fb9", "fusion_lon": 0.0, "bike_id": "459bdfcd2eecbd0a5ba6da7b45934fb9", "is_disabled": 0, "is_reserved": 0}, {"rental_uris": {"ios": "https://dc.lft.to/lastmile_qr_scan", "android": "https://dc.lft.to/lastmile_qr_scan"}, "lon": -77.01601983333333, "type": "electric_scooter", "fusion_lat": 0.0, "lat": 38.9003955, "name": "92035a1af0a7aa5d1fdc2fd2aeb6803b", "fusion_lon": 0.0, "bike_id": "92035a1af0a7aa5d1fdc2fd2aeb6803b", "is_disabled": 0, "is_reserved": 0}, {"rental_uris": {"ios": "https://dc.lft.to/lastmile_qr_scan", "android": "https://dc.lft.to/lastmile_qr_scan"}, "lon": -76.98543083333334, "type": "electric_scooter", "fusion_lat": 0.0, "lat": 38.90429116666667, "name": "9130ba239acb5fd79e8a1abc9fceb287", "fusion_lon": 0.0, "bike_id": "9130ba239acb5fd79e8a1abc9fceb287", "is_disabled": 0, "is_reserved": 0}, {"rental_uris": {"ios": "https://dc.lft.to/lastmile_qr_scan", "android": "https://dc.lft.to/lastmile_qr_scan"}, "lon": -77.02544933333333, "type": "electric_scooter", "fusion_lat": 0.0, "lat": 38.901106666666664, "name": "4509e14865c15e588315aeeba3885ec8", "fusion_lon": 0.0, "bike_id": "4509e14865c15e588315aeeba3885ec8", "is_disabled": 0, "is_reserved": 0}, {"rental_uris": {"ios": "https://dc.lft.to/lastmile_qr_scan", "android": "https://dc.lft.to/lastmile_qr_scan"}, "lon": -77.01988533333333, "type": "electric_scooter", "fusion_lat": 0.0, "lat": 38.900651833333335, "name": "168f8d33c6f6ed79eb5162507d89dc48", "fusion_lon": 0.0, "bike_id": "168f8d33c6f6ed79eb5162507d89dc48", "is_disabled": 0, "is_reserved": 0}, {"rental_uris": {"ios": "https://dc.lft.to/lastmile_qr_scan", "android": "https://dc.lft.to/lastmile_qr_scan"}, "lon": -76.939254, "type": "electric_scooter", "fusion_lat": 0.0, "lat": 38.893004833333336, "name": "afc31c6d2f99a6c844e069385c126b1c", "fusion_lon": 0.0, "bike_id": "afc31c6d2f99a6c844e069385c126b1c", "is_disabled": 0, "is_reserved": 0}, {"rental_uris": {"ios": "https://dc.lft.to/lastmile_qr_scan", "android": "https://dc.lft.to/lastmile_qr_scan"}, "lon": -77.05557033333334, "type": "electric_bike", "fusion_lat": 0.0, "lat": 38.925253166666664, "name": "22e1748f0cd68982478ebf41adc103ab", "fusion_lon": 0.0, "bike_id": "22e1748f0cd68982478ebf41adc103ab", "is_disabled": 0, "is_reserved": 0}, {"rental_uris": {"ios": "https://dc.lft.to/lastmile_qr_scan", "android": "https://dc.lft.to/lastmile_qr_scan"}, "lon": -77.043681, "type": "electric_scooter", "fusion_lat": 0.0, "lat": 38.933430333333334, "name": "ae4f83d11ca67d8f9186f9a24dfa06fe", "fusion_lon": 0.0, "bike_id": "ae4f83d11ca67d8f9186f9a24dfa06fe", "is_disabled": 0, "is_reserved": 0}, {"rental_uris": {"ios": "https://dc.lft.to/lastmile_qr_scan", "android": "https://dc.lft.to/lastmile_qr_scan"}, "lon": -77.02968116666666, "type": "electric_scooter", "fusion_lat": 0.0, "lat": 38.90840083333333, "name": "4081dbe2c94600459872d81cee3966b7", "fusion_lon": 0.0, "bike_id": "4081dbe2c94600459872d81cee3966b7", "is_disabled": 0, "is_reserved": 0}, {"rental_uris": {"ios": "https://dc.lft.to/lastmile_qr_scan", "android": "https://dc.lft.to/lastmile_qr_scan"}, "lon": -76.94623983333334, "type": "electric_bike", "fusion_lat": 0.0, "lat": 38.83242883333333, "name": "d2ff67422c3ab22dd1ff186f2871c9ba", "fusion_lon": 0.0, "bike_id": "d2ff67422c3ab22dd1ff186f2871c9ba", "is_disabled": 0, "is_reserved": 0}, {"rental_uris": {"ios": "https://dc.lft.to/lastmile_qr_scan", "android": "https://dc.lft.to/lastmile_qr_scan"}, "lon": -77.02407966666667, "type": "electric_scooter", "fusion_lat": 0.0, "lat": 38.892242, "name": "71b316502f8513f4c68891576ce23674", "fusion_lon": 0.0, "bike_id": "71b316502f8513f4c68891576ce23674", "is_disabled": 0, "is_reserved": 0}, {"rental_uris": {"ios": "https://dc.lft.to/lastmile_qr_scan", "android": "https://dc.lft.to/lastmile_qr_scan"}, "lon": -77.02788066666666, "type": "electric_scooter", "fusion_lat": 0.0, "lat": 38.887404, "name": "71ab35f65a8bfc82877dc3569b48d3a0", "fusion_lon": 0.0, "bike_id": "71ab35f65a8bfc82877dc3569b48d3a0", "is_disabled": 0, "is_reserved": 0}, {"rental_uris": {"ios": "https://dc.lft.to/lastmile_qr_scan", "android": "https://dc.lft.to/lastmile_qr_scan"}, "lon": -77.00726683333333, "type": "electric_bike", "fusion_lat": 0.0, "lat": 38.8978475, "name": "791ba564c81bfd9cc0deb5a532e75c87", "fusion_lon": 0.0, "bike_id": "791ba564c81bfd9cc0deb5a532e75c87", "is_disabled": 0, "is_reserved": 0}, {"rental_uris": {"ios": "https://dc.lft.to/lastmile_qr_scan", "android": "https://dc.lft.to/lastmile_qr_scan"}, "lon": -76.99006133333333, "type": "electric_scooter", "fusion_lat": 0.0, "lat": 38.90396666666667, "name": "404badcd3b934823b390d5bd8e843549", "fusion_lon": 0.0, "bike_id": "404badcd3b934823b390d5bd8e843549", "is_disabled": 0, "is_reserved": 0}, {"rental_uris": {"ios": "https://dc.lft.to/lastmile_qr_scan", "android": "https://dc.lft.to/lastmile_qr_scan"}, "lon": -76.91662533333333, "type": "electric_bike", "fusion_lat": 0.0, "lat": 38.868724, "name": "660599b970ad15e72e16cf7850260992", "fusion_lon": 0.0, "bike_id": "660599b970ad15e72e16cf7850260992", "is_disabled": 0, "is_reserved": 0}, {"rental_uris": {"ios": "https://dc.lft.to/lastmile_qr_scan", "android": "https://dc.lft.to/lastmile_qr_scan"}, "lon": -77.02416883333333, "type": "electric_scooter", "fusion_lat": 0.0, "lat": 38.9218135, "name": "21a3923aea63f198ce9119a1cfe490fa", "fusion_lon": 0.0, "bike_id": "21a3923aea63f198ce9119a1cfe490fa", "is_disabled": 0, "is_reserved": 0}, {"rental_uris": {"ios": "https://dc.lft.to/lastmile_qr_scan", "android": "https://dc.lft.to/lastmile_qr_scan"}, "lon": -77.00974966666666, "type": "electric_scooter", "fusion_lat": 0.0, "lat": 38.91418433333333, "name": "3ec28526be3a134fc26f787b5cff3b27", "fusion_lon": 0.0, "bike_id": "3ec28526be3a134fc26f787b5cff3b27", "is_disabled": 0, "is_reserved": 0}, {"rental_uris": {"ios": "https://dc.lft.to/lastmile_qr_scan", "android": "https://dc.lft.to/lastmile_qr_scan"}, "lon": -77.03985466666667, "type": "electric_scooter", "fusion_lat": 0.0, "lat": 38.892261500000004, "name": "668225a0899bd5f77cddce219191115e", "fusion_lon": 0.0, "bike_id": "668225a0899bd5f77cddce219191115e", "is_disabled": 0, "is_reserved": 0}, {"rental_uris": {"ios": "https://dc.lft.to/lastmile_qr_scan", "android": "https://dc.lft.to/lastmile_qr_scan"}, "lon": -77.1623245, "type": "electric_bike", "fusion_lat": 0.0, "lat": 38.88666166666667, "name": "2552f4bee6bff7bf64e95f462e0d5a38", "fusion_lon": 0.0, "bike_id": "2552f4bee6bff7bf64e95f462e0d5a38", "is_disabled": 0, "is_reserved": 0}, {"rental_uris": {"ios": "https://dc.lft.to/lastmile_qr_scan", "android": "https://dc.lft.to/lastmile_qr_scan"}, "lon": -76.948547, "type": "electric_scooter", "fusion_lat": 0.0, "lat": 38.89589266666667, "name": "42f32d98a00ef667035ff0b11143749f", "fusion_lon": 0.0, "bike_id": "42f32d98a00ef667035ff0b11143749f", "is_disabled": 0, "is_reserved": 0}, {"rental_uris": {"ios": "https://dc.lft.to/lastmile_qr_scan", "android": "https://dc.lft.to/lastmile_qr_scan"}, "lon": -77.05040716666667, "type": "electric_scooter", "fusion_lat": 0.0, "lat": 38.923675833333334, "name": "5256090520c728eb663a12cb1a500d5f", "fusion_lon": 0.0, "bike_id": "5256090520c728eb663a12cb1a500d5f", "is_disabled": 0, "is_reserved": 0}, {"rental_uris": {"ios": "https://dc.lft.to/lastmile_qr_scan", "android": "https://dc.lft.to/lastmile_qr_scan"}, "lon": -77.0259425, "type": "electric_scooter", "fusion_lat": 0.0, "lat": 38.905277833333336, "name": "07eb5234ab4e0df681f4b9ee7428d514", "fusion_lon": 0.0, "bike_id": "07eb5234ab4e0df681f4b9ee7428d514", "is_disabled": 0, "is_reserved": 0}, {"rental_uris": {"ios": "https://dc.lft.to/lastmile_qr_scan", "android": "https://dc.lft.to/lastmile_qr_scan"}, "lon": -77.01065216666667, "type": "electric_scooter", "fusion_lat": 0.0, "lat": 38.87474733333333, "name": "694119177bfc03a46e5ae4e49705b758", "fusion_lon": 0.0, "bike_id": "694119177bfc03a46e5ae4e49705b758", "is_disabled": 0, "is_reserved": 0}, {"rental_uris": {"ios": "https://dc.lft.to/lastmile_qr_scan", "android": "https://dc.lft.to/lastmile_qr_scan"}, "lon": -76.93099283333333, "type": "electric_scooter", "fusion_lat": 0.0, "lat": 38.90143533333333, "name": "673f265f6fd285411735130d3fe2e542", "fusion_lon": 0.0, "bike_id": "673f265f6fd285411735130d3fe2e542", "is_disabled": 0, "is_reserved": 0}, {"rental_uris": {"ios": "https://dc.lft.to/lastmile_qr_scan", "android": "https://dc.lft.to/lastmile_qr_scan"}, "lon": -76.98003633333333, "type": "electric_bike", "fusion_lat": 0.0, "lat": 38.86284966666667, "name": "743abf676c64b721cb36c34eb25050b9", "fusion_lon": 0.0, "bike_id": "743abf676c64b721cb36c34eb25050b9", "is_disabled": 0, "is_reserved": 0}, {"rental_uris": {"ios": "https://dc.lft.to/lastmile_qr_scan", "android": "https://dc.lft.to/lastmile_qr_scan"}, "lon": -77.05355533333334, "type": "electric_scooter", "fusion_lat": 0.0, "lat": 38.902529333333334, "name": "947c4247d0f392916770503ba9a525d5", "fusion_lon": 0.0, "bike_id": "947c4247d0f392916770503ba9a525d5", "is_disabled": 0, "is_reserved": 0}, {"rental_uris": {"ios": "https://dc.lft.to/lastmile_qr_scan", "android": "https://dc.lft.to/lastmile_qr_scan"}, "lon": -77.05015366666667, "type": "electric_scooter", "fusion_lat": 0.0, "lat": 38.90187683333333, "name": "98aeae2ff7b0d6c7ca051e456f7d70e1", "fusion_lon": 0.0, "bike_id": "98aeae2ff7b0d6c7ca051e456f7d70e1", "is_disabled": 0, "is_reserved": 0}, {"rental_uris": {"ios": "https://dc.lft.to/lastmile_qr_scan", "android": "https://dc.lft.to/lastmile_qr_scan"}, "lon": -76.998089, "type": "electric_bike", "fusion_lat": 0.0, "lat": 38.9085455, "name": "707178d7e85abd190b3f09119970a2db", "fusion_lon": 0.0, "bike_id": "707178d7e85abd190b3f09119970a2db", "is_disabled": 0, "is_reserved": 0}, {"rental_uris": {"ios": "https://dc.lft.to/lastmile_qr_scan", "android": "https://dc.lft.to/lastmile_qr_scan"}, "lon": -77.02710266666666, "type": "electric_scooter", "fusion_lat": 0.0, "lat": 38.91817566666667, "name": "85b3034d802043cf2498aaaf79234ef2", "fusion_lon": 0.0, "bike_id": "85b3034d802043cf2498aaaf79234ef2", "is_disabled": 0, "is_reserved": 0}, {"rental_uris": {"ios": "https://dc.lft.to/lastmile_qr_scan", "android": "https://dc.lft.to/lastmile_qr_scan"}, "lon": -77.01587883333333, "type": "electric_scooter", "fusion_lat": 0.0, "lat": 38.916410166666665, "name": "43aae3e85ebb2b02d002c222cf1d1e77", "fusion_lon": 0.0, "bike_id": "43aae3e85ebb2b02d002c222cf1d1e77", "is_disabled": 0, "is_reserved": 0}, {"rental_uris": {"ios": "https://dc.lft.to/lastmile_qr_scan", "android": "https://dc.lft.to/lastmile_qr_scan"}, "lon": -77.01415333333334, "type": "electric_scooter", "fusion_lat": 0.0, "lat": 38.915617, "name": "8e793f9a08ea4dc1cf0fb24113f215df", "fusion_lon": 0.0, "bike_id": "8e793f9a08ea4dc1cf0fb24113f215df", "is_disabled": 0, "is_reserved": 0}, {"rental_uris": {"ios": "https://dc.lft.to/lastmile_qr_scan", "android": "https://dc.lft.to/lastmile_qr_scan"}, "lon": -77.00917533333333, "type": "electric_scooter", "fusion_lat": 0.0, "lat": 38.910987666666664, "name": "5f658b3de2bb184d6dc57fda05efebf5", "fusion_lon": 0.0, "bike_id": "5f658b3de2bb184d6dc57fda05efebf5", "is_disabled": 0, "is_reserved": 0}, {"rental_uris": {"ios": "https://dc.lft.to/lastmile_qr_scan", "android": "https://dc.lft.to/lastmile_qr_scan"}, "lon": -77.0236625, "type": "electric_scooter", "fusion_lat": 0.0, "lat": 38.895156666666665, "name": "503441493c8bfdd581070628ceb76a2e", "fusion_lon": 0.0, "bike_id": "503441493c8bfdd581070628ceb76a2e", "is_disabled": 0, "is_reserved": 0}, {"rental_uris": {"ios": "https://dc.lft.to/lastmile_qr_scan", "android": "https://dc.lft.to/lastmile_qr_scan"}, "lon": -77.04645666666667, "type": "electric_bike", "fusion_lat": 0.0, "lat": 38.85215633333333, "name": "e0028ff9c3e3c9eef4f73d816261446d", "fusion_lon": 0.0, "bike_id": "e0028ff9c3e3c9eef4f73d816261446d", "is_disabled": 0, "is_reserved": 0}, {"rental_uris": {"ios": "https://dc.lft.to/lastmile_qr_scan", "android": "https://dc.lft.to/lastmile_qr_scan"}, "lon": -77.07403416666666, "type": "electric_scooter", "fusion_lat": 0.0, "lat": 38.96176783333333, "name": "045439f482c58c6a92672686e99e645d", "fusion_lon": 0.0, "bike_id": "045439f482c58c6a92672686e99e645d", "is_disabled": 0, "is_reserved": 0}, {"rental_uris": {"ios": "https://dc.lft.to/lastmile_qr_scan", "android": "https://dc.lft.to/lastmile_qr_scan"}, "lon": -77.04665816666666, "type": "electric_scooter", "fusion_lat": 0.0, "lat": 38.932992, "name": "f513c8a33fdec19f81d65202e12d8edd", "fusion_lon": 0.0, "bike_id": "f513c8a33fdec19f81d65202e12d8edd", "is_disabled": 0, "is_reserved": 0}, {"rental_uris": {"ios": "https://dc.lft.to/lastmile_qr_scan", "android": "https://dc.lft.to/lastmile_qr_scan"}, "lon": -77.055204, "type": "electric_scooter", "fusion_lat": 0.0, "lat": 38.92801166666667, "name": "9fa0ea1a98e1c8fbcf0663aba75544e7", "fusion_lon": 0.0, "bike_id": "9fa0ea1a98e1c8fbcf0663aba75544e7", "is_disabled": 0, "is_reserved": 0}, {"rental_uris": {"ios": "https://dc.lft.to/lastmile_qr_scan", "android": "https://dc.lft.to/lastmile_qr_scan"}, "lon": -77.03387666666667, "type": "electric_scooter", "fusion_lat": 0.0, "lat": 38.886585333333336, "name": "54375a3edbb4410eef0969d304d255ca", "fusion_lon": 0.0, "bike_id": "54375a3edbb4410eef0969d304d255ca", "is_disabled": 0, "is_reserved": 0}, {"rental_uris": {"ios": "https://dc.lft.to/lastmile_qr_scan", "android": "https://dc.lft.to/lastmile_qr_scan"}, "lon": -77.12964716666667, "type": "electric_bike", "fusion_lat": 0.0, "lat": 38.807946666666666, "name": "ca2c170e342a694001b825c56d01e71c", "fusion_lon": 0.0, "bike_id": "ca2c170e342a694001b825c56d01e71c", "is_disabled": 0, "is_reserved": 0}, {"rental_uris": {"ios": "https://dc.lft.to/lastmile_qr_scan", "android": "https://dc.lft.to/lastmile_qr_scan"}, "lon": -77.012857, "type": "electric_bike", "fusion_lat": 0.0, "lat": 39.00385716666667, "name": "0dfe8f70aed6a82a99d4c746e3722f41", "fusion_lon": 0.0, "bike_id": "0dfe8f70aed6a82a99d4c746e3722f41", "is_disabled": 0, "is_reserved": 0}, {"rental_uris": {"ios": "https://dc.lft.to/lastmile_qr_scan", "android": "https://dc.lft.to/lastmile_qr_scan"}, "lon": -77.02753183333333, "type": "electric_scooter", "fusion_lat": 0.0, "lat": 38.881662, "name": "a39cf0bd888988d53f2dae9b5f3410f4", "fusion_lon": 0.0, "bike_id": "a39cf0bd888988d53f2dae9b5f3410f4", "is_disabled": 0, "is_reserved": 0}, {"rental_uris": {"ios": "https://dc.lft.to/lastmile_qr_scan", "android": "https://dc.lft.to/lastmile_qr_scan"}, "lon": -77.03181116666667, "type": "electric_scooter", "fusion_lat": 0.0, "lat": 38.887392166666665, "name": "f52a76d00a42ff7c01d81a6fbba239e5", "fusion_lon": 0.0, "bike_id": "f52a76d00a42ff7c01d81a6fbba239e5", "is_disabled": 0, "is_reserved": 0}, {"rental_uris": {"ios": "https://dc.lft.to/lastmile_qr_scan", "android": "https://dc.lft.to/lastmile_qr_scan"}, "lon": -77.02457316666667, "type": "electric_scooter", "fusion_lat": 0.0, "lat": 38.938637666666665, "name": "59daf75afe50746b7ebc9f8604cc4090", "fusion_lon": 0.0, "bike_id": "59daf75afe50746b7ebc9f8604cc4090", "is_disabled": 0, "is_reserved": 0}, {"rental_uris": {"ios": "https://dc.lft.to/lastmile_qr_scan", "android": "https://dc.lft.to/lastmile_qr_scan"}, "lon": -77.050434, "type": "electric_scooter", "fusion_lat": 0.0, "lat": 38.923639, "name": "9a6228305f6aac202f0f7ed0e9cbf448", "fusion_lon": 0.0, "bike_id": "9a6228305f6aac202f0f7ed0e9cbf448", "is_disabled": 0, "is_reserved": 0}, {"rental_uris": {"ios": "https://dc.lft.to/lastmile_qr_scan", "android": "https://dc.lft.to/lastmile_qr_scan"}, "lon": -77.02940533333333, "type": "electric_scooter", "fusion_lat": 0.0, "lat": 38.908404833333336, "name": "23eac40b3f2d60c2bddd514fac7483ab", "fusion_lon": 0.0, "bike_id": "23eac40b3f2d60c2bddd514fac7483ab", "is_disabled": 0, "is_reserved": 0}, {"rental_uris": {"ios": "https://dc.lft.to/lastmile_qr_scan", "android": "https://dc.lft.to/lastmile_qr_scan"}, "lon": -77.05043983333333, "type": "electric_scooter", "fusion_lat": 0.0, "lat": 38.923627, "name": "09b95a785c412641e00370040b03800a", "fusion_lon": 0.0, "bike_id": "09b95a785c412641e00370040b03800a", "is_disabled": 0, "is_reserved": 0}, {"rental_uris": {"ios": "https://dc.lft.to/lastmile_qr_scan", "android": "https://dc.lft.to/lastmile_qr_scan"}, "lon": -76.99039283333333, "type": "electric_scooter", "fusion_lat": 0.0, "lat": 38.856632, "name": "e792012e409a729b17116b3ca20eedf5", "fusion_lon": 0.0, "bike_id": "e792012e409a729b17116b3ca20eedf5", "is_disabled": 0, "is_reserved": 0}, {"rental_uris": {"ios": "https://dc.lft.to/lastmile_qr_scan", "android": "https://dc.lft.to/lastmile_qr_scan"}, "lon": -77.01589266666667, "type": "electric_scooter", "fusion_lat": 0.0, "lat": 38.90179066666666, "name": "5d003ef1c9ee042afc1a82c73a510f5d", "fusion_lon": 0.0, "bike_id": "5d003ef1c9ee042afc1a82c73a510f5d", "is_disabled": 0, "is_reserved": 0}, {"rental_uris": {"ios": "https://dc.lft.to/lastmile_qr_scan", "android": "https://dc.lft.to/lastmile_qr_scan"}, "lon": -76.93245316666666, "type": "electric_scooter", "fusion_lat": 0.0, "lat": 38.89403933333333, "name": "b7c424f5baf9c9dfc44a2ab8784a9830", "fusion_lon": 0.0, "bike_id": "b7c424f5baf9c9dfc44a2ab8784a9830", "is_disabled": 0, "is_reserved": 0}, {"rental_uris": {"ios": "https://dc.lft.to/lastmile_qr_scan", "android": "https://dc.lft.to/lastmile_qr_scan"}, "lon": -77.025289, "type": "electric_scooter", "fusion_lat": 0.0, "lat": 38.94063883333333, "name": "3509a70fe2791931661a13ddffa9030b", "fusion_lon": 0.0, "bike_id": "3509a70fe2791931661a13ddffa9030b", "is_disabled": 0, "is_reserved": 0}, {"rental_uris": {"ios": "https://dc.lft.to/lastmile_qr_scan", "android": "https://dc.lft.to/lastmile_qr_scan"}, "lon": -77.04933083333333, "type": "electric_scooter", "fusion_lat": 0.0, "lat": 38.9089565, "name": "c1065762e85f6c9ebcf353bf4be01087", "fusion_lon": 0.0, "bike_id": "c1065762e85f6c9ebcf353bf4be01087", "is_disabled": 0, "is_reserved": 0}, {"rental_uris": {"ios": "https://dc.lft.to/lastmile_qr_scan", "android": "https://dc.lft.to/lastmile_qr_scan"}, "lon": -77.068789, "type": "electric_scooter", "fusion_lat": 0.0, "lat": 38.905096, "name": "849505c73f2cfc9b6d55e017b5d5b711", "fusion_lon": 0.0, "bike_id": "849505c73f2cfc9b6d55e017b5d5b711", "is_disabled": 0, "is_reserved": 0}, {"rental_uris": {"ios": "https://dc.lft.to/lastmile_qr_scan", "android": "https://dc.lft.to/lastmile_qr_scan"}, "lon": -77.03385366666667, "type": "electric_scooter", "fusion_lat": 0.0, "lat": 38.886604, "name": "6a97bd04bfc2b8949fa66a1ec89cc630", "fusion_lon": 0.0, "bike_id": "6a97bd04bfc2b8949fa66a1ec89cc630", "is_disabled": 0, "is_reserved": 0}, {"rental_uris": {"ios": "https://dc.lft.to/lastmile_qr_scan", "android": "https://dc.lft.to/lastmile_qr_scan"}, "lon": -76.996325, "type": "electric_bike", "fusion_lat": 0.0, "lat": 38.846666666666664, "name": "2287df8997c650553c7ec5999bb89fcf", "fusion_lon": 0.0, "bike_id": "2287df8997c650553c7ec5999bb89fcf", "is_disabled": 0, "is_reserved": 0}, {"rental_uris": {"ios": "https://dc.lft.to/lastmile_qr_scan", "android": "https://dc.lft.to/lastmile_qr_scan"}, "lon": -77.03540766666667, "type": "electric_scooter", "fusion_lat": 0.0, "lat": 38.92737983333333, "name": "cfec1915d1f4121b244f3a7fc6bff543", "fusion_lon": 0.0, "bike_id": "cfec1915d1f4121b244f3a7fc6bff543", "is_disabled": 0, "is_reserved": 0}, {"rental_uris": {"ios": "https://dc.lft.to/lastmile_qr_scan", "android": "https://dc.lft.to/lastmile_qr_scan"}, "lon": -76.9882505, "type": "electric_scooter", "fusion_lat": 0.0, "lat": 38.88029783333333, "name": "7bd751cc0e3383ab52e0141202128678", "fusion_lon": 0.0, "bike_id": "7bd751cc0e3383ab52e0141202128678", "is_disabled": 0, "is_reserved": 0}, {"rental_uris": {"ios": "https://dc.lft.to/lastmile_qr_scan", "android": "https://dc.lft.to/lastmile_qr_scan"}, "lon": -77.035091, "type": "electric_scooter", "fusion_lat": 0.0, "lat": 38.931174, "name": "e508d95e0499f9e50dbfa549bee72b29", "fusion_lon": 0.0, "bike_id": "e508d95e0499f9e50dbfa549bee72b29", "is_disabled": 0, "is_reserved": 0}, {"rental_uris": {"ios": "https://dc.lft.to/lastmile_qr_scan", "android": "https://dc.lft.to/lastmile_qr_scan"}, "lon": -77.032224, "type": "electric_scooter", "fusion_lat": 0.0, "lat": 38.926756166666664, "name": "e6cdfb5a0af37f59ead154223ee79415", "fusion_lon": 0.0, "bike_id": "e6cdfb5a0af37f59ead154223ee79415", "is_disabled": 0, "is_reserved": 0}, {"rental_uris": {"ios": "https://dc.lft.to/lastmile_qr_scan", "android": "https://dc.lft.to/lastmile_qr_scan"}, "lon": -77.0421905, "type": "electric_scooter", "fusion_lat": 0.0, "lat": 38.92114133333333, "name": "6465981a7063a599324199dc4cada3cd", "fusion_lon": 0.0, "bike_id": "6465981a7063a599324199dc4cada3cd", "is_disabled": 0, "is_reserved": 0}, {"rental_uris": {"ios": "https://dc.lft.to/lastmile_qr_scan", "android": "https://dc.lft.to/lastmile_qr_scan"}, "lon": -77.0648735, "type": "electric_bike", "fusion_lat": 0.0, "lat": 38.96501133333334, "name": "737d97a422f36d4171c2671efc0aa136", "fusion_lon": 0.0, "bike_id": "737d97a422f36d4171c2671efc0aa136", "is_disabled": 0, "is_reserved": 0}, {"rental_uris": {"ios": "https://dc.lft.to/lastmile_qr_scan", "android": "https://dc.lft.to/lastmile_qr_scan"}, "lon": -77.01619066666666, "type": "electric_scooter", "fusion_lat": 0.0, "lat": 38.90602883333333, "name": "20b4922c8203d1d1688fe3458738f28c", "fusion_lon": 0.0, "bike_id": "20b4922c8203d1d1688fe3458738f28c", "is_disabled": 0, "is_reserved": 0}, {"rental_uris": {"ios": "https://dc.lft.to/lastmile_qr_scan", "android": "https://dc.lft.to/lastmile_qr_scan"}, "lon": -77.00290516666666, "type": "electric_scooter", "fusion_lat": 0.0, "lat": 38.90557866666666, "name": "a3598c5595042838cdd740b8de78b8e2", "fusion_lon": 0.0, "bike_id": "a3598c5595042838cdd740b8de78b8e2", "is_disabled": 0, "is_reserved": 0}, {"rental_uris": {"ios": "https://dc.lft.to/lastmile_qr_scan", "android": "https://dc.lft.to/lastmile_qr_scan"}, "lon": -77.04865283333334, "type": "electric_scooter", "fusion_lat": 0.0, "lat": 38.908521, "name": "2675ad2992d2332849c6071a80a54c95", "fusion_lon": 0.0, "bike_id": "2675ad2992d2332849c6071a80a54c95", "is_disabled": 0, "is_reserved": 0}, {"rental_uris": {"ios": "https://dc.lft.to/lastmile_qr_scan", "android": "https://dc.lft.to/lastmile_qr_scan"}, "lon": -77.05021833333333, "type": "electric_scooter", "fusion_lat": 0.0, "lat": 38.91797783333333, "name": "24f500d8fb8440f411679be54d38beb6", "fusion_lon": 0.0, "bike_id": "24f500d8fb8440f411679be54d38beb6", "is_disabled": 0, "is_reserved": 0}, {"rental_uris": {"ios": "https://dc.lft.to/lastmile_qr_scan", "android": "https://dc.lft.to/lastmile_qr_scan"}, "lon": -77.0240715, "type": "electric_scooter", "fusion_lat": 0.0, "lat": 38.93693916666667, "name": "66c4847cf359f1aa5e8d5ce81e651356", "fusion_lon": 0.0, "bike_id": "66c4847cf359f1aa5e8d5ce81e651356", "is_disabled": 0, "is_reserved": 0}, {"rental_uris": {"ios": "https://dc.lft.to/lastmile_qr_scan", "android": "https://dc.lft.to/lastmile_qr_scan"}, "lon": -77.02523366666667, "type": "electric_scooter", "fusion_lat": 0.0, "lat": 38.9386935, "name": "0a958c4edd91d05d865a30c7b8a3b478", "fusion_lon": 0.0, "bike_id": "0a958c4edd91d05d865a30c7b8a3b478", "is_disabled": 0, "is_reserved": 0}, {"rental_uris": {"ios": "https://dc.lft.to/lastmile_qr_scan", "android": "https://dc.lft.to/lastmile_qr_scan"}, "lon": -76.98338516666666, "type": "electric_scooter", "fusion_lat": 0.0, "lat": 38.915377166666666, "name": "0e649530035ace37fd6a83fc77f49c42", "fusion_lon": 0.0, "bike_id": "0e649530035ace37fd6a83fc77f49c42", "is_disabled": 0, "is_reserved": 0}, {"rental_uris": {"ios": "https://dc.lft.to/lastmile_qr_scan", "android": "https://dc.lft.to/lastmile_qr_scan"}, "lon": -76.9441915, "type": "electric_scooter", "fusion_lat": 0.0, "lat": 38.8979555, "name": "9305043805398869a3a07c0bf35d589f", "fusion_lon": 0.0, "bike_id": "9305043805398869a3a07c0bf35d589f", "is_disabled": 0, "is_reserved": 0}, {"rental_uris": {"ios": "https://dc.lft.to/lastmile_qr_scan", "android": "https://dc.lft.to/lastmile_qr_scan"}, "lon": -77.04070366666667, "type": "electric_scooter", "fusion_lat": 0.0, "lat": 38.9028205, "name": "15920ffd117e3d8bb2fd84e7b4eca7c3", "fusion_lon": 0.0, "bike_id": "15920ffd117e3d8bb2fd84e7b4eca7c3", "is_disabled": 0, "is_reserved": 0}, {"rental_uris": {"ios": "https://dc.lft.to/lastmile_qr_scan", "android": "https://dc.lft.to/lastmile_qr_scan"}, "lon": -77.035218, "type": "electric_bike", "fusion_lat": 0.0, "lat": 38.96541, "name": "19838ee11240f26d566c330b92e6d09f", "fusion_lon": 0.0, "bike_id": "19838ee11240f26d566c330b92e6d09f", "is_disabled": 0, "is_reserved": 0}, {"rental_uris": {"ios": "https://dc.lft.to/lastmile_qr_scan", "android": "https://dc.lft.to/lastmile_qr_scan"}, "lon": -77.01823116666667, "type": "electric_scooter", "fusion_lat": 0.0, "lat": 38.9008475, "name": "50ecf790fe20c770dcb5fce0144fec6b", "fusion_lon": 0.0, "bike_id": "50ecf790fe20c770dcb5fce0144fec6b", "is_disabled": 0, "is_reserved": 0}, {"rental_uris": {"ios": "https://dc.lft.to/lastmile_qr_scan", "android": "https://dc.lft.to/lastmile_qr_scan"}, "lon": -77.03262716666667, "type": "electric_scooter", "fusion_lat": 0.0, "lat": 38.939054166666665, "name": "517972234bca928a1c7bcf39e6404b63", "fusion_lon": 0.0, "bike_id": "517972234bca928a1c7bcf39e6404b63", "is_disabled": 0, "is_reserved": 0}, {"rental_uris": {"ios": "https://dc.lft.to/lastmile_qr_scan", "android": "https://dc.lft.to/lastmile_qr_scan"}, "lon": -77.06512266666667, "type": "electric_bike", "fusion_lat": 0.0, "lat": 38.90452366666667, "name": "e4e5f5adbe9aee6aabb3b270930a34e2", "fusion_lon": 0.0, "bike_id": "e4e5f5adbe9aee6aabb3b270930a34e2", "is_disabled": 0, "is_reserved": 0}, {"rental_uris": {"ios": "https://dc.lft.to/lastmile_qr_scan", "android": "https://dc.lft.to/lastmile_qr_scan"}, "lon": -76.9788025, "type": "electric_scooter", "fusion_lat": 0.0, "lat": 38.885071333333336, "name": "af176c9ea5712852b6c721e783fe14d2", "fusion_lon": 0.0, "bike_id": "af176c9ea5712852b6c721e783fe14d2", "is_disabled": 0, "is_reserved": 0}, {"rental_uris": {"ios": "https://dc.lft.to/lastmile_qr_scan", "android": "https://dc.lft.to/lastmile_qr_scan"}, "lon": -76.98698433333334, "type": "electric_scooter", "fusion_lat": 0.0, "lat": 38.907098833333336, "name": "852c6ca07fade85c452bbfaa45e72713", "fusion_lon": 0.0, "bike_id": "852c6ca07fade85c452bbfaa45e72713", "is_disabled": 0, "is_reserved": 0}, {"rental_uris": {"ios": "https://dc.lft.to/lastmile_qr_scan", "android": "https://dc.lft.to/lastmile_qr_scan"}, "lon": -77.01091816666667, "type": "electric_scooter", "fusion_lat": 0.0, "lat": 38.89451866666667, "name": "e760a435795c701bcd7abaa3f869b6d3", "fusion_lon": 0.0, "bike_id": "e760a435795c701bcd7abaa3f869b6d3", "is_disabled": 0, "is_reserved": 0}, {"rental_uris": {"ios": "https://dc.lft.to/lastmile_qr_scan", "android": "https://dc.lft.to/lastmile_qr_scan"}, "lon": -77.002057, "type": "electric_bike", "fusion_lat": 0.0, "lat": 38.819426, "name": "18a0d36d1465001104cbde0f5bf580a0", "fusion_lon": 0.0, "bike_id": "18a0d36d1465001104cbde0f5bf580a0", "is_disabled": 0, "is_reserved": 0}, {"rental_uris": {"ios": "https://dc.lft.to/lastmile_qr_scan", "android": "https://dc.lft.to/lastmile_qr_scan"}, "lon": -77.05543983333334, "type": "electric_scooter", "fusion_lat": 0.0, "lat": 38.93007983333333, "name": "563e624a3a595f1f08ed93e6dfed5c11", "fusion_lon": 0.0, "bike_id": "563e624a3a595f1f08ed93e6dfed5c11", "is_disabled": 0, "is_reserved": 0}, {"rental_uris": {"ios": "https://dc.lft.to/lastmile_qr_scan", "android": "https://dc.lft.to/lastmile_qr_scan"}, "lon": -77.028289, "type": "electric_scooter", "fusion_lat": 0.0, "lat": 38.9319295, "name": "9b18a20fc2852aa25372c81e931302b3", "fusion_lon": 0.0, "bike_id": "9b18a20fc2852aa25372c81e931302b3", "is_disabled": 0, "is_reserved": 0}, {"rental_uris": {"ios": "https://dc.lft.to/lastmile_qr_scan", "android": "https://dc.lft.to/lastmile_qr_scan"}, "lon": -77.0474855, "type": "electric_scooter", "fusion_lat": 0.0, "lat": 38.9018985, "name": "1fc06f58b7acb9c417cabbccd4b8523b", "fusion_lon": 0.0, "bike_id": "1fc06f58b7acb9c417cabbccd4b8523b", "is_disabled": 0, "is_reserved": 0}, {"rental_uris": {"ios": "https://dc.lft.to/lastmile_qr_scan", "android": "https://dc.lft.to/lastmile_qr_scan"}, "lon": -77.010094, "type": "electric_scooter", "fusion_lat": 0.0, "lat": 38.8948745, "name": "c1df09a71173d6740d7bae471da20450", "fusion_lon": 0.0, "bike_id": "c1df09a71173d6740d7bae471da20450", "is_disabled": 0, "is_reserved": 0}, {"rental_uris": {"ios": "https://dc.lft.to/lastmile_qr_scan", "android": "https://dc.lft.to/lastmile_qr_scan"}, "lon": -76.98817083333333, "type": "electric_scooter", "fusion_lat": 0.0, "lat": 38.90338416666667, "name": "919af5c46808ffd8f9256cff58455369", "fusion_lon": 0.0, "bike_id": "919af5c46808ffd8f9256cff58455369", "is_disabled": 0, "is_reserved": 0}, {"rental_uris": {"ios": "https://dc.lft.to/lastmile_qr_scan", "android": "https://dc.lft.to/lastmile_qr_scan"}, "lon": -77.027558, "type": "electric_scooter", "fusion_lat": 0.0, "lat": 38.923898, "name": "34fd7af89b1c7840221d77ae0712fcce", "fusion_lon": 0.0, "bike_id": "34fd7af89b1c7840221d77ae0712fcce", "is_disabled": 0, "is_reserved": 0}, {"rental_uris": {"ios": "https://dc.lft.to/lastmile_qr_scan", "android": "https://dc.lft.to/lastmile_qr_scan"}, "lon": -77.09552383333333, "type": "electric_scooter", "fusion_lat": 0.0, "lat": 38.9166395, "name": "b42125883bef2a0ed16ae8f58eab00b5", "fusion_lon": 0.0, "bike_id": "b42125883bef2a0ed16ae8f58eab00b5", "is_disabled": 0, "is_reserved": 0}, {"rental_uris": {"ios": "https://dc.lft.to/lastmile_qr_scan", "android": "https://dc.lft.to/lastmile_qr_scan"}, "lon": -76.93301183333334, "type": "electric_scooter", "fusion_lat": 0.0, "lat": 38.898942, "name": "283c6f20fe26cce3e996ae6311b5e4d7", "fusion_lon": 0.0, "bike_id": "283c6f20fe26cce3e996ae6311b5e4d7", "is_disabled": 0, "is_reserved": 0}, {"rental_uris": {"ios": "https://dc.lft.to/lastmile_qr_scan", "android": "https://dc.lft.to/lastmile_qr_scan"}, "lon": -76.98578883333333, "type": "electric_scooter", "fusion_lat": 0.0, "lat": 38.906623, "name": "11cf0712187d36e137ea50f9560666ef", "fusion_lon": 0.0, "bike_id": "11cf0712187d36e137ea50f9560666ef", "is_disabled": 0, "is_reserved": 0}, {"rental_uris": {"ios": "https://dc.lft.to/lastmile_qr_scan", "android": "https://dc.lft.to/lastmile_qr_scan"}, "lon": -77.035458, "type": "electric_scooter", "fusion_lat": 0.0, "lat": 38.92423083333333, "name": "b09bafd64424af1ab01209c85f14d2b2", "fusion_lon": 0.0, "bike_id": "b09bafd64424af1ab01209c85f14d2b2", "is_disabled": 0, "is_reserved": 0}, {"rental_uris": {"ios": "https://dc.lft.to/lastmile_qr_scan", "android": "https://dc.lft.to/lastmile_qr_scan"}, "lon": -77.03915233333333, "type": "electric_scooter", "fusion_lat": 0.0, "lat": 38.92472716666666, "name": "a812b7d4621f783e9e16b77af4ca0eca", "fusion_lon": 0.0, "bike_id": "a812b7d4621f783e9e16b77af4ca0eca", "is_disabled": 0, "is_reserved": 0}, {"rental_uris": {"ios": "https://dc.lft.to/lastmile_qr_scan", "android": "https://dc.lft.to/lastmile_qr_scan"}, "lon": -77.01218433333334, "type": "electric_scooter", "fusion_lat": 0.0, "lat": 38.90978616666666, "name": "e25c0fd9311143de4a3500d44e8db7a4", "fusion_lon": 0.0, "bike_id": "e25c0fd9311143de4a3500d44e8db7a4", "is_disabled": 0, "is_reserved": 0}, {"rental_uris": {"ios": "https://dc.lft.to/lastmile_qr_scan", "android": "https://dc.lft.to/lastmile_qr_scan"}, "lon": -76.9855405, "type": "electric_scooter", "fusion_lat": 0.0, "lat": 38.89957016666666, "name": "e07c0151129a9d721ab15bd9acc5a4dc", "fusion_lon": 0.0, "bike_id": "e07c0151129a9d721ab15bd9acc5a4dc", "is_disabled": 0, "is_reserved": 0}, {"rental_uris": {"ios": "https://dc.lft.to/lastmile_qr_scan", "android": "https://dc.lft.to/lastmile_qr_scan"}, "lon": -77.05860783333334, "type": "electric_scooter", "fusion_lat": 0.0, "lat": 38.93607866666667, "name": "b6dae44ff53db5785b2ec6f0653c9b77", "fusion_lon": 0.0, "bike_id": "b6dae44ff53db5785b2ec6f0653c9b77", "is_disabled": 0, "is_reserved": 0}, {"rental_uris": {"ios": "https://dc.lft.to/lastmile_qr_scan", "android": "https://dc.lft.to/lastmile_qr_scan"}, "lon": -77.03418116666667, "type": "electric_scooter", "fusion_lat": 0.0, "lat": 38.919331, "name": "a9b2042e89779eeca774c9b0dd5a4900", "fusion_lon": 0.0, "bike_id": "a9b2042e89779eeca774c9b0dd5a4900", "is_disabled": 0, "is_reserved": 0}, {"rental_uris": {"ios": "https://dc.lft.to/lastmile_qr_scan", "android": "https://dc.lft.to/lastmile_qr_scan"}, "lon": -77.04234383333333, "type": "electric_scooter", "fusion_lat": 0.0, "lat": 38.91110233333333, "name": "5d10d61235b7118901d71a8bb5b91b22", "fusion_lon": 0.0, "bike_id": "5d10d61235b7118901d71a8bb5b91b22", "is_disabled": 0, "is_reserved": 0}, {"rental_uris": {"ios": "https://dc.lft.to/lastmile_qr_scan", "android": "https://dc.lft.to/lastmile_qr_scan"}, "lon": -77.03334716666667, "type": "electric_scooter", "fusion_lat": 0.0, "lat": 38.91818516666667, "name": "74daad8ebf102c20f91b5aaa87295b05", "fusion_lon": 0.0, "bike_id": "74daad8ebf102c20f91b5aaa87295b05", "is_disabled": 0, "is_reserved": 0}, {"rental_uris": {"ios": "https://dc.lft.to/lastmile_qr_scan", "android": "https://dc.lft.to/lastmile_qr_scan"}, "lon": -77.02830883333333, "type": "electric_scooter", "fusion_lat": 0.0, "lat": 38.886576, "name": "50d074cb13ce16942ccb044a4466a417", "fusion_lon": 0.0, "bike_id": "50d074cb13ce16942ccb044a4466a417", "is_disabled": 0, "is_reserved": 0}, {"rental_uris": {"ios": "https://dc.lft.to/lastmile_qr_scan", "android": "https://dc.lft.to/lastmile_qr_scan"}, "lon": -76.99000733333334, "type": "electric_scooter", "fusion_lat": 0.0, "lat": 38.86507966666667, "name": "1139e68c98091981838d7e2f7f4b03d1", "fusion_lon": 0.0, "bike_id": "1139e68c98091981838d7e2f7f4b03d1", "is_disabled": 0, "is_reserved": 0}, {"rental_uris": {"ios": "https://dc.lft.to/lastmile_qr_scan", "android": "https://dc.lft.to/lastmile_qr_scan"}, "lon": -76.94891433333333, "type": "electric_scooter", "fusion_lat": 0.0, "lat": 38.89529316666667, "name": "a2b040976b62d4e9ee74d21e43916994", "fusion_lon": 0.0, "bike_id": "a2b040976b62d4e9ee74d21e43916994", "is_disabled": 0, "is_reserved": 0}, {"rental_uris": {"ios": "https://dc.lft.to/lastmile_qr_scan", "android": "https://dc.lft.to/lastmile_qr_scan"}, "lon": -77.02152683333334, "type": "electric_scooter", "fusion_lat": 0.0, "lat": 38.926032666666664, "name": "f105ef2a69e230d65e47acadb9b27224", "fusion_lon": 0.0, "bike_id": "f105ef2a69e230d65e47acadb9b27224", "is_disabled": 0, "is_reserved": 0}, {"rental_uris": {"ios": "https://dc.lft.to/lastmile_qr_scan", "android": "https://dc.lft.to/lastmile_qr_scan"}, "lon": -77.02378033333333, "type": "electric_scooter", "fusion_lat": 0.0, "lat": 38.89492383333334, "name": "ced03be67b7181da4fc538075e937a67", "fusion_lon": 0.0, "bike_id": "ced03be67b7181da4fc538075e937a67", "is_disabled": 0, "is_reserved": 0}, {"rental_uris": {"ios": "https://dc.lft.to/lastmile_qr_scan", "android": "https://dc.lft.to/lastmile_qr_scan"}, "lon": -77.05439183333333, "type": "electric_scooter", "fusion_lat": 0.0, "lat": 38.92335383333333, "name": "d252b0081e668b33a04e4ac8bc02876b", "fusion_lon": 0.0, "bike_id": "d252b0081e668b33a04e4ac8bc02876b", "is_disabled": 0, "is_reserved": 0}, {"rental_uris": {"ios": "https://dc.lft.to/lastmile_qr_scan", "android": "https://dc.lft.to/lastmile_qr_scan"}, "lon": -77.05286633333333, "type": "electric_scooter", "fusion_lat": 0.0, "lat": 38.91892816666667, "name": "98e1fa6dc5affc208450c59200597569", "fusion_lon": 0.0, "bike_id": "98e1fa6dc5affc208450c59200597569", "is_disabled": 0, "is_reserved": 0}, {"rental_uris": {"ios": "https://dc.lft.to/lastmile_qr_scan", "android": "https://dc.lft.to/lastmile_qr_scan"}, "lon": -77.0707175, "type": "electric_scooter", "fusion_lat": 0.0, "lat": 38.95219733333333, "name": "d4e445c69b6f448407d0e2bf035ef927", "fusion_lon": 0.0, "bike_id": "d4e445c69b6f448407d0e2bf035ef927", "is_disabled": 0, "is_reserved": 0}, {"rental_uris": {"ios": "https://dc.lft.to/lastmile_qr_scan", "android": "https://dc.lft.to/lastmile_qr_scan"}, "lon": -77.04158633333333, "type": "electric_scooter", "fusion_lat": 0.0, "lat": 38.903568666666665, "name": "f1fb07868936ac549ab29b9e2cc68f00", "fusion_lon": 0.0, "bike_id": "f1fb07868936ac549ab29b9e2cc68f00", "is_disabled": 0, "is_reserved": 0}, {"rental_uris": {"ios": "https://dc.lft.to/lastmile_qr_scan", "android": "https://dc.lft.to/lastmile_qr_scan"}, "lon": -77.034098, "type": "electric_scooter", "fusion_lat": 0.0, "lat": 38.922668, "name": "710c79ad895672911a96e79065fb293e", "fusion_lon": 0.0, "bike_id": "710c79ad895672911a96e79065fb293e", "is_disabled": 0, "is_reserved": 0}, {"rental_uris": {"ios": "https://dc.lft.to/lastmile_qr_scan", "android": "https://dc.lft.to/lastmile_qr_scan"}, "lon": -77.008599, "type": "electric_bike", "fusion_lat": 0.0, "lat": 38.827345666666666, "name": "1c2d3b6dbd00a91963839e322b563ea6", "fusion_lon": 0.0, "bike_id": "1c2d3b6dbd00a91963839e322b563ea6", "is_disabled": 0, "is_reserved": 0}, {"rental_uris": {"ios": "https://dc.lft.to/lastmile_qr_scan", "android": "https://dc.lft.to/lastmile_qr_scan"}, "lon": -77.04712583333334, "type": "electric_scooter", "fusion_lat": 0.0, "lat": 38.92240283333334, "name": "c6da1c55ef4cbf387d0faffc9e91d9ea", "fusion_lon": 0.0, "bike_id": "c6da1c55ef4cbf387d0faffc9e91d9ea", "is_disabled": 0, "is_reserved": 0}, {"rental_uris": {"ios": "https://dc.lft.to/lastmile_qr_scan", "android": "https://dc.lft.to/lastmile_qr_scan"}, "lon": -77.0449745, "type": "electric_scooter", "fusion_lat": 0.0, "lat": 38.90017066666667, "name": "603b371e6d24b33e5626e61059cdf2e1", "fusion_lon": 0.0, "bike_id": "603b371e6d24b33e5626e61059cdf2e1", "is_disabled": 0, "is_reserved": 0}, {"rental_uris": {"ios": "https://dc.lft.to/lastmile_qr_scan", "android": "https://dc.lft.to/lastmile_qr_scan"}, "lon": -76.996725, "type": "electric_scooter", "fusion_lat": 0.0, "lat": 38.91015566666667, "name": "18188f29ac2883cd36650a6d24e9ed6e", "fusion_lon": 0.0, "bike_id": "18188f29ac2883cd36650a6d24e9ed6e", "is_disabled": 0, "is_reserved": 0}, {"rental_uris": {"ios": "https://dc.lft.to/lastmile_qr_scan", "android": "https://dc.lft.to/lastmile_qr_scan"}, "lon": -77.00812166666667, "type": "electric_bike", "fusion_lat": 0.0, "lat": 38.92669566666667, "name": "e01f1acc2e8acb3f65731bcbedef75d3", "fusion_lon": 0.0, "bike_id": "e01f1acc2e8acb3f65731bcbedef75d3", "is_disabled": 0, "is_reserved": 0}, {"rental_uris": {"ios": "https://dc.lft.to/lastmile_qr_scan", "android": "https://dc.lft.to/lastmile_qr_scan"}, "lon": -77.06101433333333, "type": "electric_scooter", "fusion_lat": 0.0, "lat": 38.937086666666666, "name": "eb843aacbb68f714d12bc352e76bd8c1", "fusion_lon": 0.0, "bike_id": "eb843aacbb68f714d12bc352e76bd8c1", "is_disabled": 0, "is_reserved": 0}, {"rental_uris": {"ios": "https://dc.lft.to/lastmile_qr_scan", "android": "https://dc.lft.to/lastmile_qr_scan"}, "lon": -76.94718733333333, "type": "electric_scooter", "fusion_lat": 0.0, "lat": 38.897383166666664, "name": "9607bc2a8dd05209985d26f9a8d755d1", "fusion_lon": 0.0, "bike_id": "9607bc2a8dd05209985d26f9a8d755d1", "is_disabled": 0, "is_reserved": 0}, {"rental_uris": {"ios": "https://dc.lft.to/lastmile_qr_scan", "android": "https://dc.lft.to/lastmile_qr_scan"}, "lon": -76.98656433333333, "type": "electric_scooter", "fusion_lat": 0.0, "lat": 38.858063666666666, "name": "055a892506069de63bea31eb5a8efd35", "fusion_lon": 0.0, "bike_id": "055a892506069de63bea31eb5a8efd35", "is_disabled": 0, "is_reserved": 0}, {"rental_uris": {"ios": "https://dc.lft.to/lastmile_qr_scan", "android": "https://dc.lft.to/lastmile_qr_scan"}, "lon": -77.02721233333334, "type": "electric_scooter", "fusion_lat": 0.0, "lat": 38.93436916666667, "name": "40237041b0b08999d63f4983af442d5e", "fusion_lon": 0.0, "bike_id": "40237041b0b08999d63f4983af442d5e", "is_disabled": 0, "is_reserved": 0}, {"rental_uris": {"ios": "https://dc.lft.to/lastmile_qr_scan", "android": "https://dc.lft.to/lastmile_qr_scan"}, "lon": -77.053412, "type": "electric_scooter", "fusion_lat": 0.0, "lat": 38.902300833333335, "name": "e2fb02df592399fc30d379832abcd484", "fusion_lon": 0.0, "bike_id": "e2fb02df592399fc30d379832abcd484", "is_disabled": 0, "is_reserved": 0}, {"rental_uris": {"ios": "https://dc.lft.to/lastmile_qr_scan", "android": "https://dc.lft.to/lastmile_qr_scan"}, "lon": -77.07092216666666, "type": "electric_scooter", "fusion_lat": 0.0, "lat": 38.93366133333333, "name": "b925586c5f7af42d655c5f40077b8ae8", "fusion_lon": 0.0, "bike_id": "b925586c5f7af42d655c5f40077b8ae8", "is_disabled": 0, "is_reserved": 0}, {"rental_uris": {"ios": "https://dc.lft.to/lastmile_qr_scan", "android": "https://dc.lft.to/lastmile_qr_scan"}, "lon": -77.03656533333333, "type": "electric_scooter", "fusion_lat": 0.0, "lat": 38.936357, "name": "d88628639074b0e6133334a8eff041dc", "fusion_lon": 0.0, "bike_id": "d88628639074b0e6133334a8eff041dc", "is_disabled": 0, "is_reserved": 0}, {"rental_uris": {"ios": "https://dc.lft.to/lastmile_qr_scan", "android": "https://dc.lft.to/lastmile_qr_scan"}, "lon": -77.02360233333333, "type": "electric_scooter", "fusion_lat": 0.0, "lat": 38.935463, "name": "05a014bc8e01c808e79d76c4600194a0", "fusion_lon": 0.0, "bike_id": "05a014bc8e01c808e79d76c4600194a0", "is_disabled": 0, "is_reserved": 0}, {"rental_uris": {"ios": "https://dc.lft.to/lastmile_qr_scan", "android": "https://dc.lft.to/lastmile_qr_scan"}, "lon": -77.04474866666666, "type": "electric_scooter", "fusion_lat": 0.0, "lat": 38.92240283333334, "name": "ddd7d03af1121e6282475cb73cb3ee4e", "fusion_lon": 0.0, "bike_id": "ddd7d03af1121e6282475cb73cb3ee4e", "is_disabled": 0, "is_reserved": 0}, {"rental_uris": {"ios": "https://dc.lft.to/lastmile_qr_scan", "android": "https://dc.lft.to/lastmile_qr_scan"}, "lon": -77.04195033333333, "type": "electric_scooter", "fusion_lat": 0.0, "lat": 38.92207783333333, "name": "97c950b7ca96dbfcca59fa98db107cb8", "fusion_lon": 0.0, "bike_id": "97c950b7ca96dbfcca59fa98db107cb8", "is_disabled": 0, "is_reserved": 0}, {"rental_uris": {"ios": "https://dc.lft.to/lastmile_qr_scan", "android": "https://dc.lft.to/lastmile_qr_scan"}, "lon": -77.0418595, "type": "electric_scooter", "fusion_lat": 0.0, "lat": 38.92021416666667, "name": "bff93459a3c292da49c923de88b6d590", "fusion_lon": 0.0, "bike_id": "bff93459a3c292da49c923de88b6d590", "is_disabled": 0, "is_reserved": 0}, {"rental_uris": {"ios": "https://dc.lft.to/lastmile_qr_scan", "android": "https://dc.lft.to/lastmile_qr_scan"}, "lon": -77.08565116666666, "type": "electric_bike", "fusion_lat": 0.0, "lat": 38.9097705, "name": "a16ca166c59d0c2c6ae0e159b5384003", "fusion_lon": 0.0, "bike_id": "a16ca166c59d0c2c6ae0e159b5384003", "is_disabled": 0, "is_reserved": 0}, {"rental_uris": {"ios": "https://dc.lft.to/lastmile_qr_scan", "android": "https://dc.lft.to/lastmile_qr_scan"}, "lon": -76.9323455, "type": "electric_bike", "fusion_lat": 0.0, "lat": 38.8828665, "name": "042f999cbc89f230a13884d447073440", "fusion_lon": 0.0, "bike_id": "042f999cbc89f230a13884d447073440", "is_disabled": 0, "is_reserved": 0}, {"rental_uris": {"ios": "https://dc.lft.to/lastmile_qr_scan", "android": "https://dc.lft.to/lastmile_qr_scan"}, "lon": -76.99609166666667, "type": "electric_scooter", "fusion_lat": 0.0, "lat": 38.89749066666667, "name": "3de2bcbd7c35003c4ff4346dec032b0a", "fusion_lon": 0.0, "bike_id": "3de2bcbd7c35003c4ff4346dec032b0a", "is_disabled": 0, "is_reserved": 0}, {"rental_uris": {"ios": "https://dc.lft.to/lastmile_qr_scan", "android": "https://dc.lft.to/lastmile_qr_scan"}, "lon": -77.00046316666666, "type": "electric_scooter", "fusion_lat": 0.0, "lat": 38.87420866666667, "name": "e03a2b666e15923037afc8188a351e4d", "fusion_lon": 0.0, "bike_id": "e03a2b666e15923037afc8188a351e4d", "is_disabled": 0, "is_reserved": 0}, {"rental_uris": {"ios": "https://dc.lft.to/lastmile_qr_scan", "android": "https://dc.lft.to/lastmile_qr_scan"}, "lon": -77.03621583333333, "type": "electric_scooter", "fusion_lat": 0.0, "lat": 38.9325805, "name": "1d1d0ecc0b00c643f2ac5054b4b9e89b", "fusion_lon": 0.0, "bike_id": "1d1d0ecc0b00c643f2ac5054b4b9e89b", "is_disabled": 0, "is_reserved": 0}, {"rental_uris": {"ios": "https://dc.lft.to/lastmile_qr_scan", "android": "https://dc.lft.to/lastmile_qr_scan"}, "lon": -76.94178566666666, "type": "electric_scooter", "fusion_lat": 0.0, "lat": 38.88225766666667, "name": "515acd7c151fccef0fc04463e7660c77", "fusion_lon": 0.0, "bike_id": "515acd7c151fccef0fc04463e7660c77", "is_disabled": 0, "is_reserved": 0}, {"rental_uris": {"ios": "https://dc.lft.to/lastmile_qr_scan", "android": "https://dc.lft.to/lastmile_qr_scan"}, "lon": -77.04489383333333, "type": "electric_scooter", "fusion_lat": 0.0, "lat": 38.91052916666666, "name": "7335dec9f7a13879d6ec0f814b0e2cde", "fusion_lon": 0.0, "bike_id": "7335dec9f7a13879d6ec0f814b0e2cde", "is_disabled": 0, "is_reserved": 0}, {"rental_uris": {"ios": "https://dc.lft.to/lastmile_qr_scan", "android": "https://dc.lft.to/lastmile_qr_scan"}, "lon": -77.04263966666667, "type": "electric_scooter", "fusion_lat": 0.0, "lat": 38.92213316666667, "name": "f035e6a46db1eee50b081ac8b82e4113", "fusion_lon": 0.0, "bike_id": "f035e6a46db1eee50b081ac8b82e4113", "is_disabled": 0, "is_reserved": 0}, {"rental_uris": {"ios": "https://dc.lft.to/lastmile_qr_scan", "android": "https://dc.lft.to/lastmile_qr_scan"}, "lon": -77.04442233333333, "type": "electric_scooter", "fusion_lat": 0.0, "lat": 38.910211333333336, "name": "7e000e01e9f3eef1d349521e5922aba4", "fusion_lon": 0.0, "bike_id": "7e000e01e9f3eef1d349521e5922aba4", "is_disabled": 0, "is_reserved": 0}, {"rental_uris": {"ios": "https://dc.lft.to/lastmile_qr_scan", "android": "https://dc.lft.to/lastmile_qr_scan"}, "lon": -76.99147183333334, "type": "electric_scooter", "fusion_lat": 0.0, "lat": 38.90042716666667, "name": "f5f02bc79f6161273e32a97e13609d37", "fusion_lon": 0.0, "bike_id": "f5f02bc79f6161273e32a97e13609d37", "is_disabled": 0, "is_reserved": 0}, {"rental_uris": {"ios": "https://dc.lft.to/lastmile_qr_scan", "android": "https://dc.lft.to/lastmile_qr_scan"}, "lon": -76.98713766666667, "type": "electric_scooter", "fusion_lat": 0.0, "lat": 38.862651, "name": "e48bd2e19f822e712aa21873656ac1bb", "fusion_lon": 0.0, "bike_id": "e48bd2e19f822e712aa21873656ac1bb", "is_disabled": 0, "is_reserved": 0}, {"rental_uris": {"ios": "https://dc.lft.to/lastmile_qr_scan", "android": "https://dc.lft.to/lastmile_qr_scan"}, "lon": -76.9540805, "type": "electric_scooter", "fusion_lat": 0.0, "lat": 38.889923333333336, "name": "29d99c80b0065cb40e487012a12198eb", "fusion_lon": 0.0, "bike_id": "29d99c80b0065cb40e487012a12198eb", "is_disabled": 0, "is_reserved": 0}, {"rental_uris": {"ios": "https://dc.lft.to/lastmile_qr_scan", "android": "https://dc.lft.to/lastmile_qr_scan"}, "lon": -77.038687, "type": "electric_scooter", "fusion_lat": 0.0, "lat": 38.91560716666667, "name": "e6882c7219676ff3569fda1a329bfd9e", "fusion_lon": 0.0, "bike_id": "e6882c7219676ff3569fda1a329bfd9e", "is_disabled": 0, "is_reserved": 0}, {"rental_uris": {"ios": "https://dc.lft.to/lastmile_qr_scan", "android": "https://dc.lft.to/lastmile_qr_scan"}, "lon": -77.05471116666666, "type": "electric_scooter", "fusion_lat": 0.0, "lat": 38.9210415, "name": "9057590f09773d8291ffe6e4f95c477d", "fusion_lon": 0.0, "bike_id": "9057590f09773d8291ffe6e4f95c477d", "is_disabled": 0, "is_reserved": 0}, {"rental_uris": {"ios": "https://dc.lft.to/lastmile_qr_scan", "android": "https://dc.lft.to/lastmile_qr_scan"}, "lon": -77.02097816666667, "type": "electric_scooter", "fusion_lat": 0.0, "lat": 38.9141515, "name": "8160eca26434b9b86066b41fc379d3f8", "fusion_lon": 0.0, "bike_id": "8160eca26434b9b86066b41fc379d3f8", "is_disabled": 0, "is_reserved": 0}, {"rental_uris": {"ios": "https://dc.lft.to/lastmile_qr_scan", "android": "https://dc.lft.to/lastmile_qr_scan"}, "lon": -76.99502983333333, "type": "electric_scooter", "fusion_lat": 0.0, "lat": 38.88012883333333, "name": "61144f7b12579a217062baaa470f6867", "fusion_lon": 0.0, "bike_id": "61144f7b12579a217062baaa470f6867", "is_disabled": 0, "is_reserved": 0}, {"rental_uris": {"ios": "https://dc.lft.to/lastmile_qr_scan", "android": "https://dc.lft.to/lastmile_qr_scan"}, "lon": -77.0463365, "type": "electric_scooter", "fusion_lat": 0.0, "lat": 38.90651833333333, "name": "c104eb682af50aa91dfed3df7b23b602", "fusion_lon": 0.0, "bike_id": "c104eb682af50aa91dfed3df7b23b602", "is_disabled": 0, "is_reserved": 0}, {"rental_uris": {"ios": "https://dc.lft.to/lastmile_qr_scan", "android": "https://dc.lft.to/lastmile_qr_scan"}, "lon": -77.03220183333333, "type": "electric_scooter", "fusion_lat": 0.0, "lat": 38.892193666666664, "name": "e82de69df746e43c97592bc09f26dbe7", "fusion_lon": 0.0, "bike_id": "e82de69df746e43c97592bc09f26dbe7", "is_disabled": 0, "is_reserved": 0}, {"rental_uris": {"ios": "https://dc.lft.to/lastmile_qr_scan", "android": "https://dc.lft.to/lastmile_qr_scan"}, "lon": -77.03172766666667, "type": "electric_scooter", "fusion_lat": 0.0, "lat": 38.9133995, "name": "74cc30a143bfb3c22e1561799ab9c071", "fusion_lon": 0.0, "bike_id": "74cc30a143bfb3c22e1561799ab9c071", "is_disabled": 0, "is_reserved": 0}, {"rental_uris": {"ios": "https://dc.lft.to/lastmile_qr_scan", "android": "https://dc.lft.to/lastmile_qr_scan"}, "lon": -77.06330866666667, "type": "electric_bike", "fusion_lat": 0.0, "lat": 38.92109816666667, "name": "bd578b1cb48a7c29f90f81aadf62ecb9", "fusion_lon": 0.0, "bike_id": "bd578b1cb48a7c29f90f81aadf62ecb9", "is_disabled": 0, "is_reserved": 0}, {"rental_uris": {"ios": "https://dc.lft.to/lastmile_qr_scan", "android": "https://dc.lft.to/lastmile_qr_scan"}, "lon": -77.04349966666666, "type": "electric_scooter", "fusion_lat": 0.0, "lat": 38.9118455, "name": "2c0c0852894f45ae1feec8801a0923e0", "fusion_lon": 0.0, "bike_id": "2c0c0852894f45ae1feec8801a0923e0", "is_disabled": 0, "is_reserved": 0}, {"rental_uris": {"ios": "https://dc.lft.to/lastmile_qr_scan", "android": "https://dc.lft.to/lastmile_qr_scan"}, "lon": -77.06165316666667, "type": "electric_scooter", "fusion_lat": 0.0, "lat": 38.948074166666665, "name": "0b41033592163091f4dfdcbf5b7409d9", "fusion_lon": 0.0, "bike_id": "0b41033592163091f4dfdcbf5b7409d9", "is_disabled": 0, "is_reserved": 0}, {"rental_uris": {"ios": "https://dc.lft.to/lastmile_qr_scan", "android": "https://dc.lft.to/lastmile_qr_scan"}, "lon": -77.01363016666667, "type": "electric_scooter", "fusion_lat": 0.0, "lat": 38.86373833333333, "name": "4e4f33a8a9571934a9d0466127320474", "fusion_lon": 0.0, "bike_id": "4e4f33a8a9571934a9d0466127320474", "is_disabled": 0, "is_reserved": 0}, {"rental_uris": {"ios": "https://dc.lft.to/lastmile_qr_scan", "android": "https://dc.lft.to/lastmile_qr_scan"}, "lon": -77.0359045, "type": "electric_scooter", "fusion_lat": 0.0, "lat": 38.932401666666664, "name": "26c6d80740e1e239655e537d5b7c27fc", "fusion_lon": 0.0, "bike_id": "26c6d80740e1e239655e537d5b7c27fc", "is_disabled": 0, "is_reserved": 0}, {"rental_uris": {"ios": "https://dc.lft.to/lastmile_qr_scan", "android": "https://dc.lft.to/lastmile_qr_scan"}, "lon": -76.9463205, "type": "electric_scooter", "fusion_lat": 0.0, "lat": 38.8984635, "name": "36af026189c7c596aa37923da524acd9", "fusion_lon": 0.0, "bike_id": "36af026189c7c596aa37923da524acd9", "is_disabled": 0, "is_reserved": 0}, {"rental_uris": {"ios": "https://dc.lft.to/lastmile_qr_scan", "android": "https://dc.lft.to/lastmile_qr_scan"}, "lon": -77.03435183333333, "type": "electric_scooter", "fusion_lat": 0.0, "lat": 38.90971166666667, "name": "b72083e7401884712e477691add2ec25", "fusion_lon": 0.0, "bike_id": "b72083e7401884712e477691add2ec25", "is_disabled": 0, "is_reserved": 0}, {"rental_uris": {"ios": "https://dc.lft.to/lastmile_qr_scan", "android": "https://dc.lft.to/lastmile_qr_scan"}, "lon": -77.04818883333333, "type": "electric_scooter", "fusion_lat": 0.0, "lat": 38.908024, "name": "d4b1b4c6ed6ae652a1378aff9b56dd49", "fusion_lon": 0.0, "bike_id": "d4b1b4c6ed6ae652a1378aff9b56dd49", "is_disabled": 0, "is_reserved": 0}, {"rental_uris": {"ios": "https://dc.lft.to/lastmile_qr_scan", "android": "https://dc.lft.to/lastmile_qr_scan"}, "lon": -77.02171566666667, "type": "electric_scooter", "fusion_lat": 0.0, "lat": 38.94294683333333, "name": "1266d85a82b8af136a73080bfb482d87", "fusion_lon": 0.0, "bike_id": "1266d85a82b8af136a73080bfb482d87", "is_disabled": 0, "is_reserved": 0}, {"rental_uris": {"ios": "https://dc.lft.to/lastmile_qr_scan", "android": "https://dc.lft.to/lastmile_qr_scan"}, "lon": -77.05967116666666, "type": "electric_scooter", "fusion_lat": 0.0, "lat": 38.902526, "name": "7b2cc7dbf0ab23238913a3dc814ccc04", "fusion_lon": 0.0, "bike_id": "7b2cc7dbf0ab23238913a3dc814ccc04", "is_disabled": 0, "is_reserved": 0}, {"rental_uris": {"ios": "https://dc.lft.to/lastmile_qr_scan", "android": "https://dc.lft.to/lastmile_qr_scan"}, "lon": -77.01740933333333, "type": "electric_scooter", "fusion_lat": 0.0, "lat": 38.877185, "name": "4da21fdcdb0325aa731c3c4a0c91ad6b", "fusion_lon": 0.0, "bike_id": "4da21fdcdb0325aa731c3c4a0c91ad6b", "is_disabled": 0, "is_reserved": 0}, {"rental_uris": {"ios": "https://dc.lft.to/lastmile_qr_scan", "android": "https://dc.lft.to/lastmile_qr_scan"}, "lon": -77.0237745, "type": "electric_scooter", "fusion_lat": 0.0, "lat": 38.937001333333335, "name": "6c305d6f61957b13f4ff0c8fab5164ff", "fusion_lon": 0.0, "bike_id": "6c305d6f61957b13f4ff0c8fab5164ff", "is_disabled": 0, "is_reserved": 0}, {"rental_uris": {"ios": "https://dc.lft.to/lastmile_qr_scan", "android": "https://dc.lft.to/lastmile_qr_scan"}, "lon": -77.040395, "type": "electric_scooter", "fusion_lat": 0.0, "lat": 38.9247495, "name": "c52fbd5995803602a797bdc42495de74", "fusion_lon": 0.0, "bike_id": "c52fbd5995803602a797bdc42495de74", "is_disabled": 0, "is_reserved": 0}, {"rental_uris": {"ios": "https://dc.lft.to/lastmile_qr_scan", "android": "https://dc.lft.to/lastmile_qr_scan"}, "lon": -77.03183116666666, "type": "electric_scooter", "fusion_lat": 0.0, "lat": 38.929682666666665, "name": "b2c416851d26742ae51d543f5199b96c", "fusion_lon": 0.0, "bike_id": "b2c416851d26742ae51d543f5199b96c", "is_disabled": 0, "is_reserved": 0}, {"rental_uris": {"ios": "https://dc.lft.to/lastmile_qr_scan", "android": "https://dc.lft.to/lastmile_qr_scan"}, "lon": -77.02969733333333, "type": "electric_scooter", "fusion_lat": 0.0, "lat": 38.910598666666665, "name": "650c43dfb238ae07930c29be4d1e54f5", "fusion_lon": 0.0, "bike_id": "650c43dfb238ae07930c29be4d1e54f5", "is_disabled": 0, "is_reserved": 0}, {"rental_uris": {"ios": "https://dc.lft.to/lastmile_qr_scan", "android": "https://dc.lft.to/lastmile_qr_scan"}, "lon": -77.03323616666667, "type": "electric_scooter", "fusion_lat": 0.0, "lat": 38.926581666666664, "name": "93bf0f697b0353ac19eae551f1b4cb41", "fusion_lon": 0.0, "bike_id": "93bf0f697b0353ac19eae551f1b4cb41", "is_disabled": 0, "is_reserved": 0}, {"rental_uris": {"ios": "https://dc.lft.to/lastmile_qr_scan", "android": "https://dc.lft.to/lastmile_qr_scan"}, "lon": -77.02174483333333, "type": "electric_scooter", "fusion_lat": 0.0, "lat": 38.89848633333333, "name": "635f82f1241276befd3f0158ca1186d6", "fusion_lon": 0.0, "bike_id": "635f82f1241276befd3f0158ca1186d6", "is_disabled": 0, "is_reserved": 0}, {"rental_uris": {"ios": "https://dc.lft.to/lastmile_qr_scan", "android": "https://dc.lft.to/lastmile_qr_scan"}, "lon": -77.1105775, "type": "electric_bike", "fusion_lat": 0.0, "lat": 38.870690833333335, "name": "b6df92b6ff3569048f93ef655ed43606", "fusion_lon": 0.0, "bike_id": "b6df92b6ff3569048f93ef655ed43606", "is_disabled": 0, "is_reserved": 0}, {"rental_uris": {"ios": "https://dc.lft.to/lastmile_qr_scan", "android": "https://dc.lft.to/lastmile_qr_scan"}, "lon": -76.998232, "type": "electric_scooter", "fusion_lat": 0.0, "lat": 38.92329, "name": "96d380973093dbdea59266b6721ba0da", "fusion_lon": 0.0, "bike_id": "96d380973093dbdea59266b6721ba0da", "is_disabled": 0, "is_reserved": 0}, {"rental_uris": {"ios": "https://dc.lft.to/lastmile_qr_scan", "android": "https://dc.lft.to/lastmile_qr_scan"}, "lon": -76.9726655, "type": "electric_bike", "fusion_lat": 0.0, "lat": 38.9198145, "name": "a0a112e488a2bbd1e5dd03f91f7f8929", "fusion_lon": 0.0, "bike_id": "a0a112e488a2bbd1e5dd03f91f7f8929", "is_disabled": 0, "is_reserved": 0}, {"rental_uris": {"ios": "https://dc.lft.to/lastmile_qr_scan", "android": "https://dc.lft.to/lastmile_qr_scan"}, "lon": -77.00486466666666, "type": "electric_scooter", "fusion_lat": 0.0, "lat": 38.88772216666667, "name": "9ccb424b5e2d0083d49753c553134a00", "fusion_lon": 0.0, "bike_id": "9ccb424b5e2d0083d49753c553134a00", "is_disabled": 0, "is_reserved": 0}, {"rental_uris": {"ios": "https://dc.lft.to/lastmile_qr_scan", "android": "https://dc.lft.to/lastmile_qr_scan"}, "lon": -76.980199, "type": "electric_scooter", "fusion_lat": 0.0, "lat": 38.88765716666666, "name": "d07717e04563b73910869a4207be3b23", "fusion_lon": 0.0, "bike_id": "d07717e04563b73910869a4207be3b23", "is_disabled": 0, "is_reserved": 0}, {"rental_uris": {"ios": "https://dc.lft.to/lastmile_qr_scan", "android": "https://dc.lft.to/lastmile_qr_scan"}, "lon": -77.03203783333333, "type": "electric_scooter", "fusion_lat": 0.0, "lat": 38.909555, "name": "70e4a4b5d394ec7f3a1fc8ab71330589", "fusion_lon": 0.0, "bike_id": "70e4a4b5d394ec7f3a1fc8ab71330589", "is_disabled": 0, "is_reserved": 0}, {"rental_uris": {"ios": "https://dc.lft.to/lastmile_qr_scan", "android": "https://dc.lft.to/lastmile_qr_scan"}, "lon": -77.04358733333333, "type": "electric_scooter", "fusion_lat": 0.0, "lat": 38.9105015, "name": "f64862859c8724918a8eda47f80e82aa", "fusion_lon": 0.0, "bike_id": "f64862859c8724918a8eda47f80e82aa", "is_disabled": 0, "is_reserved": 0}, {"rental_uris": {"ios": "https://dc.lft.to/lastmile_qr_scan", "android": "https://dc.lft.to/lastmile_qr_scan"}, "lon": -77.06528383333334, "type": "electric_scooter", "fusion_lat": 0.0, "lat": 38.905354, "name": "54fde823aa3260326563c3be4d77b807", "fusion_lon": 0.0, "bike_id": "54fde823aa3260326563c3be4d77b807", "is_disabled": 0, "is_reserved": 0}, {"rental_uris": {"ios": "https://dc.lft.to/lastmile_qr_scan", "android": "https://dc.lft.to/lastmile_qr_scan"}, "lon": -77.02169666666667, "type": "electric_bike", "fusion_lat": 0.0, "lat": 38.892543333333336, "name": "4b043b1ce7c1a5d0d2a10269ba787f58", "fusion_lon": 0.0, "bike_id": "4b043b1ce7c1a5d0d2a10269ba787f58", "is_disabled": 0, "is_reserved": 0}, {"rental_uris": {"ios": "https://dc.lft.to/lastmile_qr_scan", "android": "https://dc.lft.to/lastmile_qr_scan"}, "lon": -77.058131, "type": "electric_scooter", "fusion_lat": 0.0, "lat": 38.9029935, "name": "b71c9641c8246ea2851e46d1642b6389", "fusion_lon": 0.0, "bike_id": "b71c9641c8246ea2851e46d1642b6389", "is_disabled": 0, "is_reserved": 0}, {"rental_uris": {"ios": "https://dc.lft.to/lastmile_qr_scan", "android": "https://dc.lft.to/lastmile_qr_scan"}, "lon": -77.04060316666667, "type": "electric_scooter", "fusion_lat": 0.0, "lat": 38.92656183333333, "name": "17eb1e7e19de6108a35fe0c319a546f8", "fusion_lon": 0.0, "bike_id": "17eb1e7e19de6108a35fe0c319a546f8", "is_disabled": 0, "is_reserved": 0}, {"rental_uris": {"ios": "https://dc.lft.to/lastmile_qr_scan", "android": "https://dc.lft.to/lastmile_qr_scan"}, "lon": -76.99946083333333, "type": "electric_scooter", "fusion_lat": 0.0, "lat": 38.842934166666666, "name": "5cbb69f555f313d1d3ea74126e6b7251", "fusion_lon": 0.0, "bike_id": "5cbb69f555f313d1d3ea74126e6b7251", "is_disabled": 0, "is_reserved": 0}, {"rental_uris": {"ios": "https://dc.lft.to/lastmile_qr_scan", "android": "https://dc.lft.to/lastmile_qr_scan"}, "lon": -77.07041033333333, "type": "electric_bike", "fusion_lat": 0.0, "lat": 38.824473833333336, "name": "ce5adde5bc93be23a200908f2d8ed21a", "fusion_lon": 0.0, "bike_id": "ce5adde5bc93be23a200908f2d8ed21a", "is_disabled": 0, "is_reserved": 0}, {"rental_uris": {"ios": "https://dc.lft.to/lastmile_qr_scan", "android": "https://dc.lft.to/lastmile_qr_scan"}, "lon": -77.03419816666667, "type": "electric_scooter", "fusion_lat": 0.0, "lat": 38.9192795, "name": "2b2b712246060b0a67e7db9712e8aa86", "fusion_lon": 0.0, "bike_id": "2b2b712246060b0a67e7db9712e8aa86", "is_disabled": 0, "is_reserved": 0}, {"rental_uris": {"ios": "https://dc.lft.to/lastmile_qr_scan", "android": "https://dc.lft.to/lastmile_qr_scan"}, "lon": -77.00931316666667, "type": "electric_scooter", "fusion_lat": 0.0, "lat": 38.872001, "name": "38542a5e90fb634cc0e9c7a81e74d03d", "fusion_lon": 0.0, "bike_id": "38542a5e90fb634cc0e9c7a81e74d03d", "is_disabled": 0, "is_reserved": 0}, {"rental_uris": {"ios": "https://dc.lft.to/lastmile_qr_scan", "android": "https://dc.lft.to/lastmile_qr_scan"}, "lon": -77.04330866666666, "type": "electric_scooter", "fusion_lat": 0.0, "lat": 38.892292833333336, "name": "290e68d6f4388f50cbb1219468b1eeb9", "fusion_lon": 0.0, "bike_id": "290e68d6f4388f50cbb1219468b1eeb9", "is_disabled": 0, "is_reserved": 0}, {"rental_uris": {"ios": "https://dc.lft.to/lastmile_qr_scan", "android": "https://dc.lft.to/lastmile_qr_scan"}, "lon": -77.043731, "type": "electric_scooter", "fusion_lat": 0.0, "lat": 38.911236333333335, "name": "32fd62ad13dd26f03f5cbc97ba961afe", "fusion_lon": 0.0, "bike_id": "32fd62ad13dd26f03f5cbc97ba961afe", "is_disabled": 0, "is_reserved": 0}, {"rental_uris": {"ios": "https://dc.lft.to/lastmile_qr_scan", "android": "https://dc.lft.to/lastmile_qr_scan"}, "lon": -77.0018395, "type": "electric_bike", "fusion_lat": 0.0, "lat": 38.888638666666665, "name": "c1244711fc5eb9554a7158d33e25b28c", "fusion_lon": 0.0, "bike_id": "c1244711fc5eb9554a7158d33e25b28c", "is_disabled": 0, "is_reserved": 0}, {"rental_uris": {"ios": "https://dc.lft.to/lastmile_qr_scan", "android": "https://dc.lft.to/lastmile_qr_scan"}, "lon": -77.04132583333333, "type": "electric_scooter", "fusion_lat": 0.0, "lat": 38.92206383333333, "name": "a4c290c4601f5066713cf01d46592b09", "fusion_lon": 0.0, "bike_id": "a4c290c4601f5066713cf01d46592b09", "is_disabled": 0, "is_reserved": 0}, {"rental_uris": {"ios": "https://dc.lft.to/lastmile_qr_scan", "android": "https://dc.lft.to/lastmile_qr_scan"}, "lon": -77.035707, "type": "electric_scooter", "fusion_lat": 0.0, "lat": 38.881833, "name": "c761efd1eca2c36a809a9950e083c8ec", "fusion_lon": 0.0, "bike_id": "c761efd1eca2c36a809a9950e083c8ec", "is_disabled": 0, "is_reserved": 0}, {"rental_uris": {"ios": "https://dc.lft.to/lastmile_qr_scan", "android": "https://dc.lft.to/lastmile_qr_scan"}, "lon": -77.0345105, "type": "electric_scooter", "fusion_lat": 0.0, "lat": 38.918262666666664, "name": "a70eda81d0bb8d81092608f40b72d2a1", "fusion_lon": 0.0, "bike_id": "a70eda81d0bb8d81092608f40b72d2a1", "is_disabled": 0, "is_reserved": 0}, {"rental_uris": {"ios": "https://dc.lft.to/lastmile_qr_scan", "android": "https://dc.lft.to/lastmile_qr_scan"}, "lon": -77.03222916666667, "type": "electric_scooter", "fusion_lat": 0.0, "lat": 38.938727166666666, "name": "c812f2a74e1ebc7e667e6be824ec365b", "fusion_lon": 0.0, "bike_id": "c812f2a74e1ebc7e667e6be824ec365b", "is_disabled": 0, "is_reserved": 0}, {"rental_uris": {"ios": "https://dc.lft.to/lastmile_qr_scan", "android": "https://dc.lft.to/lastmile_qr_scan"}, "lon": -77.03671883333334, "type": "electric_scooter", "fusion_lat": 0.0, "lat": 38.92995166666667, "name": "bcbc01d3e9441a34ca163b6b3d62e73f", "fusion_lon": 0.0, "bike_id": "bcbc01d3e9441a34ca163b6b3d62e73f", "is_disabled": 0, "is_reserved": 0}, {"rental_uris": {"ios": "https://dc.lft.to/lastmile_qr_scan", "android": "https://dc.lft.to/lastmile_qr_scan"}, "lon": -77.0245305, "type": "electric_scooter", "fusion_lat": 0.0, "lat": 38.979354666666666, "name": "aca6d8b05879dd22c98a2cf79134fac5", "fusion_lon": 0.0, "bike_id": "aca6d8b05879dd22c98a2cf79134fac5", "is_disabled": 0, "is_reserved": 0}, {"rental_uris": {"ios": "https://dc.lft.to/lastmile_qr_scan", "android": "https://dc.lft.to/lastmile_qr_scan"}, "lon": -77.04629666666666, "type": "electric_scooter", "fusion_lat": 0.0, "lat": 38.90264633333334, "name": "44edb5d7a77d4621a17c619bb08a3f86", "fusion_lon": 0.0, "bike_id": "44edb5d7a77d4621a17c619bb08a3f86", "is_disabled": 0, "is_reserved": 0}, {"rental_uris": {"ios": "https://dc.lft.to/lastmile_qr_scan", "android": "https://dc.lft.to/lastmile_qr_scan"}, "lon": -77.050343, "type": "electric_scooter", "fusion_lat": 0.0, "lat": 38.89657716666667, "name": "4a2053faed078cd1607adfba780af1f2", "fusion_lon": 0.0, "bike_id": "4a2053faed078cd1607adfba780af1f2", "is_disabled": 0, "is_reserved": 0}, {"rental_uris": {"ios": "https://dc.lft.to/lastmile_qr_scan", "android": "https://dc.lft.to/lastmile_qr_scan"}, "lon": -77.04688383333334, "type": "electric_scooter", "fusion_lat": 0.0, "lat": 38.8961185, "name": "e9838decd9ceb89feae3a3aa49de47f4", "fusion_lon": 0.0, "bike_id": "e9838decd9ceb89feae3a3aa49de47f4", "is_disabled": 0, "is_reserved": 0}, {"rental_uris": {"ios": "https://dc.lft.to/lastmile_qr_scan", "android": "https://dc.lft.to/lastmile_qr_scan"}, "lon": -77.05416666666666, "type": "electric_scooter", "fusion_lat": 0.0, "lat": 38.9284505, "name": "2406d191351a89a3d04bc7efcfe82e66", "fusion_lon": 0.0, "bike_id": "2406d191351a89a3d04bc7efcfe82e66", "is_disabled": 0, "is_reserved": 0}, {"rental_uris": {"ios": "https://dc.lft.to/lastmile_qr_scan", "android": "https://dc.lft.to/lastmile_qr_scan"}, "lon": -76.97726316666666, "type": "electric_scooter", "fusion_lat": 0.0, "lat": 38.87246583333334, "name": "af5e667e615d655c5150eafa9d9c670b", "fusion_lon": 0.0, "bike_id": "af5e667e615d655c5150eafa9d9c670b", "is_disabled": 0, "is_reserved": 0}, {"rental_uris": {"ios": "https://dc.lft.to/lastmile_qr_scan", "android": "https://dc.lft.to/lastmile_qr_scan"}, "lon": -77.04351766666667, "type": "electric_scooter", "fusion_lat": 0.0, "lat": 38.921233, "name": "233590ca84fdd6b50227517f1401ad54", "fusion_lon": 0.0, "bike_id": "233590ca84fdd6b50227517f1401ad54", "is_disabled": 0, "is_reserved": 0}, {"rental_uris": {"ios": "https://dc.lft.to/lastmile_qr_scan", "android": "https://dc.lft.to/lastmile_qr_scan"}, "lon": -77.05746916666666, "type": "electric_scooter", "fusion_lat": 0.0, "lat": 38.905003, "name": "dbea25aeede11290791108e071227e9e", "fusion_lon": 0.0, "bike_id": "dbea25aeede11290791108e071227e9e", "is_disabled": 0, "is_reserved": 0}, {"rental_uris": {"ios": "https://dc.lft.to/lastmile_qr_scan", "android": "https://dc.lft.to/lastmile_qr_scan"}, "lon": -76.973262, "type": "electric_bike", "fusion_lat": 0.0, "lat": 38.85068166666667, "name": "5387ae5e41ff1ca7b6d8c9d18bda191d", "fusion_lon": 0.0, "bike_id": "5387ae5e41ff1ca7b6d8c9d18bda191d", "is_disabled": 0, "is_reserved": 0}, {"rental_uris": {"ios": "https://dc.lft.to/lastmile_qr_scan", "android": "https://dc.lft.to/lastmile_qr_scan"}, "lon": -77.02812, "type": "electric_scooter", "fusion_lat": 0.0, "lat": 38.96135566666667, "name": "fb2598cbe2f5b34af9a3ae1c35b22199", "fusion_lon": 0.0, "bike_id": "fb2598cbe2f5b34af9a3ae1c35b22199", "is_disabled": 0, "is_reserved": 0}, {"rental_uris": {"ios": "https://dc.lft.to/lastmile_qr_scan", "android": "https://dc.lft.to/lastmile_qr_scan"}, "lon": -77.044166, "type": "electric_scooter", "fusion_lat": 0.0, "lat": 38.911320333333336, "name": "29eefb7df0286ade969374603196f636", "fusion_lon": 0.0, "bike_id": "29eefb7df0286ade969374603196f636", "is_disabled": 0, "is_reserved": 0}, {"rental_uris": {"ios": "https://dc.lft.to/lastmile_qr_scan", "android": "https://dc.lft.to/lastmile_qr_scan"}, "lon": -76.93157666666667, "type": "electric_bike", "fusion_lat": 0.0, "lat": 38.908648, "name": "4f415f1986d214511176c0b06cefcf43", "fusion_lon": 0.0, "bike_id": "4f415f1986d214511176c0b06cefcf43", "is_disabled": 0, "is_reserved": 0}, {"rental_uris": {"ios": "https://dc.lft.to/lastmile_qr_scan", "android": "https://dc.lft.to/lastmile_qr_scan"}, "lon": -76.990606, "type": "electric_scooter", "fusion_lat": 0.0, "lat": 38.863597166666665, "name": "52c83420deb6516eba394af7fd58bdde", "fusion_lon": 0.0, "bike_id": "52c83420deb6516eba394af7fd58bdde", "is_disabled": 0, "is_reserved": 0}, {"rental_uris": {"ios": "https://dc.lft.to/lastmile_qr_scan", "android": "https://dc.lft.to/lastmile_qr_scan"}, "lon": -76.9700925, "type": "electric_bike", "fusion_lat": 0.0, "lat": 38.863723666666665, "name": "1ac4572cccf48a99c4b4052b6f6352e9", "fusion_lon": 0.0, "bike_id": "1ac4572cccf48a99c4b4052b6f6352e9", "is_disabled": 0, "is_reserved": 0}, {"rental_uris": {"ios": "https://dc.lft.to/lastmile_qr_scan", "android": "https://dc.lft.to/lastmile_qr_scan"}, "lon": -77.02261366666667, "type": "electric_scooter", "fusion_lat": 0.0, "lat": 38.924492, "name": "e817a5d841aad825b38c8324019c9102", "fusion_lon": 0.0, "bike_id": "e817a5d841aad825b38c8324019c9102", "is_disabled": 0, "is_reserved": 0}, {"rental_uris": {"ios": "https://dc.lft.to/lastmile_qr_scan", "android": "https://dc.lft.to/lastmile_qr_scan"}, "lon": -77.01998766666667, "type": "electric_scooter", "fusion_lat": 0.0, "lat": 38.899223666666664, "name": "5b630c04f98b66aee925dcbbab31c87b", "fusion_lon": 0.0, "bike_id": "5b630c04f98b66aee925dcbbab31c87b", "is_disabled": 0, "is_reserved": 0}, {"rental_uris": {"ios": "https://dc.lft.to/lastmile_qr_scan", "android": "https://dc.lft.to/lastmile_qr_scan"}, "lon": -77.0037335, "type": "electric_bike", "fusion_lat": 0.0, "lat": 38.83610766666666, "name": "4cca3fbeaa497c0b9d5b04285880a7e0", "fusion_lon": 0.0, "bike_id": "4cca3fbeaa497c0b9d5b04285880a7e0", "is_disabled": 0, "is_reserved": 0}, {"rental_uris": {"ios": "https://dc.lft.to/lastmile_qr_scan", "android": "https://dc.lft.to/lastmile_qr_scan"}, "lon": -77.040097, "type": "electric_scooter", "fusion_lat": 0.0, "lat": 38.92184566666667, "name": "af64fd518f268784dc90827238188d03", "fusion_lon": 0.0, "bike_id": "af64fd518f268784dc90827238188d03", "is_disabled": 0, "is_reserved": 0}, {"rental_uris": {"ios": "https://dc.lft.to/lastmile_qr_scan", "android": "https://dc.lft.to/lastmile_qr_scan"}, "lon": -77.00428216666667, "type": "electric_scooter", "fusion_lat": 0.0, "lat": 38.903982666666664, "name": "ad6524ac953643cf9c72b22385b23f0f", "fusion_lon": 0.0, "bike_id": "ad6524ac953643cf9c72b22385b23f0f", "is_disabled": 0, "is_reserved": 0}, {"rental_uris": {"ios": "https://dc.lft.to/lastmile_qr_scan", "android": "https://dc.lft.to/lastmile_qr_scan"}, "lon": -77.02448516666666, "type": "electric_scooter", "fusion_lat": 0.0, "lat": 38.937069666666666, "name": "753a719dff99b20986132383b3309a35", "fusion_lon": 0.0, "bike_id": "753a719dff99b20986132383b3309a35", "is_disabled": 0, "is_reserved": 0}, {"rental_uris": {"ios": "https://dc.lft.to/lastmile_qr_scan", "android": "https://dc.lft.to/lastmile_qr_scan"}, "lon": -77.05586133333334, "type": "electric_scooter", "fusion_lat": 0.0, "lat": 38.90514016666667, "name": "391fec02e3175fc3e00c9c034b418b94", "fusion_lon": 0.0, "bike_id": "391fec02e3175fc3e00c9c034b418b94", "is_disabled": 0, "is_reserved": 0}, {"rental_uris": {"ios": "https://dc.lft.to/lastmile_qr_scan", "android": "https://dc.lft.to/lastmile_qr_scan"}, "lon": -76.96505033333334, "type": "electric_scooter", "fusion_lat": 0.0, "lat": 38.87648016666667, "name": "9f226c80c4e07f5b21ae32a9176efef1", "fusion_lon": 0.0, "bike_id": "9f226c80c4e07f5b21ae32a9176efef1", "is_disabled": 0, "is_reserved": 0}, {"rental_uris": {"ios": "https://dc.lft.to/lastmile_qr_scan", "android": "https://dc.lft.to/lastmile_qr_scan"}, "lon": -77.02601216666666, "type": "electric_scooter", "fusion_lat": 0.0, "lat": 38.896853166666666, "name": "01fcbef96a57a881390e232aa24f637e", "fusion_lon": 0.0, "bike_id": "01fcbef96a57a881390e232aa24f637e", "is_disabled": 0, "is_reserved": 0}, {"rental_uris": {"ios": "https://dc.lft.to/lastmile_qr_scan", "android": "https://dc.lft.to/lastmile_qr_scan"}, "lon": -77.020206, "type": "electric_scooter", "fusion_lat": 0.0, "lat": 38.9155585, "name": "91397c4fe62d694e943bead46900a9df", "fusion_lon": 0.0, "bike_id": "91397c4fe62d694e943bead46900a9df", "is_disabled": 0, "is_reserved": 0}, {"rental_uris": {"ios": "https://dc.lft.to/lastmile_qr_scan", "android": "https://dc.lft.to/lastmile_qr_scan"}, "lon": -77.04343316666667, "type": "electric_scooter", "fusion_lat": 0.0, "lat": 38.910515, "name": "71e65727219189aa886ccecb49a04d2a", "fusion_lon": 0.0, "bike_id": "71e65727219189aa886ccecb49a04d2a", "is_disabled": 0, "is_reserved": 0}, {"rental_uris": {"ios": "https://dc.lft.to/lastmile_qr_scan", "android": "https://dc.lft.to/lastmile_qr_scan"}, "lon": -77.041883, "type": "electric_scooter", "fusion_lat": 0.0, "lat": 38.92047766666666, "name": "b349c7d287c4ff775b152dbe60a7d8bd", "fusion_lon": 0.0, "bike_id": "b349c7d287c4ff775b152dbe60a7d8bd", "is_disabled": 0, "is_reserved": 0}, {"rental_uris": {"ios": "https://dc.lft.to/lastmile_qr_scan", "android": "https://dc.lft.to/lastmile_qr_scan"}, "lon": -77.02414433333334, "type": "electric_scooter", "fusion_lat": 0.0, "lat": 38.892195666666666, "name": "4ce37bc8d6755c96a2872a8637ab40fe", "fusion_lon": 0.0, "bike_id": "4ce37bc8d6755c96a2872a8637ab40fe", "is_disabled": 0, "is_reserved": 0}, {"rental_uris": {"ios": "https://dc.lft.to/lastmile_qr_scan", "android": "https://dc.lft.to/lastmile_qr_scan"}, "lon": -77.04868883333333, "type": "electric_scooter", "fusion_lat": 0.0, "lat": 38.900756666666666, "name": "3e7bf7106742c838563b72519b01c4b4", "fusion_lon": 0.0, "bike_id": "3e7bf7106742c838563b72519b01c4b4", "is_disabled": 0, "is_reserved": 0}, {"rental_uris": {"ios": "https://dc.lft.to/lastmile_qr_scan", "android": "https://dc.lft.to/lastmile_qr_scan"}, "lon": -77.036299, "type": "electric_scooter", "fusion_lat": 0.0, "lat": 38.92649383333333, "name": "dc223a12c7a30986b103e4c2122e6aaa", "fusion_lon": 0.0, "bike_id": "dc223a12c7a30986b103e4c2122e6aaa", "is_disabled": 0, "is_reserved": 0}, {"rental_uris": {"ios": "https://dc.lft.to/lastmile_qr_scan", "android": "https://dc.lft.to/lastmile_qr_scan"}, "lon": -77.032566, "type": "electric_scooter", "fusion_lat": 0.0, "lat": 38.93875716666667, "name": "d455181a5ca77ac5bfc995a730dc19f5", "fusion_lon": 0.0, "bike_id": "d455181a5ca77ac5bfc995a730dc19f5", "is_disabled": 0, "is_reserved": 0}, {"rental_uris": {"ios": "https://dc.lft.to/lastmile_qr_scan", "android": "https://dc.lft.to/lastmile_qr_scan"}, "lon": -77.03225083333334, "type": "electric_scooter", "fusion_lat": 0.0, "lat": 38.92885166666667, "name": "195be30d55f9e9cc23e6f07bb054616c", "fusion_lon": 0.0, "bike_id": "195be30d55f9e9cc23e6f07bb054616c", "is_disabled": 0, "is_reserved": 0}, {"rental_uris": {"ios": "https://dc.lft.to/lastmile_qr_scan", "android": "https://dc.lft.to/lastmile_qr_scan"}, "lon": -77.03266083333334, "type": "electric_scooter", "fusion_lat": 0.0, "lat": 38.93533333333333, "name": "b5450cf7f868ec315f207987b98af983", "fusion_lon": 0.0, "bike_id": "b5450cf7f868ec315f207987b98af983", "is_disabled": 0, "is_reserved": 0}, {"rental_uris": {"ios": "https://dc.lft.to/lastmile_qr_scan", "android": "https://dc.lft.to/lastmile_qr_scan"}, "lon": -76.97609383333334, "type": "electric_bike", "fusion_lat": 0.0, "lat": 38.9131045, "name": "33d62d35b58ed0d7f5b89460b8ccd033", "fusion_lon": 0.0, "bike_id": "33d62d35b58ed0d7f5b89460b8ccd033", "is_disabled": 0, "is_reserved": 0}, {"rental_uris": {"ios": "https://dc.lft.to/lastmile_qr_scan", "android": "https://dc.lft.to/lastmile_qr_scan"}, "lon": -76.99033283333333, "type": "electric_scooter", "fusion_lat": 0.0, "lat": 38.8587215, "name": "96fcae4f3b1562188df2a3941abc36b0", "fusion_lon": 0.0, "bike_id": "96fcae4f3b1562188df2a3941abc36b0", "is_disabled": 0, "is_reserved": 0}, {"rental_uris": {"ios": "https://dc.lft.to/lastmile_qr_scan", "android": "https://dc.lft.to/lastmile_qr_scan"}, "lon": -77.02791916666666, "type": "electric_scooter", "fusion_lat": 0.0, "lat": 38.9308045, "name": "0a8a811ee14ec03a7e12a2498cbf983a", "fusion_lon": 0.0, "bike_id": "0a8a811ee14ec03a7e12a2498cbf983a", "is_disabled": 0, "is_reserved": 0}, {"rental_uris": {"ios": "https://dc.lft.to/lastmile_qr_scan", "android": "https://dc.lft.to/lastmile_qr_scan"}, "lon": -77.01910016666666, "type": "electric_scooter", "fusion_lat": 0.0, "lat": 38.902687, "name": "bc93516cc165c82db448e578a83100e3", "fusion_lon": 0.0, "bike_id": "bc93516cc165c82db448e578a83100e3", "is_disabled": 0, "is_reserved": 0}, {"rental_uris": {"ios": "https://dc.lft.to/lastmile_qr_scan", "android": "https://dc.lft.to/lastmile_qr_scan"}, "lon": -77.0414965, "type": "electric_scooter", "fusion_lat": 0.0, "lat": 38.907366, "name": "c0e7cb4c243ecd317cec6074078a02a7", "fusion_lon": 0.0, "bike_id": "c0e7cb4c243ecd317cec6074078a02a7", "is_disabled": 0, "is_reserved": 0}, {"rental_uris": {"ios": "https://dc.lft.to/lastmile_qr_scan", "android": "https://dc.lft.to/lastmile_qr_scan"}, "lon": -77.019745, "type": "electric_scooter", "fusion_lat": 0.0, "lat": 38.8974145, "name": "8cd2774d4a3121aa706cccf4138507a2", "fusion_lon": 0.0, "bike_id": "8cd2774d4a3121aa706cccf4138507a2", "is_disabled": 0, "is_reserved": 0}, {"rental_uris": {"ios": "https://dc.lft.to/lastmile_qr_scan", "android": "https://dc.lft.to/lastmile_qr_scan"}, "lon": -77.06693016666667, "type": "electric_scooter", "fusion_lat": 0.0, "lat": 38.9097325, "name": "9c4be47469fb46eed8c42cd890661777", "fusion_lon": 0.0, "bike_id": "9c4be47469fb46eed8c42cd890661777", "is_disabled": 0, "is_reserved": 0}, {"rental_uris": {"ios": "https://dc.lft.to/lastmile_qr_scan", "android": "https://dc.lft.to/lastmile_qr_scan"}, "lon": -77.07600316666667, "type": "electric_scooter", "fusion_lat": 0.0, "lat": 38.912169, "name": "c657036930b48e92e8a1534d28ab7814", "fusion_lon": 0.0, "bike_id": "c657036930b48e92e8a1534d28ab7814", "is_disabled": 0, "is_reserved": 0}, {"rental_uris": {"ios": "https://dc.lft.to/lastmile_qr_scan", "android": "https://dc.lft.to/lastmile_qr_scan"}, "lon": -77.036305, "type": "electric_scooter", "fusion_lat": 0.0, "lat": 38.95600966666667, "name": "d1ce7838535ea6699c6ca8387d57318d", "fusion_lon": 0.0, "bike_id": "d1ce7838535ea6699c6ca8387d57318d", "is_disabled": 0, "is_reserved": 0}, {"rental_uris": {"ios": "https://dc.lft.to/lastmile_qr_scan", "android": "https://dc.lft.to/lastmile_qr_scan"}, "lon": -77.03318033333333, "type": "electric_scooter", "fusion_lat": 0.0, "lat": 38.90965766666667, "name": "7c078b1fe10928875ac6edd3bf131d15", "fusion_lon": 0.0, "bike_id": "7c078b1fe10928875ac6edd3bf131d15", "is_disabled": 0, "is_reserved": 0}, {"rental_uris": {"ios": "https://dc.lft.to/lastmile_qr_scan", "android": "https://dc.lft.to/lastmile_qr_scan"}, "lon": -77.048597, "type": "electric_scooter", "fusion_lat": 0.0, "lat": 38.90067666666667, "name": "41cfe86df093feee7d267269804f06bc", "fusion_lon": 0.0, "bike_id": "41cfe86df093feee7d267269804f06bc", "is_disabled": 0, "is_reserved": 0}, {"rental_uris": {"ios": "https://dc.lft.to/lastmile_qr_scan", "android": "https://dc.lft.to/lastmile_qr_scan"}, "lon": -77.10732033333333, "type": "electric_bike", "fusion_lat": 0.0, "lat": 38.85518033333334, "name": "5cafd9d18d2f0379e448cfaed589ad99", "fusion_lon": 0.0, "bike_id": "5cafd9d18d2f0379e448cfaed589ad99", "is_disabled": 0, "is_reserved": 0}, {"rental_uris": {"ios": "https://dc.lft.to/lastmile_qr_scan", "android": "https://dc.lft.to/lastmile_qr_scan"}, "lon": -77.02121483333333, "type": "electric_scooter", "fusion_lat": 0.0, "lat": 38.897431833333336, "name": "f67431fefc938a59dabf7d0630c9bcc9", "fusion_lon": 0.0, "bike_id": "f67431fefc938a59dabf7d0630c9bcc9", "is_disabled": 0, "is_reserved": 0}, {"rental_uris": {"ios": "https://dc.lft.to/lastmile_qr_scan", "android": "https://dc.lft.to/lastmile_qr_scan"}, "lon": -76.95407033333333, "type": "electric_scooter", "fusion_lat": 0.0, "lat": 38.889996333333336, "name": "fb385529e33ff71a98de523269014be7", "fusion_lon": 0.0, "bike_id": "fb385529e33ff71a98de523269014be7", "is_disabled": 0, "is_reserved": 0}, {"rental_uris": {"ios": "https://dc.lft.to/lastmile_qr_scan", "android": "https://dc.lft.to/lastmile_qr_scan"}, "lon": -77.0709095, "type": "electric_scooter", "fusion_lat": 0.0, "lat": 38.89914183333333, "name": "1a2cf293d42c4798cf70fb84708369d0", "fusion_lon": 0.0, "bike_id": "1a2cf293d42c4798cf70fb84708369d0", "is_disabled": 0, "is_reserved": 0}, {"rental_uris": {"ios": "https://dc.lft.to/lastmile_qr_scan", "android": "https://dc.lft.to/lastmile_qr_scan"}, "lon": -77.06459433333333, "type": "electric_scooter", "fusion_lat": 0.0, "lat": 38.90520983333333, "name": "3d115c640b35c6feda7953c0dce816d2", "fusion_lon": 0.0, "bike_id": "3d115c640b35c6feda7953c0dce816d2", "is_disabled": 0, "is_reserved": 0}, {"rental_uris": {"ios": "https://dc.lft.to/lastmile_qr_scan", "android": "https://dc.lft.to/lastmile_qr_scan"}, "lon": -77.08188866666667, "type": "electric_scooter", "fusion_lat": 0.0, "lat": 38.920132, "name": "5793e2479c2dab2efa61f2a15ffb8bb2", "fusion_lon": 0.0, "bike_id": "5793e2479c2dab2efa61f2a15ffb8bb2", "is_disabled": 0, "is_reserved": 0}, {"rental_uris": {"ios": "https://dc.lft.to/lastmile_qr_scan", "android": "https://dc.lft.to/lastmile_qr_scan"}, "lon": -77.0332715, "type": "electric_scooter", "fusion_lat": 0.0, "lat": 38.90154316666667, "name": "f83628dfb9c9b1b4f482f82b04e6c066", "fusion_lon": 0.0, "bike_id": "f83628dfb9c9b1b4f482f82b04e6c066", "is_disabled": 0, "is_reserved": 0}, {"rental_uris": {"ios": "https://dc.lft.to/lastmile_qr_scan", "android": "https://dc.lft.to/lastmile_qr_scan"}, "lon": -76.9782335, "type": "electric_scooter", "fusion_lat": 0.0, "lat": 38.89521333333333, "name": "d95c69edd02b6433e3ae75deedb34957", "fusion_lon": 0.0, "bike_id": "d95c69edd02b6433e3ae75deedb34957", "is_disabled": 0, "is_reserved": 0}, {"rental_uris": {"ios": "https://dc.lft.to/lastmile_qr_scan", "android": "https://dc.lft.to/lastmile_qr_scan"}, "lon": -77.04236183333333, "type": "electric_scooter", "fusion_lat": 0.0, "lat": 38.92213816666667, "name": "377e6661798106db3978d0f24fe5ca77", "fusion_lon": 0.0, "bike_id": "377e6661798106db3978d0f24fe5ca77", "is_disabled": 0, "is_reserved": 0}, {"rental_uris": {"ios": "https://dc.lft.to/lastmile_qr_scan", "android": "https://dc.lft.to/lastmile_qr_scan"}, "lon": -77.02508083333333, "type": "electric_scooter", "fusion_lat": 0.0, "lat": 38.907248, "name": "5c6a0cba112bc2ce76ae7ceb66b51d82", "fusion_lon": 0.0, "bike_id": "5c6a0cba112bc2ce76ae7ceb66b51d82", "is_disabled": 0, "is_reserved": 0}, {"rental_uris": {"ios": "https://dc.lft.to/lastmile_qr_scan", "android": "https://dc.lft.to/lastmile_qr_scan"}, "lon": -76.97428316666667, "type": "electric_bike", "fusion_lat": 0.0, "lat": 38.93209433333333, "name": "59fe7aa0e862565fd6cbc5239627593f", "fusion_lon": 0.0, "bike_id": "59fe7aa0e862565fd6cbc5239627593f", "is_disabled": 0, "is_reserved": 0}, {"rental_uris": {"ios": "https://dc.lft.to/lastmile_qr_scan", "android": "https://dc.lft.to/lastmile_qr_scan"}, "lon": -77.01673283333334, "type": "electric_scooter", "fusion_lat": 0.0, "lat": 38.904856333333335, "name": "fdb99b5ba6aef953ce8edbee3c86bb70", "fusion_lon": 0.0, "bike_id": "fdb99b5ba6aef953ce8edbee3c86bb70", "is_disabled": 0, "is_reserved": 0}, {"rental_uris": {"ios": "https://dc.lft.to/lastmile_qr_scan", "android": "https://dc.lft.to/lastmile_qr_scan"}, "lon": -77.016227, "type": "electric_scooter", "fusion_lat": 0.0, "lat": 38.89967133333333, "name": "42aed8500190f20dbb03a39c6037c192", "fusion_lon": 0.0, "bike_id": "42aed8500190f20dbb03a39c6037c192", "is_disabled": 0, "is_reserved": 0}, {"rental_uris": {"ios": "https://dc.lft.to/lastmile_qr_scan", "android": "https://dc.lft.to/lastmile_qr_scan"}, "lon": -77.07136533333333, "type": "electric_scooter", "fusion_lat": 0.0, "lat": 38.927238833333334, "name": "52068076f05e7183a53423cbd7d9ef7b", "fusion_lon": 0.0, "bike_id": "52068076f05e7183a53423cbd7d9ef7b", "is_disabled": 0, "is_reserved": 0}, {"rental_uris": {"ios": "https://dc.lft.to/lastmile_qr_scan", "android": "https://dc.lft.to/lastmile_qr_scan"}, "lon": -77.18293283333334, "type": "electric_bike", "fusion_lat": 0.0, "lat": 38.883486833333336, "name": "1814591adfab38d479b18285c09a4dc6", "fusion_lon": 0.0, "bike_id": "1814591adfab38d479b18285c09a4dc6", "is_disabled": 0, "is_reserved": 0}, {"rental_uris": {"ios": "https://dc.lft.to/lastmile_qr_scan", "android": "https://dc.lft.to/lastmile_qr_scan"}, "lon": -76.94997316666667, "type": "electric_scooter", "fusion_lat": 0.0, "lat": 38.893787333333336, "name": "e16aefa27b2d047f3a365bb6c6453fa2", "fusion_lon": 0.0, "bike_id": "e16aefa27b2d047f3a365bb6c6453fa2", "is_disabled": 0, "is_reserved": 0}, {"rental_uris": {"ios": "https://dc.lft.to/lastmile_qr_scan", "android": "https://dc.lft.to/lastmile_qr_scan"}, "lon": -77.04864033333334, "type": "electric_scooter", "fusion_lat": 0.0, "lat": 38.90519166666667, "name": "696b8383a99258b074c12bcf012fa9c8", "fusion_lon": 0.0, "bike_id": "696b8383a99258b074c12bcf012fa9c8", "is_disabled": 0, "is_reserved": 0}, {"rental_uris": {"ios": "https://dc.lft.to/lastmile_qr_scan", "android": "https://dc.lft.to/lastmile_qr_scan"}, "lon": -77.02741016666667, "type": "electric_scooter", "fusion_lat": 0.0, "lat": 38.88158266666667, "name": "3bf88019ef748010a765332e83937076", "fusion_lon": 0.0, "bike_id": "3bf88019ef748010a765332e83937076", "is_disabled": 0, "is_reserved": 0}, {"rental_uris": {"ios": "https://dc.lft.to/lastmile_qr_scan", "android": "https://dc.lft.to/lastmile_qr_scan"}, "lon": -77.03991133333334, "type": "electric_scooter", "fusion_lat": 0.0, "lat": 38.89939116666667, "name": "99011aaa31b904e1276d95005287975e", "fusion_lon": 0.0, "bike_id": "99011aaa31b904e1276d95005287975e", "is_disabled": 0, "is_reserved": 0}, {"rental_uris": {"ios": "https://dc.lft.to/lastmile_qr_scan", "android": "https://dc.lft.to/lastmile_qr_scan"}, "lon": -76.874941, "type": "electric_bike", "fusion_lat": 0.0, "lat": 38.990910666666664, "name": "39e28da40bfca97e9d8c9050223f79b0", "fusion_lon": 0.0, "bike_id": "39e28da40bfca97e9d8c9050223f79b0", "is_disabled": 0, "is_reserved": 0}, {"rental_uris": {"ios": "https://dc.lft.to/lastmile_qr_scan", "android": "https://dc.lft.to/lastmile_qr_scan"},