{"data": {"bikes": [{"type": "electric_scooter", "bike_id": "28a3df52dc5103ebd925d8f13c05d960", "is_disabled": 0, "name": "28a3df52dc5103ebd925d8f13c05d960", "lon": -77.02520733333333, "is_reserved": 0, "fusion_lon": 0.0, "lat": 38.899785, "rental_uris": {"android": "https://dc.lft.to/lastmile_qr_scan", "ios": "https://dc.lft.to/lastmile_qr_scan"}, "fusion_lat": 0.0}, {"type": "electric_scooter", "bike_id": "aa76bbf8e84edbdbb419344f90cdf687", "is_disabled": 0, "name": "aa76bbf8e84edbdbb419344f90cdf687", "lon": -77.03261233333333, "is_reserved": 0, "fusion_lon": 0.0, "lat": 38.93252283333333, "rental_uris": {"android": "https://dc.lft.to/lastmile_qr_scan", "ios": "https://dc.lft.to/lastmile_qr_scan"}, "fusion_lat": 0.0}, {"type": "electric_scooter", "bike_id": "59183abcf176be469594a208679150a7", "is_disabled": 0, "name": "59183abcf176be469594a208679150a7", "lon": -77.0243065, "is_reserved": 0, "fusion_lon": 0.0, "lat": 38.90412666666667, "rental_uris": {"android": "https://dc.lft.to/lastmile_qr_scan", "ios": "https://dc.lft.to/lastmile_qr_scan"}, "fusion_lat": 0.0}, {"type": "electric_scooter", "bike_id": "ea153db07dd61e912d5c6be221a8e7a2", "is_disabled": 0, "name": "ea153db07dd61e912d5c6be221a8e7a2", "lon": -77.048842, "is_reserved": 0, "fusion_lon": 0.0, "lat": 38.909046833333335, "rental_uris": {"android": "https://dc.lft.to/lastmile_qr_scan", "ios": "https://dc.lft.to/lastmile_qr_scan"}, "fusion_lat": 0.0}, {"type": "electric_scooter", "bike_id": "796e0bbc0cad1687d3219693a4ba43f3", "is_disabled": 0, "name": "796e0bbc0cad1687d3219693a4ba43f3", "lon": -77.06802283333333, "is_reserved": 0, "fusion_lon": 0.0, "lat": 38.915629833333334, "rental_uris": {"android": "https://dc.lft.to/lastmile_qr_scan", "ios": "https://dc.lft.to/lastmile_qr_scan"}, "fusion_lat": 0.0}, {"type": "electric_scooter", "bike_id": "b2c6d58f04f8f10c9ad1337fdc6386e6", "is_disabled": 0, "name": "b2c6d58f04f8f10c9ad1337fdc6386e6", "lon": -77.02067733333334, "is_reserved": 0, "fusion_lon": 0.0, "lat": 38.87568316666667, "rental_uris": {"android": "https://dc.lft.to/lastmile_qr_scan", "ios": "https://dc.lft.to/lastmile_qr_scan"}, "fusion_lat": 0.0}, {"type": "electric_bike", "bike_id": "ed3cb28ceb16896606d9236280c2ac85", "is_disabled": 0, "name": "ed3cb28ceb16896606d9236280c2ac85", "lon": -77.12678516666666, "is_reserved": 0, "fusion_lon": 0.0, "lat": 38.81918183333333, "rental_uris": {"android": "https://dc.lft.to/lastmile_qr_scan", "ios": "https://dc.lft.to/lastmile_qr_scan"}, "fusion_lat": 0.0}, {"type": "electric_scooter", "bike_id": "86f4296f15c08763d4f45ee64b5eb80f", "is_disabled": 0, "name": "86f4296f15c08763d4f45ee64b5eb80f", "lon": -77.03869633333333, "is_reserved": 0, "fusion_lon": 0.0, "lat": 38.92146533333333, "rental_uris": {"android": "https://dc.lft.to/lastmile_qr_scan", "ios": "https://dc.lft.to/lastmile_qr_scan"}, "fusion_lat": 0.0}, {"type": "electric_bike", "bike_id": "7fad262bad8865ab6732d217363dc361", "is_disabled": 0, "name": "7fad262bad8865ab6732d217363dc361", "lon": -77.08530433333334, "is_reserved": 0, "fusion_lon": 0.0, "lat": 38.85646083333334, "rental_uris": {"android": "https://dc.lft.to/lastmile_qr_scan", "ios": "https://dc.lft.to/lastmile_qr_scan"}, "fusion_lat": 0.0}, {"type": "electric_scooter", "bike_id": "cfffc4d6777f078bdb19a1c5e3ed7538", "is_disabled": 0, "name": "cfffc4d6777f078bdb19a1c5e3ed7538", "lon": -77.00214783333334, "is_reserved": 0, "fusion_lon": 0.0, "lat": 38.90025933333333, "rental_uris": {"android": "https://dc.lft.to/lastmile_qr_scan", "ios": "https://dc.lft.to/lastmile_qr_scan"}, "fusion_lat": 0.0}, {"type": "electric_bike", "bike_id": "fbf1e47ddd61f842b7570fe8d70aaf8a", "is_disabled": 0, "name": "fbf1e47ddd61f842b7570fe8d70aaf8a", "lon": -76.907494, "is_reserved": 0, "fusion_lon": 0.0, "lat": 38.896168333333335, "rental_uris": {"android": "https://dc.lft.to/lastmile_qr_scan", "ios": "https://dc.lft.to/lastmile_qr_scan"}, "fusion_lat": 0.0}, {"type": "electric_scooter", "bike_id": "09e9045a3fe45856b77fb7aa0e4b33ed", "is_disabled": 0, "name": "09e9045a3fe45856b77fb7aa0e4b33ed", "lon": -77.0150655, "is_reserved": 0, "fusion_lon": 0.0, "lat": 38.89119733333333, "rental_uris": {"android": "https://dc.lft.to/lastmile_qr_scan", "ios": "https://dc.lft.to/lastmile_qr_scan"}, "fusion_lat": 0.0}, {"type": "electric_scooter", "bike_id": "9db054291c371126b41bf1b1ea5bc766", "is_disabled": 0, "name": "9db054291c371126b41bf1b1ea5bc766", "lon": -77.02135366666667, "is_reserved": 0, "fusion_lon": 0.0, "lat": 38.92000816666667, "rental_uris": {"android": "https://dc.lft.to/lastmile_qr_scan", "ios": "https://dc.lft.to/lastmile_qr_scan"}, "fusion_lat": 0.0}, {"type": "electric_scooter", "bike_id": "8fc50dc045bad9b849cd8f520496eac5", "is_disabled": 0, "name": "8fc50dc045bad9b849cd8f520496eac5", "lon": -77.02956633333334, "is_reserved": 0, "fusion_lon": 0.0, "lat": 38.9168095, "rental_uris": {"android": "https://dc.lft.to/lastmile_qr_scan", "ios": "https://dc.lft.to/lastmile_qr_scan"}, "fusion_lat": 0.0}, {"type": "electric_scooter", "bike_id": "847929e9964fccae40cfe842e0f9e640", "is_disabled": 0, "name": "847929e9964fccae40cfe842e0f9e640", "lon": -77.02311683333333, "is_reserved": 0, "fusion_lon": 0.0, "lat": 38.896508, "rental_uris": {"android": "https://dc.lft.to/lastmile_qr_scan", "ios": "https://dc.lft.to/lastmile_qr_scan"}, "fusion_lat": 0.0}, {"type": "electric_scooter", "bike_id": "221585bf1bff366199156e666d6ff0ad", "is_disabled": 0, "name": "221585bf1bff366199156e666d6ff0ad", "lon": -77.02827466666666, "is_reserved": 0, "fusion_lon": 0.0, "lat": 38.90276933333333, "rental_uris": {"android": "https://dc.lft.to/lastmile_qr_scan", "ios": "https://dc.lft.to/lastmile_qr_scan"}, "fusion_lat": 0.0}, {"type": "electric_scooter", "bike_id": "d566394ed4d9237ecefec401bf389a06", "is_disabled": 0, "name": "d566394ed4d9237ecefec401bf389a06", "lon": -76.99959283333334, "is_reserved": 0, "fusion_lon": 0.0, "lat": 38.8989945, "rental_uris": {"android": "https://dc.lft.to/lastmile_qr_scan", "ios": "https://dc.lft.to/lastmile_qr_scan"}, "fusion_lat": 0.0}, {"type": "electric_bike", "bike_id": "e3181789e3a961c1b3658c89dd971285", "is_disabled": 0, "name": "e3181789e3a961c1b3658c89dd971285", "lon": -77.00612716666667, "is_reserved": 0, "fusion_lon": 0.0, "lat": 38.82397383333333, "rental_uris": {"android": "https://dc.lft.to/lastmile_qr_scan", "ios": "https://dc.lft.to/lastmile_qr_scan"}, "fusion_lat": 0.0}, {"type": "electric_scooter", "bike_id": "56c5e49c75756c6f71b941598f9665dd", "is_disabled": 0, "name": "56c5e49c75756c6f71b941598f9665dd", "lon": -77.04667716666667, "is_reserved": 0, "fusion_lon": 0.0, "lat": 38.90369833333333, "rental_uris": {"android": "https://dc.lft.to/lastmile_qr_scan", "ios": "https://dc.lft.to/lastmile_qr_scan"}, "fusion_lat": 0.0}, {"type": "electric_scooter", "bike_id": "c10db99d3be545658bec3d0f6edd82df", "is_disabled": 0, "name": "c10db99d3be545658bec3d0f6edd82df", "lon": -76.988918, "is_reserved": 0, "fusion_lon": 0.0, "lat": 38.93474583333333, "rental_uris": {"android": "https://dc.lft.to/lastmile_qr_scan", "ios": "https://dc.lft.to/lastmile_qr_scan"}, "fusion_lat": 0.0}, {"type": "electric_scooter", "bike_id": "aad25916f15306385dee9a729f25b5e4", "is_disabled": 0, "name": "aad25916f15306385dee9a729f25b5e4", "lon": -77.03996416666666, "is_reserved": 0, "fusion_lon": 0.0, "lat": 38.898709333333336, "rental_uris": {"android": "https://dc.lft.to/lastmile_qr_scan", "ios": "https://dc.lft.to/lastmile_qr_scan"}, "fusion_lat": 0.0}, {"type": "electric_scooter", "bike_id": "1144a423aaa1d4541f73abde76fab14d", "is_disabled": 0, "name": "1144a423aaa1d4541f73abde76fab14d", "lon": -77.03832466666667, "is_reserved": 0, "fusion_lon": 0.0, "lat": 38.91711883333333, "rental_uris": {"android": "https://dc.lft.to/lastmile_qr_scan", "ios": "https://dc.lft.to/lastmile_qr_scan"}, "fusion_lat": 0.0}, {"type": "electric_scooter", "bike_id": "aca8829a908f2d33e76853a9054a988b", "is_disabled": 0, "name": "aca8829a908f2d33e76853a9054a988b", "lon": -77.02815483333333, "is_reserved": 0, "fusion_lon": 0.0, "lat": 38.902470666666666, "rental_uris": {"android": "https://dc.lft.to/lastmile_qr_scan", "ios": "https://dc.lft.to/lastmile_qr_scan"}, "fusion_lat": 0.0}, {"type": "electric_scooter", "bike_id": "936fbab7b1c2845ac1ac4cbd8f5e08e4", "is_disabled": 0, "name": "936fbab7b1c2845ac1ac4cbd8f5e08e4", "lon": -77.0726125, "is_reserved": 0, "fusion_lon": 0.0, "lat": 38.90897233333333, "rental_uris": {"android": "https://dc.lft.to/lastmile_qr_scan", "ios": "https://dc.lft.to/lastmile_qr_scan"}, "fusion_lat": 0.0}, {"type": "electric_scooter", "bike_id": "7b8dec8b93f42e8ec61a77f2c8218c5f", "is_disabled": 0, "name": "7b8dec8b93f42e8ec61a77f2c8218c5f", "lon": -77.007477, "is_reserved": 0, "fusion_lon": 0.0, "lat": 38.900609333333335, "rental_uris": {"android": "https://dc.lft.to/lastmile_qr_scan", "ios": "https://dc.lft.to/lastmile_qr_scan"}, "fusion_lat": 0.0}, {"type": "electric_scooter", "bike_id": "530494a143e3280c93b7575293a87cfd", "is_disabled": 0, "name": "530494a143e3280c93b7575293a87cfd", "lon": -77.012316, "is_reserved": 0, "fusion_lon": 0.0, "lat": 38.89771016666667, "rental_uris": {"android": "https://dc.lft.to/lastmile_qr_scan", "ios": "https://dc.lft.to/lastmile_qr_scan"}, "fusion_lat": 0.0}, {"type": "electric_scooter", "bike_id": "2988b33776739cbfdf391ed708ed865e", "is_disabled": 0, "name": "2988b33776739cbfdf391ed708ed865e", "lon": -77.07306733333333, "is_reserved": 0, "fusion_lon": 0.0, "lat": 38.92275516666667, "rental_uris": {"android": "https://dc.lft.to/lastmile_qr_scan", "ios": "https://dc.lft.to/lastmile_qr_scan"}, "fusion_lat": 0.0}, {"type": "electric_scooter", "bike_id": "2d356502cf5ad33fe32863f12c90d5f8", "is_disabled": 0, "name": "2d356502cf5ad33fe32863f12c90d5f8", "lon": -77.03164966666667, "is_reserved": 0, "fusion_lon": 0.0, "lat": 38.92365016666667, "rental_uris": {"android": "https://dc.lft.to/lastmile_qr_scan", "ios": "https://dc.lft.to/lastmile_qr_scan"}, "fusion_lat": 0.0}, {"type": "electric_scooter", "bike_id": "f6dbd2eed9fd28388c82f3bc0643804b", "is_disabled": 0, "name": "f6dbd2eed9fd28388c82f3bc0643804b", "lon": -77.0126305, "is_reserved": 0, "fusion_lon": 0.0, "lat": 38.89728616666667, "rental_uris": {"android": "https://dc.lft.to/lastmile_qr_scan", "ios": "https://dc.lft.to/lastmile_qr_scan"}, "fusion_lat": 0.0}, {"type": "electric_scooter", "bike_id": "75e714ddaeb8b027898068d5e88f8938", "is_disabled": 0, "name": "75e714ddaeb8b027898068d5e88f8938", "lon": -77.00202016666667, "is_reserved": 0, "fusion_lon": 0.0, "lat": 38.902372666666665, "rental_uris": {"android": "https://dc.lft.to/lastmile_qr_scan", "ios": "https://dc.lft.to/lastmile_qr_scan"}, "fusion_lat": 0.0}, {"type": "electric_scooter", "bike_id": "ea9aa2e01a8f3edd905e8148fe8582d4", "is_disabled": 0, "name": "ea9aa2e01a8f3edd905e8148fe8582d4", "lon": -77.02211133333333, "is_reserved": 0, "fusion_lon": 0.0, "lat": 38.887321166666666, "rental_uris": {"android": "https://dc.lft.to/lastmile_qr_scan", "ios": "https://dc.lft.to/lastmile_qr_scan"}, "fusion_lat": 0.0}, {"type": "electric_bike", "bike_id": "29340d3611c107f74595e76242a50f70", "is_disabled": 0, "name": "29340d3611c107f74595e76242a50f70", "lon": -77.05460983333333, "is_reserved": 0, "fusion_lon": 0.0, "lat": 38.86477583333333, "rental_uris": {"android": "https://dc.lft.to/lastmile_qr_scan", "ios": "https://dc.lft.to/lastmile_qr_scan"}, "fusion_lat": 0.0}, {"type": "electric_scooter", "bike_id": "a96fe63270aedb543c8423e524b5159a", "is_disabled": 0, "name": "a96fe63270aedb543c8423e524b5159a", "lon": -77.02663316666667, "is_reserved": 0, "fusion_lon": 0.0, "lat": 38.92212516666667, "rental_uris": {"android": "https://dc.lft.to/lastmile_qr_scan", "ios": "https://dc.lft.to/lastmile_qr_scan"}, "fusion_lat": 0.0}, {"type": "electric_scooter", "bike_id": "715e7aa41996db0ab5d4884012ae53fd", "is_disabled": 0, "name": "715e7aa41996db0ab5d4884012ae53fd", "lon": -77.04486383333334, "is_reserved": 0, "fusion_lon": 0.0, "lat": 38.91173283333333, "rental_uris": {"android": "https://dc.lft.to/lastmile_qr_scan", "ios": "https://dc.lft.to/lastmile_qr_scan"}, "fusion_lat": 0.0}, {"type": "electric_scooter", "bike_id": "ba93fbd288fc9785ad5d44e8985a6e0e", "is_disabled": 0, "name": "ba93fbd288fc9785ad5d44e8985a6e0e", "lon": -76.99086216666667, "is_reserved": 0, "fusion_lon": 0.0, "lat": 38.855593166666665, "rental_uris": {"android": "https://dc.lft.to/lastmile_qr_scan", "ios": "https://dc.lft.to/lastmile_qr_scan"}, "fusion_lat": 0.0}, {"type": "electric_scooter", "bike_id": "55534657bb614c5436246c7a53e4dfe9", "is_disabled": 0, "name": "55534657bb614c5436246c7a53e4dfe9", "lon": -77.02180433333334, "is_reserved": 0, "fusion_lon": 0.0, "lat": 38.89227866666667, "rental_uris": {"android": "https://dc.lft.to/lastmile_qr_scan", "ios": "https://dc.lft.to/lastmile_qr_scan"}, "fusion_lat": 0.0}, {"type": "electric_scooter", "bike_id": "85ee3dab2a1fa561c4d27ab3a88522d7", "is_disabled": 0, "name": "85ee3dab2a1fa561c4d27ab3a88522d7", "lon": -77.00905133333333, "is_reserved": 0, "fusion_lon": 0.0, "lat": 38.90025966666666, "rental_uris": {"android": "https://dc.lft.to/lastmile_qr_scan", "ios": "https://dc.lft.to/lastmile_qr_scan"}, "fusion_lat": 0.0}, {"type": "electric_scooter", "bike_id": "cd9d54967374c759a4a3334f3b82eb3d", "is_disabled": 0, "name": "cd9d54967374c759a4a3334f3b82eb3d", "lon": -77.00071, "is_reserved": 0, "fusion_lon": 0.0, "lat": 38.876848333333335, "rental_uris": {"android": "https://dc.lft.to/lastmile_qr_scan", "ios": "https://dc.lft.to/lastmile_qr_scan"}, "fusion_lat": 0.0}, {"type": "electric_bike", "bike_id": "befa936d980ca5e66fe487c9ddc17d80", "is_disabled": 0, "name": "befa936d980ca5e66fe487c9ddc17d80", "lon": -77.06455466666667, "is_reserved": 0, "fusion_lon": 0.0, "lat": 38.905159, "rental_uris": {"android": "https://dc.lft.to/lastmile_qr_scan", "ios": "https://dc.lft.to/lastmile_qr_scan"}, "fusion_lat": 0.0}, {"type": "electric_scooter", "bike_id": "62b68bca21f125fd8e8ab04a91937dc6", "is_disabled": 0, "name": "62b68bca21f125fd8e8ab04a91937dc6", "lon": -76.93757266666667, "is_reserved": 0, "fusion_lon": 0.0, "lat": 38.878587833333334, "rental_uris": {"android": "https://dc.lft.to/lastmile_qr_scan", "ios": "https://dc.lft.to/lastmile_qr_scan"}, "fusion_lat": 0.0}, {"type": "electric_bike", "bike_id": "71038a237d9f711aa638431b7f76ceab", "is_disabled": 0, "name": "71038a237d9f711aa638431b7f76ceab", "lon": -77.02869833333334, "is_reserved": 0, "fusion_lon": 0.0, "lat": 38.92138633333333, "rental_uris": {"android": "https://dc.lft.to/lastmile_qr_scan", "ios": "https://dc.lft.to/lastmile_qr_scan"}, "fusion_lat": 0.0}, {"type": "electric_scooter", "bike_id": "67d8adc61bd06e1c02a3edd9c8eddf0d", "is_disabled": 0, "name": "67d8adc61bd06e1c02a3edd9c8eddf0d", "lon": -77.00207483333334, "is_reserved": 0, "fusion_lon": 0.0, "lat": 38.91457066666667, "rental_uris": {"android": "https://dc.lft.to/lastmile_qr_scan", "ios": "https://dc.lft.to/lastmile_qr_scan"}, "fusion_lat": 0.0}, {"type": "electric_scooter", "bike_id": "1a2b015e673718bfc48f689f8b0b8254", "is_disabled": 0, "name": "1a2b015e673718bfc48f689f8b0b8254", "lon": -77.02225383333334, "is_reserved": 0, "fusion_lon": 0.0, "lat": 38.89847916666667, "rental_uris": {"android": "https://dc.lft.to/lastmile_qr_scan", "ios": "https://dc.lft.to/lastmile_qr_scan"}, "fusion_lat": 0.0}, {"type": "electric_bike", "bike_id": "08b53cb3191c35b66144b2160d125bac", "is_disabled": 0, "name": "08b53cb3191c35b66144b2160d125bac", "lon": -76.945385, "is_reserved": 0, "fusion_lon": 0.0, "lat": 38.982870166666665, "rental_uris": {"android": "https://dc.lft.to/lastmile_qr_scan", "ios": "https://dc.lft.to/lastmile_qr_scan"}, "fusion_lat": 0.0}, {"type": "electric_scooter", "bike_id": "b7177a77493c801791877cbf11980101", "is_disabled": 0, "name": "b7177a77493c801791877cbf11980101", "lon": -77.09668733333334, "is_reserved": 0, "fusion_lon": 0.0, "lat": 38.917582, "rental_uris": {"android": "https://dc.lft.to/lastmile_qr_scan", "ios": "https://dc.lft.to/lastmile_qr_scan"}, "fusion_lat": 0.0}, {"type": "electric_scooter", "bike_id": "f52b23c467d68b390a75a1fe02de4274", "is_disabled": 0, "name": "f52b23c467d68b390a75a1fe02de4274", "lon": -77.02846833333334, "is_reserved": 0, "fusion_lon": 0.0, "lat": 38.93312916666667, "rental_uris": {"android": "https://dc.lft.to/lastmile_qr_scan", "ios": "https://dc.lft.to/lastmile_qr_scan"}, "fusion_lat": 0.0}, {"type": "electric_scooter", "bike_id": "9dfc34527a16357009c95dd6c7e268fa", "is_disabled": 0, "name": "9dfc34527a16357009c95dd6c7e268fa", "lon": -77.04005516666666, "is_reserved": 0, "fusion_lon": 0.0, "lat": 38.93428516666667, "rental_uris": {"android": "https://dc.lft.to/lastmile_qr_scan", "ios": "https://dc.lft.to/lastmile_qr_scan"}, "fusion_lat": 0.0}, {"type": "electric_scooter", "bike_id": "50d2addbfddb7806bed4f5650dc34a96", "is_disabled": 0, "name": "50d2addbfddb7806bed4f5650dc34a96", "lon": -77.0355755, "is_reserved": 0, "fusion_lon": 0.0, "lat": 38.903616666666665, "rental_uris": {"android": "https://dc.lft.to/lastmile_qr_scan", "ios": "https://dc.lft.to/lastmile_qr_scan"}, "fusion_lat": 0.0}, {"type": "electric_bike", "bike_id": "5e0c2e67025301b697fe8ce0b56f420f", "is_disabled": 0, "name": "5e0c2e67025301b697fe8ce0b56f420f", "lon": -76.95249, "is_reserved": 0, "fusion_lon": 0.0, "lat": 38.884639, "rental_uris": {"android": "https://dc.lft.to/lastmile_qr_scan", "ios": "https://dc.lft.to/lastmile_qr_scan"}, "fusion_lat": 0.0}, {"type": "electric_scooter", "bike_id": "23fe585b10d3e1a8666fd01fbbefe6e2", "is_disabled": 0, "name": "23fe585b10d3e1a8666fd01fbbefe6e2", "lon": -77.00311483333333, "is_reserved": 0, "fusion_lon": 0.0, "lat": 38.895374, "rental_uris": {"android": "https://dc.lft.to/lastmile_qr_scan", "ios": "https://dc.lft.to/lastmile_qr_scan"}, "fusion_lat": 0.0}, {"type": "electric_scooter", "bike_id": "f81396a863a7a38674cbc95ae070cc68", "is_disabled": 0, "name": "f81396a863a7a38674cbc95ae070cc68", "lon": -77.03040666666666, "is_reserved": 0, "fusion_lon": 0.0, "lat": 38.90037616666667, "rental_uris": {"android": "https://dc.lft.to/lastmile_qr_scan", "ios": "https://dc.lft.to/lastmile_qr_scan"}, "fusion_lat": 0.0}, {"type": "electric_scooter", "bike_id": "fa9ae1319c182e7d3eec056c4d17dec2", "is_disabled": 0, "name": "fa9ae1319c182e7d3eec056c4d17dec2", "lon": -77.00216316666666, "is_reserved": 0, "fusion_lon": 0.0, "lat": 38.90025, "rental_uris": {"android": "https://dc.lft.to/lastmile_qr_scan", "ios": "https://dc.lft.to/lastmile_qr_scan"}, "fusion_lat": 0.0}, {"type": "electric_scooter", "bike_id": "7dfd6224a7e19bf7339b0132a95f90f9", "is_disabled": 0, "name": "7dfd6224a7e19bf7339b0132a95f90f9", "lon": -77.01836533333334, "is_reserved": 0, "fusion_lon": 0.0, "lat": 38.90958216666667, "rental_uris": {"android": "https://dc.lft.to/lastmile_qr_scan", "ios": "https://dc.lft.to/lastmile_qr_scan"}, "fusion_lat": 0.0}, {"type": "electric_scooter", "bike_id": "c569d533bc6e8b86af1dddf3514f1b46", "is_disabled": 0, "name": "c569d533bc6e8b86af1dddf3514f1b46", "lon": -77.06419683333333, "is_reserved": 0, "fusion_lon": 0.0, "lat": 38.914588333333334, "rental_uris": {"android": "https://dc.lft.to/lastmile_qr_scan", "ios": "https://dc.lft.to/lastmile_qr_scan"}, "fusion_lat": 0.0}, {"type": "electric_scooter", "bike_id": "68d54c269383a9685de47fa654b9e80d", "is_disabled": 0, "name": "68d54c269383a9685de47fa654b9e80d", "lon": -77.0004065, "is_reserved": 0, "fusion_lon": 0.0, "lat": 38.9069315, "rental_uris": {"android": "https://dc.lft.to/lastmile_qr_scan", "ios": "https://dc.lft.to/lastmile_qr_scan"}, "fusion_lat": 0.0}, {"type": "electric_scooter", "bike_id": "72b7e409199895e02f8b75b8355247ae", "is_disabled": 0, "name": "72b7e409199895e02f8b75b8355247ae", "lon": -77.064545, "is_reserved": 0, "fusion_lon": 0.0, "lat": 38.948805166666666, "rental_uris": {"android": "https://dc.lft.to/lastmile_qr_scan", "ios": "https://dc.lft.to/lastmile_qr_scan"}, "fusion_lat": 0.0}, {"type": "electric_scooter", "bike_id": "b06877655ddd5bd74e411139179c13d6", "is_disabled": 0, "name": "b06877655ddd5bd74e411139179c13d6", "lon": -77.02282216666667, "is_reserved": 0, "fusion_lon": 0.0, "lat": 38.894965, "rental_uris": {"android": "https://dc.lft.to/lastmile_qr_scan", "ios": "https://dc.lft.to/lastmile_qr_scan"}, "fusion_lat": 0.0}, {"type": "electric_scooter", "bike_id": "8a67d87b943249a38ea4433713c82c00", "is_disabled": 0, "name": "8a67d87b943249a38ea4433713c82c00", "lon": -77.016921, "is_reserved": 0, "fusion_lon": 0.0, "lat": 38.90643883333333, "rental_uris": {"android": "https://dc.lft.to/lastmile_qr_scan", "ios": "https://dc.lft.to/lastmile_qr_scan"}, "fusion_lat": 0.0}, {"type": "electric_scooter", "bike_id": "3817a7c21a92de1706a8912815bfa5fd", "is_disabled": 0, "name": "3817a7c21a92de1706a8912815bfa5fd", "lon": -76.9249985, "is_reserved": 0, "fusion_lon": 0.0, "lat": 38.88596833333333, "rental_uris": {"android": "https://dc.lft.to/lastmile_qr_scan", "ios": "https://dc.lft.to/lastmile_qr_scan"}, "fusion_lat": 0.0}, {"type": "electric_scooter", "bike_id": "05a09a087357d589cfc504882ef24b6a", "is_disabled": 0, "name": "05a09a087357d589cfc504882ef24b6a", "lon": -77.00544083333334, "is_reserved": 0, "fusion_lon": 0.0, "lat": 38.880473333333335, "rental_uris": {"android": "https://dc.lft.to/lastmile_qr_scan", "ios": "https://dc.lft.to/lastmile_qr_scan"}, "fusion_lat": 0.0}, {"type": "electric_scooter", "bike_id": "f1fe8db8ff9191443e078548e0971479", "is_disabled": 0, "name": "f1fe8db8ff9191443e078548e0971479", "lon": -77.03143416666667, "is_reserved": 0, "fusion_lon": 0.0, "lat": 38.9126035, "rental_uris": {"android": "https://dc.lft.to/lastmile_qr_scan", "ios": "https://dc.lft.to/lastmile_qr_scan"}, "fusion_lat": 0.0}, {"type": "electric_scooter", "bike_id": "193dd21073abb33b683ba430a9be0995", "is_disabled": 0, "name": "193dd21073abb33b683ba430a9be0995", "lon": -76.9950165, "is_reserved": 0, "fusion_lon": 0.0, "lat": 38.8823815, "rental_uris": {"android": "https://dc.lft.to/lastmile_qr_scan", "ios": "https://dc.lft.to/lastmile_qr_scan"}, "fusion_lat": 0.0}, {"type": "electric_scooter", "bike_id": "7032c6428d34107d07a4a07ee9cb66c2", "is_disabled": 0, "name": "7032c6428d34107d07a4a07ee9cb66c2", "lon": -77.0364095, "is_reserved": 0, "fusion_lon": 0.0, "lat": 38.9245785, "rental_uris": {"android": "https://dc.lft.to/lastmile_qr_scan", "ios": "https://dc.lft.to/lastmile_qr_scan"}, "fusion_lat": 0.0}, {"type": "electric_scooter", "bike_id": "cf3a1167a96f143ccb01db0979b7d4a6", "is_disabled": 0, "name": "cf3a1167a96f143ccb01db0979b7d4a6", "lon": -77.03707133333333, "is_reserved": 0, "fusion_lon": 0.0, "lat": 38.926348, "rental_uris": {"android": "https://dc.lft.to/lastmile_qr_scan", "ios": "https://dc.lft.to/lastmile_qr_scan"}, "fusion_lat": 0.0}, {"type": "electric_bike", "bike_id": "f6b2aaf90fa147e6564b1c441181a2d3", "is_disabled": 0, "name": "f6b2aaf90fa147e6564b1c441181a2d3", "lon": -77.14852633333334, "is_reserved": 0, "fusion_lon": 0.0, "lat": 38.87762566666667, "rental_uris": {"android": "https://dc.lft.to/lastmile_qr_scan", "ios": "https://dc.lft.to/lastmile_qr_scan"}, "fusion_lat": 0.0}, {"type": "electric_scooter", "bike_id": "c24bb31008692581fd76dbbaa5073cc1", "is_disabled": 0, "name": "c24bb31008692581fd76dbbaa5073cc1", "lon": -76.98536966666667, "is_reserved": 0, "fusion_lon": 0.0, "lat": 38.8585305, "rental_uris": {"android": "https://dc.lft.to/lastmile_qr_scan", "ios": "https://dc.lft.to/lastmile_qr_scan"}, "fusion_lat": 0.0}, {"type": "electric_bike", "bike_id": "f435f10b430a607d0a2819e77b6e1bc7", "is_disabled": 0, "name": "f435f10b430a607d0a2819e77b6e1bc7", "lon": -76.97319783333333, "is_reserved": 0, "fusion_lon": 0.0, "lat": 38.8651155, "rental_uris": {"android": "https://dc.lft.to/lastmile_qr_scan", "ios": "https://dc.lft.to/lastmile_qr_scan"}, "fusion_lat": 0.0}, {"type": "electric_scooter", "bike_id": "1984374b2861ea7acf500c9180dd987a", "is_disabled": 0, "name": "1984374b2861ea7acf500c9180dd987a", "lon": -77.031882, "is_reserved": 0, "fusion_lon": 0.0, "lat": 38.92906716666667, "rental_uris": {"android": "https://dc.lft.to/lastmile_qr_scan", "ios": "https://dc.lft.to/lastmile_qr_scan"}, "fusion_lat": 0.0}, {"type": "electric_scooter", "bike_id": "96ac933019428c2a85c45b12da6615b2", "is_disabled": 0, "name": "96ac933019428c2a85c45b12da6615b2", "lon": -77.04035166666667, "is_reserved": 0, "fusion_lon": 0.0, "lat": 38.90385783333333, "rental_uris": {"android": "https://dc.lft.to/lastmile_qr_scan", "ios": "https://dc.lft.to/lastmile_qr_scan"}, "fusion_lat": 0.0}, {"type": "electric_scooter", "bike_id": "f18a2083fee89f5ecec74cca7a4f6c18", "is_disabled": 0, "name": "f18a2083fee89f5ecec74cca7a4f6c18", "lon": -76.999729, "is_reserved": 0, "fusion_lon": 0.0, "lat": 38.908371, "rental_uris": {"android": "https://dc.lft.to/lastmile_qr_scan", "ios": "https://dc.lft.to/lastmile_qr_scan"}, "fusion_lat": 0.0}, {"type": "electric_scooter", "bike_id": "02c70f9a1a3a2aa451b7aedf46cc1c47", "is_disabled": 0, "name": "02c70f9a1a3a2aa451b7aedf46cc1c47", "lon": -77.04155666666666, "is_reserved": 0, "fusion_lon": 0.0, "lat": 38.899859166666666, "rental_uris": {"android": "https://dc.lft.to/lastmile_qr_scan", "ios": "https://dc.lft.to/lastmile_qr_scan"}, "fusion_lat": 0.0}, {"type": "electric_scooter", "bike_id": "145ff3c64320b4beee4f27dbbd54efdf", "is_disabled": 0, "name": "145ff3c64320b4beee4f27dbbd54efdf", "lon": -77.04162316666667, "is_reserved": 0, "fusion_lon": 0.0, "lat": 38.912499333333336, "rental_uris": {"android": "https://dc.lft.to/lastmile_qr_scan", "ios": "https://dc.lft.to/lastmile_qr_scan"}, "fusion_lat": 0.0}, {"type": "electric_scooter", "bike_id": "5b80858743a3351ea9c76a7c3dd95e40", "is_disabled": 0, "name": "5b80858743a3351ea9c76a7c3dd95e40", "lon": -77.02656283333333, "is_reserved": 0, "fusion_lon": 0.0, "lat": 38.90243316666667, "rental_uris": {"android": "https://dc.lft.to/lastmile_qr_scan", "ios": "https://dc.lft.to/lastmile_qr_scan"}, "fusion_lat": 0.0}, {"type": "electric_scooter", "bike_id": "ae7e53ce2198c5044bdec615222f1c9b", "is_disabled": 0, "name": "ae7e53ce2198c5044bdec615222f1c9b", "lon": -76.9808295, "is_reserved": 0, "fusion_lon": 0.0, "lat": 38.904090833333335, "rental_uris": {"android": "https://dc.lft.to/lastmile_qr_scan", "ios": "https://dc.lft.to/lastmile_qr_scan"}, "fusion_lat": 0.0}, {"type": "electric_scooter", "bike_id": "597d97f43edeb8d6448b7c2c1264477f", "is_disabled": 0, "name": "597d97f43edeb8d6448b7c2c1264477f", "lon": -77.00212583333334, "is_reserved": 0, "fusion_lon": 0.0, "lat": 38.887423166666665, "rental_uris": {"android": "https://dc.lft.to/lastmile_qr_scan", "ios": "https://dc.lft.to/lastmile_qr_scan"}, "fusion_lat": 0.0}, {"type": "electric_bike", "bike_id": "f6a157a7fa518248357737ce55e6d4e2", "is_disabled": 0, "name": "f6a157a7fa518248357737ce55e6d4e2", "lon": -77.01231466666667, "is_reserved": 0, "fusion_lon": 0.0, "lat": 38.95082033333333, "rental_uris": {"android": "https://dc.lft.to/lastmile_qr_scan", "ios": "https://dc.lft.to/lastmile_qr_scan"}, "fusion_lat": 0.0}, {"type": "electric_scooter", "bike_id": "e2747f05c6764e1d30ee4f6d83362bc2", "is_disabled": 0, "name": "e2747f05c6764e1d30ee4f6d83362bc2", "lon": -77.03283533333334, "is_reserved": 0, "fusion_lon": 0.0, "lat": 38.93640533333333, "rental_uris": {"android": "https://dc.lft.to/lastmile_qr_scan", "ios": "https://dc.lft.to/lastmile_qr_scan"}, "fusion_lat": 0.0}, {"type": "electric_scooter", "bike_id": "2c1be08735d0cfef4c3ca5c3156d2ce1", "is_disabled": 0, "name": "2c1be08735d0cfef4c3ca5c3156d2ce1", "lon": -77.0394615, "is_reserved": 0, "fusion_lon": 0.0, "lat": 38.908326, "rental_uris": {"android": "https://dc.lft.to/lastmile_qr_scan", "ios": "https://dc.lft.to/lastmile_qr_scan"}, "fusion_lat": 0.0}, {"type": "electric_scooter", "bike_id": "791c722951cbf4941d846df74498a2df", "is_disabled": 0, "name": "791c722951cbf4941d846df74498a2df", "lon": -77.01393033333333, "is_reserved": 0, "fusion_lon": 0.0, "lat": 38.91496733333334, "rental_uris": {"android": "https://dc.lft.to/lastmile_qr_scan", "ios": "https://dc.lft.to/lastmile_qr_scan"}, "fusion_lat": 0.0}, {"type": "electric_scooter", "bike_id": "84745eb8e4aac5fe8228c6eb7caaff0b", "is_disabled": 0, "name": "84745eb8e4aac5fe8228c6eb7caaff0b", "lon": -77.03965, "is_reserved": 0, "fusion_lon": 0.0, "lat": 38.93154833333333, "rental_uris": {"android": "https://dc.lft.to/lastmile_qr_scan", "ios": "https://dc.lft.to/lastmile_qr_scan"}, "fusion_lat": 0.0}, {"type": "electric_scooter", "bike_id": "4a1c3acaed9ea8b18553c37d4cf5cbbe", "is_disabled": 0, "name": "4a1c3acaed9ea8b18553c37d4cf5cbbe", "lon": -77.04565616666666, "is_reserved": 0, "fusion_lon": 0.0, "lat": 38.91766466666667, "rental_uris": {"android": "https://dc.lft.to/lastmile_qr_scan", "ios": "https://dc.lft.to/lastmile_qr_scan"}, "fusion_lat": 0.0}, {"type": "electric_scooter", "bike_id": "4c3f13915b44ef6299361a18ee1f209c", "is_disabled": 0, "name": "4c3f13915b44ef6299361a18ee1f209c", "lon": -77.03275533333333, "is_reserved": 0, "fusion_lon": 0.0, "lat": 38.89886716666667, "rental_uris": {"android": "https://dc.lft.to/lastmile_qr_scan", "ios": "https://dc.lft.to/lastmile_qr_scan"}, "fusion_lat": 0.0}, {"type": "electric_scooter", "bike_id": "34912fa5eb3b8245d5c929d6b5e148f2", "is_disabled": 0, "name": "34912fa5eb3b8245d5c929d6b5e148f2", "lon": -77.06839933333333, "is_reserved": 0, "fusion_lon": 0.0, "lat": 38.91715, "rental_uris": {"android": "https://dc.lft.to/lastmile_qr_scan", "ios": "https://dc.lft.to/lastmile_qr_scan"}, "fusion_lat": 0.0}, {"type": "electric_scooter", "bike_id": "936b05adc42869277b5c3600028be131", "is_disabled": 0, "name": "936b05adc42869277b5c3600028be131", "lon": -77.01955433333333, "is_reserved": 0, "fusion_lon": 0.0, "lat": 38.931945999999996, "rental_uris": {"android": "https://dc.lft.to/lastmile_qr_scan", "ios": "https://dc.lft.to/lastmile_qr_scan"}, "fusion_lat": 0.0}, {"type": "electric_bike", "bike_id": "0ef885d8c282c3f0953776529a80f5a0", "is_disabled": 0, "name": "0ef885d8c282c3f0953776529a80f5a0", "lon": -76.9867635, "is_reserved": 0, "fusion_lon": 0.0, "lat": 38.8996195, "rental_uris": {"android": "https://dc.lft.to/lastmile_qr_scan", "ios": "https://dc.lft.to/lastmile_qr_scan"}, "fusion_lat": 0.0}, {"type": "electric_scooter", "bike_id": "f7abc7d5928ecad947696f324fd75a19", "is_disabled": 0, "name": "f7abc7d5928ecad947696f324fd75a19", "lon": -77.03894583333333, "is_reserved": 0, "fusion_lon": 0.0, "lat": 38.922105, "rental_uris": {"android": "https://dc.lft.to/lastmile_qr_scan", "ios": "https://dc.lft.to/lastmile_qr_scan"}, "fusion_lat": 0.0}, {"type": "electric_scooter", "bike_id": "56ce3c987ac1d0f605bdb6f3dbc4c327", "is_disabled": 0, "name": "56ce3c987ac1d0f605bdb6f3dbc4c327", "lon": -77.02778933333333, "is_reserved": 0, "fusion_lon": 0.0, "lat": 38.898361666666666, "rental_uris": {"android": "https://dc.lft.to/lastmile_qr_scan", "ios": "https://dc.lft.to/lastmile_qr_scan"}, "fusion_lat": 0.0}, {"type": "electric_scooter", "bike_id": "99ba931c8824b490bcde9036ba3aab1c", "is_disabled": 0, "name": "99ba931c8824b490bcde9036ba3aab1c", "lon": -77.01893866666667, "is_reserved": 0, "fusion_lon": 0.0, "lat": 38.904461, "rental_uris": {"android": "https://dc.lft.to/lastmile_qr_scan", "ios": "https://dc.lft.to/lastmile_qr_scan"}, "fusion_lat": 0.0}, {"type": "electric_scooter", "bike_id": "1974d5512b8aba0e23bf2a22df724f25", "is_disabled": 0, "name": "1974d5512b8aba0e23bf2a22df724f25", "lon": -77.02643416666666, "is_reserved": 0, "fusion_lon": 0.0, "lat": 38.9026375, "rental_uris": {"android": "https://dc.lft.to/lastmile_qr_scan", "ios": "https://dc.lft.to/lastmile_qr_scan"}, "fusion_lat": 0.0}, {"type": "electric_scooter", "bike_id": "4f43bc46255b58316c92c01ba6fda3fd", "is_disabled": 0, "name": "4f43bc46255b58316c92c01ba6fda3fd", "lon": -77.04037033333333, "is_reserved": 0, "fusion_lon": 0.0, "lat": 38.905928333333335, "rental_uris": {"android": "https://dc.lft.to/lastmile_qr_scan", "ios": "https://dc.lft.to/lastmile_qr_scan"}, "fusion_lat": 0.0}, {"type": "electric_scooter", "bike_id": "c5a164948580c3a26bc91aa161ac235f", "is_disabled": 0, "name": "c5a164948580c3a26bc91aa161ac235f", "lon": -77.00018916666667, "is_reserved": 0, "fusion_lon": 0.0, "lat": 38.873924833333334, "rental_uris": {"android": "https://dc.lft.to/lastmile_qr_scan", "ios": "https://dc.lft.to/lastmile_qr_scan"}, "fusion_lat": 0.0}, {"type": "electric_scooter", "bike_id": "feeef49ec4d8958a9c0673b0f68c67c5", "is_disabled": 0, "name": "feeef49ec4d8958a9c0673b0f68c67c5", "lon": -77.03627, "is_reserved": 0, "fusion_lon": 0.0, "lat": 38.936762333333334, "rental_uris": {"android": "https://dc.lft.to/lastmile_qr_scan", "ios": "https://dc.lft.to/lastmile_qr_scan"}, "fusion_lat": 0.0}, {"type": "electric_scooter", "bike_id": "ea2c78b5cd9fb681cba551aec5581002", "is_disabled": 0, "name": "ea2c78b5cd9fb681cba551aec5581002", "lon": -76.97964883333333, "is_reserved": 0, "fusion_lon": 0.0, "lat": 38.8978875, "rental_uris": {"android": "https://dc.lft.to/lastmile_qr_scan", "ios": "https://dc.lft.to/lastmile_qr_scan"}, "fusion_lat": 0.0}, {"type": "electric_scooter", "bike_id": "b1fd26dc44a57ec8d0e38ec24faf8e94", "is_disabled": 0, "name": "b1fd26dc44a57ec8d0e38ec24faf8e94", "lon": -77.02729766666667, "is_reserved": 0, "fusion_lon": 0.0, "lat": 38.918117, "rental_uris": {"android": "https://dc.lft.to/lastmile_qr_scan", "ios": "https://dc.lft.to/lastmile_qr_scan"}, "fusion_lat": 0.0}, {"type": "electric_bike", "bike_id": "b6ee79fea2d0019c619aabf8902cda91", "is_disabled": 0, "name": "b6ee79fea2d0019c619aabf8902cda91", "lon": -76.9525245, "is_reserved": 0, "fusion_lon": 0.0, "lat": 38.90695783333334, "rental_uris": {"android": "https://dc.lft.to/lastmile_qr_scan", "ios": "https://dc.lft.to/lastmile_qr_scan"}, "fusion_lat": 0.0}, {"type": "electric_bike", "bike_id": "1ea779a64fcaaa99fda9d1b9242f89c4", "is_disabled": 0, "name": "1ea779a64fcaaa99fda9d1b9242f89c4", "lon": -77.04641833333334, "is_reserved": 0, "fusion_lon": 0.0, "lat": 38.8154325, "rental_uris": {"android": "https://dc.lft.to/lastmile_qr_scan", "ios": "https://dc.lft.to/lastmile_qr_scan"}, "fusion_lat": 0.0}, {"type": "electric_scooter", "bike_id": "625233a2947405acd1614994efb38d85", "is_disabled": 0, "name": "625233a2947405acd1614994efb38d85", "lon": -77.04168866666667, "is_reserved": 0, "fusion_lon": 0.0, "lat": 38.9194375, "rental_uris": {"android": "https://dc.lft.to/lastmile_qr_scan", "ios": "https://dc.lft.to/lastmile_qr_scan"}, "fusion_lat": 0.0}, {"type": "electric_scooter", "bike_id": "b6d8cc8f647795d15706bc86eefd4923", "is_disabled": 0, "name": "b6d8cc8f647795d15706bc86eefd4923", "lon": -76.988077, "is_reserved": 0, "fusion_lon": 0.0, "lat": 38.893624833333334, "rental_uris": {"android": "https://dc.lft.to/lastmile_qr_scan", "ios": "https://dc.lft.to/lastmile_qr_scan"}, "fusion_lat": 0.0}, {"type": "electric_scooter", "bike_id": "a8cbb56568741f06ee3d7e2b15c73bec", "is_disabled": 0, "name": "a8cbb56568741f06ee3d7e2b15c73bec", "lon": -77.01394283333333, "is_reserved": 0, "fusion_lon": 0.0, "lat": 38.911078333333336, "rental_uris": {"android": "https://dc.lft.to/lastmile_qr_scan", "ios": "https://dc.lft.to/lastmile_qr_scan"}, "fusion_lat": 0.0}, {"type": "electric_scooter", "bike_id": "c8260ab7279c4ef90414c92035937bf1", "is_disabled": 0, "name": "c8260ab7279c4ef90414c92035937bf1", "lon": -76.9833975, "is_reserved": 0, "fusion_lon": 0.0, "lat": 38.895466166666665, "rental_uris": {"android": "https://dc.lft.to/lastmile_qr_scan", "ios": "https://dc.lft.to/lastmile_qr_scan"}, "fusion_lat": 0.0}, {"type": "electric_bike", "bike_id": "3f3fc3cf9fa206acd4c3ca9cb95830e7", "is_disabled": 0, "name": "3f3fc3cf9fa206acd4c3ca9cb95830e7", "lon": -77.129836, "is_reserved": 0, "fusion_lon": 0.0, "lat": 38.799794166666665, "rental_uris": {"android": "https://dc.lft.to/lastmile_qr_scan", "ios": "https://dc.lft.to/lastmile_qr_scan"}, "fusion_lat": 0.0}, {"type": "electric_scooter", "bike_id": "4c3f45eb605869c96e4fc2bb92bbcaa0", "is_disabled": 0, "name": "4c3f45eb605869c96e4fc2bb92bbcaa0", "lon": -77.03970533333333, "is_reserved": 0, "fusion_lon": 0.0, "lat": 38.901514, "rental_uris": {"android": "https://dc.lft.to/lastmile_qr_scan", "ios": "https://dc.lft.to/lastmile_qr_scan"}, "fusion_lat": 0.0}, {"type": "electric_scooter", "bike_id": "d350fef719349b7f16b7ce5be778a322", "is_disabled": 0, "name": "d350fef719349b7f16b7ce5be778a322", "lon": -77.03269716666667, "is_reserved": 0, "fusion_lon": 0.0, "lat": 38.9316225, "rental_uris": {"android": "https://dc.lft.to/lastmile_qr_scan", "ios": "https://dc.lft.to/lastmile_qr_scan"}, "fusion_lat": 0.0}, {"type": "electric_scooter", "bike_id": "6e21b264d1353ed7c0f828835a8c94b9", "is_disabled": 0, "name": "6e21b264d1353ed7c0f828835a8c94b9", "lon": -77.01692883333334, "is_reserved": 0, "fusion_lon": 0.0, "lat": 38.92042383333333, "rental_uris": {"android": "https://dc.lft.to/lastmile_qr_scan", "ios": "https://dc.lft.to/lastmile_qr_scan"}, "fusion_lat": 0.0}, {"type": "electric_scooter", "bike_id": "6104b93ebc8f5aabdb2580f66344a023", "is_disabled": 0, "name": "6104b93ebc8f5aabdb2580f66344a023", "lon": -77.028137, "is_reserved": 0, "fusion_lon": 0.0, "lat": 38.91049616666667, "rental_uris": {"android": "https://dc.lft.to/lastmile_qr_scan", "ios": "https://dc.lft.to/lastmile_qr_scan"}, "fusion_lat": 0.0}, {"type": "electric_scooter", "bike_id": "900c052b2abae5b146bf8f4a1b2cee4a", "is_disabled": 0, "name": "900c052b2abae5b146bf8f4a1b2cee4a", "lon": -77.043745, "is_reserved": 0, "fusion_lon": 0.0, "lat": 38.91662816666667, "rental_uris": {"android": "https://dc.lft.to/lastmile_qr_scan", "ios": "https://dc.lft.to/lastmile_qr_scan"}, "fusion_lat": 0.0}, {"type": "electric_scooter", "bike_id": "790367085965970180c5e7eca2feac30", "is_disabled": 0, "name": "790367085965970180c5e7eca2feac30", "lon": -77.0189465, "is_reserved": 0, "fusion_lon": 0.0, "lat": 38.897453666666664, "rental_uris": {"android": "https://dc.lft.to/lastmile_qr_scan", "ios": "https://dc.lft.to/lastmile_qr_scan"}, "fusion_lat": 0.0}, {"type": "electric_scooter", "bike_id": "ef71625b5831ece405210b1fcbe529e9", "is_disabled": 0, "name": "ef71625b5831ece405210b1fcbe529e9", "lon": -77.03096366666666, "is_reserved": 0, "fusion_lon": 0.0, "lat": 38.92377066666667, "rental_uris": {"android": "https://dc.lft.to/lastmile_qr_scan", "ios": "https://dc.lft.to/lastmile_qr_scan"}, "fusion_lat": 0.0}, {"type": "electric_scooter", "bike_id": "fadd64634419b256957b8771542ad442", "is_disabled": 0, "name": "fadd64634419b256957b8771542ad442", "lon": -77.01955366666667, "is_reserved": 0, "fusion_lon": 0.0, "lat": 38.9232225, "rental_uris": {"android": "https://dc.lft.to/lastmile_qr_scan", "ios": "https://dc.lft.to/lastmile_qr_scan"}, "fusion_lat": 0.0}, {"type": "electric_scooter", "bike_id": "c050fd0e04a8f75c13e76e9ee0f87722", "is_disabled": 0, "name": "c050fd0e04a8f75c13e76e9ee0f87722", "lon": -77.02702683333334, "is_reserved": 0, "fusion_lon": 0.0, "lat": 38.91652916666666, "rental_uris": {"android": "https://dc.lft.to/lastmile_qr_scan", "ios": "https://dc.lft.to/lastmile_qr_scan"}, "fusion_lat": 0.0}, {"type": "electric_scooter", "bike_id": "c4fb9411dbdad7b3aaf6c49675a1e4a6", "is_disabled": 0, "name": "c4fb9411dbdad7b3aaf6c49675a1e4a6", "lon": -77.04352116666666, "is_reserved": 0, "fusion_lon": 0.0, "lat": 38.91092783333333, "rental_uris": {"android": "https://dc.lft.to/lastmile_qr_scan", "ios": "https://dc.lft.to/lastmile_qr_scan"}, "fusion_lat": 0.0}, {"type": "electric_bike", "bike_id": "9cc8d507bd538677995f9750012c5645", "is_disabled": 0, "name": "9cc8d507bd538677995f9750012c5645", "lon": -77.077524, "is_reserved": 0, "fusion_lon": 0.0, "lat": 38.84186866666667, "rental_uris": {"android": "https://dc.lft.to/lastmile_qr_scan", "ios": "https://dc.lft.to/lastmile_qr_scan"}, "fusion_lat": 0.0}, {"type": "electric_scooter", "bike_id": "825c8d81cd0ab2721ed7d5519935896a", "is_disabled": 0, "name": "825c8d81cd0ab2721ed7d5519935896a", "lon": -77.04050333333333, "is_reserved": 0, "fusion_lon": 0.0, "lat": 38.905026, "rental_uris": {"android": "https://dc.lft.to/lastmile_qr_scan", "ios": "https://dc.lft.to/lastmile_qr_scan"}, "fusion_lat": 0.0}, {"type": "electric_scooter", "bike_id": "1693d09c2261e2ad4084fd1681777bce", "is_disabled": 0, "name": "1693d09c2261e2ad4084fd1681777bce", "lon": -77.04335066666667, "is_reserved": 0, "fusion_lon": 0.0, "lat": 38.91775633333334, "rental_uris": {"android": "https://dc.lft.to/lastmile_qr_scan", "ios": "https://dc.lft.to/lastmile_qr_scan"}, "fusion_lat": 0.0}, {"type": "electric_scooter", "bike_id": "7f7bd0fb2bd5cf8cb7a48b71610c6f0e", "is_disabled": 0, "name": "7f7bd0fb2bd5cf8cb7a48b71610c6f0e", "lon": -77.0118365, "is_reserved": 0, "fusion_lon": 0.0, "lat": 38.90028066666667, "rental_uris": {"android": "https://dc.lft.to/lastmile_qr_scan", "ios": "https://dc.lft.to/lastmile_qr_scan"}, "fusion_lat": 0.0}, {"type": "electric_scooter", "bike_id": "c455d22afab2b321ffc318e3760a15dd", "is_disabled": 0, "name": "c455d22afab2b321ffc318e3760a15dd", "lon": -77.03462433333333, "is_reserved": 0, "fusion_lon": 0.0, "lat": 38.9117025, "rental_uris": {"android": "https://dc.lft.to/lastmile_qr_scan", "ios": "https://dc.lft.to/lastmile_qr_scan"}, "fusion_lat": 0.0}, {"type": "electric_scooter", "bike_id": "217d22565d94eb4b13fa7a4d7d13e533", "is_disabled": 0, "name": "217d22565d94eb4b13fa7a4d7d13e533", "lon": -77.01525133333334, "is_reserved": 0, "fusion_lon": 0.0, "lat": 38.893541666666664, "rental_uris": {"android": "https://dc.lft.to/lastmile_qr_scan", "ios": "https://dc.lft.to/lastmile_qr_scan"}, "fusion_lat": 0.0}, {"type": "electric_scooter", "bike_id": "1d6dfc79e52c9c9b646757bde19d2964", "is_disabled": 0, "name": "1d6dfc79e52c9c9b646757bde19d2964", "lon": -77.04233966666666, "is_reserved": 0, "fusion_lon": 0.0, "lat": 38.922776166666665, "rental_uris": {"android": "https://dc.lft.to/lastmile_qr_scan", "ios": "https://dc.lft.to/lastmile_qr_scan"}, "fusion_lat": 0.0}, {"type": "electric_scooter", "bike_id": "91e8b082deb1f856d5569570acb7278a", "is_disabled": 0, "name": "91e8b082deb1f856d5569570acb7278a", "lon": -76.957352, "is_reserved": 0, "fusion_lon": 0.0, "lat": 38.883986, "rental_uris": {"android": "https://dc.lft.to/lastmile_qr_scan", "ios": "https://dc.lft.to/lastmile_qr_scan"}, "fusion_lat": 0.0}, {"type": "electric_scooter", "bike_id": "8b17d38763bca723d0bec965e7b33ccb", "is_disabled": 0, "name": "8b17d38763bca723d0bec965e7b33ccb", "lon": -76.99573316666667, "is_reserved": 0, "fusion_lon": 0.0, "lat": 38.900139833333334, "rental_uris": {"android": "https://dc.lft.to/lastmile_qr_scan", "ios": "https://dc.lft.to/lastmile_qr_scan"}, "fusion_lat": 0.0}, {"type": "electric_scooter", "bike_id": "ca3c88f5e6b96c00d639cb1e9e5d85c6", "is_disabled": 0, "name": "ca3c88f5e6b96c00d639cb1e9e5d85c6", "lon": -76.98370116666666, "is_reserved": 0, "fusion_lon": 0.0, "lat": 38.892621, "rental_uris": {"android": "https://dc.lft.to/lastmile_qr_scan", "ios": "https://dc.lft.to/lastmile_qr_scan"}, "fusion_lat": 0.0}, {"type": "electric_scooter", "bike_id": "d342e852e41ec9a1f072ca8e9faebfaf", "is_disabled": 0, "name": "d342e852e41ec9a1f072ca8e9faebfaf", "lon": -77.0731735, "is_reserved": 0, "fusion_lon": 0.0, "lat": 38.921987666666666, "rental_uris": {"android": "https://dc.lft.to/lastmile_qr_scan", "ios": "https://dc.lft.to/lastmile_qr_scan"}, "fusion_lat": 0.0}, {"type": "electric_scooter", "bike_id": "7ed114983a4b9cde70d66fd93d9132f4", "is_disabled": 0, "name": "7ed114983a4b9cde70d66fd93d9132f4", "lon": -77.04247866666667, "is_reserved": 0, "fusion_lon": 0.0, "lat": 38.903507, "rental_uris": {"android": "https://dc.lft.to/lastmile_qr_scan", "ios": "https://dc.lft.to/lastmile_qr_scan"}, "fusion_lat": 0.0}, {"type": "electric_bike", "bike_id": "e6c7655a15dcd54c565c597a3a14a3ef", "is_disabled": 0, "name": "e6c7655a15dcd54c565c597a3a14a3ef", "lon": -77.0287955, "is_reserved": 0, "fusion_lon": 0.0, "lat": 38.921413, "rental_uris": {"android": "https://dc.lft.to/lastmile_qr_scan", "ios": "https://dc.lft.to/lastmile_qr_scan"}, "fusion_lat": 0.0}, {"type": "electric_scooter", "bike_id": "3c15dbd58e4dcf78339eb2a2efd42526", "is_disabled": 0, "name": "3c15dbd58e4dcf78339eb2a2efd42526", "lon": -77.02127983333334, "is_reserved": 0, "fusion_lon": 0.0, "lat": 38.923719, "rental_uris": {"android": "https://dc.lft.to/lastmile_qr_scan", "ios": "https://dc.lft.to/lastmile_qr_scan"}, "fusion_lat": 0.0}, {"type": "electric_scooter", "bike_id": "09aaa9f188a20edb265b6c26c2a1ebd9", "is_disabled": 0, "name": "09aaa9f188a20edb265b6c26c2a1ebd9", "lon": -77.04884016666666, "is_reserved": 0, "fusion_lon": 0.0, "lat": 38.9053105, "rental_uris": {"android": "https://dc.lft.to/lastmile_qr_scan", "ios": "https://dc.lft.to/lastmile_qr_scan"}, "fusion_lat": 0.0}, {"type": "electric_scooter", "bike_id": "9e3511bf3415e04d21abfa572013ce8a", "is_disabled": 0, "name": "9e3511bf3415e04d21abfa572013ce8a", "lon": -77.01187316666666, "is_reserved": 0, "fusion_lon": 0.0, "lat": 38.900149, "rental_uris": {"android": "https://dc.lft.to/lastmile_qr_scan", "ios": "https://dc.lft.to/lastmile_qr_scan"}, "fusion_lat": 0.0}, {"type": "electric_scooter", "bike_id": "363a4fd564c0ad9d0925274472ea0125", "is_disabled": 0, "name": "363a4fd564c0ad9d0925274472ea0125", "lon": -77.0293615, "is_reserved": 0, "fusion_lon": 0.0, "lat": 38.907154, "rental_uris": {"android": "https://dc.lft.to/lastmile_qr_scan", "ios": "https://dc.lft.to/lastmile_qr_scan"}, "fusion_lat": 0.0}, {"type": "electric_scooter", "bike_id": "77799db70a19eb4ae15d97295b1007ed", "is_disabled": 0, "name": "77799db70a19eb4ae15d97295b1007ed", "lon": -77.03389933333334, "is_reserved": 0, "fusion_lon": 0.0, "lat": 38.9246285, "rental_uris": {"android": "https://dc.lft.to/lastmile_qr_scan", "ios": "https://dc.lft.to/lastmile_qr_scan"}, "fusion_lat": 0.0}, {"type": "electric_scooter", "bike_id": "d70478e0c2d3a932ab2fc6109cfa4097", "is_disabled": 0, "name": "d70478e0c2d3a932ab2fc6109cfa4097", "lon": -76.973028, "is_reserved": 0, "fusion_lon": 0.0, "lat": 38.91988333333333, "rental_uris": {"android": "https://dc.lft.to/lastmile_qr_scan", "ios": "https://dc.lft.to/lastmile_qr_scan"}, "fusion_lat": 0.0}, {"type": "electric_scooter", "bike_id": "9a87f185e46fccd3983d7b2853a4ba97", "is_disabled": 0, "name": "9a87f185e46fccd3983d7b2853a4ba97", "lon": -77.0452025, "is_reserved": 0, "fusion_lon": 0.0, "lat": 38.90371616666667, "rental_uris": {"android": "https://dc.lft.to/lastmile_qr_scan", "ios": "https://dc.lft.to/lastmile_qr_scan"}, "fusion_lat": 0.0}, {"type": "electric_bike", "bike_id": "d7d33509409ad3043ec003e42c544c9f", "is_disabled": 0, "name": "d7d33509409ad3043ec003e42c544c9f", "lon": -77.04308516666667, "is_reserved": 0, "fusion_lon": 0.0, "lat": 39.034215833333334, "rental_uris": {"android": "https://dc.lft.to/lastmile_qr_scan", "ios": "https://dc.lft.to/lastmile_qr_scan"}, "fusion_lat": 0.0}, {"type": "electric_scooter", "bike_id": "dca36cc8a13347a389d5dc15b371935e", "is_disabled": 0, "name": "dca36cc8a13347a389d5dc15b371935e", "lon": -77.01962483333334, "is_reserved": 0, "fusion_lon": 0.0, "lat": 38.923223, "rental_uris": {"android": "https://dc.lft.to/lastmile_qr_scan", "ios": "https://dc.lft.to/lastmile_qr_scan"}, "fusion_lat": 0.0}, {"type": "electric_scooter", "bike_id": "3b66779c961531953b622fb6f017ef27", "is_disabled": 0, "name": "3b66779c961531953b622fb6f017ef27", "lon": -77.02806683333333, "is_reserved": 0, "fusion_lon": 0.0, "lat": 38.910407166666666, "rental_uris": {"android": "https://dc.lft.to/lastmile_qr_scan", "ios": "https://dc.lft.to/lastmile_qr_scan"}, "fusion_lat": 0.0}, {"type": "electric_scooter", "bike_id": "4cf5ee5ea3cd14799869ae7a14ff58a7", "is_disabled": 0, "name": "4cf5ee5ea3cd14799869ae7a14ff58a7", "lon": -77.0020165, "is_reserved": 0, "fusion_lon": 0.0, "lat": 38.902377, "rental_uris": {"android": "https://dc.lft.to/lastmile_qr_scan", "ios": "https://dc.lft.to/lastmile_qr_scan"}, "fusion_lat": 0.0}, {"type": "electric_scooter", "bike_id": "18130582c03853b498f57e68cc102987", "is_disabled": 0, "name": "18130582c03853b498f57e68cc102987", "lon": -77.0221895, "is_reserved": 0, "fusion_lon": 0.0, "lat": 38.89318316666667, "rental_uris": {"android": "https://dc.lft.to/lastmile_qr_scan", "ios": "https://dc.lft.to/lastmile_qr_scan"}, "fusion_lat": 0.0}, {"type": "electric_scooter", "bike_id": "0bee2b18bdffa1922e3058aafd7043c7", "is_disabled": 0, "name": "0bee2b18bdffa1922e3058aafd7043c7", "lon": -77.0179245, "is_reserved": 0, "fusion_lon": 0.0, "lat": 38.920315333333335, "rental_uris": {"android": "https://dc.lft.to/lastmile_qr_scan", "ios": "https://dc.lft.to/lastmile_qr_scan"}, "fusion_lat": 0.0}, {"type": "electric_scooter", "bike_id": "0b986935ab257e8d55505975545facd4", "is_disabled": 0, "name": "0b986935ab257e8d55505975545facd4", "lon": -77.05276366666666, "is_reserved": 0, "fusion_lon": 0.0, "lat": 38.910135333333336, "rental_uris": {"android": "https://dc.lft.to/lastmile_qr_scan", "ios": "https://dc.lft.to/lastmile_qr_scan"}, "fusion_lat": 0.0}, {"type": "electric_scooter", "bike_id": "d29234970c271f15a38c0131cef5a85c", "is_disabled": 0, "name": "d29234970c271f15a38c0131cef5a85c", "lon": -77.04165916666666, "is_reserved": 0, "fusion_lon": 0.0, "lat": 38.922989, "rental_uris": {"android": "https://dc.lft.to/lastmile_qr_scan", "ios": "https://dc.lft.to/lastmile_qr_scan"}, "fusion_lat": 0.0}, {"type": "electric_scooter", "bike_id": "3ed9fdf34f495683253a251020ff1d97", "is_disabled": 0, "name": "3ed9fdf34f495683253a251020ff1d97", "lon": -77.01917266666666, "is_reserved": 0, "fusion_lon": 0.0, "lat": 38.92020133333333, "rental_uris": {"android": "https://dc.lft.to/lastmile_qr_scan", "ios": "https://dc.lft.to/lastmile_qr_scan"}, "fusion_lat": 0.0}, {"type": "electric_scooter", "bike_id": "6b2c59cf80db1a5f1c8bc7048dd33f44", "is_disabled": 0, "name": "6b2c59cf80db1a5f1c8bc7048dd33f44", "lon": -77.0175955, "is_reserved": 0, "fusion_lon": 0.0, "lat": 38.876837, "rental_uris": {"android": "https://dc.lft.to/lastmile_qr_scan", "ios": "https://dc.lft.to/lastmile_qr_scan"}, "fusion_lat": 0.0}, {"type": "electric_scooter", "bike_id": "f5cea733fad58f1b6b30a64913467d3f", "is_disabled": 0, "name": "f5cea733fad58f1b6b30a64913467d3f", "lon": -77.028138, "is_reserved": 0, "fusion_lon": 0.0, "lat": 38.907325666666665, "rental_uris": {"android": "https://dc.lft.to/lastmile_qr_scan", "ios": "https://dc.lft.to/lastmile_qr_scan"}, "fusion_lat": 0.0}, {"type": "electric_scooter", "bike_id": "af8e211e89d5df255f8667ef9ee3e1ac", "is_disabled": 0, "name": "af8e211e89d5df255f8667ef9ee3e1ac", "lon": -77.07457116666667, "is_reserved": 0, "fusion_lon": 0.0, "lat": 38.93774416666667, "rental_uris": {"android": "https://dc.lft.to/lastmile_qr_scan", "ios": "https://dc.lft.to/lastmile_qr_scan"}, "fusion_lat": 0.0}, {"type": "electric_bike", "bike_id": "9b31f7e43f214b7ade8cc2f1cef0ef70", "is_disabled": 0, "name": "9b31f7e43f214b7ade8cc2f1cef0ef70", "lon": -76.979113, "is_reserved": 0, "fusion_lon": 0.0, "lat": 38.9202295, "rental_uris": {"android": "https://dc.lft.to/lastmile_qr_scan", "ios": "https://dc.lft.to/lastmile_qr_scan"}, "fusion_lat": 0.0}, {"type": "electric_scooter", "bike_id": "f38e14c686fe4f54b62e11719410deac", "is_disabled": 0, "name": "f38e14c686fe4f54b62e11719410deac", "lon": -77.03996066666667, "is_reserved": 0, "fusion_lon": 0.0, "lat": 38.933996, "rental_uris": {"android": "https://dc.lft.to/lastmile_qr_scan", "ios": "https://dc.lft.to/lastmile_qr_scan"}, "fusion_lat": 0.0}, {"type": "electric_scooter", "bike_id": "af8ce8fb211c4257f455f7a03039b482", "is_disabled": 0, "name": "af8ce8fb211c4257f455f7a03039b482", "lon": -77.00213416666666, "is_reserved": 0, "fusion_lon": 0.0, "lat": 38.91100566666667, "rental_uris": {"android": "https://dc.lft.to/lastmile_qr_scan", "ios": "https://dc.lft.to/lastmile_qr_scan"}, "fusion_lat": 0.0}, {"type": "electric_scooter", "bike_id": "51f87e934c1f7a94415fd08651385f4b", "is_disabled": 0, "name": "51f87e934c1f7a94415fd08651385f4b", "lon": -77.02875016666667, "is_reserved": 0, "fusion_lon": 0.0, "lat": 38.9315455, "rental_uris": {"android": "https://dc.lft.to/lastmile_qr_scan", "ios": "https://dc.lft.to/lastmile_qr_scan"}, "fusion_lat": 0.0}, {"type": "electric_scooter", "bike_id": "7f48600f585fc2e4fa347e33be3a19b1", "is_disabled": 0, "name": "7f48600f585fc2e4fa347e33be3a19b1", "lon": -77.0076225, "is_reserved": 0, "fusion_lon": 0.0, "lat": 38.879262, "rental_uris": {"android": "https://dc.lft.to/lastmile_qr_scan", "ios": "https://dc.lft.to/lastmile_qr_scan"}, "fusion_lat": 0.0}, {"type": "electric_scooter", "bike_id": "6ce2f57d61a640ff01b032ca942fbec3", "is_disabled": 0, "name": "6ce2f57d61a640ff01b032ca942fbec3", "lon": -77.0196035, "is_reserved": 0, "fusion_lon": 0.0, "lat": 38.923269166666664, "rental_uris": {"android": "https://dc.lft.to/lastmile_qr_scan", "ios": "https://dc.lft.to/lastmile_qr_scan"}, "fusion_lat": 0.0}, {"type": "electric_scooter", "bike_id": "c54b312bdd19b95db58b552e0881b50a", "is_disabled": 0, "name": "c54b312bdd19b95db58b552e0881b50a", "lon": -77.026007, "is_reserved": 0, "fusion_lon": 0.0, "lat": 38.9169005, "rental_uris": {"android": "https://dc.lft.to/lastmile_qr_scan", "ios": "https://dc.lft.to/lastmile_qr_scan"}, "fusion_lat": 0.0}, {"type": "electric_scooter", "bike_id": "ecdbc6c6e387a0c51dc10c3f4b92f7ca", "is_disabled": 0, "name": "ecdbc6c6e387a0c51dc10c3f4b92f7ca", "lon": -77.045515, "is_reserved": 0, "fusion_lon": 0.0, "lat": 38.91361716666667, "rental_uris": {"android": "https://dc.lft.to/lastmile_qr_scan", "ios": "https://dc.lft.to/lastmile_qr_scan"}, "fusion_lat": 0.0}, {"type": "electric_bike", "bike_id": "92ce3aa8086a8a061c08c828a02183ce", "is_disabled": 0, "name": "92ce3aa8086a8a061c08c828a02183ce", "lon": -76.98058566666667, "is_reserved": 0, "fusion_lon": 0.0, "lat": 38.972502, "rental_uris": {"android": "https://dc.lft.to/lastmile_qr_scan", "ios": "https://dc.lft.to/lastmile_qr_scan"}, "fusion_lat": 0.0}, {"type": "electric_scooter", "bike_id": "9d7802b580770536cd334ebe425202b6", "is_disabled": 0, "name": "9d7802b580770536cd334ebe425202b6", "lon": -77.050079, "is_reserved": 0, "fusion_lon": 0.0, "lat": 38.9053745, "rental_uris": {"android": "https://dc.lft.to/lastmile_qr_scan", "ios": "https://dc.lft.to/lastmile_qr_scan"}, "fusion_lat": 0.0}, {"type": "electric_scooter", "bike_id": "3f29a29fe24c69b8c9991292f9bb3c4e", "is_disabled": 0, "name": "3f29a29fe24c69b8c9991292f9bb3c4e", "lon": -77.02531166666667, "is_reserved": 0, "fusion_lon": 0.0, "lat": 38.920748333333336, "rental_uris": {"android": "https://dc.lft.to/lastmile_qr_scan", "ios": "https://dc.lft.to/lastmile_qr_scan"}, "fusion_lat": 0.0}, {"type": "electric_scooter", "bike_id": "cd2fd49e996acf3fa52e1c6bca87c78f", "is_disabled": 0, "name": "cd2fd49e996acf3fa52e1c6bca87c78f", "lon": -77.02699783333334, "is_reserved": 0, "fusion_lon": 0.0, "lat": 38.94978716666667, "rental_uris": {"android": "https://dc.lft.to/lastmile_qr_scan", "ios": "https://dc.lft.to/lastmile_qr_scan"}, "fusion_lat": 0.0}, {"type": "electric_bike", "bike_id": "3ffb7bd2ccf421ce2c20720e8da3b374", "is_disabled": 0, "name": "3ffb7bd2ccf421ce2c20720e8da3b374", "lon": -77.004167, "is_reserved": 0, "fusion_lon": 0.0, "lat": 38.98525133333333, "rental_uris": {"android": "https://dc.lft.to/lastmile_qr_scan", "ios": "https://dc.lft.to/lastmile_qr_scan"}, "fusion_lat": 0.0}, {"type": "electric_scooter", "bike_id": "3c788823c3ee4ef77153d324810b7ba6", "is_disabled": 0, "name": "3c788823c3ee4ef77153d324810b7ba6", "lon": -77.01674533333333, "is_reserved": 0, "fusion_lon": 0.0, "lat": 38.920419333333335, "rental_uris": {"android": "https://dc.lft.to/lastmile_qr_scan", "ios": "https://dc.lft.to/lastmile_qr_scan"}, "fusion_lat": 0.0}, {"type": "electric_scooter", "bike_id": "287d1e913f62c85840ee1f3eb1995340", "is_disabled": 0, "name": "287d1e913f62c85840ee1f3eb1995340", "lon": -77.027328, "is_reserved": 0, "fusion_lon": 0.0, "lat": 38.93375666666667, "rental_uris": {"android": "https://dc.lft.to/lastmile_qr_scan", "ios": "https://dc.lft.to/lastmile_qr_scan"}, "fusion_lat": 0.0}, {"type": "electric_scooter", "bike_id": "65d86258d1dc8c971317ee27f847ac95", "is_disabled": 0, "name": "65d86258d1dc8c971317ee27f847ac95", "lon": -77.03187766666667, "is_reserved": 0, "fusion_lon": 0.0, "lat": 38.91619633333333, "rental_uris": {"android": "https://dc.lft.to/lastmile_qr_scan", "ios": "https://dc.lft.to/lastmile_qr_scan"}, "fusion_lat": 0.0}, {"type": "electric_scooter", "bike_id": "0363f84a5d05ee8b99665ccd4c25a5f2", "is_disabled": 0, "name": "0363f84a5d05ee8b99665ccd4c25a5f2", "lon": -77.04176883333334, "is_reserved": 0, "fusion_lon": 0.0, "lat": 38.905577, "rental_uris": {"android": "https://dc.lft.to/lastmile_qr_scan", "ios": "https://dc.lft.to/lastmile_qr_scan"}, "fusion_lat": 0.0}, {"type": "electric_scooter", "bike_id": "37aaa63799a481f8b7b57b9f5d9ea77a", "is_disabled": 0, "name": "37aaa63799a481f8b7b57b9f5d9ea77a", "lon": -77.06236983333334, "is_reserved": 0, "fusion_lon": 0.0, "lat": 38.911544166666665, "rental_uris": {"android": "https://dc.lft.to/lastmile_qr_scan", "ios": "https://dc.lft.to/lastmile_qr_scan"}, "fusion_lat": 0.0}, {"type": "electric_scooter", "bike_id": "44c0ecc84df48cd6eff80704f6150b51", "is_disabled": 0, "name": "44c0ecc84df48cd6eff80704f6150b51", "lon": -77.02027866666667, "is_reserved": 0, "fusion_lon": 0.0, "lat": 38.934052333333334, "rental_uris": {"android": "https://dc.lft.to/lastmile_qr_scan", "ios": "https://dc.lft.to/lastmile_qr_scan"}, "fusion_lat": 0.0}, {"type": "electric_bike", "bike_id": "99b7cc36a3a841ad5f3b9869b1c013d2", "is_disabled": 0, "name": "99b7cc36a3a841ad5f3b9869b1c013d2", "lon": -76.99919016666666, "is_reserved": 0, "fusion_lon": 0.0, "lat": 38.864407166666666, "rental_uris": {"android": "https://dc.lft.to/lastmile_qr_scan", "ios": "https://dc.lft.to/lastmile_qr_scan"}, "fusion_lat": 0.0}, {"type": "electric_scooter", "bike_id": "15e1bd56583b1506810e58b2dcc802f8", "is_disabled": 0, "name": "15e1bd56583b1506810e58b2dcc802f8", "lon": -77.02597716666666, "is_reserved": 0, "fusion_lon": 0.0, "lat": 38.904245333333336, "rental_uris": {"android": "https://dc.lft.to/lastmile_qr_scan", "ios": "https://dc.lft.to/lastmile_qr_scan"}, "fusion_lat": 0.0}, {"type": "electric_scooter", "bike_id": "b6f3b564046db88b8b0c13b1532a55db", "is_disabled": 0, "name": "b6f3b564046db88b8b0c13b1532a55db", "lon": -76.93635083333334, "is_reserved": 0, "fusion_lon": 0.0, "lat": 38.902694333333336, "rental_uris": {"android": "https://dc.lft.to/lastmile_qr_scan", "ios": "https://dc.lft.to/lastmile_qr_scan"}, "fusion_lat": 0.0}, {"type": "electric_scooter", "bike_id": "4beceb2f21a2fd329ce0e4666c6c918d", "is_disabled": 0, "name": "4beceb2f21a2fd329ce0e4666c6c918d", "lon": -77.00021483333333, "is_reserved": 0, "fusion_lon": 0.0, "lat": 38.900347333333336, "rental_uris": {"android": "https://dc.lft.to/lastmile_qr_scan", "ios": "https://dc.lft.to/lastmile_qr_scan"}, "fusion_lat": 0.0}, {"type": "electric_scooter", "bike_id": "62d2ff08e0f04f0988ccd482380dc81b", "is_disabled": 0, "name": "62d2ff08e0f04f0988ccd482380dc81b", "lon": -76.98340766666666, "is_reserved": 0, "fusion_lon": 0.0, "lat": 38.900872, "rental_uris": {"android": "https://dc.lft.to/lastmile_qr_scan", "ios": "https://dc.lft.to/lastmile_qr_scan"}, "fusion_lat": 0.0}, {"type": "electric_scooter", "bike_id": "d0643b01fd5d871e8920b42b67016f35", "is_disabled": 0, "name": "d0643b01fd5d871e8920b42b67016f35", "lon": -77.05321666666667, "is_reserved": 0, "fusion_lon": 0.0, "lat": 38.92551783333333, "rental_uris": {"android": "https://dc.lft.to/lastmile_qr_scan", "ios": "https://dc.lft.to/lastmile_qr_scan"}, "fusion_lat": 0.0}, {"type": "electric_scooter", "bike_id": "236ef522bf87981da38d8b939b354f79", "is_disabled": 0, "name": "236ef522bf87981da38d8b939b354f79", "lon": -77.0162055, "is_reserved": 0, "fusion_lon": 0.0, "lat": 38.9005055, "rental_uris": {"android": "https://dc.lft.to/lastmile_qr_scan", "ios": "https://dc.lft.to/lastmile_qr_scan"}, "fusion_lat": 0.0}, {"type": "electric_scooter", "bike_id": "ee14e51f5577e05fd80739f253bf1ff7", "is_disabled": 0, "name": "ee14e51f5577e05fd80739f253bf1ff7", "lon": -77.020948, "is_reserved": 0, "fusion_lon": 0.0, "lat": 38.9214615, "rental_uris": {"android": "https://dc.lft.to/lastmile_qr_scan", "ios": "https://dc.lft.to/lastmile_qr_scan"}, "fusion_lat": 0.0}, {"type": "electric_scooter", "bike_id": "17a8cafed5790e6b8315bf1e59aeddc3", "is_disabled": 0, "name": "17a8cafed5790e6b8315bf1e59aeddc3", "lon": -77.01905516666666, "is_reserved": 0, "fusion_lon": 0.0, "lat": 38.91872816666667, "rental_uris": {"android": "https://dc.lft.to/lastmile_qr_scan", "ios": "https://dc.lft.to/lastmile_qr_scan"}, "fusion_lat": 0.0}, {"type": "electric_bike", "bike_id": "700e844e449ea8dab400498785baad43", "is_disabled": 0, "name": "700e844e449ea8dab400498785baad43", "lon": -77.05694583333333, "is_reserved": 0, "fusion_lon": 0.0, "lat": 38.905494833333336, "rental_uris": {"android": "https://dc.lft.to/lastmile_qr_scan", "ios": "https://dc.lft.to/lastmile_qr_scan"}, "fusion_lat": 0.0}, {"type": "electric_scooter", "bike_id": "8da69f0b771f2b3bea8fd02e5d5b759f", "is_disabled": 0, "name": "8da69f0b771f2b3bea8fd02e5d5b759f", "lon": -77.000456, "is_reserved": 0, "fusion_lon": 0.0, "lat": 38.881248666666664, "rental_uris": {"android": "https://dc.lft.to/lastmile_qr_scan", "ios": "https://dc.lft.to/lastmile_qr_scan"}, "fusion_lat": 0.0}, {"type": "electric_scooter", "bike_id": "102948f8d1da22035a41678aaee565c4", "is_disabled": 0, "name": "102948f8d1da22035a41678aaee565c4", "lon": -76.98700333333333, "is_reserved": 0, "fusion_lon": 0.0, "lat": 38.900134, "rental_uris": {"android": "https://dc.lft.to/lastmile_qr_scan", "ios": "https://dc.lft.to/lastmile_qr_scan"}, "fusion_lat": 0.0}, {"type": "electric_scooter", "bike_id": "d13a5c8914185db283e285f023ad2da8", "is_disabled": 0, "name": "d13a5c8914185db283e285f023ad2da8", "lon": -77.01384333333333, "is_reserved": 0, "fusion_lon": 0.0, "lat": 38.87603083333333, "rental_uris": {"android": "https://dc.lft.to/lastmile_qr_scan", "ios": "https://dc.lft.to/lastmile_qr_scan"}, "fusion_lat": 0.0}, {"type": "electric_scooter", "bike_id": "9c7ab1661b2bf98e87051bc21151f4bc", "is_disabled": 0, "name": "9c7ab1661b2bf98e87051bc21151f4bc", "lon": -77.0347065, "is_reserved": 0, "fusion_lon": 0.0, "lat": 38.921641, "rental_uris": {"android": "https://dc.lft.to/lastmile_qr_scan", "ios": "https://dc.lft.to/lastmile_qr_scan"}, "fusion_lat": 0.0}, {"type": "electric_scooter", "bike_id": "36b02fc659ea1f229670695c24c51331", "is_disabled": 0, "name": "36b02fc659ea1f229670695c24c51331", "lon": -77.031664, "is_reserved": 0, "fusion_lon": 0.0, "lat": 38.91637133333333, "rental_uris": {"android": "https://dc.lft.to/lastmile_qr_scan", "ios": "https://dc.lft.to/lastmile_qr_scan"}, "fusion_lat": 0.0}, {"type": "electric_bike", "bike_id": "438e8c23cc4a45da05a7a2978a0ce2f1", "is_disabled": 0, "name": "438e8c23cc4a45da05a7a2978a0ce2f1", "lon": -77.00282016666667, "is_reserved": 0, "fusion_lon": 0.0, "lat": 38.83832233333333, "rental_uris": {"android": "https://dc.lft.to/lastmile_qr_scan", "ios": "https://dc.lft.to/lastmile_qr_scan"}, "fusion_lat": 0.0}, {"type": "electric_scooter", "bike_id": "5dcc53be1600394d93d5743bd2102288", "is_disabled": 0, "name": "5dcc53be1600394d93d5743bd2102288", "lon": -77.028059, "is_reserved": 0, "fusion_lon": 0.0, "lat": 38.89929266666667, "rental_uris": {"android": "https://dc.lft.to/lastmile_qr_scan", "ios": "https://dc.lft.to/lastmile_qr_scan"}, "fusion_lat": 0.0}, {"type": "electric_scooter", "bike_id": "d39007c99dc5b12c92744cbb396c741e", "is_disabled": 0, "name": "d39007c99dc5b12c92744cbb396c741e", "lon": -77.01860016666667, "is_reserved": 0, "fusion_lon": 0.0, "lat": 38.949185, "rental_uris": {"android": "https://dc.lft.to/lastmile_qr_scan", "ios": "https://dc.lft.to/lastmile_qr_scan"}, "fusion_lat": 0.0}, {"type": "electric_bike", "bike_id": "2ee6be93fd107515067c01ede728e1a9", "is_disabled": 0, "name": "2ee6be93fd107515067c01ede728e1a9", "lon": -77.00378733333334, "is_reserved": 0, "fusion_lon": 0.0, "lat": 38.83601433333333, "rental_uris": {"android": "https://dc.lft.to/lastmile_qr_scan", "ios": "https://dc.lft.to/lastmile_qr_scan"}, "fusion_lat": 0.0}, {"type": "electric_scooter", "bike_id": "0a4eb02952416530f8cb91a31d11ea63", "is_disabled": 0, "name": "0a4eb02952416530f8cb91a31d11ea63", "lon": -77.02078283333333, "is_reserved": 0, "fusion_lon": 0.0, "lat": 38.930180666666665, "rental_uris": {"android": "https://dc.lft.to/lastmile_qr_scan", "ios": "https://dc.lft.to/lastmile_qr_scan"}, "fusion_lat": 0.0}, {"type": "electric_scooter", "bike_id": "3e06e3376fa614d79da43724fcf2d520", "is_disabled": 0, "name": "3e06e3376fa614d79da43724fcf2d520", "lon": -77.03731233333333, "is_reserved": 0, "fusion_lon": 0.0, "lat": 38.92027233333334, "rental_uris": {"android": "https://dc.lft.to/lastmile_qr_scan", "ios": "https://dc.lft.to/lastmile_qr_scan"}, "fusion_lat": 0.0}, {"type": "electric_bike", "bike_id": "f8c028922c0f71e14bef717fbee10acf", "is_disabled": 0, "name": "f8c028922c0f71e14bef717fbee10acf", "lon": -76.96340316666667, "is_reserved": 0, "fusion_lon": 0.0, "lat": 38.938934833333334, "rental_uris": {"android": "https://dc.lft.to/lastmile_qr_scan", "ios": "https://dc.lft.to/lastmile_qr_scan"}, "fusion_lat": 0.0}, {"type": "electric_scooter", "bike_id": "64d174e8d65e3bb69b5b9ef12ae4c4a7", "is_disabled": 0, "name": "64d174e8d65e3bb69b5b9ef12ae4c4a7", "lon": -77.042827, "is_reserved": 0, "fusion_lon": 0.0, "lat": 38.90526783333333, "rental_uris": {"android": "https://dc.lft.to/lastmile_qr_scan", "ios": "https://dc.lft.to/lastmile_qr_scan"}, "fusion_lat": 0.0}, {"type": "electric_scooter", "bike_id": "e320b1b0200e66df187dcfb2af82240b", "is_disabled": 0, "name": "e320b1b0200e66df187dcfb2af82240b", "lon": -77.01676116666667, "is_reserved": 0, "fusion_lon": 0.0, "lat": 38.9012875, "rental_uris": {"android": "https://dc.lft.to/lastmile_qr_scan", "ios": "https://dc.lft.to/lastmile_qr_scan"}, "fusion_lat": 0.0}, {"type": "electric_bike", "bike_id": "6d790015be30325e0a688e97b8eb146b", "is_disabled": 0, "name": "6d790015be30325e0a688e97b8eb146b", "lon": -76.978969, "is_reserved": 0, "fusion_lon": 0.0, "lat": 38.92693516666667, "rental_uris": {"android": "https://dc.lft.to/lastmile_qr_scan", "ios": "https://dc.lft.to/lastmile_qr_scan"}, "fusion_lat": 0.0}, {"type": "electric_bike", "bike_id": "ff7fa50f2b3a66ed1ee48d3a675ce60c", "is_disabled": 0, "name": "ff7fa50f2b3a66ed1ee48d3a675ce60c", "lon": -77.05061433333333, "is_reserved": 0, "fusion_lon": 0.0, "lat": 38.901611833333334, "rental_uris": {"android": "https://dc.lft.to/lastmile_qr_scan", "ios": "https://dc.lft.to/lastmile_qr_scan"}, "fusion_lat": 0.0}, {"type": "electric_scooter", "bike_id": "04310fc574dbd5ddaa40b523ed081193", "is_disabled": 0, "name": "04310fc574dbd5ddaa40b523ed081193", "lon": -77.0325045, "is_reserved": 0, "fusion_lon": 0.0, "lat": 38.89715316666667, "rental_uris": {"android": "https://dc.lft.to/lastmile_qr_scan", "ios": "https://dc.lft.to/lastmile_qr_scan"}, "fusion_lat": 0.0}, {"type": "electric_scooter", "bike_id": "8ddfd09edbe9ab6e1c1406e9a7d0671c", "is_disabled": 0, "name": "8ddfd09edbe9ab6e1c1406e9a7d0671c", "lon": -77.01033683333333, "is_reserved": 0, "fusion_lon": 0.0, "lat": 38.91142, "rental_uris": {"android": "https://dc.lft.to/lastmile_qr_scan", "ios": "https://dc.lft.to/lastmile_qr_scan"}, "fusion_lat": 0.0}, {"type": "electric_scooter", "bike_id": "8169c9ad494218afa47daaecb52a5c39", "is_disabled": 0, "name": "8169c9ad494218afa47daaecb52a5c39", "lon": -77.01337883333333, "is_reserved": 0, "fusion_lon": 0.0, "lat": 38.881244, "rental_uris": {"android": "https://dc.lft.to/lastmile_qr_scan", "ios": "https://dc.lft.to/lastmile_qr_scan"}, "fusion_lat": 0.0}, {"type": "electric_scooter", "bike_id": "8f8a933b5318919bebfd547a453a5760", "is_disabled": 0, "name": "8f8a933b5318919bebfd547a453a5760", "lon": -77.05346216666666, "is_reserved": 0, "fusion_lon": 0.0, "lat": 38.923512333333335, "rental_uris": {"android": "https://dc.lft.to/lastmile_qr_scan", "ios": "https://dc.lft.to/lastmile_qr_scan"}, "fusion_lat": 0.0}, {"type": "electric_scooter", "bike_id": "28d0c5fc6bde914e455a4a5ccb1b65e9", "is_disabled": 0, "name": "28d0c5fc6bde914e455a4a5ccb1b65e9", "lon": -77.02092433333334, "is_reserved": 0, "fusion_lon": 0.0, "lat": 38.907286166666665, "rental_uris": {"android": "https://dc.lft.to/lastmile_qr_scan", "ios": "https://dc.lft.to/lastmile_qr_scan"}, "fusion_lat": 0.0}, {"type": "electric_scooter", "bike_id": "767d3f161a5a6588e6e3a2103396de1b", "is_disabled": 0, "name": "767d3f161a5a6588e6e3a2103396de1b", "lon": -77.01628833333334, "is_reserved": 0, "fusion_lon": 0.0, "lat": 38.9168755, "rental_uris": {"android": "https://dc.lft.to/lastmile_qr_scan", "ios": "https://dc.lft.to/lastmile_qr_scan"}, "fusion_lat": 0.0}, {"type": "electric_bike", "bike_id": "88b521c7c4fc52d8994265ad12f0871d", "is_disabled": 0, "name": "88b521c7c4fc52d8994265ad12f0871d", "lon": -76.97957666666667, "is_reserved": 0, "fusion_lon": 0.0, "lat": 38.92035033333333, "rental_uris": {"android": "https://dc.lft.to/lastmile_qr_scan", "ios": "https://dc.lft.to/lastmile_qr_scan"}, "fusion_lat": 0.0}, {"type": "electric_scooter", "bike_id": "a2b650fa7d01f387acc0402b1b8d8c7e", "is_disabled": 0, "name": "a2b650fa7d01f387acc0402b1b8d8c7e", "lon": -76.93361683333333, "is_reserved": 0, "fusion_lon": 0.0, "lat": 38.898322, "rental_uris": {"android": "https://dc.lft.to/lastmile_qr_scan", "ios": "https://dc.lft.to/lastmile_qr_scan"}, "fusion_lat": 0.0}, {"type": "electric_bike", "bike_id": "4e5bb8ae83a80eacc65039ec22113be0", "is_disabled": 0, "name": "4e5bb8ae83a80eacc65039ec22113be0", "lon": -77.1029545, "is_reserved": 0, "fusion_lon": 0.0, "lat": 38.852499333333334, "rental_uris": {"android": "https://dc.lft.to/lastmile_qr_scan", "ios": "https://dc.lft.to/lastmile_qr_scan"}, "fusion_lat": 0.0}, {"type": "electric_scooter", "bike_id": "908e6ab1cbb3bd7d4b542ec5db707e59", "is_disabled": 0, "name": "908e6ab1cbb3bd7d4b542ec5db707e59", "lon": -77.033573, "is_reserved": 0, "fusion_lon": 0.0, "lat": 38.93583183333333, "rental_uris": {"android": "https://dc.lft.to/lastmile_qr_scan", "ios": "https://dc.lft.to/lastmile_qr_scan"}, "fusion_lat": 0.0}, {"type": "electric_scooter", "bike_id": "bf51d17ca6b112259a765e12ba6371cc", "is_disabled": 0, "name": "bf51d17ca6b112259a765e12ba6371cc", "lon": -77.0447985, "is_reserved": 0, "fusion_lon": 0.0, "lat": 38.91354166666667, "rental_uris": {"android": "https://dc.lft.to/lastmile_qr_scan", "ios": "https://dc.lft.to/lastmile_qr_scan"}, "fusion_lat": 0.0}, {"type": "electric_scooter", "bike_id": "ff7f7c68b749fa83f12dbc2e7f76c995", "is_disabled": 0, "name": "ff7f7c68b749fa83f12dbc2e7f76c995", "lon": -77.01955933333333, "is_reserved": 0, "fusion_lon": 0.0, "lat": 38.9232995, "rental_uris": {"android": "https://dc.lft.to/lastmile_qr_scan", "ios": "https://dc.lft.to/lastmile_qr_scan"}, "fusion_lat": 0.0}, {"type": "electric_scooter", "bike_id": "9cb07ee091410a8de9502d5e6132ee32", "is_disabled": 0, "name": "9cb07ee091410a8de9502d5e6132ee32", "lon": -77.0257565, "is_reserved": 0, "fusion_lon": 0.0, "lat": 38.94841533333334, "rental_uris": {"android": "https://dc.lft.to/lastmile_qr_scan", "ios": "https://dc.lft.to/lastmile_qr_scan"}, "fusion_lat": 0.0}, {"type": "electric_scooter", "bike_id": "3afaaf072300c5cda6d92ff1bb36f6dc", "is_disabled": 0, "name": "3afaaf072300c5cda6d92ff1bb36f6dc", "lon": -77.00658983333334, "is_reserved": 0, "fusion_lon": 0.0, "lat": 38.909679, "rental_uris": {"android": "https://dc.lft.to/lastmile_qr_scan", "ios": "https://dc.lft.to/lastmile_qr_scan"}, "fusion_lat": 0.0}, {"type": "electric_bike", "bike_id": "e15234594c606133c494e390709c735f", "is_disabled": 0, "name": "e15234594c606133c494e390709c735f", "lon": -77.2317905, "is_reserved": 0, "fusion_lon": 0.0, "lat": 38.928941333333334, "rental_uris": {"android": "https://dc.lft.to/lastmile_qr_scan", "ios": "https://dc.lft.to/lastmile_qr_scan"}, "fusion_lat": 0.0}, {"type": "electric_scooter", "bike_id": "09f2782ad00f7b054b3243f8c6494955", "is_disabled": 0, "name": "09f2782ad00f7b054b3243f8c6494955", "lon": -77.02402666666667, "is_reserved": 0, "fusion_lon": 0.0, "lat": 38.92096266666667, "rental_uris": {"android": "https://dc.lft.to/lastmile_qr_scan", "ios": "https://dc.lft.to/lastmile_qr_scan"}, "fusion_lat": 0.0}, {"type": "electric_scooter", "bike_id": "907b8145d0576dbfa339a3c04f0bd76a", "is_disabled": 0, "name": "907b8145d0576dbfa339a3c04f0bd76a", "lon": -77.03258833333334, "is_reserved": 0, "fusion_lon": 0.0, "lat": 38.91985916666667, "rental_uris": {"android": "https://dc.lft.to/lastmile_qr_scan", "ios": "https://dc.lft.to/lastmile_qr_scan"}, "fusion_lat": 0.0}, {"type": "electric_bike", "bike_id": "3c7b8f7a8f8b0b580c4b408cbb3a7b64", "is_disabled": 0, "name": "3c7b8f7a8f8b0b580c4b408cbb3a7b64", "lon": -77.0291485, "is_reserved": 0, "fusion_lon": 0.0, "lat": 38.9213185, "rental_uris": {"android": "https://dc.lft.to/lastmile_qr_scan", "ios": "https://dc.lft.to/lastmile_qr_scan"}, "fusion_lat": 0.0}, {"type": "electric_scooter", "bike_id": "def003a24d797d7789889c5b5ab8d62e", "is_disabled": 0, "name": "def003a24d797d7789889c5b5ab8d62e", "lon": -77.02380383333333, "is_reserved": 0, "fusion_lon": 0.0, "lat": 38.937075666666665, "rental_uris": {"android": "https://dc.lft.to/lastmile_qr_scan", "ios": "https://dc.lft.to/lastmile_qr_scan"}, "fusion_lat": 0.0}, {"type": "electric_scooter", "bike_id": "a33fe351e8fbeac2b6f189bb2ceb5b6b", "is_disabled": 0, "name": "a33fe351e8fbeac2b6f189bb2ceb5b6b", "lon": -77.02764533333334, "is_reserved": 0, "fusion_lon": 0.0, "lat": 38.95416783333334, "rental_uris": {"android": "https://dc.lft.to/lastmile_qr_scan", "ios": "https://dc.lft.to/lastmile_qr_scan"}, "fusion_lat": 0.0}, {"type": "electric_bike", "bike_id": "8a0c817aea26d73bfd8c2718e4036825", "is_disabled": 0, "name": "8a0c817aea26d73bfd8c2718e4036825", "lon": -77.07916983333334, "is_reserved": 0, "fusion_lon": 0.0, "lat": 38.838235, "rental_uris": {"android": "https://dc.lft.to/lastmile_qr_scan", "ios": "https://dc.lft.to/lastmile_qr_scan"}, "fusion_lat": 0.0}, {"type": "electric_scooter", "bike_id": "6d49b8a6565b1cec75d4dc1987566e1d", "is_disabled": 0, "name": "6d49b8a6565b1cec75d4dc1987566e1d", "lon": -77.0453645, "is_reserved": 0, "fusion_lon": 0.0, "lat": 38.9182165, "rental_uris": {"android": "https://dc.lft.to/lastmile_qr_scan", "ios": "https://dc.lft.to/lastmile_qr_scan"}, "fusion_lat": 0.0}, {"type": "electric_scooter", "bike_id": "ab0242af5747ce3410c57ae931266b49", "is_disabled": 0, "name": "ab0242af5747ce3410c57ae931266b49", "lon": -77.01222383333334, "is_reserved": 0, "fusion_lon": 0.0, "lat": 38.914932, "rental_uris": {"android": "https://dc.lft.to/lastmile_qr_scan", "ios": "https://dc.lft.to/lastmile_qr_scan"}, "fusion_lat": 0.0}, {"type": "electric_scooter", "bike_id": "f2ef273a59cd10df6e1630e4433f3a94", "is_disabled": 0, "name": "f2ef273a59cd10df6e1630e4433f3a94", "lon": -77.02212716666666, "is_reserved": 0, "fusion_lon": 0.0, "lat": 38.910489, "rental_uris": {"android": "https://dc.lft.to/lastmile_qr_scan", "ios": "https://dc.lft.to/lastmile_qr_scan"}, "fusion_lat": 0.0}, {"type": "electric_scooter", "bike_id": "8e4dfb156039f87d4d984657e4d8effa", "is_disabled": 0, "name": "8e4dfb156039f87d4d984657e4d8effa", "lon": -77.0153965, "is_reserved": 0, "fusion_lon": 0.0, "lat": 38.902516166666665, "rental_uris": {"android": "https://dc.lft.to/lastmile_qr_scan", "ios": "https://dc.lft.to/lastmile_qr_scan"}, "fusion_lat": 0.0}, {"type": "electric_scooter", "bike_id": "d905f354ac40a3e67d04b56959cd3def", "is_disabled": 0, "name": "d905f354ac40a3e67d04b56959cd3def", "lon": -76.92965016666666, "is_reserved": 0, "fusion_lon": 0.0, "lat": 38.896317, "rental_uris": {"android": "https://dc.lft.to/lastmile_qr_scan", "ios": "https://dc.lft.to/lastmile_qr_scan"}, "fusion_lat": 0.0}, {"type": "electric_scooter", "bike_id": "2eb7b92e66dcc806d03e1ecf98b4ad16", "is_disabled": 0, "name": "2eb7b92e66dcc806d03e1ecf98b4ad16", "lon": -77.02809816666667, "is_reserved": 0, "fusion_lon": 0.0, "lat": 38.91762266666667, "rental_uris": {"android": "https://dc.lft.to/lastmile_qr_scan", "ios": "https://dc.lft.to/lastmile_qr_scan"}, "fusion_lat": 0.0}, {"type": "electric_scooter", "bike_id": "5741de5688b60bc23a5a3f51c81ad980", "is_disabled": 0, "name": "5741de5688b60bc23a5a3f51c81ad980", "lon": -77.00351783333333, "is_reserved": 0, "fusion_lon": 0.0, "lat": 38.8863855, "rental_uris": {"android": "https://dc.lft.to/lastmile_qr_scan", "ios": "https://dc.lft.to/lastmile_qr_scan"}, "fusion_lat": 0.0}, {"type": "electric_scooter", "bike_id": "8f545d4a36b5e3c94f359f8fdde745d4", "is_disabled": 0, "name": "8f545d4a36b5e3c94f359f8fdde745d4", "lon": -77.0284275, "is_reserved": 0, "fusion_lon": 0.0, "lat": 38.90134, "rental_uris": {"android": "https://dc.lft.to/lastmile_qr_scan", "ios": "https://dc.lft.to/lastmile_qr_scan"}, "fusion_lat": 0.0}, {"type": "electric_scooter", "bike_id": "9ebd49031c198fdbefd935693aaa5eea", "is_disabled": 0, "name": "9ebd49031c198fdbefd935693aaa5eea", "lon": -77.0229515, "is_reserved": 0, "fusion_lon": 0.0, "lat": 38.9183345, "rental_uris": {"android": "https://dc.lft.to/lastmile_qr_scan", "ios": "https://dc.lft.to/lastmile_qr_scan"}, "fusion_lat": 0.0}, {"type": "electric_bike", "bike_id": "6f79b3b04212e43efb1c8463a3375fe4", "is_disabled": 0, "name": "6f79b3b04212e43efb1c8463a3375fe4", "lon": -77.12933916666667, "is_reserved": 0, "fusion_lon": 0.0, "lat": 38.8657675, "rental_uris": {"android": "https://dc.lft.to/lastmile_qr_scan", "ios": "https://dc.lft.to/lastmile_qr_scan"}, "fusion_lat": 0.0}, {"type": "electric_scooter", "bike_id": "88f6c52bdd3fe07f81c4d603d58fd84d", "is_disabled": 0, "name": "88f6c52bdd3fe07f81c4d603d58fd84d", "lon": -77.08580266666667, "is_reserved": 0, "fusion_lon": 0.0, "lat": 38.93353333333334, "rental_uris": {"android": "https://dc.lft.to/lastmile_qr_scan", "ios": "https://dc.lft.to/lastmile_qr_scan"}, "fusion_lat": 0.0}, {"type": "electric_scooter", "bike_id": "78ff587d098c205fd64849b561e36257", "is_disabled": 0, "name": "78ff587d098c205fd64849b561e36257", "lon": -77.03885, "is_reserved": 0, "fusion_lon": 0.0, "lat": 38.901313, "rental_uris": {"android": "https://dc.lft.to/lastmile_qr_scan", "ios": "https://dc.lft.to/lastmile_qr_scan"}, "fusion_lat": 0.0}, {"type": "electric_scooter", "bike_id": "9509f4ec77ad20b5ab85b9083513080b", "is_disabled": 0, "name": "9509f4ec77ad20b5ab85b9083513080b", "lon": -77.032259, "is_reserved": 0, "fusion_lon": 0.0, "lat": 38.893820166666664, "rental_uris": {"android": "https://dc.lft.to/lastmile_qr_scan", "ios": "https://dc.lft.to/lastmile_qr_scan"}, "fusion_lat": 0.0}, {"type": "electric_scooter", "bike_id": "c0947d5b393d70394f936536b927c8ec", "is_disabled": 0, "name": "c0947d5b393d70394f936536b927c8ec", "lon": -77.04161966666666, "is_reserved": 0, "fusion_lon": 0.0, "lat": 38.91247766666667, "rental_uris": {"android": "https://dc.lft.to/lastmile_qr_scan", "ios": "https://dc.lft.to/lastmile_qr_scan"}, "fusion_lat": 0.0}, {"type": "electric_scooter", "bike_id": "a7499baee19918628117f85b50a60ddc", "is_disabled": 0, "name": "a7499baee19918628117f85b50a60ddc", "lon": -77.02401933333333, "is_reserved": 0, "fusion_lon": 0.0, "lat": 38.90692933333333, "rental_uris": {"android": "https://dc.lft.to/lastmile_qr_scan", "ios": "https://dc.lft.to/lastmile_qr_scan"}, "fusion_lat": 0.0}, {"type": "electric_scooter", "bike_id": "40c181a4075faef01a4ca784c2a8a161", "is_disabled": 0, "name": "40c181a4075faef01a4ca784c2a8a161", "lon": -77.01495833333334, "is_reserved": 0, "fusion_lon": 0.0, "lat": 38.9267655, "rental_uris": {"android": "https://dc.lft.to/lastmile_qr_scan", "ios": "https://dc.lft.to/lastmile_qr_scan"}, "fusion_lat": 0.0}, {"type": "electric_scooter", "bike_id": "380e8c8e37c3710a99facd1be19a4231", "is_disabled": 0, "name": "380e8c8e37c3710a99facd1be19a4231", "lon": -77.00896666666667, "is_reserved": 0, "fusion_lon": 0.0, "lat": 38.924745333333334, "rental_uris": {"android": "https://dc.lft.to/lastmile_qr_scan", "ios": "https://dc.lft.to/lastmile_qr_scan"}, "fusion_lat": 0.0}, {"type": "electric_scooter", "bike_id": "60f921d547683be2faa9754a5207f0a0", "is_disabled": 0, "name": "60f921d547683be2faa9754a5207f0a0", "lon": -77.03615066666667, "is_reserved": 0, "fusion_lon": 0.0, "lat": 38.937349166666664, "rental_uris": {"android": "https://dc.lft.to/lastmile_qr_scan", "ios": "https://dc.lft.to/lastmile_qr_scan"}, "fusion_lat": 0.0}, {"type": "electric_bike", "bike_id": "42bdbcd29394aab430c9e01cbf457afe", "is_disabled": 0, "name": "42bdbcd29394aab430c9e01cbf457afe", "lon": -77.10614866666667, "is_reserved": 0, "fusion_lon": 0.0, "lat": 38.837242, "rental_uris": {"android": "https://dc.lft.to/lastmile_qr_scan", "ios": "https://dc.lft.to/lastmile_qr_scan"}, "fusion_lat": 0.0}, {"type": "electric_scooter", "bike_id": "a3a815be195d3f3b00ff6462cd14c0fb", "is_disabled": 0, "name": "a3a815be195d3f3b00ff6462cd14c0fb", "lon": -77.00206016666667, "is_reserved": 0, "fusion_lon": 0.0, "lat": 38.902339833333336, "rental_uris": {"android": "https://dc.lft.to/lastmile_qr_scan", "ios": "https://dc.lft.to/lastmile_qr_scan"}, "fusion_lat": 0.0}, {"type": "electric_scooter", "bike_id": "4dfa43aa3f3e63959726687f780f6fba", "is_disabled": 0, "name": "4dfa43aa3f3e63959726687f780f6fba", "lon": -77.01506516666667, "is_reserved": 0, "fusion_lon": 0.0, "lat": 38.91766333333333, "rental_uris": {"android": "https://dc.lft.to/lastmile_qr_scan", "ios": "https://dc.lft.to/lastmile_qr_scan"}, "fusion_lat": 0.0}, {"type": "electric_scooter", "bike_id": "ebf4b92d929fc3d6a13d6997a9d409fe", "is_disabled": 0, "name": "ebf4b92d929fc3d6a13d6997a9d409fe", "lon": -77.04154766666667, "is_reserved": 0, "fusion_lon": 0.0, "lat": 38.92335333333333, "rental_uris": {"android": "https://dc.lft.to/lastmile_qr_scan", "ios": "https://dc.lft.to/lastmile_qr_scan"}, "fusion_lat": 0.0}, {"type": "electric_scooter", "bike_id": "fc18e4f3bd548ddb60f2706ceeeace2a", "is_disabled": 0, "name": "fc18e4f3bd548ddb60f2706ceeeace2a", "lon": -77.02727966666667, "is_reserved": 0, "fusion_lon": 0.0, "lat": 38.95182066666667, "rental_uris": {"android": "https://dc.lft.to/lastmile_qr_scan", "ios": "https://dc.lft.to/lastmile_qr_scan"}, "fusion_lat": 0.0}, {"type": "electric_scooter", "bike_id": "a7364f7dfcf560fd901a0e14032c9945", "is_disabled": 0, "name": "a7364f7dfcf560fd901a0e14032c9945", "lon": -77.0014675, "is_reserved": 0, "fusion_lon": 0.0, "lat": 38.907775666666666, "rental_uris": {"android": "https://dc.lft.to/lastmile_qr_scan", "ios": "https://dc.lft.to/lastmile_qr_scan"}, "fusion_lat": 0.0}, {"type": "electric_scooter", "bike_id": "6dea9de8c6baee1bbd659c24c90b06de", "is_disabled": 0, "name": "6dea9de8c6baee1bbd659c24c90b06de", "lon": -77.01837883333333, "is_reserved": 0, "fusion_lon": 0.0, "lat": 38.909582, "rental_uris": {"android": "https://dc.lft.to/lastmile_qr_scan", "ios": "https://dc.lft.to/lastmile_qr_scan"}, "fusion_lat": 0.0}, {"type": "electric_scooter", "bike_id": "54e50dd118c5159f161ed794710567c6", "is_disabled": 0, "name": "54e50dd118c5159f161ed794710567c6", "lon": -77.01446666666666, "is_reserved": 0, "fusion_lon": 0.0, "lat": 38.899668166666665, "rental_uris": {"android": "https://dc.lft.to/lastmile_qr_scan", "ios": "https://dc.lft.to/lastmile_qr_scan"}, "fusion_lat": 0.0}, {"type": "electric_scooter", "bike_id": "83f847523cc0f84611de5de890dd1365", "is_disabled": 0, "name": "83f847523cc0f84611de5de890dd1365", "lon": -77.03452616666667, "is_reserved": 0, "fusion_lon": 0.0, "lat": 38.922196166666666, "rental_uris": {"android": "https://dc.lft.to/lastmile_qr_scan", "ios": "https://dc.lft.to/lastmile_qr_scan"}, "fusion_lat": 0.0}, {"type": "electric_bike", "bike_id": "d21a1a8ade228e5d8509bcfb8e42df6b", "is_disabled": 0, "name": "d21a1a8ade228e5d8509bcfb8e42df6b", "lon": -76.973254, "is_reserved": 0, "fusion_lon": 0.0, "lat": 38.865080166666665, "rental_uris": {"android": "https://dc.lft.to/lastmile_qr_scan", "ios": "https://dc.lft.to/lastmile_qr_scan"}, "fusion_lat": 0.0}, {"type": "electric_scooter", "bike_id": "758c53ebd84b28e1e171a1b9ea261c15", "is_disabled": 0, "name": "758c53ebd84b28e1e171a1b9ea261c15", "lon": -77.02814133333334, "is_reserved": 0, "fusion_lon": 0.0, "lat": 38.914265, "rental_uris": {"android": "https://dc.lft.to/lastmile_qr_scan", "ios": "https://dc.lft.to/lastmile_qr_scan"}, "fusion_lat": 0.0}, {"type": "electric_scooter", "bike_id": "f5f02317ac33bb9c65c87051ad0e287f", "is_disabled": 0, "name": "f5f02317ac33bb9c65c87051ad0e287f", "lon": -77.02812066666667, "is_reserved": 0, "fusion_lon": 0.0, "lat": 38.881766666666664, "rental_uris": {"android": "https://dc.lft.to/lastmile_qr_scan", "ios": "https://dc.lft.to/lastmile_qr_scan"}, "fusion_lat": 0.0}, {"type": "electric_scooter", "bike_id": "88033f282f57aab79bd2b937906284db", "is_disabled": 0, "name": "88033f282f57aab79bd2b937906284db", "lon": -77.00986833333333, "is_reserved": 0, "fusion_lon": 0.0, "lat": 38.8729325, "rental_uris": {"android": "https://dc.lft.to/lastmile_qr_scan", "ios": "https://dc.lft.to/lastmile_qr_scan"}, "fusion_lat": 0.0}, {"type": "electric_scooter", "bike_id": "15e1d7bf575e7381aab971f8037127d3", "is_disabled": 0, "name": "15e1d7bf575e7381aab971f8037127d3", "lon": -77.03547433333334, "is_reserved": 0, "fusion_lon": 0.0, "lat": 38.92344216666667, "rental_uris": {"android": "https://dc.lft.to/lastmile_qr_scan", "ios": "https://dc.lft.to/lastmile_qr_scan"}, "fusion_lat": 0.0}, {"type": "electric_scooter", "bike_id": "869fca5dd8d61d9b6daacb19469aab6e", "is_disabled": 0, "name": "869fca5dd8d61d9b6daacb19469aab6e", "lon": -77.05322166666667, "is_reserved": 0, "fusion_lon": 0.0, "lat": 38.91551783333333, "rental_uris": {"android": "https://dc.lft.to/lastmile_qr_scan", "ios": "https://dc.lft.to/lastmile_qr_scan"}, "fusion_lat": 0.0}, {"type": "electric_scooter", "bike_id": "bbcaf5e92ace5cac3f2bdd79191fbeef", "is_disabled": 0, "name": "bbcaf5e92ace5cac3f2bdd79191fbeef", "lon": -77.024362, "is_reserved": 0, "fusion_lon": 0.0, "lat": 38.920528166666664, "rental_uris": {"android": "https://dc.lft.to/lastmile_qr_scan", "ios": "https://dc.lft.to/lastmile_qr_scan"}, "fusion_lat": 0.0}, {"type": "electric_scooter", "bike_id": "aa0543dfd53d4fa02f3d4cd6b0aacbec", "is_disabled": 0, "name": "aa0543dfd53d4fa02f3d4cd6b0aacbec", "lon": -77.03968933333333, "is_reserved": 0, "fusion_lon": 0.0, "lat": 38.898659333333335, "rental_uris": {"android": "https://dc.lft.to/lastmile_qr_scan", "ios": "https://dc.lft.to/lastmile_qr_scan"}, "fusion_lat": 0.0}, {"type": "electric_scooter", "bike_id": "4b0c6244bd4d4da03311d19d02c51537", "is_disabled": 0, "name": "4b0c6244bd4d4da03311d19d02c51537", "lon": -77.036408, "is_reserved": 0, "fusion_lon": 0.0, "lat": 38.926993333333336, "rental_uris": {"android": "https://dc.lft.to/lastmile_qr_scan", "ios": "https://dc.lft.to/lastmile_qr_scan"}, "fusion_lat": 0.0}, {"type": "electric_scooter", "bike_id": "638f6b529fb1e774eb018386cacb2259", "is_disabled": 0, "name": "638f6b529fb1e774eb018386cacb2259", "lon": -77.03266433333333, "is_reserved": 0, "fusion_lon": 0.0, "lat": 38.933047333333334, "rental_uris": {"android": "https://dc.lft.to/lastmile_qr_scan", "ios": "https://dc.lft.to/lastmile_qr_scan"}, "fusion_lat": 0.0}, {"type": "electric_bike", "bike_id": "6ab57b490f80b6d7da55a3934cbf1aae", "is_disabled": 0, "name": "6ab57b490f80b6d7da55a3934cbf1aae", "lon": -77.09688466666667, "is_reserved": 0, "fusion_lon": 0.0, "lat": 38.886821, "rental_uris": {"android": "https://dc.lft.to/lastmile_qr_scan", "ios": "https://dc.lft.to/lastmile_qr_scan"}, "fusion_lat": 0.0}, {"type": "electric_scooter", "bike_id": "382051d06726cf02c2c35b6251316a08", "is_disabled": 0, "name": "382051d06726cf02c2c35b6251316a08", "lon": -77.03634466666666, "is_reserved": 0, "fusion_lon": 0.0, "lat": 38.90381216666667, "rental_uris": {"android": "https://dc.lft.to/lastmile_qr_scan", "ios": "https://dc.lft.to/lastmile_qr_scan"}, "fusion_lat": 0.0}, {"type": "electric_scooter", "bike_id": "dd49c7b9cd402aaed1dd0fc18a9c907c", "is_disabled": 0, "name": "dd49c7b9cd402aaed1dd0fc18a9c907c", "lon": -77.02565783333333, "is_reserved": 0, "fusion_lon": 0.0, "lat": 38.94191566666667, "rental_uris": {"android": "https://dc.lft.to/lastmile_qr_scan", "ios": "https://dc.lft.to/lastmile_qr_scan"}, "fusion_lat": 0.0}, {"type": "electric_scooter", "bike_id": "d3f8d5f8afd624beb24db0c69cbf4888", "is_disabled": 0, "name": "d3f8d5f8afd624beb24db0c69cbf4888", "lon": -77.046926, "is_reserved": 0, "fusion_lon": 0.0, "lat": 38.90221, "rental_uris": {"android": "https://dc.lft.to/lastmile_qr_scan", "ios": "https://dc.lft.to/lastmile_qr_scan"}, "fusion_lat": 0.0}, {"type": "electric_scooter", "bike_id": "4ebd563e782ddec835a5ff9a1ec15899", "is_disabled": 0, "name": "4ebd563e782ddec835a5ff9a1ec15899", "lon": -77.0118945, "is_reserved": 0, "fusion_lon": 0.0, "lat": 38.900143166666666, "rental_uris": {"android": "https://dc.lft.to/lastmile_qr_scan", "ios": "https://dc.lft.to/lastmile_qr_scan"}, "fusion_lat": 0.0}, {"type": "electric_bike", "bike_id": "d088fa3546ab47fe5dffe5f010f99269", "is_disabled": 0, "name": "d088fa3546ab47fe5dffe5f010f99269", "lon": -77.0408155, "is_reserved": 0, "fusion_lon": 0.0, "lat": 38.83061166666667, "rental_uris": {"android": "https://dc.lft.to/lastmile_qr_scan", "ios": "https://dc.lft.to/lastmile_qr_scan"}, "fusion_lat": 0.0}, {"type": "electric_scooter", "bike_id": "54383a8da507da59b9ebb7f8bf264e30", "is_disabled": 0, "name": "54383a8da507da59b9ebb7f8bf264e30", "lon": -77.01299233333333, "is_reserved": 0, "fusion_lon": 0.0, "lat": 38.877751333333336, "rental_uris": {"android": "https://dc.lft.to/lastmile_qr_scan", "ios": "https://dc.lft.to/lastmile_qr_scan"}, "fusion_lat": 0.0}, {"type": "electric_scooter", "bike_id": "34f9944146c02a36c95a50df04848b49", "is_disabled": 0, "name": "34f9944146c02a36c95a50df04848b49", "lon": -77.032588, "is_reserved": 0, "fusion_lon": 0.0, "lat": 38.918154333333334, "rental_uris": {"android": "https://dc.lft.to/lastmile_qr_scan", "ios": "https://dc.lft.to/lastmile_qr_scan"}, "fusion_lat": 0.0}, {"type": "electric_scooter", "bike_id": "74cc2f3ed2ce395bb72d1085898a8301", "is_disabled": 0, "name": "74cc2f3ed2ce395bb72d1085898a8301", "lon": -77.05002766666667, "is_reserved": 0, "fusion_lon": 0.0, "lat": 38.9006825, "rental_uris": {"android": "https://dc.lft.to/lastmile_qr_scan", "ios": "https://dc.lft.to/lastmile_qr_scan"}, "fusion_lat": 0.0}, {"type": "electric_scooter", "bike_id": "06ecaf93c95a8289d1b22dbe70a577e0", "is_disabled": 0, "name": "06ecaf93c95a8289d1b22dbe70a577e0", "lon": -77.01888716666667, "is_reserved": 0, "fusion_lon": 0.0, "lat": 38.89744266666666, "rental_uris": {"android": "https://dc.lft.to/lastmile_qr_scan", "ios": "https://dc.lft.to/lastmile_qr_scan"}, "fusion_lat": 0.0}, {"type": "electric_scooter", "bike_id": "f52374e572e0743029f9db4e32612f48", "is_disabled": 0, "name": "f52374e572e0743029f9db4e32612f48", "lon": -77.01773933333334, "is_reserved": 0, "fusion_lon": 0.0, "lat": 38.90046316666667, "rental_uris": {"android": "https://dc.lft.to/lastmile_qr_scan", "ios": "https://dc.lft.to/lastmile_qr_scan"}, "fusion_lat": 0.0}, {"type": "electric_scooter", "bike_id": "316fd49ff3c5516ec2b77e804d91c8d3", "is_disabled": 0, "name": "316fd49ff3c5516ec2b77e804d91c8d3", "lon": -77.00290783333334, "is_reserved": 0, "fusion_lon": 0.0, "lat": 38.87719766666667, "rental_uris": {"android": "https://dc.lft.to/lastmile_qr_scan", "ios": "https://dc.lft.to/lastmile_qr_scan"}, "fusion_lat": 0.0}, {"type": "electric_scooter", "bike_id": "277624e1e9a8b1be6c6cfab659781190", "is_disabled": 0, "name": "277624e1e9a8b1be6c6cfab659781190", "lon": -77.02104683333333, "is_reserved": 0, "fusion_lon": 0.0, "lat": 38.926953, "rental_uris": {"android": "https://dc.lft.to/lastmile_qr_scan", "ios": "https://dc.lft.to/lastmile_qr_scan"}, "fusion_lat": 0.0}, {"type": "electric_scooter", "bike_id": "2e13a0f6eaae91fc057e8b2575c11018", "is_disabled": 0, "name": "2e13a0f6eaae91fc057e8b2575c11018", "lon": -77.019131, "is_reserved": 0, "fusion_lon": 0.0, "lat": 38.92375583333333, "rental_uris": {"android": "https://dc.lft.to/lastmile_qr_scan", "ios": "https://dc.lft.to/lastmile_qr_scan"}, "fusion_lat": 0.0}, {"type": "electric_scooter", "bike_id": "9ba6732430eadf8a0572465117b77979", "is_disabled": 0, "name": "9ba6732430eadf8a0572465117b77979", "lon": -77.03655433333333, "is_reserved": 0, "fusion_lon": 0.0, "lat": 38.92384216666667, "rental_uris": {"android": "https://dc.lft.to/lastmile_qr_scan", "ios": "https://dc.lft.to/lastmile_qr_scan"}, "fusion_lat": 0.0}, {"type": "electric_scooter", "bike_id": "ebd04811794dd8698caa7da693332ef9", "is_disabled": 0, "name": "ebd04811794dd8698caa7da693332ef9", "lon": -76.997267, "is_reserved": 0, "fusion_lon": 0.0, "lat": 38.845490833333336, "rental_uris": {"android": "https://dc.lft.to/lastmile_qr_scan", "ios": "https://dc.lft.to/lastmile_qr_scan"}, "fusion_lat": 0.0}, {"type": "electric_scooter", "bike_id": "437e93587eba79092cedfe1d9d67cb1f", "is_disabled": 0, "name": "437e93587eba79092cedfe1d9d67cb1f", "lon": -77.017467, "is_reserved": 0, "fusion_lon": 0.0, "lat": 38.90244883333333, "rental_uris": {"android": "https://dc.lft.to/lastmile_qr_scan", "ios": "https://dc.lft.to/lastmile_qr_scan"}, "fusion_lat": 0.0}, {"type": "electric_scooter", "bike_id": "5e5d57862828a0acc718a04dcf5222ed", "is_disabled": 0, "name": "5e5d57862828a0acc718a04dcf5222ed", "lon": -77.07166833333333, "is_reserved": 0, "fusion_lon": 0.0, "lat": 38.9077315, "rental_uris": {"android": "https://dc.lft.to/lastmile_qr_scan", "ios": "https://dc.lft.to/lastmile_qr_scan"}, "fusion_lat": 0.0}, {"type": "electric_scooter", "bike_id": "30ee8bc58032a14408111342a8b4f907", "is_disabled": 0, "name": "30ee8bc58032a14408111342a8b4f907", "lon": -77.03453966666666, "is_reserved": 0, "fusion_lon": 0.0, "lat": 38.902871833333336, "rental_uris": {"android": "https://dc.lft.to/lastmile_qr_scan", "ios": "https://dc.lft.to/lastmile_qr_scan"}, "fusion_lat": 0.0}, {"type": "electric_scooter", "bike_id": "0b93c89d8f074ba008e55262b894e7b2", "is_disabled": 0, "name": "0b93c89d8f074ba008e55262b894e7b2", "lon": -77.02855716666667, "is_reserved": 0, "fusion_lon": 0.0, "lat": 38.8933105, "rental_uris": {"android": "https://dc.lft.to/lastmile_qr_scan", "ios": "https://dc.lft.to/lastmile_qr_scan"}, "fusion_lat": 0.0}, {"type": "electric_scooter", "bike_id": "b53a7ac33ac0a9cb977787c72753937f", "is_disabled": 0, "name": "b53a7ac33ac0a9cb977787c72753937f", "lon": -77.02982566666667, "is_reserved": 0, "fusion_lon": 0.0, "lat": 38.907215666666666, "rental_uris": {"android": "https://dc.lft.to/lastmile_qr_scan", "ios": "https://dc.lft.to/lastmile_qr_scan"}, "fusion_lat": 0.0}, {"type": "electric_scooter", "bike_id": "365383bb43e061c642800212f780b359", "is_disabled": 0, "name": "365383bb43e061c642800212f780b359", "lon": -77.04364133333333, "is_reserved": 0, "fusion_lon": 0.0, "lat": 38.89733066666667, "rental_uris": {"android": "https://dc.lft.to/lastmile_qr_scan", "ios": "https://dc.lft.to/lastmile_qr_scan"}, "fusion_lat": 0.0}, {"type": "electric_scooter", "bike_id": "773231bdc402d59969f6ed269839a1d0", "is_disabled": 0, "name": "773231bdc402d59969f6ed269839a1d0", "lon": -76.94383466666666, "is_reserved": 0, "fusion_lon": 0.0, "lat": 38.8910995, "rental_uris": {"android": "https://dc.lft.to/lastmile_qr_scan", "ios": "https://dc.lft.to/lastmile_qr_scan"}, "fusion_lat": 0.0}, {"type": "electric_bike", "bike_id": "7a3ddcde8fd613f42d32ad7b31373d06", "is_disabled": 0, "name": "7a3ddcde8fd613f42d32ad7b31373d06", "lon": -76.9979905, "is_reserved": 0, "fusion_lon": 0.0, "lat": 38.88122933333333, "rental_uris": {"android": "https://dc.lft.to/lastmile_qr_scan", "ios": "https://dc.lft.to/lastmile_qr_scan"}, "fusion_lat": 0.0}, {"type": "electric_scooter", "bike_id": "5239da4710e34e78a5a4901d34221595", "is_disabled": 0, "name": "5239da4710e34e78a5a4901d34221595", "lon": -77.04645733333334, "is_reserved": 0, "fusion_lon": 0.0, "lat": 38.9065545, "rental_uris": {"android": "https://dc.lft.to/lastmile_qr_scan", "ios": "https://dc.lft.to/lastmile_qr_scan"}, "fusion_lat": 0.0}, {"type": "electric_scooter", "bike_id": "3a05ef13460e2d31fb288afe9366cdc8", "is_disabled": 0, "name": "3a05ef13460e2d31fb288afe9366cdc8", "lon": -76.93011716666666, "is_reserved": 0, "fusion_lon": 0.0, "lat": 38.907134666666664, "rental_uris": {"android": "https://dc.lft.to/lastmile_qr_scan", "ios": "https://dc.lft.to/lastmile_qr_scan"}, "fusion_lat": 0.0}, {"type": "electric_scooter", "bike_id": "783fbb15da2d5ea9b1e55bcebb74db7f", "is_disabled": 0, "name": "783fbb15da2d5ea9b1e55bcebb74db7f", "lon": -77.02851566666666, "is_reserved": 0, "fusion_lon": 0.0, "lat": 38.9021025, "rental_uris": {"android": "https://dc.lft.to/lastmile_qr_scan", "ios": "https://dc.lft.to/lastmile_qr_scan"}, "fusion_lat": 0.0}, {"type": "electric_bike", "bike_id": "6acbb83759f1a9fa4fa9654018472de8", "is_disabled": 0, "name": "6acbb83759f1a9fa4fa9654018472de8", "lon": -77.0952445, "is_reserved": 0, "fusion_lon": 0.0, "lat": 38.8381005, "rental_uris": {"android": "https://dc.lft.to/lastmile_qr_scan", "ios": "https://dc.lft.to/lastmile_qr_scan"}, "fusion_lat": 0.0}, {"type": "electric_scooter", "bike_id": "e8ce73b10ad6baa08c62560c764afe93", "is_disabled": 0, "name": "e8ce73b10ad6baa08c62560c764afe93", "lon": -77.02004383333333, "is_reserved": 0, "fusion_lon": 0.0, "lat": 38.9073295, "rental_uris": {"android": "https://dc.lft.to/lastmile_qr_scan", "ios": "https://dc.lft.to/lastmile_qr_scan"}, "fusion_lat": 0.0}, {"type": "electric_scooter", "bike_id": "aab57261a9d90a5e3a96b735f9da39e8", "is_disabled": 0, "name": "aab57261a9d90a5e3a96b735f9da39e8", "lon": -77.03178666666666, "is_reserved": 0, "fusion_lon": 0.0, "lat": 38.91808566666667, "rental_uris": {"android": "https://dc.lft.to/lastmile_qr_scan", "ios": "https://dc.lft.to/lastmile_qr_scan"}, "fusion_lat": 0.0}, {"type": "electric_scooter", "bike_id": "771b9f194508f03f0bba652692c328a7", "is_disabled": 0, "name": "771b9f194508f03f0bba652692c328a7", "lon": -77.00800466666666, "is_reserved": 0, "fusion_lon": 0.0, "lat": 38.926675, "rental_uris": {"android": "https://dc.lft.to/lastmile_qr_scan", "ios": "https://dc.lft.to/lastmile_qr_scan"}, "fusion_lat": 0.0}, {"type": "electric_scooter", "bike_id": "c08bb1d86d5c6e39c735baa9584b6dec", "is_disabled": 0, "name": "c08bb1d86d5c6e39c735baa9584b6dec", "lon": -77.0433235, "is_reserved": 0, "fusion_lon": 0.0, "lat": 38.896286, "rental_uris": {"android": "https://dc.lft.to/lastmile_qr_scan", "ios": "https://dc.lft.to/lastmile_qr_scan"}, "fusion_lat": 0.0}, {"type": "electric_scooter", "bike_id": "ff132819f989ef6b6bda8edcba494a81", "is_disabled": 0, "name": "ff132819f989ef6b6bda8edcba494a81", "lon": -77.019657, "is_reserved": 0, "fusion_lon": 0.0, "lat": 38.92322033333333, "rental_uris": {"android": "https://dc.lft.to/lastmile_qr_scan", "ios": "https://dc.lft.to/lastmile_qr_scan"}, "fusion_lat": 0.0}, {"type": "electric_scooter", "bike_id": "d1f8819567e8ffbd033cfcd4fb4f39df", "is_disabled": 0, "name": "d1f8819567e8ffbd033cfcd4fb4f39df", "lon": -77.03255616666667, "is_reserved": 0, "fusion_lon": 0.0, "lat": 38.939706, "rental_uris": {"android": "https://dc.lft.to/lastmile_qr_scan", "ios": "https://dc.lft.to/lastmile_qr_scan"}, "fusion_lat": 0.0}, {"type": "electric_scooter", "bike_id": "a737b6a1a62e2bcde1b3114e6abf3374", "is_disabled": 0, "name": "a737b6a1a62e2bcde1b3114e6abf3374", "lon": -77.04099483333333, "is_reserved": 0, "fusion_lon": 0.0, "lat": 38.90465966666667, "rental_uris": {"android": "https://dc.lft.to/lastmile_qr_scan", "ios": "https://dc.lft.to/lastmile_qr_scan"}, "fusion_lat": 0.0}, {"type": "electric_scooter", "bike_id": "fd46b56c55eb3a06e85ca7f63a8fb3f4", "is_disabled": 0, "name": "fd46b56c55eb3a06e85ca7f63a8fb3f4", "lon": -77.03627783333333, "is_reserved": 0, "fusion_lon": 0.0, "lat": 38.936701666666664, "rental_uris": {"android": "https://dc.lft.to/lastmile_qr_scan", "ios": "https://dc.lft.to/lastmile_qr_scan"}, "fusion_lat": 0.0},