{"data": {"bikes": [{"is_disabled": 0, "fusion_lon": 0.0, "fusion_lat": 0.0, "lat": 38.910400333333335, "type": "electric_scooter", "lon": -77.040138, "bike_id": "4f6aa44f3a7d94cce53f677732cd04ff", "rental_uris": {"android": "https://dc.lft.to/lastmile_qr_scan", "ios": "https://dc.lft.to/lastmile_qr_scan"}, "name": "4f6aa44f3a7d94cce53f677732cd04ff", "is_reserved": 0}, {"is_disabled": 0, "fusion_lon": 0.0, "fusion_lat": 0.0, "lat": 38.942030333333335, "type": "electric_scooter", "lon": -77.02594216666667, "bike_id": "63cfdc9e3c838e3ab35535dea4023483", "rental_uris": {"android": "https://dc.lft.to/lastmile_qr_scan", "ios": "https://dc.lft.to/lastmile_qr_scan"}, "name": "63cfdc9e3c838e3ab35535dea4023483", "is_reserved": 0}, {"is_disabled": 0, "fusion_lon": 0.0, "fusion_lat": 0.0, "lat": 38.9068295, "type": "electric_scooter", "lon": -76.98003333333334, "bike_id": "417474c5ae915c0d5f70c93b1297a86d", "rental_uris": {"android": "https://dc.lft.to/lastmile_qr_scan", "ios": "https://dc.lft.to/lastmile_qr_scan"}, "name": "417474c5ae915c0d5f70c93b1297a86d", "is_reserved": 0}, {"is_disabled": 0, "fusion_lon": 0.0, "fusion_lat": 0.0, "lat": 38.858055666666665, "type": "electric_scooter", "lon": -76.986595, "bike_id": "e85a1e78a3a9b4253c094e2fd4076441", "rental_uris": {"android": "https://dc.lft.to/lastmile_qr_scan", "ios": "https://dc.lft.to/lastmile_qr_scan"}, "name": "e85a1e78a3a9b4253c094e2fd4076441", "is_reserved": 0}, {"is_disabled": 0, "fusion_lon": 0.0, "fusion_lat": 0.0, "lat": 38.9314035, "type": "electric_scooter", "lon": -77.05616116666667, "bike_id": "9ba3ea837c02fc7612addffa9313b412", "rental_uris": {"android": "https://dc.lft.to/lastmile_qr_scan", "ios": "https://dc.lft.to/lastmile_qr_scan"}, "name": "9ba3ea837c02fc7612addffa9313b412", "is_reserved": 0}, {"is_disabled": 0, "fusion_lon": 0.0, "fusion_lat": 0.0, "lat": 38.96099383333333, "type": "electric_scooter", "lon": -77.06890316666667, "bike_id": "739155c99c517c6b3ae9512905e87c71", "rental_uris": {"android": "https://dc.lft.to/lastmile_qr_scan", "ios": "https://dc.lft.to/lastmile_qr_scan"}, "name": "739155c99c517c6b3ae9512905e87c71", "is_reserved": 0}, {"is_disabled": 0, "fusion_lon": 0.0, "fusion_lat": 0.0, "lat": 38.9087325, "type": "electric_scooter", "lon": -77.03547516666667, "bike_id": "8847ff6c0b006f8e5aaf340c7da3fdc8", "rental_uris": {"android": "https://dc.lft.to/lastmile_qr_scan", "ios": "https://dc.lft.to/lastmile_qr_scan"}, "name": "8847ff6c0b006f8e5aaf340c7da3fdc8", "is_reserved": 0}, {"is_disabled": 0, "fusion_lon": 0.0, "fusion_lat": 0.0, "lat": 38.934032, "type": "electric_scooter", "lon": -77.032671, "bike_id": "64932c0da230543da49450cea656b934", "rental_uris": {"android": "https://dc.lft.to/lastmile_qr_scan", "ios": "https://dc.lft.to/lastmile_qr_scan"}, "name": "64932c0da230543da49450cea656b934", "is_reserved": 0}, {"is_disabled": 0, "fusion_lon": 0.0, "fusion_lat": 0.0, "lat": 38.91182216666667, "type": "electric_scooter", "lon": -77.03507916666666, "bike_id": "dd701d6004b00b288242c050fac06f8f", "rental_uris": {"android": "https://dc.lft.to/lastmile_qr_scan", "ios": "https://dc.lft.to/lastmile_qr_scan"}, "name": "dd701d6004b00b288242c050fac06f8f", "is_reserved": 0}, {"is_disabled": 0, "fusion_lon": 0.0, "fusion_lat": 0.0, "lat": 38.865247833333335, "type": "electric_scooter", "lon": -76.98967583333334, "bike_id": "83f916a5ddcd5c05d5bdafd845723544", "rental_uris": {"android": "https://dc.lft.to/lastmile_qr_scan", "ios": "https://dc.lft.to/lastmile_qr_scan"}, "name": "83f916a5ddcd5c05d5bdafd845723544", "is_reserved": 0}, {"is_disabled": 0, "fusion_lon": 0.0, "fusion_lat": 0.0, "lat": 38.91606783333334, "type": "electric_scooter", "lon": -77.03138983333334, "bike_id": "3a3b77fd17dc2c30a312aa689e5f4d3f", "rental_uris": {"android": "https://dc.lft.to/lastmile_qr_scan", "ios": "https://dc.lft.to/lastmile_qr_scan"}, "name": "3a3b77fd17dc2c30a312aa689e5f4d3f", "is_reserved": 0}, {"is_disabled": 0, "fusion_lon": 0.0, "fusion_lat": 0.0, "lat": 38.93482733333333, "type": "electric_scooter", "lon": -77.03582216666666, "bike_id": "3cb47039e810907b44c2c51acb412f29", "rental_uris": {"android": "https://dc.lft.to/lastmile_qr_scan", "ios": "https://dc.lft.to/lastmile_qr_scan"}, "name": "3cb47039e810907b44c2c51acb412f29", "is_reserved": 0}, {"is_disabled": 0, "fusion_lon": 0.0, "fusion_lat": 0.0, "lat": 38.92971, "type": "electric_scooter", "lon": -77.02077633333333, "bike_id": "d5723d833edd41a9c6f9efae621292bd", "rental_uris": {"android": "https://dc.lft.to/lastmile_qr_scan", "ios": "https://dc.lft.to/lastmile_qr_scan"}, "name": "d5723d833edd41a9c6f9efae621292bd", "is_reserved": 0}, {"is_disabled": 0, "fusion_lon": 0.0, "fusion_lat": 0.0, "lat": 38.90141633333333, "type": "electric_scooter", "lon": -77.022704, "bike_id": "7e9db7f451da0c23a817c310232c0a71", "rental_uris": {"android": "https://dc.lft.to/lastmile_qr_scan", "ios": "https://dc.lft.to/lastmile_qr_scan"}, "name": "7e9db7f451da0c23a817c310232c0a71", "is_reserved": 0}, {"is_disabled": 0, "fusion_lon": 0.0, "fusion_lat": 0.0, "lat": 38.8960475, "type": "electric_scooter", "lon": -77.0093755, "bike_id": "f97925a2fa1dfb3e842fc9e76e7937f2", "rental_uris": {"android": "https://dc.lft.to/lastmile_qr_scan", "ios": "https://dc.lft.to/lastmile_qr_scan"}, "name": "f97925a2fa1dfb3e842fc9e76e7937f2", "is_reserved": 0}, {"is_disabled": 0, "fusion_lon": 0.0, "fusion_lat": 0.0, "lat": 38.911149, "type": "electric_scooter", "lon": -77.04460133333333, "bike_id": "939d24556da9e2e0104fa9a08c6080ba", "rental_uris": {"android": "https://dc.lft.to/lastmile_qr_scan", "ios": "https://dc.lft.to/lastmile_qr_scan"}, "name": "939d24556da9e2e0104fa9a08c6080ba", "is_reserved": 0}, {"is_disabled": 0, "fusion_lon": 0.0, "fusion_lat": 0.0, "lat": 38.923378, "type": "electric_scooter", "lon": -77.04189, "bike_id": "8e008cc617a8952f278cf39668669ed5", "rental_uris": {"android": "https://dc.lft.to/lastmile_qr_scan", "ios": "https://dc.lft.to/lastmile_qr_scan"}, "name": "8e008cc617a8952f278cf39668669ed5", "is_reserved": 0}, {"is_disabled": 0, "fusion_lon": 0.0, "fusion_lat": 0.0, "lat": 38.900638, "type": "electric_scooter", "lon": -76.93387416666667, "bike_id": "98badfbca191248d72806ae873731aa5", "rental_uris": {"android": "https://dc.lft.to/lastmile_qr_scan", "ios": "https://dc.lft.to/lastmile_qr_scan"}, "name": "98badfbca191248d72806ae873731aa5", "is_reserved": 0}, {"is_disabled": 0, "fusion_lon": 0.0, "fusion_lat": 0.0, "lat": 38.885945166666666, "type": "electric_scooter", "lon": -77.01763216666667, "bike_id": "0ab61dc0bd365f4a0627f08f5fc99ac1", "rental_uris": {"android": "https://dc.lft.to/lastmile_qr_scan", "ios": "https://dc.lft.to/lastmile_qr_scan"}, "name": "0ab61dc0bd365f4a0627f08f5fc99ac1", "is_reserved": 0}, {"is_disabled": 0, "fusion_lon": 0.0, "fusion_lat": 0.0, "lat": 38.878979333333334, "type": "electric_scooter", "lon": -76.9352635, "bike_id": "db70e8a7074da6a8cca83a4ec733ca5c", "rental_uris": {"android": "https://dc.lft.to/lastmile_qr_scan", "ios": "https://dc.lft.to/lastmile_qr_scan"}, "name": "db70e8a7074da6a8cca83a4ec733ca5c", "is_reserved": 0}, {"is_disabled": 0, "fusion_lon": 0.0, "fusion_lat": 0.0, "lat": 38.912993666666665, "type": "electric_scooter", "lon": -77.03844416666666, "bike_id": "8a221d1e70fe4460a49ba5041cf266de", "rental_uris": {"android": "https://dc.lft.to/lastmile_qr_scan", "ios": "https://dc.lft.to/lastmile_qr_scan"}, "name": "8a221d1e70fe4460a49ba5041cf266de", "is_reserved": 0}, {"is_disabled": 0, "fusion_lon": 0.0, "fusion_lat": 0.0, "lat": 38.89971883333333, "type": "electric_scooter", "lon": -77.05149183333333, "bike_id": "aa85d400f752967f102c93559a17dd55", "rental_uris": {"android": "https://dc.lft.to/lastmile_qr_scan", "ios": "https://dc.lft.to/lastmile_qr_scan"}, "name": "aa85d400f752967f102c93559a17dd55", "is_reserved": 0}, {"is_disabled": 0, "fusion_lon": 0.0, "fusion_lat": 0.0, "lat": 38.9360425, "type": "electric_scooter", "lon": -77.0586425, "bike_id": "4dbe6254a02790c7f7e7772c7d43844f", "rental_uris": {"android": "https://dc.lft.to/lastmile_qr_scan", "ios": "https://dc.lft.to/lastmile_qr_scan"}, "name": "4dbe6254a02790c7f7e7772c7d43844f", "is_reserved": 0}, {"is_disabled": 0, "fusion_lon": 0.0, "fusion_lat": 0.0, "lat": 38.927352666666664, "type": "electric_bike", "lon": -76.99368383333334, "bike_id": "12436054b9f44ad6d66ef84578aaba5a", "rental_uris": {"android": "https://dc.lft.to/lastmile_qr_scan", "ios": "https://dc.lft.to/lastmile_qr_scan"}, "name": "12436054b9f44ad6d66ef84578aaba5a", "is_reserved": 0}, {"is_disabled": 0, "fusion_lon": 0.0, "fusion_lat": 0.0, "lat": 38.9847445, "type": "electric_scooter", "lon": -77.0265, "bike_id": "0a144b0e66b3fc9ee719e6f7c7787350", "rental_uris": {"android": "https://dc.lft.to/lastmile_qr_scan", "ios": "https://dc.lft.to/lastmile_qr_scan"}, "name": "0a144b0e66b3fc9ee719e6f7c7787350", "is_reserved": 0}, {"is_disabled": 0, "fusion_lon": 0.0, "fusion_lat": 0.0, "lat": 38.89358333333333, "type": "electric_scooter", "lon": -76.9398975, "bike_id": "15a3946095a5a8b5559f6f6f4904da06", "rental_uris": {"android": "https://dc.lft.to/lastmile_qr_scan", "ios": "https://dc.lft.to/lastmile_qr_scan"}, "name": "15a3946095a5a8b5559f6f6f4904da06", "is_reserved": 0}, {"is_disabled": 0, "fusion_lon": 0.0, "fusion_lat": 0.0, "lat": 38.9341615, "type": "electric_scooter", "lon": -77.02458183333333, "bike_id": "f9206968f1ab3e5fa638167d7dd19c2b", "rental_uris": {"android": "https://dc.lft.to/lastmile_qr_scan", "ios": "https://dc.lft.to/lastmile_qr_scan"}, "name": "f9206968f1ab3e5fa638167d7dd19c2b", "is_reserved": 0}, {"is_disabled": 0, "fusion_lon": 0.0, "fusion_lat": 0.0, "lat": 38.909727, "type": "electric_scooter", "lon": -77.0387305, "bike_id": "547da9edec7a6cef54f2ed22cc018fe7", "rental_uris": {"android": "https://dc.lft.to/lastmile_qr_scan", "ios": "https://dc.lft.to/lastmile_qr_scan"}, "name": "547da9edec7a6cef54f2ed22cc018fe7", "is_reserved": 0}, {"is_disabled": 0, "fusion_lon": 0.0, "fusion_lat": 0.0, "lat": 38.86723516666667, "type": "electric_scooter", "lon": -76.97918516666667, "bike_id": "548de116cc79d3657e09fc3bae892253", "rental_uris": {"android": "https://dc.lft.to/lastmile_qr_scan", "ios": "https://dc.lft.to/lastmile_qr_scan"}, "name": "548de116cc79d3657e09fc3bae892253", "is_reserved": 0}, {"is_disabled": 0, "fusion_lon": 0.0, "fusion_lat": 0.0, "lat": 38.877968833333334, "type": "electric_scooter", "lon": -77.01362966666667, "bike_id": "1c76d936f04fcdf4884349e2ccb1d601", "rental_uris": {"android": "https://dc.lft.to/lastmile_qr_scan", "ios": "https://dc.lft.to/lastmile_qr_scan"}, "name": "1c76d936f04fcdf4884349e2ccb1d601", "is_reserved": 0}, {"is_disabled": 0, "fusion_lon": 0.0, "fusion_lat": 0.0, "lat": 38.929927, "type": "electric_scooter", "lon": -77.0363665, "bike_id": "a2157bd614c21646078b6ef51e2f2365", "rental_uris": {"android": "https://dc.lft.to/lastmile_qr_scan", "ios": "https://dc.lft.to/lastmile_qr_scan"}, "name": "a2157bd614c21646078b6ef51e2f2365", "is_reserved": 0}, {"is_disabled": 0, "fusion_lon": 0.0, "fusion_lat": 0.0, "lat": 38.93340333333333, "type": "electric_scooter", "lon": -77.0413745, "bike_id": "5e70093c19ecf4c380d1b2e351494d25", "rental_uris": {"android": "https://dc.lft.to/lastmile_qr_scan", "ios": "https://dc.lft.to/lastmile_qr_scan"}, "name": "5e70093c19ecf4c380d1b2e351494d25", "is_reserved": 0}, {"is_disabled": 0, "fusion_lon": 0.0, "fusion_lat": 0.0, "lat": 38.928716333333334, "type": "electric_scooter", "lon": -76.9903145, "bike_id": "742c268143888dda6f7f2da62c9d6520", "rental_uris": {"android": "https://dc.lft.to/lastmile_qr_scan", "ios": "https://dc.lft.to/lastmile_qr_scan"}, "name": "742c268143888dda6f7f2da62c9d6520", "is_reserved": 0}, {"is_disabled": 0, "fusion_lon": 0.0, "fusion_lat": 0.0, "lat": 38.9282605, "type": "electric_scooter", "lon": -77.02263866666667, "bike_id": "441e02b54018f3332251c4daed127701", "rental_uris": {"android": "https://dc.lft.to/lastmile_qr_scan", "ios": "https://dc.lft.to/lastmile_qr_scan"}, "name": "441e02b54018f3332251c4daed127701", "is_reserved": 0}, {"is_disabled": 0, "fusion_lon": 0.0, "fusion_lat": 0.0, "lat": 38.86593283333333, "type": "electric_bike", "lon": -76.97448933333334, "bike_id": "b6dab17273074902d1c0ed84e4207331", "rental_uris": {"android": "https://dc.lft.to/lastmile_qr_scan", "ios": "https://dc.lft.to/lastmile_qr_scan"}, "name": "b6dab17273074902d1c0ed84e4207331", "is_reserved": 0}, {"is_disabled": 0, "fusion_lon": 0.0, "fusion_lat": 0.0, "lat": 38.88747583333333, "type": "electric_scooter", "lon": -77.01608466666667, "bike_id": "683688c829000aca8351adef94cf748c", "rental_uris": {"android": "https://dc.lft.to/lastmile_qr_scan", "ios": "https://dc.lft.to/lastmile_qr_scan"}, "name": "683688c829000aca8351adef94cf748c", "is_reserved": 0}, {"is_disabled": 0, "fusion_lon": 0.0, "fusion_lat": 0.0, "lat": 38.9298675, "type": "electric_bike", "lon": -77.0347355, "bike_id": "bb1accbfe853b817a2c0b61f8a24500f", "rental_uris": {"android": "https://dc.lft.to/lastmile_qr_scan", "ios": "https://dc.lft.to/lastmile_qr_scan"}, "name": "bb1accbfe853b817a2c0b61f8a24500f", "is_reserved": 0}, {"is_disabled": 0, "fusion_lon": 0.0, "fusion_lat": 0.0, "lat": 38.964469666666666, "type": "electric_bike", "lon": -76.97725, "bike_id": "01a3ee8fcfb7c82c9a7df301578a7e79", "rental_uris": {"android": "https://dc.lft.to/lastmile_qr_scan", "ios": "https://dc.lft.to/lastmile_qr_scan"}, "name": "01a3ee8fcfb7c82c9a7df301578a7e79", "is_reserved": 0}, {"is_disabled": 0, "fusion_lon": 0.0, "fusion_lat": 0.0, "lat": 39.029967, "type": "electric_bike", "lon": -77.10653183333334, "bike_id": "1a669b691882e00cb9c72a392990a598", "rental_uris": {"android": "https://dc.lft.to/lastmile_qr_scan", "ios": "https://dc.lft.to/lastmile_qr_scan"}, "name": "1a669b691882e00cb9c72a392990a598", "is_reserved": 0}, {"is_disabled": 0, "fusion_lon": 0.0, "fusion_lat": 0.0, "lat": 38.84291966666667, "type": "electric_scooter", "lon": -76.99947333333333, "bike_id": "63bb1ed945f7244267fce241ca73a8e4", "rental_uris": {"android": "https://dc.lft.to/lastmile_qr_scan", "ios": "https://dc.lft.to/lastmile_qr_scan"}, "name": "63bb1ed945f7244267fce241ca73a8e4", "is_reserved": 0}, {"is_disabled": 0, "fusion_lon": 0.0, "fusion_lat": 0.0, "lat": 38.85850833333333, "type": "electric_bike", "lon": -77.09752883333333, "bike_id": "8ed394488ced80d14650aa908a44639d", "rental_uris": {"android": "https://dc.lft.to/lastmile_qr_scan", "ios": "https://dc.lft.to/lastmile_qr_scan"}, "name": "8ed394488ced80d14650aa908a44639d", "is_reserved": 0}, {"is_disabled": 0, "fusion_lon": 0.0, "fusion_lat": 0.0, "lat": 38.92888216666667, "type": "electric_scooter", "lon": -77.0231005, "bike_id": "1b09f80841000d427f6a7f560fede754", "rental_uris": {"android": "https://dc.lft.to/lastmile_qr_scan", "ios": "https://dc.lft.to/lastmile_qr_scan"}, "name": "1b09f80841000d427f6a7f560fede754", "is_reserved": 0}, {"is_disabled": 0, "fusion_lon": 0.0, "fusion_lat": 0.0, "lat": 38.899126833333334, "type": "electric_scooter", "lon": -76.9339385, "bike_id": "8b9bf67ab783f75972beaf0414f6b3be", "rental_uris": {"android": "https://dc.lft.to/lastmile_qr_scan", "ios": "https://dc.lft.to/lastmile_qr_scan"}, "name": "8b9bf67ab783f75972beaf0414f6b3be", "is_reserved": 0}, {"is_disabled": 0, "fusion_lon": 0.0, "fusion_lat": 0.0, "lat": 38.940515166666664, "type": "electric_scooter", "lon": -77.02491083333334, "bike_id": "a44f852672bd2a88a31ca1de695189d7", "rental_uris": {"android": "https://dc.lft.to/lastmile_qr_scan", "ios": "https://dc.lft.to/lastmile_qr_scan"}, "name": "a44f852672bd2a88a31ca1de695189d7", "is_reserved": 0}, {"is_disabled": 0, "fusion_lon": 0.0, "fusion_lat": 0.0, "lat": 38.89745033333333, "type": "electric_bike", "lon": -76.99253966666667, "bike_id": "aaf5ebb91d4cd53e1db2de3302b9f5ad", "rental_uris": {"android": "https://dc.lft.to/lastmile_qr_scan", "ios": "https://dc.lft.to/lastmile_qr_scan"}, "name": "aaf5ebb91d4cd53e1db2de3302b9f5ad", "is_reserved": 0}, {"is_disabled": 0, "fusion_lon": 0.0, "fusion_lat": 0.0, "lat": 38.899606166666665, "type": "electric_scooter", "lon": -77.05222883333333, "bike_id": "0695fa937f2bbd65609a7c9b90b5ccc7", "rental_uris": {"android": "https://dc.lft.to/lastmile_qr_scan", "ios": "https://dc.lft.to/lastmile_qr_scan"}, "name": "0695fa937f2bbd65609a7c9b90b5ccc7", "is_reserved": 0}, {"is_disabled": 0, "fusion_lon": 0.0, "fusion_lat": 0.0, "lat": 38.919138, "type": "electric_scooter", "lon": -77.0446045, "bike_id": "8ab3952678c24e908d564c36ddd4e1bd", "rental_uris": {"android": "https://dc.lft.to/lastmile_qr_scan", "ios": "https://dc.lft.to/lastmile_qr_scan"}, "name": "8ab3952678c24e908d564c36ddd4e1bd", "is_reserved": 0}, {"is_disabled": 0, "fusion_lon": 0.0, "fusion_lat": 0.0, "lat": 38.9309465, "type": "electric_scooter", "lon": -77.024528, "bike_id": "be1992368410efb3dcea22afa39dbc2e", "rental_uris": {"android": "https://dc.lft.to/lastmile_qr_scan", "ios": "https://dc.lft.to/lastmile_qr_scan"}, "name": "be1992368410efb3dcea22afa39dbc2e", "is_reserved": 0}, {"is_disabled": 0, "fusion_lon": 0.0, "fusion_lat": 0.0, "lat": 38.88725133333333, "type": "electric_scooter", "lon": -77.02201866666667, "bike_id": "63ff7e7b2082ad1b4f4c480bd13983e0", "rental_uris": {"android": "https://dc.lft.to/lastmile_qr_scan", "ios": "https://dc.lft.to/lastmile_qr_scan"}, "name": "63ff7e7b2082ad1b4f4c480bd13983e0", "is_reserved": 0}, {"is_disabled": 0, "fusion_lon": 0.0, "fusion_lat": 0.0, "lat": 38.9307445, "type": "electric_scooter", "lon": -77.03802816666666, "bike_id": "ad291e2e7010092654c5bb801bd9d339", "rental_uris": {"android": "https://dc.lft.to/lastmile_qr_scan", "ios": "https://dc.lft.to/lastmile_qr_scan"}, "name": "ad291e2e7010092654c5bb801bd9d339", "is_reserved": 0}, {"is_disabled": 0, "fusion_lon": 0.0, "fusion_lat": 0.0, "lat": 38.90258583333333, "type": "electric_scooter", "lon": -77.0001755, "bike_id": "24e66a78b735a0e0ea139004fb6f65cc", "rental_uris": {"android": "https://dc.lft.to/lastmile_qr_scan", "ios": "https://dc.lft.to/lastmile_qr_scan"}, "name": "24e66a78b735a0e0ea139004fb6f65cc", "is_reserved": 0}, {"is_disabled": 0, "fusion_lon": 0.0, "fusion_lat": 0.0, "lat": 38.921417, "type": "electric_scooter", "lon": -77.00919666666667, "bike_id": "eeb13619d43514b35dfa48e1b7366b9d", "rental_uris": {"android": "https://dc.lft.to/lastmile_qr_scan", "ios": "https://dc.lft.to/lastmile_qr_scan"}, "name": "eeb13619d43514b35dfa48e1b7366b9d", "is_reserved": 0}, {"is_disabled": 0, "fusion_lon": 0.0, "fusion_lat": 0.0, "lat": 38.864641, "type": "electric_scooter", "lon": -76.99611183333333, "bike_id": "eb63a13a453d0f297cce7c014ac9e7ac", "rental_uris": {"android": "https://dc.lft.to/lastmile_qr_scan", "ios": "https://dc.lft.to/lastmile_qr_scan"}, "name": "eb63a13a453d0f297cce7c014ac9e7ac", "is_reserved": 0}, {"is_disabled": 0, "fusion_lon": 0.0, "fusion_lat": 0.0, "lat": 38.92920566666667, "type": "electric_scooter", "lon": -77.0214805, "bike_id": "084f6f372a5949e22bc2e4c2ba26ce0f", "rental_uris": {"android": "https://dc.lft.to/lastmile_qr_scan", "ios": "https://dc.lft.to/lastmile_qr_scan"}, "name": "084f6f372a5949e22bc2e4c2ba26ce0f", "is_reserved": 0}, {"is_disabled": 0, "fusion_lon": 0.0, "fusion_lat": 0.0, "lat": 38.87490616666667, "type": "electric_scooter", "lon": -76.99796116666667, "bike_id": "265dca066e6d48120cfc1234edc031df", "rental_uris": {"android": "https://dc.lft.to/lastmile_qr_scan", "ios": "https://dc.lft.to/lastmile_qr_scan"}, "name": "265dca066e6d48120cfc1234edc031df", "is_reserved": 0}, {"is_disabled": 0, "fusion_lon": 0.0, "fusion_lat": 0.0, "lat": 38.90731616666667, "type": "electric_scooter", "lon": -77.02416816666667, "bike_id": "f1796fb54c28931f2805e712088d698a", "rental_uris": {"android": "https://dc.lft.to/lastmile_qr_scan", "ios": "https://dc.lft.to/lastmile_qr_scan"}, "name": "f1796fb54c28931f2805e712088d698a", "is_reserved": 0}, {"is_disabled": 0, "fusion_lon": 0.0, "fusion_lat": 0.0, "lat": 38.9071575, "type": "electric_scooter", "lon": -77.0321045, "bike_id": "f9f431da33d1521c1801ef577441116f", "rental_uris": {"android": "https://dc.lft.to/lastmile_qr_scan", "ios": "https://dc.lft.to/lastmile_qr_scan"}, "name": "f9f431da33d1521c1801ef577441116f", "is_reserved": 0}, {"is_disabled": 0, "fusion_lon": 0.0, "fusion_lat": 0.0, "lat": 38.89730316666667, "type": "electric_scooter", "lon": -77.048081, "bike_id": "2322cd9f8703911c0da98d78da0535db", "rental_uris": {"android": "https://dc.lft.to/lastmile_qr_scan", "ios": "https://dc.lft.to/lastmile_qr_scan"}, "name": "2322cd9f8703911c0da98d78da0535db", "is_reserved": 0}, {"is_disabled": 0, "fusion_lon": 0.0, "fusion_lat": 0.0, "lat": 38.903583, "type": "electric_scooter", "lon": -77.00501816666667, "bike_id": "defadf861872f6755f3c39ef2ea54427", "rental_uris": {"android": "https://dc.lft.to/lastmile_qr_scan", "ios": "https://dc.lft.to/lastmile_qr_scan"}, "name": "defadf861872f6755f3c39ef2ea54427", "is_reserved": 0}, {"is_disabled": 0, "fusion_lon": 0.0, "fusion_lat": 0.0, "lat": 38.92482483333333, "type": "electric_scooter", "lon": -77.03482816666667, "bike_id": "70746c9f63c5e2ef0ae8b5c6b8b4fb11", "rental_uris": {"android": "https://dc.lft.to/lastmile_qr_scan", "ios": "https://dc.lft.to/lastmile_qr_scan"}, "name": "70746c9f63c5e2ef0ae8b5c6b8b4fb11", "is_reserved": 0}, {"is_disabled": 0, "fusion_lon": 0.0, "fusion_lat": 0.0, "lat": 38.92754016666667, "type": "electric_scooter", "lon": -77.00596433333334, "bike_id": "e4006f44af444b0d1102d3e7cea049d5", "rental_uris": {"android": "https://dc.lft.to/lastmile_qr_scan", "ios": "https://dc.lft.to/lastmile_qr_scan"}, "name": "e4006f44af444b0d1102d3e7cea049d5", "is_reserved": 0}, {"is_disabled": 0, "fusion_lon": 0.0, "fusion_lat": 0.0, "lat": 38.9039205, "type": "electric_scooter", "lon": -76.99011516666667, "bike_id": "7405aaa1c3fe534951f7ffce711c18d9", "rental_uris": {"android": "https://dc.lft.to/lastmile_qr_scan", "ios": "https://dc.lft.to/lastmile_qr_scan"}, "name": "7405aaa1c3fe534951f7ffce711c18d9", "is_reserved": 0}, {"is_disabled": 0, "fusion_lon": 0.0, "fusion_lat": 0.0, "lat": 38.90620716666667, "type": "electric_bike", "lon": -77.04156233333333, "bike_id": "2a1a7e4ad1920bd105071142012d6fa4", "rental_uris": {"android": "https://dc.lft.to/lastmile_qr_scan", "ios": "https://dc.lft.to/lastmile_qr_scan"}, "name": "2a1a7e4ad1920bd105071142012d6fa4", "is_reserved": 0}, {"is_disabled": 0, "fusion_lon": 0.0, "fusion_lat": 0.0, "lat": 38.91935333333333, "type": "electric_scooter", "lon": -76.98076016666667, "bike_id": "8619c40877eb67e54c18023620b2ae3b", "rental_uris": {"android": "https://dc.lft.to/lastmile_qr_scan", "ios": "https://dc.lft.to/lastmile_qr_scan"}, "name": "8619c40877eb67e54c18023620b2ae3b", "is_reserved": 0}, {"is_disabled": 0, "fusion_lon": 0.0, "fusion_lat": 0.0, "lat": 38.9232675, "type": "electric_scooter", "lon": -77.041821, "bike_id": "fedf70428be139ee391cf0491a940728", "rental_uris": {"android": "https://dc.lft.to/lastmile_qr_scan", "ios": "https://dc.lft.to/lastmile_qr_scan"}, "name": "fedf70428be139ee391cf0491a940728", "is_reserved": 0}, {"is_disabled": 0, "fusion_lon": 0.0, "fusion_lat": 0.0, "lat": 38.92118133333334, "type": "electric_scooter", "lon": -77.017669, "bike_id": "d1e14a823d000a5d6978759e8cc48fc0", "rental_uris": {"android": "https://dc.lft.to/lastmile_qr_scan", "ios": "https://dc.lft.to/lastmile_qr_scan"}, "name": "d1e14a823d000a5d6978759e8cc48fc0", "is_reserved": 0}, {"is_disabled": 0, "fusion_lon": 0.0, "fusion_lat": 0.0, "lat": 38.85513366666667, "type": "electric_bike", "lon": -76.958362, "bike_id": "bb52ce9970377a5cab3747c6e26d4e96", "rental_uris": {"android": "https://dc.lft.to/lastmile_qr_scan", "ios": "https://dc.lft.to/lastmile_qr_scan"}, "name": "bb52ce9970377a5cab3747c6e26d4e96", "is_reserved": 0}, {"is_disabled": 0, "fusion_lon": 0.0, "fusion_lat": 0.0, "lat": 38.915544833333335, "type": "electric_scooter", "lon": -77.00772033333334, "bike_id": "93617b5d3afa09afe7c3cd0c1f99a3d8", "rental_uris": {"android": "https://dc.lft.to/lastmile_qr_scan", "ios": "https://dc.lft.to/lastmile_qr_scan"}, "name": "93617b5d3afa09afe7c3cd0c1f99a3d8", "is_reserved": 0}, {"is_disabled": 0, "fusion_lon": 0.0, "fusion_lat": 0.0, "lat": 38.90966566666667, "type": "electric_scooter", "lon": -77.015739, "bike_id": "68deca026ec848e7bef75b984dd28f0d", "rental_uris": {"android": "https://dc.lft.to/lastmile_qr_scan", "ios": "https://dc.lft.to/lastmile_qr_scan"}, "name": "68deca026ec848e7bef75b984dd28f0d", "is_reserved": 0}, {"is_disabled": 0, "fusion_lon": 0.0, "fusion_lat": 0.0, "lat": 38.9084765, "type": "electric_scooter", "lon": -77.0206035, "bike_id": "16910959c817b017c07e416eb46fe34f", "rental_uris": {"android": "https://dc.lft.to/lastmile_qr_scan", "ios": "https://dc.lft.to/lastmile_qr_scan"}, "name": "16910959c817b017c07e416eb46fe34f", "is_reserved": 0}, {"is_disabled": 0, "fusion_lon": 0.0, "fusion_lat": 0.0, "lat": 38.828758666666666, "type": "electric_bike", "lon": -77.112223, "bike_id": "b6e8dca514803e9d02cba067897d351f", "rental_uris": {"android": "https://dc.lft.to/lastmile_qr_scan", "ios": "https://dc.lft.to/lastmile_qr_scan"}, "name": "b6e8dca514803e9d02cba067897d351f", "is_reserved": 0}, {"is_disabled": 0, "fusion_lon": 0.0, "fusion_lat": 0.0, "lat": 38.905961, "type": "electric_scooter", "lon": -77.07309116666667, "bike_id": "b4028c068a05d5f53cee41049087e947", "rental_uris": {"android": "https://dc.lft.to/lastmile_qr_scan", "ios": "https://dc.lft.to/lastmile_qr_scan"}, "name": "b4028c068a05d5f53cee41049087e947", "is_reserved": 0}, {"is_disabled": 0, "fusion_lon": 0.0, "fusion_lat": 0.0, "lat": 38.924815333333335, "type": "electric_scooter", "lon": -77.02712983333333, "bike_id": "2cb1d792dd692db1bb34611101d4be1d", "rental_uris": {"android": "https://dc.lft.to/lastmile_qr_scan", "ios": "https://dc.lft.to/lastmile_qr_scan"}, "name": "2cb1d792dd692db1bb34611101d4be1d", "is_reserved": 0}, {"is_disabled": 0, "fusion_lon": 0.0, "fusion_lat": 0.0, "lat": 38.908607, "type": "electric_scooter", "lon": -77.00363116666666, "bike_id": "2aa1cc56727ca7d17deafa686f39b723", "rental_uris": {"android": "https://dc.lft.to/lastmile_qr_scan", "ios": "https://dc.lft.to/lastmile_qr_scan"}, "name": "2aa1cc56727ca7d17deafa686f39b723", "is_reserved": 0}, {"is_disabled": 0, "fusion_lon": 0.0, "fusion_lat": 0.0, "lat": 38.91999166666667, "type": "electric_scooter", "lon": -77.03290866666667, "bike_id": "530a0477991e369aac441df660bdcf51", "rental_uris": {"android": "https://dc.lft.to/lastmile_qr_scan", "ios": "https://dc.lft.to/lastmile_qr_scan"}, "name": "530a0477991e369aac441df660bdcf51", "is_reserved": 0}, {"is_disabled": 0, "fusion_lon": 0.0, "fusion_lat": 0.0, "lat": 38.887281, "type": "electric_scooter", "lon": -77.017455, "bike_id": "233c4f539bbd2d7b62267b7cc0d55de1", "rental_uris": {"android": "https://dc.lft.to/lastmile_qr_scan", "ios": "https://dc.lft.to/lastmile_qr_scan"}, "name": "233c4f539bbd2d7b62267b7cc0d55de1", "is_reserved": 0}, {"is_disabled": 0, "fusion_lon": 0.0, "fusion_lat": 0.0, "lat": 39.000185, "type": "electric_bike", "lon": -76.87287133333334, "bike_id": "5ba937884113acf163200c9b9daba053", "rental_uris": {"android": "https://dc.lft.to/lastmile_qr_scan", "ios": "https://dc.lft.to/lastmile_qr_scan"}, "name": "5ba937884113acf163200c9b9daba053", "is_reserved": 0}, {"is_disabled": 0, "fusion_lon": 0.0, "fusion_lat": 0.0, "lat": 38.90573916666666, "type": "electric_scooter", "lon": -77.02202783333334, "bike_id": "4836f1edbd790b620225e4d3407cfea1", "rental_uris": {"android": "https://dc.lft.to/lastmile_qr_scan", "ios": "https://dc.lft.to/lastmile_qr_scan"}, "name": "4836f1edbd790b620225e4d3407cfea1", "is_reserved": 0}, {"is_disabled": 0, "fusion_lon": 0.0, "fusion_lat": 0.0, "lat": 38.895002166666664, "type": "electric_scooter", "lon": -77.0108995, "bike_id": "8211368a847a43e50e06ce1165538228", "rental_uris": {"android": "https://dc.lft.to/lastmile_qr_scan", "ios": "https://dc.lft.to/lastmile_qr_scan"}, "name": "8211368a847a43e50e06ce1165538228", "is_reserved": 0}, {"is_disabled": 0, "fusion_lon": 0.0, "fusion_lat": 0.0, "lat": 38.9191655, "type": "electric_scooter", "lon": -77.03392733333334, "bike_id": "587a4c0fb7ee9294ed0f11ffe3ff36ed", "rental_uris": {"android": "https://dc.lft.to/lastmile_qr_scan", "ios": "https://dc.lft.to/lastmile_qr_scan"}, "name": "587a4c0fb7ee9294ed0f11ffe3ff36ed", "is_reserved": 0}, {"is_disabled": 0, "fusion_lon": 0.0, "fusion_lat": 0.0, "lat": 38.89734983333334, "type": "electric_scooter", "lon": -77.01006833333334, "bike_id": "bfe13b4dd4f6054ea6ef8ee23f6d1f26", "rental_uris": {"android": "https://dc.lft.to/lastmile_qr_scan", "ios": "https://dc.lft.to/lastmile_qr_scan"}, "name": "bfe13b4dd4f6054ea6ef8ee23f6d1f26", "is_reserved": 0}, {"is_disabled": 0, "fusion_lon": 0.0, "fusion_lat": 0.0, "lat": 38.97260383333333, "type": "electric_bike", "lon": -76.99171816666667, "bike_id": "207d67792242c03751ad3b76317ffc97", "rental_uris": {"android": "https://dc.lft.to/lastmile_qr_scan", "ios": "https://dc.lft.to/lastmile_qr_scan"}, "name": "207d67792242c03751ad3b76317ffc97", "is_reserved": 0}, {"is_disabled": 0, "fusion_lon": 0.0, "fusion_lat": 0.0, "lat": 38.9346845, "type": "electric_scooter", "lon": -77.06878833333333, "bike_id": "e3a5d055ad3bf8efd64390d167e186d3", "rental_uris": {"android": "https://dc.lft.to/lastmile_qr_scan", "ios": "https://dc.lft.to/lastmile_qr_scan"}, "name": "e3a5d055ad3bf8efd64390d167e186d3", "is_reserved": 0}, {"is_disabled": 0, "fusion_lon": 0.0, "fusion_lat": 0.0, "lat": 38.894293166666664, "type": "electric_scooter", "lon": -77.01101633333333, "bike_id": "548c39e9a4c741b0b6f8cfe20608edfb", "rental_uris": {"android": "https://dc.lft.to/lastmile_qr_scan", "ios": "https://dc.lft.to/lastmile_qr_scan"}, "name": "548c39e9a4c741b0b6f8cfe20608edfb", "is_reserved": 0}, {"is_disabled": 0, "fusion_lon": 0.0, "fusion_lat": 0.0, "lat": 38.917667333333334, "type": "electric_scooter", "lon": -77.04748683333334, "bike_id": "adf27993d8dc5d98178b42ada03e115d", "rental_uris": {"android": "https://dc.lft.to/lastmile_qr_scan", "ios": "https://dc.lft.to/lastmile_qr_scan"}, "name": "adf27993d8dc5d98178b42ada03e115d", "is_reserved": 0}, {"is_disabled": 0, "fusion_lon": 0.0, "fusion_lat": 0.0, "lat": 38.839307166666664, "type": "electric_bike", "lon": -77.07906016666666, "bike_id": "36c3703aae34cc17962b6e68df2b0251", "rental_uris": {"android": "https://dc.lft.to/lastmile_qr_scan", "ios": "https://dc.lft.to/lastmile_qr_scan"}, "name": "36c3703aae34cc17962b6e68df2b0251", "is_reserved": 0}, {"is_disabled": 0, "fusion_lon": 0.0, "fusion_lat": 0.0, "lat": 38.90368816666667, "type": "electric_scooter", "lon": -77.016414, "bike_id": "7bd5c9bb2ef8e2cbdf1340b50d76802f", "rental_uris": {"android": "https://dc.lft.to/lastmile_qr_scan", "ios": "https://dc.lft.to/lastmile_qr_scan"}, "name": "7bd5c9bb2ef8e2cbdf1340b50d76802f", "is_reserved": 0}, {"is_disabled": 0, "fusion_lon": 0.0, "fusion_lat": 0.0, "lat": 38.901928, "type": "electric_scooter", "lon": -77.03934383333333, "bike_id": "ce60ed8ad8b37dd7e9f9b057399d401e", "rental_uris": {"android": "https://dc.lft.to/lastmile_qr_scan", "ios": "https://dc.lft.to/lastmile_qr_scan"}, "name": "ce60ed8ad8b37dd7e9f9b057399d401e", "is_reserved": 0}, {"is_disabled": 0, "fusion_lon": 0.0, "fusion_lat": 0.0, "lat": 38.901666166666665, "type": "electric_scooter", "lon": -77.0250045, "bike_id": "022185303904ef61014899364c069f35", "rental_uris": {"android": "https://dc.lft.to/lastmile_qr_scan", "ios": "https://dc.lft.to/lastmile_qr_scan"}, "name": "022185303904ef61014899364c069f35", "is_reserved": 0}, {"is_disabled": 0, "fusion_lon": 0.0, "fusion_lat": 0.0, "lat": 38.907362666666664, "type": "electric_scooter", "lon": -77.03441633333334, "bike_id": "7995602b2605a5cdc57dc3678becde24", "rental_uris": {"android": "https://dc.lft.to/lastmile_qr_scan", "ios": "https://dc.lft.to/lastmile_qr_scan"}, "name": "7995602b2605a5cdc57dc3678becde24", "is_reserved": 0}, {"is_disabled": 0, "fusion_lon": 0.0, "fusion_lat": 0.0, "lat": 38.84514633333333, "type": "electric_bike", "lon": -77.07799983333334, "bike_id": "7df8d2c32739a89d698801bf4d09b932", "rental_uris": {"android": "https://dc.lft.to/lastmile_qr_scan", "ios": "https://dc.lft.to/lastmile_qr_scan"}, "name": "7df8d2c32739a89d698801bf4d09b932", "is_reserved": 0}, {"is_disabled": 0, "fusion_lon": 0.0, "fusion_lat": 0.0, "lat": 38.90679266666667, "type": "electric_scooter", "lon": -77.02697366666666, "bike_id": "b34b9581c2c2b9057f2c0378b2354556", "rental_uris": {"android": "https://dc.lft.to/lastmile_qr_scan", "ios": "https://dc.lft.to/lastmile_qr_scan"}, "name": "b34b9581c2c2b9057f2c0378b2354556", "is_reserved": 0}, {"is_disabled": 0, "fusion_lon": 0.0, "fusion_lat": 0.0, "lat": 38.9008805, "type": "electric_scooter", "lon": -77.04997316666666, "bike_id": "bea0ebd5043b417fbb2c9eee1be46209", "rental_uris": {"android": "https://dc.lft.to/lastmile_qr_scan", "ios": "https://dc.lft.to/lastmile_qr_scan"}, "name": "bea0ebd5043b417fbb2c9eee1be46209", "is_reserved": 0}, {"is_disabled": 0, "fusion_lon": 0.0, "fusion_lat": 0.0, "lat": 38.897333333333336, "type": "electric_scooter", "lon": -77.003366, "bike_id": "2cbd8919cf4f6afc36adae07fda28918", "rental_uris": {"android": "https://dc.lft.to/lastmile_qr_scan", "ios": "https://dc.lft.to/lastmile_qr_scan"}, "name": "2cbd8919cf4f6afc36adae07fda28918", "is_reserved": 0}, {"is_disabled": 0, "fusion_lon": 0.0, "fusion_lat": 0.0, "lat": 38.91681616666666, "type": "electric_scooter", "lon": -77.02724133333334, "bike_id": "99ba9d36e80d7e5b800596edde54d24c", "rental_uris": {"android": "https://dc.lft.to/lastmile_qr_scan", "ios": "https://dc.lft.to/lastmile_qr_scan"}, "name": "99ba9d36e80d7e5b800596edde54d24c", "is_reserved": 0}, {"is_disabled": 0, "fusion_lon": 0.0, "fusion_lat": 0.0, "lat": 38.908412, "type": "electric_scooter", "lon": -76.997091, "bike_id": "a590656e5caab859abf5118435ebac29", "rental_uris": {"android": "https://dc.lft.to/lastmile_qr_scan", "ios": "https://dc.lft.to/lastmile_qr_scan"}, "name": "a590656e5caab859abf5118435ebac29", "is_reserved": 0}, {"is_disabled": 0, "fusion_lon": 0.0, "fusion_lat": 0.0, "lat": 38.92263966666667, "type": "electric_bike", "lon": -77.0771805, "bike_id": "a4706d92d4a33c7bc5311b6fc679ef16", "rental_uris": {"android": "https://dc.lft.to/lastmile_qr_scan", "ios": "https://dc.lft.to/lastmile_qr_scan"}, "name": "a4706d92d4a33c7bc5311b6fc679ef16", "is_reserved": 0}, {"is_disabled": 0, "fusion_lon": 0.0, "fusion_lat": 0.0, "lat": 38.92048033333333, "type": "electric_scooter", "lon": -77.02613516666666, "bike_id": "f01af1ae2f23d384f20fd64d8fbcdb11", "rental_uris": {"android": "https://dc.lft.to/lastmile_qr_scan", "ios": "https://dc.lft.to/lastmile_qr_scan"}, "name": "f01af1ae2f23d384f20fd64d8fbcdb11", "is_reserved": 0}, {"is_disabled": 0, "fusion_lon": 0.0, "fusion_lat": 0.0, "lat": 38.90578683333333, "type": "electric_scooter", "lon": -77.047029, "bike_id": "b6775e81fb2a0b610b68b23e5b35106a", "rental_uris": {"android": "https://dc.lft.to/lastmile_qr_scan", "ios": "https://dc.lft.to/lastmile_qr_scan"}, "name": "b6775e81fb2a0b610b68b23e5b35106a", "is_reserved": 0}, {"is_disabled": 0, "fusion_lon": 0.0, "fusion_lat": 0.0, "lat": 38.882648, "type": "electric_scooter", "lon": -76.98543916666667, "bike_id": "446af9a25be20b258bd0e9f4b52089b2", "rental_uris": {"android": "https://dc.lft.to/lastmile_qr_scan", "ios": "https://dc.lft.to/lastmile_qr_scan"}, "name": "446af9a25be20b258bd0e9f4b52089b2", "is_reserved": 0}, {"is_disabled": 0, "fusion_lon": 0.0, "fusion_lat": 0.0, "lat": 38.828743333333335, "type": "electric_bike", "lon": -77.11225966666667, "bike_id": "0d69c42753d737af6ce6b393a70a975a", "rental_uris": {"android": "https://dc.lft.to/lastmile_qr_scan", "ios": "https://dc.lft.to/lastmile_qr_scan"}, "name": "0d69c42753d737af6ce6b393a70a975a", "is_reserved": 0}, {"is_disabled": 0, "fusion_lon": 0.0, "fusion_lat": 0.0, "lat": 38.921175, "type": "electric_scooter", "lon": -77.04431966666667, "bike_id": "ae086c5b53c4ed878de8864d057c9e27", "rental_uris": {"android": "https://dc.lft.to/lastmile_qr_scan", "ios": "https://dc.lft.to/lastmile_qr_scan"}, "name": "ae086c5b53c4ed878de8864d057c9e27", "is_reserved": 0}, {"is_disabled": 0, "fusion_lon": 0.0, "fusion_lat": 0.0, "lat": 38.833171666666665, "type": "electric_scooter", "lon": -77.00006866666666, "bike_id": "42a7c348416f2737bfdf3958acdcedc4", "rental_uris": {"android": "https://dc.lft.to/lastmile_qr_scan", "ios": "https://dc.lft.to/lastmile_qr_scan"}, "name": "42a7c348416f2737bfdf3958acdcedc4", "is_reserved": 0}, {"is_disabled": 0, "fusion_lon": 0.0, "fusion_lat": 0.0, "lat": 38.91338583333334, "type": "electric_scooter", "lon": -77.04862933333334, "bike_id": "aefc62e9f762b0f0924884f4fdd7b7dc", "rental_uris": {"android": "https://dc.lft.to/lastmile_qr_scan", "ios": "https://dc.lft.to/lastmile_qr_scan"}, "name": "aefc62e9f762b0f0924884f4fdd7b7dc", "is_reserved": 0}, {"is_disabled": 0, "fusion_lon": 0.0, "fusion_lat": 0.0, "lat": 38.9552955, "type": "electric_bike", "lon": -76.935276, "bike_id": "aacc3f333639a7fd0d7297dc694388b5", "rental_uris": {"android": "https://dc.lft.to/lastmile_qr_scan", "ios": "https://dc.lft.to/lastmile_qr_scan"}, "name": "aacc3f333639a7fd0d7297dc694388b5", "is_reserved": 0}, {"is_disabled": 0, "fusion_lon": 0.0, "fusion_lat": 0.0, "lat": 38.83194433333333, "type": "electric_bike", "lon": -77.07686033333333, "bike_id": "ad4e38ac8453e520d2b4b05935f9725c", "rental_uris": {"android": "https://dc.lft.to/lastmile_qr_scan", "ios": "https://dc.lft.to/lastmile_qr_scan"}, "name": "ad4e38ac8453e520d2b4b05935f9725c", "is_reserved": 0}, {"is_disabled": 0, "fusion_lon": 0.0, "fusion_lat": 0.0, "lat": 38.9517945, "type": "electric_scooter", "lon": -77.056554, "bike_id": "e4f5d0602e625d2cccc2232af1298904", "rental_uris": {"android": "https://dc.lft.to/lastmile_qr_scan", "ios": "https://dc.lft.to/lastmile_qr_scan"}, "name": "e4f5d0602e625d2cccc2232af1298904", "is_reserved": 0}, {"is_disabled": 0, "fusion_lon": 0.0, "fusion_lat": 0.0, "lat": 38.8747995, "type": "electric_scooter", "lon": -77.01071266666666, "bike_id": "74ec1ff6196ccfb239c73d75701976b4", "rental_uris": {"android": "https://dc.lft.to/lastmile_qr_scan", "ios": "https://dc.lft.to/lastmile_qr_scan"}, "name": "74ec1ff6196ccfb239c73d75701976b4", "is_reserved": 0}, {"is_disabled": 0, "fusion_lon": 0.0, "fusion_lat": 0.0, "lat": 38.91812266666667, "type": "electric_scooter", "lon": -77.02476466666667, "bike_id": "19074b962c3064ed7bfe5808edaebd74", "rental_uris": {"android": "https://dc.lft.to/lastmile_qr_scan", "ios": "https://dc.lft.to/lastmile_qr_scan"}, "name": "19074b962c3064ed7bfe5808edaebd74", "is_reserved": 0}, {"is_disabled": 0, "fusion_lon": 0.0, "fusion_lat": 0.0, "lat": 38.90829766666667, "type": "electric_bike", "lon": -76.94158033333333, "bike_id": "8312061ecb4f2047d3d79d809a5eefe3", "rental_uris": {"android": "https://dc.lft.to/lastmile_qr_scan", "ios": "https://dc.lft.to/lastmile_qr_scan"}, "name": "8312061ecb4f2047d3d79d809a5eefe3", "is_reserved": 0}, {"is_disabled": 0, "fusion_lon": 0.0, "fusion_lat": 0.0, "lat": 38.990909333333335, "type": "electric_bike", "lon": -76.87498933333333, "bike_id": "4a6be40d048ff3804296106f375451f9", "rental_uris": {"android": "https://dc.lft.to/lastmile_qr_scan", "ios": "https://dc.lft.to/lastmile_qr_scan"}, "name": "4a6be40d048ff3804296106f375451f9", "is_reserved": 0}, {"is_disabled": 0, "fusion_lon": 0.0, "fusion_lat": 0.0, "lat": 38.91998816666667, "type": "electric_scooter", "lon": -77.03294916666667, "bike_id": "fc273bc6d7f25cc3bb3d3885cc566a4e", "rental_uris": {"android": "https://dc.lft.to/lastmile_qr_scan", "ios": "https://dc.lft.to/lastmile_qr_scan"}, "name": "fc273bc6d7f25cc3bb3d3885cc566a4e", "is_reserved": 0}, {"is_disabled": 0, "fusion_lon": 0.0, "fusion_lat": 0.0, "lat": 38.889702666666665, "type": "electric_bike", "lon": -76.9486705, "bike_id": "21c90bb14a56602005cc83ff0952a14a", "rental_uris": {"android": "https://dc.lft.to/lastmile_qr_scan", "ios": "https://dc.lft.to/lastmile_qr_scan"}, "name": "21c90bb14a56602005cc83ff0952a14a", "is_reserved": 0}, {"is_disabled": 0, "fusion_lon": 0.0, "fusion_lat": 0.0, "lat": 38.9343565, "type": "electric_scooter", "lon": -77.03274283333333, "bike_id": "2de25a28ed67136599ff2e7e5aac6ec0", "rental_uris": {"android": "https://dc.lft.to/lastmile_qr_scan", "ios": "https://dc.lft.to/lastmile_qr_scan"}, "name": "2de25a28ed67136599ff2e7e5aac6ec0", "is_reserved": 0}, {"is_disabled": 0, "fusion_lon": 0.0, "fusion_lat": 0.0, "lat": 38.97570966666667, "type": "electric_bike", "lon": -76.96405683333333, "bike_id": "e42bff5cad5924299ab6c9c6523a388c", "rental_uris": {"android": "https://dc.lft.to/lastmile_qr_scan", "ios": "https://dc.lft.to/lastmile_qr_scan"}, "name": "e42bff5cad5924299ab6c9c6523a388c", "is_reserved": 0}, {"is_disabled": 0, "fusion_lon": 0.0, "fusion_lat": 0.0, "lat": 38.92992866666667, "type": "electric_scooter", "lon": -77.0380005, "bike_id": "de5a61241c11c4a0cd0de91a96110cf3", "rental_uris": {"android": "https://dc.lft.to/lastmile_qr_scan", "ios": "https://dc.lft.to/lastmile_qr_scan"}, "name": "de5a61241c11c4a0cd0de91a96110cf3", "is_reserved": 0}, {"is_disabled": 0, "fusion_lon": 0.0, "fusion_lat": 0.0, "lat": 38.887250333333334, "type": "electric_scooter", "lon": -77.0174745, "bike_id": "94da2db11bb7f77e5fb4741ad6c2c41b", "rental_uris": {"android": "https://dc.lft.to/lastmile_qr_scan", "ios": "https://dc.lft.to/lastmile_qr_scan"}, "name": "94da2db11bb7f77e5fb4741ad6c2c41b", "is_reserved": 0}, {"is_disabled": 0, "fusion_lon": 0.0, "fusion_lat": 0.0, "lat": 38.9078315, "type": "electric_scooter", "lon": -77.03263716666666, "bike_id": "d3ecb883215871d2388b63314ee8b13e", "rental_uris": {"android": "https://dc.lft.to/lastmile_qr_scan", "ios": "https://dc.lft.to/lastmile_qr_scan"}, "name": "d3ecb883215871d2388b63314ee8b13e", "is_reserved": 0}, {"is_disabled": 0, "fusion_lon": 0.0, "fusion_lat": 0.0, "lat": 38.88821, "type": "electric_bike", "lon": -77.12744083333334, "bike_id": "cb347780ccf002eb93f3a947240cf776", "rental_uris": {"android": "https://dc.lft.to/lastmile_qr_scan", "ios": "https://dc.lft.to/lastmile_qr_scan"}, "name": "cb347780ccf002eb93f3a947240cf776", "is_reserved": 0}, {"is_disabled": 0, "fusion_lon": 0.0, "fusion_lat": 0.0, "lat": 38.990679, "type": "electric_bike", "lon": -77.10032816666667, "bike_id": "d4c43f6482a485f599f9b8a2da2fbc9d", "rental_uris": {"android": "https://dc.lft.to/lastmile_qr_scan", "ios": "https://dc.lft.to/lastmile_qr_scan"}, "name": "d4c43f6482a485f599f9b8a2da2fbc9d", "is_reserved": 0}, {"is_disabled": 0, "fusion_lon": 0.0, "fusion_lat": 0.0, "lat": 38.90558566666667, "type": "electric_scooter", "lon": -77.0418285, "bike_id": "379d53c7f88325e601d2048703ec9233", "rental_uris": {"android": "https://dc.lft.to/lastmile_qr_scan", "ios": "https://dc.lft.to/lastmile_qr_scan"}, "name": "379d53c7f88325e601d2048703ec9233", "is_reserved": 0}, {"is_disabled": 0, "fusion_lon": 0.0, "fusion_lat": 0.0, "lat": 38.990896166666666, "type": "electric_bike", "lon": -76.87498116666667, "bike_id": "603e3501186625b2226e86457d81edff", "rental_uris": {"android": "https://dc.lft.to/lastmile_qr_scan", "ios": "https://dc.lft.to/lastmile_qr_scan"}, "name": "603e3501186625b2226e86457d81edff", "is_reserved": 0}, {"is_disabled": 0, "fusion_lon": 0.0, "fusion_lat": 0.0, "lat": 38.9288135, "type": "electric_scooter", "lon": -77.014135, "bike_id": "cc79bff8f1b1e20cd147180fe3411924", "rental_uris": {"android": "https://dc.lft.to/lastmile_qr_scan", "ios": "https://dc.lft.to/lastmile_qr_scan"}, "name": "cc79bff8f1b1e20cd147180fe3411924", "is_reserved": 0}, {"is_disabled": 0, "fusion_lon": 0.0, "fusion_lat": 0.0, "lat": 38.937827666666664, "type": "electric_scooter", "lon": -77.02312633333334, "bike_id": "b875cf286874855ff1ba91c7e16af18e", "rental_uris": {"android": "https://dc.lft.to/lastmile_qr_scan", "ios": "https://dc.lft.to/lastmile_qr_scan"}, "name": "b875cf286874855ff1ba91c7e16af18e", "is_reserved": 0}, {"is_disabled": 0, "fusion_lon": 0.0, "fusion_lat": 0.0, "lat": 38.863582, "type": "electric_scooter", "lon": -76.990718, "bike_id": "b87d433ea220734d9ad333ece2284c0f", "rental_uris": {"android": "https://dc.lft.to/lastmile_qr_scan", "ios": "https://dc.lft.to/lastmile_qr_scan"}, "name": "b87d433ea220734d9ad333ece2284c0f", "is_reserved": 0}, {"is_disabled": 0, "fusion_lon": 0.0, "fusion_lat": 0.0, "lat": 38.90522683333333, "type": "electric_scooter", "lon": -77.0502345, "bike_id": "2cf2524c7bc57b5b0806069591af37fb", "rental_uris": {"android": "https://dc.lft.to/lastmile_qr_scan", "ios": "https://dc.lft.to/lastmile_qr_scan"}, "name": "2cf2524c7bc57b5b0806069591af37fb", "is_reserved": 0}, {"is_disabled": 0, "fusion_lon": 0.0, "fusion_lat": 0.0, "lat": 38.911312333333335, "type": "electric_scooter", "lon": -77.04208383333334, "bike_id": "4e04d4122499465479f380e0e4ce57d6", "rental_uris": {"android": "https://dc.lft.to/lastmile_qr_scan", "ios": "https://dc.lft.to/lastmile_qr_scan"}, "name": "4e04d4122499465479f380e0e4ce57d6", "is_reserved": 0}, {"is_disabled": 0, "fusion_lon": 0.0, "fusion_lat": 0.0, "lat": 38.88587733333333, "type": "electric_scooter", "lon": -77.01983333333334, "bike_id": "eed56b33af92ad38859902db0d493bfe", "rental_uris": {"android": "https://dc.lft.to/lastmile_qr_scan", "ios": "https://dc.lft.to/lastmile_qr_scan"}, "name": "eed56b33af92ad38859902db0d493bfe", "is_reserved": 0}, {"is_disabled": 0, "fusion_lon": 0.0, "fusion_lat": 0.0, "lat": 38.9077, "type": "electric_scooter", "lon": -77.03188816666666, "bike_id": "57b943a245bba923f00e54b642206a5d", "rental_uris": {"android": "https://dc.lft.to/lastmile_qr_scan", "ios": "https://dc.lft.to/lastmile_qr_scan"}, "name": "57b943a245bba923f00e54b642206a5d", "is_reserved": 0}, {"is_disabled": 0, "fusion_lon": 0.0, "fusion_lat": 0.0, "lat": 38.9008795, "type": "electric_scooter", "lon": -77.04881166666667, "bike_id": "f02985e8a69f60c26677a2ba4812d7cf", "rental_uris": {"android": "https://dc.lft.to/lastmile_qr_scan", "ios": "https://dc.lft.to/lastmile_qr_scan"}, "name": "f02985e8a69f60c26677a2ba4812d7cf", "is_reserved": 0}, {"is_disabled": 0, "fusion_lon": 0.0, "fusion_lat": 0.0, "lat": 38.89000566666667, "type": "electric_scooter", "lon": -77.048997, "bike_id": "ae5aaf8de4ce7025f2e0736b2e5243e0", "rental_uris": {"android": "https://dc.lft.to/lastmile_qr_scan", "ios": "https://dc.lft.to/lastmile_qr_scan"}, "name": "ae5aaf8de4ce7025f2e0736b2e5243e0", "is_reserved": 0}, {"is_disabled": 0, "fusion_lon": 0.0, "fusion_lat": 0.0, "lat": 38.90558383333333, "type": "electric_scooter", "lon": -77.04170966666666, "bike_id": "53d2ea4381346acbc6e713850ffde948", "rental_uris": {"android": "https://dc.lft.to/lastmile_qr_scan", "ios": "https://dc.lft.to/lastmile_qr_scan"}, "name": "53d2ea4381346acbc6e713850ffde948", "is_reserved": 0}, {"is_disabled": 0, "fusion_lon": 0.0, "fusion_lat": 0.0, "lat": 38.911181666666664, "type": "electric_scooter", "lon": -77.03835116666667, "bike_id": "acfa899550fffe419dbb3c6440ef0349", "rental_uris": {"android": "https://dc.lft.to/lastmile_qr_scan", "ios": "https://dc.lft.to/lastmile_qr_scan"}, "name": "acfa899550fffe419dbb3c6440ef0349", "is_reserved": 0}, {"is_disabled": 0, "fusion_lon": 0.0, "fusion_lat": 0.0, "lat": 38.90062983333333, "type": "electric_scooter", "lon": -77.012862, "bike_id": "c445f2169b94ec7aabe60a09be8d1dcc", "rental_uris": {"android": "https://dc.lft.to/lastmile_qr_scan", "ios": "https://dc.lft.to/lastmile_qr_scan"}, "name": "c445f2169b94ec7aabe60a09be8d1dcc", "is_reserved": 0}, {"is_disabled": 0, "fusion_lon": 0.0, "fusion_lat": 0.0, "lat": 38.89474933333333, "type": "electric_scooter", "lon": -76.93307616666667, "bike_id": "9db267d869b6a7747fe7b1b84bb62f43", "rental_uris": {"android": "https://dc.lft.to/lastmile_qr_scan", "ios": "https://dc.lft.to/lastmile_qr_scan"}, "name": "9db267d869b6a7747fe7b1b84bb62f43", "is_reserved": 0}, {"is_disabled": 0, "fusion_lon": 0.0, "fusion_lat": 0.0, "lat": 38.90965166666667, "type": "electric_scooter", "lon": -77.0327585, "bike_id": "565531da2594568948fe5be788e1e665", "rental_uris": {"android": "https://dc.lft.to/lastmile_qr_scan", "ios": "https://dc.lft.to/lastmile_qr_scan"}, "name": "565531da2594568948fe5be788e1e665", "is_reserved": 0}, {"is_disabled": 0, "fusion_lon": 0.0, "fusion_lat": 0.0, "lat": 38.93122316666667, "type": "electric_scooter", "lon": -77.019908, "bike_id": "fe340921ba85a570acc02c40495b1602", "rental_uris": {"android": "https://dc.lft.to/lastmile_qr_scan", "ios": "https://dc.lft.to/lastmile_qr_scan"}, "name": "fe340921ba85a570acc02c40495b1602", "is_reserved": 0}, {"is_disabled": 0, "fusion_lon": 0.0, "fusion_lat": 0.0, "lat": 38.90810316666666, "type": "electric_scooter", "lon": -77.04162866666667, "bike_id": "ab45d851fa9530a522f2d48273561d94", "rental_uris": {"android": "https://dc.lft.to/lastmile_qr_scan", "ios": "https://dc.lft.to/lastmile_qr_scan"}, "name": "ab45d851fa9530a522f2d48273561d94", "is_reserved": 0}, {"is_disabled": 0, "fusion_lon": 0.0, "fusion_lat": 0.0, "lat": 38.92101, "type": "electric_scooter", "lon": -77.03047483333333, "bike_id": "57d53ea75a8b3387bae831b57e99e7ed", "rental_uris": {"android": "https://dc.lft.to/lastmile_qr_scan", "ios": "https://dc.lft.to/lastmile_qr_scan"}, "name": "57d53ea75a8b3387bae831b57e99e7ed", "is_reserved": 0}, {"is_disabled": 0, "fusion_lon": 0.0, "fusion_lat": 0.0, "lat": 38.919227166666666, "type": "electric_scooter", "lon": -77.03418433333333, "bike_id": "14a9e0a2fbb1eeeaaf67b57f7ac5d087", "rental_uris": {"android": "https://dc.lft.to/lastmile_qr_scan", "ios": "https://dc.lft.to/lastmile_qr_scan"}, "name": "14a9e0a2fbb1eeeaaf67b57f7ac5d087", "is_reserved": 0}, {"is_disabled": 0, "fusion_lon": 0.0, "fusion_lat": 0.0, "lat": 38.897277, "type": "electric_scooter", "lon": -77.00932233333333, "bike_id": "ca3e6b3d9db9e7008cad84d561ff78b8", "rental_uris": {"android": "https://dc.lft.to/lastmile_qr_scan", "ios": "https://dc.lft.to/lastmile_qr_scan"}, "name": "ca3e6b3d9db9e7008cad84d561ff78b8", "is_reserved": 0}, {"is_disabled": 0, "fusion_lon": 0.0, "fusion_lat": 0.0, "lat": 38.94127733333333, "type": "electric_scooter", "lon": -77.01825766666667, "bike_id": "99fc4070eb7edea6369c5b89c775eb51", "rental_uris": {"android": "https://dc.lft.to/lastmile_qr_scan", "ios": "https://dc.lft.to/lastmile_qr_scan"}, "name": "99fc4070eb7edea6369c5b89c775eb51", "is_reserved": 0}, {"is_disabled": 0, "fusion_lon": 0.0, "fusion_lat": 0.0, "lat": 38.928801, "type": "electric_scooter", "lon": -77.04133533333334, "bike_id": "1129e478b7651d5615a6977c76dc5a6a", "rental_uris": {"android": "https://dc.lft.to/lastmile_qr_scan", "ios": "https://dc.lft.to/lastmile_qr_scan"}, "name": "1129e478b7651d5615a6977c76dc5a6a", "is_reserved": 0}, {"is_disabled": 0, "fusion_lon": 0.0, "fusion_lat": 0.0, "lat": 38.931386, "type": "electric_scooter", "lon": -77.0345335, "bike_id": "0430dede1b2515765695eb3c3f021139", "rental_uris": {"android": "https://dc.lft.to/lastmile_qr_scan", "ios": "https://dc.lft.to/lastmile_qr_scan"}, "name": "0430dede1b2515765695eb3c3f021139", "is_reserved": 0}, {"is_disabled": 0, "fusion_lon": 0.0, "fusion_lat": 0.0, "lat": 38.88080183333334, "type": "electric_scooter", "lon": -77.01678416666667, "bike_id": "2e26a6e55f0462e0052c789b134da032", "rental_uris": {"android": "https://dc.lft.to/lastmile_qr_scan", "ios": "https://dc.lft.to/lastmile_qr_scan"}, "name": "2e26a6e55f0462e0052c789b134da032", "is_reserved": 0}, {"is_disabled": 0, "fusion_lon": 0.0, "fusion_lat": 0.0, "lat": 38.953768833333335, "type": "electric_scooter", "lon": -77.0255995, "bike_id": "01d49b91380e228b4f25cdefdbfa4924", "rental_uris": {"android": "https://dc.lft.to/lastmile_qr_scan", "ios": "https://dc.lft.to/lastmile_qr_scan"}, "name": "01d49b91380e228b4f25cdefdbfa4924", "is_reserved": 0}, {"is_disabled": 0, "fusion_lon": 0.0, "fusion_lat": 0.0, "lat": 38.916312, "type": "electric_bike", "lon": -77.01362416666667, "bike_id": "1e99976094065b3c89780d7ff32c0530", "rental_uris": {"android": "https://dc.lft.to/lastmile_qr_scan", "ios": "https://dc.lft.to/lastmile_qr_scan"}, "name": "1e99976094065b3c89780d7ff32c0530", "is_reserved": 0}, {"is_disabled": 0, "fusion_lon": 0.0, "fusion_lat": 0.0, "lat": 38.9224585, "type": "electric_scooter", "lon": -77.030808, "bike_id": "dd25ec16f60540305e59db16410ea424", "rental_uris": {"android": "https://dc.lft.to/lastmile_qr_scan", "ios": "https://dc.lft.to/lastmile_qr_scan"}, "name": "dd25ec16f60540305e59db16410ea424", "is_reserved": 0}, {"is_disabled": 0, "fusion_lon": 0.0, "fusion_lat": 0.0, "lat": 38.903490166666664, "type": "electric_scooter", "lon": -77.03198666666667, "bike_id": "4a320320bb08c7f99193aeafac41d901", "rental_uris": {"android": "https://dc.lft.to/lastmile_qr_scan", "ios": "https://dc.lft.to/lastmile_qr_scan"}, "name": "4a320320bb08c7f99193aeafac41d901", "is_reserved": 0}, {"is_disabled": 0, "fusion_lon": 0.0, "fusion_lat": 0.0, "lat": 38.965027666666664, "type": "electric_scooter", "lon": -77.02484466666667, "bike_id": "cc49f7c0976e28c3868fb4f53ba60864", "rental_uris": {"android": "https://dc.lft.to/lastmile_qr_scan", "ios": "https://dc.lft.to/lastmile_qr_scan"}, "name": "cc49f7c0976e28c3868fb4f53ba60864", "is_reserved": 0}, {"is_disabled": 0, "fusion_lon": 0.0, "fusion_lat": 0.0, "lat": 38.8922255, "type": "electric_scooter", "lon": -77.03337716666667, "bike_id": "efddffa907199c165953b546d28dbab8", "rental_uris": {"android": "https://dc.lft.to/lastmile_qr_scan", "ios": "https://dc.lft.to/lastmile_qr_scan"}, "name": "efddffa907199c165953b546d28dbab8", "is_reserved": 0}, {"is_disabled": 0, "fusion_lon": 0.0, "fusion_lat": 0.0, "lat": 38.95400016666667, "type": "electric_scooter", "lon": -77.02758066666667, "bike_id": "6a6d3f18e7adadf0b27b89cf25186d93", "rental_uris": {"android": "https://dc.lft.to/lastmile_qr_scan", "ios": "https://dc.lft.to/lastmile_qr_scan"}, "name": "6a6d3f18e7adadf0b27b89cf25186d93", "is_reserved": 0}, {"is_disabled": 0, "fusion_lon": 0.0, "fusion_lat": 0.0, "lat": 38.858347, "type": "electric_bike", "lon": -76.99285516666667, "bike_id": "f25ec76ab8a03dc4f490cde43a01e19d", "rental_uris": {"android": "https://dc.lft.to/lastmile_qr_scan", "ios": "https://dc.lft.to/lastmile_qr_scan"}, "name": "f25ec76ab8a03dc4f490cde43a01e19d", "is_reserved": 0}, {"is_disabled": 0, "fusion_lon": 0.0, "fusion_lat": 0.0, "lat": 38.90570983333333, "type": "electric_scooter", "lon": -77.005985, "bike_id": "4067cd249ff0b5991983f5208276fd1d", "rental_uris": {"android": "https://dc.lft.to/lastmile_qr_scan", "ios": "https://dc.lft.to/lastmile_qr_scan"}, "name": "4067cd249ff0b5991983f5208276fd1d", "is_reserved": 0}, {"is_disabled": 0, "fusion_lon": 0.0, "fusion_lat": 0.0, "lat": 38.924215833333335, "type": "electric_scooter", "lon": -77.0416535, "bike_id": "4133a4c990ae75735fd7beaa211347d9", "rental_uris": {"android": "https://dc.lft.to/lastmile_qr_scan", "ios": "https://dc.lft.to/lastmile_qr_scan"}, "name": "4133a4c990ae75735fd7beaa211347d9", "is_reserved": 0}, {"is_disabled": 0, "fusion_lon": 0.0, "fusion_lat": 0.0, "lat": 38.90725366666667, "type": "electric_scooter", "lon": -77.03854183333333, "bike_id": "4623eff08191b3e69a68b02ba9943f6e", "rental_uris": {"android": "https://dc.lft.to/lastmile_qr_scan", "ios": "https://dc.lft.to/lastmile_qr_scan"}, "name": "4623eff08191b3e69a68b02ba9943f6e", "is_reserved": 0}, {"is_disabled": 0, "fusion_lon": 0.0, "fusion_lat": 0.0, "lat": 38.93771916666667, "type": "electric_scooter", "lon": -77.03085933333334, "bike_id": "0d766c233ea657d2419762e6f427316c", "rental_uris": {"android": "https://dc.lft.to/lastmile_qr_scan", "ios": "https://dc.lft.to/lastmile_qr_scan"}, "name": "0d766c233ea657d2419762e6f427316c", "is_reserved": 0}, {"is_disabled": 0, "fusion_lon": 0.0, "fusion_lat": 0.0, "lat": 38.930025, "type": "electric_scooter", "lon": -77.07823433333333, "bike_id": "bb0781006dd7e75358d3cc3d49001d9c", "rental_uris": {"android": "https://dc.lft.to/lastmile_qr_scan", "ios": "https://dc.lft.to/lastmile_qr_scan"}, "name": "bb0781006dd7e75358d3cc3d49001d9c", "is_reserved": 0}, {"is_disabled": 0, "fusion_lon": 0.0, "fusion_lat": 0.0, "lat": 38.90360366666667, "type": "electric_scooter", "lon": -77.050387, "bike_id": "a74b3cef2afc557c217ffaef6daceef4", "rental_uris": {"android": "https://dc.lft.to/lastmile_qr_scan", "ios": "https://dc.lft.to/lastmile_qr_scan"}, "name": "a74b3cef2afc557c217ffaef6daceef4", "is_reserved": 0}, {"is_disabled": 0, "fusion_lon": 0.0, "fusion_lat": 0.0, "lat": 38.92828866666667, "type": "electric_scooter", "lon": -77.0543315, "bike_id": "9bc91e80329351fbca955911adf89c11", "rental_uris": {"android": "https://dc.lft.to/lastmile_qr_scan", "ios": "https://dc.lft.to/lastmile_qr_scan"}, "name": "9bc91e80329351fbca955911adf89c11", "is_reserved": 0}, {"is_disabled": 0, "fusion_lon": 0.0, "fusion_lat": 0.0, "lat": 38.9117615, "type": "electric_scooter", "lon": -77.004489, "bike_id": "ba7e2b60f76454e8199d467be6c4e758", "rental_uris": {"android": "https://dc.lft.to/lastmile_qr_scan", "ios": "https://dc.lft.to/lastmile_qr_scan"}, "name": "ba7e2b60f76454e8199d467be6c4e758", "is_reserved": 0}, {"is_disabled": 0, "fusion_lon": 0.0, "fusion_lat": 0.0, "lat": 38.87984616666667, "type": "electric_bike", "lon": -76.91602266666666, "bike_id": "ee21be81c03c2d266060dd9f342cb0d1", "rental_uris": {"android": "https://dc.lft.to/lastmile_qr_scan", "ios": "https://dc.lft.to/lastmile_qr_scan"}, "name": "ee21be81c03c2d266060dd9f342cb0d1", "is_reserved": 0}, {"is_disabled": 0, "fusion_lon": 0.0, "fusion_lat": 0.0, "lat": 38.96646366666667, "type": "electric_bike", "lon": -76.93025316666666, "bike_id": "493dc0f246c4ec55463ab8a1af479c3c", "rental_uris": {"android": "https://dc.lft.to/lastmile_qr_scan", "ios": "https://dc.lft.to/lastmile_qr_scan"}, "name": "493dc0f246c4ec55463ab8a1af479c3c", "is_reserved": 0}, {"is_disabled": 0, "fusion_lon": 0.0, "fusion_lat": 0.0, "lat": 38.897236666666664, "type": "electric_scooter", "lon": -77.04815933333333, "bike_id": "fbb63b45af0d9ceb968ad903fc1bb3e7", "rental_uris": {"android": "https://dc.lft.to/lastmile_qr_scan", "ios": "https://dc.lft.to/lastmile_qr_scan"}, "name": "fbb63b45af0d9ceb968ad903fc1bb3e7", "is_reserved": 0}, {"is_disabled": 0, "fusion_lon": 0.0, "fusion_lat": 0.0, "lat": 38.902655833333334, "type": "electric_scooter", "lon": -77.03452783333333, "bike_id": "2d1cb48eda62f63d8e545bc5e3efa0e0", "rental_uris": {"android": "https://dc.lft.to/lastmile_qr_scan", "ios": "https://dc.lft.to/lastmile_qr_scan"}, "name": "2d1cb48eda62f63d8e545bc5e3efa0e0", "is_reserved": 0}, {"is_disabled": 0, "fusion_lon": 0.0, "fusion_lat": 0.0, "lat": 38.9161805, "type": "electric_scooter", "lon": -77.04598383333334, "bike_id": "f393297de82f33fcf55f185cfc424c38", "rental_uris": {"android": "https://dc.lft.to/lastmile_qr_scan", "ios": "https://dc.lft.to/lastmile_qr_scan"}, "name": "f393297de82f33fcf55f185cfc424c38", "is_reserved": 0}, {"is_disabled": 0, "fusion_lon": 0.0, "fusion_lat": 0.0, "lat": 38.893578166666664, "type": "electric_scooter", "lon": -77.022262, "bike_id": "baf709c889ac8c248f5d50eb6d28267d", "rental_uris": {"android": "https://dc.lft.to/lastmile_qr_scan", "ios": "https://dc.lft.to/lastmile_qr_scan"}, "name": "baf709c889ac8c248f5d50eb6d28267d", "is_reserved": 0}, {"is_disabled": 0, "fusion_lon": 0.0, "fusion_lat": 0.0, "lat": 38.914838833333334, "type": "electric_scooter", "lon": -77.03238883333333, "bike_id": "2053d7139bce68b23ba98d9f3ef6c660", "rental_uris": {"android": "https://dc.lft.to/lastmile_qr_scan", "ios": "https://dc.lft.to/lastmile_qr_scan"}, "name": "2053d7139bce68b23ba98d9f3ef6c660", "is_reserved": 0}, {"is_disabled": 0, "fusion_lon": 0.0, "fusion_lat": 0.0, "lat": 38.897961333333335, "type": "electric_scooter", "lon": -76.93058083333334, "bike_id": "97b97944423f22005a520a47f04104e3", "rental_uris": {"android": "https://dc.lft.to/lastmile_qr_scan", "ios": "https://dc.lft.to/lastmile_qr_scan"}, "name": "97b97944423f22005a520a47f04104e3", "is_reserved": 0}, {"is_disabled": 0, "fusion_lon": 0.0, "fusion_lat": 0.0, "lat": 38.98818633333333, "type": "electric_bike", "lon": -77.02648783333333, "bike_id": "ed5706b7661528ae9241477d8908b6ed", "rental_uris": {"android": "https://dc.lft.to/lastmile_qr_scan", "ios": "https://dc.lft.to/lastmile_qr_scan"}, "name": "ed5706b7661528ae9241477d8908b6ed", "is_reserved": 0}, {"is_disabled": 0, "fusion_lon": 0.0, "fusion_lat": 0.0, "lat": 38.9156535, "type": "electric_scooter", "lon": -77.01171466666666, "bike_id": "0fce0002a8d68240e9516ca5d3e90772", "rental_uris": {"android": "https://dc.lft.to/lastmile_qr_scan", "ios": "https://dc.lft.to/lastmile_qr_scan"}, "name": "0fce0002a8d68240e9516ca5d3e90772", "is_reserved": 0}, {"is_disabled": 0, "fusion_lon": 0.0, "fusion_lat": 0.0, "lat": 38.94981766666667, "type": "electric_scooter", "lon": -77.0270785, "bike_id": "0682c2492920a8df7cc610fda3c04305", "rental_uris": {"android": "https://dc.lft.to/lastmile_qr_scan", "ios": "https://dc.lft.to/lastmile_qr_scan"}, "name": "0682c2492920a8df7cc610fda3c04305", "is_reserved": 0}, {"is_disabled": 0, "fusion_lon": 0.0, "fusion_lat": 0.0, "lat": 38.92661983333333, "type": "electric_scooter", "lon": -77.02305833333334, "bike_id": "082511bb85d2a4b97cc5b48a9a889c22", "rental_uris": {"android": "https://dc.lft.to/lastmile_qr_scan", "ios": "https://dc.lft.to/lastmile_qr_scan"}, "name": "082511bb85d2a4b97cc5b48a9a889c22", "is_reserved": 0}, {"is_disabled": 0, "fusion_lon": 0.0, "fusion_lat": 0.0, "lat": 38.831567666666665, "type": "electric_bike", "lon": -76.99695416666667, "bike_id": "ff43309ec6b1f514233d94a4f5f4da10", "rental_uris": {"android": "https://dc.lft.to/lastmile_qr_scan", "ios": "https://dc.lft.to/lastmile_qr_scan"}, "name": "ff43309ec6b1f514233d94a4f5f4da10", "is_reserved": 0}, {"is_disabled": 0, "fusion_lon": 0.0, "fusion_lat": 0.0, "lat": 38.9425085, "type": "electric_scooter", "lon": -77.02176983333334, "bike_id": "2cdbeba492dc2b83d292abcc27ba7089", "rental_uris": {"android": "https://dc.lft.to/lastmile_qr_scan", "ios": "https://dc.lft.to/lastmile_qr_scan"}, "name": "2cdbeba492dc2b83d292abcc27ba7089", "is_reserved": 0}, {"is_disabled": 0, "fusion_lon": 0.0, "fusion_lat": 0.0, "lat": 38.901477666666665, "type": "electric_scooter", "lon": -77.039792, "bike_id": "d82084f7c604e1a68d40fe0d94564b12", "rental_uris": {"android": "https://dc.lft.to/lastmile_qr_scan", "ios": "https://dc.lft.to/lastmile_qr_scan"}, "name": "d82084f7c604e1a68d40fe0d94564b12", "is_reserved": 0}, {"is_disabled": 0, "fusion_lon": 0.0, "fusion_lat": 0.0, "lat": 38.88136266666667, "type": "electric_scooter", "lon": -77.02072766666667, "bike_id": "e07b18002a6e277f0a64452b70b35a46", "rental_uris": {"android": "https://dc.lft.to/lastmile_qr_scan", "ios": "https://dc.lft.to/lastmile_qr_scan"}, "name": "e07b18002a6e277f0a64452b70b35a46", "is_reserved": 0}, {"is_disabled": 0, "fusion_lon": 0.0, "fusion_lat": 0.0, "lat": 38.907318333333336, "type": "electric_scooter", "lon": -77.0225365, "bike_id": "d80d0c6faea589faeb4baae6a94ad11d", "rental_uris": {"android": "https://dc.lft.to/lastmile_qr_scan", "ios": "https://dc.lft.to/lastmile_qr_scan"}, "name": "d80d0c6faea589faeb4baae6a94ad11d", "is_reserved": 0}, {"is_disabled": 0, "fusion_lon": 0.0, "fusion_lat": 0.0, "lat": 38.89674483333334, "type": "electric_scooter", "lon": -77.01191766666666, "bike_id": "6c7102def6b4439e40bcf78899ed47ad", "rental_uris": {"android": "https://dc.lft.to/lastmile_qr_scan", "ios": "https://dc.lft.to/lastmile_qr_scan"}, "name": "6c7102def6b4439e40bcf78899ed47ad", "is_reserved": 0}, {"is_disabled": 0, "fusion_lon": 0.0, "fusion_lat": 0.0, "lat": 38.908494833333336, "type": "electric_scooter", "lon": -77.0634675, "bike_id": "01a5ada1a90b5d80a389a3341943de5b", "rental_uris": {"android": "https://dc.lft.to/lastmile_qr_scan", "ios": "https://dc.lft.to/lastmile_qr_scan"}, "name": "01a5ada1a90b5d80a389a3341943de5b", "is_reserved": 0}, {"is_disabled": 0, "fusion_lon": 0.0, "fusion_lat": 0.0, "lat": 38.90945033333333, "type": "electric_scooter", "lon": -77.034507, "bike_id": "a93974898c25bc533844d68a9cd9a109", "rental_uris": {"android": "https://dc.lft.to/lastmile_qr_scan", "ios": "https://dc.lft.to/lastmile_qr_scan"}, "name": "a93974898c25bc533844d68a9cd9a109", "is_reserved": 0}, {"is_disabled": 0, "fusion_lon": 0.0, "fusion_lat": 0.0, "lat": 38.91186233333333, "type": "electric_bike", "lon": -77.0115175, "bike_id": "59301319c883fbeef3b5cdc3b39d2391", "rental_uris": {"android": "https://dc.lft.to/lastmile_qr_scan", "ios": "https://dc.lft.to/lastmile_qr_scan"}, "name": "59301319c883fbeef3b5cdc3b39d2391", "is_reserved": 0}, {"is_disabled": 0, "fusion_lon": 0.0, "fusion_lat": 0.0, "lat": 38.917965, "type": "electric_scooter", "lon": -77.04359383333333, "bike_id": "d486b0d16028396ffd1f0b8b7e036dc2", "rental_uris": {"android": "https://dc.lft.to/lastmile_qr_scan", "ios": "https://dc.lft.to/lastmile_qr_scan"}, "name": "d486b0d16028396ffd1f0b8b7e036dc2", "is_reserved": 0}, {"is_disabled": 0, "fusion_lon": 0.0, "fusion_lat": 0.0, "lat": 38.99069816666667, "type": "electric_bike", "lon": -77.02382166666666, "bike_id": "7615b2453a7df980a697dc563b4c0dba", "rental_uris": {"android": "https://dc.lft.to/lastmile_qr_scan", "ios": "https://dc.lft.to/lastmile_qr_scan"}, "name": "7615b2453a7df980a697dc563b4c0dba", "is_reserved": 0}, {"is_disabled": 0, "fusion_lon": 0.0, "fusion_lat": 0.0, "lat": 38.923478333333335, "type": "electric_bike", "lon": -76.99249733333333, "bike_id": "4d414487744bca69a6ce0b995bf12581", "rental_uris": {"android": "https://dc.lft.to/lastmile_qr_scan", "ios": "https://dc.lft.to/lastmile_qr_scan"}, "name": "4d414487744bca69a6ce0b995bf12581", "is_reserved": 0}, {"is_disabled": 0, "fusion_lon": 0.0, "fusion_lat": 0.0, "lat": 38.9094965, "type": "electric_scooter", "lon": -77.02188083333333, "bike_id": "c8c04c7ade1476f0654bf3e03394e123", "rental_uris": {"android": "https://dc.lft.to/lastmile_qr_scan", "ios": "https://dc.lft.to/lastmile_qr_scan"}, "name": "c8c04c7ade1476f0654bf3e03394e123", "is_reserved": 0}, {"is_disabled": 0, "fusion_lon": 0.0, "fusion_lat": 0.0, "lat": 38.94305516666667, "type": "electric_scooter", "lon": -77.0235395, "bike_id": "31ee8331aede1f90247f998e5d37788c", "rental_uris": {"android": "https://dc.lft.to/lastmile_qr_scan", "ios": "https://dc.lft.to/lastmile_qr_scan"}, "name": "31ee8331aede1f90247f998e5d37788c", "is_reserved": 0}, {"is_disabled": 0, "fusion_lon": 0.0, "fusion_lat": 0.0, "lat": 38.938782333333336, "type": "electric_scooter", "lon": -77.033377, "bike_id": "759468d1357fed9dca390f8c9c2f4cb4", "rental_uris": {"android": "https://dc.lft.to/lastmile_qr_scan", "ios": "https://dc.lft.to/lastmile_qr_scan"}, "name": "759468d1357fed9dca390f8c9c2f4cb4", "is_reserved": 0}, {"is_disabled": 0, "fusion_lon": 0.0, "fusion_lat": 0.0, "lat": 38.85720766666667, "type": "electric_bike", "lon": -76.98114066666666, "bike_id": "9d30351598b6de61eb1184fa8e02e0ea", "rental_uris": {"android": "https://dc.lft.to/lastmile_qr_scan", "ios": "https://dc.lft.to/lastmile_qr_scan"}, "name": "9d30351598b6de61eb1184fa8e02e0ea", "is_reserved": 0}, {"is_disabled": 0, "fusion_lon": 0.0, "fusion_lat": 0.0, "lat": 38.831209333333334, "type": "electric_bike", "lon": -77.04328016666666, "bike_id": "0200a1371cb18ac951bbeba206195fb0", "rental_uris": {"android": "https://dc.lft.to/lastmile_qr_scan", "ios": "https://dc.lft.to/lastmile_qr_scan"}, "name": "0200a1371cb18ac951bbeba206195fb0", "is_reserved": 0}, {"is_disabled": 0, "fusion_lon": 0.0, "fusion_lat": 0.0, "lat": 38.93046266666666, "type": "electric_scooter", "lon": -77.00417216666666, "bike_id": "5365787ef4c3684d728b7699812add21", "rental_uris": {"android": "https://dc.lft.to/lastmile_qr_scan", "ios": "https://dc.lft.to/lastmile_qr_scan"}, "name": "5365787ef4c3684d728b7699812add21", "is_reserved": 0}, {"is_disabled": 0, "fusion_lon": 0.0, "fusion_lat": 0.0, "lat": 38.83811716666666, "type": "electric_scooter", "lon": -77.00434083333333, "bike_id": "ed6d6e66664355d7fb83de3d9b373469", "rental_uris": {"android": "https://dc.lft.to/lastmile_qr_scan", "ios": "https://dc.lft.to/lastmile_qr_scan"}, "name": "ed6d6e66664355d7fb83de3d9b373469", "is_reserved": 0}, {"is_disabled": 0, "fusion_lon": 0.0, "fusion_lat": 0.0, "lat": 39.115041, "type": "electric_bike", "lon": -77.19543066666667, "bike_id": "e9ae335bc9ca301c7ba2287cdae7cd07", "rental_uris": {"android": "https://dc.lft.to/lastmile_qr_scan", "ios": "https://dc.lft.to/lastmile_qr_scan"}, "name": "e9ae335bc9ca301c7ba2287cdae7cd07", "is_reserved": 0}, {"is_disabled": 0, "fusion_lon": 0.0, "fusion_lat": 0.0, "lat": 38.99256583333333, "type": "electric_bike", "lon": -77.04999833333333, "bike_id": "fbcd889226dc82ad68a2a40d3fbdfdd4", "rental_uris": {"android": "https://dc.lft.to/lastmile_qr_scan", "ios": "https://dc.lft.to/lastmile_qr_scan"}, "name": "fbcd889226dc82ad68a2a40d3fbdfdd4", "is_reserved": 0}, {"is_disabled": 0, "fusion_lon": 0.0, "fusion_lat": 0.0, "lat": 38.90545783333334, "type": "electric_scooter", "lon": -77.02694066666666, "bike_id": "c14e6134ecd65ba2cf576829f8e43c3d", "rental_uris": {"android": "https://dc.lft.to/lastmile_qr_scan", "ios": "https://dc.lft.to/lastmile_qr_scan"}, "name": "c14e6134ecd65ba2cf576829f8e43c3d", "is_reserved": 0}, {"is_disabled": 0, "fusion_lon": 0.0, "fusion_lat": 0.0, "lat": 38.93355183333333, "type": "electric_scooter", "lon": -77.073844, "bike_id": "21fe913de3eabee7aeeec4b256b3bdff", "rental_uris": {"android": "https://dc.lft.to/lastmile_qr_scan", "ios": "https://dc.lft.to/lastmile_qr_scan"}, "name": "21fe913de3eabee7aeeec4b256b3bdff", "is_reserved": 0}, {"is_disabled": 0, "fusion_lon": 0.0, "fusion_lat": 0.0, "lat": 38.90975383333333, "type": "electric_scooter", "lon": -77.03873666666667, "bike_id": "ef980439eea77d6b10200381b07f9294", "rental_uris": {"android": "https://dc.lft.to/lastmile_qr_scan", "ios": "https://dc.lft.to/lastmile_qr_scan"}, "name": "ef980439eea77d6b10200381b07f9294", "is_reserved": 0}, {"is_disabled": 0, "fusion_lon": 0.0, "fusion_lat": 0.0, "lat": 38.87542833333333, "type": "electric_scooter", "lon": -77.01369916666667, "bike_id": "fa086cb73a8443e5b2543e2a9d3ac803", "rental_uris": {"android": "https://dc.lft.to/lastmile_qr_scan", "ios": "https://dc.lft.to/lastmile_qr_scan"}, "name": "fa086cb73a8443e5b2543e2a9d3ac803", "is_reserved": 0}, {"is_disabled": 0, "fusion_lon": 0.0, "fusion_lat": 0.0, "lat": 38.89651583333333, "type": "electric_scooter", "lon": -77.04332333333333, "bike_id": "f6d5ccc1e0bece4e41ef17c94f65e6f2", "rental_uris": {"android": "https://dc.lft.to/lastmile_qr_scan", "ios": "https://dc.lft.to/lastmile_qr_scan"}, "name": "f6d5ccc1e0bece4e41ef17c94f65e6f2", "is_reserved": 0}, {"is_disabled": 0, "fusion_lon": 0.0, "fusion_lat": 0.0, "lat": 38.9262105, "type": "electric_scooter", "lon": -77.04196416666667, "bike_id": "bba6c09d4cf91a937a96b3bb074a3d57", "rental_uris": {"android": "https://dc.lft.to/lastmile_qr_scan", "ios": "https://dc.lft.to/lastmile_qr_scan"}, "name": "bba6c09d4cf91a937a96b3bb074a3d57", "is_reserved": 0}, {"is_disabled": 0, "fusion_lon": 0.0, "fusion_lat": 0.0, "lat": 38.9445235, "type": "electric_scooter", "lon": -77.060216, "bike_id": "2f3c02090a2c19cf4e4493c8b0f72f3e", "rental_uris": {"android": "https://dc.lft.to/lastmile_qr_scan", "ios": "https://dc.lft.to/lastmile_qr_scan"}, "name": "2f3c02090a2c19cf4e4493c8b0f72f3e", "is_reserved": 0}, {"is_disabled": 0, "fusion_lon": 0.0, "fusion_lat": 0.0, "lat": 38.99668233333333, "type": "electric_bike", "lon": -76.99144283333334, "bike_id": "fe78ad66e1aa1b74e43acd4b92bb2e42", "rental_uris": {"android": "https://dc.lft.to/lastmile_qr_scan", "ios": "https://dc.lft.to/lastmile_qr_scan"}, "name": "fe78ad66e1aa1b74e43acd4b92bb2e42", "is_reserved": 0}, {"is_disabled": 0, "fusion_lon": 0.0, "fusion_lat": 0.0, "lat": 38.876817, "type": "electric_scooter", "lon": -77.01787533333334, "bike_id": "a705b35fcd3396825fbd4bf2063c9cdc", "rental_uris": {"android": "https://dc.lft.to/lastmile_qr_scan", "ios": "https://dc.lft.to/lastmile_qr_scan"}, "name": "a705b35fcd3396825fbd4bf2063c9cdc", "is_reserved": 0}, {"is_disabled": 0, "fusion_lon": 0.0, "fusion_lat": 0.0, "lat": 38.90576733333333, "type": "electric_scooter", "lon": -77.0465175, "bike_id": "42657cc6fb1712e285b22c9336f684f9", "rental_uris": {"android": "https://dc.lft.to/lastmile_qr_scan", "ios": "https://dc.lft.to/lastmile_qr_scan"}, "name": "42657cc6fb1712e285b22c9336f684f9", "is_reserved": 0}, {"is_disabled": 0, "fusion_lon": 0.0, "fusion_lat": 0.0, "lat": 38.92583616666667, "type": "electric_scooter", "lon": -77.02872933333333, "bike_id": "ec4b6c24bfb599fabd3bcb4bd2f1d8ef", "rental_uris": {"android": "https://dc.lft.to/lastmile_qr_scan", "ios": "https://dc.lft.to/lastmile_qr_scan"}, "name": "ec4b6c24bfb599fabd3bcb4bd2f1d8ef", "is_reserved": 0}, {"is_disabled": 0, "fusion_lon": 0.0, "fusion_lat": 0.0, "lat": 38.918207333333335, "type": "electric_scooter", "lon": -77.024023, "bike_id": "db583bc066e9fc0a138092a6810cc03f", "rental_uris": {"android": "https://dc.lft.to/lastmile_qr_scan", "ios": "https://dc.lft.to/lastmile_qr_scan"}, "name": "db583bc066e9fc0a138092a6810cc03f", "is_reserved": 0}, {"is_disabled": 0, "fusion_lon": 0.0, "fusion_lat": 0.0, "lat": 38.92825333333333, "type": "electric_scooter", "lon": -77.022584, "bike_id": "0665290a8b545c94b82d89fc27d67aa4", "rental_uris": {"android": "https://dc.lft.to/lastmile_qr_scan", "ios": "https://dc.lft.to/lastmile_qr_scan"}, "name": "0665290a8b545c94b82d89fc27d67aa4", "is_reserved": 0}, {"is_disabled": 0, "fusion_lon": 0.0, "fusion_lat": 0.0, "lat": 38.906673833333336, "type": "electric_scooter", "lon": -77.02710933333333, "bike_id": "3d5ec38425d761111ce34f9b02ac2200", "rental_uris": {"android": "https://dc.lft.to/lastmile_qr_scan", "ios": "https://dc.lft.to/lastmile_qr_scan"}, "name": "3d5ec38425d761111ce34f9b02ac2200", "is_reserved": 0}, {"is_disabled": 0, "fusion_lon": 0.0, "fusion_lat": 0.0, "lat": 38.931111, "type": "electric_scooter", "lon": -77.03492966666667, "bike_id": "be041545d277409b3a6f90d08e6d9822", "rental_uris": {"android": "https://dc.lft.to/lastmile_qr_scan", "ios": "https://dc.lft.to/lastmile_qr_scan"}, "name": "be041545d277409b3a6f90d08e6d9822", "is_reserved": 0}, {"is_disabled": 0, "fusion_lon": 0.0, "fusion_lat": 0.0, "lat": 38.887248666666665, "type": "electric_scooter", "lon": -77.02824533333333, "bike_id": "ec5be6ca90a7a2f27fc64ddf14c02cb3", "rental_uris": {"android": "https://dc.lft.to/lastmile_qr_scan", "ios": "https://dc.lft.to/lastmile_qr_scan"}, "name": "ec5be6ca90a7a2f27fc64ddf14c02cb3", "is_reserved": 0}, {"is_disabled": 0, "fusion_lon": 0.0, "fusion_lat": 0.0, "lat": 38.93204083333333, "type": "electric_scooter", "lon": -77.03675216666667, "bike_id": "1e1ebb2db2a5069c091fdf0fa447395b", "rental_uris": {"android": "https://dc.lft.to/lastmile_qr_scan", "ios": "https://dc.lft.to/lastmile_qr_scan"}, "name": "1e1ebb2db2a5069c091fdf0fa447395b", "is_reserved": 0}, {"is_disabled": 0, "fusion_lon": 0.0, "fusion_lat": 0.0, "lat": 38.89617766666667, "type": "electric_scooter", "lon": -76.99638616666667, "bike_id": "8f60bfb6308f20f528db7c2d07116c75", "rental_uris": {"android": "https://dc.lft.to/lastmile_qr_scan", "ios": "https://dc.lft.to/lastmile_qr_scan"}, "name": "8f60bfb6308f20f528db7c2d07116c75", "is_reserved": 0}, {"is_disabled": 0, "fusion_lon": 0.0, "fusion_lat": 0.0, "lat": 38.91285116666667, "type": "electric_scooter", "lon": -77.0140145, "bike_id": "9db277a2826bad309cad7faa74aad91b", "rental_uris": {"android": "https://dc.lft.to/lastmile_qr_scan", "ios": "https://dc.lft.to/lastmile_qr_scan"}, "name": "9db277a2826bad309cad7faa74aad91b", "is_reserved": 0}, {"is_disabled": 0, "fusion_lon": 0.0, "fusion_lat": 0.0, "lat": 38.91872266666667, "type": "electric_scooter", "lon": -77.04432816666667, "bike_id": "55a678e424549624ead88b03932caa05", "rental_uris": {"android": "https://dc.lft.to/lastmile_qr_scan", "ios": "https://dc.lft.to/lastmile_qr_scan"}, "name": "55a678e424549624ead88b03932caa05", "is_reserved": 0}, {"is_disabled": 0, "fusion_lon": 0.0, "fusion_lat": 0.0, "lat": 38.9081635, "type": "electric_scooter", "lon": -77.03406566666666, "bike_id": "89801bbb8d31f168f3c422362f73abc2", "rental_uris": {"android": "https://dc.lft.to/lastmile_qr_scan", "ios": "https://dc.lft.to/lastmile_qr_scan"}, "name": "89801bbb8d31f168f3c422362f73abc2", "is_reserved": 0}, {"is_disabled": 0, "fusion_lon": 0.0, "fusion_lat": 0.0, "lat": 38.94783566666667, "type": "electric_scooter", "lon": -77.09281083333333, "bike_id": "c2a0d0f8dfeaa9d3a604f0d2c7309141", "rental_uris": {"android": "https://dc.lft.to/lastmile_qr_scan", "ios": "https://dc.lft.to/lastmile_qr_scan"}, "name": "c2a0d0f8dfeaa9d3a604f0d2c7309141", "is_reserved": 0}, {"is_disabled": 0, "fusion_lon": 0.0, "fusion_lat": 0.0, "lat": 38.918727, "type": "electric_bike", "lon": -76.96125116666667, "bike_id": "ca1f4d2fa700865cdce388ff81ec9aa5", "rental_uris": {"android": "https://dc.lft.to/lastmile_qr_scan", "ios": "https://dc.lft.to/lastmile_qr_scan"}, "name": "ca1f4d2fa700865cdce388ff81ec9aa5", "is_reserved": 0}, {"is_disabled": 0, "fusion_lon": 0.0, "fusion_lat": 0.0, "lat": 38.91923416666667, "type": "electric_scooter", "lon": -77.034161, "bike_id": "ccb8071cad68e24d20401d5d892cdb6b", "rental_uris": {"android": "https://dc.lft.to/lastmile_qr_scan", "ios": "https://dc.lft.to/lastmile_qr_scan"}, "name": "ccb8071cad68e24d20401d5d892cdb6b", "is_reserved": 0}, {"is_disabled": 0, "fusion_lon": 0.0, "fusion_lat": 0.0, "lat": 38.920579333333336, "type": "electric_scooter", "lon": -77.01802783333333, "bike_id": "78792b94248ecd161aa314d1e2e8fe24", "rental_uris": {"android": "https://dc.lft.to/lastmile_qr_scan", "ios": "https://dc.lft.to/lastmile_qr_scan"}, "name": "78792b94248ecd161aa314d1e2e8fe24", "is_reserved": 0}, {"is_disabled": 0, "fusion_lon": 0.0, "fusion_lat": 0.0, "lat": 38.86591333333333, "type": "electric_scooter", "lon": -76.990509, "bike_id": "611c88f9224880b2ac6c22bb014739ec", "rental_uris": {"android": "https://dc.lft.to/lastmile_qr_scan", "ios": "https://dc.lft.to/lastmile_qr_scan"}, "name": "611c88f9224880b2ac6c22bb014739ec", "is_reserved": 0}, {"is_disabled": 0, "fusion_lon": 0.0, "fusion_lat": 0.0, "lat": 38.91925533333333, "type": "electric_scooter", "lon": -77.03421116666667, "bike_id": "9aca80c450e68a24c6c306141a30b9cd", "rental_uris": {"android": "https://dc.lft.to/lastmile_qr_scan", "ios": "https://dc.lft.to/lastmile_qr_scan"}, "name": "9aca80c450e68a24c6c306141a30b9cd", "is_reserved": 0}, {"is_disabled": 0, "fusion_lon": 0.0, "fusion_lat": 0.0, "lat": 38.905468666666664, "type": "electric_scooter", "lon": -77.04642883333334, "bike_id": "921d7e44dbf8392c473e9c861a4c7936", "rental_uris": {"android": "https://dc.lft.to/lastmile_qr_scan", "ios": "https://dc.lft.to/lastmile_qr_scan"}, "name": "921d7e44dbf8392c473e9c861a4c7936", "is_reserved": 0}, {"is_disabled": 0, "fusion_lon": 0.0, "fusion_lat": 0.0, "lat": 38.901799, "type": "electric_scooter", "lon": -76.92831616666666, "bike_id": "6541d79a6353c237a9f2bad1b1449737", "rental_uris": {"android": "https://dc.lft.to/lastmile_qr_scan", "ios": "https://dc.lft.to/lastmile_qr_scan"}, "name": "6541d79a6353c237a9f2bad1b1449737", "is_reserved": 0}, {"is_disabled": 0, "fusion_lon": 0.0, "fusion_lat": 0.0, "lat": 38.918170833333335, "type": "electric_scooter", "lon": -77.03808283333333, "bike_id": "50108433252f52aa87e2162544a48f3c", "rental_uris": {"android": "https://dc.lft.to/lastmile_qr_scan", "ios": "https://dc.lft.to/lastmile_qr_scan"}, "name": "50108433252f52aa87e2162544a48f3c", "is_reserved": 0}, {"is_disabled": 0, "fusion_lon": 0.0, "fusion_lat": 0.0, "lat": 38.90732666666667, "type": "electric_scooter", "lon": -77.007645, "bike_id": "e7aca3874fcc42d59467b896a612ec9a", "rental_uris": {"android": "https://dc.lft.to/lastmile_qr_scan", "ios": "https://dc.lft.to/lastmile_qr_scan"}, "name": "e7aca3874fcc42d59467b896a612ec9a", "is_reserved": 0}, {"is_disabled": 0, "fusion_lon": 0.0, "fusion_lat": 0.0, "lat": 38.94180166666666, "type": "electric_scooter", "lon": -77.03658066666667, "bike_id": "223c53b9fe5eed21f52cf894e8edf990", "rental_uris": {"android": "https://dc.lft.to/lastmile_qr_scan", "ios": "https://dc.lft.to/lastmile_qr_scan"}, "name": "223c53b9fe5eed21f52cf894e8edf990", "is_reserved": 0}, {"is_disabled": 0, "fusion_lon": 0.0, "fusion_lat": 0.0, "lat": 38.95645433333333, "type": "electric_scooter", "lon": -77.01496766666666, "bike_id": "c488f22d154eda6cdf82fcedc90c91a3", "rental_uris": {"android": "https://dc.lft.to/lastmile_qr_scan", "ios": "https://dc.lft.to/lastmile_qr_scan"}, "name": "c488f22d154eda6cdf82fcedc90c91a3", "is_reserved": 0}, {"is_disabled": 0, "fusion_lon": 0.0, "fusion_lat": 0.0, "lat": 38.929046666666665, "type": "electric_scooter", "lon": -77.03176366666666, "bike_id": "729693fd8f600014b951ccee52954eaf", "rental_uris": {"android": "https://dc.lft.to/lastmile_qr_scan", "ios": "https://dc.lft.to/lastmile_qr_scan"}, "name": "729693fd8f600014b951ccee52954eaf", "is_reserved": 0}, {"is_disabled": 0, "fusion_lon": 0.0, "fusion_lat": 0.0, "lat": 38.9071695, "type": "electric_scooter", "lon": -77.02961116666667, "bike_id": "2bbc691d63b2c31dcba09af2df56a07b", "rental_uris": {"android": "https://dc.lft.to/lastmile_qr_scan", "ios": "https://dc.lft.to/lastmile_qr_scan"}, "name": "2bbc691d63b2c31dcba09af2df56a07b", "is_reserved": 0}, {"is_disabled": 0, "fusion_lon": 0.0, "fusion_lat": 0.0, "lat": 38.9289795, "type": "electric_scooter", "lon": -77.0240785, "bike_id": "dba28040e834735a5017b8e9f8f2bea0", "rental_uris": {"android": "https://dc.lft.to/lastmile_qr_scan", "ios": "https://dc.lft.to/lastmile_qr_scan"}, "name": "dba28040e834735a5017b8e9f8f2bea0", "is_reserved": 0}, {"is_disabled": 0, "fusion_lon": 0.0, "fusion_lat": 0.0, "lat": 38.92538066666667, "type": "electric_scooter", "lon": -77.07340183333334, "bike_id": "8868e10b374711b0c64ce23f6b951296", "rental_uris": {"android": "https://dc.lft.to/lastmile_qr_scan", "ios": "https://dc.lft.to/lastmile_qr_scan"}, "name": "8868e10b374711b0c64ce23f6b951296", "is_reserved": 0}, {"is_disabled": 0, "fusion_lon": 0.0, "fusion_lat": 0.0, "lat": 38.896521666666665, "type": "electric_scooter", "lon": -77.04334383333334, "bike_id": "41631e013ddd2857d9ae54494f0429e2", "rental_uris": {"android": "https://dc.lft.to/lastmile_qr_scan", "ios": "https://dc.lft.to/lastmile_qr_scan"}, "name": "41631e013ddd2857d9ae54494f0429e2", "is_reserved": 0}, {"is_disabled": 0, "fusion_lon": 0.0, "fusion_lat": 0.0, "lat": 38.95691633333333, "type": "electric_scooter", "lon": -77.023973, "bike_id": "5320ea415239299052d1206fdde9a166", "rental_uris": {"android": "https://dc.lft.to/lastmile_qr_scan", "ios": "https://dc.lft.to/lastmile_qr_scan"}, "name": "5320ea415239299052d1206fdde9a166", "is_reserved": 0}, {"is_disabled": 0, "fusion_lon": 0.0, "fusion_lat": 0.0, "lat": 38.897747333333335, "type": "electric_scooter", "lon": -77.02472566666667, "bike_id": "20847769825bd3c5b8c11b17b46f36c6", "rental_uris": {"android": "https://dc.lft.to/lastmile_qr_scan", "ios": "https://dc.lft.to/lastmile_qr_scan"}, "name": "20847769825bd3c5b8c11b17b46f36c6", "is_reserved": 0}, {"is_disabled": 0, "fusion_lon": 0.0, "fusion_lat": 0.0, "lat": 38.876836833333336, "type": "electric_bike", "lon": -77.014809, "bike_id": "96ca67efcf7d8f75bda1c14a38f2553d", "rental_uris": {"android": "https://dc.lft.to/lastmile_qr_scan", "ios": "https://dc.lft.to/lastmile_qr_scan"}, "name": "96ca67efcf7d8f75bda1c14a38f2553d", "is_reserved": 0}, {"is_disabled": 0, "fusion_lon": 0.0, "fusion_lat": 0.0, "lat": 38.90287683333333, "type": "electric_scooter", "lon": -77.04879516666666, "bike_id": "753d6199c3acea37b3d1027e28f1b0c5", "rental_uris": {"android": "https://dc.lft.to/lastmile_qr_scan", "ios": "https://dc.lft.to/lastmile_qr_scan"}, "name": "753d6199c3acea37b3d1027e28f1b0c5", "is_reserved": 0}, {"is_disabled": 0, "fusion_lon": 0.0, "fusion_lat": 0.0, "lat": 38.91464416666667, "type": "electric_scooter", "lon": -76.984485, "bike_id": "60c8e97842a3040a55c2e194672c669f", "rental_uris": {"android": "https://dc.lft.to/lastmile_qr_scan", "ios": "https://dc.lft.to/lastmile_qr_scan"}, "name": "60c8e97842a3040a55c2e194672c669f", "is_reserved": 0}, {"is_disabled": 0, "fusion_lon": 0.0, "fusion_lat": 0.0, "lat": 38.94069266666666, "type": "electric_scooter", "lon": -77.028788, "bike_id": "b85126cf1fafa10ad1d041f9489f3570", "rental_uris": {"android": "https://dc.lft.to/lastmile_qr_scan", "ios": "https://dc.lft.to/lastmile_qr_scan"}, "name": "b85126cf1fafa10ad1d041f9489f3570", "is_reserved": 0}, {"is_disabled": 0, "fusion_lon": 0.0, "fusion_lat": 0.0, "lat": 38.895370666666665, "type": "electric_scooter", "lon": -77.04854183333333, "bike_id": "7d445c17c3bfc2ecbc823922d323b5b5", "rental_uris": {"android": "https://dc.lft.to/lastmile_qr_scan", "ios": "https://dc.lft.to/lastmile_qr_scan"}, "name": "7d445c17c3bfc2ecbc823922d323b5b5", "is_reserved": 0}, {"is_disabled": 0, "fusion_lon": 0.0, "fusion_lat": 0.0, "lat": 38.907268333333334, "type": "electric_scooter", "lon": -77.029759, "bike_id": "7d1f6a7ccb67a72534e2deb800add9ab", "rental_uris": {"android": "https://dc.lft.to/lastmile_qr_scan", "ios": "https://dc.lft.to/lastmile_qr_scan"}, "name": "7d1f6a7ccb67a72534e2deb800add9ab", "is_reserved": 0}, {"is_disabled": 0, "fusion_lon": 0.0, "fusion_lat": 0.0, "lat": 38.92106066666667, "type": "electric_scooter", "lon": -77.01772783333334, "bike_id": "27a071e09beeab9b0ac8ff30b8206f92", "rental_uris": {"android": "https://dc.lft.to/lastmile_qr_scan", "ios": "https://dc.lft.to/lastmile_qr_scan"}, "name": "27a071e09beeab9b0ac8ff30b8206f92", "is_reserved": 0}, {"is_disabled": 0, "fusion_lon": 0.0, "fusion_lat": 0.0, "lat": 38.853188833333334, "type": "electric_bike", "lon": -77.0533645, "bike_id": "253e19a2fd88a1bf8db0e501d861b717", "rental_uris": {"android": "https://dc.lft.to/lastmile_qr_scan", "ios": "https://dc.lft.to/lastmile_qr_scan"}, "name": "253e19a2fd88a1bf8db0e501d861b717", "is_reserved": 0}, {"is_disabled": 0, "fusion_lon": 0.0, "fusion_lat": 0.0, "lat": 38.8775755, "type": "electric_bike", "lon": -76.9799755, "bike_id": "ff2f9c5381ec55466ff1619594212b36", "rental_uris": {"android": "https://dc.lft.to/lastmile_qr_scan", "ios": "https://dc.lft.to/lastmile_qr_scan"}, "name": "ff2f9c5381ec55466ff1619594212b36", "is_reserved": 0}, {"is_disabled": 0, "fusion_lon": 0.0, "fusion_lat": 0.0, "lat": 38.939681, "type": "electric_bike", "lon": -77.360944, "bike_id": "a9beefbd0b9e3d66fb4505d2c2edae92", "rental_uris": {"android": "https://dc.lft.to/lastmile_qr_scan", "ios": "https://dc.lft.to/lastmile_qr_scan"}, "name": "a9beefbd0b9e3d66fb4505d2c2edae92", "is_reserved": 0}, {"is_disabled": 0, "fusion_lon": 0.0, "fusion_lat": 0.0, "lat": 38.9257295, "type": "electric_scooter", "lon": -77.08063783333333, "bike_id": "14e1072e980b9ed939d65e05547a117f", "rental_uris": {"android": "https://dc.lft.to/lastmile_qr_scan", "ios": "https://dc.lft.to/lastmile_qr_scan"}, "name": "14e1072e980b9ed939d65e05547a117f", "is_reserved": 0}, {"is_disabled": 0, "fusion_lon": 0.0, "fusion_lat": 0.0, "lat": 38.92467233333333, "type": "electric_scooter", "lon": -77.07868016666667, "bike_id": "d04421398a39f77e35066c974e58954e", "rental_uris": {"android": "https://dc.lft.to/lastmile_qr_scan", "ios": "https://dc.lft.to/lastmile_qr_scan"}, "name": "d04421398a39f77e35066c974e58954e", "is_reserved": 0}, {"is_disabled": 0, "fusion_lon": 0.0, "fusion_lat": 0.0, "lat": 38.905771, "type": "electric_scooter", "lon": -77.055926, "bike_id": "f58a68af498f0d7698af8d6b738942b7", "rental_uris": {"android": "https://dc.lft.to/lastmile_qr_scan", "ios": "https://dc.lft.to/lastmile_qr_scan"}, "name": "f58a68af498f0d7698af8d6b738942b7", "is_reserved": 0}, {"is_disabled": 0, "fusion_lon": 0.0, "fusion_lat": 0.0, "lat": 38.92284016666667, "type": "electric_scooter", "lon": -77.04465933333333, "bike_id": "ac723c28b1987a7f26aa04837a25ee29", "rental_uris": {"android": "https://dc.lft.to/lastmile_qr_scan", "ios": "https://dc.lft.to/lastmile_qr_scan"}, "name": "ac723c28b1987a7f26aa04837a25ee29", "is_reserved": 0}, {"is_disabled": 0, "fusion_lon": 0.0, "fusion_lat": 0.0, "lat": 38.894107166666664, "type": "electric_scooter", "lon": -77.01088116666666, "bike_id": "9468456503164b133fd508060cbfc755", "rental_uris": {"android": "https://dc.lft.to/lastmile_qr_scan", "ios": "https://dc.lft.to/lastmile_qr_scan"}, "name": "9468456503164b133fd508060cbfc755", "is_reserved": 0}, {"is_disabled": 0, "fusion_lon": 0.0, "fusion_lat": 0.0, "lat": 38.92583833333333, "type": "electric_scooter", "lon": -77.03216466666667, "bike_id": "1cebfeda4db4f57759ec353374245ac9", "rental_uris": {"android": "https://dc.lft.to/lastmile_qr_scan", "ios": "https://dc.lft.to/lastmile_qr_scan"}, "name": "1cebfeda4db4f57759ec353374245ac9", "is_reserved": 0}, {"is_disabled": 0, "fusion_lon": 0.0, "fusion_lat": 0.0, "lat": 38.92069033333333, "type": "electric_scooter", "lon": -77.04380666666667, "bike_id": "e8d5e18bd95231caede2e46f444de915", "rental_uris": {"android": "https://dc.lft.to/lastmile_qr_scan", "ios": "https://dc.lft.to/lastmile_qr_scan"}, "name": "e8d5e18bd95231caede2e46f444de915", "is_reserved": 0}, {"is_disabled": 0, "fusion_lon": 0.0, "fusion_lat": 0.0, "lat": 38.810279333333334, "type": "electric_bike", "lon": -77.08437883333333, "bike_id": "9736a1c9dec4ffd1b9e6a8156f1acd98", "rental_uris": {"android": "https://dc.lft.to/lastmile_qr_scan", "ios": "https://dc.lft.to/lastmile_qr_scan"}, "name": "9736a1c9dec4ffd1b9e6a8156f1acd98", "is_reserved": 0}, {"is_disabled": 0, "fusion_lon": 0.0, "fusion_lat": 0.0, "lat": 38.9232985, "type": "electric_scooter", "lon": -77.04192983333333, "bike_id": "f32c6d41dd3052fd23e47f809974e52b", "rental_uris": {"android": "https://dc.lft.to/lastmile_qr_scan", "ios": "https://dc.lft.to/lastmile_qr_scan"}, "name": "f32c6d41dd3052fd23e47f809974e52b", "is_reserved": 0}, {"is_disabled": 0, "fusion_lon": 0.0, "fusion_lat": 0.0, "lat": 38.86958283333333, "type": "electric_scooter", "lon": -76.96035816666667, "bike_id": "916e8855c0ebab3a6a5939e066f0bdd1", "rental_uris": {"android": "https://dc.lft.to/lastmile_qr_scan", "ios": "https://dc.lft.to/lastmile_qr_scan"}, "name": "916e8855c0ebab3a6a5939e066f0bdd1", "is_reserved": 0}, {"is_disabled": 0, "fusion_lon": 0.0, "fusion_lat": 0.0, "lat": 38.91936533333333, "type": "electric_bike", "lon": -76.97503266666666, "bike_id": "74f4a08b558c50171a103ace045d3a2e", "rental_uris": {"android": "https://dc.lft.to/lastmile_qr_scan", "ios": "https://dc.lft.to/lastmile_qr_scan"}, "name": "74f4a08b558c50171a103ace045d3a2e", "is_reserved": 0}, {"is_disabled": 0, "fusion_lon": 0.0, "fusion_lat": 0.0, "lat": 38.900429833333334, "type": "electric_scooter", "lon": -77.0335615, "bike_id": "bac73b356dc0e390ae63cca4038fee4a", "rental_uris": {"android": "https://dc.lft.to/lastmile_qr_scan", "ios": "https://dc.lft.to/lastmile_qr_scan"}, "name": "bac73b356dc0e390ae63cca4038fee4a", "is_reserved": 0}, {"is_disabled": 0, "fusion_lon": 0.0, "fusion_lat": 0.0, "lat": 38.9096605, "type": "electric_scooter", "lon": -77.02376933333333, "bike_id": "c5a29bb7f0ca3d1c03cc7482c0077ca1", "rental_uris": {"android": "https://dc.lft.to/lastmile_qr_scan", "ios": "https://dc.lft.to/lastmile_qr_scan"}, "name": "c5a29bb7f0ca3d1c03cc7482c0077ca1", "is_reserved": 0}, {"is_disabled": 0, "fusion_lon": 0.0, "fusion_lat": 0.0, "lat": 38.905320833333334, "type": "electric_scooter", "lon": -77.06522416666667, "bike_id": "6f66ba22c4c259e1216816912b73c9d8", "rental_uris": {"android": "https://dc.lft.to/lastmile_qr_scan", "ios": "https://dc.lft.to/lastmile_qr_scan"}, "name": "6f66ba22c4c259e1216816912b73c9d8", "is_reserved": 0}, {"is_disabled": 0, "fusion_lon": 0.0, "fusion_lat": 0.0, "lat": 38.91895783333333, "type": "electric_scooter", "lon": -77.07119466666667, "bike_id": "c664bb8bf3039f73bba9fcf414e43410", "rental_uris": {"android": "https://dc.lft.to/lastmile_qr_scan", "ios": "https://dc.lft.to/lastmile_qr_scan"}, "name": "c664bb8bf3039f73bba9fcf414e43410", "is_reserved": 0}, {"is_disabled": 0, "fusion_lon": 0.0, "fusion_lat": 0.0, "lat": 38.943016, "type": "electric_scooter", "lon": -77.02762366666667, "bike_id": "22bf2e8fb71de2d5207ea25c68e5fc8f", "rental_uris": {"android": "https://dc.lft.to/lastmile_qr_scan", "ios": "https://dc.lft.to/lastmile_qr_scan"}, "name": "22bf2e8fb71de2d5207ea25c68e5fc8f", "is_reserved": 0}, {"is_disabled": 0, "fusion_lon": 0.0, "fusion_lat": 0.0, "lat": 38.893950333333336, "type": "electric_scooter", "lon": -76.94996333333333, "bike_id": "82bc6b5f9a5f58ed460c8fe3a035b297", "rental_uris": {"android": "https://dc.lft.to/lastmile_qr_scan", "ios": "https://dc.lft.to/lastmile_qr_scan"}, "name": "82bc6b5f9a5f58ed460c8fe3a035b297", "is_reserved": 0}, {"is_disabled": 0, "fusion_lon": 0.0, "fusion_lat": 0.0, "lat": 38.91191583333333, "type": "electric_scooter", "lon": -77.03710316666667, "bike_id": "2182afdbe2cdb8ddb681ac56a184aec9", "rental_uris": {"android": "https://dc.lft.to/lastmile_qr_scan", "ios": "https://dc.lft.to/lastmile_qr_scan"}, "name": "2182afdbe2cdb8ddb681ac56a184aec9", "is_reserved": 0}, {"is_disabled": 0, "fusion_lon": 0.0, "fusion_lat": 0.0, "lat": 38.908498333333334, "type": "electric_scooter", "lon": -77.0205865, "bike_id": "7d5950e19633a5a7de383d93f327080e", "rental_uris": {"android": "https://dc.lft.to/lastmile_qr_scan", "ios": "https://dc.lft.to/lastmile_qr_scan"}, "name": "7d5950e19633a5a7de383d93f327080e", "is_reserved": 0}, {"is_disabled": 0, "fusion_lon": 0.0, "fusion_lat": 0.0, "lat": 38.9125475, "type": "electric_scooter", "lon": -77.0368185, "bike_id": "4cc84d127f3b983ace491fcb89e9ad5f", "rental_uris": {"android": "https://dc.lft.to/lastmile_qr_scan", "ios": "https://dc.lft.to/lastmile_qr_scan"}, "name": "4cc84d127f3b983ace491fcb89e9ad5f", "is_reserved": 0}, {"is_disabled": 0, "fusion_lon": 0.0, "fusion_lat": 0.0, "lat": 38.90524116666667, "type": "electric_scooter", "lon": -77.067876, "bike_id": "7e24a4c18c6afdd2e2d70c93a13f73c3", "rental_uris": {"android": "https://dc.lft.to/lastmile_qr_scan", "ios": "https://dc.lft.to/lastmile_qr_scan"}, "name": "7e24a4c18c6afdd2e2d70c93a13f73c3", "is_reserved": 0}, {"is_disabled": 0, "fusion_lon": 0.0, "fusion_lat": 0.0, "lat": 38.90558166666667, "type": "electric_scooter", "lon": -77.04345683333334, "bike_id": "016f02d7f9c7832042b803ebf28c419e", "rental_uris": {"android": "https://dc.lft.to/lastmile_qr_scan", "ios": "https://dc.lft.to/lastmile_qr_scan"}, "name": "016f02d7f9c7832042b803ebf28c419e", "is_reserved": 0}, {"is_disabled": 0, "fusion_lon": 0.0, "fusion_lat": 0.0, "lat": 38.89800616666667, "type": "electric_scooter", "lon": -77.02961433333333, "bike_id": "b836a2e443fca55d7d0251e65bd5278a", "rental_uris": {"android": "https://dc.lft.to/lastmile_qr_scan", "ios": "https://dc.lft.to/lastmile_qr_scan"}, "name": "b836a2e443fca55d7d0251e65bd5278a", "is_reserved": 0}, {"is_disabled": 0, "fusion_lon": 0.0, "fusion_lat": 0.0, "lat": 38.90266, "type": "electric_scooter", "lon": -77.00213116666667, "bike_id": "784515adedd3b1ba3c54c9826cbf14cb", "rental_uris": {"android": "https://dc.lft.to/lastmile_qr_scan", "ios": "https://dc.lft.to/lastmile_qr_scan"}, "name": "784515adedd3b1ba3c54c9826cbf14cb", "is_reserved": 0}, {"is_disabled": 0, "fusion_lon": 0.0, "fusion_lat": 0.0, "lat": 38.925809666666666, "type": "electric_scooter", "lon": -77.0320905, "bike_id": "086f79e71ebc2359145de7b5871726d8", "rental_uris": {"android": "https://dc.lft.to/lastmile_qr_scan", "ios": "https://dc.lft.to/lastmile_qr_scan"}, "name": "086f79e71ebc2359145de7b5871726d8", "is_reserved": 0}, {"is_disabled": 0, "fusion_lon": 0.0, "fusion_lat": 0.0, "lat": 38.892056333333336, "type": "electric_scooter", "lon": -76.98812283333334, "bike_id": "8cbe06b1ed7fb42d24a8acfd89b927bc", "rental_uris": {"android": "https://dc.lft.to/lastmile_qr_scan", "ios": "https://dc.lft.to/lastmile_qr_scan"}, "name": "8cbe06b1ed7fb42d24a8acfd89b927bc", "is_reserved": 0}, {"is_disabled": 0, "fusion_lon": 0.0, "fusion_lat": 0.0, "lat": 38.914790833333335, "type": "electric_scooter", "lon": -77.0347235, "bike_id": "3eb69a4ce0faefefae7edcf104f24236", "rental_uris": {"android": "https://dc.lft.to/lastmile_qr_scan", "ios": "https://dc.lft.to/lastmile_qr_scan"}, "name": "3eb69a4ce0faefefae7edcf104f24236", "is_reserved": 0}, {"is_disabled": 0, "fusion_lon": 0.0, "fusion_lat": 0.0, "lat": 38.911082666666665, "type": "electric_scooter", "lon": -77.0660235, "bike_id": "2ad8058559692e927fad3d4bef72be4d", "rental_uris": {"android": "https://dc.lft.to/lastmile_qr_scan", "ios": "https://dc.lft.to/lastmile_qr_scan"}, "name": "2ad8058559692e927fad3d4bef72be4d", "is_reserved": 0}, {"is_disabled": 0, "fusion_lon": 0.0, "fusion_lat": 0.0, "lat": 38.92364583333333, "type": "electric_scooter", "lon": -77.02804683333333, "bike_id": "55bc9ca1803db1a43e9f07f04ff39380", "rental_uris": {"android": "https://dc.lft.to/lastmile_qr_scan", "ios": "https://dc.lft.to/lastmile_qr_scan"}, "name": "55bc9ca1803db1a43e9f07f04ff39380", "is_reserved": 0}, {"is_disabled": 0, "fusion_lon": 0.0, "fusion_lat": 0.0, "lat": 39.088422333333334, "type": "electric_bike", "lon": -77.17802333333333, "bike_id": "73f41dcde28c20808bf07038c7f78d3f", "rental_uris": {"android": "https://dc.lft.to/lastmile_qr_scan", "ios": "https://dc.lft.to/lastmile_qr_scan"}, "name": "73f41dcde28c20808bf07038c7f78d3f", "is_reserved": 0}, {"is_disabled": 0, "fusion_lon": 0.0, "fusion_lat": 0.0, "lat": 38.923723333333335, "type": "electric_scooter", "lon": -77.0313495, "bike_id": "eda6860882068b3871a31e1dccf88104", "rental_uris": {"android": "https://dc.lft.to/lastmile_qr_scan", "ios": "https://dc.lft.to/lastmile_qr_scan"}, "name": "eda6860882068b3871a31e1dccf88104", "is_reserved": 0}, {"is_disabled": 0, "fusion_lon": 0.0, "fusion_lat": 0.0, "lat": 38.913368, "type": "electric_scooter", "lon": -77.03265416666666, "bike_id": "b59dc36e6027383950d83d91902e2ab4", "rental_uris": {"android": "https://dc.lft.to/lastmile_qr_scan", "ios": "https://dc.lft.to/lastmile_qr_scan"}, "name": "b59dc36e6027383950d83d91902e2ab4", "is_reserved": 0}, {"is_disabled": 0, "fusion_lon": 0.0, "fusion_lat": 0.0, "lat": 38.884391666666666, "type": "electric_scooter", "lon": -76.95404633333334, "bike_id": "6931be3109a7c3c6676eea79f60c2803", "rental_uris": {"android": "https://dc.lft.to/lastmile_qr_scan", "ios": "https://dc.lft.to/lastmile_qr_scan"}, "name": "6931be3109a7c3c6676eea79f60c2803", "is_reserved": 0}, {"is_disabled": 0, "fusion_lon": 0.0, "fusion_lat": 0.0, "lat": 38.934966833333334, "type": "electric_scooter", "lon": -77.03282383333334, "bike_id": "eb568e0b9ae9d0cc68e5efa5a97d4450", "rental_uris": {"android": "https://dc.lft.to/lastmile_qr_scan", "ios": "https://dc.lft.to/lastmile_qr_scan"}, "name": "eb568e0b9ae9d0cc68e5efa5a97d4450", "is_reserved": 0}, {"is_disabled": 0, "fusion_lon": 0.0, "fusion_lat": 0.0, "lat": 39.003768666666666, "type": "electric_bike", "lon": -77.0128385, "bike_id": "5818ac79233fb086cce5a55020e92927", "rental_uris": {"android": "https://dc.lft.to/lastmile_qr_scan", "ios": "https://dc.lft.to/lastmile_qr_scan"}, "name": "5818ac79233fb086cce5a55020e92927", "is_reserved": 0}, {"is_disabled": 0, "fusion_lon": 0.0, "fusion_lat": 0.0, "lat": 38.907096833333334, "type": "electric_scooter", "lon": -77.02393733333334, "bike_id": "a668c56424b0828053050d650f05bf17", "rental_uris": {"android": "https://dc.lft.to/lastmile_qr_scan", "ios": "https://dc.lft.to/lastmile_qr_scan"}, "name": "a668c56424b0828053050d650f05bf17", "is_reserved": 0}, {"is_disabled": 0, "fusion_lon": 0.0, "fusion_lat": 0.0, "lat": 38.9055175, "type": "electric_scooter", "lon": -77.005583, "bike_id": "ed11b2754bdad54c0db8021986689b2e", "rental_uris": {"android": "https://dc.lft.to/lastmile_qr_scan", "ios": "https://dc.lft.to/lastmile_qr_scan"}, "name": "ed11b2754bdad54c0db8021986689b2e", "is_reserved": 0}, {"is_disabled": 0, "fusion_lon": 0.0, "fusion_lat": 0.0, "lat": 38.92432433333333, "type": "electric_scooter", "lon": -77.042529, "bike_id": "c81ed00cd91d3cceb7af78dd187662db", "rental_uris": {"android": "https://dc.lft.to/lastmile_qr_scan", "ios": "https://dc.lft.to/lastmile_qr_scan"}, "name": "c81ed00cd91d3cceb7af78dd187662db", "is_reserved": 0},