{"data": {"bikes": [{"is_reserved": 0, "type": "electric_scooter", "fusion_lat": 0.0, "is_disabled": 0, "rental_uris": {"ios": "https://dc.lft.to/lastmile_qr_scan", "android": "https://dc.lft.to/lastmile_qr_scan"}, "bike_id": "d101f3f2faea15cfd42742eb66df1bc8", "lat": 38.90129816666666, "name": "d101f3f2faea15cfd42742eb66df1bc8", "lon": -77.0382955, "fusion_lon": 0.0}, {"is_reserved": 0, "type": "electric_scooter", "fusion_lat": 0.0, "is_disabled": 0, "rental_uris": {"ios": "https://dc.lft.to/lastmile_qr_scan", "android": "https://dc.lft.to/lastmile_qr_scan"}, "bike_id": "3b431ecd673c4702d05714d0e56a6299", "lat": 38.918033, "name": "3b431ecd673c4702d05714d0e56a6299", "lon": -77.04434816666667, "fusion_lon": 0.0}, {"is_reserved": 0, "type": "electric_bike", "fusion_lat": 0.0, "is_disabled": 0, "rental_uris": {"ios": "https://dc.lft.to/lastmile_qr_scan", "android": "https://dc.lft.to/lastmile_qr_scan"}, "bike_id": "e5bd64693926f63925622bbde661c718", "lat": 38.84688033333333, "name": "e5bd64693926f63925622bbde661c718", "lon": -76.9806535, "fusion_lon": 0.0}, {"is_reserved": 0, "type": "electric_scooter", "fusion_lat": 0.0, "is_disabled": 0, "rental_uris": {"ios": "https://dc.lft.to/lastmile_qr_scan", "android": "https://dc.lft.to/lastmile_qr_scan"}, "bike_id": "f551e714ce148a9fff4b6f167af0c86f", "lat": 38.90439033333333, "name": "f551e714ce148a9fff4b6f167af0c86f", "lon": -77.0286105, "fusion_lon": 0.0}, {"is_reserved": 0, "type": "electric_scooter", "fusion_lat": 0.0, "is_disabled": 0, "rental_uris": {"ios": "https://dc.lft.to/lastmile_qr_scan", "android": "https://dc.lft.to/lastmile_qr_scan"}, "bike_id": "7151de8cb380468f1d1e63a844d0e03a", "lat": 38.92516916666667, "name": "7151de8cb380468f1d1e63a844d0e03a", "lon": -76.99845783333333, "fusion_lon": 0.0}, {"is_reserved": 0, "type": "electric_bike", "fusion_lat": 0.0, "is_disabled": 0, "rental_uris": {"ios": "https://dc.lft.to/lastmile_qr_scan", "android": "https://dc.lft.to/lastmile_qr_scan"}, "bike_id": "33a323a0c591363af71332b2bf5218f2", "lat": 38.88763816666667, "name": "33a323a0c591363af71332b2bf5218f2", "lon": -77.156529, "fusion_lon": 0.0}, {"is_reserved": 0, "type": "electric_scooter", "fusion_lat": 0.0, "is_disabled": 0, "rental_uris": {"ios": "https://dc.lft.to/lastmile_qr_scan", "android": "https://dc.lft.to/lastmile_qr_scan"}, "bike_id": "b4992c4530f3c5ee6d7f98093ecce226", "lat": 38.912946833333336, "name": "b4992c4530f3c5ee6d7f98093ecce226", "lon": -76.98690016666667, "fusion_lon": 0.0}, {"is_reserved": 0, "type": "electric_scooter", "fusion_lat": 0.0, "is_disabled": 0, "rental_uris": {"ios": "https://dc.lft.to/lastmile_qr_scan", "android": "https://dc.lft.to/lastmile_qr_scan"}, "bike_id": "515607853e8c09cc309594f3ea05138c", "lat": 38.90671866666667, "name": "515607853e8c09cc309594f3ea05138c", "lon": -77.07191866666666, "fusion_lon": 0.0}, {"is_reserved": 0, "type": "electric_scooter", "fusion_lat": 0.0, "is_disabled": 0, "rental_uris": {"ios": "https://dc.lft.to/lastmile_qr_scan", "android": "https://dc.lft.to/lastmile_qr_scan"}, "bike_id": "5ebdb1a07c7cf2b282f0e241126ea1ce", "lat": 38.908733166666664, "name": "5ebdb1a07c7cf2b282f0e241126ea1ce", "lon": -77.04337066666666, "fusion_lon": 0.0}, {"is_reserved": 0, "type": "electric_scooter", "fusion_lat": 0.0, "is_disabled": 0, "rental_uris": {"ios": "https://dc.lft.to/lastmile_qr_scan", "android": "https://dc.lft.to/lastmile_qr_scan"}, "bike_id": "48d79f33c3755dca28c23ca2c90d7844", "lat": 38.92075033333333, "name": "48d79f33c3755dca28c23ca2c90d7844", "lon": -77.04196633333333, "fusion_lon": 0.0}, {"is_reserved": 0, "type": "electric_scooter", "fusion_lat": 0.0, "is_disabled": 0, "rental_uris": {"ios": "https://dc.lft.to/lastmile_qr_scan", "android": "https://dc.lft.to/lastmile_qr_scan"}, "bike_id": "a7ef7af50a304977e71512b33f418a1d", "lat": 38.9101805, "name": "a7ef7af50a304977e71512b33f418a1d", "lon": -77.0284915, "fusion_lon": 0.0}, {"is_reserved": 0, "type": "electric_scooter", "fusion_lat": 0.0, "is_disabled": 0, "rental_uris": {"ios": "https://dc.lft.to/lastmile_qr_scan", "android": "https://dc.lft.to/lastmile_qr_scan"}, "bike_id": "27031101122f4c87136af0246c4d908d", "lat": 38.8752655, "name": "27031101122f4c87136af0246c4d908d", "lon": -77.00069866666666, "fusion_lon": 0.0}, {"is_reserved": 0, "type": "electric_scooter", "fusion_lat": 0.0, "is_disabled": 0, "rental_uris": {"ios": "https://dc.lft.to/lastmile_qr_scan", "android": "https://dc.lft.to/lastmile_qr_scan"}, "bike_id": "e1d6d0f40320cedb632f0d2aa89f7217", "lat": 38.921275, "name": "e1d6d0f40320cedb632f0d2aa89f7217", "lon": -77.04421783333333, "fusion_lon": 0.0}, {"is_reserved": 0, "type": "electric_scooter", "fusion_lat": 0.0, "is_disabled": 0, "rental_uris": {"ios": "https://dc.lft.to/lastmile_qr_scan", "android": "https://dc.lft.to/lastmile_qr_scan"}, "bike_id": "33d2fd05ded57e786a89db403f1f7475", "lat": 38.88986533333333, "name": "33d2fd05ded57e786a89db403f1f7475", "lon": -76.98820566666667, "fusion_lon": 0.0}, {"is_reserved": 0, "type": "electric_scooter", "fusion_lat": 0.0, "is_disabled": 0, "rental_uris": {"ios": "https://dc.lft.to/lastmile_qr_scan", "android": "https://dc.lft.to/lastmile_qr_scan"}, "bike_id": "72b58416085f79e23154c5b57ce9894f", "lat": 38.896259, "name": "72b58416085f79e23154c5b57ce9894f", "lon": -77.00929983333333, "fusion_lon": 0.0}, {"is_reserved": 0, "type": "electric_scooter", "fusion_lat": 0.0, "is_disabled": 0, "rental_uris": {"ios": "https://dc.lft.to/lastmile_qr_scan", "android": "https://dc.lft.to/lastmile_qr_scan"}, "bike_id": "18e3a92892fe63c1900437ccc28a2f00", "lat": 38.897117333333334, "name": "18e3a92892fe63c1900437ccc28a2f00", "lon": -77.02718283333333, "fusion_lon": 0.0}, {"is_reserved": 0, "type": "electric_scooter", "fusion_lat": 0.0, "is_disabled": 0, "rental_uris": {"ios": "https://dc.lft.to/lastmile_qr_scan", "android": "https://dc.lft.to/lastmile_qr_scan"}, "bike_id": "6607766577835fe1c7fa5e520b7340fe", "lat": 38.89322933333333, "name": "6607766577835fe1c7fa5e520b7340fe", "lon": -77.019874, "fusion_lon": 0.0}, {"is_reserved": 0, "type": "electric_scooter", "fusion_lat": 0.0, "is_disabled": 0, "rental_uris": {"ios": "https://dc.lft.to/lastmile_qr_scan", "android": "https://dc.lft.to/lastmile_qr_scan"}, "bike_id": "e53e81085fe47830d602447f93df7abd", "lat": 38.9041925, "name": "e53e81085fe47830d602447f93df7abd", "lon": -77.02059233333334, "fusion_lon": 0.0}, {"is_reserved": 0, "type": "electric_bike", "fusion_lat": 0.0, "is_disabled": 0, "rental_uris": {"ios": "https://dc.lft.to/lastmile_qr_scan", "android": "https://dc.lft.to/lastmile_qr_scan"}, "bike_id": "c2fad6b3512eabe1e215f81946ad7c68", "lat": 38.925369833333335, "name": "c2fad6b3512eabe1e215f81946ad7c68", "lon": -77.07326633333334, "fusion_lon": 0.0}, {"is_reserved": 0, "type": "electric_scooter", "fusion_lat": 0.0, "is_disabled": 0, "rental_uris": {"ios": "https://dc.lft.to/lastmile_qr_scan", "android": "https://dc.lft.to/lastmile_qr_scan"}, "bike_id": "d46e0f5c754da889f003a24ffc19070c", "lat": 38.932418, "name": "d46e0f5c754da889f003a24ffc19070c", "lon": -77.02653216666667, "fusion_lon": 0.0}, {"is_reserved": 0, "type": "electric_scooter", "fusion_lat": 0.0, "is_disabled": 0, "rental_uris": {"ios": "https://dc.lft.to/lastmile_qr_scan", "android": "https://dc.lft.to/lastmile_qr_scan"}, "bike_id": "62e4e576182ce1dd880b5be7b90158bb", "lat": 38.90698866666666, "name": "62e4e576182ce1dd880b5be7b90158bb", "lon": -76.9994345, "fusion_lon": 0.0}, {"is_reserved": 0, "type": "electric_scooter", "fusion_lat": 0.0, "is_disabled": 0, "rental_uris": {"ios": "https://dc.lft.to/lastmile_qr_scan", "android": "https://dc.lft.to/lastmile_qr_scan"}, "bike_id": "1235323824d6e26f074ec5b0fc00d2d3", "lat": 38.9274275, "name": "1235323824d6e26f074ec5b0fc00d2d3", "lon": -77.03418, "fusion_lon": 0.0}, {"is_reserved": 0, "type": "electric_scooter", "fusion_lat": 0.0, "is_disabled": 0, "rental_uris": {"ios": "https://dc.lft.to/lastmile_qr_scan", "android": "https://dc.lft.to/lastmile_qr_scan"}, "bike_id": "173f72e63aa4da411bc404f46d76e26a", "lat": 38.85564183333334, "name": "173f72e63aa4da411bc404f46d76e26a", "lon": -76.99092483333334, "fusion_lon": 0.0}, {"is_reserved": 0, "type": "electric_scooter", "fusion_lat": 0.0, "is_disabled": 0, "rental_uris": {"ios": "https://dc.lft.to/lastmile_qr_scan", "android": "https://dc.lft.to/lastmile_qr_scan"}, "bike_id": "334ae4db930699f3c5a7dcf7a4ccb5f1", "lat": 38.91721966666667, "name": "334ae4db930699f3c5a7dcf7a4ccb5f1", "lon": -77.021891, "fusion_lon": 0.0}, {"is_reserved": 0, "type": "electric_scooter", "fusion_lat": 0.0, "is_disabled": 0, "rental_uris": {"ios": "https://dc.lft.to/lastmile_qr_scan", "android": "https://dc.lft.to/lastmile_qr_scan"}, "bike_id": "c9a41b136beb704c17f5608af8c61471", "lat": 38.8936, "name": "c9a41b136beb704c17f5608af8c61471", "lon": -77.02053283333333, "fusion_lon": 0.0}, {"is_reserved": 0, "type": "electric_scooter", "fusion_lat": 0.0, "is_disabled": 0, "rental_uris": {"ios": "https://dc.lft.to/lastmile_qr_scan", "android": "https://dc.lft.to/lastmile_qr_scan"}, "bike_id": "a3fffcc22df4cd5906c9c841a815a2f6", "lat": 38.926831166666666, "name": "a3fffcc22df4cd5906c9c841a815a2f6", "lon": -77.0153605, "fusion_lon": 0.0}, {"is_reserved": 0, "type": "electric_scooter", "fusion_lat": 0.0, "is_disabled": 0, "rental_uris": {"ios": "https://dc.lft.to/lastmile_qr_scan", "android": "https://dc.lft.to/lastmile_qr_scan"}, "bike_id": "799984855eee4764912a051dd1d84b51", "lat": 38.882391166666665, "name": "799984855eee4764912a051dd1d84b51", "lon": -76.93334, "fusion_lon": 0.0}, {"is_reserved": 0, "type": "electric_scooter", "fusion_lat": 0.0, "is_disabled": 0, "rental_uris": {"ios": "https://dc.lft.to/lastmile_qr_scan", "android": "https://dc.lft.to/lastmile_qr_scan"}, "bike_id": "0ac96f88fa51f867e3b881f2aa74b1ef", "lat": 38.93113, "name": "0ac96f88fa51f867e3b881f2aa74b1ef", "lon": -77.02099, "fusion_lon": 0.0}, {"is_reserved": 0, "type": "electric_scooter", "fusion_lat": 0.0, "is_disabled": 0, "rental_uris": {"ios": "https://dc.lft.to/lastmile_qr_scan", "android": "https://dc.lft.to/lastmile_qr_scan"}, "bike_id": "7505c33bb8d4cff4958e017e50054a2d", "lat": 38.903343166666666, "name": "7505c33bb8d4cff4958e017e50054a2d", "lon": -77.02606783333333, "fusion_lon": 0.0}, {"is_reserved": 0, "type": "electric_scooter", "fusion_lat": 0.0, "is_disabled": 0, "rental_uris": {"ios": "https://dc.lft.to/lastmile_qr_scan", "android": "https://dc.lft.to/lastmile_qr_scan"}, "bike_id": "65d585aebec7f70e28559b86543ad8f4", "lat": 38.921897, "name": "65d585aebec7f70e28559b86543ad8f4", "lon": -77.03807383333333, "fusion_lon": 0.0}, {"is_reserved": 0, "type": "electric_scooter", "fusion_lat": 0.0, "is_disabled": 0, "rental_uris": {"ios": "https://dc.lft.to/lastmile_qr_scan", "android": "https://dc.lft.to/lastmile_qr_scan"}, "bike_id": "583b4e71d9dd03d1cc86fcfe2dfcf004", "lat": 38.898521, "name": "583b4e71d9dd03d1cc86fcfe2dfcf004", "lon": -76.93210116666667, "fusion_lon": 0.0}, {"is_reserved": 0, "type": "electric_scooter", "fusion_lat": 0.0, "is_disabled": 0, "rental_uris": {"ios": "https://dc.lft.to/lastmile_qr_scan", "android": "https://dc.lft.to/lastmile_qr_scan"}, "bike_id": "0993a7c7ce52502cacdb57ef7cf67c97", "lat": 38.9287355, "name": "0993a7c7ce52502cacdb57ef7cf67c97", "lon": -77.0328435, "fusion_lon": 0.0}, {"is_reserved": 0, "type": "electric_scooter", "fusion_lat": 0.0, "is_disabled": 0, "rental_uris": {"ios": "https://dc.lft.to/lastmile_qr_scan", "android": "https://dc.lft.to/lastmile_qr_scan"}, "bike_id": "ef49151b19e33d9f7526c737ea20d0d5", "lat": 38.909436, "name": "ef49151b19e33d9f7526c737ea20d0d5", "lon": -77.03862833333334, "fusion_lon": 0.0}, {"is_reserved": 0, "type": "electric_scooter", "fusion_lat": 0.0, "is_disabled": 0, "rental_uris": {"ios": "https://dc.lft.to/lastmile_qr_scan", "android": "https://dc.lft.to/lastmile_qr_scan"}, "bike_id": "b91af7f4cbf9a89ca94d8034c5aee8b4", "lat": 38.901295166666664, "name": "b91af7f4cbf9a89ca94d8034c5aee8b4", "lon": -77.032057, "fusion_lon": 0.0}, {"is_reserved": 0, "type": "electric_bike", "fusion_lat": 0.0, "is_disabled": 0, "rental_uris": {"ios": "https://dc.lft.to/lastmile_qr_scan", "android": "https://dc.lft.to/lastmile_qr_scan"}, "bike_id": "15258e3116fdbd23e2b8f4b82a1229bf", "lat": 38.807399, "name": "15258e3116fdbd23e2b8f4b82a1229bf", "lon": -77.09689166666666, "fusion_lon": 0.0}, {"is_reserved": 0, "type": "electric_scooter", "fusion_lat": 0.0, "is_disabled": 0, "rental_uris": {"ios": "https://dc.lft.to/lastmile_qr_scan", "android": "https://dc.lft.to/lastmile_qr_scan"}, "bike_id": "fea338925b0ff279a5ed053f7ca43b2b", "lat": 38.898221, "name": "fea338925b0ff279a5ed053f7ca43b2b", "lon": -77.04502716666667, "fusion_lon": 0.0}, {"is_reserved": 0, "type": "electric_scooter", "fusion_lat": 0.0, "is_disabled": 0, "rental_uris": {"ios": "https://dc.lft.to/lastmile_qr_scan", "android": "https://dc.lft.to/lastmile_qr_scan"}, "bike_id": "2e718dd25416c057f4b919d107aa40ec", "lat": 38.89545966666667, "name": "2e718dd25416c057f4b919d107aa40ec", "lon": -76.9833715, "fusion_lon": 0.0}, {"is_reserved": 0, "type": "electric_scooter", "fusion_lat": 0.0, "is_disabled": 0, "rental_uris": {"ios": "https://dc.lft.to/lastmile_qr_scan", "android": "https://dc.lft.to/lastmile_qr_scan"}, "bike_id": "c1ad258d15c606bd615cf6fa1d64e1ed", "lat": 38.921703, "name": "c1ad258d15c606bd615cf6fa1d64e1ed", "lon": -77.043615, "fusion_lon": 0.0}, {"is_reserved": 0, "type": "electric_bike", "fusion_lat": 0.0, "is_disabled": 0, "rental_uris": {"ios": "https://dc.lft.to/lastmile_qr_scan", "android": "https://dc.lft.to/lastmile_qr_scan"}, "bike_id": "01ce3da9f38bb7fd497f77e3a203b2df", "lat": 39.000083333333336, "name": "01ce3da9f38bb7fd497f77e3a203b2df", "lon": -76.91800766666667, "fusion_lon": 0.0}, {"is_reserved": 0, "type": "electric_bike", "fusion_lat": 0.0, "is_disabled": 0, "rental_uris": {"ios": "https://dc.lft.to/lastmile_qr_scan", "android": "https://dc.lft.to/lastmile_qr_scan"}, "bike_id": "b1d748ac09ee5afe673176feb7559c88", "lat": 38.87175766666667, "name": "b1d748ac09ee5afe673176feb7559c88", "lon": -77.23391583333333, "fusion_lon": 0.0}, {"is_reserved": 0, "type": "electric_bike", "fusion_lat": 0.0, "is_disabled": 0, "rental_uris": {"ios": "https://dc.lft.to/lastmile_qr_scan", "android": "https://dc.lft.to/lastmile_qr_scan"}, "bike_id": "661cc0b17696903a1d1c6867f657646e", "lat": 38.951769666666664, "name": "661cc0b17696903a1d1c6867f657646e", "lon": -77.03159583333333, "fusion_lon": 0.0}, {"is_reserved": 0, "type": "electric_scooter", "fusion_lat": 0.0, "is_disabled": 0, "rental_uris": {"ios": "https://dc.lft.to/lastmile_qr_scan", "android": "https://dc.lft.to/lastmile_qr_scan"}, "bike_id": "ce2704040327c69614855aa1bc67eff1", "lat": 38.906069, "name": "ce2704040327c69614855aa1bc67eff1", "lon": -77.05836333333333, "fusion_lon": 0.0}, {"is_reserved": 0, "type": "electric_scooter", "fusion_lat": 0.0, "is_disabled": 0, "rental_uris": {"ios": "https://dc.lft.to/lastmile_qr_scan", "android": "https://dc.lft.to/lastmile_qr_scan"}, "bike_id": "839220eee6f64b90248e077924860402", "lat": 38.90938516666667, "name": "839220eee6f64b90248e077924860402", "lon": -77.05928783333333, "fusion_lon": 0.0}, {"is_reserved": 0, "type": "electric_scooter", "fusion_lat": 0.0, "is_disabled": 0, "rental_uris": {"ios": "https://dc.lft.to/lastmile_qr_scan", "android": "https://dc.lft.to/lastmile_qr_scan"}, "bike_id": "d60bbf10252cf9b97020cb9899df78d0", "lat": 38.89231566666667, "name": "d60bbf10252cf9b97020cb9899df78d0", "lon": -77.04998516666667, "fusion_lon": 0.0}, {"is_reserved": 0, "type": "electric_scooter", "fusion_lat": 0.0, "is_disabled": 0, "rental_uris": {"ios": "https://dc.lft.to/lastmile_qr_scan", "android": "https://dc.lft.to/lastmile_qr_scan"}, "bike_id": "676bb695d4e610c82f047c45c6074595", "lat": 38.922936166666666, "name": "676bb695d4e610c82f047c45c6074595", "lon": -77.02070666666667, "fusion_lon": 0.0}, {"is_reserved": 0, "type": "electric_scooter", "fusion_lat": 0.0, "is_disabled": 0, "rental_uris": {"ios": "https://dc.lft.to/lastmile_qr_scan", "android": "https://dc.lft.to/lastmile_qr_scan"}, "bike_id": "54a47c2f6d6a89160fa5bac60a0de528", "lat": 38.891981333333334, "name": "54a47c2f6d6a89160fa5bac60a0de528", "lon": -77.01542883333333, "fusion_lon": 0.0}, {"is_reserved": 0, "type": "electric_scooter", "fusion_lat": 0.0, "is_disabled": 0, "rental_uris": {"ios": "https://dc.lft.to/lastmile_qr_scan", "android": "https://dc.lft.to/lastmile_qr_scan"}, "bike_id": "89b57b4cff038a9646358333c195f6b0", "lat": 38.9206205, "name": "89b57b4cff038a9646358333c195f6b0", "lon": -77.03210216666666, "fusion_lon": 0.0}, {"is_reserved": 0, "type": "electric_scooter", "fusion_lat": 0.0, "is_disabled": 0, "rental_uris": {"ios": "https://dc.lft.to/lastmile_qr_scan", "android": "https://dc.lft.to/lastmile_qr_scan"}, "bike_id": "beef329affde26e70112d2680f8588a8", "lat": 38.909996, "name": "beef329affde26e70112d2680f8588a8", "lon": -77.02184766666667, "fusion_lon": 0.0}, {"is_reserved": 0, "type": "electric_bike", "fusion_lat": 0.0, "is_disabled": 0, "rental_uris": {"ios": "https://dc.lft.to/lastmile_qr_scan", "android": "https://dc.lft.to/lastmile_qr_scan"}, "bike_id": "5f9f2707839158ae231216b40d74d878", "lat": 38.811459666666664, "name": "5f9f2707839158ae231216b40d74d878", "lon": -77.05026666666667, "fusion_lon": 0.0}, {"is_reserved": 0, "type": "electric_scooter", "fusion_lat": 0.0, "is_disabled": 0, "rental_uris": {"ios": "https://dc.lft.to/lastmile_qr_scan", "android": "https://dc.lft.to/lastmile_qr_scan"}, "bike_id": "fb5d2244e35dc219609aa6a1d3461aa1", "lat": 38.8762585, "name": "fb5d2244e35dc219609aa6a1d3461aa1", "lon": -77.0058435, "fusion_lon": 0.0}, {"is_reserved": 0, "type": "electric_scooter", "fusion_lat": 0.0, "is_disabled": 0, "rental_uris": {"ios": "https://dc.lft.to/lastmile_qr_scan", "android": "https://dc.lft.to/lastmile_qr_scan"}, "bike_id": "626efa66a0d2e6907a07ab48e4e7f040", "lat": 38.90832983333333, "name": "626efa66a0d2e6907a07ab48e4e7f040", "lon": -76.99702883333333, "fusion_lon": 0.0}, {"is_reserved": 0, "type": "electric_scooter", "fusion_lat": 0.0, "is_disabled": 0, "rental_uris": {"ios": "https://dc.lft.to/lastmile_qr_scan", "android": "https://dc.lft.to/lastmile_qr_scan"}, "bike_id": "239ecbf830971fae0d2fdee77b071907", "lat": 38.92408833333333, "name": "239ecbf830971fae0d2fdee77b071907", "lon": -77.02032233333334, "fusion_lon": 0.0}, {"is_reserved": 0, "type": "electric_bike", "fusion_lat": 0.0, "is_disabled": 0, "rental_uris": {"ios": "https://dc.lft.to/lastmile_qr_scan", "android": "https://dc.lft.to/lastmile_qr_scan"}, "bike_id": "a9891155b8524274e80a6182d9016ac9", "lat": 38.888741, "name": "a9891155b8524274e80a6182d9016ac9", "lon": -76.95700583333333, "fusion_lon": 0.0}, {"is_reserved": 0, "type": "electric_scooter", "fusion_lat": 0.0, "is_disabled": 0, "rental_uris": {"ios": "https://dc.lft.to/lastmile_qr_scan", "android": "https://dc.lft.to/lastmile_qr_scan"}, "bike_id": "e4ed48ff711a336de33de75fe4fbb7ac", "lat": 38.907960833333334, "name": "e4ed48ff711a336de33de75fe4fbb7ac", "lon": -77.04185633333333, "fusion_lon": 0.0}, {"is_reserved": 0, "type": "electric_scooter", "fusion_lat": 0.0, "is_disabled": 0, "rental_uris": {"ios": "https://dc.lft.to/lastmile_qr_scan", "android": "https://dc.lft.to/lastmile_qr_scan"}, "bike_id": "9d4a5d60146dc6b7ad73ca04586017f9", "lat": 38.90780616666667, "name": "9d4a5d60146dc6b7ad73ca04586017f9", "lon": -76.98332066666667, "fusion_lon": 0.0}, {"is_reserved": 0, "type": "electric_bike", "fusion_lat": 0.0, "is_disabled": 0, "rental_uris": {"ios": "https://dc.lft.to/lastmile_qr_scan", "android": "https://dc.lft.to/lastmile_qr_scan"}, "bike_id": "5c4bf06c7c19894ef259833d601cef5e", "lat": 38.879501833333336, "name": "5c4bf06c7c19894ef259833d601cef5e", "lon": -76.93194766666667, "fusion_lon": 0.0}, {"is_reserved": 0, "type": "electric_scooter", "fusion_lat": 0.0, "is_disabled": 0, "rental_uris": {"ios": "https://dc.lft.to/lastmile_qr_scan", "android": "https://dc.lft.to/lastmile_qr_scan"}, "bike_id": "7e210bd501625ba0c5492318639c3ee7", "lat": 38.9237155, "name": "7e210bd501625ba0c5492318639c3ee7", "lon": -77.04327566666667, "fusion_lon": 0.0}, {"is_reserved": 0, "type": "electric_scooter", "fusion_lat": 0.0, "is_disabled": 0, "rental_uris": {"ios": "https://dc.lft.to/lastmile_qr_scan", "android": "https://dc.lft.to/lastmile_qr_scan"}, "bike_id": "5064ada25d9b2648a81d8e76a529584b", "lat": 38.91518416666667, "name": "5064ada25d9b2648a81d8e76a529584b", "lon": -77.07274016666666, "fusion_lon": 0.0}, {"is_reserved": 0, "type": "electric_scooter", "fusion_lat": 0.0, "is_disabled": 0, "rental_uris": {"ios": "https://dc.lft.to/lastmile_qr_scan", "android": "https://dc.lft.to/lastmile_qr_scan"}, "bike_id": "6dc0315a38c3ef799cd693818ba50b99", "lat": 38.9022755, "name": "6dc0315a38c3ef799cd693818ba50b99", "lon": -77.051278, "fusion_lon": 0.0}, {"is_reserved": 0, "type": "electric_scooter", "fusion_lat": 0.0, "is_disabled": 0, "rental_uris": {"ios": "https://dc.lft.to/lastmile_qr_scan", "android": "https://dc.lft.to/lastmile_qr_scan"}, "bike_id": "058b3644fd5ac264a7ac2997ad9ca7bf", "lat": 38.9209635, "name": "058b3644fd5ac264a7ac2997ad9ca7bf", "lon": -77.03694483333334, "fusion_lon": 0.0}, {"is_reserved": 0, "type": "electric_scooter", "fusion_lat": 0.0, "is_disabled": 0, "rental_uris": {"ios": "https://dc.lft.to/lastmile_qr_scan", "android": "https://dc.lft.to/lastmile_qr_scan"}, "bike_id": "b0169919effda1b75c3cbe7407bb650b", "lat": 38.897820833333334, "name": "b0169919effda1b75c3cbe7407bb650b", "lon": -77.05028216666666, "fusion_lon": 0.0}, {"is_reserved": 0, "type": "electric_scooter", "fusion_lat": 0.0, "is_disabled": 0, "rental_uris": {"ios": "https://dc.lft.to/lastmile_qr_scan", "android": "https://dc.lft.to/lastmile_qr_scan"}, "bike_id": "718df29c85820f4766cdf1f59c3e3239", "lat": 38.955616, "name": "718df29c85820f4766cdf1f59c3e3239", "lon": -77.014322, "fusion_lon": 0.0}, {"is_reserved": 0, "type": "electric_scooter", "fusion_lat": 0.0, "is_disabled": 0, "rental_uris": {"ios": "https://dc.lft.to/lastmile_qr_scan", "android": "https://dc.lft.to/lastmile_qr_scan"}, "bike_id": "561ffbf84968d789bfadca2e9ca52f58", "lat": 38.948617166666665, "name": "561ffbf84968d789bfadca2e9ca52f58", "lon": -77.078812, "fusion_lon": 0.0}, {"is_reserved": 0, "type": "electric_scooter", "fusion_lat": 0.0, "is_disabled": 0, "rental_uris": {"ios": "https://dc.lft.to/lastmile_qr_scan", "android": "https://dc.lft.to/lastmile_qr_scan"}, "bike_id": "42ed28cb626fe9f6b803fe6e6e154b2e", "lat": 38.917142, "name": "42ed28cb626fe9f6b803fe6e6e154b2e", "lon": -77.03203283333333, "fusion_lon": 0.0}, {"is_reserved": 0, "type": "electric_scooter", "fusion_lat": 0.0, "is_disabled": 0, "rental_uris": {"ios": "https://dc.lft.to/lastmile_qr_scan", "android": "https://dc.lft.to/lastmile_qr_scan"}, "bike_id": "209bbc81d0ca485510ede6695aeb7dbd", "lat": 38.89724016666667, "name": "209bbc81d0ca485510ede6695aeb7dbd", "lon": -77.03049733333333, "fusion_lon": 0.0}, {"is_reserved": 0, "type": "electric_scooter", "fusion_lat": 0.0, "is_disabled": 0, "rental_uris": {"ios": "https://dc.lft.to/lastmile_qr_scan", "android": "https://dc.lft.to/lastmile_qr_scan"}, "bike_id": "aa16c7af3e0999a3d5cb5562d5c44900", "lat": 38.934400833333335, "name": "aa16c7af3e0999a3d5cb5562d5c44900", "lon": -77.03278333333333, "fusion_lon": 0.0}, {"is_reserved": 0, "type": "electric_scooter", "fusion_lat": 0.0, "is_disabled": 0, "rental_uris": {"ios": "https://dc.lft.to/lastmile_qr_scan", "android": "https://dc.lft.to/lastmile_qr_scan"}, "bike_id": "a0910781999e99464518b4f5345bb86c", "lat": 38.910777, "name": "a0910781999e99464518b4f5345bb86c", "lon": -77.01627183333333, "fusion_lon": 0.0}, {"is_reserved": 0, "type": "electric_scooter", "fusion_lat": 0.0, "is_disabled": 0, "rental_uris": {"ios": "https://dc.lft.to/lastmile_qr_scan", "android": "https://dc.lft.to/lastmile_qr_scan"}, "bike_id": "941deeb17168c672dc65069519317cef", "lat": 38.8988215, "name": "941deeb17168c672dc65069519317cef", "lon": -76.9317815, "fusion_lon": 0.0}, {"is_reserved": 0, "type": "electric_scooter", "fusion_lat": 0.0, "is_disabled": 0, "rental_uris": {"ios": "https://dc.lft.to/lastmile_qr_scan", "android": "https://dc.lft.to/lastmile_qr_scan"}, "bike_id": "51eea6d43545a6ffc171fec2bfc7dea9", "lat": 38.973705, "name": "51eea6d43545a6ffc171fec2bfc7dea9", "lon": -77.0186295, "fusion_lon": 0.0}, {"is_reserved": 0, "type": "electric_scooter", "fusion_lat": 0.0, "is_disabled": 0, "rental_uris": {"ios": "https://dc.lft.to/lastmile_qr_scan", "android": "https://dc.lft.to/lastmile_qr_scan"}, "bike_id": "449a8eed8c0a152d5d1b88a104607da2", "lat": 38.89723083333333, "name": "449a8eed8c0a152d5d1b88a104607da2", "lon": -77.0307285, "fusion_lon": 0.0}, {"is_reserved": 0, "type": "electric_bike", "fusion_lat": 0.0, "is_disabled": 0, "rental_uris": {"ios": "https://dc.lft.to/lastmile_qr_scan", "android": "https://dc.lft.to/lastmile_qr_scan"}, "bike_id": "6b2f1e611f6d2128ad17712dc9622e21", "lat": 38.96895466666667, "name": "6b2f1e611f6d2128ad17712dc9622e21", "lon": -76.955748, "fusion_lon": 0.0}, {"is_reserved": 0, "type": "electric_scooter", "fusion_lat": 0.0, "is_disabled": 0, "rental_uris": {"ios": "https://dc.lft.to/lastmile_qr_scan", "android": "https://dc.lft.to/lastmile_qr_scan"}, "bike_id": "b24c935d7fd5fe2b6b0ed3ac061a32ce", "lat": 38.90082983333333, "name": "b24c935d7fd5fe2b6b0ed3ac061a32ce", "lon": -77.03006616666667, "fusion_lon": 0.0}, {"is_reserved": 0, "type": "electric_scooter", "fusion_lat": 0.0, "is_disabled": 0, "rental_uris": {"ios": "https://dc.lft.to/lastmile_qr_scan", "android": "https://dc.lft.to/lastmile_qr_scan"}, "bike_id": "49868a89bd96e38cc3c118feeb684ba1", "lat": 38.888766, "name": "49868a89bd96e38cc3c118feeb684ba1", "lon": -76.98783183333333, "fusion_lon": 0.0}, {"is_reserved": 0, "type": "electric_scooter", "fusion_lat": 0.0, "is_disabled": 0, "rental_uris": {"ios": "https://dc.lft.to/lastmile_qr_scan", "android": "https://dc.lft.to/lastmile_qr_scan"}, "bike_id": "c5e1f906c16cf335c544c7f14b0cfcee", "lat": 38.89732016666667, "name": "c5e1f906c16cf335c544c7f14b0cfcee", "lon": -77.04991483333333, "fusion_lon": 0.0}, {"is_reserved": 0, "type": "electric_scooter", "fusion_lat": 0.0, "is_disabled": 0, "rental_uris": {"ios": "https://dc.lft.to/lastmile_qr_scan", "android": "https://dc.lft.to/lastmile_qr_scan"}, "bike_id": "7d53f7401f4b55095b518b982905aa16", "lat": 38.92280433333333, "name": "7d53f7401f4b55095b518b982905aa16", "lon": -76.99762133333333, "fusion_lon": 0.0}, {"is_reserved": 0, "type": "electric_scooter", "fusion_lat": 0.0, "is_disabled": 0, "rental_uris": {"ios": "https://dc.lft.to/lastmile_qr_scan", "android": "https://dc.lft.to/lastmile_qr_scan"}, "bike_id": "b056c210aeb9562824eaeac1effb89df", "lat": 38.928667, "name": "b056c210aeb9562824eaeac1effb89df", "lon": -77.03245383333334, "fusion_lon": 0.0}, {"is_reserved": 0, "type": "electric_scooter", "fusion_lat": 0.0, "is_disabled": 0, "rental_uris": {"ios": "https://dc.lft.to/lastmile_qr_scan", "android": "https://dc.lft.to/lastmile_qr_scan"}, "bike_id": "90c1846f31347bb7b6aa305d64906a85", "lat": 38.899684, "name": "90c1846f31347bb7b6aa305d64906a85", "lon": -77.01622683333333, "fusion_lon": 0.0}, {"is_reserved": 0, "type": "electric_scooter", "fusion_lat": 0.0, "is_disabled": 0, "rental_uris": {"ios": "https://dc.lft.to/lastmile_qr_scan", "android": "https://dc.lft.to/lastmile_qr_scan"}, "bike_id": "e8dfcf11ee23ff11d139a4c13419318b", "lat": 38.91343666666667, "name": "e8dfcf11ee23ff11d139a4c13419318b", "lon": -77.02760683333334, "fusion_lon": 0.0}, {"is_reserved": 0, "type": "electric_scooter", "fusion_lat": 0.0, "is_disabled": 0, "rental_uris": {"ios": "https://dc.lft.to/lastmile_qr_scan", "android": "https://dc.lft.to/lastmile_qr_scan"}, "bike_id": "793b4d4bd351a7b156cbd1e77c51d4fa", "lat": 38.924616666666665, "name": "793b4d4bd351a7b156cbd1e77c51d4fa", "lon": -77.05235066666667, "fusion_lon": 0.0}, {"is_reserved": 0, "type": "electric_scooter", "fusion_lat": 0.0, "is_disabled": 0, "rental_uris": {"ios": "https://dc.lft.to/lastmile_qr_scan", "android": "https://dc.lft.to/lastmile_qr_scan"}, "bike_id": "fa72d914f9b5961f0ec5d2385a7ff433", "lat": 38.919901833333334, "name": "fa72d914f9b5961f0ec5d2385a7ff433", "lon": -77.03265566666667, "fusion_lon": 0.0}, {"is_reserved": 0, "type": "electric_scooter", "fusion_lat": 0.0, "is_disabled": 0, "rental_uris": {"ios": "https://dc.lft.to/lastmile_qr_scan", "android": "https://dc.lft.to/lastmile_qr_scan"}, "bike_id": "defc19fea7291f0351fcbc537cda9e9e", "lat": 38.92037716666667, "name": "defc19fea7291f0351fcbc537cda9e9e", "lon": -77.01969016666666, "fusion_lon": 0.0}, {"is_reserved": 0, "type": "electric_scooter", "fusion_lat": 0.0, "is_disabled": 0, "rental_uris": {"ios": "https://dc.lft.to/lastmile_qr_scan", "android": "https://dc.lft.to/lastmile_qr_scan"}, "bike_id": "59f5aafcbd2402973e15c5a6a0df8cc3", "lat": 38.87941933333333, "name": "59f5aafcbd2402973e15c5a6a0df8cc3", "lon": -77.01006883333334, "fusion_lon": 0.0}, {"is_reserved": 0, "type": "electric_scooter", "fusion_lat": 0.0, "is_disabled": 0, "rental_uris": {"ios": "https://dc.lft.to/lastmile_qr_scan", "android": "https://dc.lft.to/lastmile_qr_scan"}, "bike_id": "be155e8d5949977f1dd3213536422ad5", "lat": 38.887694333333336, "name": "be155e8d5949977f1dd3213536422ad5", "lon": -76.97730983333334, "fusion_lon": 0.0}, {"is_reserved": 0, "type": "electric_scooter", "fusion_lat": 0.0, "is_disabled": 0, "rental_uris": {"ios": "https://dc.lft.to/lastmile_qr_scan", "android": "https://dc.lft.to/lastmile_qr_scan"}, "bike_id": "38636fbeff59bfe39d8bdf888cbc720e", "lat": 38.9128335, "name": "38636fbeff59bfe39d8bdf888cbc720e", "lon": -77.06791816666667, "fusion_lon": 0.0}, {"is_reserved": 0, "type": "electric_scooter", "fusion_lat": 0.0, "is_disabled": 0, "rental_uris": {"ios": "https://dc.lft.to/lastmile_qr_scan", "android": "https://dc.lft.to/lastmile_qr_scan"}, "bike_id": "00db6a56c78594d46382a94b433fa258", "lat": 38.912688833333334, "name": "00db6a56c78594d46382a94b433fa258", "lon": -77.04766883333333, "fusion_lon": 0.0}, {"is_reserved": 0, "type": "electric_scooter", "fusion_lat": 0.0, "is_disabled": 0, "rental_uris": {"ios": "https://dc.lft.to/lastmile_qr_scan", "android": "https://dc.lft.to/lastmile_qr_scan"}, "bike_id": "43a4f3d41c06dba9ac0c10ae35e26916", "lat": 38.876264166666665, "name": "43a4f3d41c06dba9ac0c10ae35e26916", "lon": -77.00220266666666, "fusion_lon": 0.0}, {"is_reserved": 0, "type": "electric_scooter", "fusion_lat": 0.0, "is_disabled": 0, "rental_uris": {"ios": "https://dc.lft.to/lastmile_qr_scan", "android": "https://dc.lft.to/lastmile_qr_scan"}, "bike_id": "dc395a050b3d482b21f790e236956cbb", "lat": 38.942193833333334, "name": "dc395a050b3d482b21f790e236956cbb", "lon": -77.02495266666666, "fusion_lon": 0.0}, {"is_reserved": 0, "type": "electric_scooter", "fusion_lat": 0.0, "is_disabled": 0, "rental_uris": {"ios": "https://dc.lft.to/lastmile_qr_scan", "android": "https://dc.lft.to/lastmile_qr_scan"}, "bike_id": "023e16587e8fae28571e81f8c454c961", "lat": 38.928891, "name": "023e16587e8fae28571e81f8c454c961", "lon": -77.03738066666666, "fusion_lon": 0.0}, {"is_reserved": 0, "type": "electric_scooter", "fusion_lat": 0.0, "is_disabled": 0, "rental_uris": {"ios": "https://dc.lft.to/lastmile_qr_scan", "android": "https://dc.lft.to/lastmile_qr_scan"}, "bike_id": "d0c43f318e128551559581e8adede375", "lat": 38.92191566666666, "name": "d0c43f318e128551559581e8adede375", "lon": -77.0426035, "fusion_lon": 0.0}, {"is_reserved": 0, "type": "electric_scooter", "fusion_lat": 0.0, "is_disabled": 0, "rental_uris": {"ios": "https://dc.lft.to/lastmile_qr_scan", "android": "https://dc.lft.to/lastmile_qr_scan"}, "bike_id": "c571589835ff927eb1af7ecffe3aa705", "lat": 38.917722499999996, "name": "c571589835ff927eb1af7ecffe3aa705", "lon": -77.0237335, "fusion_lon": 0.0}, {"is_reserved": 0, "type": "electric_scooter", "fusion_lat": 0.0, "is_disabled": 0, "rental_uris": {"ios": "https://dc.lft.to/lastmile_qr_scan", "android": "https://dc.lft.to/lastmile_qr_scan"}, "bike_id": "83a2d40b461c3769246f7245fc3afa46", "lat": 38.8994125, "name": "83a2d40b461c3769246f7245fc3afa46", "lon": -76.93763433333334, "fusion_lon": 0.0}, {"is_reserved": 0, "type": "electric_scooter", "fusion_lat": 0.0, "is_disabled": 0, "rental_uris": {"ios": "https://dc.lft.to/lastmile_qr_scan", "android": "https://dc.lft.to/lastmile_qr_scan"}, "bike_id": "4f31dce473b83f9cebcb33827dccaac2", "lat": 38.887711833333334, "name": "4f31dce473b83f9cebcb33827dccaac2", "lon": -76.97731816666666, "fusion_lon": 0.0}, {"is_reserved": 0, "type": "electric_scooter", "fusion_lat": 0.0, "is_disabled": 0, "rental_uris": {"ios": "https://dc.lft.to/lastmile_qr_scan", "android": "https://dc.lft.to/lastmile_qr_scan"}, "bike_id": "780a9509a650da15a6acbf94be628500", "lat": 38.92431066666666, "name": "780a9509a650da15a6acbf94be628500", "lon": -77.01951383333333, "fusion_lon": 0.0}, {"is_reserved": 0, "type": "electric_scooter", "fusion_lat": 0.0, "is_disabled": 0, "rental_uris": {"ios": "https://dc.lft.to/lastmile_qr_scan", "android": "https://dc.lft.to/lastmile_qr_scan"}, "bike_id": "ccfc9dbb41bce5d0e1152d96ca253aa3", "lat": 38.90360233333333, "name": "ccfc9dbb41bce5d0e1152d96ca253aa3", "lon": -77.0400905, "fusion_lon": 0.0}, {"is_reserved": 0, "type": "electric_scooter", "fusion_lat": 0.0, "is_disabled": 0, "rental_uris": {"ios": "https://dc.lft.to/lastmile_qr_scan", "android": "https://dc.lft.to/lastmile_qr_scan"}, "bike_id": "e6f5b4f0962d49caff6f13493bb9954e", "lat": 38.938612166666665, "name": "e6f5b4f0962d49caff6f13493bb9954e", "lon": -77.024669, "fusion_lon": 0.0}, {"is_reserved": 0, "type": "electric_scooter", "fusion_lat": 0.0, "is_disabled": 0, "rental_uris": {"ios": "https://dc.lft.to/lastmile_qr_scan", "android": "https://dc.lft.to/lastmile_qr_scan"}, "bike_id": "150a73be28cdd4bab137c1b4cf7f0e26", "lat": 38.922231, "name": "150a73be28cdd4bab137c1b4cf7f0e26", "lon": -77.0431145, "fusion_lon": 0.0}, {"is_reserved": 0, "type": "electric_scooter", "fusion_lat": 0.0, "is_disabled": 0, "rental_uris": {"ios": "https://dc.lft.to/lastmile_qr_scan", "android": "https://dc.lft.to/lastmile_qr_scan"}, "bike_id": "ebd8cc82058538259aa7a223011ca54d", "lat": 38.89909633333333, "name": "ebd8cc82058538259aa7a223011ca54d", "lon": -76.93390233333334, "fusion_lon": 0.0}, {"is_reserved": 0, "type": "electric_bike", "fusion_lat": 0.0, "is_disabled": 0, "rental_uris": {"ios": "https://dc.lft.to/lastmile_qr_scan", "android": "https://dc.lft.to/lastmile_qr_scan"}, "bike_id": "314bb7de1044d4fde701cceb3ae6c3df", "lat": 38.92439916666667, "name": "314bb7de1044d4fde701cceb3ae6c3df", "lon": -77.02500483333333, "fusion_lon": 0.0}, {"is_reserved": 0, "type": "electric_scooter", "fusion_lat": 0.0, "is_disabled": 0, "rental_uris": {"ios": "https://dc.lft.to/lastmile_qr_scan", "android": "https://dc.lft.to/lastmile_qr_scan"}, "bike_id": "4a749420ac1092690effa0e6a1aa2bd7", "lat": 38.91121066666667, "name": "4a749420ac1092690effa0e6a1aa2bd7", "lon": -77.03868616666666, "fusion_lon": 0.0}, {"is_reserved": 0, "type": "electric_scooter", "fusion_lat": 0.0, "is_disabled": 0, "rental_uris": {"ios": "https://dc.lft.to/lastmile_qr_scan", "android": "https://dc.lft.to/lastmile_qr_scan"}, "bike_id": "1c71faa5504171036baed8f88c2c9abf", "lat": 38.912483, "name": "1c71faa5504171036baed8f88c2c9abf", "lon": -77.04764916666667, "fusion_lon": 0.0}, {"is_reserved": 0, "type": "electric_scooter", "fusion_lat": 0.0, "is_disabled": 0, "rental_uris": {"ios": "https://dc.lft.to/lastmile_qr_scan", "android": "https://dc.lft.to/lastmile_qr_scan"}, "bike_id": "f3167e31bef12d2c97a05a8ce4837a01", "lat": 38.919901833333334, "name": "f3167e31bef12d2c97a05a8ce4837a01", "lon": -77.03261733333333, "fusion_lon": 0.0}, {"is_reserved": 0, "type": "electric_scooter", "fusion_lat": 0.0, "is_disabled": 0, "rental_uris": {"ios": "https://dc.lft.to/lastmile_qr_scan", "android": "https://dc.lft.to/lastmile_qr_scan"}, "bike_id": "28aaba4636d006d3bef03799382790a7", "lat": 38.909669, "name": "28aaba4636d006d3bef03799382790a7", "lon": -77.0485145, "fusion_lon": 0.0}, {"is_reserved": 0, "type": "electric_scooter", "fusion_lat": 0.0, "is_disabled": 0, "rental_uris": {"ios": "https://dc.lft.to/lastmile_qr_scan", "android": "https://dc.lft.to/lastmile_qr_scan"}, "bike_id": "1c6b64b81f4b8e0093dab96fe7625160", "lat": 38.92481316666667, "name": "1c6b64b81f4b8e0093dab96fe7625160", "lon": -77.02239233333333, "fusion_lon": 0.0}, {"is_reserved": 0, "type": "electric_scooter", "fusion_lat": 0.0, "is_disabled": 0, "rental_uris": {"ios": "https://dc.lft.to/lastmile_qr_scan", "android": "https://dc.lft.to/lastmile_qr_scan"}, "bike_id": "90781d2621b31a58404331b6a9207556", "lat": 38.9133195, "name": "90781d2621b31a58404331b6a9207556", "lon": -77.03175633333333, "fusion_lon": 0.0}, {"is_reserved": 0, "type": "electric_bike", "fusion_lat": 0.0, "is_disabled": 0, "rental_uris": {"ios": "https://dc.lft.to/lastmile_qr_scan", "android": "https://dc.lft.to/lastmile_qr_scan"}, "bike_id": "ba59914ce390f91bbcba9405f9550024", "lat": 38.82929, "name": "ba59914ce390f91bbcba9405f9550024", "lon": -77.06880166666667, "fusion_lon": 0.0}, {"is_reserved": 0, "type": "electric_scooter", "fusion_lat": 0.0, "is_disabled": 0, "rental_uris": {"ios": "https://dc.lft.to/lastmile_qr_scan", "android": "https://dc.lft.to/lastmile_qr_scan"}, "bike_id": "8ca2d0ac34558c919c7ea6e81667041c", "lat": 38.91023766666667, "name": "8ca2d0ac34558c919c7ea6e81667041c", "lon": -77.03441683333334, "fusion_lon": 0.0}, {"is_reserved": 0, "type": "electric_scooter", "fusion_lat": 0.0, "is_disabled": 0, "rental_uris": {"ios": "https://dc.lft.to/lastmile_qr_scan", "android": "https://dc.lft.to/lastmile_qr_scan"}, "bike_id": "a2512472e6fb25d636a54c7d3fb2afc3", "lat": 38.9027625, "name": "a2512472e6fb25d636a54c7d3fb2afc3", "lon": -77.02769516666666, "fusion_lon": 0.0}, {"is_reserved": 0, "type": "electric_scooter", "fusion_lat": 0.0, "is_disabled": 0, "rental_uris": {"ios": "https://dc.lft.to/lastmile_qr_scan", "android": "https://dc.lft.to/lastmile_qr_scan"}, "bike_id": "d13febd895ddcdc653ff4efe0e1165bf", "lat": 38.917701666666666, "name": "d13febd895ddcdc653ff4efe0e1165bf", "lon": -77.047588, "fusion_lon": 0.0}, {"is_reserved": 0, "type": "electric_scooter", "fusion_lat": 0.0, "is_disabled": 0, "rental_uris": {"ios": "https://dc.lft.to/lastmile_qr_scan", "android": "https://dc.lft.to/lastmile_qr_scan"}, "bike_id": "b23f1e95e09b48a443d7adc5c6329ebc", "lat": 38.91950216666667, "name": "b23f1e95e09b48a443d7adc5c6329ebc", "lon": -77.02306833333333, "fusion_lon": 0.0}, {"is_reserved": 0, "type": "electric_scooter", "fusion_lat": 0.0, "is_disabled": 0, "rental_uris": {"ios": "https://dc.lft.to/lastmile_qr_scan", "android": "https://dc.lft.to/lastmile_qr_scan"}, "bike_id": "1f01761b393dbaee381d1e1226db5da5", "lat": 38.91144366666666, "name": "1f01761b393dbaee381d1e1226db5da5", "lon": -77.04425916666666, "fusion_lon": 0.0}, {"is_reserved": 0, "type": "electric_bike", "fusion_lat": 0.0, "is_disabled": 0, "rental_uris": {"ios": "https://dc.lft.to/lastmile_qr_scan", "android": "https://dc.lft.to/lastmile_qr_scan"}, "bike_id": "32fc2b151ce869c8787b0dfb6672bd62", "lat": 38.868176166666665, "name": "32fc2b151ce869c8787b0dfb6672bd62", "lon": -76.98024633333333, "fusion_lon": 0.0}, {"is_reserved": 0, "type": "electric_scooter", "fusion_lat": 0.0, "is_disabled": 0, "rental_uris": {"ios": "https://dc.lft.to/lastmile_qr_scan", "android": "https://dc.lft.to/lastmile_qr_scan"}, "bike_id": "2656df9b930b6a16967974d557ff742d", "lat": 38.917706, "name": "2656df9b930b6a16967974d557ff742d", "lon": -77.04063033333334, "fusion_lon": 0.0}, {"is_reserved": 0, "type": "electric_scooter", "fusion_lat": 0.0, "is_disabled": 0, "rental_uris": {"ios": "https://dc.lft.to/lastmile_qr_scan", "android": "https://dc.lft.to/lastmile_qr_scan"}, "bike_id": "dc2f184e6066c427dcc19c494853be79", "lat": 38.899565833333334, "name": "dc2f184e6066c427dcc19c494853be79", "lon": -77.01623733333334, "fusion_lon": 0.0}, {"is_reserved": 0, "type": "electric_scooter", "fusion_lat": 0.0, "is_disabled": 0, "rental_uris": {"ios": "https://dc.lft.to/lastmile_qr_scan", "android": "https://dc.lft.to/lastmile_qr_scan"}, "bike_id": "f342e4fecaca69b725d6fd6c0257ae92", "lat": 38.93242033333333, "name": "f342e4fecaca69b725d6fd6c0257ae92", "lon": -76.99711, "fusion_lon": 0.0}, {"is_reserved": 0, "type": "electric_scooter", "fusion_lat": 0.0, "is_disabled": 0, "rental_uris": {"ios": "https://dc.lft.to/lastmile_qr_scan", "android": "https://dc.lft.to/lastmile_qr_scan"}, "bike_id": "0b25fab73810bc4a90041f47305909b7", "lat": 38.913173, "name": "0b25fab73810bc4a90041f47305909b7", "lon": -77.03202766666666, "fusion_lon": 0.0}, {"is_reserved": 0, "type": "electric_scooter", "fusion_lat": 0.0, "is_disabled": 0, "rental_uris": {"ios": "https://dc.lft.to/lastmile_qr_scan", "android": "https://dc.lft.to/lastmile_qr_scan"}, "bike_id": "8d1c3bfb608ba686cfd8818c7bcc71a4", "lat": 38.951516, "name": "8d1c3bfb608ba686cfd8818c7bcc71a4", "lon": -77.018664, "fusion_lon": 0.0}, {"is_reserved": 0, "type": "electric_scooter", "fusion_lat": 0.0, "is_disabled": 0, "rental_uris": {"ios": "https://dc.lft.to/lastmile_qr_scan", "android": "https://dc.lft.to/lastmile_qr_scan"}, "bike_id": "b4b3e4db40fc5c1e46d48060bba36693", "lat": 38.917236333333335, "name": "b4b3e4db40fc5c1e46d48060bba36693", "lon": -77.03460583333333, "fusion_lon": 0.0}, {"is_reserved": 0, "type": "electric_scooter", "fusion_lat": 0.0, "is_disabled": 0, "rental_uris": {"ios": "https://dc.lft.to/lastmile_qr_scan", "android": "https://dc.lft.to/lastmile_qr_scan"}, "bike_id": "2c459cdf7a8a845fa58b85614763b267", "lat": 38.92874333333334, "name": "2c459cdf7a8a845fa58b85614763b267", "lon": -77.03994616666667, "fusion_lon": 0.0}, {"is_reserved": 0, "type": "electric_scooter", "fusion_lat": 0.0, "is_disabled": 0, "rental_uris": {"ios": "https://dc.lft.to/lastmile_qr_scan", "android": "https://dc.lft.to/lastmile_qr_scan"}, "bike_id": "4f748c271ece8a96fd918c11ce2385d6", "lat": 38.92289433333333, "name": "4f748c271ece8a96fd918c11ce2385d6", "lon": -77.07308733333333, "fusion_lon": 0.0}, {"is_reserved": 0, "type": "electric_scooter", "fusion_lat": 0.0, "is_disabled": 0, "rental_uris": {"ios": "https://dc.lft.to/lastmile_qr_scan", "android": "https://dc.lft.to/lastmile_qr_scan"}, "bike_id": "2ef5080e2b19044f9bb19d184652c919", "lat": 38.920589166666666, "name": "2ef5080e2b19044f9bb19d184652c919", "lon": -77.032383, "fusion_lon": 0.0}, {"is_reserved": 0, "type": "electric_scooter", "fusion_lat": 0.0, "is_disabled": 0, "rental_uris": {"ios": "https://dc.lft.to/lastmile_qr_scan", "android": "https://dc.lft.to/lastmile_qr_scan"}, "bike_id": "7792518a5a5c31dfc1c9235eb38cbae4", "lat": 38.91266616666667, "name": "7792518a5a5c31dfc1c9235eb38cbae4", "lon": -77.0143405, "fusion_lon": 0.0}, {"is_reserved": 0, "type": "electric_scooter", "fusion_lat": 0.0, "is_disabled": 0, "rental_uris": {"ios": "https://dc.lft.to/lastmile_qr_scan", "android": "https://dc.lft.to/lastmile_qr_scan"}, "bike_id": "15278a3dcbfeabb328826a3e59965d5d", "lat": 38.90383033333333, "name": "15278a3dcbfeabb328826a3e59965d5d", "lon": -77.00978166666667, "fusion_lon": 0.0}, {"is_reserved": 0, "type": "electric_scooter", "fusion_lat": 0.0, "is_disabled": 0, "rental_uris": {"ios": "https://dc.lft.to/lastmile_qr_scan", "android": "https://dc.lft.to/lastmile_qr_scan"}, "bike_id": "d91ee5a30221f240b7d7a3cebae5d9b4", "lat": 38.89330916666667, "name": "d91ee5a30221f240b7d7a3cebae5d9b4", "lon": -77.020158, "fusion_lon": 0.0}, {"is_reserved": 0, "type": "electric_scooter", "fusion_lat": 0.0, "is_disabled": 0, "rental_uris": {"ios": "https://dc.lft.to/lastmile_qr_scan", "android": "https://dc.lft.to/lastmile_qr_scan"}, "bike_id": "be38d10d90d43efd075acfe27fda3221", "lat": 38.9083075, "name": "be38d10d90d43efd075acfe27fda3221", "lon": -77.04499816666667, "fusion_lon": 0.0}, {"is_reserved": 0, "type": "electric_scooter", "fusion_lat": 0.0, "is_disabled": 0, "rental_uris": {"ios": "https://dc.lft.to/lastmile_qr_scan", "android": "https://dc.lft.to/lastmile_qr_scan"}, "bike_id": "65121300989c1f9d1b17d69ea65ee8e7", "lat": 38.913649, "name": "65121300989c1f9d1b17d69ea65ee8e7", "lon": -77.044883, "fusion_lon": 0.0}, {"is_reserved": 0, "type": "electric_bike", "fusion_lat": 0.0, "is_disabled": 0, "rental_uris": {"ios": "https://dc.lft.to/lastmile_qr_scan", "android": "https://dc.lft.to/lastmile_qr_scan"}, "bike_id": "997fcbfdea97c9dff619ba7d6519deb7", "lat": 38.9716185, "name": "997fcbfdea97c9dff619ba7d6519deb7", "lon": -76.98370433333334, "fusion_lon": 0.0}, {"is_reserved": 0, "type": "electric_bike", "fusion_lat": 0.0, "is_disabled": 0, "rental_uris": {"ios": "https://dc.lft.to/lastmile_qr_scan", "android": "https://dc.lft.to/lastmile_qr_scan"}, "bike_id": "9966e1221b140f6647692b16e8126882", "lat": 38.9265265, "name": "9966e1221b140f6647692b16e8126882", "lon": -77.09020683333334, "fusion_lon": 0.0}, {"is_reserved": 0, "type": "electric_scooter", "fusion_lat": 0.0, "is_disabled": 0, "rental_uris": {"ios": "https://dc.lft.to/lastmile_qr_scan", "android": "https://dc.lft.to/lastmile_qr_scan"}, "bike_id": "2fe2c8b6940a8500d373a2ae8c23a0c7", "lat": 38.89843316666666, "name": "2fe2c8b6940a8500d373a2ae8c23a0c7", "lon": -77.04670433333334, "fusion_lon": 0.0}, {"is_reserved": 0, "type": "electric_scooter", "fusion_lat": 0.0, "is_disabled": 0, "rental_uris": {"ios": "https://dc.lft.to/lastmile_qr_scan", "android": "https://dc.lft.to/lastmile_qr_scan"}, "bike_id": "4f67157e252965782b0cf80702befc93", "lat": 38.9178055, "name": "4f67157e252965782b0cf80702befc93", "lon": -77.0229775, "fusion_lon": 0.0}, {"is_reserved": 0, "type": "electric_scooter", "fusion_lat": 0.0, "is_disabled": 0, "rental_uris": {"ios": "https://dc.lft.to/lastmile_qr_scan", "android": "https://dc.lft.to/lastmile_qr_scan"}, "bike_id": "f123fdf95a52180d330fd9f51cd91c06", "lat": 38.912665, "name": "f123fdf95a52180d330fd9f51cd91c06", "lon": -77.0455215, "fusion_lon": 0.0}, {"is_reserved": 0, "type": "electric_scooter", "fusion_lat": 0.0, "is_disabled": 0, "rental_uris": {"ios": "https://dc.lft.to/lastmile_qr_scan", "android": "https://dc.lft.to/lastmile_qr_scan"}, "bike_id": "763c09542bd0b58ef804376e00ed6b7d", "lat": 38.923362833333336, "name": "763c09542bd0b58ef804376e00ed6b7d", "lon": -77.02806783333334, "fusion_lon": 0.0}, {"is_reserved": 0, "type": "electric_scooter", "fusion_lat": 0.0, "is_disabled": 0, "rental_uris": {"ios": "https://dc.lft.to/lastmile_qr_scan", "android": "https://dc.lft.to/lastmile_qr_scan"}, "bike_id": "b833298df01b7df09580b7b25e6ea453", "lat": 38.923594666666666, "name": "b833298df01b7df09580b7b25e6ea453", "lon": -77.0205845, "fusion_lon": 0.0}, {"is_reserved": 0, "type": "electric_scooter", "fusion_lat": 0.0, "is_disabled": 0, "rental_uris": {"ios": "https://dc.lft.to/lastmile_qr_scan", "android": "https://dc.lft.to/lastmile_qr_scan"}, "bike_id": "0c93fe216510aee3eb5bd46b22c10d94", "lat": 38.897234166666664, "name": "0c93fe216510aee3eb5bd46b22c10d94", "lon": -77.03170066666667, "fusion_lon": 0.0}, {"is_reserved": 0, "type": "electric_scooter", "fusion_lat": 0.0, "is_disabled": 0, "rental_uris": {"ios": "https://dc.lft.to/lastmile_qr_scan", "android": "https://dc.lft.to/lastmile_qr_scan"}, "bike_id": "81978111c9b78470d9f37c453f551449", "lat": 38.91525383333333, "name": "81978111c9b78470d9f37c453f551449", "lon": -77.0217965, "fusion_lon": 0.0}, {"is_reserved": 0, "type": "electric_scooter", "fusion_lat": 0.0, "is_disabled": 0, "rental_uris": {"ios": "https://dc.lft.to/lastmile_qr_scan", "android": "https://dc.lft.to/lastmile_qr_scan"}, "bike_id": "0581eb2535e7134695963751a89fe4f0", "lat": 38.9162435, "name": "0581eb2535e7134695963751a89fe4f0", "lon": -77.0050405, "fusion_lon": 0.0}, {"is_reserved": 0, "type": "electric_scooter", "fusion_lat": 0.0, "is_disabled": 0, "rental_uris": {"ios": "https://dc.lft.to/lastmile_qr_scan", "android": "https://dc.lft.to/lastmile_qr_scan"}, "bike_id": "9cd83e5ebea44cc3d629b8cfa9dc893e", "lat": 38.93026716666667, "name": "9cd83e5ebea44cc3d629b8cfa9dc893e", "lon": -77.03787716666666, "fusion_lon": 0.0}, {"is_reserved": 0, "type": "electric_scooter", "fusion_lat": 0.0, "is_disabled": 0, "rental_uris": {"ios": "https://dc.lft.to/lastmile_qr_scan", "android": "https://dc.lft.to/lastmile_qr_scan"}, "bike_id": "ad657a7a85cac1ea2abec5bf71db5d2c", "lat": 38.91277433333333, "name": "ad657a7a85cac1ea2abec5bf71db5d2c", "lon": -77.01204983333334, "fusion_lon": 0.0}, {"is_reserved": 0, "type": "electric_scooter", "fusion_lat": 0.0, "is_disabled": 0, "rental_uris": {"ios": "https://dc.lft.to/lastmile_qr_scan", "android": "https://dc.lft.to/lastmile_qr_scan"}, "bike_id": "1dc97605854a7915c9f71a08fe24dd59", "lat": 38.94730116666667, "name": "1dc97605854a7915c9f71a08fe24dd59", "lon": -77.01942866666667, "fusion_lon": 0.0}, {"is_reserved": 0, "type": "electric_scooter", "fusion_lat": 0.0, "is_disabled": 0, "rental_uris": {"ios": "https://dc.lft.to/lastmile_qr_scan", "android": "https://dc.lft.to/lastmile_qr_scan"}, "bike_id": "20d4a64f7ccf2f4906370386f8b81fe0", "lat": 38.9053285, "name": "20d4a64f7ccf2f4906370386f8b81fe0", "lon": -77.0503085, "fusion_lon": 0.0}, {"is_reserved": 0, "type": "electric_scooter", "fusion_lat": 0.0, "is_disabled": 0, "rental_uris": {"ios": "https://dc.lft.to/lastmile_qr_scan", "android": "https://dc.lft.to/lastmile_qr_scan"}, "bike_id": "33ff940d630e2f95d5815d2d9afd61f4", "lat": 38.90344833333333, "name": "33ff940d630e2f95d5815d2d9afd61f4", "lon": -76.9749635, "fusion_lon": 0.0}, {"is_reserved": 0, "type": "electric_scooter", "fusion_lat": 0.0, "is_disabled": 0, "rental_uris": {"ios": "https://dc.lft.to/lastmile_qr_scan", "android": "https://dc.lft.to/lastmile_qr_scan"}, "bike_id": "61a2635b5e1b81ded5c4070a857b4184", "lat": 38.89925233333334, "name": "61a2635b5e1b81ded5c4070a857b4184", "lon": -77.003809, "fusion_lon": 0.0}, {"is_reserved": 0, "type": "electric_scooter", "fusion_lat": 0.0, "is_disabled": 0, "rental_uris": {"ios": "https://dc.lft.to/lastmile_qr_scan", "android": "https://dc.lft.to/lastmile_qr_scan"}, "bike_id": "90fc684f6dd87904e5991ad823f5c19a", "lat": 38.876574, "name": "90fc684f6dd87904e5991ad823f5c19a", "lon": -77.00356216666667, "fusion_lon": 0.0}, {"is_reserved": 0, "type": "electric_scooter", "fusion_lat": 0.0, "is_disabled": 0, "rental_uris": {"ios": "https://dc.lft.to/lastmile_qr_scan", "android": "https://dc.lft.to/lastmile_qr_scan"}, "bike_id": "ff612edc79b466478c15a17594ca5d7f", "lat": 38.892551166666664, "name": "ff612edc79b466478c15a17594ca5d7f", "lon": -77.028054, "fusion_lon": 0.0}, {"is_reserved": 0, "type": "electric_scooter", "fusion_lat": 0.0, "is_disabled": 0, "rental_uris": {"ios": "https://dc.lft.to/lastmile_qr_scan", "android": "https://dc.lft.to/lastmile_qr_scan"}, "bike_id": "7641f2af60bfa9bb23fec4127664a43a", "lat": 38.926192666666665, "name": "7641f2af60bfa9bb23fec4127664a43a", "lon": -76.99060266666666, "fusion_lon": 0.0}, {"is_reserved": 0, "type": "electric_scooter", "fusion_lat": 0.0, "is_disabled": 0, "rental_uris": {"ios": "https://dc.lft.to/lastmile_qr_scan", "android": "https://dc.lft.to/lastmile_qr_scan"}, "bike_id": "061f94c633ff44018c69dca6ca0dda3c", "lat": 38.899913166666664, "name": "061f94c633ff44018c69dca6ca0dda3c", "lon": -77.01942216666667, "fusion_lon": 0.0}, {"is_reserved": 0, "type": "electric_scooter", "fusion_lat": 0.0, "is_disabled": 0, "rental_uris": {"ios": "https://dc.lft.to/lastmile_qr_scan", "android": "https://dc.lft.to/lastmile_qr_scan"}, "bike_id": "4cb10480a2ccffaea720163ea5a86fd4", "lat": 38.935816, "name": "4cb10480a2ccffaea720163ea5a86fd4", "lon": -77.05841983333333, "fusion_lon": 0.0}, {"is_reserved": 0, "type": "electric_scooter", "fusion_lat": 0.0, "is_disabled": 0, "rental_uris": {"ios": "https://dc.lft.to/lastmile_qr_scan", "android": "https://dc.lft.to/lastmile_qr_scan"}, "bike_id": "f6022b59d57af30bcb94ba0e598531c4", "lat": 38.874694, "name": "f6022b59d57af30bcb94ba0e598531c4", "lon": -77.00532333333334, "fusion_lon": 0.0}, {"is_reserved": 0, "type": "electric_scooter", "fusion_lat": 0.0, "is_disabled": 0, "rental_uris": {"ios": "https://dc.lft.to/lastmile_qr_scan", "android": "https://dc.lft.to/lastmile_qr_scan"}, "bike_id": "85470c7b61c84ab25e9d84b95fbe8696", "lat": 38.87932, "name": "85470c7b61c84ab25e9d84b95fbe8696", "lon": -77.02150966666666, "fusion_lon": 0.0}, {"is_reserved": 0, "type": "electric_scooter", "fusion_lat": 0.0, "is_disabled": 0, "rental_uris": {"ios": "https://dc.lft.to/lastmile_qr_scan", "android": "https://dc.lft.to/lastmile_qr_scan"}, "bike_id": "d496310bccfb4deb626ce80885bb3cc3", "lat": 38.91085433333333, "name": "d496310bccfb4deb626ce80885bb3cc3", "lon": -77.01682616666666, "fusion_lon": 0.0}, {"is_reserved": 0, "type": "electric_scooter", "fusion_lat": 0.0, "is_disabled": 0, "rental_uris": {"ios": "https://dc.lft.to/lastmile_qr_scan", "android": "https://dc.lft.to/lastmile_qr_scan"}, "bike_id": "3349c4f9069359cf240c0482eeeedd9b", "lat": 38.894489166666666, "name": "3349c4f9069359cf240c0482eeeedd9b", "lon": -77.00224883333334, "fusion_lon": 0.0}, {"is_reserved": 0, "type": "electric_scooter", "fusion_lat": 0.0, "is_disabled": 0, "rental_uris": {"ios": "https://dc.lft.to/lastmile_qr_scan", "android": "https://dc.lft.to/lastmile_qr_scan"}, "bike_id": "ad45c57c3d299a9f594e29c7151935e0", "lat": 38.92013516666667, "name": "ad45c57c3d299a9f594e29c7151935e0", "lon": -77.07122516666666, "fusion_lon": 0.0}, {"is_reserved": 0, "type": "electric_scooter", "fusion_lat": 0.0, "is_disabled": 0, "rental_uris": {"ios": "https://dc.lft.to/lastmile_qr_scan", "android": "https://dc.lft.to/lastmile_qr_scan"}, "bike_id": "b450dbf7b0e58ad0efff148e4110c9a5", "lat": 38.92168516666667, "name": "b450dbf7b0e58ad0efff148e4110c9a5", "lon": -77.04032366666667, "fusion_lon": 0.0}, {"is_reserved": 0, "type": "electric_bike", "fusion_lat": 0.0, "is_disabled": 0, "rental_uris": {"ios": "https://dc.lft.to/lastmile_qr_scan", "android": "https://dc.lft.to/lastmile_qr_scan"}, "bike_id": "ec570dca86179d7645e60f5b5917dccf", "lat": 38.831594, "name": "ec570dca86179d7645e60f5b5917dccf", "lon": -76.99591133333334, "fusion_lon": 0.0}, {"is_reserved": 0, "type": "electric_scooter", "fusion_lat": 0.0, "is_disabled": 0, "rental_uris": {"ios": "https://dc.lft.to/lastmile_qr_scan", "android": "https://dc.lft.to/lastmile_qr_scan"}, "bike_id": "ca89c77b34e1b15e021c20d3a6d555db", "lat": 38.907273, "name": "ca89c77b34e1b15e021c20d3a6d555db", "lon": -77.0035575, "fusion_lon": 0.0}, {"is_reserved": 0, "type": "electric_scooter", "fusion_lat": 0.0, "is_disabled": 0, "rental_uris": {"ios": "https://dc.lft.to/lastmile_qr_scan", "android": "https://dc.lft.to/lastmile_qr_scan"}, "bike_id": "2d8e88881d68427736c6f0cd0e0a410d", "lat": 38.924655333333334, "name": "2d8e88881d68427736c6f0cd0e0a410d", "lon": -77.02240533333334, "fusion_lon": 0.0}, {"is_reserved": 0, "type": "electric_scooter", "fusion_lat": 0.0, "is_disabled": 0, "rental_uris": {"ios": "https://dc.lft.to/lastmile_qr_scan", "android": "https://dc.lft.to/lastmile_qr_scan"}, "bike_id": "3e2854931c28add21be7895e455268fe", "lat": 38.88532133333333, "name": "3e2854931c28add21be7895e455268fe", "lon": -76.99613616666667, "fusion_lon": 0.0}, {"is_reserved": 0, "type": "electric_scooter", "fusion_lat": 0.0, "is_disabled": 0, "rental_uris": {"ios": "https://dc.lft.to/lastmile_qr_scan", "android": "https://dc.lft.to/lastmile_qr_scan"}, "bike_id": "b92d955a899c10d120486216a4dc9119", "lat": 38.899819666666666, "name": "b92d955a899c10d120486216a4dc9119", "lon": -77.04181033333333, "fusion_lon": 0.0}, {"is_reserved": 0, "type": "electric_scooter", "fusion_lat": 0.0, "is_disabled": 0, "rental_uris": {"ios": "https://dc.lft.to/lastmile_qr_scan", "android": "https://dc.lft.to/lastmile_qr_scan"}, "bike_id": "c040df0bd8f82c7f0e40f954e12a7c69", "lat": 38.919506, "name": "c040df0bd8f82c7f0e40f954e12a7c69", "lon": -77.03236066666666, "fusion_lon": 0.0}, {"is_reserved": 0, "type": "electric_scooter", "fusion_lat": 0.0, "is_disabled": 0, "rental_uris": {"ios": "https://dc.lft.to/lastmile_qr_scan", "android": "https://dc.lft.to/lastmile_qr_scan"}, "bike_id": "b9a297a043146e31cded0f834739b82d", "lat": 38.909466, "name": "b9a297a043146e31cded0f834739b82d", "lon": -77.04659083333334, "fusion_lon": 0.0}, {"is_reserved": 0, "type": "electric_scooter", "fusion_lat": 0.0, "is_disabled": 0, "rental_uris": {"ios": "https://dc.lft.to/lastmile_qr_scan", "android": "https://dc.lft.to/lastmile_qr_scan"}, "bike_id": "3f9e2e478e7fa47b42b863f8b2452e3a", "lat": 38.9189175, "name": "3f9e2e478e7fa47b42b863f8b2452e3a", "lon": -76.96901283333334, "fusion_lon": 0.0}, {"is_reserved": 0, "type": "electric_scooter", "fusion_lat": 0.0, "is_disabled": 0, "rental_uris": {"ios": "https://dc.lft.to/lastmile_qr_scan", "android": "https://dc.lft.to/lastmile_qr_scan"}, "bike_id": "8f40d5c7af8aefa7effdb3d54609901b", "lat": 38.893950333333336, "name": "8f40d5c7af8aefa7effdb3d54609901b", "lon": -77.0213875, "fusion_lon": 0.0}, {"is_reserved": 0, "type": "electric_scooter", "fusion_lat": 0.0, "is_disabled": 0, "rental_uris": {"ios": "https://dc.lft.to/lastmile_qr_scan", "android": "https://dc.lft.to/lastmile_qr_scan"}, "bike_id": "45f710c0bfc8c661ff02ff4e6e908ab6", "lat": 38.922318, "name": "45f710c0bfc8c661ff02ff4e6e908ab6", "lon": -77.04644083333334, "fusion_lon": 0.0}, {"is_reserved": 0, "type": "electric_scooter", "fusion_lat": 0.0, "is_disabled": 0, "rental_uris": {"ios": "https://dc.lft.to/lastmile_qr_scan", "android": "https://dc.lft.to/lastmile_qr_scan"}, "bike_id": "22b450be02fdefca0a6a6350efec1eda", "lat": 38.915321, "name": "22b450be02fdefca0a6a6350efec1eda", "lon": -77.04431533333333, "fusion_lon": 0.0}, {"is_reserved": 0, "type": "electric_scooter", "fusion_lat": 0.0, "is_disabled": 0, "rental_uris": {"ios": "https://dc.lft.to/lastmile_qr_scan", "android": "https://dc.lft.to/lastmile_qr_scan"}, "bike_id": "91b4927bc51ea8b6dfd9da52f8e2dab5", "lat": 38.919882333333334, "name": "91b4927bc51ea8b6dfd9da52f8e2dab5", "lon": -77.04172916666667, "fusion_lon": 0.0}, {"is_reserved": 0, "type": "electric_scooter", "fusion_lat": 0.0, "is_disabled": 0, "rental_uris": {"ios": "https://dc.lft.to/lastmile_qr_scan", "android": "https://dc.lft.to/lastmile_qr_scan"}, "bike_id": "3e70d265ea27d718c73af140424d8c4b", "lat": 38.885438666666666, "name": "3e70d265ea27d718c73af140424d8c4b", "lon": -76.95439983333333, "fusion_lon": 0.0}, {"is_reserved": 0, "type": "electric_scooter", "fusion_lat": 0.0, "is_disabled": 0, "rental_uris": {"ios": "https://dc.lft.to/lastmile_qr_scan", "android": "https://dc.lft.to/lastmile_qr_scan"}, "bike_id": "e3738f88e9faac9bfb6bd7c86f70bb66", "lat": 38.91129983333333, "name": "e3738f88e9faac9bfb6bd7c86f70bb66", "lon": -77.02201433333333, "fusion_lon": 0.0}, {"is_reserved": 0, "type": "electric_bike", "fusion_lat": 0.0, "is_disabled": 0, "rental_uris": {"ios": "https://dc.lft.to/lastmile_qr_scan", "android": "https://dc.lft.to/lastmile_qr_scan"}, "bike_id": "5d017fe105ca465c104665b5a193287b", "lat": 38.846210666666664, "name": "5d017fe105ca465c104665b5a193287b", "lon": -76.9784385, "fusion_lon": 0.0}, {"is_reserved": 0, "type": "electric_scooter", "fusion_lat": 0.0, "is_disabled": 0, "rental_uris": {"ios": "https://dc.lft.to/lastmile_qr_scan", "android": "https://dc.lft.to/lastmile_qr_scan"}, "bike_id": "2bbe79e9143e175d55ce52bfc7819474", "lat": 38.908169, "name": "2bbe79e9143e175d55ce52bfc7819474", "lon": -77.084282, "fusion_lon": 0.0}, {"is_reserved": 0, "type": "electric_scooter", "fusion_lat": 0.0, "is_disabled": 0, "rental_uris": {"ios": "https://dc.lft.to/lastmile_qr_scan", "android": "https://dc.lft.to/lastmile_qr_scan"}, "bike_id": "22aa15b5523773afe354933320bdd928", "lat": 38.93350783333333, "name": "22aa15b5523773afe354933320bdd928", "lon": -77.02852466666667, "fusion_lon": 0.0}, {"is_reserved": 0, "type": "electric_scooter", "fusion_lat": 0.0, "is_disabled": 0, "rental_uris": {"ios": "https://dc.lft.to/lastmile_qr_scan", "android": "https://dc.lft.to/lastmile_qr_scan"}, "bike_id": "3af9f1af30fc0367df2f56a578a89a65", "lat": 38.92467366666666, "name": "3af9f1af30fc0367df2f56a578a89a65", "lon": -77.02214083333334, "fusion_lon": 0.0}, {"is_reserved": 0, "type": "electric_scooter", "fusion_lat": 0.0, "is_disabled": 0, "rental_uris": {"ios": "https://dc.lft.to/lastmile_qr_scan", "android": "https://dc.lft.to/lastmile_qr_scan"}, "bike_id": "e666c1193b6f9088a045436cff12a5ca", "lat": 38.92058316666667, "name": "e666c1193b6f9088a045436cff12a5ca", "lon": -77.02301716666666, "fusion_lon": 0.0}, {"is_reserved": 0, "type": "electric_scooter", "fusion_lat": 0.0, "is_disabled": 0, "rental_uris": {"ios": "https://dc.lft.to/lastmile_qr_scan", "android": "https://dc.lft.to/lastmile_qr_scan"}, "bike_id": "03a1b9240bc532b6fd7d94779e027c3d", "lat": 38.915613666666665, "name": "03a1b9240bc532b6fd7d94779e027c3d", "lon": -77.03259866666667, "fusion_lon": 0.0}, {"is_reserved": 0, "type": "electric_scooter", "fusion_lat": 0.0, "is_disabled": 0, "rental_uris": {"ios": "https://dc.lft.to/lastmile_qr_scan", "android": "https://dc.lft.to/lastmile_qr_scan"}, "bike_id": "96935d9297aef53388763006cd7ddd71", "lat": 38.904764666666665, "name": "96935d9297aef53388763006cd7ddd71", "lon": -77.04362083333334, "fusion_lon": 0.0}, {"is_reserved": 0, "type": "electric_scooter", "fusion_lat": 0.0, "is_disabled": 0, "rental_uris": {"ios": "https://dc.lft.to/lastmile_qr_scan", "android": "https://dc.lft.to/lastmile_qr_scan"}, "bike_id": "f3beda2f547ee27ee168cb50cb4728f1", "lat": 38.885745666666665, "name": "f3beda2f547ee27ee168cb50cb4728f1", "lon": -77.01213083333333, "fusion_lon": 0.0}, {"is_reserved": 0, "type": "electric_scooter", "fusion_lat": 0.0, "is_disabled": 0, "rental_uris": {"ios": "https://dc.lft.to/lastmile_qr_scan", "android": "https://dc.lft.to/lastmile_qr_scan"}, "bike_id": "8d2b13ddb52c2b89a319f7ad3015596e", "lat": 38.915988666666664, "name": "8d2b13ddb52c2b89a319f7ad3015596e", "lon": -76.98388583333333, "fusion_lon": 0.0}, {"is_reserved": 0, "type": "electric_scooter", "fusion_lat": 0.0, "is_disabled": 0, "rental_uris": {"ios": "https://dc.lft.to/lastmile_qr_scan", "android": "https://dc.lft.to/lastmile_qr_scan"}, "bike_id": "797cdc5f25243cef021f731cabfdf510", "lat": 38.887115, "name": "797cdc5f25243cef021f731cabfdf510", "lon": -76.9834045, "fusion_lon": 0.0}, {"is_reserved": 0, "type": "electric_scooter", "fusion_lat": 0.0, "is_disabled": 0, "rental_uris": {"ios": "https://dc.lft.to/lastmile_qr_scan", "android": "https://dc.lft.to/lastmile_qr_scan"}, "bike_id": "f40a7709f395b9c021cefd301c9c2703", "lat": 38.89964416666667, "name": "f40a7709f395b9c021cefd301c9c2703", "lon": -77.01606466666667, "fusion_lon": 0.0}, {"is_reserved": 0, "type": "electric_scooter", "fusion_lat": 0.0, "is_disabled": 0, "rental_uris": {"ios": "https://dc.lft.to/lastmile_qr_scan", "android": "https://dc.lft.to/lastmile_qr_scan"}, "bike_id": "98530ba102b6f53374e33882ebf82654", "lat": 38.9100085, "name": "98530ba102b6f53374e33882ebf82654", "lon": -77.02187033333334, "fusion_lon": 0.0}, {"is_reserved": 0, "type": "electric_scooter", "fusion_lat": 0.0, "is_disabled": 0, "rental_uris": {"ios": "https://dc.lft.to/lastmile_qr_scan", "android": "https://dc.lft.to/lastmile_qr_scan"}, "bike_id": "c1e0015e1572fd6f3872a4b1c9d517ee", "lat": 38.925920166666664, "name": "c1e0015e1572fd6f3872a4b1c9d517ee", "lon": -77.02501316666667, "fusion_lon": 0.0}, {"is_reserved": 0, "type": "electric_scooter", "fusion_lat": 0.0, "is_disabled": 0, "rental_uris": {"ios": "https://dc.lft.to/lastmile_qr_scan", "android": "https://dc.lft.to/lastmile_qr_scan"}, "bike_id": "ee7f445bfef09b088af600c804cc55d6", "lat": 38.92369166666667, "name": "ee7f445bfef09b088af600c804cc55d6", "lon": -77.01960566666666, "fusion_lon": 0.0}, {"is_reserved": 0, "type": "electric_scooter", "fusion_lat": 0.0, "is_disabled": 0, "rental_uris": {"ios": "https://dc.lft.to/lastmile_qr_scan", "android": "https://dc.lft.to/lastmile_qr_scan"}, "bike_id": "e6bae3e0a4577fb6ec9c480368b3ec2b", "lat": 38.8949585, "name": "e6bae3e0a4577fb6ec9c480368b3ec2b", "lon": -77.01088233333333, "fusion_lon": 0.0}, {"is_reserved": 0, "type": "electric_scooter", "fusion_lat": 0.0, "is_disabled": 0, "rental_uris": {"ios": "https://dc.lft.to/lastmile_qr_scan", "android": "https://dc.lft.to/lastmile_qr_scan"}, "bike_id": "c903dd0c01f0724003c83d7cca2d98db", "lat": 38.89669983333334, "name": "c903dd0c01f0724003c83d7cca2d98db", "lon": -77.0434935, "fusion_lon": 0.0}, {"is_reserved": 0, "type": "electric_scooter", "fusion_lat": 0.0, "is_disabled": 0, "rental_uris": {"ios": "https://dc.lft.to/lastmile_qr_scan", "android": "https://dc.lft.to/lastmile_qr_scan"}, "bike_id": "fb7bb91c22a0407e9f67edddc2741761", "lat": 38.924958333333336, "name": "fb7bb91c22a0407e9f67edddc2741761", "lon": -77.04336983333333, "fusion_lon": 0.0}, {"is_reserved": 0, "type": "electric_scooter", "fusion_lat": 0.0, "is_disabled": 0, "rental_uris": {"ios": "https://dc.lft.to/lastmile_qr_scan", "android": "https://dc.lft.to/lastmile_qr_scan"}, "bike_id": "00b4557868e6295a699e150178099628", "lat": 38.92170733333333, "name": "00b4557868e6295a699e150178099628", "lon": -77.02673316666667, "fusion_lon": 0.0}, {"is_reserved": 0, "type": "electric_scooter", "fusion_lat": 0.0, "is_disabled": 0, "rental_uris": {"ios": "https://dc.lft.to/lastmile_qr_scan", "android": "https://dc.lft.to/lastmile_qr_scan"}, "bike_id": "4057cc471bf2569c94cc51e479fff810", "lat": 38.909567333333335, "name": "4057cc471bf2569c94cc51e479fff810", "lon": -77.01267166666666, "fusion_lon": 0.0}, {"is_reserved": 0, "type": "electric_scooter", "fusion_lat": 0.0, "is_disabled": 0, "rental_uris": {"ios": "https://dc.lft.to/lastmile_qr_scan", "android": "https://dc.lft.to/lastmile_qr_scan"}, "bike_id": "1011686aaeaf1e58884dc9488ba86a57", "lat": 38.892195666666666, "name": "1011686aaeaf1e58884dc9488ba86a57", "lon": -77.025456, "fusion_lon": 0.0}, {"is_reserved": 0, "type": "electric_scooter", "fusion_lat": 0.0, "is_disabled": 0, "rental_uris": {"ios": "https://dc.lft.to/lastmile_qr_scan", "android": "https://dc.lft.to/lastmile_qr_scan"}, "bike_id": "83402cc21e51690c65db9ae8d557de44", "lat": 38.876888666666666, "name": "83402cc21e51690c65db9ae8d557de44", "lon": -77.007281, "fusion_lon": 0.0}, {"is_reserved": 0, "type": "electric_scooter", "fusion_lat": 0.0, "is_disabled": 0, "rental_uris": {"ios": "https://dc.lft.to/lastmile_qr_scan", "android": "https://dc.lft.to/lastmile_qr_scan"}, "bike_id": "2e389bde0aa97c4b8495e184006e759c", "lat": 38.8871395, "name": "2e389bde0aa97c4b8495e184006e759c", "lon": -76.98339416666667, "fusion_lon": 0.0}, {"is_reserved": 0, "type": "electric_scooter", "fusion_lat": 0.0, "is_disabled": 0, "rental_uris": {"ios": "https://dc.lft.to/lastmile_qr_scan", "android": "https://dc.lft.to/lastmile_qr_scan"}, "bike_id": "4f009704e1b36f14d54f558e833d801f", "lat": 38.914812166666664, "name": "4f009704e1b36f14d54f558e833d801f", "lon": -77.03705266666667, "fusion_lon": 0.0}, {"is_reserved": 0, "type": "electric_scooter", "fusion_lat": 0.0, "is_disabled": 0, "rental_uris": {"ios": "https://dc.lft.to/lastmile_qr_scan", "android": "https://dc.lft.to/lastmile_qr_scan"}, "bike_id": "23cc625ebb6ac54b27482f59160a0dfe", "lat": 38.93114683333334, "name": "23cc625ebb6ac54b27482f59160a0dfe", "lon": -77.0280555, "fusion_lon": 0.0}, {"is_reserved": 0, "type": "electric_bike", "fusion_lat": 0.0, "is_disabled": 0, "rental_uris": {"ios": "https://dc.lft.to/lastmile_qr_scan", "android": "https://dc.lft.to/lastmile_qr_scan"}, "bike_id": "10d0dd60610c5ef9589ea74ac5f5a2b5", "lat": 38.9986765, "name": "10d0dd60610c5ef9589ea74ac5f5a2b5", "lon": -77.00391483333334, "fusion_lon": 0.0}, {"is_reserved": 0, "type": "electric_scooter", "fusion_lat": 0.0, "is_disabled": 0, "rental_uris": {"ios": "https://dc.lft.to/lastmile_qr_scan", "android": "https://dc.lft.to/lastmile_qr_scan"}, "bike_id": "719a208d9b2d9da2da04fbdf6b27988b", "lat": 38.9078345, "name": "719a208d9b2d9da2da04fbdf6b27988b", "lon": -77.07247483333333, "fusion_lon": 0.0}, {"is_reserved": 0, "type": "electric_scooter", "fusion_lat": 0.0, "is_disabled": 0, "rental_uris": {"ios": "https://dc.lft.to/lastmile_qr_scan", "android": "https://dc.lft.to/lastmile_qr_scan"}, "bike_id": "65bee2bc8ba5226a463d66331d4a044b", "lat": 38.91339633333333, "name": "65bee2bc8ba5226a463d66331d4a044b", "lon": -77.025757, "fusion_lon": 0.0}, {"is_reserved": 0, "type": "electric_scooter", "fusion_lat": 0.0, "is_disabled": 0, "rental_uris": {"ios": "https://dc.lft.to/lastmile_qr_scan", "android": "https://dc.lft.to/lastmile_qr_scan"}, "bike_id": "adcc4cc6a6f125a327386a3446b9061d", "lat": 38.887717, "name": "adcc4cc6a6f125a327386a3446b9061d", "lon": -76.9326305, "fusion_lon": 0.0}, {"is_reserved": 0, "type": "electric_scooter", "fusion_lat": 0.0, "is_disabled": 0, "rental_uris": {"ios": "https://dc.lft.to/lastmile_qr_scan", "android": "https://dc.lft.to/lastmile_qr_scan"}, "bike_id": "931f5579f6cc33a96e21b111274787f5", "lat": 38.88432183333333, "name": "931f5579f6cc33a96e21b111274787f5", "lon": -77.03036616666667, "fusion_lon": 0.0}, {"is_reserved": 0, "type": "electric_scooter", "fusion_lat": 0.0, "is_disabled": 0, "rental_uris": {"ios": "https://dc.lft.to/lastmile_qr_scan", "android": "https://dc.lft.to/lastmile_qr_scan"}, "bike_id": "edb01854c9b66eeb88b47af9f30b6e5e", "lat": 38.89304116666667, "name": "edb01854c9b66eeb88b47af9f30b6e5e", "lon": -77.01513783333333, "fusion_lon": 0.0}, {"is_reserved": 0, "type": "electric_scooter", "fusion_lat": 0.0, "is_disabled": 0, "rental_uris": {"ios": "https://dc.lft.to/lastmile_qr_scan", "android": "https://dc.lft.to/lastmile_qr_scan"}, "bike_id": "40210152b88099280413b5a37f641733", "lat": 38.95432366666667, "name": "40210152b88099280413b5a37f641733", "lon": -77.01853733333333, "fusion_lon": 0.0}, {"is_reserved": 0, "type": "electric_bike", "fusion_lat": 0.0, "is_disabled": 0, "rental_uris": {"ios": "https://dc.lft.to/lastmile_qr_scan", "android": "https://dc.lft.to/lastmile_qr_scan"}, "bike_id": "25a3e34f6c6bcce1d97be89948d31102", "lat": 38.98887783333333, "name": "25a3e34f6c6bcce1d97be89948d31102", "lon": -76.98807016666666, "fusion_lon": 0.0}, {"is_reserved": 0, "type": "electric_scooter", "fusion_lat": 0.0, "is_disabled": 0, "rental_uris": {"ios": "https://dc.lft.to/lastmile_qr_scan", "android": "https://dc.lft.to/lastmile_qr_scan"}, "bike_id": "39b340040d77a9fed8a78925a6269e5a", "lat": 38.895569333333334, "name": "39b340040d77a9fed8a78925a6269e5a", "lon": -77.00918566666667, "fusion_lon": 0.0}, {"is_reserved": 0, "type": "electric_scooter", "fusion_lat": 0.0, "is_disabled": 0, "rental_uris": {"ios": "https://dc.lft.to/lastmile_qr_scan", "android": "https://dc.lft.to/lastmile_qr_scan"}, "bike_id": "8c0a401bde5a5afe45ce9f39fd4a6823", "lat": 38.93448266666667, "name": "8c0a401bde5a5afe45ce9f39fd4a6823", "lon": -77.020988, "fusion_lon": 0.0}, {"is_reserved": 0, "type": "electric_scooter", "fusion_lat": 0.0, "is_disabled": 0, "rental_uris": {"ios": "https://dc.lft.to/lastmile_qr_scan", "android": "https://dc.lft.to/lastmile_qr_scan"}, "bike_id": "cac8841837918b20d7f56afff220a62f", "lat": 38.905255, "name": "cac8841837918b20d7f56afff220a62f", "lon": -77.04750766666666, "fusion_lon": 0.0}, {"is_reserved": 0, "type": "electric_scooter", "fusion_lat": 0.0, "is_disabled": 0, "rental_uris": {"ios": "https://dc.lft.to/lastmile_qr_scan", "android": "https://dc.lft.to/lastmile_qr_scan"}, "bike_id": "69d177301b3fdf25dc0681fe5943c04d", "lat": 38.97463616666667, "name": "69d177301b3fdf25dc0681fe5943c04d", "lon": -77.01403983333333, "fusion_lon": 0.0}, {"is_reserved": 0, "type": "electric_scooter", "fusion_lat": 0.0, "is_disabled": 0, "rental_uris": {"ios": "https://dc.lft.to/lastmile_qr_scan", "android": "https://dc.lft.to/lastmile_qr_scan"}, "bike_id": "43fce17edb27d334a486ec8402fd3a29", "lat": 38.91676483333333, "name": "43fce17edb27d334a486ec8402fd3a29", "lon": -77.0346155, "fusion_lon": 0.0}, {"is_reserved": 0, "type": "electric_scooter", "fusion_lat": 0.0, "is_disabled": 0, "rental_uris": {"ios": "https://dc.lft.to/lastmile_qr_scan", "android": "https://dc.lft.to/lastmile_qr_scan"}, "bike_id": "26e3200dbb055254487582aa41a7514c", "lat": 38.896279, "name": "26e3200dbb055254487582aa41a7514c", "lon": -77.02644183333334, "fusion_lon": 0.0}, {"is_reserved": 0, "type": "electric_scooter", "fusion_lat": 0.0, "is_disabled": 0, "rental_uris": {"ios": "https://dc.lft.to/lastmile_qr_scan", "android": "https://dc.lft.to/lastmile_qr_scan"}, "bike_id": "5ecf2fa8e874e44610c8129570a779b0", "lat": 38.87471133333333, "name": "5ecf2fa8e874e44610c8129570a779b0", "lon": -77.00533333333334, "fusion_lon": 0.0}, {"is_reserved": 0, "type": "electric_scooter", "fusion_lat": 0.0, "is_disabled": 0, "rental_uris": {"ios": "https://dc.lft.to/lastmile_qr_scan", "android": "https://dc.lft.to/lastmile_qr_scan"}, "bike_id": "efebbfed1140a6f6476c4b978fe7d730", "lat": 38.89328066666667, "name": "efebbfed1140a6f6476c4b978fe7d730", "lon": -77.01962583333334, "fusion_lon": 0.0}, {"is_reserved": 0, "type": "electric_scooter", "fusion_lat": 0.0, "is_disabled": 0, "rental_uris": {"ios": "https://dc.lft.to/lastmile_qr_scan", "android": "https://dc.lft.to/lastmile_qr_scan"}, "bike_id": "483ff6279041ba97dc09d00d07d7f284", "lat": 38.922410666666664, "name": "483ff6279041ba97dc09d00d07d7f284", "lon": -77.028186, "fusion_lon": 0.0}, {"is_reserved": 0, "type": "electric_scooter", "fusion_lat": 0.0, "is_disabled": 0, "rental_uris": {"ios": "https://dc.lft.to/lastmile_qr_scan", "android": "https://dc.lft.to/lastmile_qr_scan"}, "bike_id": "ba53bf19c3192993f084bce37285cda4", "lat": 38.89900316666667, "name": "ba53bf19c3192993f084bce37285cda4", "lon": -77.02185816666666, "fusion_lon": 0.0}, {"is_reserved": 0, "type": "electric_scooter", "fusion_lat": 0.0, "is_disabled": 0, "rental_uris": {"ios": "https://dc.lft.to/lastmile_qr_scan", "android": "https://dc.lft.to/lastmile_qr_scan"}, "bike_id": "04992a3a165fcc1c9b8506b5e6d9ffc1", "lat": 38.90748216666667, "name": "04992a3a165fcc1c9b8506b5e6d9ffc1", "lon": -76.9992315, "fusion_lon": 0.0}, {"is_reserved": 0, "type": "electric_scooter", "fusion_lat": 0.0, "is_disabled": 0, "rental_uris": {"ios": "https://dc.lft.to/lastmile_qr_scan", "android": "https://dc.lft.to/lastmile_qr_scan"}, "bike_id": "6c5acaf1d5d7399058b522a2c4554700", "lat": 38.935293, "name": "6c5acaf1d5d7399058b522a2c4554700", "lon": -77.05447083333334, "fusion_lon": 0.0}, {"is_reserved": 0, "type": "electric_scooter", "fusion_lat": 0.0, "is_disabled": 0, "rental_uris": {"ios": "https://dc.lft.to/lastmile_qr_scan", "android": "https://dc.lft.to/lastmile_qr_scan"}, "bike_id": "dcb8c83531342de2e2d2f7ee77aaf1a0", "lat": 38.899656, "name": "dcb8c83531342de2e2d2f7ee77aaf1a0", "lon": -77.04838466666666, "fusion_lon": 0.0}, {"is_reserved": 0, "type": "electric_scooter", "fusion_lat": 0.0, "is_disabled": 0, "rental_uris": {"ios": "https://dc.lft.to/lastmile_qr_scan", "android": "https://dc.lft.to/lastmile_qr_scan"}, "bike_id": "85f3ebfbc316f9dd570605f417098406", "lat": 38.935834166666666, "name": "85f3ebfbc316f9dd570605f417098406", "lon": -77.07346116666666, "fusion_lon": 0.0}, {"is_reserved": 0, "type": "electric_bike", "fusion_lat": 0.0, "is_disabled": 0, "rental_uris": {"ios": "https://dc.lft.to/lastmile_qr_scan", "android": "https://dc.lft.to/lastmile_qr_scan"}, "bike_id": "612dd261a82586bb048e0a889cbe95d0", "lat": 39.006455833333334, "name": "612dd261a82586bb048e0a889cbe95d0", "lon": -76.90024316666667, "fusion_lon": 0.0}, {"is_reserved": 0, "type": "electric_scooter", "fusion_lat": 0.0, "is_disabled": 0, "rental_uris": {"ios": "https://dc.lft.to/lastmile_qr_scan", "android": "https://dc.lft.to/lastmile_qr_scan"}, "bike_id": "d48c2fd04c337fb330275ab1ea1eae1a", "lat": 38.90516233333334, "name": "d48c2fd04c337fb330275ab1ea1eae1a", "lon": -77.017194, "fusion_lon": 0.0}, {"is_reserved": 0, "type": "electric_scooter", "fusion_lat": 0.0, "is_disabled": 0, "rental_uris": {"ios": "https://dc.lft.to/lastmile_qr_scan", "android": "https://dc.lft.to/lastmile_qr_scan"}, "bike_id": "0c71b1ba7deb609ebeee2001fbddb2fe", "lat": 38.88005616666667, "name": "0c71b1ba7deb609ebeee2001fbddb2fe", "lon": -76.9983635, "fusion_lon": 0.0}, {"is_reserved": 0, "type": "electric_scooter", "fusion_lat": 0.0, "is_disabled": 0, "rental_uris": {"ios": "https://dc.lft.to/lastmile_qr_scan", "android": "https://dc.lft.to/lastmile_qr_scan"}, "bike_id": "5fbaacef8acbaa1527ab35f7caf2ac1a", "lat": 38.884305166666664, "name": "5fbaacef8acbaa1527ab35f7caf2ac1a", "lon": -76.996019, "fusion_lon": 0.0}, {"is_reserved": 0, "type": "electric_scooter", "fusion_lat": 0.0, "is_disabled": 0, "rental_uris": {"ios": "https://dc.lft.to/lastmile_qr_scan", "android": "https://dc.lft.to/lastmile_qr_scan"}, "bike_id": "efa0b6b069e283f9165dcc341955e3a0", "lat": 38.92075116666667, "name": "efa0b6b069e283f9165dcc341955e3a0", "lon": -77.02399633333333, "fusion_lon": 0.0}, {"is_reserved": 0, "type": "electric_scooter", "fusion_lat": 0.0, "is_disabled": 0, "rental_uris": {"ios": "https://dc.lft.to/lastmile_qr_scan", "android": "https://dc.lft.to/lastmile_qr_scan"}, "bike_id": "6a714d3402d9f6b70a1c2019bc3b573d", "lat": 38.883075, "name": "6a714d3402d9f6b70a1c2019bc3b573d", "lon": -76.93484133333334, "fusion_lon": 0.0}, {"is_reserved": 0, "type": "electric_scooter", "fusion_lat": 0.0, "is_disabled": 0, "rental_uris": {"ios": "https://dc.lft.to/lastmile_qr_scan", "android": "https://dc.lft.to/lastmile_qr_scan"}, "bike_id": "16a563a443f868d14ac1eaaddcf18e37", "lat": 38.9243645, "name": "16a563a443f868d14ac1eaaddcf18e37", "lon": -77.05211733333333, "fusion_lon": 0.0}, {"is_reserved": 0, "type": "electric_scooter", "fusion_lat": 0.0, "is_disabled": 0, "rental_uris": {"ios": "https://dc.lft.to/lastmile_qr_scan", "android": "https://dc.lft.to/lastmile_qr_scan"}, "bike_id": "9079ba175230384482270423631ad02a", "lat": 38.910416, "name": "9079ba175230384482270423631ad02a", "lon": -76.9981035, "fusion_lon": 0.0}, {"is_reserved": 0, "type": "electric_scooter", "fusion_lat": 0.0, "is_disabled": 0, "rental_uris": {"ios": "https://dc.lft.to/lastmile_qr_scan", "android": "https://dc.lft.to/lastmile_qr_scan"}, "bike_id": "3ddeb346ecbd47ceab34fded3a8e5bf9", "lat": 38.90830916666667, "name": "3ddeb346ecbd47ceab34fded3a8e5bf9", "lon": -76.93469733333333, "fusion_lon": 0.0}, {"is_reserved": 0, "type": "electric_scooter", "fusion_lat": 0.0, "is_disabled": 0, "rental_uris": {"ios": "https://dc.lft.to/lastmile_qr_scan", "android": "https://dc.lft.to/lastmile_qr_scan"}, "bike_id": "fefba180f2d62f255158c3860696500f", "lat": 38.9241875, "name": "fefba180f2d62f255158c3860696500f", "lon": -77.02008483333333, "fusion_lon": 0.0}, {"is_reserved": 0, "type": "electric_scooter", "fusion_lat": 0.0, "is_disabled": 0, "rental_uris": {"ios": "https://dc.lft.to/lastmile_qr_scan", "android": "https://dc.lft.to/lastmile_qr_scan"}, "bike_id": "9febef2ff2e5b72530e52001e444dfd6", "lat": 38.88141233333333, "name": "9febef2ff2e5b72530e52001e444dfd6", "lon": -76.99508583333333, "fusion_lon": 0.0}, {"is_reserved": 0, "type": "electric_bike", "fusion_lat": 0.0, "is_disabled": 0, "rental_uris": {"ios": "https://dc.lft.to/lastmile_qr_scan", "android": "https://dc.lft.to/lastmile_qr_scan"}, "bike_id": "d7571b7debae369d2389ca10555d5eb7", "lat": 38.85246816666667, "name": "d7571b7debae369d2389ca10555d5eb7", "lon": -77.1141225, "fusion_lon": 0.0}, {"is_reserved": 0, "type": "electric_scooter", "fusion_lat": 0.0, "is_disabled": 0, "rental_uris": {"ios": "https://dc.lft.to/lastmile_qr_scan", "android": "https://dc.lft.to/lastmile_qr_scan"}, "bike_id": "274b743027603728a8bf6b376a3b6b4f", "lat": 38.924416666666666, "name": "274b743027603728a8bf6b376a3b6b4f", "lon": -77.05194866666666, "fusion_lon": 0.0}, {"is_reserved": 0, "type": "electric_scooter", "fusion_lat": 0.0, "is_disabled": 0, "rental_uris": {"ios": "https://dc.lft.to/lastmile_qr_scan", "android": "https://dc.lft.to/lastmile_qr_scan"}, "bike_id": "e1612de18559f24e6c67fe4f689131f7", "lat": 38.90320083333334, "name": "e1612de18559f24e6c67fe4f689131f7", "lon": -77.03333716666667, "fusion_lon": 0.0}, {"is_reserved": 0, "type": "electric_scooter", "fusion_lat": 0.0, "is_disabled": 0, "rental_uris": {"ios": "https://dc.lft.to/lastmile_qr_scan", "android": "https://dc.lft.to/lastmile_qr_scan"}, "bike_id": "2d674562c7b9571927218bb857ef4201", "lat": 38.903955333333336, "name": "2d674562c7b9571927218bb857ef4201", "lon": -77.03955266666667, "fusion_lon": 0.0}, {"is_reserved": 0, "type": "electric_scooter", "fusion_lat": 0.0, "is_disabled": 0, "rental_uris": {"ios": "https://dc.lft.to/lastmile_qr_scan", "android": "https://dc.lft.to/lastmile_qr_scan"}, "bike_id": "378e895a68755a171e51da22eb878aa2", "lat": 38.900126, "name": "378e895a68755a171e51da22eb878aa2", "lon": -77.00708433333334, "fusion_lon": 0.0}, {"is_reserved": 0, "type": "electric_scooter", "fusion_lat": 0.0, "is_disabled": 0, "rental_uris": {"ios": "https://dc.lft.to/lastmile_qr_scan", "android": "https://dc.lft.to/lastmile_qr_scan"}, "bike_id": "e4e4a0f8543969fc77158deea4f0c3c9", "lat": 38.9241675, "name": "e4e4a0f8543969fc77158deea4f0c3c9", "lon": -77.020091, "fusion_lon": 0.0}, {"is_reserved": 0, "type": "electric_scooter", "fusion_lat": 0.0, "is_disabled": 0, "rental_uris": {"ios": "https://dc.lft.to/lastmile_qr_scan", "android": "https://dc.lft.to/lastmile_qr_scan"}, "bike_id": "ca6a377955cc9ec0de8582f93ed57fda", "lat": 38.921562, "name": "ca6a377955cc9ec0de8582f93ed57fda", "lon": -77.04360566666666, "fusion_lon": 0.0}, {"is_reserved": 0, "type": "electric_scooter", "fusion_lat": 0.0, "is_disabled": 0, "rental_uris": {"ios": "https://dc.lft.to/lastmile_qr_scan", "android": "https://dc.lft.to/lastmile_qr_scan"}, "bike_id": "c65e083503b492dd65106c9616b1495e", "lat": 38.920484333333334, "name": "c65e083503b492dd65106c9616b1495e", "lon": -77.04183916666666, "fusion_lon": 0.0}, {"is_reserved": 0, "type": "electric_bike", "fusion_lat": 0.0, "is_disabled": 0, "rental_uris": {"ios": "https://dc.lft.to/lastmile_qr_scan", "android": "https://dc.lft.to/lastmile_qr_scan"}, "bike_id": "36c893ac5704ff287ae441cba98836db", "lat": 38.91041666666667, "name": "36c893ac5704ff287ae441cba98836db", "lon": -76.923443, "fusion_lon": 0.0}, {"is_reserved": 0, "type": "electric_scooter", "fusion_lat": 0.0, "is_disabled": 0, "rental_uris": {"ios": "https://dc.lft.to/lastmile_qr_scan", "android": "https://dc.lft.to/lastmile_qr_scan"}, "bike_id": "1da6ac61e6e87cee80c6a8d6b75a383d", "lat": 38.919306, "name": "1da6ac61e6e87cee80c6a8d6b75a383d", "lon": -77.039284, "fusion_lon": 0.0}, {"is_reserved": 0, "type": "electric_scooter", "fusion_lat": 0.0, "is_disabled": 0, "rental_uris": {"ios": "https://dc.lft.to/lastmile_qr_scan", "android": "https://dc.lft.to/lastmile_qr_scan"}, "bike_id": "59b67f1029a596c89c1e9b6d1b403eac", "lat": 38.87793633333333, "name": "59b67f1029a596c89c1e9b6d1b403eac", "lon": -77.00129116666666, "fusion_lon": 0.0}, {"is_reserved": 0, "type": "electric_scooter", "fusion_lat": 0.0, "is_disabled": 0, "rental_uris": {"ios": "https://dc.lft.to/lastmile_qr_scan", "android": "https://dc.lft.to/lastmile_qr_scan"}, "bike_id": "408afa5be00eab6c441ba9c0168dbe62", "lat": 38.892539, "name": "408afa5be00eab6c441ba9c0168dbe62", "lon": -77.0260065, "fusion_lon": 0.0}, {"is_reserved": 0, "type": "electric_scooter", "fusion_lat": 0.0, "is_disabled": 0, "rental_uris": {"ios": "https://dc.lft.to/lastmile_qr_scan", "android": "https://dc.lft.to/lastmile_qr_scan"}, "bike_id": "b7f912000eaad43d45f55efb56fa7ec5", "lat": 38.91351683333333, "name": "b7f912000eaad43d45f55efb56fa7ec5", "lon": -76.97141566666667, "fusion_lon": 0.0}, {"is_reserved": 0, "type": "electric_scooter", "fusion_lat": 0.0, "is_disabled": 0, "rental_uris": {"ios": "https://dc.lft.to/lastmile_qr_scan", "android": "https://dc.lft.to/lastmile_qr_scan"}, "bike_id": "79c27920c7abc442e5f4124c302619c7", "lat": 38.934077, "name": "79c27920c7abc442e5f4124c302619c7", "lon": -77.045541, "fusion_lon": 0.0}, {"is_reserved": 0, "type": "electric_scooter", "fusion_lat": 0.0, "is_disabled": 0, "rental_uris": {"ios": "https://dc.lft.to/lastmile_qr_scan", "android": "https://dc.lft.to/lastmile_qr_scan"}, "bike_id": "8db7c0b87af19f7661c3dbeecde06eb0", "lat": 38.930067666666666, "name": "8db7c0b87af19f7661c3dbeecde06eb0", "lon": -77.03782883333334, "fusion_lon": 0.0}, {"is_reserved": 0, "type": "electric_scooter", "fusion_lat": 0.0, "is_disabled": 0, "rental_uris": {"ios": "https://dc.lft.to/lastmile_qr_scan", "android": "https://dc.lft.to/lastmile_qr_scan"}, "bike_id": "f8b2c63e7003ee17d129fbef5aa61265", "lat": 38.8846005, "name": "f8b2c63e7003ee17d129fbef5aa61265", "lon": -77.02911266666666, "fusion_lon": 0.0}, {"is_reserved": 0, "type": "electric_scooter", "fusion_lat": 0.0, "is_disabled": 0, "rental_uris": {"ios": "https://dc.lft.to/lastmile_qr_scan", "android": "https://dc.lft.to/lastmile_qr_scan"}, "bike_id": "0803fdb1f8a4b6c8843378bc667d8c82", "lat": 38.90189383333333, "name": "0803fdb1f8a4b6c8843378bc667d8c82", "lon": -76.93461016666667, "fusion_lon": 0.0}, {"is_reserved": 0, "type": "electric_scooter", "fusion_lat": 0.0, "is_disabled": 0, "rental_uris": {"ios": "https://dc.lft.to/lastmile_qr_scan", "android": "https://dc.lft.to/lastmile_qr_scan"}, "bike_id": "e3a35abfb7366b363cd19a300860ae1b", "lat": 38.929708, "name": "e3a35abfb7366b363cd19a300860ae1b", "lon": -77.023395, "fusion_lon": 0.0}, {"is_reserved": 0, "type": "electric_scooter", "fusion_lat": 0.0, "is_disabled": 0, "rental_uris": {"ios": "https://dc.lft.to/lastmile_qr_scan", "android": "https://dc.lft.to/lastmile_qr_scan"}, "bike_id": "fa6d697d868e4150f1ed769ab618fbe0", "lat": 38.924639, "name": "fa6d697d868e4150f1ed769ab618fbe0", "lon": -77.02272866666667, "fusion_lon": 0.0}, {"is_reserved": 0, "type": "electric_scooter", "fusion_lat": 0.0, "is_disabled": 0, "rental_uris": {"ios": "https://dc.lft.to/lastmile_qr_scan", "android": "https://dc.lft.to/lastmile_qr_scan"}, "bike_id": "11155af59818d4ff5033937721f369c9", "lat": 38.9272495, "name": "11155af59818d4ff5033937721f369c9", "lon": -77.0355565, "fusion_lon": 0.0}, {"is_reserved": 0, "type": "electric_scooter", "fusion_lat": 0.0, "is_disabled": 0, "rental_uris": {"ios": "https://dc.lft.to/lastmile_qr_scan", "android": "https://dc.lft.to/lastmile_qr_scan"}, "bike_id": "20127cd3a0e6a0d169ac5f6eb6e694a9", "lat": 38.91819683333333, "name": "20127cd3a0e6a0d169ac5f6eb6e694a9", "lon": -77.03205316666667, "fusion_lon": 0.0}, {"is_reserved": 0, "type": "electric_scooter", "fusion_lat": 0.0, "is_disabled": 0, "rental_uris": {"ios": "https://dc.lft.to/lastmile_qr_scan", "android": "https://dc.lft.to/lastmile_qr_scan"}, "bike_id": "c7c60909614931f0a9e83aa4f9e766aa", "lat": 38.8836085, "name": "c7c60909614931f0a9e83aa4f9e766aa", "lon": -76.9279005, "fusion_lon": 0.0}, {"is_reserved": 0, "type": "electric_scooter", "fusion_lat": 0.0, "is_disabled": 0, "rental_uris": {"ios": "https://dc.lft.to/lastmile_qr_scan", "android": "https://dc.lft.to/lastmile_qr_scan"}, "bike_id": "d5e89aaf430dad92b4a3620c1ccd681b", "lat": 38.898370166666666, "name": "d5e89aaf430dad92b4a3620c1ccd681b", "lon": -77.05003766666667, "fusion_lon": 0.0}, {"is_reserved": 0, "type": "electric_scooter", "fusion_lat": 0.0, "is_disabled": 0, "rental_uris": {"ios": "https://dc.lft.to/lastmile_qr_scan", "android": "https://dc.lft.to/lastmile_qr_scan"}, "bike_id": "537bd70cba9997a44cfffa267c4c2900", "lat": 38.931884333333336, "name": "537bd70cba9997a44cfffa267c4c2900", "lon": -77.01962233333333, "fusion_lon": 0.0}, {"is_reserved": 0, "type": "electric_scooter", "fusion_lat": 0.0, "is_disabled": 0, "rental_uris": {"ios": "https://dc.lft.to/lastmile_qr_scan", "android": "https://dc.lft.to/lastmile_qr_scan"}, "bike_id": "cfccd569b4c915f78e7b3a8e0a8d2909", "lat": 38.920586666666665, "name": "cfccd569b4c915f78e7b3a8e0a8d2909", "lon": -77.04194083333333, "fusion_lon": 0.0}, {"is_reserved": 0, "type": "electric_bike", "fusion_lat": 0.0, "is_disabled": 0, "rental_uris": {"ios": "https://dc.lft.to/lastmile_qr_scan", "android": "https://dc.lft.to/lastmile_qr_scan"}, "bike_id": "e1235b804fe7048188700dcb8e99b70a", "lat": 38.99497216666666, "name": "e1235b804fe7048188700dcb8e99b70a", "lon": -77.0013655, "fusion_lon": 0.0}, {"is_reserved": 0, "type": "electric_bike", "fusion_lat": 0.0, "is_disabled": 0, "rental_uris": {"ios": "https://dc.lft.to/lastmile_qr_scan", "android": "https://dc.lft.to/lastmile_qr_scan"}, "bike_id": "e29994437fa4e02fb40e5a019112bdf8", "lat": 38.9361205, "name": "e29994437fa4e02fb40e5a019112bdf8", "lon": -76.95001333333333, "fusion_lon": 0.0}, {"is_reserved": 0, "type": "electric_scooter", "fusion_lat": 0.0, "is_disabled": 0, "rental_uris": {"ios": "https://dc.lft.to/lastmile_qr_scan", "android": "https://dc.lft.to/lastmile_qr_scan"}, "bike_id": "332158d4f6928d3f7218464e3ae265bc", "lat": 38.917743333333334, "name": "332158d4f6928d3f7218464e3ae265bc", "lon": -77.04332883333333, "fusion_lon": 0.0}, {"is_reserved": 0, "type": "electric_scooter", "fusion_lat": 0.0, "is_disabled": 0, "rental_uris": {"ios": "https://dc.lft.to/lastmile_qr_scan", "android": "https://dc.lft.to/lastmile_qr_scan"}, "bike_id": "39e6e738825340d5d1804cd916bb09bc", "lat": 38.90650733333333, "name": "39e6e738825340d5d1804cd916bb09bc", "lon": -77.02499233333333, "fusion_lon": 0.0}, {"is_reserved": 0, "type": "electric_scooter", "fusion_lat": 0.0, "is_disabled": 0, "rental_uris": {"ios": "https://dc.lft.to/lastmile_qr_scan", "android": "https://dc.lft.to/lastmile_qr_scan"}, "bike_id": "98f444c6113aa9bc3085596563be8e2f", "lat": 38.896563666666665, "name": "98f444c6113aa9bc3085596563be8e2f", "lon": -77.033486, "fusion_lon": 0.0}, {"is_reserved": 0, "type": "electric_scooter", "fusion_lat": 0.0, "is_disabled": 0, "rental_uris": {"ios": "https://dc.lft.to/lastmile_qr_scan", "android": "https://dc.lft.to/lastmile_qr_scan"}, "bike_id": "6b328c11f2f26f61c99dd88ff75a9c6c", "lat": 38.90525216666666, "name": "6b328c11f2f26f61c99dd88ff75a9c6c", "lon": -77.05820966666667, "fusion_lon": 0.0}, {"is_reserved": 0, "type": "electric_scooter", "fusion_lat": 0.0, "is_disabled": 0, "rental_uris": {"ios": "https://dc.lft.to/lastmile_qr_scan", "android": "https://dc.lft.to/lastmile_qr_scan"}, "bike_id": "da210cd2052e92cb2fd9f314f178ebd4", "lat": 38.87686683333333, "name": "da210cd2052e92cb2fd9f314f178ebd4", "lon": -77.00331116666666, "fusion_lon": 0.0}, {"is_reserved": 0, "type": "electric_scooter", "fusion_lat": 0.0, "is_disabled": 0, "rental_uris": {"ios": "https://dc.lft.to/lastmile_qr_scan", "android": "https://dc.lft.to/lastmile_qr_scan"}, "bike_id": "8bc62e1a4c2cf725dd8bb9c20085849d", "lat": 38.894263333333335, "name": "8bc62e1a4c2cf725dd8bb9c20085849d", "lon": -77.04478, "fusion_lon": 0.0}, {"is_reserved": 0, "type": "electric_scooter", "fusion_lat": 0.0, "is_disabled": 0, "rental_uris": {"ios": "https://dc.lft.to/lastmile_qr_scan", "android": "https://dc.lft.to/lastmile_qr_scan"}, "bike_id": "09afb56983d6f11cd3fca89c289a20f4", "lat": 38.92788866666667, "name": "09afb56983d6f11cd3fca89c289a20f4", "lon": -77.03143966666667, "fusion_lon": 0.0}, {"is_reserved": 0, "type": "electric_scooter", "fusion_lat": 0.0, "is_disabled": 0, "rental_uris": {"ios": "https://dc.lft.to/lastmile_qr_scan", "android": "https://dc.lft.to/lastmile_qr_scan"}, "bike_id": "fb57d327fe91b56ddfbe376a89a09189", "lat": 38.886086666666664, "name": "fb57d327fe91b56ddfbe376a89a09189", "lon": -77.00331333333334, "fusion_lon": 0.0}, {"is_reserved": 0, "type": "electric_scooter", "fusion_lat": 0.0, "is_disabled": 0, "rental_uris": {"ios": "https://dc.lft.to/lastmile_qr_scan", "android": "https://dc.lft.to/lastmile_qr_scan"}, "bike_id": "6304bc3814914344502cf04552d42410", "lat": 38.893468, "name": "6304bc3814914344502cf04552d42410", "lon": -77.04191083333333, "fusion_lon": 0.0}, {"is_reserved": 0, "type": "electric_scooter", "fusion_lat": 0.0, "is_disabled": 0, "rental_uris": {"ios": "https://dc.lft.to/lastmile_qr_scan", "android": "https://dc.lft.to/lastmile_qr_scan"}, "bike_id": "8371f952a90a5efb84277b59744c5567", "lat": 38.9319375, "name": "8371f952a90a5efb84277b59744c5567", "lon": -77.0199115, "fusion_lon": 0.0}, {"is_reserved": 0, "type": "electric_bike", "fusion_lat": 0.0, "is_disabled": 0, "rental_uris": {"ios": "https://dc.lft.to/lastmile_qr_scan", "android": "https://dc.lft.to/lastmile_qr_scan"}, "bike_id": "336b057121dad695a6dc04a88bc078cb", "lat": 38.923538, "name": "336b057121dad695a6dc04a88bc078cb", "lon": -76.97137916666667, "fusion_lon": 0.0}, {"is_reserved": 0, "type": "electric_scooter", "fusion_lat": 0.0, "is_disabled": 0, "rental_uris": {"ios": "https://dc.lft.to/lastmile_qr_scan", "android": "https://dc.lft.to/lastmile_qr_scan"}, "bike_id": "bff741b173a1502da49c4819328aec0c", "lat": 38.9367705, "name": "bff741b173a1502da49c4819328aec0c", "lon": -77.03266416666666, "fusion_lon": 0.0}, {"is_reserved": 0, "type": "electric_scooter", "fusion_lat": 0.0, "is_disabled": 0, "rental_uris": {"ios": "https://dc.lft.to/lastmile_qr_scan", "android": "https://dc.lft.to/lastmile_qr_scan"}, "bike_id": "1ca4740a4f3e188717a1642a3aff087e", "lat": 38.89876, "name": "1ca4740a4f3e188717a1642a3aff087e", "lon": -77.0465595, "fusion_lon": 0.0}, {"is_reserved": 0, "type": "electric_scooter", "fusion_lat": 0.0, "is_disabled": 0, "rental_uris": {"ios": "https://dc.lft.to/lastmile_qr_scan", "android": "https://dc.lft.to/lastmile_qr_scan"}, "bike_id": "2b30fdb37d983bbf06086baa1b0125d0", "lat": 38.93420883333334, "name": "2b30fdb37d983bbf06086baa1b0125d0", "lon": -77.03293583333334, "fusion_lon": 0.0}, {"is_reserved": 0, "type": "electric_scooter", "fusion_lat": 0.0, "is_disabled": 0, "rental_uris": {"ios": "https://dc.lft.to/lastmile_qr_scan", "android": "https://dc.lft.to/lastmile_qr_scan"}, "bike_id": "e50a36ed16b1241020caf96ea7d95b76", "lat": 38.913754, "name": "e50a36ed16b1241020caf96ea7d95b76", "lon": -77.038519, "fusion_lon": 0.0}, {"is_reserved": 0, "type": "electric_scooter", "fusion_lat": 0.0, "is_disabled": 0, "rental_uris": {"ios": "https://dc.lft.to/lastmile_qr_scan", "android": "https://dc.lft.to/lastmile_qr_scan"}, "bike_id": "76dce8edb4ebc694d944b706eeda5914", "lat": 38.89882733333334, "name": "76dce8edb4ebc694d944b706eeda5914", "lon": -77.03983333333333, "fusion_lon": 0.0}, {"is_reserved": 0, "type": "electric_scooter", "fusion_lat": 0.0, "is_disabled": 0, "rental_uris": {"ios": "https://dc.lft.to/lastmile_qr_scan", "android": "https://dc.lft.to/lastmile_qr_scan"}, "bike_id": "fdcbab4ce153f14fb5fdf10096672a6c", "lat": 38.902551833333334, "name": "fdcbab4ce153f14fb5fdf10096672a6c", "lon": -77.051642, "fusion_lon": 0.0}, {"is_reserved": 0, "type": "electric_scooter", "fusion_lat": 0.0, "is_disabled": 0, "rental_uris": {"ios": "https://dc.lft.to/lastmile_qr_scan", "android": "https://dc.lft.to/lastmile_qr_scan"}, "bike_id": "e28e6d27c23670851e42720dbb00ac17", "lat": 38.92061616666667, "name": "e28e6d27c23670851e42720dbb00ac17", "lon": -77.04208, "fusion_lon": 0.0}, {"is_reserved": 0, "type": "electric_scooter", "fusion_lat": 0.0, "is_disabled": 0, "rental_uris": {"ios": "https://dc.lft.to/lastmile_qr_scan", "android": "https://dc.lft.to/lastmile_qr_scan"}, "bike_id": "d87696b57b80173cb9540187bc2089f4", "lat": 38.900328, "name": "d87696b57b80173cb9540187bc2089f4", "lon": -77.01242416666666, "fusion_lon": 0.0}, {"is_reserved": 0, "type": "electric_scooter", "fusion_lat": 0.0, "is_disabled": 0, "rental_uris": {"ios": "https://dc.lft.to/lastmile_qr_scan", "android": "https://dc.lft.to/lastmile_qr_scan"}, "bike_id": "f380abe3280011b267ec7b21b7a93a34", "lat": 38.8996955, "name": "f380abe3280011b267ec7b21b7a93a34", "lon": -77.0257065, "fusion_lon": 0.0}, {"is_reserved": 0, "type": "electric_scooter", "fusion_lat": 0.0, "is_disabled": 0, "rental_uris": {"ios": "https://dc.lft.to/lastmile_qr_scan", "android": "https://dc.lft.to/lastmile_qr_scan"}, "bike_id": "873c3ff1c1c6b9997a071dfe0fb5c8ca", "lat": 38.917907666666665, "name": "873c3ff1c1c6b9997a071dfe0fb5c8ca", "lon": -77.02311283333333, "fusion_lon": 0.0}, {"is_reserved": 0, "type": "electric_scooter", "fusion_lat": 0.0, "is_disabled": 0, "rental_uris": {"ios": "https://dc.lft.to/lastmile_qr_scan", "android": "https://dc.lft.to/lastmile_qr_scan"}, "bike_id": "5f0220288ec51f9bd94ba45ff2cc8f12", "lat": 38.916955333333334, "name": "5f0220288ec51f9bd94ba45ff2cc8f12", "lon": -77.04109383333333, "fusion_lon": 0.0}, {"is_reserved": 0, "type": "electric_scooter", "fusion_lat": 0.0, "is_disabled": 0, "rental_uris": {"ios": "https://dc.lft.to/lastmile_qr_scan", "android": "https://dc.lft.to/lastmile_qr_scan"}, "bike_id": "8d43d8b45ab55afeee3444e0ab765621", "lat": 38.92479266666667, "name": "8d43d8b45ab55afeee3444e0ab765621", "lon": -77.0089625, "fusion_lon": 0.0}, {"is_reserved": 0, "type": "electric_scooter", "fusion_lat": 0.0, "is_disabled": 0, "rental_uris": {"ios": "https://dc.lft.to/lastmile_qr_scan", "android": "https://dc.lft.to/lastmile_qr_scan"}, "bike_id": "67153f0f076b544c485bb493e5b29e3c", "lat": 38.91492233333334, "name": "67153f0f076b544c485bb493e5b29e3c", "lon": -77.04944966666666, "fusion_lon": 0.0}, {"is_reserved": 0, "type": "electric_scooter", "fusion_lat": 0.0, "is_disabled": 0, "rental_uris": {"ios": "https://dc.lft.to/lastmile_qr_scan", "android": "https://dc.lft.to/lastmile_qr_scan"}, "bike_id": "ba18484e908e835ba3af2f46dcd91a12", "lat": 38.90861183333333, "name": "ba18484e908e835ba3af2f46dcd91a12", "lon": -77.04859766666667, "fusion_lon": 0.0}, {"is_reserved": 0, "type": "electric_scooter", "fusion_lat": 0.0, "is_disabled": 0, "rental_uris": {"ios": "https://dc.lft.to/lastmile_qr_scan", "android": "https://dc.lft.to/lastmile_qr_scan"}, "bike_id": "667bd5cd06cd2e5024cad5894db7cdd4", "lat": 38.893134833333335, "name": "667bd5cd06cd2e5024cad5894db7cdd4", "lon": -77.01539783333334, "fusion_lon": 0.0}, {"is_reserved": 0, "type": "electric_scooter", "fusion_lat": 0.0, "is_disabled": 0, "rental_uris": {"ios": "https://dc.lft.to/lastmile_qr_scan", "android": "https://dc.lft.to/lastmile_qr_scan"}, "bike_id": "78ae341d37dde80e1a4e3a8e15c7469b", "lat": 38.93955533333333, "name": "78ae341d37dde80e1a4e3a8e15c7469b", "lon": -77.07247133333334, "fusion_lon": 0.0}, {"is_reserved": 0, "type": "electric_scooter", "fusion_lat": 0.0, "is_disabled": 0, "rental_uris": {"ios": "https://dc.lft.to/lastmile_qr_scan", "android": "https://dc.lft.to/lastmile_qr_scan"}, "bike_id": "e7fcd1ae57eced4c43cf86d6d7486c82", "lat": 38.88718866666667, "name": "e7fcd1ae57eced4c43cf86d6d7486c82", "lon": -77.01380416666667, "fusion_lon": 0.0}, {"is_reserved": 0, "type": "electric_scooter", "fusion_lat": 0.0, "is_disabled": 0, "rental_uris": {"ios": "https://dc.lft.to/lastmile_qr_scan", "android": "https://dc.lft.to/lastmile_qr_scan"}, "bike_id": "f431c7213b6bafa9b8903b84fef87366", "lat": 38.9019715, "name": "f431c7213b6bafa9b8903b84fef87366", "lon": -77.04821216666667, "fusion_lon": 0.0}, {"is_reserved": 0, "type": "electric_scooter", "fusion_lat": 0.0, "is_disabled": 0, "rental_uris": {"ios": "https://dc.lft.to/lastmile_qr_scan", "android": "https://dc.lft.to/lastmile_qr_scan"}, "bike_id": "1f76dabe732ea7317c99cc15bb8c0ef3", "lat": 38.93538566666667, "name": "1f76dabe732ea7317c99cc15bb8c0ef3", "lon": -77.03473616666666, "fusion_lon": 0.0}, {"is_reserved": 0, "type": "electric_scooter", "fusion_lat": 0.0, "is_disabled": 0, "rental_uris": {"ios": "https://dc.lft.to/lastmile_qr_scan", "android": "https://dc.lft.to/lastmile_qr_scan"}, "bike_id": "e2e0fe4e4d1f23ec90cf7ccfc3991901", "lat": 38.9241415, "name": "e2e0fe4e4d1f23ec90cf7ccfc3991901", "lon": -77.02002916666666, "fusion_lon": 0.0}, {"is_reserved": 0, "type": "electric_scooter", "fusion_lat": 0.0, "is_disabled": 0, "rental_uris": {"ios": "https://dc.lft.to/lastmile_qr_scan", "android": "https://dc.lft.to/lastmile_qr_scan"}, "bike_id": "b9e18aa050466b7c1a2423211b2ea41d", "lat": 38.9111035, "name": "b9e18aa050466b7c1a2423211b2ea41d", "lon": -77.03362166666666, "fusion_lon": 0.0},