{"data": {"bikes": [{"fusion_lat": 0.0, "name": "91073a5648f38ed7911473849c8ad105", "is_disabled": 0, "rental_uris": {"android": "https://dc.lft.to/lastmile_qr_scan", "ios": "https://dc.lft.to/lastmile_qr_scan"}, "fusion_lon": 0.0, "lat": 38.92790333333333, "bike_id": "91073a5648f38ed7911473849c8ad105", "type": "electric_scooter", "is_reserved": 0, "lon": -77.03214033333333}, {"fusion_lat": 0.0, "name": "74371314c051054701bd926698627e4d", "is_disabled": 0, "rental_uris": {"android": "https://dc.lft.to/lastmile_qr_scan", "ios": "https://dc.lft.to/lastmile_qr_scan"}, "fusion_lon": 0.0, "lat": 38.89954266666667, "bike_id": "74371314c051054701bd926698627e4d", "type": "electric_scooter", "is_reserved": 0, "lon": -77.02399633333333}, {"fusion_lat": 0.0, "name": "54afbc33745deb0a5c94438d2ccd1cdc", "is_disabled": 0, "rental_uris": {"android": "https://dc.lft.to/lastmile_qr_scan", "ios": "https://dc.lft.to/lastmile_qr_scan"}, "fusion_lon": 0.0, "lat": 38.903781, "bike_id": "54afbc33745deb0a5c94438d2ccd1cdc", "type": "electric_scooter", "is_reserved": 0, "lon": -77.01844733333333}, {"fusion_lat": 0.0, "name": "f2f61cbb85732bdf79d56a3522a4b806", "is_disabled": 0, "rental_uris": {"android": "https://dc.lft.to/lastmile_qr_scan", "ios": "https://dc.lft.to/lastmile_qr_scan"}, "fusion_lon": 0.0, "lat": 38.917677166666664, "bike_id": "f2f61cbb85732bdf79d56a3522a4b806", "type": "electric_scooter", "is_reserved": 0, "lon": -77.03638083333334}, {"fusion_lat": 0.0, "name": "8f9a6f3a5901c61e6c8b8a2ef250c787", "is_disabled": 0, "rental_uris": {"android": "https://dc.lft.to/lastmile_qr_scan", "ios": "https://dc.lft.to/lastmile_qr_scan"}, "fusion_lon": 0.0, "lat": 38.91300833333333, "bike_id": "8f9a6f3a5901c61e6c8b8a2ef250c787", "type": "electric_scooter", "is_reserved": 0, "lon": -77.048755}, {"fusion_lat": 0.0, "name": "bf44fae7fbbe813f139cf45bcb9ecc9d", "is_disabled": 0, "rental_uris": {"android": "https://dc.lft.to/lastmile_qr_scan", "ios": "https://dc.lft.to/lastmile_qr_scan"}, "fusion_lon": 0.0, "lat": 38.80493833333333, "bike_id": "bf44fae7fbbe813f139cf45bcb9ecc9d", "type": "electric_bike", "is_reserved": 0, "lon": -77.101627}, {"fusion_lat": 0.0, "name": "a70ce3c0f49ab0521f8279bbfcfb0c5d", "is_disabled": 0, "rental_uris": {"android": "https://dc.lft.to/lastmile_qr_scan", "ios": "https://dc.lft.to/lastmile_qr_scan"}, "fusion_lon": 0.0, "lat": 38.92505116666667, "bike_id": "a70ce3c0f49ab0521f8279bbfcfb0c5d", "type": "electric_scooter", "is_reserved": 0, "lon": -77.0214255}, {"fusion_lat": 0.0, "name": "84fc86d49a41c1c82ea8842d3fcf584e", "is_disabled": 0, "rental_uris": {"android": "https://dc.lft.to/lastmile_qr_scan", "ios": "https://dc.lft.to/lastmile_qr_scan"}, "fusion_lon": 0.0, "lat": 38.9196145, "bike_id": "84fc86d49a41c1c82ea8842d3fcf584e", "type": "electric_scooter", "is_reserved": 0, "lon": -77.07111716666667}, {"fusion_lat": 0.0, "name": "5ac48c7a2f260960c20c4e71ddbc8541", "is_disabled": 0, "rental_uris": {"android": "https://dc.lft.to/lastmile_qr_scan", "ios": "https://dc.lft.to/lastmile_qr_scan"}, "fusion_lon": 0.0, "lat": 38.861684333333336, "bike_id": "5ac48c7a2f260960c20c4e71ddbc8541", "type": "electric_scooter", "is_reserved": 0, "lon": -76.98367466666667}, {"fusion_lat": 0.0, "name": "849dac19f9c6b4123e1b124869901ba6", "is_disabled": 0, "rental_uris": {"android": "https://dc.lft.to/lastmile_qr_scan", "ios": "https://dc.lft.to/lastmile_qr_scan"}, "fusion_lon": 0.0, "lat": 38.94910683333333, "bike_id": "849dac19f9c6b4123e1b124869901ba6", "type": "electric_bike", "is_reserved": 0, "lon": -76.96376066666667}, {"fusion_lat": 0.0, "name": "bf4f4ab5531bbf90775b85e292454a09", "is_disabled": 0, "rental_uris": {"android": "https://dc.lft.to/lastmile_qr_scan", "ios": "https://dc.lft.to/lastmile_qr_scan"}, "fusion_lon": 0.0, "lat": 38.892861, "bike_id": "bf4f4ab5531bbf90775b85e292454a09", "type": "electric_scooter", "is_reserved": 0, "lon": -76.98304833333333}, {"fusion_lat": 0.0, "name": "af81484105eabcc1189efc8e4e91ccd5", "is_disabled": 0, "rental_uris": {"android": "https://dc.lft.to/lastmile_qr_scan", "ios": "https://dc.lft.to/lastmile_qr_scan"}, "fusion_lon": 0.0, "lat": 38.920078333333336, "bike_id": "af81484105eabcc1189efc8e4e91ccd5", "type": "electric_scooter", "is_reserved": 0, "lon": -77.03141566666666}, {"fusion_lat": 0.0, "name": "068b207649dc5bf8bd16c29154130f00", "is_disabled": 0, "rental_uris": {"android": "https://dc.lft.to/lastmile_qr_scan", "ios": "https://dc.lft.to/lastmile_qr_scan"}, "fusion_lon": 0.0, "lat": 38.92076516666667, "bike_id": "068b207649dc5bf8bd16c29154130f00", "type": "electric_scooter", "is_reserved": 0, "lon": -77.00213633333334}, {"fusion_lat": 0.0, "name": "7c7d5f73f5f44c287b08fdfd5630dbb9", "is_disabled": 0, "rental_uris": {"android": "https://dc.lft.to/lastmile_qr_scan", "ios": "https://dc.lft.to/lastmile_qr_scan"}, "fusion_lon": 0.0, "lat": 38.935969, "bike_id": "7c7d5f73f5f44c287b08fdfd5630dbb9", "type": "electric_scooter", "is_reserved": 0, "lon": -77.02285266666667}, {"fusion_lat": 0.0, "name": "b413dae2b4af19454f80f335cb4c4d12", "is_disabled": 0, "rental_uris": {"android": "https://dc.lft.to/lastmile_qr_scan", "ios": "https://dc.lft.to/lastmile_qr_scan"}, "fusion_lon": 0.0, "lat": 38.906438, "bike_id": "b413dae2b4af19454f80f335cb4c4d12", "type": "electric_scooter", "is_reserved": 0, "lon": -77.01796833333333}, {"fusion_lat": 0.0, "name": "6ff3fe495ac28fff450a5ae8523c2cfc", "is_disabled": 0, "rental_uris": {"android": "https://dc.lft.to/lastmile_qr_scan", "ios": "https://dc.lft.to/lastmile_qr_scan"}, "fusion_lon": 0.0, "lat": 38.90891716666667, "bike_id": "6ff3fe495ac28fff450a5ae8523c2cfc", "type": "electric_scooter", "is_reserved": 0, "lon": -77.03285866666667}, {"fusion_lat": 0.0, "name": "19a11530ee4e05e09988318631f3af07", "is_disabled": 0, "rental_uris": {"android": "https://dc.lft.to/lastmile_qr_scan", "ios": "https://dc.lft.to/lastmile_qr_scan"}, "fusion_lon": 0.0, "lat": 38.907847, "bike_id": "19a11530ee4e05e09988318631f3af07", "type": "electric_scooter", "is_reserved": 0, "lon": -77.03855116666666}, {"fusion_lat": 0.0, "name": "959e0184ad16dcd28b96ffb75206f5ef", "is_disabled": 0, "rental_uris": {"android": "https://dc.lft.to/lastmile_qr_scan", "ios": "https://dc.lft.to/lastmile_qr_scan"}, "fusion_lon": 0.0, "lat": 38.91798566666667, "bike_id": "959e0184ad16dcd28b96ffb75206f5ef", "type": "electric_scooter", "is_reserved": 0, "lon": -77.03209016666666}, {"fusion_lat": 0.0, "name": "3da5b686e501348aa43d2f94c534eebf", "is_disabled": 0, "rental_uris": {"android": "https://dc.lft.to/lastmile_qr_scan", "ios": "https://dc.lft.to/lastmile_qr_scan"}, "fusion_lon": 0.0, "lat": 38.879144833333335, "bike_id": "3da5b686e501348aa43d2f94c534eebf", "type": "electric_scooter", "is_reserved": 0, "lon": -77.00762866666666}, {"fusion_lat": 0.0, "name": "4f5fb36103e624530a228ddfaf92c61b", "is_disabled": 0, "rental_uris": {"android": "https://dc.lft.to/lastmile_qr_scan", "ios": "https://dc.lft.to/lastmile_qr_scan"}, "fusion_lon": 0.0, "lat": 38.865148, "bike_id": "4f5fb36103e624530a228ddfaf92c61b", "type": "electric_bike", "is_reserved": 0, "lon": -77.12940583333334}, {"fusion_lat": 0.0, "name": "3b6a1c0a7eedc0040f32cbb3678caf90", "is_disabled": 0, "rental_uris": {"android": "https://dc.lft.to/lastmile_qr_scan", "ios": "https://dc.lft.to/lastmile_qr_scan"}, "fusion_lon": 0.0, "lat": 38.91682083333333, "bike_id": "3b6a1c0a7eedc0040f32cbb3678caf90", "type": "electric_scooter", "is_reserved": 0, "lon": -77.03631783333333}, {"fusion_lat": 0.0, "name": "e6f8b31b5e38dc9c7f133541f5219111", "is_disabled": 0, "rental_uris": {"android": "https://dc.lft.to/lastmile_qr_scan", "ios": "https://dc.lft.to/lastmile_qr_scan"}, "fusion_lon": 0.0, "lat": 38.902586, "bike_id": "e6f8b31b5e38dc9c7f133541f5219111", "type": "electric_scooter", "is_reserved": 0, "lon": -77.02728016666667}, {"fusion_lat": 0.0, "name": "68b129448cad31e68adf15ab42222dd5", "is_disabled": 0, "rental_uris": {"android": "https://dc.lft.to/lastmile_qr_scan", "ios": "https://dc.lft.to/lastmile_qr_scan"}, "fusion_lon": 0.0, "lat": 38.938153, "bike_id": "68b129448cad31e68adf15ab42222dd5", "type": "electric_scooter", "is_reserved": 0, "lon": -77.06018233333333}, {"fusion_lat": 0.0, "name": "3cfe1c18c9c013394c8aa1ff47a72f9c", "is_disabled": 0, "rental_uris": {"android": "https://dc.lft.to/lastmile_qr_scan", "ios": "https://dc.lft.to/lastmile_qr_scan"}, "fusion_lon": 0.0, "lat": 38.90216566666667, "bike_id": "3cfe1c18c9c013394c8aa1ff47a72f9c", "type": "electric_scooter", "is_reserved": 0, "lon": -76.99504916666666}, {"fusion_lat": 0.0, "name": "cab18fb74c31c4c677ce4ea118745c39", "is_disabled": 0, "rental_uris": {"android": "https://dc.lft.to/lastmile_qr_scan", "ios": "https://dc.lft.to/lastmile_qr_scan"}, "fusion_lon": 0.0, "lat": 38.933983833333336, "bike_id": "cab18fb74c31c4c677ce4ea118745c39", "type": "electric_scooter", "is_reserved": 0, "lon": -77.05767116666667}, {"fusion_lat": 0.0, "name": "d2164e9f8964a0941aee42d77e4b4ebf", "is_disabled": 0, "rental_uris": {"android": "https://dc.lft.to/lastmile_qr_scan", "ios": "https://dc.lft.to/lastmile_qr_scan"}, "fusion_lon": 0.0, "lat": 38.906892, "bike_id": "d2164e9f8964a0941aee42d77e4b4ebf", "type": "electric_scooter", "is_reserved": 0, "lon": -77.06123933333333}, {"fusion_lat": 0.0, "name": "fe893d3fb6ba7d2d25a75dc8ab9f54f1", "is_disabled": 0, "rental_uris": {"android": "https://dc.lft.to/lastmile_qr_scan", "ios": "https://dc.lft.to/lastmile_qr_scan"}, "fusion_lon": 0.0, "lat": 38.925078166666665, "bike_id": "fe893d3fb6ba7d2d25a75dc8ab9f54f1", "type": "electric_scooter", "is_reserved": 0, "lon": -77.0025835}, {"fusion_lat": 0.0, "name": "1be9228a695d42e7b73aef92b9aff7a4", "is_disabled": 0, "rental_uris": {"android": "https://dc.lft.to/lastmile_qr_scan", "ios": "https://dc.lft.to/lastmile_qr_scan"}, "fusion_lon": 0.0, "lat": 38.84085783333333, "bike_id": "1be9228a695d42e7b73aef92b9aff7a4", "type": "electric_bike", "is_reserved": 0, "lon": -76.97028183333333}, {"fusion_lat": 0.0, "name": "28c361f61f6c383dc56383b3d0286096", "is_disabled": 0, "rental_uris": {"android": "https://dc.lft.to/lastmile_qr_scan", "ios": "https://dc.lft.to/lastmile_qr_scan"}, "fusion_lon": 0.0, "lat": 38.90022533333333, "bike_id": "28c361f61f6c383dc56383b3d0286096", "type": "electric_scooter", "is_reserved": 0, "lon": -77.000421}, {"fusion_lat": 0.0, "name": "5487301decfab589c313044f248f47e8", "is_disabled": 0, "rental_uris": {"android": "https://dc.lft.to/lastmile_qr_scan", "ios": "https://dc.lft.to/lastmile_qr_scan"}, "fusion_lon": 0.0, "lat": 38.924594166666665, "bike_id": "5487301decfab589c313044f248f47e8", "type": "electric_scooter", "is_reserved": 0, "lon": -77.0522535}, {"fusion_lat": 0.0, "name": "9f182bc278afde8f24e4afc1de8b5134", "is_disabled": 0, "rental_uris": {"android": "https://dc.lft.to/lastmile_qr_scan", "ios": "https://dc.lft.to/lastmile_qr_scan"}, "fusion_lon": 0.0, "lat": 38.931174666666664, "bike_id": "9f182bc278afde8f24e4afc1de8b5134", "type": "electric_scooter", "is_reserved": 0, "lon": -77.020977}, {"fusion_lat": 0.0, "name": "b78783d880129a175bd7e38ad45c27e5", "is_disabled": 0, "rental_uris": {"android": "https://dc.lft.to/lastmile_qr_scan", "ios": "https://dc.lft.to/lastmile_qr_scan"}, "fusion_lon": 0.0, "lat": 38.916972333333334, "bike_id": "b78783d880129a175bd7e38ad45c27e5", "type": "electric_scooter", "is_reserved": 0, "lon": -77.040453}, {"fusion_lat": 0.0, "name": "b44a0c26faa8699afa4c1dfcd67db721", "is_disabled": 0, "rental_uris": {"android": "https://dc.lft.to/lastmile_qr_scan", "ios": "https://dc.lft.to/lastmile_qr_scan"}, "fusion_lon": 0.0, "lat": 38.920230833333335, "bike_id": "b44a0c26faa8699afa4c1dfcd67db721", "type": "electric_scooter", "is_reserved": 0, "lon": -77.0713025}, {"fusion_lat": 0.0, "name": "463eb06896c4eed3ffa7e54f5198584f", "is_disabled": 0, "rental_uris": {"android": "https://dc.lft.to/lastmile_qr_scan", "ios": "https://dc.lft.to/lastmile_qr_scan"}, "fusion_lon": 0.0, "lat": 38.906073, "bike_id": "463eb06896c4eed3ffa7e54f5198584f", "type": "electric_scooter", "is_reserved": 0, "lon": -77.05692883333333}, {"fusion_lat": 0.0, "name": "f354d2ea9aa5996b63a835a5356b476a", "is_disabled": 0, "rental_uris": {"android": "https://dc.lft.to/lastmile_qr_scan", "ios": "https://dc.lft.to/lastmile_qr_scan"}, "fusion_lon": 0.0, "lat": 38.9063705, "bike_id": "f354d2ea9aa5996b63a835a5356b476a", "type": "electric_scooter", "is_reserved": 0, "lon": -77.01136933333333}, {"fusion_lat": 0.0, "name": "465ada3a55d46ca9fa615cdb6a6409b4", "is_disabled": 0, "rental_uris": {"android": "https://dc.lft.to/lastmile_qr_scan", "ios": "https://dc.lft.to/lastmile_qr_scan"}, "fusion_lon": 0.0, "lat": 38.921496166666664, "bike_id": "465ada3a55d46ca9fa615cdb6a6409b4", "type": "electric_scooter", "is_reserved": 0, "lon": -77.03862583333333}, {"fusion_lat": 0.0, "name": "3273a58983916f3b2aaf7d78d4042e5e", "is_disabled": 0, "rental_uris": {"android": "https://dc.lft.to/lastmile_qr_scan", "ios": "https://dc.lft.to/lastmile_qr_scan"}, "fusion_lon": 0.0, "lat": 38.93846533333333, "bike_id": "3273a58983916f3b2aaf7d78d4042e5e", "type": "electric_scooter", "is_reserved": 0, "lon": -77.06248316666667}, {"fusion_lat": 0.0, "name": "e36e03d741d2853aeb264ab9e6bd0b02", "is_disabled": 0, "rental_uris": {"android": "https://dc.lft.to/lastmile_qr_scan", "ios": "https://dc.lft.to/lastmile_qr_scan"}, "fusion_lon": 0.0, "lat": 38.955295, "bike_id": "e36e03d741d2853aeb264ab9e6bd0b02", "type": "electric_bike", "is_reserved": 0, "lon": -76.96818833333333}, {"fusion_lat": 0.0, "name": "df71d35d5a1a420153f984c579805f8f", "is_disabled": 0, "rental_uris": {"android": "https://dc.lft.to/lastmile_qr_scan", "ios": "https://dc.lft.to/lastmile_qr_scan"}, "fusion_lon": 0.0, "lat": 38.90328616666667, "bike_id": "df71d35d5a1a420153f984c579805f8f", "type": "electric_scooter", "is_reserved": 0, "lon": -77.0449215}, {"fusion_lat": 0.0, "name": "b3ddc7dcbcf0bdace48d7f3cb10d0eee", "is_disabled": 0, "rental_uris": {"android": "https://dc.lft.to/lastmile_qr_scan", "ios": "https://dc.lft.to/lastmile_qr_scan"}, "fusion_lon": 0.0, "lat": 38.9351595, "bike_id": "b3ddc7dcbcf0bdace48d7f3cb10d0eee", "type": "electric_scooter", "is_reserved": 0, "lon": -77.03345083333333}, {"fusion_lat": 0.0, "name": "db42021a078656d7222250fd6897b78f", "is_disabled": 0, "rental_uris": {"android": "https://dc.lft.to/lastmile_qr_scan", "ios": "https://dc.lft.to/lastmile_qr_scan"}, "fusion_lon": 0.0, "lat": 38.8791785, "bike_id": "db42021a078656d7222250fd6897b78f", "type": "electric_scooter", "is_reserved": 0, "lon": -77.02269233333334}, {"fusion_lat": 0.0, "name": "9c051a5be3952b4099a13b6a31615b88", "is_disabled": 0, "rental_uris": {"android": "https://dc.lft.to/lastmile_qr_scan", "ios": "https://dc.lft.to/lastmile_qr_scan"}, "fusion_lon": 0.0, "lat": 38.90960033333333, "bike_id": "9c051a5be3952b4099a13b6a31615b88", "type": "electric_scooter", "is_reserved": 0, "lon": -77.04456133333333}, {"fusion_lat": 0.0, "name": "10c5f648c4369dbc80ae03e519465637", "is_disabled": 0, "rental_uris": {"android": "https://dc.lft.to/lastmile_qr_scan", "ios": "https://dc.lft.to/lastmile_qr_scan"}, "fusion_lon": 0.0, "lat": 38.92481433333333, "bike_id": "10c5f648c4369dbc80ae03e519465637", "type": "electric_scooter", "is_reserved": 0, "lon": -77.02629083333333}, {"fusion_lat": 0.0, "name": "f2b64098fdae8bda9eef03f3d14dfad9", "is_disabled": 0, "rental_uris": {"android": "https://dc.lft.to/lastmile_qr_scan", "ios": "https://dc.lft.to/lastmile_qr_scan"}, "fusion_lon": 0.0, "lat": 38.922451833333334, "bike_id": "f2b64098fdae8bda9eef03f3d14dfad9", "type": "electric_scooter", "is_reserved": 0, "lon": -77.07477866666666}, {"fusion_lat": 0.0, "name": "057ab533062ca0e9ebbed04d94c93855", "is_disabled": 0, "rental_uris": {"android": "https://dc.lft.to/lastmile_qr_scan", "ios": "https://dc.lft.to/lastmile_qr_scan"}, "fusion_lon": 0.0, "lat": 38.93193383333333, "bike_id": "057ab533062ca0e9ebbed04d94c93855", "type": "electric_bike", "is_reserved": 0, "lon": -77.22927316666667}, {"fusion_lat": 0.0, "name": "c50dda1e4eb82a590329a59ba9e5ca73", "is_disabled": 0, "rental_uris": {"android": "https://dc.lft.to/lastmile_qr_scan", "ios": "https://dc.lft.to/lastmile_qr_scan"}, "fusion_lon": 0.0, "lat": 38.9206405, "bike_id": "c50dda1e4eb82a590329a59ba9e5ca73", "type": "electric_scooter", "is_reserved": 0, "lon": -77.04260683333334}, {"fusion_lat": 0.0, "name": "2d64a211225b17dff591577c57dc2e34", "is_disabled": 0, "rental_uris": {"android": "https://dc.lft.to/lastmile_qr_scan", "ios": "https://dc.lft.to/lastmile_qr_scan"}, "fusion_lon": 0.0, "lat": 38.93888416666667, "bike_id": "2d64a211225b17dff591577c57dc2e34", "type": "electric_scooter", "is_reserved": 0, "lon": -77.02468083333333}, {"fusion_lat": 0.0, "name": "3c1f0797ff31bcd4c0d6c2e98eb54b66", "is_disabled": 0, "rental_uris": {"android": "https://dc.lft.to/lastmile_qr_scan", "ios": "https://dc.lft.to/lastmile_qr_scan"}, "fusion_lon": 0.0, "lat": 38.95708533333333, "bike_id": "3c1f0797ff31bcd4c0d6c2e98eb54b66", "type": "electric_scooter", "is_reserved": 0, "lon": -77.02404283333334}, {"fusion_lat": 0.0, "name": "626653f7daffa4101452d8046e1b3536", "is_disabled": 0, "rental_uris": {"android": "https://dc.lft.to/lastmile_qr_scan", "ios": "https://dc.lft.to/lastmile_qr_scan"}, "fusion_lon": 0.0, "lat": 38.918099166666664, "bike_id": "626653f7daffa4101452d8046e1b3536", "type": "electric_scooter", "is_reserved": 0, "lon": -76.999825}, {"fusion_lat": 0.0, "name": "21fbb47a0d813d16b708457141a35135", "is_disabled": 0, "rental_uris": {"android": "https://dc.lft.to/lastmile_qr_scan", "ios": "https://dc.lft.to/lastmile_qr_scan"}, "fusion_lon": 0.0, "lat": 38.933001, "bike_id": "21fbb47a0d813d16b708457141a35135", "type": "electric_scooter", "is_reserved": 0, "lon": -77.0246525}, {"fusion_lat": 0.0, "name": "1813448a2247f9b64fd3ae3ed75b5602", "is_disabled": 0, "rental_uris": {"android": "https://dc.lft.to/lastmile_qr_scan", "ios": "https://dc.lft.to/lastmile_qr_scan"}, "fusion_lon": 0.0, "lat": 38.924117333333335, "bike_id": "1813448a2247f9b64fd3ae3ed75b5602", "type": "electric_scooter", "is_reserved": 0, "lon": -77.03537816666666}, {"fusion_lat": 0.0, "name": "481eea36cf738845939eaf75f99288a6", "is_disabled": 0, "rental_uris": {"android": "https://dc.lft.to/lastmile_qr_scan", "ios": "https://dc.lft.to/lastmile_qr_scan"}, "fusion_lon": 0.0, "lat": 38.947016166666664, "bike_id": "481eea36cf738845939eaf75f99288a6", "type": "electric_scooter", "is_reserved": 0, "lon": -77.0193635}, {"fusion_lat": 0.0, "name": "914f76d7aeb1899786553b980acd2bda", "is_disabled": 0, "rental_uris": {"android": "https://dc.lft.to/lastmile_qr_scan", "ios": "https://dc.lft.to/lastmile_qr_scan"}, "fusion_lon": 0.0, "lat": 38.87639866666667, "bike_id": "914f76d7aeb1899786553b980acd2bda", "type": "electric_scooter", "is_reserved": 0, "lon": -77.0085415}, {"fusion_lat": 0.0, "name": "1b615ed363617daa9ee2667a742e8348", "is_disabled": 0, "rental_uris": {"android": "https://dc.lft.to/lastmile_qr_scan", "ios": "https://dc.lft.to/lastmile_qr_scan"}, "fusion_lon": 0.0, "lat": 38.958837333333335, "bike_id": "1b615ed363617daa9ee2667a742e8348", "type": "electric_bike", "is_reserved": 0, "lon": -77.00270466666667}, {"fusion_lat": 0.0, "name": "aea3c839e5bc10c131c5b8bdb2b92101", "is_disabled": 0, "rental_uris": {"android": "https://dc.lft.to/lastmile_qr_scan", "ios": "https://dc.lft.to/lastmile_qr_scan"}, "fusion_lon": 0.0, "lat": 38.92078566666667, "bike_id": "aea3c839e5bc10c131c5b8bdb2b92101", "type": "electric_scooter", "is_reserved": 0, "lon": -77.00456733333333}, {"fusion_lat": 0.0, "name": "522b50e2b36d0699ae70d7030b1e8c02", "is_disabled": 0, "rental_uris": {"android": "https://dc.lft.to/lastmile_qr_scan", "ios": "https://dc.lft.to/lastmile_qr_scan"}, "fusion_lon": 0.0, "lat": 38.921086, "bike_id": "522b50e2b36d0699ae70d7030b1e8c02", "type": "electric_scooter", "is_reserved": 0, "lon": -77.0177185}, {"fusion_lat": 0.0, "name": "b2f19781f87b86f189f96a075b50fc1a", "is_disabled": 0, "rental_uris": {"android": "https://dc.lft.to/lastmile_qr_scan", "ios": "https://dc.lft.to/lastmile_qr_scan"}, "fusion_lon": 0.0, "lat": 38.93186866666667, "bike_id": "b2f19781f87b86f189f96a075b50fc1a", "type": "electric_scooter", "is_reserved": 0, "lon": -77.04292966666667}, {"fusion_lat": 0.0, "name": "1bf8b09a756dd7353b531e17dbc32687", "is_disabled": 0, "rental_uris": {"android": "https://dc.lft.to/lastmile_qr_scan", "ios": "https://dc.lft.to/lastmile_qr_scan"}, "fusion_lon": 0.0, "lat": 38.922476833333334, "bike_id": "1bf8b09a756dd7353b531e17dbc32687", "type": "electric_scooter", "is_reserved": 0, "lon": -77.02980933333333}, {"fusion_lat": 0.0, "name": "5699dc26a53bc4204458c44c22ce0a29", "is_disabled": 0, "rental_uris": {"android": "https://dc.lft.to/lastmile_qr_scan", "ios": "https://dc.lft.to/lastmile_qr_scan"}, "fusion_lon": 0.0, "lat": 38.919345166666666, "bike_id": "5699dc26a53bc4204458c44c22ce0a29", "type": "electric_scooter", "is_reserved": 0, "lon": -77.0357635}, {"fusion_lat": 0.0, "name": "0393c0b290167e7e82f1adfe707367ce", "is_disabled": 0, "rental_uris": {"android": "https://dc.lft.to/lastmile_qr_scan", "ios": "https://dc.lft.to/lastmile_qr_scan"}, "fusion_lon": 0.0, "lat": 38.88455183333333, "bike_id": "0393c0b290167e7e82f1adfe707367ce", "type": "electric_scooter", "is_reserved": 0, "lon": -76.99834816666667}, {"fusion_lat": 0.0, "name": "1c99ff9055e7c2fc817472f131b3266a", "is_disabled": 0, "rental_uris": {"android": "https://dc.lft.to/lastmile_qr_scan", "ios": "https://dc.lft.to/lastmile_qr_scan"}, "fusion_lon": 0.0, "lat": 38.915548333333334, "bike_id": "1c99ff9055e7c2fc817472f131b3266a", "type": "electric_scooter", "is_reserved": 0, "lon": -77.031738}, {"fusion_lat": 0.0, "name": "352cf884f82245126ffc7812c1d7291c", "is_disabled": 0, "rental_uris": {"android": "https://dc.lft.to/lastmile_qr_scan", "ios": "https://dc.lft.to/lastmile_qr_scan"}, "fusion_lon": 0.0, "lat": 38.91115716666667, "bike_id": "352cf884f82245126ffc7812c1d7291c", "type": "electric_scooter", "is_reserved": 0, "lon": -77.02096383333334}, {"fusion_lat": 0.0, "name": "171054715fc5b40b81cdefbd24fcfbe8", "is_disabled": 0, "rental_uris": {"android": "https://dc.lft.to/lastmile_qr_scan", "ios": "https://dc.lft.to/lastmile_qr_scan"}, "fusion_lon": 0.0, "lat": 38.9937235, "bike_id": "171054715fc5b40b81cdefbd24fcfbe8", "type": "electric_bike", "is_reserved": 0, "lon": -77.03148783333333}, {"fusion_lat": 0.0, "name": "b614b2bbe0c9eb172f214dc3241c8e08", "is_disabled": 0, "rental_uris": {"android": "https://dc.lft.to/lastmile_qr_scan", "ios": "https://dc.lft.to/lastmile_qr_scan"}, "fusion_lon": 0.0, "lat": 38.88511583333333, "bike_id": "b614b2bbe0c9eb172f214dc3241c8e08", "type": "electric_scooter", "is_reserved": 0, "lon": -76.929494}, {"fusion_lat": 0.0, "name": "5a2dd8b1be622573d2255cf32ef8b36a", "is_disabled": 0, "rental_uris": {"android": "https://dc.lft.to/lastmile_qr_scan", "ios": "https://dc.lft.to/lastmile_qr_scan"}, "fusion_lon": 0.0, "lat": 38.887763, "bike_id": "5a2dd8b1be622573d2255cf32ef8b36a", "type": "electric_scooter", "is_reserved": 0, "lon": -77.03339116666666}, {"fusion_lat": 0.0, "name": "dca95aa75ab133aa75925d4501408210", "is_disabled": 0, "rental_uris": {"android": "https://dc.lft.to/lastmile_qr_scan", "ios": "https://dc.lft.to/lastmile_qr_scan"}, "fusion_lon": 0.0, "lat": 38.92955383333333, "bike_id": "dca95aa75ab133aa75925d4501408210", "type": "electric_scooter", "is_reserved": 0, "lon": -77.044065}, {"fusion_lat": 0.0, "name": "189218ccffc1d451c973afdf579abc25", "is_disabled": 0, "rental_uris": {"android": "https://dc.lft.to/lastmile_qr_scan", "ios": "https://dc.lft.to/lastmile_qr_scan"}, "fusion_lon": 0.0, "lat": 38.921363, "bike_id": "189218ccffc1d451c973afdf579abc25", "type": "electric_scooter", "is_reserved": 0, "lon": -77.018027}, {"fusion_lat": 0.0, "name": "879811434a25f3ea74c322e957c6c310", "is_disabled": 0, "rental_uris": {"android": "https://dc.lft.to/lastmile_qr_scan", "ios": "https://dc.lft.to/lastmile_qr_scan"}, "fusion_lon": 0.0, "lat": 38.899069, "bike_id": "879811434a25f3ea74c322e957c6c310", "type": "electric_scooter", "is_reserved": 0, "lon": -76.93353866666666}, {"fusion_lat": 0.0, "name": "051df63a93ee97b0e8aaf2fd58fa9465", "is_disabled": 0, "rental_uris": {"android": "https://dc.lft.to/lastmile_qr_scan", "ios": "https://dc.lft.to/lastmile_qr_scan"}, "fusion_lon": 0.0, "lat": 38.91688633333333, "bike_id": "051df63a93ee97b0e8aaf2fd58fa9465", "type": "electric_scooter", "is_reserved": 0, "lon": -77.03226616666667}, {"fusion_lat": 0.0, "name": "2943775bbe2159e7b363ce71cdb4c96f", "is_disabled": 0, "rental_uris": {"android": "https://dc.lft.to/lastmile_qr_scan", "ios": "https://dc.lft.to/lastmile_qr_scan"}, "fusion_lon": 0.0, "lat": 38.898979, "bike_id": "2943775bbe2159e7b363ce71cdb4c96f", "type": "electric_scooter", "is_reserved": 0, "lon": -77.02162633333333}, {"fusion_lat": 0.0, "name": "a6dcaba5ec31be5c0d95633f080bcd2a", "is_disabled": 0, "rental_uris": {"android": "https://dc.lft.to/lastmile_qr_scan", "ios": "https://dc.lft.to/lastmile_qr_scan"}, "fusion_lon": 0.0, "lat": 38.87577866666667, "bike_id": "a6dcaba5ec31be5c0d95633f080bcd2a", "type": "electric_bike", "is_reserved": 0, "lon": -77.234099}, {"fusion_lat": 0.0, "name": "77289fd2b5042dd568cab01d5c2da929", "is_disabled": 0, "rental_uris": {"android": "https://dc.lft.to/lastmile_qr_scan", "ios": "https://dc.lft.to/lastmile_qr_scan"}, "fusion_lon": 0.0, "lat": 38.95055333333333, "bike_id": "77289fd2b5042dd568cab01d5c2da929", "type": "electric_scooter", "is_reserved": 0, "lon": -77.08025866666667}, {"fusion_lat": 0.0, "name": "fc03970f700faa03f5977bfd32fa5eba", "is_disabled": 0, "rental_uris": {"android": "https://dc.lft.to/lastmile_qr_scan", "ios": "https://dc.lft.to/lastmile_qr_scan"}, "fusion_lon": 0.0, "lat": 38.9195905, "bike_id": "fc03970f700faa03f5977bfd32fa5eba", "type": "electric_scooter", "is_reserved": 0, "lon": -77.0251805}, {"fusion_lat": 0.0, "name": "9205582825394c4762abd239d05f6042", "is_disabled": 0, "rental_uris": {"android": "https://dc.lft.to/lastmile_qr_scan", "ios": "https://dc.lft.to/lastmile_qr_scan"}, "fusion_lon": 0.0, "lat": 38.916947666666665, "bike_id": "9205582825394c4762abd239d05f6042", "type": "electric_scooter", "is_reserved": 0, "lon": -77.02597916666667}, {"fusion_lat": 0.0, "name": "30f3997a83bdded2c81404e62f93e8b7", "is_disabled": 0, "rental_uris": {"android": "https://dc.lft.to/lastmile_qr_scan", "ios": "https://dc.lft.to/lastmile_qr_scan"}, "fusion_lon": 0.0, "lat": 38.88527366666667, "bike_id": "30f3997a83bdded2c81404e62f93e8b7", "type": "electric_scooter", "is_reserved": 0, "lon": -76.929204}, {"fusion_lat": 0.0, "name": "3ef5fb03fbe8c09ed976a87b54b4c722", "is_disabled": 0, "rental_uris": {"android": "https://dc.lft.to/lastmile_qr_scan", "ios": "https://dc.lft.to/lastmile_qr_scan"}, "fusion_lon": 0.0, "lat": 38.89912566666667, "bike_id": "3ef5fb03fbe8c09ed976a87b54b4c722", "type": "electric_scooter", "is_reserved": 0, "lon": -76.945775}, {"fusion_lat": 0.0, "name": "ff512692df5f4b71ac506dc5608720b4", "is_disabled": 0, "rental_uris": {"android": "https://dc.lft.to/lastmile_qr_scan", "ios": "https://dc.lft.to/lastmile_qr_scan"}, "fusion_lon": 0.0, "lat": 38.904205166666664, "bike_id": "ff512692df5f4b71ac506dc5608720b4", "type": "electric_scooter", "is_reserved": 0, "lon": -77.025119}, {"fusion_lat": 0.0, "name": "68bca072105bf4f46e6ffe11906b0ae6", "is_disabled": 0, "rental_uris": {"android": "https://dc.lft.to/lastmile_qr_scan", "ios": "https://dc.lft.to/lastmile_qr_scan"}, "fusion_lon": 0.0, "lat": 38.914162833333336, "bike_id": "68bca072105bf4f46e6ffe11906b0ae6", "type": "electric_scooter", "is_reserved": 0, "lon": -77.03172533333333}, {"fusion_lat": 0.0, "name": "f9e07a7f88510c2e12410271b1937bde", "is_disabled": 0, "rental_uris": {"android": "https://dc.lft.to/lastmile_qr_scan", "ios": "https://dc.lft.to/lastmile_qr_scan"}, "fusion_lon": 0.0, "lat": 38.93017316666667, "bike_id": "f9e07a7f88510c2e12410271b1937bde", "type": "electric_scooter", "is_reserved": 0, "lon": -77.03776633333334}, {"fusion_lat": 0.0, "name": "61de92668f2d1b30c839f41918601582", "is_disabled": 0, "rental_uris": {"android": "https://dc.lft.to/lastmile_qr_scan", "ios": "https://dc.lft.to/lastmile_qr_scan"}, "fusion_lon": 0.0, "lat": 38.916658166666664, "bike_id": "61de92668f2d1b30c839f41918601582", "type": "electric_scooter", "is_reserved": 0, "lon": -77.03857033333334}, {"fusion_lat": 0.0, "name": "4884f5c07ccaf48ea6cf9151a3aa6aca", "is_disabled": 0, "rental_uris": {"android": "https://dc.lft.to/lastmile_qr_scan", "ios": "https://dc.lft.to/lastmile_qr_scan"}, "fusion_lon": 0.0, "lat": 38.92296666666667, "bike_id": "4884f5c07ccaf48ea6cf9151a3aa6aca", "type": "electric_scooter", "is_reserved": 0, "lon": -77.04143766666667}, {"fusion_lat": 0.0, "name": "5f4df0e8c7c919eb8c265b0f261d07ab", "is_disabled": 0, "rental_uris": {"android": "https://dc.lft.to/lastmile_qr_scan", "ios": "https://dc.lft.to/lastmile_qr_scan"}, "fusion_lon": 0.0, "lat": 38.90419716666667, "bike_id": "5f4df0e8c7c919eb8c265b0f261d07ab", "type": "electric_scooter", "is_reserved": 0, "lon": -77.035433}, {"fusion_lat": 0.0, "name": "ab690918b20174d39e4ff530f6775a48", "is_disabled": 0, "rental_uris": {"android": "https://dc.lft.to/lastmile_qr_scan", "ios": "https://dc.lft.to/lastmile_qr_scan"}, "fusion_lon": 0.0, "lat": 38.92843366666666, "bike_id": "ab690918b20174d39e4ff530f6775a48", "type": "electric_scooter", "is_reserved": 0, "lon": -77.01418133333334}, {"fusion_lat": 0.0, "name": "dabb6daa1ba1aec853f35dadad427a40", "is_disabled": 0, "rental_uris": {"android": "https://dc.lft.to/lastmile_qr_scan", "ios": "https://dc.lft.to/lastmile_qr_scan"}, "fusion_lon": 0.0, "lat": 38.91548933333333, "bike_id": "dabb6daa1ba1aec853f35dadad427a40", "type": "electric_scooter", "is_reserved": 0, "lon": -77.01201383333333}, {"fusion_lat": 0.0, "name": "64a7a788d672d3cae7ae57283fd88fbe", "is_disabled": 0, "rental_uris": {"android": "https://dc.lft.to/lastmile_qr_scan", "ios": "https://dc.lft.to/lastmile_qr_scan"}, "fusion_lon": 0.0, "lat": 38.8662305, "bike_id": "64a7a788d672d3cae7ae57283fd88fbe", "type": "electric_bike", "is_reserved": 0, "lon": -76.94574866666666}, {"fusion_lat": 0.0, "name": "e6209f4a67c4542972a02d220eb39459", "is_disabled": 0, "rental_uris": {"android": "https://dc.lft.to/lastmile_qr_scan", "ios": "https://dc.lft.to/lastmile_qr_scan"}, "fusion_lon": 0.0, "lat": 38.929184, "bike_id": "e6209f4a67c4542972a02d220eb39459", "type": "electric_scooter", "is_reserved": 0, "lon": -77.0263305}, {"fusion_lat": 0.0, "name": "4c9931ae5ee4968b60d639269344e41c", "is_disabled": 0, "rental_uris": {"android": "https://dc.lft.to/lastmile_qr_scan", "ios": "https://dc.lft.to/lastmile_qr_scan"}, "fusion_lon": 0.0, "lat": 38.93802483333333, "bike_id": "4c9931ae5ee4968b60d639269344e41c", "type": "electric_scooter", "is_reserved": 0, "lon": -77.06863633333333}, {"fusion_lat": 0.0, "name": "dacade522dcdac9b7ec7a5ba8e01872d", "is_disabled": 0, "rental_uris": {"android": "https://dc.lft.to/lastmile_qr_scan", "ios": "https://dc.lft.to/lastmile_qr_scan"}, "fusion_lon": 0.0, "lat": 38.92356433333333, "bike_id": "dacade522dcdac9b7ec7a5ba8e01872d", "type": "electric_scooter", "is_reserved": 0, "lon": -77.019591}, {"fusion_lat": 0.0, "name": "2a2cf2dc174ef66708b871dbf7d2b4ab", "is_disabled": 0, "rental_uris": {"android": "https://dc.lft.to/lastmile_qr_scan", "ios": "https://dc.lft.to/lastmile_qr_scan"}, "fusion_lon": 0.0, "lat": 38.942269, "bike_id": "2a2cf2dc174ef66708b871dbf7d2b4ab", "type": "electric_scooter", "is_reserved": 0, "lon": -77.02325983333333}, {"fusion_lat": 0.0, "name": "9ea61d38e7e7cb9c945b9bb236cf49f4", "is_disabled": 0, "rental_uris": {"android": "https://dc.lft.to/lastmile_qr_scan", "ios": "https://dc.lft.to/lastmile_qr_scan"}, "fusion_lon": 0.0, "lat": 38.90764883333333, "bike_id": "9ea61d38e7e7cb9c945b9bb236cf49f4", "type": "electric_scooter", "is_reserved": 0, "lon": -77.03214083333333}, {"fusion_lat": 0.0, "name": "93b10561a5401a0005ef4318d4bdc5c2", "is_disabled": 0, "rental_uris": {"android": "https://dc.lft.to/lastmile_qr_scan", "ios": "https://dc.lft.to/lastmile_qr_scan"}, "fusion_lon": 0.0, "lat": 38.9171845, "bike_id": "93b10561a5401a0005ef4318d4bdc5c2", "type": "electric_scooter", "is_reserved": 0, "lon": -77.04154366666667}, {"fusion_lat": 0.0, "name": "6cee77954258098cc23361f422c9aa91", "is_disabled": 0, "rental_uris": {"android": "https://dc.lft.to/lastmile_qr_scan", "ios": "https://dc.lft.to/lastmile_qr_scan"}, "fusion_lon": 0.0, "lat": 38.93055016666667, "bike_id": "6cee77954258098cc23361f422c9aa91", "type": "electric_scooter", "is_reserved": 0, "lon": -77.04064283333334}, {"fusion_lat": 0.0, "name": "bfd4116723bc666c517f6cd4f87561b0", "is_disabled": 0, "rental_uris": {"android": "https://dc.lft.to/lastmile_qr_scan", "ios": "https://dc.lft.to/lastmile_qr_scan"}, "fusion_lon": 0.0, "lat": 38.88663016666667, "bike_id": "bfd4116723bc666c517f6cd4f87561b0", "type": "electric_scooter", "is_reserved": 0, "lon": -77.02825083333333}, {"fusion_lat": 0.0, "name": "d5d919f2fb5be40352b52631eb52d314", "is_disabled": 0, "rental_uris": {"android": "https://dc.lft.to/lastmile_qr_scan", "ios": "https://dc.lft.to/lastmile_qr_scan"}, "fusion_lon": 0.0, "lat": 38.928524333333336, "bike_id": "d5d919f2fb5be40352b52631eb52d314", "type": "electric_scooter", "is_reserved": 0, "lon": -76.99777166666667}, {"fusion_lat": 0.0, "name": "6972f539f224431301797831d56d7c49", "is_disabled": 0, "rental_uris": {"android": "https://dc.lft.to/lastmile_qr_scan", "ios": "https://dc.lft.to/lastmile_qr_scan"}, "fusion_lon": 0.0, "lat": 38.9015155, "bike_id": "6972f539f224431301797831d56d7c49", "type": "electric_scooter", "is_reserved": 0, "lon": -77.03327283333333}, {"fusion_lat": 0.0, "name": "e5c80b32b809142867e9862acac7a416", "is_disabled": 0, "rental_uris": {"android": "https://dc.lft.to/lastmile_qr_scan", "ios": "https://dc.lft.to/lastmile_qr_scan"}, "fusion_lon": 0.0, "lat": 38.90037016666667, "bike_id": "e5c80b32b809142867e9862acac7a416", "type": "electric_scooter", "is_reserved": 0, "lon": -77.0259225}, {"fusion_lat": 0.0, "name": "c8915373ae746305bfb637e9c3aaea13", "is_disabled": 0, "rental_uris": {"android": "https://dc.lft.to/lastmile_qr_scan", "ios": "https://dc.lft.to/lastmile_qr_scan"}, "fusion_lon": 0.0, "lat": 38.899624, "bike_id": "c8915373ae746305bfb637e9c3aaea13", "type": "electric_scooter", "is_reserved": 0, "lon": -77.01498833333333}, {"fusion_lat": 0.0, "name": "4e597e3229ae5568e473853b3cde6a39", "is_disabled": 0, "rental_uris": {"android": "https://dc.lft.to/lastmile_qr_scan", "ios": "https://dc.lft.to/lastmile_qr_scan"}, "fusion_lon": 0.0, "lat": 39.01075183333333, "bike_id": "4e597e3229ae5568e473853b3cde6a39", "type": "electric_bike", "is_reserved": 0, "lon": -76.91062883333333}, {"fusion_lat": 0.0, "name": "eea0eef1a046da60fe5b176660274b49", "is_disabled": 0, "rental_uris": {"android": "https://dc.lft.to/lastmile_qr_scan", "ios": "https://dc.lft.to/lastmile_qr_scan"}, "fusion_lon": 0.0, "lat": 38.921995333333335, "bike_id": "eea0eef1a046da60fe5b176660274b49", "type": "electric_scooter", "is_reserved": 0, "lon": -77.04130633333334}, {"fusion_lat": 0.0, "name": "1bdf44b06edbf13ecf50355cbf540734", "is_disabled": 0, "rental_uris": {"android": "https://dc.lft.to/lastmile_qr_scan", "ios": "https://dc.lft.to/lastmile_qr_scan"}, "fusion_lon": 0.0, "lat": 38.924147, "bike_id": "1bdf44b06edbf13ecf50355cbf540734", "type": "electric_scooter", "is_reserved": 0, "lon": -77.02012933333333}, {"fusion_lat": 0.0, "name": "0f5b2a7c71eec920ea4b202fcca6dfb5", "is_disabled": 0, "rental_uris": {"android": "https://dc.lft.to/lastmile_qr_scan", "ios": "https://dc.lft.to/lastmile_qr_scan"}, "fusion_lon": 0.0, "lat": 38.9077, "bike_id": "0f5b2a7c71eec920ea4b202fcca6dfb5", "type": "electric_scooter", "is_reserved": 0, "lon": -77.03209783333334}, {"fusion_lat": 0.0, "name": "fe3af8ebc6a7db6ca4488b70295ed8bf", "is_disabled": 0, "rental_uris": {"android": "https://dc.lft.to/lastmile_qr_scan", "ios": "https://dc.lft.to/lastmile_qr_scan"}, "fusion_lon": 0.0, "lat": 38.908652333333336, "bike_id": "fe3af8ebc6a7db6ca4488b70295ed8bf", "type": "electric_scooter", "is_reserved": 0, "lon": -77.02435566666666}, {"fusion_lat": 0.0, "name": "4a9b6a4a083bd5617787cbd8dfafdde5", "is_disabled": 0, "rental_uris": {"android": "https://dc.lft.to/lastmile_qr_scan", "ios": "https://dc.lft.to/lastmile_qr_scan"}, "fusion_lon": 0.0, "lat": 38.921202, "bike_id": "4a9b6a4a083bd5617787cbd8dfafdde5", "type": "electric_scooter", "is_reserved": 0, "lon": -77.012079}, {"fusion_lat": 0.0, "name": "8339776148c4f720bd26f6fae1a12065", "is_disabled": 0, "rental_uris": {"android": "https://dc.lft.to/lastmile_qr_scan", "ios": "https://dc.lft.to/lastmile_qr_scan"}, "fusion_lon": 0.0, "lat": 38.90036033333333, "bike_id": "8339776148c4f720bd26f6fae1a12065", "type": "electric_scooter", "is_reserved": 0, "lon": -77.00213733333334}, {"fusion_lat": 0.0, "name": "a5f39261c1e8902798e9e6d1ceea959c", "is_disabled": 0, "rental_uris": {"android": "https://dc.lft.to/lastmile_qr_scan", "ios": "https://dc.lft.to/lastmile_qr_scan"}, "fusion_lon": 0.0, "lat": 38.927414, "bike_id": "a5f39261c1e8902798e9e6d1ceea959c", "type": "electric_scooter", "is_reserved": 0, "lon": -77.021621}, {"fusion_lat": 0.0, "name": "325724f90ba085d96a57f321a2100f91", "is_disabled": 0, "rental_uris": {"android": "https://dc.lft.to/lastmile_qr_scan", "ios": "https://dc.lft.to/lastmile_qr_scan"}, "fusion_lon": 0.0, "lat": 38.90379983333333, "bike_id": "325724f90ba085d96a57f321a2100f91", "type": "electric_scooter", "is_reserved": 0, "lon": -77.04615233333334}, {"fusion_lat": 0.0, "name": "bb14c6cbcd81d9820c483723ef2d52e1", "is_disabled": 0, "rental_uris": {"android": "https://dc.lft.to/lastmile_qr_scan", "ios": "https://dc.lft.to/lastmile_qr_scan"}, "fusion_lon": 0.0, "lat": 38.816095, "bike_id": "bb14c6cbcd81d9820c483723ef2d52e1", "type": "electric_bike", "is_reserved": 0, "lon": -76.99657066666667}, {"fusion_lat": 0.0, "name": "842bb9c4dcb63e66f115c73e4258b765", "is_disabled": 0, "rental_uris": {"android": "https://dc.lft.to/lastmile_qr_scan", "ios": "https://dc.lft.to/lastmile_qr_scan"}, "fusion_lon": 0.0, "lat": 38.900621, "bike_id": "842bb9c4dcb63e66f115c73e4258b765", "type": "electric_scooter", "is_reserved": 0, "lon": -76.98716033333334}, {"fusion_lat": 0.0, "name": "890ddc999aca379f1ed658a1408e7a84", "is_disabled": 0, "rental_uris": {"android": "https://dc.lft.to/lastmile_qr_scan", "ios": "https://dc.lft.to/lastmile_qr_scan"}, "fusion_lon": 0.0, "lat": 38.885064666666665, "bike_id": "890ddc999aca379f1ed658a1408e7a84", "type": "electric_scooter", "is_reserved": 0, "lon": -76.99753316666667}, {"fusion_lat": 0.0, "name": "536cf59d8a190c641b9f6596b7f0818a", "is_disabled": 0, "rental_uris": {"android": "https://dc.lft.to/lastmile_qr_scan", "ios": "https://dc.lft.to/lastmile_qr_scan"}, "fusion_lon": 0.0, "lat": 38.907117666666664, "bike_id": "536cf59d8a190c641b9f6596b7f0818a", "type": "electric_scooter", "is_reserved": 0, "lon": -77.0422485}, {"fusion_lat": 0.0, "name": "bc5c3ab0df8270c19339b7d5203e28b9", "is_disabled": 0, "rental_uris": {"android": "https://dc.lft.to/lastmile_qr_scan", "ios": "https://dc.lft.to/lastmile_qr_scan"}, "fusion_lon": 0.0, "lat": 38.92160116666667, "bike_id": "bc5c3ab0df8270c19339b7d5203e28b9", "type": "electric_scooter", "is_reserved": 0, "lon": -77.02083}, {"fusion_lat": 0.0, "name": "cde1111516b28031e8c3ba555e3e9891", "is_disabled": 0, "rental_uris": {"android": "https://dc.lft.to/lastmile_qr_scan", "ios": "https://dc.lft.to/lastmile_qr_scan"}, "fusion_lon": 0.0, "lat": 38.90965116666667, "bike_id": "cde1111516b28031e8c3ba555e3e9891", "type": "electric_scooter", "is_reserved": 0, "lon": -77.03334033333333}, {"fusion_lat": 0.0, "name": "d9bd69a43c66320a076a6f60a28af65b", "is_disabled": 0, "rental_uris": {"android": "https://dc.lft.to/lastmile_qr_scan", "ios": "https://dc.lft.to/lastmile_qr_scan"}, "fusion_lon": 0.0, "lat": 38.849163, "bike_id": "d9bd69a43c66320a076a6f60a28af65b", "type": "electric_bike", "is_reserved": 0, "lon": -77.07928583333333}, {"fusion_lat": 0.0, "name": "e1dfdcc2301c8c91ce8b07f980b82162", "is_disabled": 0, "rental_uris": {"android": "https://dc.lft.to/lastmile_qr_scan", "ios": "https://dc.lft.to/lastmile_qr_scan"}, "fusion_lon": 0.0, "lat": 38.91634116666667, "bike_id": "e1dfdcc2301c8c91ce8b07f980b82162", "type": "electric_scooter", "is_reserved": 0, "lon": -77.02958883333334}, {"fusion_lat": 0.0, "name": "b616c3fbe1dd969a2edaedcd1b0e1a37", "is_disabled": 0, "rental_uris": {"android": "https://dc.lft.to/lastmile_qr_scan", "ios": "https://dc.lft.to/lastmile_qr_scan"}, "fusion_lon": 0.0, "lat": 39.01414316666666, "bike_id": "b616c3fbe1dd969a2edaedcd1b0e1a37", "type": "electric_bike", "is_reserved": 0, "lon": -77.0449275}, {"fusion_lat": 0.0, "name": "99a91d0909155db576c1fe79332a0139", "is_disabled": 0, "rental_uris": {"android": "https://dc.lft.to/lastmile_qr_scan", "ios": "https://dc.lft.to/lastmile_qr_scan"}, "fusion_lon": 0.0, "lat": 38.88988916666667, "bike_id": "99a91d0909155db576c1fe79332a0139", "type": "electric_scooter", "is_reserved": 0, "lon": -76.98412083333334}, {"fusion_lat": 0.0, "name": "b573de0bce6dab43d1e11b3c967b88b5", "is_disabled": 0, "rental_uris": {"android": "https://dc.lft.to/lastmile_qr_scan", "ios": "https://dc.lft.to/lastmile_qr_scan"}, "fusion_lon": 0.0, "lat": 38.92804916666667, "bike_id": "b573de0bce6dab43d1e11b3c967b88b5", "type": "electric_scooter", "is_reserved": 0, "lon": -77.05529916666667}, {"fusion_lat": 0.0, "name": "1d8a39b72bc11841682267a8d67b170e", "is_disabled": 0, "rental_uris": {"android": "https://dc.lft.to/lastmile_qr_scan", "ios": "https://dc.lft.to/lastmile_qr_scan"}, "fusion_lon": 0.0, "lat": 38.91696183333333, "bike_id": "1d8a39b72bc11841682267a8d67b170e", "type": "electric_scooter", "is_reserved": 0, "lon": -77.03768983333333}, {"fusion_lat": 0.0, "name": "812208441acc4f549a9f852c07ebf43c", "is_disabled": 0, "rental_uris": {"android": "https://dc.lft.to/lastmile_qr_scan", "ios": "https://dc.lft.to/lastmile_qr_scan"}, "fusion_lon": 0.0, "lat": 38.857032, "bike_id": "812208441acc4f549a9f852c07ebf43c", "type": "electric_scooter", "is_reserved": 0, "lon": -76.995962}, {"fusion_lat": 0.0, "name": "bf4e565d099ca288ebdb1e95acdd8372", "is_disabled": 0, "rental_uris": {"android": "https://dc.lft.to/lastmile_qr_scan", "ios": "https://dc.lft.to/lastmile_qr_scan"}, "fusion_lon": 0.0, "lat": 38.887199333333335, "bike_id": "bf4e565d099ca288ebdb1e95acdd8372", "type": "electric_scooter", "is_reserved": 0, "lon": -77.03180783333333}, {"fusion_lat": 0.0, "name": "b4bf3c2ccdcb6f866d1a210efe23a200", "is_disabled": 0, "rental_uris": {"android": "https://dc.lft.to/lastmile_qr_scan", "ios": "https://dc.lft.to/lastmile_qr_scan"}, "fusion_lon": 0.0, "lat": 38.906235833333334, "bike_id": "b4bf3c2ccdcb6f866d1a210efe23a200", "type": "electric_scooter", "is_reserved": 0, "lon": -77.03963116666667}, {"fusion_lat": 0.0, "name": "bf5c216de4278d44bb4d748487700b5a", "is_disabled": 0, "rental_uris": {"android": "https://dc.lft.to/lastmile_qr_scan", "ios": "https://dc.lft.to/lastmile_qr_scan"}, "fusion_lon": 0.0, "lat": 38.9201435, "bike_id": "bf5c216de4278d44bb4d748487700b5a", "type": "electric_scooter", "is_reserved": 0, "lon": -77.02173983333333}, {"fusion_lat": 0.0, "name": "91129b550d0b91809580a31e64a167cf", "is_disabled": 0, "rental_uris": {"android": "https://dc.lft.to/lastmile_qr_scan", "ios": "https://dc.lft.to/lastmile_qr_scan"}, "fusion_lon": 0.0, "lat": 38.89221466666667, "bike_id": "91129b550d0b91809580a31e64a167cf", "type": "electric_scooter", "is_reserved": 0, "lon": -77.01471883333333}, {"fusion_lat": 0.0, "name": "3e831ca7a7cc853d43820c19e51fd14f", "is_disabled": 0, "rental_uris": {"android": "https://dc.lft.to/lastmile_qr_scan", "ios": "https://dc.lft.to/lastmile_qr_scan"}, "fusion_lon": 0.0, "lat": 38.923757, "bike_id": "3e831ca7a7cc853d43820c19e51fd14f", "type": "electric_scooter", "is_reserved": 0, "lon": -77.02139983333333}, {"fusion_lat": 0.0, "name": "fd0cb79b72c9044fcc04e90945d3a2b1", "is_disabled": 0, "rental_uris": {"android": "https://dc.lft.to/lastmile_qr_scan", "ios": "https://dc.lft.to/lastmile_qr_scan"}, "fusion_lon": 0.0, "lat": 38.913275166666665, "bike_id": "fd0cb79b72c9044fcc04e90945d3a2b1", "type": "electric_scooter", "is_reserved": 0, "lon": -77.02149266666666}, {"fusion_lat": 0.0, "name": "e21abf8cab4ad80dc0adbf4741a0727a", "is_disabled": 0, "rental_uris": {"android": "https://dc.lft.to/lastmile_qr_scan", "ios": "https://dc.lft.to/lastmile_qr_scan"}, "fusion_lon": 0.0, "lat": 38.883018666666665, "bike_id": "e21abf8cab4ad80dc0adbf4741a0727a", "type": "electric_scooter", "is_reserved": 0, "lon": -77.0167705}, {"fusion_lat": 0.0, "name": "9d18bee1e3680cbc96619274a5aaad8c", "is_disabled": 0, "rental_uris": {"android": "https://dc.lft.to/lastmile_qr_scan", "ios": "https://dc.lft.to/lastmile_qr_scan"}, "fusion_lon": 0.0, "lat": 38.896159, "bike_id": "9d18bee1e3680cbc96619274a5aaad8c", "type": "electric_scooter", "is_reserved": 0, "lon": -77.03190633333334}, {"fusion_lat": 0.0, "name": "59a2a18af322e59b30b9c22fd10ed772", "is_disabled": 0, "rental_uris": {"android": "https://dc.lft.to/lastmile_qr_scan", "ios": "https://dc.lft.to/lastmile_qr_scan"}, "fusion_lon": 0.0, "lat": 38.92323783333333, "bike_id": "59a2a18af322e59b30b9c22fd10ed772", "type": "electric_scooter", "is_reserved": 0, "lon": -77.043033}, {"fusion_lat": 0.0, "name": "0ad22bae4a6c86480944cb71049fa985", "is_disabled": 0, "rental_uris": {"android": "https://dc.lft.to/lastmile_qr_scan", "ios": "https://dc.lft.to/lastmile_qr_scan"}, "fusion_lon": 0.0, "lat": 38.87088833333333, "bike_id": "0ad22bae4a6c86480944cb71049fa985", "type": "electric_scooter", "is_reserved": 0, "lon": -77.0121855}, {"fusion_lat": 0.0, "name": "57f708d0a0080c716b538ff694b39c3a", "is_disabled": 0, "rental_uris": {"android": "https://dc.lft.to/lastmile_qr_scan", "ios": "https://dc.lft.to/lastmile_qr_scan"}, "fusion_lon": 0.0, "lat": 38.89634483333333, "bike_id": "57f708d0a0080c716b538ff694b39c3a", "type": "electric_scooter", "is_reserved": 0, "lon": -77.00934733333334}, {"fusion_lat": 0.0, "name": "de4e69fe8f5d74f4c6ce52cd6d474033", "is_disabled": 0, "rental_uris": {"android": "https://dc.lft.to/lastmile_qr_scan", "ios": "https://dc.lft.to/lastmile_qr_scan"}, "fusion_lon": 0.0, "lat": 38.88492433333333, "bike_id": "de4e69fe8f5d74f4c6ce52cd6d474033", "type": "electric_scooter", "is_reserved": 0, "lon": -77.01085333333333}, {"fusion_lat": 0.0, "name": "e4dc0739c26c32ddfaad225c4745639d", "is_disabled": 0, "rental_uris": {"android": "https://dc.lft.to/lastmile_qr_scan", "ios": "https://dc.lft.to/lastmile_qr_scan"}, "fusion_lon": 0.0, "lat": 38.904075, "bike_id": "e4dc0739c26c32ddfaad225c4745639d", "type": "electric_scooter", "is_reserved": 0, "lon": -77.0211635}, {"fusion_lat": 0.0, "name": "5c1b0d541591a2b38d975fe1c532c10f", "is_disabled": 0, "rental_uris": {"android": "https://dc.lft.to/lastmile_qr_scan", "ios": "https://dc.lft.to/lastmile_qr_scan"}, "fusion_lon": 0.0, "lat": 38.97346966666667, "bike_id": "5c1b0d541591a2b38d975fe1c532c10f", "type": "electric_bike", "is_reserved": 0, "lon": -77.01791816666666}, {"fusion_lat": 0.0, "name": "b82e00b5503d3e55e57e7775d613e30f", "is_disabled": 0, "rental_uris": {"android": "https://dc.lft.to/lastmile_qr_scan", "ios": "https://dc.lft.to/lastmile_qr_scan"}, "fusion_lon": 0.0, "lat": 38.9141545, "bike_id": "b82e00b5503d3e55e57e7775d613e30f", "type": "electric_scooter", "is_reserved": 0, "lon": -77.0317535}, {"fusion_lat": 0.0, "name": "1b0570cb1a99423e841f8e20a0658dd8", "is_disabled": 0, "rental_uris": {"android": "https://dc.lft.to/lastmile_qr_scan", "ios": "https://dc.lft.to/lastmile_qr_scan"}, "fusion_lon": 0.0, "lat": 38.892251, "bike_id": "1b0570cb1a99423e841f8e20a0658dd8", "type": "electric_scooter", "is_reserved": 0, "lon": -77.04867633333333}, {"fusion_lat": 0.0, "name": "b4b1875148a8555941c69d8ba1a1aa53", "is_disabled": 0, "rental_uris": {"android": "https://dc.lft.to/lastmile_qr_scan", "ios": "https://dc.lft.to/lastmile_qr_scan"}, "fusion_lon": 0.0, "lat": 38.916608833333335, "bike_id": "b4b1875148a8555941c69d8ba1a1aa53", "type": "electric_scooter", "is_reserved": 0, "lon": -77.02818116666667}, {"fusion_lat": 0.0, "name": "1cb0cf41f11c0748a2a15e00c1ef77bb", "is_disabled": 0, "rental_uris": {"android": "https://dc.lft.to/lastmile_qr_scan", "ios": "https://dc.lft.to/lastmile_qr_scan"}, "fusion_lon": 0.0, "lat": 38.896075833333335, "bike_id": "1cb0cf41f11c0748a2a15e00c1ef77bb", "type": "electric_bike", "is_reserved": 0, "lon": -76.90731883333333}, {"fusion_lat": 0.0, "name": "ae04ddd646418e12f21b2908b3a11b72", "is_disabled": 0, "rental_uris": {"android": "https://dc.lft.to/lastmile_qr_scan", "ios": "https://dc.lft.to/lastmile_qr_scan"}, "fusion_lon": 0.0, "lat": 38.927467, "bike_id": "ae04ddd646418e12f21b2908b3a11b72", "type": "electric_scooter", "is_reserved": 0, "lon": -77.02534316666667}, {"fusion_lat": 0.0, "name": "b4dc2e2173e07de00aa1dfac33b83742", "is_disabled": 0, "rental_uris": {"android": "https://dc.lft.to/lastmile_qr_scan", "ios": "https://dc.lft.to/lastmile_qr_scan"}, "fusion_lon": 0.0, "lat": 38.87881983333333, "bike_id": "b4dc2e2173e07de00aa1dfac33b83742", "type": "electric_scooter", "is_reserved": 0, "lon": -77.02232766666667}, {"fusion_lat": 0.0, "name": "798f9385c51f6aed29d6f7653dd68c8e", "is_disabled": 0, "rental_uris": {"android": "https://dc.lft.to/lastmile_qr_scan", "ios": "https://dc.lft.to/lastmile_qr_scan"}, "fusion_lon": 0.0, "lat": 38.923388333333335, "bike_id": "798f9385c51f6aed29d6f7653dd68c8e", "type": "electric_scooter", "is_reserved": 0, "lon": -77.052987}, {"fusion_lat": 0.0, "name": "ddfc0c8e5de9d15ffa841c7794c91dad", "is_disabled": 0, "rental_uris": {"android": "https://dc.lft.to/lastmile_qr_scan", "ios": "https://dc.lft.to/lastmile_qr_scan"}, "fusion_lon": 0.0, "lat": 38.92934316666667, "bike_id": "ddfc0c8e5de9d15ffa841c7794c91dad", "type": "electric_scooter", "is_reserved": 0, "lon": -77.03244483333333}, {"fusion_lat": 0.0, "name": "b4cf8bfdf245ed3dc0216b2aa2221c2d", "is_disabled": 0, "rental_uris": {"android": "https://dc.lft.to/lastmile_qr_scan", "ios": "https://dc.lft.to/lastmile_qr_scan"}, "fusion_lon": 0.0, "lat": 38.920731, "bike_id": "b4cf8bfdf245ed3dc0216b2aa2221c2d", "type": "electric_scooter", "is_reserved": 0, "lon": -77.02404683333333}, {"fusion_lat": 0.0, "name": "91d117c5c0b366739d42790f9ee8477e", "is_disabled": 0, "rental_uris": {"android": "https://dc.lft.to/lastmile_qr_scan", "ios": "https://dc.lft.to/lastmile_qr_scan"}, "fusion_lon": 0.0, "lat": 38.94060666666667, "bike_id": "91d117c5c0b366739d42790f9ee8477e", "type": "electric_bike", "is_reserved": 0, "lon": -76.9042155}, {"fusion_lat": 0.0, "name": "96379a69ac25d601f135c4b5d6592745", "is_disabled": 0, "rental_uris": {"android": "https://dc.lft.to/lastmile_qr_scan", "ios": "https://dc.lft.to/lastmile_qr_scan"}, "fusion_lon": 0.0, "lat": 38.8793285, "bike_id": "96379a69ac25d601f135c4b5d6592745", "type": "electric_scooter", "is_reserved": 0, "lon": -77.02374166666667}, {"fusion_lat": 0.0, "name": "d7d095f3349dfcf78f58951e4b80b35c", "is_disabled": 0, "rental_uris": {"android": "https://dc.lft.to/lastmile_qr_scan", "ios": "https://dc.lft.to/lastmile_qr_scan"}, "fusion_lon": 0.0, "lat": 38.91717366666666, "bike_id": "d7d095f3349dfcf78f58951e4b80b35c", "type": "electric_scooter", "is_reserved": 0, "lon": -77.04154033333333}, {"fusion_lat": 0.0, "name": "2042f5a666789ddd3232832bcc7a791f", "is_disabled": 0, "rental_uris": {"android": "https://dc.lft.to/lastmile_qr_scan", "ios": "https://dc.lft.to/lastmile_qr_scan"}, "fusion_lon": 0.0, "lat": 38.906956666666666, "bike_id": "2042f5a666789ddd3232832bcc7a791f", "type": "electric_scooter", "is_reserved": 0, "lon": -77.00004916666667}, {"fusion_lat": 0.0, "name": "9624e3d73d166d84f528fa8db964cdb8", "is_disabled": 0, "rental_uris": {"android": "https://dc.lft.to/lastmile_qr_scan", "ios": "https://dc.lft.to/lastmile_qr_scan"}, "fusion_lon": 0.0, "lat": 38.91706883333333, "bike_id": "9624e3d73d166d84f528fa8db964cdb8", "type": "electric_scooter", "is_reserved": 0, "lon": -77.02888116666666}, {"fusion_lat": 0.0, "name": "18036a67fd51a3f77222e265bf1835b9", "is_disabled": 0, "rental_uris": {"android": "https://dc.lft.to/lastmile_qr_scan", "ios": "https://dc.lft.to/lastmile_qr_scan"}, "fusion_lon": 0.0, "lat": 38.9945215, "bike_id": "18036a67fd51a3f77222e265bf1835b9", "type": "electric_bike", "is_reserved": 0, "lon": -76.995885}, {"fusion_lat": 0.0, "name": "4771ed4349aebb478cb9707955b17dff", "is_disabled": 0, "rental_uris": {"android": "https://dc.lft.to/lastmile_qr_scan", "ios": "https://dc.lft.to/lastmile_qr_scan"}, "fusion_lon": 0.0, "lat": 38.935477666666664, "bike_id": "4771ed4349aebb478cb9707955b17dff", "type": "electric_scooter", "is_reserved": 0, "lon": -77.03255516666667}, {"fusion_lat": 0.0, "name": "3f473bb0008701ead0a263d636552314", "is_disabled": 0, "rental_uris": {"android": "https://dc.lft.to/lastmile_qr_scan", "ios": "https://dc.lft.to/lastmile_qr_scan"}, "fusion_lon": 0.0, "lat": 38.871132333333335, "bike_id": "3f473bb0008701ead0a263d636552314", "type": "electric_scooter", "is_reserved": 0, "lon": -76.96583466666667}, {"fusion_lat": 0.0, "name": "be6b91df7fb3dde6dbc98def976bd933", "is_disabled": 0, "rental_uris": {"android": "https://dc.lft.to/lastmile_qr_scan", "ios": "https://dc.lft.to/lastmile_qr_scan"}, "fusion_lon": 0.0, "lat": 38.986711166666666, "bike_id": "be6b91df7fb3dde6dbc98def976bd933", "type": "electric_bike", "is_reserved": 0, "lon": -76.99998216666667}, {"fusion_lat": 0.0, "name": "cbcc62c20569f6311b2b56acd5442961", "is_disabled": 0, "rental_uris": {"android": "https://dc.lft.to/lastmile_qr_scan", "ios": "https://dc.lft.to/lastmile_qr_scan"}, "fusion_lon": 0.0, "lat": 38.9141695, "bike_id": "cbcc62c20569f6311b2b56acd5442961", "type": "electric_scooter", "is_reserved": 0, "lon": -77.0394425}, {"fusion_lat": 0.0, "name": "7583ec92d95135ec2d70c86a06371e65", "is_disabled": 0, "rental_uris": {"android": "https://dc.lft.to/lastmile_qr_scan", "ios": "https://dc.lft.to/lastmile_qr_scan"}, "fusion_lon": 0.0, "lat": 38.916676333333335, "bike_id": "7583ec92d95135ec2d70c86a06371e65", "type": "electric_scooter", "is_reserved": 0, "lon": -77.03463066666667}, {"fusion_lat": 0.0, "name": "3ccce9b03cce9fc285fb266723ad00d3", "is_disabled": 0, "rental_uris": {"android": "https://dc.lft.to/lastmile_qr_scan", "ios": "https://dc.lft.to/lastmile_qr_scan"}, "fusion_lon": 0.0, "lat": 38.9022035, "bike_id": "3ccce9b03cce9fc285fb266723ad00d3", "type": "electric_scooter", "is_reserved": 0, "lon": -77.04445016666666}, {"fusion_lat": 0.0, "name": "2a67f486652c1214db420a3bb1a65ea6", "is_disabled": 0, "rental_uris": {"android": "https://dc.lft.to/lastmile_qr_scan", "ios": "https://dc.lft.to/lastmile_qr_scan"}, "fusion_lon": 0.0, "lat": 38.8872535, "bike_id": "2a67f486652c1214db420a3bb1a65ea6", "type": "electric_scooter", "is_reserved": 0, "lon": -76.98358166666667}, {"fusion_lat": 0.0, "name": "9f69537de6f71a2c903159892eaaa6a0", "is_disabled": 0, "rental_uris": {"android": "https://dc.lft.to/lastmile_qr_scan", "ios": "https://dc.lft.to/lastmile_qr_scan"}, "fusion_lon": 0.0, "lat": 38.920793, "bike_id": "9f69537de6f71a2c903159892eaaa6a0", "type": "electric_bike", "is_reserved": 0, "lon": -76.98945}, {"fusion_lat": 0.0, "name": "06b95c76f9be6ec48e3c2556e2017cb8", "is_disabled": 0, "rental_uris": {"android": "https://dc.lft.to/lastmile_qr_scan", "ios": "https://dc.lft.to/lastmile_qr_scan"}, "fusion_lon": 0.0, "lat": 38.897410666666666, "bike_id": "06b95c76f9be6ec48e3c2556e2017cb8", "type": "electric_scooter", "is_reserved": 0, "lon": -77.003323}, {"fusion_lat": 0.0, "name": "e7b74fa103fd632155a45379135a8993", "is_disabled": 0, "rental_uris": {"android": "https://dc.lft.to/lastmile_qr_scan", "ios": "https://dc.lft.to/lastmile_qr_scan"}, "fusion_lon": 0.0, "lat": 38.88532033333333, "bike_id": "e7b74fa103fd632155a45379135a8993", "type": "electric_scooter", "is_reserved": 0, "lon": -77.01506766666667}, {"fusion_lat": 0.0, "name": "fb74ad9a52aed68bab822915e90f0523", "is_disabled": 0, "rental_uris": {"android": "https://dc.lft.to/lastmile_qr_scan", "ios": "https://dc.lft.to/lastmile_qr_scan"}, "fusion_lon": 0.0, "lat": 38.89330016666667, "bike_id": "fb74ad9a52aed68bab822915e90f0523", "type": "electric_scooter", "is_reserved": 0, "lon": -77.0224205}, {"fusion_lat": 0.0, "name": "f05672ad39733386d5c5aff538d55090", "is_disabled": 0, "rental_uris": {"android": "https://dc.lft.to/lastmile_qr_scan", "ios": "https://dc.lft.to/lastmile_qr_scan"}, "fusion_lon": 0.0, "lat": 38.90689666666667, "bike_id": "f05672ad39733386d5c5aff538d55090", "type": "electric_scooter", "is_reserved": 0, "lon": -77.000194}, {"fusion_lat": 0.0, "name": "08c866426eab2c46dbe66b48794e6090", "is_disabled": 0, "rental_uris": {"android": "https://dc.lft.to/lastmile_qr_scan", "ios": "https://dc.lft.to/lastmile_qr_scan"}, "fusion_lon": 0.0, "lat": 38.9365005, "bike_id": "08c866426eab2c46dbe66b48794e6090", "type": "electric_scooter", "is_reserved": 0, "lon": -77.030528}, {"fusion_lat": 0.0, "name": "549d89aa8e99efb68c2932f29248928e", "is_disabled": 0, "rental_uris": {"android": "https://dc.lft.to/lastmile_qr_scan", "ios": "https://dc.lft.to/lastmile_qr_scan"}, "fusion_lon": 0.0, "lat": 38.91328816666667, "bike_id": "549d89aa8e99efb68c2932f29248928e", "type": "electric_scooter", "is_reserved": 0, "lon": -77.03190366666666}, {"fusion_lat": 0.0, "name": "857c492f31f78e1b26a00d580c4cba28", "is_disabled": 0, "rental_uris": {"android": "https://dc.lft.to/lastmile_qr_scan", "ios": "https://dc.lft.to/lastmile_qr_scan"}, "fusion_lon": 0.0, "lat": 38.901099333333335, "bike_id": "857c492f31f78e1b26a00d580c4cba28", "type": "electric_scooter", "is_reserved": 0, "lon": -77.05152233333334}, {"fusion_lat": 0.0, "name": "6cb6558b593bcf184823861181c70a89", "is_disabled": 0, "rental_uris": {"android": "https://dc.lft.to/lastmile_qr_scan", "ios": "https://dc.lft.to/lastmile_qr_scan"}, "fusion_lon": 0.0, "lat": 38.983913, "bike_id": "6cb6558b593bcf184823861181c70a89", "type": "electric_scooter", "is_reserved": 0, "lon": -77.02629016666667}, {"fusion_lat": 0.0, "name": "0ca850f0bdd744ecd57a4939682f8e52", "is_disabled": 0, "rental_uris": {"android": "https://dc.lft.to/lastmile_qr_scan", "ios": "https://dc.lft.to/lastmile_qr_scan"}, "fusion_lon": 0.0, "lat": 38.90896166666667, "bike_id": "0ca850f0bdd744ecd57a4939682f8e52", "type": "electric_scooter", "is_reserved": 0, "lon": -77.03212783333333}, {"fusion_lat": 0.0, "name": "527507ed0c824e0f49193aad79f45d30", "is_disabled": 0, "rental_uris": {"android": "https://dc.lft.to/lastmile_qr_scan", "ios": "https://dc.lft.to/lastmile_qr_scan"}, "fusion_lon": 0.0, "lat": 38.90451933333333, "bike_id": "527507ed0c824e0f49193aad79f45d30", "type": "electric_scooter", "is_reserved": 0, "lon": -77.029766}, {"fusion_lat": 0.0, "name": "97631e1b4227d7bdf4df7a602d250d92", "is_disabled": 0, "rental_uris": {"android": "https://dc.lft.to/lastmile_qr_scan", "ios": "https://dc.lft.to/lastmile_qr_scan"}, "fusion_lon": 0.0, "lat": 38.9279185, "bike_id": "97631e1b4227d7bdf4df7a602d250d92", "type": "electric_scooter", "is_reserved": 0, "lon": -76.99560916666667}, {"fusion_lat": 0.0, "name": "ab0e260c4cc345c6b4fec27056f5d641", "is_disabled": 0, "rental_uris": {"android": "https://dc.lft.to/lastmile_qr_scan", "ios": "https://dc.lft.to/lastmile_qr_scan"}, "fusion_lon": 0.0, "lat": 38.921490166666665, "bike_id": "ab0e260c4cc345c6b4fec27056f5d641", "type": "electric_scooter", "is_reserved": 0, "lon": -77.03863633333333}, {"fusion_lat": 0.0, "name": "ba4842baa560721b7dcb19758eaa592c", "is_disabled": 0, "rental_uris": {"android": "https://dc.lft.to/lastmile_qr_scan", "ios": "https://dc.lft.to/lastmile_qr_scan"}, "fusion_lon": 0.0, "lat": 38.89989166666667, "bike_id": "ba4842baa560721b7dcb19758eaa592c", "type": "electric_scooter", "is_reserved": 0, "lon": -77.02711033333334}, {"fusion_lat": 0.0, "name": "b2675dc32e083284f21205945aa9be1a", "is_disabled": 0, "rental_uris": {"android": "https://dc.lft.to/lastmile_qr_scan", "ios": "https://dc.lft.to/lastmile_qr_scan"}, "fusion_lon": 0.0, "lat": 38.94524033333333, "bike_id": "b2675dc32e083284f21205945aa9be1a", "type": "electric_scooter", "is_reserved": 0, "lon": -77.02273166666667}, {"fusion_lat": 0.0, "name": "a3d6fa70118283c36858ee430f899590", "is_disabled": 0, "rental_uris": {"android": "https://dc.lft.to/lastmile_qr_scan", "ios": "https://dc.lft.to/lastmile_qr_scan"}, "fusion_lon": 0.0, "lat": 38.91906216666667, "bike_id": "a3d6fa70118283c36858ee430f899590", "type": "electric_scooter", "is_reserved": 0, "lon": -77.0122165}, {"fusion_lat": 0.0, "name": "29693e6610f4963efbf5343f54d233bc", "is_disabled": 0, "rental_uris": {"android": "https://dc.lft.to/lastmile_qr_scan", "ios": "https://dc.lft.to/lastmile_qr_scan"}, "fusion_lon": 0.0, "lat": 38.93616183333334, "bike_id": "29693e6610f4963efbf5343f54d233bc", "type": "electric_scooter", "is_reserved": 0, "lon": -77.08165983333333}, {"fusion_lat": 0.0, "name": "2dc008ab6f84cec770a5f98f45b39da2", "is_disabled": 0, "rental_uris": {"android": "https://dc.lft.to/lastmile_qr_scan", "ios": "https://dc.lft.to/lastmile_qr_scan"}, "fusion_lon": 0.0, "lat": 38.90658333333333, "bike_id": "2dc008ab6f84cec770a5f98f45b39da2", "type": "electric_scooter", "is_reserved": 0, "lon": -77.00904833333334}, {"fusion_lat": 0.0, "name": "23af53390b599f134b8fab4ff9f0d1a1", "is_disabled": 0, "rental_uris": {"android": "https://dc.lft.to/lastmile_qr_scan", "ios": "https://dc.lft.to/lastmile_qr_scan"}, "fusion_lon": 0.0, "lat": 38.9036585, "bike_id": "23af53390b599f134b8fab4ff9f0d1a1", "type": "electric_scooter", "is_reserved": 0, "lon": -77.00745133333334}, {"fusion_lat": 0.0, "name": "95bc76457b8679cf1615897361581132", "is_disabled": 0, "rental_uris": {"android": "https://dc.lft.to/lastmile_qr_scan", "ios": "https://dc.lft.to/lastmile_qr_scan"}, "fusion_lon": 0.0, "lat": 38.907562666666664, "bike_id": "95bc76457b8679cf1615897361581132", "type": "electric_scooter", "is_reserved": 0, "lon": -77.03617066666666}, {"fusion_lat": 0.0, "name": "6ab50779c896a3adb94bbf51cccc4b24", "is_disabled": 0, "rental_uris": {"android": "https://dc.lft.to/lastmile_qr_scan", "ios": "https://dc.lft.to/lastmile_qr_scan"}, "fusion_lon": 0.0, "lat": 38.89609083333333, "bike_id": "6ab50779c896a3adb94bbf51cccc4b24", "type": "electric_scooter", "is_reserved": 0, "lon": -77.009255}, {"fusion_lat": 0.0, "name": "286506584c7d6979ed7a0e6f49000cc6", "is_disabled": 0, "rental_uris": {"android": "https://dc.lft.to/lastmile_qr_scan", "ios": "https://dc.lft.to/lastmile_qr_scan"}, "fusion_lon": 0.0, "lat": 38.91724033333333, "bike_id": "286506584c7d6979ed7a0e6f49000cc6", "type": "electric_scooter", "is_reserved": 0, "lon": -77.04163516666667}, {"fusion_lat": 0.0, "name": "55fbb89f74985e06d53375682879b20d", "is_disabled": 0, "rental_uris": {"android": "https://dc.lft.to/lastmile_qr_scan", "ios": "https://dc.lft.to/lastmile_qr_scan"}, "fusion_lon": 0.0, "lat": 38.89877366666666, "bike_id": "55fbb89f74985e06d53375682879b20d", "type": "electric_scooter", "is_reserved": 0, "lon": -76.93184583333333}, {"fusion_lat": 0.0, "name": "bddfc292959af1d2f11b1c36e4ea2372", "is_disabled": 0, "rental_uris": {"android": "https://dc.lft.to/lastmile_qr_scan", "ios": "https://dc.lft.to/lastmile_qr_scan"}, "fusion_lon": 0.0, "lat": 38.886124833333334, "bike_id": "bddfc292959af1d2f11b1c36e4ea2372", "type": "electric_scooter", "is_reserved": 0, "lon": -77.01556133333334}, {"fusion_lat": 0.0, "name": "5db331fa3f2124705b99f9c193499814", "is_disabled": 0, "rental_uris": {"android": "https://dc.lft.to/lastmile_qr_scan", "ios": "https://dc.lft.to/lastmile_qr_scan"}, "fusion_lon": 0.0, "lat": 38.922596, "bike_id": "5db331fa3f2124705b99f9c193499814", "type": "electric_scooter", "is_reserved": 0, "lon": -77.01951716666666}, {"fusion_lat": 0.0, "name": "8874e0d344436c039da3db6b2569f223", "is_disabled": 0, "rental_uris": {"android": "https://dc.lft.to/lastmile_qr_scan", "ios": "https://dc.lft.to/lastmile_qr_scan"}, "fusion_lon": 0.0, "lat": 38.8922605, "bike_id": "8874e0d344436c039da3db6b2569f223", "type": "electric_scooter", "is_reserved": 0, "lon": -77.032192}, {"fusion_lat": 0.0, "name": "b46bb9f2e464738f9e76eb88bfa8fbf3", "is_disabled": 0, "rental_uris": {"android": "https://dc.lft.to/lastmile_qr_scan", "ios": "https://dc.lft.to/lastmile_qr_scan"}, "fusion_lon": 0.0, "lat": 38.92394183333333, "bike_id": "b46bb9f2e464738f9e76eb88bfa8fbf3", "type": "electric_scooter", "is_reserved": 0, "lon": -77.0248915}, {"fusion_lat": 0.0, "name": "1eaabacc5104a56ff2143d533af0e556", "is_disabled": 0, "rental_uris": {"android": "https://dc.lft.to/lastmile_qr_scan", "ios": "https://dc.lft.to/lastmile_qr_scan"}, "fusion_lon": 0.0, "lat": 38.90065516666667, "bike_id": "1eaabacc5104a56ff2143d533af0e556", "type": "electric_scooter", "is_reserved": 0, "lon": -77.0366215}, {"fusion_lat": 0.0, "name": "19ad267d81b99019cb77f7e6e718c6ac", "is_disabled": 0, "rental_uris": {"android": "https://dc.lft.to/lastmile_qr_scan", "ios": "https://dc.lft.to/lastmile_qr_scan"}, "fusion_lon": 0.0, "lat": 38.87706283333333, "bike_id": "19ad267d81b99019cb77f7e6e718c6ac", "type": "electric_scooter", "is_reserved": 0, "lon": -76.99382716666666}, {"fusion_lat": 0.0, "name": "687a6a12c9f8e567531440e52a3406e3", "is_disabled": 0, "rental_uris": {"android": "https://dc.lft.to/lastmile_qr_scan", "ios": "https://dc.lft.to/lastmile_qr_scan"}, "fusion_lon": 0.0, "lat": 38.90525866666667, "bike_id": "687a6a12c9f8e567531440e52a3406e3", "type": "electric_scooter", "is_reserved": 0, "lon": -77.05767983333334}, {"fusion_lat": 0.0, "name": "cefce390bbf9e2ec22e3177e2978cbdf", "is_disabled": 0, "rental_uris": {"android": "https://dc.lft.to/lastmile_qr_scan", "ios": "https://dc.lft.to/lastmile_qr_scan"}, "fusion_lon": 0.0, "lat": 38.794730666666666, "bike_id": "cefce390bbf9e2ec22e3177e2978cbdf", "type": "electric_bike", "is_reserved": 0, "lon": -76.99252033333333}, {"fusion_lat": 0.0, "name": "616dabeb3425c016f4b196d0a2fd263b", "is_disabled": 0, "rental_uris": {"android": "https://dc.lft.to/lastmile_qr_scan", "ios": "https://dc.lft.to/lastmile_qr_scan"}, "fusion_lon": 0.0, "lat": 38.968055666666665, "bike_id": "616dabeb3425c016f4b196d0a2fd263b", "type": "electric_bike", "is_reserved": 0, "lon": -76.95518033333333}, {"fusion_lat": 0.0, "name": "b59371366b3fb5f96d4f9ebb618e7e6a", "is_disabled": 0, "rental_uris": {"android": "https://dc.lft.to/lastmile_qr_scan", "ios": "https://dc.lft.to/lastmile_qr_scan"}, "fusion_lon": 0.0, "lat": 38.93578516666667, "bike_id": "b59371366b3fb5f96d4f9ebb618e7e6a", "type": "electric_scooter", "is_reserved": 0, "lon": -77.024435}, {"fusion_lat": 0.0, "name": "f98ff048c9165dcd292264d5e0303ed3", "is_disabled": 0, "rental_uris": {"android": "https://dc.lft.to/lastmile_qr_scan", "ios": "https://dc.lft.to/lastmile_qr_scan"}, "fusion_lon": 0.0, "lat": 38.907459333333335, "bike_id": "f98ff048c9165dcd292264d5e0303ed3", "type": "electric_scooter", "is_reserved": 0, "lon": -77.06319333333333}, {"fusion_lat": 0.0, "name": "121d53f0a07acccb7d558ab89a03871a", "is_disabled": 0, "rental_uris": {"android": "https://dc.lft.to/lastmile_qr_scan", "ios": "https://dc.lft.to/lastmile_qr_scan"}, "fusion_lon": 0.0, "lat": 38.900609333333335, "bike_id": "121d53f0a07acccb7d558ab89a03871a", "type": "electric_scooter", "is_reserved": 0, "lon": -77.05630316666667}, {"fusion_lat": 0.0, "name": "f0da2fb8e22893fed620e085afcb44e4", "is_disabled": 0, "rental_uris": {"android": "https://dc.lft.to/lastmile_qr_scan", "ios": "https://dc.lft.to/lastmile_qr_scan"}, "fusion_lon": 0.0, "lat": 38.9027965, "bike_id": "f0da2fb8e22893fed620e085afcb44e4", "type": "electric_scooter", "is_reserved": 0, "lon": -77.0346465}, {"fusion_lat": 0.0, "name": "854e4e5387a1a9b4b0b28be93edc3424", "is_disabled": 0, "rental_uris": {"android": "https://dc.lft.to/lastmile_qr_scan", "ios": "https://dc.lft.to/lastmile_qr_scan"}, "fusion_lon": 0.0, "lat": 38.9190205, "bike_id": "854e4e5387a1a9b4b0b28be93edc3424", "type": "electric_scooter", "is_reserved": 0, "lon": -77.02759333333333}, {"fusion_lat": 0.0, "name": "d14e616d939a026257c036b5564a7314", "is_disabled": 0, "rental_uris": {"android": "https://dc.lft.to/lastmile_qr_scan", "ios": "https://dc.lft.to/lastmile_qr_scan"}, "fusion_lon": 0.0, "lat": 38.89731066666667, "bike_id": "d14e616d939a026257c036b5564a7314", "type": "electric_scooter", "is_reserved": 0, "lon": -76.946978}, {"fusion_lat": 0.0, "name": "e6cfceb0d74e5614d44f951aac41d65f", "is_disabled": 0, "rental_uris": {"android": "https://dc.lft.to/lastmile_qr_scan", "ios": "https://dc.lft.to/lastmile_qr_scan"}, "fusion_lon": 0.0, "lat": 38.9175945, "bike_id": "e6cfceb0d74e5614d44f951aac41d65f", "type": "electric_scooter", "is_reserved": 0, "lon": -77.02705133333333}, {"fusion_lat": 0.0, "name": "6f249f7a004e023df2f56951b731830e", "is_disabled": 0, "rental_uris": {"android": "https://dc.lft.to/lastmile_qr_scan", "ios": "https://dc.lft.to/lastmile_qr_scan"}, "fusion_lon": 0.0, "lat": 38.90034466666667, "bike_id": "6f249f7a004e023df2f56951b731830e", "type": "electric_scooter", "is_reserved": 0, "lon": -77.05819916666667}, {"fusion_lat": 0.0, "name": "664236edff98562c3a8e7eb81b6d2503", "is_disabled": 0, "rental_uris": {"android": "https://dc.lft.to/lastmile_qr_scan", "ios": "https://dc.lft.to/lastmile_qr_scan"}, "fusion_lon": 0.0, "lat": 38.873773666666665, "bike_id": "664236edff98562c3a8e7eb81b6d2503", "type": "electric_scooter", "is_reserved": 0, "lon": -77.00089366666667}, {"fusion_lat": 0.0, "name": "27800be37d7704bd5061416bb6a5ac15", "is_disabled": 0, "rental_uris": {"android": "https://dc.lft.to/lastmile_qr_scan", "ios": "https://dc.lft.to/lastmile_qr_scan"}, "fusion_lon": 0.0, "lat": 38.866103333333335, "bike_id": "27800be37d7704bd5061416bb6a5ac15", "type": "electric_scooter", "is_reserved": 0, "lon": -76.984837}, {"fusion_lat": 0.0, "name": "cc0d10f2498224b07d08016482f6af3f", "is_disabled": 0, "rental_uris": {"android": "https://dc.lft.to/lastmile_qr_scan", "ios": "https://dc.lft.to/lastmile_qr_scan"}, "fusion_lon": 0.0, "lat": 38.92787533333333, "bike_id": "cc0d10f2498224b07d08016482f6af3f", "type": "electric_scooter", "is_reserved": 0, "lon": -77.04325133333333}, {"fusion_lat": 0.0, "name": "5794c1bb7021cc9d86af445629e3cf98", "is_disabled": 0, "rental_uris": {"android": "https://dc.lft.to/lastmile_qr_scan", "ios": "https://dc.lft.to/lastmile_qr_scan"}, "fusion_lon": 0.0, "lat": 38.924621, "bike_id": "5794c1bb7021cc9d86af445629e3cf98", "type": "electric_scooter", "is_reserved": 0, "lon": -77.0520645}, {"fusion_lat": 0.0, "name": "64afcc221a9904b06608b3d7ebab5695", "is_disabled": 0, "rental_uris": {"android": "https://dc.lft.to/lastmile_qr_scan", "ios": "https://dc.lft.to/lastmile_qr_scan"}, "fusion_lon": 0.0, "lat": 38.9095855, "bike_id": "64afcc221a9904b06608b3d7ebab5695", "type": "electric_scooter", "is_reserved": 0, "lon": -77.034052}, {"fusion_lat": 0.0, "name": "34b07a278ee335bee774c1db4327544b", "is_disabled": 0, "rental_uris": {"android": "https://dc.lft.to/lastmile_qr_scan", "ios": "https://dc.lft.to/lastmile_qr_scan"}, "fusion_lon": 0.0, "lat": 38.865105, "bike_id": "34b07a278ee335bee774c1db4327544b", "type": "electric_bike", "is_reserved": 0, "lon": -76.9732525}, {"fusion_lat": 0.0, "name": "2b6082afbc353341610522dd2e1aece6", "is_disabled": 0, "rental_uris": {"android": "https://dc.lft.to/lastmile_qr_scan", "ios": "https://dc.lft.to/lastmile_qr_scan"}, "fusion_lon": 0.0, "lat": 38.90554233333334, "bike_id": "2b6082afbc353341610522dd2e1aece6", "type": "electric_scooter", "is_reserved": 0, "lon": -77.03151983333333}, {"fusion_lat": 0.0, "name": "094f36f9c0fd0f0e6c9fbeb4d1dcd976", "is_disabled": 0, "rental_uris": {"android": "https://dc.lft.to/lastmile_qr_scan", "ios": "https://dc.lft.to/lastmile_qr_scan"}, "fusion_lon": 0.0, "lat": 38.93436283333333, "bike_id": "094f36f9c0fd0f0e6c9fbeb4d1dcd976", "type": "electric_scooter", "is_reserved": 0, "lon": -77.03444333333333}, {"fusion_lat": 0.0, "name": "bdefbc032392421d0049e9626062b507", "is_disabled": 0, "rental_uris": {"android": "https://dc.lft.to/lastmile_qr_scan", "ios": "https://dc.lft.to/lastmile_qr_scan"}, "fusion_lon": 0.0, "lat": 38.921021, "bike_id": "bdefbc032392421d0049e9626062b507", "type": "electric_scooter", "is_reserved": 0, "lon": -77.07472533333333}, {"fusion_lat": 0.0, "name": "153a8b8a2a1f3e36ca2f8ae3f150775d", "is_disabled": 0, "rental_uris": {"android": "https://dc.lft.to/lastmile_qr_scan", "ios": "https://dc.lft.to/lastmile_qr_scan"}, "fusion_lon": 0.0, "lat": 38.8815605, "bike_id": "153a8b8a2a1f3e36ca2f8ae3f150775d", "type": "electric_scooter", "is_reserved": 0, "lon": -77.027649}, {"fusion_lat": 0.0, "name": "ba99657c7c9e8837e682d1d932f63753", "is_disabled": 0, "rental_uris": {"android": "https://dc.lft.to/lastmile_qr_scan", "ios": "https://dc.lft.to/lastmile_qr_scan"}, "fusion_lon": 0.0, "lat": 38.90148033333333, "bike_id": "ba99657c7c9e8837e682d1d932f63753", "type": "electric_bike", "is_reserved": 0, "lon": -77.12903}, {"fusion_lat": 0.0, "name": "f228ebe5641f9b91da2b1d3ef9fab34b", "is_disabled": 0, "rental_uris": {"android": "https://dc.lft.to/lastmile_qr_scan", "ios": "https://dc.lft.to/lastmile_qr_scan"}, "fusion_lon": 0.0, "lat": 38.90358, "bike_id": "f228ebe5641f9b91da2b1d3ef9fab34b", "type": "electric_scooter", "is_reserved": 0, "lon": -77.0626535}, {"fusion_lat": 0.0, "name": "8606a2e9ef53cbe5cb022387f381c61d", "is_disabled": 0, "rental_uris": {"android": "https://dc.lft.to/lastmile_qr_scan", "ios": "https://dc.lft.to/lastmile_qr_scan"}, "fusion_lon": 0.0, "lat": 38.9055665, "bike_id": "8606a2e9ef53cbe5cb022387f381c61d", "type": "electric_scooter", "is_reserved": 0, "lon": -77.02718433333334}, {"fusion_lat": 0.0, "name": "a1947b0c43373f8806fca809e7d10ba8", "is_disabled": 0, "rental_uris": {"android": "https://dc.lft.to/lastmile_qr_scan", "ios": "https://dc.lft.to/lastmile_qr_scan"}, "fusion_lon": 0.0, "lat": 38.9562375, "bike_id": "a1947b0c43373f8806fca809e7d10ba8", "type": "electric_bike", "is_reserved": 0, "lon": -76.93872583333334}, {"fusion_lat": 0.0, "name": "d0d82c5cc9502a64148f2d07e4dc5a0c", "is_disabled": 0, "rental_uris": {"android": "https://dc.lft.to/lastmile_qr_scan", "ios": "https://dc.lft.to/lastmile_qr_scan"}, "fusion_lon": 0.0, "lat": 38.920969166666666, "bike_id": "d0d82c5cc9502a64148f2d07e4dc5a0c", "type": "electric_scooter", "is_reserved": 0, "lon": -77.04701166666666}, {"fusion_lat": 0.0, "name": "2ad0ec35a040243da8ca86b62e56385a", "is_disabled": 0, "rental_uris": {"android": "https://dc.lft.to/lastmile_qr_scan", "ios": "https://dc.lft.to/lastmile_qr_scan"}, "fusion_lon": 0.0, "lat": 38.9181455, "bike_id": "2ad0ec35a040243da8ca86b62e56385a", "type": "electric_scooter", "is_reserved": 0, "lon": -77.03642333333333}, {"fusion_lat": 0.0, "name": "bff9e790b1cf42623843291e2bce798a", "is_disabled": 0, "rental_uris": {"android": "https://dc.lft.to/lastmile_qr_scan", "ios": "https://dc.lft.to/lastmile_qr_scan"}, "fusion_lon": 0.0, "lat": 38.9023535, "bike_id": "bff9e790b1cf42623843291e2bce798a", "type": "electric_scooter", "is_reserved": 0, "lon": -77.0590035}, {"fusion_lat": 0.0, "name": "f84fcadd0e9929cd6c70d621bb0ec403", "is_disabled": 0, "rental_uris": {"android": "https://dc.lft.to/lastmile_qr_scan", "ios": "https://dc.lft.to/lastmile_qr_scan"}, "fusion_lon": 0.0, "lat": 38.884517, "bike_id": "f84fcadd0e9929cd6c70d621bb0ec403", "type": "electric_scooter", "is_reserved": 0, "lon": -76.99390133333333}, {"fusion_lat": 0.0, "name": "39b09d1fa1c883e5632fc2d632993f35", "is_disabled": 0, "rental_uris": {"android": "https://dc.lft.to/lastmile_qr_scan", "ios": "https://dc.lft.to/lastmile_qr_scan"}, "fusion_lon": 0.0, "lat": 38.907311666666665, "bike_id": "39b09d1fa1c883e5632fc2d632993f35", "type": "electric_scooter", "is_reserved": 0, "lon": -77.04363333333333}, {"fusion_lat": 0.0, "name": "af2ea26564477944a63f241376aaf42d", "is_disabled": 0, "rental_uris": {"android": "https://dc.lft.to/lastmile_qr_scan", "ios": "https://dc.lft.to/lastmile_qr_scan"}, "fusion_lon": 0.0, "lat": 38.80675166666666, "bike_id": "af2ea26564477944a63f241376aaf42d", "type": "electric_bike", "is_reserved": 0, "lon": -77.0691675}, {"fusion_lat": 0.0, "name": "9147d0f2463b18228f1844f98ff2dbb7", "is_disabled": 0, "rental_uris": {"android": "https://dc.lft.to/lastmile_qr_scan", "ios": "https://dc.lft.to/lastmile_qr_scan"}, "fusion_lon": 0.0, "lat": 38.911770833333335, "bike_id": "9147d0f2463b18228f1844f98ff2dbb7", "type": "electric_scooter", "is_reserved": 0, "lon": -77.03177483333333}, {"fusion_lat": 0.0, "name": "d9b47004c38badc0dfab34e9e8f5e10d", "is_disabled": 0, "rental_uris": {"android": "https://dc.lft.to/lastmile_qr_scan", "ios": "https://dc.lft.to/lastmile_qr_scan"}, "fusion_lon": 0.0, "lat": 38.904331, "bike_id": "d9b47004c38badc0dfab34e9e8f5e10d", "type": "electric_scooter", "is_reserved": 0, "lon": -76.996152}, {"fusion_lat": 0.0, "name": "52f8f3b60a70f1516b2ccbddc868a03a", "is_disabled": 0, "rental_uris": {"android": "https://dc.lft.to/lastmile_qr_scan", "ios": "https://dc.lft.to/lastmile_qr_scan"}, "fusion_lon": 0.0, "lat": 38.8766385, "bike_id": "52f8f3b60a70f1516b2ccbddc868a03a", "type": "electric_scooter", "is_reserved": 0, "lon": -77.00920816666667}, {"fusion_lat": 0.0, "name": "603edb2bef6941e5c099b290a1c3b363", "is_disabled": 0, "rental_uris": {"android": "https://dc.lft.to/lastmile_qr_scan", "ios": "https://dc.lft.to/lastmile_qr_scan"}, "fusion_lon": 0.0, "lat": 38.901434, "bike_id": "603edb2bef6941e5c099b290a1c3b363", "type": "electric_scooter", "is_reserved": 0, "lon": -77.000663}, {"fusion_lat": 0.0, "name": "e7f19992f906f68803b5508055c9a942", "is_disabled": 0, "rental_uris": {"android": "https://dc.lft.to/lastmile_qr_scan", "ios": "https://dc.lft.to/lastmile_qr_scan"}, "fusion_lon": 0.0, "lat": 38.958796666666665, "bike_id": "e7f19992f906f68803b5508055c9a942", "type": "electric_scooter", "is_reserved": 0, "lon": -77.01166383333333}, {"fusion_lat": 0.0, "name": "1e4c9c6f29c3b6efb45c20cb0f4753d9", "is_disabled": 0, "rental_uris": {"android": "https://dc.lft.to/lastmile_qr_scan", "ios": "https://dc.lft.to/lastmile_qr_scan"}, "fusion_lon": 0.0, "lat": 38.928258, "bike_id": "1e4c9c6f29c3b6efb45c20cb0f4753d9", "type": "electric_scooter", "is_reserved": 0, "lon": -77.02257316666666}, {"fusion_lat": 0.0, "name": "6c3aedc360d78a26689655a5b8c41fa7", "is_disabled": 0, "rental_uris": {"android": "https://dc.lft.to/lastmile_qr_scan", "ios": "https://dc.lft.to/lastmile_qr_scan"}, "fusion_lon": 0.0, "lat": 38.91457166666667, "bike_id": "6c3aedc360d78a26689655a5b8c41fa7", "type": "electric_scooter", "is_reserved": 0, "lon": -77.032078}, {"fusion_lat": 0.0, "name": "37dc005f867eb5f5f3f73fb577ea22b6", "is_disabled": 0, "rental_uris": {"android": "https://dc.lft.to/lastmile_qr_scan", "ios": "https://dc.lft.to/lastmile_qr_scan"}, "fusion_lon": 0.0, "lat": 38.882332, "bike_id": "37dc005f867eb5f5f3f73fb577ea22b6", "type": "electric_scooter", "is_reserved": 0, "lon": -77.0261505}, {"fusion_lat": 0.0, "name": "b5aca52b51260c33f894025ecbecd49c", "is_disabled": 0, "rental_uris": {"android": "https://dc.lft.to/lastmile_qr_scan", "ios": "https://dc.lft.to/lastmile_qr_scan"}, "fusion_lon": 0.0, "lat": 38.931337, "bike_id": "b5aca52b51260c33f894025ecbecd49c", "type": "electric_scooter", "is_reserved": 0, "lon": -77.02348266666667}, {"fusion_lat": 0.0, "name": "14febb8ea0b253c08becc1c8674b3a08", "is_disabled": 0, "rental_uris": {"android": "https://dc.lft.to/lastmile_qr_scan", "ios": "https://dc.lft.to/lastmile_qr_scan"}, "fusion_lon": 0.0, "lat": 38.87907083333333, "bike_id": "14febb8ea0b253c08becc1c8674b3a08", "type": "electric_scooter", "is_reserved": 0, "lon": -77.00895983333334}, {"fusion_lat": 0.0, "name": "92b34ed68987199e3f11aede2712fa7f", "is_disabled": 0, "rental_uris": {"android": "https://dc.lft.to/lastmile_qr_scan", "ios": "https://dc.lft.to/lastmile_qr_scan"}, "fusion_lon": 0.0, "lat": 38.915524, "bike_id": "92b34ed68987199e3f11aede2712fa7f", "type": "electric_scooter", "is_reserved": 0, "lon": -77.03222216666667}, {"fusion_lat": 0.0, "name": "fff1fa620a9b2249b1c687db5cc7a207", "is_disabled": 0, "rental_uris": {"android": "https://dc.lft.to/lastmile_qr_scan", "ios": "https://dc.lft.to/lastmile_qr_scan"}, "fusion_lon": 0.0, "lat": 38.915499833333335, "bike_id": "fff1fa620a9b2249b1c687db5cc7a207", "type": "electric_scooter", "is_reserved": 0, "lon": -77.03232316666667}, {"fusion_lat": 0.0, "name": "8e99a43e251902e9b639b5f7820f59ea", "is_disabled": 0, "rental_uris": {"android": "https://dc.lft.to/lastmile_qr_scan", "ios": "https://dc.lft.to/lastmile_qr_scan"}, "fusion_lon": 0.0, "lat": 38.91736216666666, "bike_id": "8e99a43e251902e9b639b5f7820f59ea", "type": "electric_scooter", "is_reserved": 0, "lon": -77.0319365}, {"fusion_lat": 0.0, "name": "8dfaeb191c95485d3a2284c2e8e6dceb", "is_disabled": 0, "rental_uris": {"android": "https://dc.lft.to/lastmile_qr_scan", "ios": "https://dc.lft.to/lastmile_qr_scan"}, "fusion_lon": 0.0, "lat": 38.904010666666665, "bike_id": "8dfaeb191c95485d3a2284c2e8e6dceb", "type": "electric_scooter", "is_reserved": 0, "lon": -77.01776233333334}, {"fusion_lat": 0.0, "name": "8fc86f36ecee0fc112c098cbe732e63d", "is_disabled": 0, "rental_uris": {"android": "https://dc.lft.to/lastmile_qr_scan", "ios": "https://dc.lft.to/lastmile_qr_scan"}, "fusion_lon": 0.0, "lat": 38.90783016666666, "bike_id": "8fc86f36ecee0fc112c098cbe732e63d", "type": "electric_scooter", "is_reserved": 0, "lon": -77.011096}, {"fusion_lat": 0.0, "name": "86b240aba43de76e4c14cd96d0f36efb", "is_disabled": 0, "rental_uris": {"android": "https://dc.lft.to/lastmile_qr_scan", "ios": "https://dc.lft.to/lastmile_qr_scan"}, "fusion_lon": 0.0, "lat": 38.91802466666667, "bike_id": "86b240aba43de76e4c14cd96d0f36efb", "type": "electric_scooter", "is_reserved": 0, "lon": -77.03663633333333}, {"fusion_lat": 0.0, "name": "e90e3f18a4e8605a1804d7db146bcfaa", "is_disabled": 0, "rental_uris": {"android": "https://dc.lft.to/lastmile_qr_scan", "ios": "https://dc.lft.to/lastmile_qr_scan"}, "fusion_lon": 0.0, "lat": 38.89252833333333, "bike_id": "e90e3f18a4e8605a1804d7db146bcfaa", "type": "electric_scooter", "is_reserved": 0, "lon": -77.0337745}, {"fusion_lat": 0.0, "name": "5b6df8c1d37a1556a05828b5ce0facf8", "is_disabled": 0, "rental_uris": {"android": "https://dc.lft.to/lastmile_qr_scan", "ios": "https://dc.lft.to/lastmile_qr_scan"}, "fusion_lon": 0.0, "lat": 38.94199283333333, "bike_id": "5b6df8c1d37a1556a05828b5ce0facf8", "type": "electric_scooter", "is_reserved": 0, "lon": -77.0259055}, {"fusion_lat": 0.0, "name": "e7d6d53cd809d97cb6180bc22c63c303", "is_disabled": 0, "rental_uris": {"android": "https://dc.lft.to/lastmile_qr_scan", "ios": "https://dc.lft.to/lastmile_qr_scan"}, "fusion_lon": 0.0, "lat": 38.90026016666667, "bike_id": "e7d6d53cd809d97cb6180bc22c63c303", "type": "electric_scooter", "is_reserved": 0, "lon": -77.00180833333333}, {"fusion_lat": 0.0, "name": "7b7d188f2dae07ecbab34e724b18ea78", "is_disabled": 0, "rental_uris": {"android": "https://dc.lft.to/lastmile_qr_scan", "ios": "https://dc.lft.to/lastmile_qr_scan"}, "fusion_lon": 0.0, "lat": 38.92220533333333, "bike_id": "7b7d188f2dae07ecbab34e724b18ea78", "type": "electric_bike", "is_reserved": 0, "lon": -77.20138416666667}, {"fusion_lat": 0.0, "name": "3dab8d449b506f6922930b81570668c0", "is_disabled": 0, "rental_uris": {"android": "https://dc.lft.to/lastmile_qr_scan", "ios": "https://dc.lft.to/lastmile_qr_scan"}, "fusion_lon": 0.0, "lat": 38.94974833333333, "bike_id": "3dab8d449b506f6922930b81570668c0", "type": "electric_scooter", "is_reserved": 0, "lon": -77.08088516666666}, {"fusion_lat": 0.0, "name": "096904dd5b93682c87c43634db3c665d", "is_disabled": 0, "rental_uris": {"android": "https://dc.lft.to/lastmile_qr_scan", "ios": "https://dc.lft.to/lastmile_qr_scan"}, "fusion_lon": 0.0, "lat": 38.88061366666667, "bike_id": "096904dd5b93682c87c43634db3c665d", "type": "electric_bike", "is_reserved": 0, "lon": -77.02515466666667}, {"fusion_lat": 0.0, "name": "f3559e78dc00dfc5196400b0da2c97f6", "is_disabled": 0, "rental_uris": {"android": "https://dc.lft.to/lastmile_qr_scan", "ios": "https://dc.lft.to/lastmile_qr_scan"}, "fusion_lon": 0.0, "lat": 38.908861333333334, "bike_id": "f3559e78dc00dfc5196400b0da2c97f6", "type": "electric_scooter", "is_reserved": 0, "lon": -77.0642215}, {"fusion_lat": 0.0, "name": "f0b425ed5959296b37ffef935e0f2a02", "is_disabled": 0, "rental_uris": {"android": "https://dc.lft.to/lastmile_qr_scan", "ios": "https://dc.lft.to/lastmile_qr_scan"}, "fusion_lon": 0.0, "lat": 38.943091833333334, "bike_id": "f0b425ed5959296b37ffef935e0f2a02", "type": "electric_scooter", "is_reserved": 0, "lon": -77.0627635}, {"fusion_lat": 0.0, "name": "90b04882bfa8e8c7911ceda63c134942", "is_disabled": 0, "rental_uris": {"android": "https://dc.lft.to/lastmile_qr_scan", "ios": "https://dc.lft.to/lastmile_qr_scan"}, "fusion_lon": 0.0, "lat": 38.9040825, "bike_id": "90b04882bfa8e8c7911ceda63c134942", "type": "electric_scooter", "is_reserved": 0, "lon": -76.973317}, {"fusion_lat": 0.0, "name": "4b0837d86d7ab69c4e8f66ec6305700b", "is_disabled": 0, "rental_uris": {"android": "https://dc.lft.to/lastmile_qr_scan", "ios": "https://dc.lft.to/lastmile_qr_scan"}, "fusion_lon": 0.0, "lat": 38.90489133333333, "bike_id": "4b0837d86d7ab69c4e8f66ec6305700b", "type": "electric_scooter", "is_reserved": 0, "lon": -77.01882433333333}, {"fusion_lat": 0.0, "name": "589a2831fa450a660ecde938d13e6f32", "is_disabled": 0, "rental_uris": {"android": "https://dc.lft.to/lastmile_qr_scan", "ios": "https://dc.lft.to/lastmile_qr_scan"}, "fusion_lon": 0.0, "lat": 38.88707, "bike_id": "589a2831fa450a660ecde938d13e6f32", "type": "electric_scooter", "is_reserved": 0, "lon": -77.00247733333333}, {"fusion_lat": 0.0, "name": "f368a1c2d32c50f302e4cc9135303329", "is_disabled": 0, "rental_uris": {"android": "https://dc.lft.to/lastmile_qr_scan", "ios": "https://dc.lft.to/lastmile_qr_scan"}, "fusion_lon": 0.0, "lat": 38.88145183333334, "bike_id": "f368a1c2d32c50f302e4cc9135303329", "type": "electric_scooter", "is_reserved": 0, "lon": -77.02704416666667}, {"fusion_lat": 0.0, "name": "588f428a0190963208d8e479833edc16", "is_disabled": 0, "rental_uris": {"android": "https://dc.lft.to/lastmile_qr_scan", "ios": "https://dc.lft.to/lastmile_qr_scan"}, "fusion_lon": 0.0, "lat": 38.89545183333333, "bike_id": "588f428a0190963208d8e479833edc16", "type": "electric_scooter", "is_reserved": 0, "lon": -76.9495315}, {"fusion_lat": 0.0, "name": "596448b484eabc8ea60b5cce0632f9df", "is_disabled": 0, "rental_uris": {"android": "https://dc.lft.to/lastmile_qr_scan", "ios": "https://dc.lft.to/lastmile_qr_scan"}, "fusion_lon": 0.0, "lat": 38.926051666666666, "bike_id": "596448b484eabc8ea60b5cce0632f9df", "type": "electric_scooter", "is_reserved": 0, "lon": -77.0215295}, {"fusion_lat": 0.0, "name": "4ea3c193464728cf0ff2330599499b4a", "is_disabled": 0, "rental_uris": {"android": "https://dc.lft.to/lastmile_qr_scan", "ios": "https://dc.lft.to/lastmile_qr_scan"}, "fusion_lon": 0.0, "lat": 38.80450116666667, "bike_id": "4ea3c193464728cf0ff2330599499b4a", "type": "electric_bike", "is_reserved": 0, "lon": -77.05386333333334}, {"fusion_lat": 0.0, "name": "1c949eca0d09ff8a49ecca7af5c47239", "is_disabled": 0, "rental_uris": {"android": "https://dc.lft.to/lastmile_qr_scan", "ios": "https://dc.lft.to/lastmile_qr_scan"}, "fusion_lon": 0.0, "lat": 38.87738566666667, "bike_id": "1c949eca0d09ff8a49ecca7af5c47239", "type": "electric_scooter", "is_reserved": 0, "lon": -76.9962845}, {"fusion_lat": 0.0, "name": "a0376417f279c9d2e9161b121aaa6eaa", "is_disabled": 0, "rental_uris": {"android": "https://dc.lft.to/lastmile_qr_scan", "ios": "https://dc.lft.to/lastmile_qr_scan"}, "fusion_lon": 0.0, "lat": 38.916624, "bike_id": "a0376417f279c9d2e9161b121aaa6eaa", "type": "electric_scooter", "is_reserved": 0, "lon": -77.02812066666667}, {"fusion_lat": 0.0, "name": "79ebffde38fd5364301dcf2fb9f9beee", "is_disabled": 0, "rental_uris": {"android": "https://dc.lft.to/lastmile_qr_scan", "ios": "https://dc.lft.to/lastmile_qr_scan"}, "fusion_lon": 0.0, "lat": 38.92340633333333, "bike_id": "79ebffde38fd5364301dcf2fb9f9beee", "type": "electric_scooter", "is_reserved": 0, "lon": -77.052268}, {"fusion_lat": 0.0, "name": "1a479a641ca0a5e194e6352c0ac7570b", "is_disabled": 0, "rental_uris": {"android": "https://dc.lft.to/lastmile_qr_scan", "ios": "https://dc.lft.to/lastmile_qr_scan"}, "fusion_lon": 0.0, "lat": 38.877477166666665, "bike_id": "1a479a641ca0a5e194e6352c0ac7570b", "type": "electric_scooter", "is_reserved": 0, "lon": -77.01429433333334}, {"fusion_lat": 0.0, "name": "164e48347a8bee0902e4961bf2e7a176", "is_disabled": 0, "rental_uris": {"android": "https://dc.lft.to/lastmile_qr_scan", "ios": "https://dc.lft.to/lastmile_qr_scan"}, "fusion_lon": 0.0, "lat": 38.879552, "bike_id": "164e48347a8bee0902e4961bf2e7a176", "type": "electric_scooter", "is_reserved": 0, "lon": -76.989941}, {"fusion_lat": 0.0, "name": "22e8dfe19a95ab40aafce175cf2e3ed0", "is_disabled": 0, "rental_uris": {"android": "https://dc.lft.to/lastmile_qr_scan", "ios": "https://dc.lft.to/lastmile_qr_scan"}, "fusion_lon": 0.0, "lat": 38.932619833333334, "bike_id": "22e8dfe19a95ab40aafce175cf2e3ed0", "type": "electric_scooter", "is_reserved": 0, "lon": -77.02090566666666}, {"fusion_lat": 0.0, "name": "fcac448ea37da37c462a9dc50a550a08", "is_disabled": 0, "rental_uris": {"android": "https://dc.lft.to/lastmile_qr_scan", "ios": "https://dc.lft.to/lastmile_qr_scan"}, "fusion_lon": 0.0, "lat": 38.927473666666664, "bike_id": "fcac448ea37da37c462a9dc50a550a08", "type": "electric_scooter", "is_reserved": 0, "lon": -77.03306383333333}, {"fusion_lat": 0.0, "name": "c47b04f10e10a791ae8219d8edc45e6e", "is_disabled": 0, "rental_uris": {"android": "https://dc.lft.to/lastmile_qr_scan", "ios": "https://dc.lft.to/lastmile_qr_scan"}, "fusion_lon": 0.0, "lat": 38.890085666666664, "bike_id": "c47b04f10e10a791ae8219d8edc45e6e", "type": "electric_scooter", "is_reserved": 0, "lon": -76.9374535}, {"fusion_lat": 0.0, "name": "f40d29c68731c633a689e8fbe1e09772", "is_disabled": 0, "rental_uris": {"android": "https://dc.lft.to/lastmile_qr_scan", "ios": "https://dc.lft.to/lastmile_qr_scan"}, "fusion_lon": 0.0, "lat": 38.917709333333335, "bike_id": "f40d29c68731c633a689e8fbe1e09772", "type": "electric_scooter", "is_reserved": 0, "lon": -77.04055983333333}, {"fusion_lat": 0.0, "name": "c164e6992e721b61945195eaeb1b3790", "is_disabled": 0, "rental_uris": {"android": "https://dc.lft.to/lastmile_qr_scan", "ios": "https://dc.lft.to/lastmile_qr_scan"}, "fusion_lon": 0.0, "lat": 38.89674216666667, "bike_id": "c164e6992e721b61945195eaeb1b3790", "type": "electric_scooter", "is_reserved": 0, "lon": -77.05117216666666}, {"fusion_lat": 0.0, "name": "2570d0695b43cd4f0b1a3fb472ebcec7", "is_disabled": 0, "rental_uris": {"android": "https://dc.lft.to/lastmile_qr_scan", "ios": "https://dc.lft.to/lastmile_qr_scan"}, "fusion_lon": 0.0, "lat": 38.82175266666667, "bike_id": "2570d0695b43cd4f0b1a3fb472ebcec7", "type": "electric_bike", "is_reserved": 0, "lon": -76.99509216666667}, {"fusion_lat": 0.0, "name": "07eb4b2f505ab58a6656f18d73293fe3", "is_disabled": 0, "rental_uris": {"android": "https://dc.lft.to/lastmile_qr_scan", "ios": "https://dc.lft.to/lastmile_qr_scan"}, "fusion_lon": 0.0, "lat": 38.89226083333333, "bike_id": "07eb4b2f505ab58a6656f18d73293fe3", "type": "electric_scooter", "is_reserved": 0, "lon": -77.0322335}, {"fusion_lat": 0.0, "name": "a333744d622a22e804cf82900e0bc9b9", "is_disabled": 0, "rental_uris": {"android": "https://dc.lft.to/lastmile_qr_scan", "ios": "https://dc.lft.to/lastmile_qr_scan"}, "fusion_lon": 0.0, "lat": 38.91419916666667, "bike_id": "a333744d622a22e804cf82900e0bc9b9", "type": "electric_scooter", "is_reserved": 0, "lon": -77.03177416666666}, {"fusion_lat": 0.0, "name": "c9572341c893e09417dd9b453d2263f5", "is_disabled": 0, "rental_uris": {"android": "https://dc.lft.to/lastmile_qr_scan", "ios": "https://dc.lft.to/lastmile_qr_scan"}, "fusion_lon": 0.0, "lat": 38.901407, "bike_id": "c9572341c893e09417dd9b453d2263f5", "type": "electric_scooter", "is_reserved": 0, "lon": -77.038506}, {"fusion_lat": 0.0, "name": "e972580c6b67f370e827debf2136b417", "is_disabled": 0, "rental_uris": {"android": "https://dc.lft.to/lastmile_qr_scan", "ios": "https://dc.lft.to/lastmile_qr_scan"}, "fusion_lon": 0.0, "lat": 38.918161166666664, "bike_id": "e972580c6b67f370e827debf2136b417", "type": "electric_scooter", "is_reserved": 0, "lon": -77.03281883333334}, {"fusion_lat": 0.0, "name": "65528d4444ce972ce7fadb69451e0e8d", "is_disabled": 0, "rental_uris": {"android": "https://dc.lft.to/lastmile_qr_scan", "ios": "https://dc.lft.to/lastmile_qr_scan"}, "fusion_lon": 0.0, "lat": 38.9206755, "bike_id": "65528d4444ce972ce7fadb69451e0e8d", "type": "electric_scooter", "is_reserved": 0, "lon": -77.02851233333334}, {"fusion_lat": 0.0, "name": "2b2c34b374f982c3ff1d4f9d9d5a7c6f", "is_disabled": 0, "rental_uris": {"android": "https://dc.lft.to/lastmile_qr_scan", "ios": "https://dc.lft.to/lastmile_qr_scan"}, "fusion_lon": 0.0, "lat": 38.934661166666665, "bike_id": "2b2c34b374f982c3ff1d4f9d9d5a7c6f", "type": "electric_scooter", "is_reserved": 0, "lon": -77.05781683333333}, {"fusion_lat": 0.0, "name": "5b73a8424bd85edb57a46ce1884841bc", "is_disabled": 0, "rental_uris": {"android": "https://dc.lft.to/lastmile_qr_scan", "ios": "https://dc.lft.to/lastmile_qr_scan"}, "fusion_lon": 0.0, "lat": 38.92928216666667, "bike_id": "5b73a8424bd85edb57a46ce1884841bc", "type": "electric_scooter", "is_reserved": 0, "lon": -77.032806}, {"fusion_lat": 0.0, "name": "3406f27dfd72c09f2cb7ede87a77df8d", "is_disabled": 0, "rental_uris": {"android": "https://dc.lft.to/lastmile_qr_scan", "ios": "https://dc.lft.to/lastmile_qr_scan"}, "fusion_lon": 0.0, "lat": 38.887208666666666, "bike_id": "3406f27dfd72c09f2cb7ede87a77df8d", "type": "electric_scooter", "is_reserved": 0, "lon": -77.02189383333334}, {"fusion_lat": 0.0, "name": "68db597fea121444a6ee002e59719ac7", "is_disabled": 0, "rental_uris": {"android": "https://dc.lft.to/lastmile_qr_scan", "ios": "https://dc.lft.to/lastmile_qr_scan"}, "fusion_lon": 0.0, "lat": 38.9155525, "bike_id": "68db597fea121444a6ee002e59719ac7", "type": "electric_scooter", "is_reserved": 0, "lon": -77.03242516666667}, {"fusion_lat": 0.0, "name": "2b6d0ded902b94706b8f8c6b0797ab69", "is_disabled": 0, "rental_uris": {"android": "https://dc.lft.to/lastmile_qr_scan", "ios": "https://dc.lft.to/lastmile_qr_scan"}, "fusion_lon": 0.0, "lat": 38.92262866666667, "bike_id": "2b6d0ded902b94706b8f8c6b0797ab69", "type": "electric_bike", "is_reserved": 0, "lon": -77.07030533333334}, {"fusion_lat": 0.0, "name": "1554fc0196a7e8fd1d2655e84da615e9", "is_disabled": 0, "rental_uris": {"android": "https://dc.lft.to/lastmile_qr_scan", "ios": "https://dc.lft.to/lastmile_qr_scan"}, "fusion_lon": 0.0, "lat": 38.909597833333336, "bike_id": "1554fc0196a7e8fd1d2655e84da615e9", "type": "electric_scooter", "is_reserved": 0, "lon": -77.03933416666666}, {"fusion_lat": 0.0, "name": "e28806d80fabadbe062be5be2cc0ee24", "is_disabled": 0, "rental_uris": {"android": "https://dc.lft.to/lastmile_qr_scan", "ios": "https://dc.lft.to/lastmile_qr_scan"}, "fusion_lon": 0.0, "lat": 38.8901565, "bike_id": "e28806d80fabadbe062be5be2cc0ee24", "type": "electric_scooter", "is_reserved": 0, "lon": -76.937406}, {"fusion_lat": 0.0, "name": "710f80f5e17d69d401bb80a6592a2a37", "is_disabled": 0, "rental_uris": {"android": "https://dc.lft.to/lastmile_qr_scan", "ios": "https://dc.lft.to/lastmile_qr_scan"}, "fusion_lon": 0.0, "lat": 38.924567833333334, "bike_id": "710f80f5e17d69d401bb80a6592a2a37", "type": "electric_scooter", "is_reserved": 0, "lon": -77.024106}, {"fusion_lat": 0.0, "name": "640b5afdfc86f9a05365d97d03be2df5", "is_disabled": 0, "rental_uris": {"android": "https://dc.lft.to/lastmile_qr_scan", "ios": "https://dc.lft.to/lastmile_qr_scan"}, "fusion_lon": 0.0, "lat": 38.92028366666667, "bike_id": "640b5afdfc86f9a05365d97d03be2df5", "type": "electric_scooter", "is_reserved": 0, "lon": -77.03068583333334}, {"fusion_lat": 0.0, "name": "7afe51a3b954e0bf48d894cdcd5b4b26", "is_disabled": 0, "rental_uris": {"android": "https://dc.lft.to/lastmile_qr_scan", "ios": "https://dc.lft.to/lastmile_qr_scan"}, "fusion_lon": 0.0, "lat": 38.92028533333333, "bike_id": "7afe51a3b954e0bf48d894cdcd5b4b26", "type": "electric_scooter", "is_reserved": 0, "lon": -76.99561983333334}, {"fusion_lat": 0.0, "name": "b38d18efb59a3bee50cf6e49d7ac5441", "is_disabled": 0, "rental_uris": {"android": "https://dc.lft.to/lastmile_qr_scan", "ios": "https://dc.lft.to/lastmile_qr_scan"}, "fusion_lon": 0.0, "lat": 38.917025333333335, "bike_id": "b38d18efb59a3bee50cf6e49d7ac5441", "type": "electric_scooter", "is_reserved": 0, "lon": -77.00114883333333}, {"fusion_lat": 0.0, "name": "869350113f6b805a75afb0439d59676b", "is_disabled": 0, "rental_uris": {"android": "https://dc.lft.to/lastmile_qr_scan", "ios": "https://dc.lft.to/lastmile_qr_scan"}, "fusion_lon": 0.0, "lat": 38.90026666666667, "bike_id": "869350113f6b805a75afb0439d59676b", "type": "electric_scooter", "is_reserved": 0, "lon": -77.00042733333333}, {"fusion_lat": 0.0, "name": "7edeb7cc755a65c107d6befcc91cfb1e", "is_disabled": 0, "rental_uris": {"android": "https://dc.lft.to/lastmile_qr_scan", "ios": "https://dc.lft.to/lastmile_qr_scan"}, "fusion_lon": 0.0, "lat": 38.9119905, "bike_id": "7edeb7cc755a65c107d6befcc91cfb1e", "type": "electric_scooter", "is_reserved": 0, "lon": -77.073103}, {"fusion_lat": 0.0, "name": "9217a3d757cc8461dce00f2092706e8b", "is_disabled": 0, "rental_uris": {"android": "https://dc.lft.to/lastmile_qr_scan", "ios": "https://dc.lft.to/lastmile_qr_scan"}, "fusion_lon": 0.0, "lat": 38.93319233333333, "bike_id": "9217a3d757cc8461dce00f2092706e8b", "type": "electric_scooter", "is_reserved": 0, "lon": -77.0275565}, {"fusion_lat": 0.0, "name": "c60785f3699944fe5debc724bf26d239", "is_disabled": 0, "rental_uris": {"android": "https://dc.lft.to/lastmile_qr_scan", "ios": "https://dc.lft.to/lastmile_qr_scan"}, "fusion_lon": 0.0, "lat": 38.9160675, "bike_id": "c60785f3699944fe5debc724bf26d239", "type": "electric_scooter", "is_reserved": 0, "lon": -77.03205466666667}, {"fusion_lat": 0.0, "name": "595d595a26bf5ea0b4fd546065092a7e", "is_disabled": 0, "rental_uris": {"android": "https://dc.lft.to/lastmile_qr_scan", "ios": "https://dc.lft.to/lastmile_qr_scan"}, "fusion_lon": 0.0, "lat": 38.92089433333334, "bike_id": "595d595a26bf5ea0b4fd546065092a7e", "type": "electric_scooter", "is_reserved": 0, "lon": -77.02535216666666}, {"fusion_lat": 0.0, "name": "9ced7833b8b2be751081275605c22cdd", "is_disabled": 0, "rental_uris": {"android": "https://dc.lft.to/lastmile_qr_scan", "ios": "https://dc.lft.to/lastmile_qr_scan"}, "fusion_lon": 0.0, "lat": 38.92872883333333, "bike_id": "9ced7833b8b2be751081275605c22cdd", "type": "electric_scooter", "is_reserved": 0, "lon": -77.03791866666667}, {"fusion_lat": 0.0, "name": "b65bcc4443e4d0ebcee0c7d9399e8274", "is_disabled": 0, "rental_uris": {"android": "https://dc.lft.to/lastmile_qr_scan", "ios": "https://dc.lft.to/lastmile_qr_scan"}, "fusion_lon": 0.0, "lat": 38.92255766666667, "bike_id": "b65bcc4443e4d0ebcee0c7d9399e8274", "type": "electric_scooter", "is_reserved": 0, "lon": -77.0184345}, {"fusion_lat": 0.0, "name": "090241d6b0acc29d4b7b436eb30c68bb", "is_disabled": 0, "rental_uris": {"android": "https://dc.lft.to/lastmile_qr_scan", "ios": "https://dc.lft.to/lastmile_qr_scan"}, "fusion_lon": 0.0, "lat": 38.87395466666667, "bike_id": "090241d6b0acc29d4b7b436eb30c68bb", "type": "electric_scooter", "is_reserved": 0, "lon": -77.00023116666667}, {"fusion_lat": 0.0, "name": "97d36720a885690aa6c2a1c674f24c5f", "is_disabled": 0, "rental_uris": {"android": "https://dc.lft.to/lastmile_qr_scan", "ios": "https://dc.lft.to/lastmile_qr_scan"}, "fusion_lon": 0.0, "lat": 38.900271833333335, "bike_id": "97d36720a885690aa6c2a1c674f24c5f", "type": "electric_scooter", "is_reserved": 0, "lon": -76.99560833333334},