{"data": {"bikes": [{"rental_uris": {"ios": "https://dc.lft.to/lastmile_qr_scan", "android": "https://dc.lft.to/lastmile_qr_scan"}, "type": "electric_scooter", "name": "742591b226848662b8ddfc3346b593d9", "is_reserved": 0, "lon": -77.0209115, "is_disabled": 0, "fusion_lat": 0.0, "lat": 38.92919966666667, "bike_id": "742591b226848662b8ddfc3346b593d9", "fusion_lon": 0.0}, {"rental_uris": {"ios": "https://dc.lft.to/lastmile_qr_scan", "android": "https://dc.lft.to/lastmile_qr_scan"}, "type": "electric_scooter", "name": "1030097ee0ffcdde6696935417090882", "is_reserved": 0, "lon": -77.02726216666667, "is_disabled": 0, "fusion_lat": 0.0, "lat": 38.91066766666667, "bike_id": "1030097ee0ffcdde6696935417090882", "fusion_lon": 0.0}, {"rental_uris": {"ios": "https://dc.lft.to/lastmile_qr_scan", "android": "https://dc.lft.to/lastmile_qr_scan"}, "type": "electric_scooter", "name": "6680fca33020e7cd8f558b4fe4052fc5", "is_reserved": 0, "lon": -77.00359633333333, "is_disabled": 0, "fusion_lat": 0.0, "lat": 38.876893333333335, "bike_id": "6680fca33020e7cd8f558b4fe4052fc5", "fusion_lon": 0.0}, {"rental_uris": {"ios": "https://dc.lft.to/lastmile_qr_scan", "android": "https://dc.lft.to/lastmile_qr_scan"}, "type": "electric_scooter", "name": "432c0d0866258e9e47e2c5867fa29f9a", "is_reserved": 0, "lon": -77.06113766666667, "is_disabled": 0, "fusion_lat": 0.0, "lat": 38.91286383333333, "bike_id": "432c0d0866258e9e47e2c5867fa29f9a", "fusion_lon": 0.0}, {"rental_uris": {"ios": "https://dc.lft.to/lastmile_qr_scan", "android": "https://dc.lft.to/lastmile_qr_scan"}, "type": "electric_scooter", "name": "fd7061e3522cc848d7c4a9deb2773e47", "is_reserved": 0, "lon": -77.06128433333333, "is_disabled": 0, "fusion_lat": 0.0, "lat": 38.903822166666664, "bike_id": "fd7061e3522cc848d7c4a9deb2773e47", "fusion_lon": 0.0}, {"rental_uris": {"ios": "https://dc.lft.to/lastmile_qr_scan", "android": "https://dc.lft.to/lastmile_qr_scan"}, "type": "electric_scooter", "name": "9cdb19dfdd32be6cec119317e4484d5c", "is_reserved": 0, "lon": -77.00313316666667, "is_disabled": 0, "fusion_lat": 0.0, "lat": 38.87694666666667, "bike_id": "9cdb19dfdd32be6cec119317e4484d5c", "fusion_lon": 0.0}, {"rental_uris": {"ios": "https://dc.lft.to/lastmile_qr_scan", "android": "https://dc.lft.to/lastmile_qr_scan"}, "type": "electric_scooter", "name": "dffa8b073726e780510b8524c238969f", "is_reserved": 0, "lon": -77.0123945, "is_disabled": 0, "fusion_lat": 0.0, "lat": 38.881061333333335, "bike_id": "dffa8b073726e780510b8524c238969f", "fusion_lon": 0.0}, {"rental_uris": {"ios": "https://dc.lft.to/lastmile_qr_scan", "android": "https://dc.lft.to/lastmile_qr_scan"}, "type": "electric_scooter", "name": "1e25c7cb25e9093f3d38af3ee97ced91", "is_reserved": 0, "lon": -77.0296365, "is_disabled": 0, "fusion_lat": 0.0, "lat": 38.92322883333333, "bike_id": "1e25c7cb25e9093f3d38af3ee97ced91", "fusion_lon": 0.0}, {"rental_uris": {"ios": "https://dc.lft.to/lastmile_qr_scan", "android": "https://dc.lft.to/lastmile_qr_scan"}, "type": "electric_scooter", "name": "4b8c1c76810ca23fad10191d4bc341dd", "is_reserved": 0, "lon": -77.00251933333334, "is_disabled": 0, "fusion_lat": 0.0, "lat": 38.902520333333335, "bike_id": "4b8c1c76810ca23fad10191d4bc341dd", "fusion_lon": 0.0}, {"rental_uris": {"ios": "https://dc.lft.to/lastmile_qr_scan", "android": "https://dc.lft.to/lastmile_qr_scan"}, "type": "electric_scooter", "name": "6f7ab472e44f00294d80190452061fe2", "is_reserved": 0, "lon": -77.0163785, "is_disabled": 0, "fusion_lat": 0.0, "lat": 38.90369466666667, "bike_id": "6f7ab472e44f00294d80190452061fe2", "fusion_lon": 0.0}, {"rental_uris": {"ios": "https://dc.lft.to/lastmile_qr_scan", "android": "https://dc.lft.to/lastmile_qr_scan"}, "type": "electric_scooter", "name": "efadc960f2105c1114729c900a2dddd8", "is_reserved": 0, "lon": -77.02177966666666, "is_disabled": 0, "fusion_lat": 0.0, "lat": 38.91786416666667, "bike_id": "efadc960f2105c1114729c900a2dddd8", "fusion_lon": 0.0}, {"rental_uris": {"ios": "https://dc.lft.to/lastmile_qr_scan", "android": "https://dc.lft.to/lastmile_qr_scan"}, "type": "electric_scooter", "name": "672eb19022a5782f1846d9b1d6eeb71d", "is_reserved": 0, "lon": -77.00601916666666, "is_disabled": 0, "fusion_lat": 0.0, "lat": 38.9056625, "bike_id": "672eb19022a5782f1846d9b1d6eeb71d", "fusion_lon": 0.0}, {"rental_uris": {"ios": "https://dc.lft.to/lastmile_qr_scan", "android": "https://dc.lft.to/lastmile_qr_scan"}, "type": "electric_scooter", "name": "409726797893bc9550720b178faf4f8f", "is_reserved": 0, "lon": -77.03624133333334, "is_disabled": 0, "fusion_lat": 0.0, "lat": 38.90335983333333, "bike_id": "409726797893bc9550720b178faf4f8f", "fusion_lon": 0.0}, {"rental_uris": {"ios": "https://dc.lft.to/lastmile_qr_scan", "android": "https://dc.lft.to/lastmile_qr_scan"}, "type": "electric_scooter", "name": "a24331a4dbf1ac944167d6865e613952", "is_reserved": 0, "lon": -77.03882016666667, "is_disabled": 0, "fusion_lat": 0.0, "lat": 38.933060166666664, "bike_id": "a24331a4dbf1ac944167d6865e613952", "fusion_lon": 0.0}, {"rental_uris": {"ios": "https://dc.lft.to/lastmile_qr_scan", "android": "https://dc.lft.to/lastmile_qr_scan"}, "type": "electric_bike", "name": "c4e9fb73d0fbffa87a77aaa0fa558283", "is_reserved": 0, "lon": -77.08972383333334, "is_disabled": 0, "fusion_lat": 0.0, "lat": 38.91170183333333, "bike_id": "c4e9fb73d0fbffa87a77aaa0fa558283", "fusion_lon": 0.0}, {"rental_uris": {"ios": "https://dc.lft.to/lastmile_qr_scan", "android": "https://dc.lft.to/lastmile_qr_scan"}, "type": "electric_scooter", "name": "a2194f2209576ef482854101aeb4b660", "is_reserved": 0, "lon": -77.01087816666667, "is_disabled": 0, "fusion_lat": 0.0, "lat": 38.90334433333334, "bike_id": "a2194f2209576ef482854101aeb4b660", "fusion_lon": 0.0}, {"rental_uris": {"ios": "https://dc.lft.to/lastmile_qr_scan", "android": "https://dc.lft.to/lastmile_qr_scan"}, "type": "electric_scooter", "name": "261937d93483a172bdbe5a49b304f480", "is_reserved": 0, "lon": -77.038701, "is_disabled": 0, "fusion_lat": 0.0, "lat": 38.915607, "bike_id": "261937d93483a172bdbe5a49b304f480", "fusion_lon": 0.0}, {"rental_uris": {"ios": "https://dc.lft.to/lastmile_qr_scan", "android": "https://dc.lft.to/lastmile_qr_scan"}, "type": "electric_scooter", "name": "db32eddfabf92aba1c5268f4f6774d92", "is_reserved": 0, "lon": -77.03556483333334, "is_disabled": 0, "fusion_lat": 0.0, "lat": 38.904641, "bike_id": "db32eddfabf92aba1c5268f4f6774d92", "fusion_lon": 0.0}, {"rental_uris": {"ios": "https://dc.lft.to/lastmile_qr_scan", "android": "https://dc.lft.to/lastmile_qr_scan"}, "type": "electric_scooter", "name": "0a4333580d47bbf21bebc512613b8c62", "is_reserved": 0, "lon": -77.043239, "is_disabled": 0, "fusion_lat": 0.0, "lat": 38.917848, "bike_id": "0a4333580d47bbf21bebc512613b8c62", "fusion_lon": 0.0}, {"rental_uris": {"ios": "https://dc.lft.to/lastmile_qr_scan", "android": "https://dc.lft.to/lastmile_qr_scan"}, "type": "electric_scooter", "name": "0707832cacdd65f186f1a1d77fb6d9ac", "is_reserved": 0, "lon": -77.018738, "is_disabled": 0, "fusion_lat": 0.0, "lat": 38.877148166666665, "bike_id": "0707832cacdd65f186f1a1d77fb6d9ac", "fusion_lon": 0.0}, {"rental_uris": {"ios": "https://dc.lft.to/lastmile_qr_scan", "android": "https://dc.lft.to/lastmile_qr_scan"}, "type": "electric_scooter", "name": "239be04873c7f421e507597c9e208835", "is_reserved": 0, "lon": -77.02560066666666, "is_disabled": 0, "fusion_lat": 0.0, "lat": 38.92033083333333, "bike_id": "239be04873c7f421e507597c9e208835", "fusion_lon": 0.0}, {"rental_uris": {"ios": "https://dc.lft.to/lastmile_qr_scan", "android": "https://dc.lft.to/lastmile_qr_scan"}, "type": "electric_scooter", "name": "b176f46e80f9c258aca2a82118920610", "is_reserved": 0, "lon": -77.036259, "is_disabled": 0, "fusion_lat": 0.0, "lat": 38.92664466666667, "bike_id": "b176f46e80f9c258aca2a82118920610", "fusion_lon": 0.0}, {"rental_uris": {"ios": "https://dc.lft.to/lastmile_qr_scan", "android": "https://dc.lft.to/lastmile_qr_scan"}, "type": "electric_scooter", "name": "8ea415c754d6ee5fc677d06f88a34d79", "is_reserved": 0, "lon": -77.05158666666667, "is_disabled": 0, "fusion_lat": 0.0, "lat": 38.89754666666666, "bike_id": "8ea415c754d6ee5fc677d06f88a34d79", "fusion_lon": 0.0}, {"rental_uris": {"ios": "https://dc.lft.to/lastmile_qr_scan", "android": "https://dc.lft.to/lastmile_qr_scan"}, "type": "electric_bike", "name": "b6b4543b44ba696cf8348df46797ecd8", "is_reserved": 0, "lon": -76.976203, "is_disabled": 0, "fusion_lat": 0.0, "lat": 38.89294366666667, "bike_id": "b6b4543b44ba696cf8348df46797ecd8", "fusion_lon": 0.0}, {"rental_uris": {"ios": "https://dc.lft.to/lastmile_qr_scan", "android": "https://dc.lft.to/lastmile_qr_scan"}, "type": "electric_scooter", "name": "734fc2eea6872bf41a5e7996260210a4", "is_reserved": 0, "lon": -77.01919216666667, "is_disabled": 0, "fusion_lat": 0.0, "lat": 38.90563433333333, "bike_id": "734fc2eea6872bf41a5e7996260210a4", "fusion_lon": 0.0}, {"rental_uris": {"ios": "https://dc.lft.to/lastmile_qr_scan", "android": "https://dc.lft.to/lastmile_qr_scan"}, "type": "electric_bike", "name": "bf0831508a172ba0d2e8bfc66d5d9ec7", "is_reserved": 0, "lon": -77.22186933333333, "is_disabled": 0, "fusion_lat": 0.0, "lat": 38.871698, "bike_id": "bf0831508a172ba0d2e8bfc66d5d9ec7", "fusion_lon": 0.0}, {"rental_uris": {"ios": "https://dc.lft.to/lastmile_qr_scan", "android": "https://dc.lft.to/lastmile_qr_scan"}, "type": "electric_scooter", "name": "5d9d3285405c656580245dcf9eab82a0", "is_reserved": 0, "lon": -77.041798, "is_disabled": 0, "fusion_lat": 0.0, "lat": 38.918326666666665, "bike_id": "5d9d3285405c656580245dcf9eab82a0", "fusion_lon": 0.0}, {"rental_uris": {"ios": "https://dc.lft.to/lastmile_qr_scan", "android": "https://dc.lft.to/lastmile_qr_scan"}, "type": "electric_scooter", "name": "df15298c57d2322969596c04d716f528", "is_reserved": 0, "lon": -77.009302, "is_disabled": 0, "fusion_lat": 0.0, "lat": 38.87121066666667, "bike_id": "df15298c57d2322969596c04d716f528", "fusion_lon": 0.0}, {"rental_uris": {"ios": "https://dc.lft.to/lastmile_qr_scan", "android": "https://dc.lft.to/lastmile_qr_scan"}, "type": "electric_scooter", "name": "9834aaf39690b464691a49cb99967747", "is_reserved": 0, "lon": -77.00263733333334, "is_disabled": 0, "fusion_lat": 0.0, "lat": 38.9125805, "bike_id": "9834aaf39690b464691a49cb99967747", "fusion_lon": 0.0}, {"rental_uris": {"ios": "https://dc.lft.to/lastmile_qr_scan", "android": "https://dc.lft.to/lastmile_qr_scan"}, "type": "electric_scooter", "name": "fb48b8b673c0c763ecc18ca7199f5a84", "is_reserved": 0, "lon": -77.036398, "is_disabled": 0, "fusion_lat": 0.0, "lat": 38.92486683333333, "bike_id": "fb48b8b673c0c763ecc18ca7199f5a84", "fusion_lon": 0.0}, {"rental_uris": {"ios": "https://dc.lft.to/lastmile_qr_scan", "android": "https://dc.lft.to/lastmile_qr_scan"}, "type": "electric_scooter", "name": "5d54582c8321d11d72c60f79b714d7af", "is_reserved": 0, "lon": -77.02022283333334, "is_disabled": 0, "fusion_lat": 0.0, "lat": 38.923297, "bike_id": "5d54582c8321d11d72c60f79b714d7af", "fusion_lon": 0.0}, {"rental_uris": {"ios": "https://dc.lft.to/lastmile_qr_scan", "android": "https://dc.lft.to/lastmile_qr_scan"}, "type": "electric_scooter", "name": "8edf9295d30481f12e9c44d3bb980d2e", "is_reserved": 0, "lon": -77.00280683333334, "is_disabled": 0, "fusion_lat": 0.0, "lat": 38.90892433333333, "bike_id": "8edf9295d30481f12e9c44d3bb980d2e", "fusion_lon": 0.0}, {"rental_uris": {"ios": "https://dc.lft.to/lastmile_qr_scan", "android": "https://dc.lft.to/lastmile_qr_scan"}, "type": "electric_scooter", "name": "06754e5cde90770d83eb9a8a9ad5c5c4", "is_reserved": 0, "lon": -77.00556466666667, "is_disabled": 0, "fusion_lat": 0.0, "lat": 38.9118755, "bike_id": "06754e5cde90770d83eb9a8a9ad5c5c4", "fusion_lon": 0.0}, {"rental_uris": {"ios": "https://dc.lft.to/lastmile_qr_scan", "android": "https://dc.lft.to/lastmile_qr_scan"}, "type": "electric_scooter", "name": "3d8e0e5567303c4027472b7b99ef61e4", "is_reserved": 0, "lon": -77.03349283333333, "is_disabled": 0, "fusion_lat": 0.0, "lat": 38.92878983333333, "bike_id": "3d8e0e5567303c4027472b7b99ef61e4", "fusion_lon": 0.0}, {"rental_uris": {"ios": "https://dc.lft.to/lastmile_qr_scan", "android": "https://dc.lft.to/lastmile_qr_scan"}, "type": "electric_scooter", "name": "ed1ee6be621bdfbef7633e68b09fb2a7", "is_reserved": 0, "lon": -77.01066583333333, "is_disabled": 0, "fusion_lat": 0.0, "lat": 38.911912, "bike_id": "ed1ee6be621bdfbef7633e68b09fb2a7", "fusion_lon": 0.0}, {"rental_uris": {"ios": "https://dc.lft.to/lastmile_qr_scan", "android": "https://dc.lft.to/lastmile_qr_scan"}, "type": "electric_scooter", "name": "7b02bb181ae91392e2e6238cef19978f", "is_reserved": 0, "lon": -77.01180666666667, "is_disabled": 0, "fusion_lat": 0.0, "lat": 38.951534333333335, "bike_id": "7b02bb181ae91392e2e6238cef19978f", "fusion_lon": 0.0}, {"rental_uris": {"ios": "https://dc.lft.to/lastmile_qr_scan", "android": "https://dc.lft.to/lastmile_qr_scan"}, "type": "electric_scooter", "name": "5c96ef221c2698e2e453d97cf03e3c37", "is_reserved": 0, "lon": -77.02039166666667, "is_disabled": 0, "fusion_lat": 0.0, "lat": 38.8943605, "bike_id": "5c96ef221c2698e2e453d97cf03e3c37", "fusion_lon": 0.0}, {"rental_uris": {"ios": "https://dc.lft.to/lastmile_qr_scan", "android": "https://dc.lft.to/lastmile_qr_scan"}, "type": "electric_scooter", "name": "30997510bbd6d4febc441a6ff9e8f9ca", "is_reserved": 0, "lon": -77.03480583333334, "is_disabled": 0, "fusion_lat": 0.0, "lat": 38.90550016666667, "bike_id": "30997510bbd6d4febc441a6ff9e8f9ca", "fusion_lon": 0.0}, {"rental_uris": {"ios": "https://dc.lft.to/lastmile_qr_scan", "android": "https://dc.lft.to/lastmile_qr_scan"}, "type": "electric_bike", "name": "e4d295c40884508403b4ef4db75a9db5", "is_reserved": 0, "lon": -76.97546966666667, "is_disabled": 0, "fusion_lat": 0.0, "lat": 38.904241666666664, "bike_id": "e4d295c40884508403b4ef4db75a9db5", "fusion_lon": 0.0}, {"rental_uris": {"ios": "https://dc.lft.to/lastmile_qr_scan", "android": "https://dc.lft.to/lastmile_qr_scan"}, "type": "electric_bike", "name": "d186dc35fcbb418a1ea1649ea9a6263a", "is_reserved": 0, "lon": -77.0184435, "is_disabled": 0, "fusion_lat": 0.0, "lat": 38.93109666666667, "bike_id": "d186dc35fcbb418a1ea1649ea9a6263a", "fusion_lon": 0.0}, {"rental_uris": {"ios": "https://dc.lft.to/lastmile_qr_scan", "android": "https://dc.lft.to/lastmile_qr_scan"}, "type": "electric_scooter", "name": "d95a237a579e18682ed985b87fa9bc07", "is_reserved": 0, "lon": -77.03278483333334, "is_disabled": 0, "fusion_lat": 0.0, "lat": 38.93253966666666, "bike_id": "d95a237a579e18682ed985b87fa9bc07", "fusion_lon": 0.0}, {"rental_uris": {"ios": "https://dc.lft.to/lastmile_qr_scan", "android": "https://dc.lft.to/lastmile_qr_scan"}, "type": "electric_scooter", "name": "9f82beb371b45990d4c2728a442ab898", "is_reserved": 0, "lon": -77.00155716666667, "is_disabled": 0, "fusion_lat": 0.0, "lat": 38.821329, "bike_id": "9f82beb371b45990d4c2728a442ab898", "fusion_lon": 0.0}, {"rental_uris": {"ios": "https://dc.lft.to/lastmile_qr_scan", "android": "https://dc.lft.to/lastmile_qr_scan"}, "type": "electric_scooter", "name": "403178d94cc2fbf91b4886c827bd33ab", "is_reserved": 0, "lon": -77.03274916666666, "is_disabled": 0, "fusion_lat": 0.0, "lat": 38.929085666666666, "bike_id": "403178d94cc2fbf91b4886c827bd33ab", "fusion_lon": 0.0}, {"rental_uris": {"ios": "https://dc.lft.to/lastmile_qr_scan", "android": "https://dc.lft.to/lastmile_qr_scan"}, "type": "electric_scooter", "name": "7fd50869c3296469b37f125a8c2ac792", "is_reserved": 0, "lon": -77.07567783333333, "is_disabled": 0, "fusion_lat": 0.0, "lat": 38.90626783333333, "bike_id": "7fd50869c3296469b37f125a8c2ac792", "fusion_lon": 0.0}, {"rental_uris": {"ios": "https://dc.lft.to/lastmile_qr_scan", "android": "https://dc.lft.to/lastmile_qr_scan"}, "type": "electric_bike", "name": "cf5b26f24ef4b7e6bc362c6088f34dc9", "is_reserved": 0, "lon": -76.95160216666666, "is_disabled": 0, "fusion_lat": 0.0, "lat": 39.084424, "bike_id": "cf5b26f24ef4b7e6bc362c6088f34dc9", "fusion_lon": 0.0}, {"rental_uris": {"ios": "https://dc.lft.to/lastmile_qr_scan", "android": "https://dc.lft.to/lastmile_qr_scan"}, "type": "electric_scooter", "name": "f62dd476d28f613b6f59a3f2f4699a9f", "is_reserved": 0, "lon": -77.07245783333333, "is_disabled": 0, "fusion_lat": 0.0, "lat": 38.934400833333335, "bike_id": "f62dd476d28f613b6f59a3f2f4699a9f", "fusion_lon": 0.0}, {"rental_uris": {"ios": "https://dc.lft.to/lastmile_qr_scan", "android": "https://dc.lft.to/lastmile_qr_scan"}, "type": "electric_scooter", "name": "ef60eed18bb2f8e1da262cbb226d4317", "is_reserved": 0, "lon": -77.026551, "is_disabled": 0, "fusion_lat": 0.0, "lat": 38.8960045, "bike_id": "ef60eed18bb2f8e1da262cbb226d4317", "fusion_lon": 0.0}, {"rental_uris": {"ios": "https://dc.lft.to/lastmile_qr_scan", "android": "https://dc.lft.to/lastmile_qr_scan"}, "type": "electric_scooter", "name": "4db5a53738f61f16b8de3e4690d538c5", "is_reserved": 0, "lon": -77.02232, "is_disabled": 0, "fusion_lat": 0.0, "lat": 38.891974, "bike_id": "4db5a53738f61f16b8de3e4690d538c5", "fusion_lon": 0.0}, {"rental_uris": {"ios": "https://dc.lft.to/lastmile_qr_scan", "android": "https://dc.lft.to/lastmile_qr_scan"}, "type": "electric_scooter", "name": "de98e9034e33b66d058da6b2e128f655", "is_reserved": 0, "lon": -77.01348416666667, "is_disabled": 0, "fusion_lat": 0.0, "lat": 38.919141333333336, "bike_id": "de98e9034e33b66d058da6b2e128f655", "fusion_lon": 0.0}, {"rental_uris": {"ios": "https://dc.lft.to/lastmile_qr_scan", "android": "https://dc.lft.to/lastmile_qr_scan"}, "type": "electric_scooter", "name": "2a2a8c3c9bbf8e94dc88998b6e8aac11", "is_reserved": 0, "lon": -77.01951883333334, "is_disabled": 0, "fusion_lat": 0.0, "lat": 38.950447, "bike_id": "2a2a8c3c9bbf8e94dc88998b6e8aac11", "fusion_lon": 0.0}, {"rental_uris": {"ios": "https://dc.lft.to/lastmile_qr_scan", "android": "https://dc.lft.to/lastmile_qr_scan"}, "type": "electric_scooter", "name": "eb96b075e26800d61f41f9704da47af1", "is_reserved": 0, "lon": -77.04703233333333, "is_disabled": 0, "fusion_lat": 0.0, "lat": 38.92063483333333, "bike_id": "eb96b075e26800d61f41f9704da47af1", "fusion_lon": 0.0}, {"rental_uris": {"ios": "https://dc.lft.to/lastmile_qr_scan", "android": "https://dc.lft.to/lastmile_qr_scan"}, "type": "electric_scooter", "name": "d7b58b3edff69c89f8a92f6c7ed9dfb7", "is_reserved": 0, "lon": -77.02388183333333, "is_disabled": 0, "fusion_lat": 0.0, "lat": 38.909719333333335, "bike_id": "d7b58b3edff69c89f8a92f6c7ed9dfb7", "fusion_lon": 0.0}, {"rental_uris": {"ios": "https://dc.lft.to/lastmile_qr_scan", "android": "https://dc.lft.to/lastmile_qr_scan"}, "type": "electric_scooter", "name": "f1af21775495e7fc2e8cdc8259b909cf", "is_reserved": 0, "lon": -77.034446, "is_disabled": 0, "fusion_lat": 0.0, "lat": 38.9180085, "bike_id": "f1af21775495e7fc2e8cdc8259b909cf", "fusion_lon": 0.0}, {"rental_uris": {"ios": "https://dc.lft.to/lastmile_qr_scan", "android": "https://dc.lft.to/lastmile_qr_scan"}, "type": "electric_scooter", "name": "170352c8b9e8f977c54cbc0621679075", "is_reserved": 0, "lon": -77.029611, "is_disabled": 0, "fusion_lat": 0.0, "lat": 38.904236166666664, "bike_id": "170352c8b9e8f977c54cbc0621679075", "fusion_lon": 0.0}, {"rental_uris": {"ios": "https://dc.lft.to/lastmile_qr_scan", "android": "https://dc.lft.to/lastmile_qr_scan"}, "type": "electric_scooter", "name": "6374d25724de39f6355430a1bccdf17d", "is_reserved": 0, "lon": -76.98544633333333, "is_disabled": 0, "fusion_lat": 0.0, "lat": 38.9129, "bike_id": "6374d25724de39f6355430a1bccdf17d", "fusion_lon": 0.0}, {"rental_uris": {"ios": "https://dc.lft.to/lastmile_qr_scan", "android": "https://dc.lft.to/lastmile_qr_scan"}, "type": "electric_scooter", "name": "8dd3c0f19060830bb4f858378a82ae1e", "is_reserved": 0, "lon": -77.0628255, "is_disabled": 0, "fusion_lat": 0.0, "lat": 38.9124385, "bike_id": "8dd3c0f19060830bb4f858378a82ae1e", "fusion_lon": 0.0}, {"rental_uris": {"ios": "https://dc.lft.to/lastmile_qr_scan", "android": "https://dc.lft.to/lastmile_qr_scan"}, "type": "electric_scooter", "name": "dc59356d15fc2b08aab47f9d9226fbd0", "is_reserved": 0, "lon": -77.02609, "is_disabled": 0, "fusion_lat": 0.0, "lat": 38.92420633333333, "bike_id": "dc59356d15fc2b08aab47f9d9226fbd0", "fusion_lon": 0.0}, {"rental_uris": {"ios": "https://dc.lft.to/lastmile_qr_scan", "android": "https://dc.lft.to/lastmile_qr_scan"}, "type": "electric_scooter", "name": "ae7bbebcd4717a65352a4be9b4e09f94", "is_reserved": 0, "lon": -77.03377266666666, "is_disabled": 0, "fusion_lat": 0.0, "lat": 38.91116, "bike_id": "ae7bbebcd4717a65352a4be9b4e09f94", "fusion_lon": 0.0}, {"rental_uris": {"ios": "https://dc.lft.to/lastmile_qr_scan", "android": "https://dc.lft.to/lastmile_qr_scan"}, "type": "electric_bike", "name": "2abc4310c855d28ad53357b3d89a6875", "is_reserved": 0, "lon": -77.051571, "is_disabled": 0, "fusion_lat": 0.0, "lat": 38.844490666666665, "bike_id": "2abc4310c855d28ad53357b3d89a6875", "fusion_lon": 0.0}, {"rental_uris": {"ios": "https://dc.lft.to/lastmile_qr_scan", "android": "https://dc.lft.to/lastmile_qr_scan"}, "type": "electric_scooter", "name": "fc156b931183da2fb330cb2ad6a8b0fe", "is_reserved": 0, "lon": -77.0280965, "is_disabled": 0, "fusion_lat": 0.0, "lat": 38.89905233333333, "bike_id": "fc156b931183da2fb330cb2ad6a8b0fe", "fusion_lon": 0.0}, {"rental_uris": {"ios": "https://dc.lft.to/lastmile_qr_scan", "android": "https://dc.lft.to/lastmile_qr_scan"}, "type": "electric_scooter", "name": "48c38092166579bb8f175a8962ceab04", "is_reserved": 0, "lon": -77.04521433333333, "is_disabled": 0, "fusion_lat": 0.0, "lat": 38.92318566666667, "bike_id": "48c38092166579bb8f175a8962ceab04", "fusion_lon": 0.0}, {"rental_uris": {"ios": "https://dc.lft.to/lastmile_qr_scan", "android": "https://dc.lft.to/lastmile_qr_scan"}, "type": "electric_scooter", "name": "6263edf3556c327d67b661e5f56fb507", "is_reserved": 0, "lon": -77.0387235, "is_disabled": 0, "fusion_lat": 0.0, "lat": 38.92153733333333, "bike_id": "6263edf3556c327d67b661e5f56fb507", "fusion_lon": 0.0}, {"rental_uris": {"ios": "https://dc.lft.to/lastmile_qr_scan", "android": "https://dc.lft.to/lastmile_qr_scan"}, "type": "electric_scooter", "name": "7148f72baf87611fc1603f4ea08e7e69", "is_reserved": 0, "lon": -77.03339966666667, "is_disabled": 0, "fusion_lat": 0.0, "lat": 38.9191535, "bike_id": "7148f72baf87611fc1603f4ea08e7e69", "fusion_lon": 0.0}, {"rental_uris": {"ios": "https://dc.lft.to/lastmile_qr_scan", "android": "https://dc.lft.to/lastmile_qr_scan"}, "type": "electric_scooter", "name": "84cfde07f599d3b1ed1ad3cfb7a0e384", "is_reserved": 0, "lon": -77.02110733333333, "is_disabled": 0, "fusion_lat": 0.0, "lat": 38.9268935, "bike_id": "84cfde07f599d3b1ed1ad3cfb7a0e384", "fusion_lon": 0.0}, {"rental_uris": {"ios": "https://dc.lft.to/lastmile_qr_scan", "android": "https://dc.lft.to/lastmile_qr_scan"}, "type": "electric_scooter", "name": "6f77f18ba486bc5e26fb4f942798240c", "is_reserved": 0, "lon": -77.02561433333334, "is_disabled": 0, "fusion_lat": 0.0, "lat": 38.93864933333333, "bike_id": "6f77f18ba486bc5e26fb4f942798240c", "fusion_lon": 0.0}, {"rental_uris": {"ios": "https://dc.lft.to/lastmile_qr_scan", "android": "https://dc.lft.to/lastmile_qr_scan"}, "type": "electric_scooter", "name": "6b270146904128924b2998c8e638a62b", "is_reserved": 0, "lon": -77.04613516666667, "is_disabled": 0, "fusion_lat": 0.0, "lat": 38.905710666666664, "bike_id": "6b270146904128924b2998c8e638a62b", "fusion_lon": 0.0}, {"rental_uris": {"ios": "https://dc.lft.to/lastmile_qr_scan", "android": "https://dc.lft.to/lastmile_qr_scan"}, "type": "electric_bike", "name": "f0b7d044c94e47ce73f4f60c8d6b424e", "is_reserved": 0, "lon": -77.09019133333334, "is_disabled": 0, "fusion_lat": 0.0, "lat": 38.9264865, "bike_id": "f0b7d044c94e47ce73f4f60c8d6b424e", "fusion_lon": 0.0}, {"rental_uris": {"ios": "https://dc.lft.to/lastmile_qr_scan", "android": "https://dc.lft.to/lastmile_qr_scan"}, "type": "electric_bike", "name": "b9fd3ba0c0c0a345ad095676b6c21f46", "is_reserved": 0, "lon": -76.9569875, "is_disabled": 0, "fusion_lat": 0.0, "lat": 38.8509095, "bike_id": "b9fd3ba0c0c0a345ad095676b6c21f46", "fusion_lon": 0.0}, {"rental_uris": {"ios": "https://dc.lft.to/lastmile_qr_scan", "android": "https://dc.lft.to/lastmile_qr_scan"}, "type": "electric_scooter", "name": "27ad38643d2243b69fe851734db61e1d", "is_reserved": 0, "lon": -76.98357816666666, "is_disabled": 0, "fusion_lat": 0.0, "lat": 38.887420666666664, "bike_id": "27ad38643d2243b69fe851734db61e1d", "fusion_lon": 0.0}, {"rental_uris": {"ios": "https://dc.lft.to/lastmile_qr_scan", "android": "https://dc.lft.to/lastmile_qr_scan"}, "type": "electric_scooter", "name": "88f516d7f1dce550521e12a5c2a3fc47", "is_reserved": 0, "lon": -77.00755766666667, "is_disabled": 0, "fusion_lat": 0.0, "lat": 38.92527616666667, "bike_id": "88f516d7f1dce550521e12a5c2a3fc47", "fusion_lon": 0.0}, {"rental_uris": {"ios": "https://dc.lft.to/lastmile_qr_scan", "android": "https://dc.lft.to/lastmile_qr_scan"}, "type": "electric_bike", "name": "13e8414029f03bf33a997a6398f87ebc", "is_reserved": 0, "lon": -77.12699633333334, "is_disabled": 0, "fusion_lat": 0.0, "lat": 38.89570966666667, "bike_id": "13e8414029f03bf33a997a6398f87ebc", "fusion_lon": 0.0}, {"rental_uris": {"ios": "https://dc.lft.to/lastmile_qr_scan", "android": "https://dc.lft.to/lastmile_qr_scan"}, "type": "electric_scooter", "name": "25352567d63365ff29163aa14e2977e0", "is_reserved": 0, "lon": -76.986158, "is_disabled": 0, "fusion_lat": 0.0, "lat": 38.90351, "bike_id": "25352567d63365ff29163aa14e2977e0", "fusion_lon": 0.0}, {"rental_uris": {"ios": "https://dc.lft.to/lastmile_qr_scan", "android": "https://dc.lft.to/lastmile_qr_scan"}, "type": "electric_scooter", "name": "399b02bbc1fa1ad67aed3004a2071d6a", "is_reserved": 0, "lon": -77.0106345, "is_disabled": 0, "fusion_lat": 0.0, "lat": 38.87407366666667, "bike_id": "399b02bbc1fa1ad67aed3004a2071d6a", "fusion_lon": 0.0}, {"rental_uris": {"ios": "https://dc.lft.to/lastmile_qr_scan", "android": "https://dc.lft.to/lastmile_qr_scan"}, "type": "electric_scooter", "name": "3ffc03ba66e27af80619927986430dec", "is_reserved": 0, "lon": -77.02666233333333, "is_disabled": 0, "fusion_lat": 0.0, "lat": 38.884894333333335, "bike_id": "3ffc03ba66e27af80619927986430dec", "fusion_lon": 0.0}, {"rental_uris": {"ios": "https://dc.lft.to/lastmile_qr_scan", "android": "https://dc.lft.to/lastmile_qr_scan"}, "type": "electric_scooter", "name": "636663f1f06eab178dda02f4f87aa7e1", "is_reserved": 0, "lon": -77.026178, "is_disabled": 0, "fusion_lat": 0.0, "lat": 38.91688366666666, "bike_id": "636663f1f06eab178dda02f4f87aa7e1", "fusion_lon": 0.0}, {"rental_uris": {"ios": "https://dc.lft.to/lastmile_qr_scan", "android": "https://dc.lft.to/lastmile_qr_scan"}, "type": "electric_scooter", "name": "c2a58e295d877af8b70c8b5d13b9b025", "is_reserved": 0, "lon": -77.02255666666667, "is_disabled": 0, "fusion_lat": 0.0, "lat": 38.9282545, "bike_id": "c2a58e295d877af8b70c8b5d13b9b025", "fusion_lon": 0.0}, {"rental_uris": {"ios": "https://dc.lft.to/lastmile_qr_scan", "android": "https://dc.lft.to/lastmile_qr_scan"}, "type": "electric_bike", "name": "efb368a9d16303a2e8b4f8f3d005ee36", "is_reserved": 0, "lon": -76.98773383333334, "is_disabled": 0, "fusion_lat": 0.0, "lat": 38.844769666666664, "bike_id": "efb368a9d16303a2e8b4f8f3d005ee36", "fusion_lon": 0.0}, {"rental_uris": {"ios": "https://dc.lft.to/lastmile_qr_scan", "android": "https://dc.lft.to/lastmile_qr_scan"}, "type": "electric_scooter", "name": "71041d9bc0512e6a20a020d9e570a6d0", "is_reserved": 0, "lon": -77.04190133333333, "is_disabled": 0, "fusion_lat": 0.0, "lat": 38.903745, "bike_id": "71041d9bc0512e6a20a020d9e570a6d0", "fusion_lon": 0.0}, {"rental_uris": {"ios": "https://dc.lft.to/lastmile_qr_scan", "android": "https://dc.lft.to/lastmile_qr_scan"}, "type": "electric_scooter", "name": "2a656be0c39086d00678a0ea40f07075", "is_reserved": 0, "lon": -77.00337966666666, "is_disabled": 0, "fusion_lat": 0.0, "lat": 38.91339883333333, "bike_id": "2a656be0c39086d00678a0ea40f07075", "fusion_lon": 0.0}, {"rental_uris": {"ios": "https://dc.lft.to/lastmile_qr_scan", "android": "https://dc.lft.to/lastmile_qr_scan"}, "type": "electric_scooter", "name": "86bf007a4ae1f63397913c0f5c4bb4c5", "is_reserved": 0, "lon": -77.01210116666667, "is_disabled": 0, "fusion_lat": 0.0, "lat": 38.92121066666667, "bike_id": "86bf007a4ae1f63397913c0f5c4bb4c5", "fusion_lon": 0.0}, {"rental_uris": {"ios": "https://dc.lft.to/lastmile_qr_scan", "android": "https://dc.lft.to/lastmile_qr_scan"}, "type": "electric_scooter", "name": "4eb6a5d62f2e5b9066da5371542ae336", "is_reserved": 0, "lon": -77.02087316666666, "is_disabled": 0, "fusion_lat": 0.0, "lat": 38.881896166666664, "bike_id": "4eb6a5d62f2e5b9066da5371542ae336", "fusion_lon": 0.0}, {"rental_uris": {"ios": "https://dc.lft.to/lastmile_qr_scan", "android": "https://dc.lft.to/lastmile_qr_scan"}, "type": "electric_scooter", "name": "44891ef2feecd67ff5e1d3c700446eaf", "is_reserved": 0, "lon": -77.05787966666666, "is_disabled": 0, "fusion_lat": 0.0, "lat": 38.90098, "bike_id": "44891ef2feecd67ff5e1d3c700446eaf", "fusion_lon": 0.0}, {"rental_uris": {"ios": "https://dc.lft.to/lastmile_qr_scan", "android": "https://dc.lft.to/lastmile_qr_scan"}, "type": "electric_scooter", "name": "c7ad1b02298e73b6fda17ba9dafb7723", "is_reserved": 0, "lon": -77.00915783333333, "is_disabled": 0, "fusion_lat": 0.0, "lat": 38.88192383333333, "bike_id": "c7ad1b02298e73b6fda17ba9dafb7723", "fusion_lon": 0.0}, {"rental_uris": {"ios": "https://dc.lft.to/lastmile_qr_scan", "android": "https://dc.lft.to/lastmile_qr_scan"}, "type": "electric_scooter", "name": "dcb1842538ac8d89f62f63b8cdb06774", "is_reserved": 0, "lon": -77.02072516666667, "is_disabled": 0, "fusion_lat": 0.0, "lat": 38.92705466666666, "bike_id": "dcb1842538ac8d89f62f63b8cdb06774", "fusion_lon": 0.0}, {"rental_uris": {"ios": "https://dc.lft.to/lastmile_qr_scan", "android": "https://dc.lft.to/lastmile_qr_scan"}, "type": "electric_bike", "name": "011890a8608cead2a316569d4b54f1e9", "is_reserved": 0, "lon": -77.00135733333333, "is_disabled": 0, "fusion_lat": 0.0, "lat": 38.994952, "bike_id": "011890a8608cead2a316569d4b54f1e9", "fusion_lon": 0.0}, {"rental_uris": {"ios": "https://dc.lft.to/lastmile_qr_scan", "android": "https://dc.lft.to/lastmile_qr_scan"}, "type": "electric_scooter", "name": "e17ae231c12dbd0221935f3974795fb8", "is_reserved": 0, "lon": -77.05507483333334, "is_disabled": 0, "fusion_lat": 0.0, "lat": 38.928379, "bike_id": "e17ae231c12dbd0221935f3974795fb8", "fusion_lon": 0.0}, {"rental_uris": {"ios": "https://dc.lft.to/lastmile_qr_scan", "android": "https://dc.lft.to/lastmile_qr_scan"}, "type": "electric_scooter", "name": "c8d080447a543d128721d6380f1bcdf6", "is_reserved": 0, "lon": -76.93745216666667, "is_disabled": 0, "fusion_lat": 0.0, "lat": 38.89006583333333, "bike_id": "c8d080447a543d128721d6380f1bcdf6", "fusion_lon": 0.0}, {"rental_uris": {"ios": "https://dc.lft.to/lastmile_qr_scan", "android": "https://dc.lft.to/lastmile_qr_scan"}, "type": "electric_bike", "name": "bfa7b58ca3605e186667244d2b0b61f1", "is_reserved": 0, "lon": -76.95791533333333, "is_disabled": 0, "fusion_lat": 0.0, "lat": 38.9805035, "bike_id": "bfa7b58ca3605e186667244d2b0b61f1", "fusion_lon": 0.0}, {"rental_uris": {"ios": "https://dc.lft.to/lastmile_qr_scan", "android": "https://dc.lft.to/lastmile_qr_scan"}, "type": "electric_scooter", "name": "fbf4d1f562de5c3a6a613b5f9c5ff544", "is_reserved": 0, "lon": -77.0238245, "is_disabled": 0, "fusion_lat": 0.0, "lat": 38.935333, "bike_id": "fbf4d1f562de5c3a6a613b5f9c5ff544", "fusion_lon": 0.0}, {"rental_uris": {"ios": "https://dc.lft.to/lastmile_qr_scan", "android": "https://dc.lft.to/lastmile_qr_scan"}, "type": "electric_scooter", "name": "3168a353a4690c1511a162cabf2869db", "is_reserved": 0, "lon": -76.9979195, "is_disabled": 0, "fusion_lat": 0.0, "lat": 38.87632283333333, "bike_id": "3168a353a4690c1511a162cabf2869db", "fusion_lon": 0.0}, {"rental_uris": {"ios": "https://dc.lft.to/lastmile_qr_scan", "android": "https://dc.lft.to/lastmile_qr_scan"}, "type": "electric_scooter", "name": "78e98f6dcfcb9d4377ad7105fd036797", "is_reserved": 0, "lon": -77.07335416666666, "is_disabled": 0, "fusion_lat": 0.0, "lat": 38.96091333333333, "bike_id": "78e98f6dcfcb9d4377ad7105fd036797", "fusion_lon": 0.0}, {"rental_uris": {"ios": "https://dc.lft.to/lastmile_qr_scan", "android": "https://dc.lft.to/lastmile_qr_scan"}, "type": "electric_scooter", "name": "b26e04f9c5343b3176f0b81964e143d7", "is_reserved": 0, "lon": -77.06097783333334, "is_disabled": 0, "fusion_lat": 0.0, "lat": 38.939953833333334, "bike_id": "b26e04f9c5343b3176f0b81964e143d7", "fusion_lon": 0.0}, {"rental_uris": {"ios": "https://dc.lft.to/lastmile_qr_scan", "android": "https://dc.lft.to/lastmile_qr_scan"}, "type": "electric_scooter", "name": "05a40fadd6a423245daf360847c34fcf", "is_reserved": 0, "lon": -76.97571583333334, "is_disabled": 0, "fusion_lat": 0.0, "lat": 38.94425233333333, "bike_id": "05a40fadd6a423245daf360847c34fcf", "fusion_lon": 0.0}, {"rental_uris": {"ios": "https://dc.lft.to/lastmile_qr_scan", "android": "https://dc.lft.to/lastmile_qr_scan"}, "type": "electric_scooter", "name": "e0b6f3490d8a24e88078df2b6e88be53", "is_reserved": 0, "lon": -77.05668483333334, "is_disabled": 0, "fusion_lat": 0.0, "lat": 38.90615616666667, "bike_id": "e0b6f3490d8a24e88078df2b6e88be53", "fusion_lon": 0.0}, {"rental_uris": {"ios": "https://dc.lft.to/lastmile_qr_scan", "android": "https://dc.lft.to/lastmile_qr_scan"}, "type": "electric_bike", "name": "dcd26bc297956b581aad88f462e40260", "is_reserved": 0, "lon": -76.99253683333333, "is_disabled": 0, "fusion_lat": 0.0, "lat": 38.9607225, "bike_id": "dcd26bc297956b581aad88f462e40260", "fusion_lon": 0.0}, {"rental_uris": {"ios": "https://dc.lft.to/lastmile_qr_scan", "android": "https://dc.lft.to/lastmile_qr_scan"}, "type": "electric_scooter", "name": "6efddea705546757cc7548e2a4911e80", "is_reserved": 0, "lon": -77.05511016666667, "is_disabled": 0, "fusion_lat": 0.0, "lat": 38.92839466666667, "bike_id": "6efddea705546757cc7548e2a4911e80", "fusion_lon": 0.0}, {"rental_uris": {"ios": "https://dc.lft.to/lastmile_qr_scan", "android": "https://dc.lft.to/lastmile_qr_scan"}, "type": "electric_scooter", "name": "f66ef0308ab1e797fc6a5530245dc32f", "is_reserved": 0, "lon": -77.0412865, "is_disabled": 0, "fusion_lat": 0.0, "lat": 38.93387283333333, "bike_id": "f66ef0308ab1e797fc6a5530245dc32f", "fusion_lon": 0.0}, {"rental_uris": {"ios": "https://dc.lft.to/lastmile_qr_scan", "android": "https://dc.lft.to/lastmile_qr_scan"}, "type": "electric_bike", "name": "321e25947f3d3f7998c6d1adaeab7e89", "is_reserved": 0, "lon": -77.097258, "is_disabled": 0, "fusion_lat": 0.0, "lat": 38.807403666666666, "bike_id": "321e25947f3d3f7998c6d1adaeab7e89", "fusion_lon": 0.0}, {"rental_uris": {"ios": "https://dc.lft.to/lastmile_qr_scan", "android": "https://dc.lft.to/lastmile_qr_scan"}, "type": "electric_bike", "name": "63eca81287d0b44811a4b80b4f9db2f2", "is_reserved": 0, "lon": -77.216675, "is_disabled": 0, "fusion_lat": 0.0, "lat": 38.895114166666666, "bike_id": "63eca81287d0b44811a4b80b4f9db2f2", "fusion_lon": 0.0}, {"rental_uris": {"ios": "https://dc.lft.to/lastmile_qr_scan", "android": "https://dc.lft.to/lastmile_qr_scan"}, "type": "electric_scooter", "name": "88ae62eb061d6ad32403b732782b5ea2", "is_reserved": 0, "lon": -77.02604733333334, "is_disabled": 0, "fusion_lat": 0.0, "lat": 38.94612383333333, "bike_id": "88ae62eb061d6ad32403b732782b5ea2", "fusion_lon": 0.0}, {"rental_uris": {"ios": "https://dc.lft.to/lastmile_qr_scan", "android": "https://dc.lft.to/lastmile_qr_scan"}, "type": "electric_bike", "name": "4a56a805f17b290bc1510a66e31e1fc6", "is_reserved": 0, "lon": -77.06533333333333, "is_disabled": 0, "fusion_lat": 0.0, "lat": 38.992391833333336, "bike_id": "4a56a805f17b290bc1510a66e31e1fc6", "fusion_lon": 0.0}, {"rental_uris": {"ios": "https://dc.lft.to/lastmile_qr_scan", "android": "https://dc.lft.to/lastmile_qr_scan"}, "type": "electric_scooter", "name": "b3ec5ec7cf6d9d341b81547987f2821d", "is_reserved": 0, "lon": -77.01512716666667, "is_disabled": 0, "fusion_lat": 0.0, "lat": 38.90975066666667, "bike_id": "b3ec5ec7cf6d9d341b81547987f2821d", "fusion_lon": 0.0}, {"rental_uris": {"ios": "https://dc.lft.to/lastmile_qr_scan", "android": "https://dc.lft.to/lastmile_qr_scan"}, "type": "electric_scooter", "name": "5099696a8056c91f3843d0141d4a1122", "is_reserved": 0, "lon": -77.04084233333333, "is_disabled": 0, "fusion_lat": 0.0, "lat": 38.90557283333333, "bike_id": "5099696a8056c91f3843d0141d4a1122", "fusion_lon": 0.0}, {"rental_uris": {"ios": "https://dc.lft.to/lastmile_qr_scan", "android": "https://dc.lft.to/lastmile_qr_scan"}, "type": "electric_scooter", "name": "0ea270a0702b520aeedee28c0b07afe4", "is_reserved": 0, "lon": -77.01575283333334, "is_disabled": 0, "fusion_lat": 0.0, "lat": 38.8763995, "bike_id": "0ea270a0702b520aeedee28c0b07afe4", "fusion_lon": 0.0}, {"rental_uris": {"ios": "https://dc.lft.to/lastmile_qr_scan", "android": "https://dc.lft.to/lastmile_qr_scan"}, "type": "electric_scooter", "name": "f49ea0dd9c389cf6ef4a68326773570b", "is_reserved": 0, "lon": -77.04485583333333, "is_disabled": 0, "fusion_lat": 0.0, "lat": 38.91442683333333, "bike_id": "f49ea0dd9c389cf6ef4a68326773570b", "fusion_lon": 0.0}, {"rental_uris": {"ios": "https://dc.lft.to/lastmile_qr_scan", "android": "https://dc.lft.to/lastmile_qr_scan"}, "type": "electric_scooter", "name": "97aa1ee050c424a2b5e248d9caf53391", "is_reserved": 0, "lon": -77.0328995, "is_disabled": 0, "fusion_lat": 0.0, "lat": 38.932606166666666, "bike_id": "97aa1ee050c424a2b5e248d9caf53391", "fusion_lon": 0.0}, {"rental_uris": {"ios": "https://dc.lft.to/lastmile_qr_scan", "android": "https://dc.lft.to/lastmile_qr_scan"}, "type": "electric_scooter", "name": "c3dfc5053898c777564ca8434e3535ea", "is_reserved": 0, "lon": -77.04671933333333, "is_disabled": 0, "fusion_lat": 0.0, "lat": 38.900384333333335, "bike_id": "c3dfc5053898c777564ca8434e3535ea", "fusion_lon": 0.0}, {"rental_uris": {"ios": "https://dc.lft.to/lastmile_qr_scan", "android": "https://dc.lft.to/lastmile_qr_scan"}, "type": "electric_bike", "name": "851241e32f075ba80e52900e357be2d8", "is_reserved": 0, "lon": -77.05274616666667, "is_disabled": 0, "fusion_lat": 0.0, "lat": 38.94090216666667, "bike_id": "851241e32f075ba80e52900e357be2d8", "fusion_lon": 0.0}, {"rental_uris": {"ios": "https://dc.lft.to/lastmile_qr_scan", "android": "https://dc.lft.to/lastmile_qr_scan"}, "type": "electric_scooter", "name": "6e303755c7587de528d22e4f50a95052", "is_reserved": 0, "lon": -77.03137733333334, "is_disabled": 0, "fusion_lat": 0.0, "lat": 38.923742, "bike_id": "6e303755c7587de528d22e4f50a95052", "fusion_lon": 0.0}, {"rental_uris": {"ios": "https://dc.lft.to/lastmile_qr_scan", "android": "https://dc.lft.to/lastmile_qr_scan"}, "type": "electric_bike", "name": "7171144d5517615761c3b2da28a88e19", "is_reserved": 0, "lon": -77.01689083333333, "is_disabled": 0, "fusion_lat": 0.0, "lat": 38.97516533333334, "bike_id": "7171144d5517615761c3b2da28a88e19", "fusion_lon": 0.0}, {"rental_uris": {"ios": "https://dc.lft.to/lastmile_qr_scan", "android": "https://dc.lft.to/lastmile_qr_scan"}, "type": "electric_scooter", "name": "62a45434dfe2343558bd525ec51fec45", "is_reserved": 0, "lon": -77.02839416666667, "is_disabled": 0, "fusion_lat": 0.0, "lat": 38.887315, "bike_id": "62a45434dfe2343558bd525ec51fec45", "fusion_lon": 0.0}, {"rental_uris": {"ios": "https://dc.lft.to/lastmile_qr_scan", "android": "https://dc.lft.to/lastmile_qr_scan"}, "type": "electric_scooter", "name": "47d0626b3d0f8d3adb616f43344e72d8", "is_reserved": 0, "lon": -77.01461516666667, "is_disabled": 0, "fusion_lat": 0.0, "lat": 38.87942616666667, "bike_id": "47d0626b3d0f8d3adb616f43344e72d8", "fusion_lon": 0.0}, {"rental_uris": {"ios": "https://dc.lft.to/lastmile_qr_scan", "android": "https://dc.lft.to/lastmile_qr_scan"}, "type": "electric_scooter", "name": "6673c225d1460b124ff5dcd90bb9d98f", "is_reserved": 0, "lon": -77.03918733333333, "is_disabled": 0, "fusion_lat": 0.0, "lat": 38.924824, "bike_id": "6673c225d1460b124ff5dcd90bb9d98f", "fusion_lon": 0.0}, {"rental_uris": {"ios": "https://dc.lft.to/lastmile_qr_scan", "android": "https://dc.lft.to/lastmile_qr_scan"}, "type": "electric_scooter", "name": "d6996fa60d3f805670139a3380f8963a", "is_reserved": 0, "lon": -77.043387, "is_disabled": 0, "fusion_lat": 0.0, "lat": 38.90725833333333, "bike_id": "d6996fa60d3f805670139a3380f8963a", "fusion_lon": 0.0}, {"rental_uris": {"ios": "https://dc.lft.to/lastmile_qr_scan", "android": "https://dc.lft.to/lastmile_qr_scan"}, "type": "electric_scooter", "name": "ce66f3ad848d75e98f05fa2aed797d1b", "is_reserved": 0, "lon": -77.04099733333334, "is_disabled": 0, "fusion_lat": 0.0, "lat": 38.92529016666667, "bike_id": "ce66f3ad848d75e98f05fa2aed797d1b", "fusion_lon": 0.0}, {"rental_uris": {"ios": "https://dc.lft.to/lastmile_qr_scan", "android": "https://dc.lft.to/lastmile_qr_scan"}, "type": "electric_bike", "name": "915a11aff83b6c5046601eb42b76fb9b", "is_reserved": 0, "lon": -76.96154683333333, "is_disabled": 0, "fusion_lat": 0.0, "lat": 38.85616816666667, "bike_id": "915a11aff83b6c5046601eb42b76fb9b", "fusion_lon": 0.0}, {"rental_uris": {"ios": "https://dc.lft.to/lastmile_qr_scan", "android": "https://dc.lft.to/lastmile_qr_scan"}, "type": "electric_scooter", "name": "c1a3b4468c953760ac1c91781d559fcd", "is_reserved": 0, "lon": -77.0433625, "is_disabled": 0, "fusion_lat": 0.0, "lat": 38.9222995, "bike_id": "c1a3b4468c953760ac1c91781d559fcd", "fusion_lon": 0.0}, {"rental_uris": {"ios": "https://dc.lft.to/lastmile_qr_scan", "android": "https://dc.lft.to/lastmile_qr_scan"}, "type": "electric_scooter", "name": "9c4456e7581576124f310d0a7f803844", "is_reserved": 0, "lon": -77.06164866666667, "is_disabled": 0, "fusion_lat": 0.0, "lat": 38.90266333333334, "bike_id": "9c4456e7581576124f310d0a7f803844", "fusion_lon": 0.0}, {"rental_uris": {"ios": "https://dc.lft.to/lastmile_qr_scan", "android": "https://dc.lft.to/lastmile_qr_scan"}, "type": "electric_bike", "name": "b670442c851e7ee671c5448602f6d632", "is_reserved": 0, "lon": -76.96261716666666, "is_disabled": 0, "fusion_lat": 0.0, "lat": 38.882463333333334, "bike_id": "b670442c851e7ee671c5448602f6d632", "fusion_lon": 0.0}, {"rental_uris": {"ios": "https://dc.lft.to/lastmile_qr_scan", "android": "https://dc.lft.to/lastmile_qr_scan"}, "type": "electric_scooter", "name": "175d77272d65ea1a75e52cf5b981fe02", "is_reserved": 0, "lon": -76.99752966666667, "is_disabled": 0, "fusion_lat": 0.0, "lat": 38.885068833333335, "bike_id": "175d77272d65ea1a75e52cf5b981fe02", "fusion_lon": 0.0}, {"rental_uris": {"ios": "https://dc.lft.to/lastmile_qr_scan", "android": "https://dc.lft.to/lastmile_qr_scan"}, "type": "electric_scooter", "name": "e2eac7cf2f666765b01c40bbae0d9651", "is_reserved": 0, "lon": -77.03419433333333, "is_disabled": 0, "fusion_lat": 0.0, "lat": 38.92756716666667, "bike_id": "e2eac7cf2f666765b01c40bbae0d9651", "fusion_lon": 0.0}, {"rental_uris": {"ios": "https://dc.lft.to/lastmile_qr_scan", "android": "https://dc.lft.to/lastmile_qr_scan"}, "type": "electric_scooter", "name": "dedb0445a860903f3f2d80768d41ce71", "is_reserved": 0, "lon": -77.04341183333334, "is_disabled": 0, "fusion_lat": 0.0, "lat": 38.907194, "bike_id": "dedb0445a860903f3f2d80768d41ce71", "fusion_lon": 0.0}, {"rental_uris": {"ios": "https://dc.lft.to/lastmile_qr_scan", "android": "https://dc.lft.to/lastmile_qr_scan"}, "type": "electric_scooter", "name": "5405d8330a4b16699e2395591490b943", "is_reserved": 0, "lon": -76.9772185, "is_disabled": 0, "fusion_lat": 0.0, "lat": 38.888216666666665, "bike_id": "5405d8330a4b16699e2395591490b943", "fusion_lon": 0.0}, {"rental_uris": {"ios": "https://dc.lft.to/lastmile_qr_scan", "android": "https://dc.lft.to/lastmile_qr_scan"}, "type": "electric_scooter", "name": "02fe9a42016c5b57d944e91bc09de922", "is_reserved": 0, "lon": -77.0281345, "is_disabled": 0, "fusion_lat": 0.0, "lat": 38.90912816666667, "bike_id": "02fe9a42016c5b57d944e91bc09de922", "fusion_lon": 0.0}, {"rental_uris": {"ios": "https://dc.lft.to/lastmile_qr_scan", "android": "https://dc.lft.to/lastmile_qr_scan"}, "type": "electric_scooter", "name": "092d9676b0ef57edb7037b76eed57109", "is_reserved": 0, "lon": -77.038674, "is_disabled": 0, "fusion_lat": 0.0, "lat": 38.91556, "bike_id": "092d9676b0ef57edb7037b76eed57109", "fusion_lon": 0.0}, {"rental_uris": {"ios": "https://dc.lft.to/lastmile_qr_scan", "android": "https://dc.lft.to/lastmile_qr_scan"}, "type": "electric_scooter", "name": "a34faf8a377dd73523d0ad2775c0455e", "is_reserved": 0, "lon": -77.06527016666666, "is_disabled": 0, "fusion_lat": 0.0, "lat": 38.9111385, "bike_id": "a34faf8a377dd73523d0ad2775c0455e", "fusion_lon": 0.0}, {"rental_uris": {"ios": "https://dc.lft.to/lastmile_qr_scan", "android": "https://dc.lft.to/lastmile_qr_scan"}, "type": "electric_scooter", "name": "fa10c45e5286d3b686eeb25216453837", "is_reserved": 0, "lon": -77.03483583333333, "is_disabled": 0, "fusion_lat": 0.0, "lat": 38.90279866666667, "bike_id": "fa10c45e5286d3b686eeb25216453837", "fusion_lon": 0.0}, {"rental_uris": {"ios": "https://dc.lft.to/lastmile_qr_scan", "android": "https://dc.lft.to/lastmile_qr_scan"}, "type": "electric_scooter", "name": "9f41c4d453a5f7622d9bf7b392a04547", "is_reserved": 0, "lon": -77.04296266666667, "is_disabled": 0, "fusion_lat": 0.0, "lat": 38.90650016666667, "bike_id": "9f41c4d453a5f7622d9bf7b392a04547", "fusion_lon": 0.0}, {"rental_uris": {"ios": "https://dc.lft.to/lastmile_qr_scan", "android": "https://dc.lft.to/lastmile_qr_scan"}, "type": "electric_scooter", "name": "9d893133d70b5b60a005a7d72e9d7e6c", "is_reserved": 0, "lon": -77.00574483333334, "is_disabled": 0, "fusion_lat": 0.0, "lat": 38.874547666666665, "bike_id": "9d893133d70b5b60a005a7d72e9d7e6c", "fusion_lon": 0.0}, {"rental_uris": {"ios": "https://dc.lft.to/lastmile_qr_scan", "android": "https://dc.lft.to/lastmile_qr_scan"}, "type": "electric_scooter", "name": "9a04978b56de49323732b7b910ca08de", "is_reserved": 0, "lon": -77.032724, "is_disabled": 0, "fusion_lat": 0.0, "lat": 38.919853, "bike_id": "9a04978b56de49323732b7b910ca08de", "fusion_lon": 0.0}, {"rental_uris": {"ios": "https://dc.lft.to/lastmile_qr_scan", "android": "https://dc.lft.to/lastmile_qr_scan"}, "type": "electric_scooter", "name": "34c3fd1d59bf24b8a38eeb83b2feecd6", "is_reserved": 0, "lon": -76.987059, "is_disabled": 0, "fusion_lat": 0.0, "lat": 38.88840866666666, "bike_id": "34c3fd1d59bf24b8a38eeb83b2feecd6", "fusion_lon": 0.0}, {"rental_uris": {"ios": "https://dc.lft.to/lastmile_qr_scan", "android": "https://dc.lft.to/lastmile_qr_scan"}, "type": "electric_scooter", "name": "0686d3e2690174f432656e43fa5b1fc7", "is_reserved": 0, "lon": -77.01845516666667, "is_disabled": 0, "fusion_lat": 0.0, "lat": 38.9499445, "bike_id": "0686d3e2690174f432656e43fa5b1fc7", "fusion_lon": 0.0}, {"rental_uris": {"ios": "https://dc.lft.to/lastmile_qr_scan", "android": "https://dc.lft.to/lastmile_qr_scan"}, "type": "electric_scooter", "name": "30080f7744697ab9ad835e34dfa01dee", "is_reserved": 0, "lon": -76.9794025, "is_disabled": 0, "fusion_lat": 0.0, "lat": 38.91603083333333, "bike_id": "30080f7744697ab9ad835e34dfa01dee", "fusion_lon": 0.0}, {"rental_uris": {"ios": "https://dc.lft.to/lastmile_qr_scan", "android": "https://dc.lft.to/lastmile_qr_scan"}, "type": "electric_bike", "name": "adb18908f6263a8c05920414349cd1ec", "is_reserved": 0, "lon": -76.978573, "is_disabled": 0, "fusion_lat": 0.0, "lat": 38.98385483333333, "bike_id": "adb18908f6263a8c05920414349cd1ec", "fusion_lon": 0.0}, {"rental_uris": {"ios": "https://dc.lft.to/lastmile_qr_scan", "android": "https://dc.lft.to/lastmile_qr_scan"}, "type": "electric_scooter", "name": "75627e88a635d207ed369494c2179506", "is_reserved": 0, "lon": -77.026465, "is_disabled": 0, "fusion_lat": 0.0, "lat": 38.89593283333333, "bike_id": "75627e88a635d207ed369494c2179506", "fusion_lon": 0.0}, {"rental_uris": {"ios": "https://dc.lft.to/lastmile_qr_scan", "android": "https://dc.lft.to/lastmile_qr_scan"}, "type": "electric_scooter", "name": "4156f0b20a8f90bc96cbac741bec6dc4", "is_reserved": 0, "lon": -77.06330883333334, "is_disabled": 0, "fusion_lat": 0.0, "lat": 38.94369616666667, "bike_id": "4156f0b20a8f90bc96cbac741bec6dc4", "fusion_lon": 0.0}, {"rental_uris": {"ios": "https://dc.lft.to/lastmile_qr_scan", "android": "https://dc.lft.to/lastmile_qr_scan"}, "type": "electric_bike", "name": "8f0adb9dbdf06673c215dd7f893379be", "is_reserved": 0, "lon": -77.08874016666667, "is_disabled": 0, "fusion_lat": 0.0, "lat": 38.938769, "bike_id": "8f0adb9dbdf06673c215dd7f893379be", "fusion_lon": 0.0}, {"rental_uris": {"ios": "https://dc.lft.to/lastmile_qr_scan", "android": "https://dc.lft.to/lastmile_qr_scan"}, "type": "electric_bike", "name": "9d6bdaba738450fc70cfae887eca2149", "is_reserved": 0, "lon": -77.09957433333334, "is_disabled": 0, "fusion_lat": 0.0, "lat": 38.85790083333333, "bike_id": "9d6bdaba738450fc70cfae887eca2149", "fusion_lon": 0.0}, {"rental_uris": {"ios": "https://dc.lft.to/lastmile_qr_scan", "android": "https://dc.lft.to/lastmile_qr_scan"}, "type": "electric_scooter", "name": "a329bd462d4f1148300280a4ffc42c6b", "is_reserved": 0, "lon": -77.01351716666667, "is_disabled": 0, "fusion_lat": 0.0, "lat": 38.919192333333335, "bike_id": "a329bd462d4f1148300280a4ffc42c6b", "fusion_lon": 0.0}, {"rental_uris": {"ios": "https://dc.lft.to/lastmile_qr_scan", "android": "https://dc.lft.to/lastmile_qr_scan"}, "type": "electric_scooter", "name": "cbb8d1e29fa7f3e97954ae35979c5f71", "is_reserved": 0, "lon": -77.03786866666667, "is_disabled": 0, "fusion_lat": 0.0, "lat": 38.916903833333336, "bike_id": "cbb8d1e29fa7f3e97954ae35979c5f71", "fusion_lon": 0.0}, {"rental_uris": {"ios": "https://dc.lft.to/lastmile_qr_scan", "android": "https://dc.lft.to/lastmile_qr_scan"}, "type": "electric_scooter", "name": "fd79fe9fbddfb733b0f2b27e22bbec93", "is_reserved": 0, "lon": -77.0121305, "is_disabled": 0, "fusion_lat": 0.0, "lat": 38.91820233333333, "bike_id": "fd79fe9fbddfb733b0f2b27e22bbec93", "fusion_lon": 0.0}, {"rental_uris": {"ios": "https://dc.lft.to/lastmile_qr_scan", "android": "https://dc.lft.to/lastmile_qr_scan"}, "type": "electric_scooter", "name": "ad739fa104bb4693af3052938db8de9e", "is_reserved": 0, "lon": -77.00940616666666, "is_disabled": 0, "fusion_lat": 0.0, "lat": 38.9126915, "bike_id": "ad739fa104bb4693af3052938db8de9e", "fusion_lon": 0.0}, {"rental_uris": {"ios": "https://dc.lft.to/lastmile_qr_scan", "android": "https://dc.lft.to/lastmile_qr_scan"}, "type": "electric_scooter", "name": "7150e19b5dd8dd6d6d705027601099df", "is_reserved": 0, "lon": -77.07214966666666, "is_disabled": 0, "fusion_lat": 0.0, "lat": 38.906876833333335, "bike_id": "7150e19b5dd8dd6d6d705027601099df", "fusion_lon": 0.0}, {"rental_uris": {"ios": "https://dc.lft.to/lastmile_qr_scan", "android": "https://dc.lft.to/lastmile_qr_scan"}, "type": "electric_scooter", "name": "91909a4cba985c47b2de1a66afffde15", "is_reserved": 0, "lon": -76.98660666666666, "is_disabled": 0, "fusion_lat": 0.0, "lat": 38.9061855, "bike_id": "91909a4cba985c47b2de1a66afffde15", "fusion_lon": 0.0}, {"rental_uris": {"ios": "https://dc.lft.to/lastmile_qr_scan", "android": "https://dc.lft.to/lastmile_qr_scan"}, "type": "electric_scooter", "name": "7bf75aad09ef457fa708311a50ac9f14", "is_reserved": 0, "lon": -77.03970866666667, "is_disabled": 0, "fusion_lat": 0.0, "lat": 38.90241916666667, "bike_id": "7bf75aad09ef457fa708311a50ac9f14", "fusion_lon": 0.0}, {"rental_uris": {"ios": "https://dc.lft.to/lastmile_qr_scan", "android": "https://dc.lft.to/lastmile_qr_scan"}, "type": "electric_scooter", "name": "92615092dcc86385f860c543dd7ec5ef", "is_reserved": 0, "lon": -77.02325866666666, "is_disabled": 0, "fusion_lat": 0.0, "lat": 38.94016883333333, "bike_id": "92615092dcc86385f860c543dd7ec5ef", "fusion_lon": 0.0}, {"rental_uris": {"ios": "https://dc.lft.to/lastmile_qr_scan", "android": "https://dc.lft.to/lastmile_qr_scan"}, "type": "electric_scooter", "name": "6cc9415f9f59ae5a2fa62dcfd91c9def", "is_reserved": 0, "lon": -77.05220283333334, "is_disabled": 0, "fusion_lat": 0.0, "lat": 38.9034215, "bike_id": "6cc9415f9f59ae5a2fa62dcfd91c9def", "fusion_lon": 0.0}, {"rental_uris": {"ios": "https://dc.lft.to/lastmile_qr_scan", "android": "https://dc.lft.to/lastmile_qr_scan"}, "type": "electric_scooter", "name": "ca55c6ae56a6e2470e34bda090d31f40", "is_reserved": 0, "lon": -77.0126125, "is_disabled": 0, "fusion_lat": 0.0, "lat": 38.89716633333333, "bike_id": "ca55c6ae56a6e2470e34bda090d31f40", "fusion_lon": 0.0}, {"rental_uris": {"ios": "https://dc.lft.to/lastmile_qr_scan", "android": "https://dc.lft.to/lastmile_qr_scan"}, "type": "electric_scooter", "name": "04cab79f3614bfdd739a4fe816b528e9", "is_reserved": 0, "lon": -77.02131283333334, "is_disabled": 0, "fusion_lat": 0.0, "lat": 38.9279485, "bike_id": "04cab79f3614bfdd739a4fe816b528e9", "fusion_lon": 0.0}, {"rental_uris": {"ios": "https://dc.lft.to/lastmile_qr_scan", "android": "https://dc.lft.to/lastmile_qr_scan"}, "type": "electric_scooter", "name": "d6e69d2d446addcc84817c32232ee0e3", "is_reserved": 0, "lon": -77.03467033333334, "is_disabled": 0, "fusion_lat": 0.0, "lat": 38.921619166666666, "bike_id": "d6e69d2d446addcc84817c32232ee0e3", "fusion_lon": 0.0}, {"rental_uris": {"ios": "https://dc.lft.to/lastmile_qr_scan", "android": "https://dc.lft.to/lastmile_qr_scan"}, "type": "electric_scooter", "name": "32e5aaf989b9e9535d42f7df0220721d", "is_reserved": 0, "lon": -77.06866583333333, "is_disabled": 0, "fusion_lat": 0.0, "lat": 38.9041305, "bike_id": "32e5aaf989b9e9535d42f7df0220721d", "fusion_lon": 0.0}, {"rental_uris": {"ios": "https://dc.lft.to/lastmile_qr_scan", "android": "https://dc.lft.to/lastmile_qr_scan"}, "type": "electric_scooter", "name": "370c2d55cff507c2ec8efbdf928a7f5f", "is_reserved": 0, "lon": -77.01759833333334, "is_disabled": 0, "fusion_lat": 0.0, "lat": 38.8768955, "bike_id": "370c2d55cff507c2ec8efbdf928a7f5f", "fusion_lon": 0.0}, {"rental_uris": {"ios": "https://dc.lft.to/lastmile_qr_scan", "android": "https://dc.lft.to/lastmile_qr_scan"}, "type": "electric_scooter", "name": "dc8b88f0eecd912f1300748f53e598be", "is_reserved": 0, "lon": -76.9343925, "is_disabled": 0, "fusion_lat": 0.0, "lat": 38.893502833333336, "bike_id": "dc8b88f0eecd912f1300748f53e598be", "fusion_lon": 0.0}, {"rental_uris": {"ios": "https://dc.lft.to/lastmile_qr_scan", "android": "https://dc.lft.to/lastmile_qr_scan"}, "type": "electric_scooter", "name": "86dd942d328632e0b7595fcd39438889", "is_reserved": 0, "lon": -77.03374266666667, "is_disabled": 0, "fusion_lat": 0.0, "lat": 38.8991905, "bike_id": "86dd942d328632e0b7595fcd39438889", "fusion_lon": 0.0}, {"rental_uris": {"ios": "https://dc.lft.to/lastmile_qr_scan", "android": "https://dc.lft.to/lastmile_qr_scan"}, "type": "electric_scooter", "name": "fe3adac714948dee400f5fc39142cb06", "is_reserved": 0, "lon": -77.02835116666667, "is_disabled": 0, "fusion_lat": 0.0, "lat": 38.910219, "bike_id": "fe3adac714948dee400f5fc39142cb06", "fusion_lon": 0.0}, {"rental_uris": {"ios": "https://dc.lft.to/lastmile_qr_scan", "android": "https://dc.lft.to/lastmile_qr_scan"}, "type": "electric_scooter", "name": "34ffc8a77ba2b204575e50e5f49d59d0", "is_reserved": 0, "lon": -77.023162, "is_disabled": 0, "fusion_lat": 0.0, "lat": 38.91831366666667, "bike_id": "34ffc8a77ba2b204575e50e5f49d59d0", "fusion_lon": 0.0}, {"rental_uris": {"ios": "https://dc.lft.to/lastmile_qr_scan", "android": "https://dc.lft.to/lastmile_qr_scan"}, "type": "electric_bike", "name": "07aed4ccb2ff5d28e5996efc58f0d747", "is_reserved": 0, "lon": -77.01224533333334, "is_disabled": 0, "fusion_lat": 0.0, "lat": 38.950736166666665, "bike_id": "07aed4ccb2ff5d28e5996efc58f0d747", "fusion_lon": 0.0}, {"rental_uris": {"ios": "https://dc.lft.to/lastmile_qr_scan", "android": "https://dc.lft.to/lastmile_qr_scan"}, "type": "electric_scooter", "name": "976f656378a4c574bcb76d9ba695e670", "is_reserved": 0, "lon": -77.0328185, "is_disabled": 0, "fusion_lat": 0.0, "lat": 38.9072015, "bike_id": "976f656378a4c574bcb76d9ba695e670", "fusion_lon": 0.0}, {"rental_uris": {"ios": "https://dc.lft.to/lastmile_qr_scan", "android": "https://dc.lft.to/lastmile_qr_scan"}, "type": "electric_scooter", "name": "720dadc65547cccb740c9d48cb1d0a91", "is_reserved": 0, "lon": -77.02346716666666, "is_disabled": 0, "fusion_lat": 0.0, "lat": 38.93131983333333, "bike_id": "720dadc65547cccb740c9d48cb1d0a91", "fusion_lon": 0.0}, {"rental_uris": {"ios": "https://dc.lft.to/lastmile_qr_scan", "android": "https://dc.lft.to/lastmile_qr_scan"}, "type": "electric_scooter", "name": "f1224c70aa82556de9b63c2b69008847", "is_reserved": 0, "lon": -77.04181716666666, "is_disabled": 0, "fusion_lat": 0.0, "lat": 38.9040185, "bike_id": "f1224c70aa82556de9b63c2b69008847", "fusion_lon": 0.0}, {"rental_uris": {"ios": "https://dc.lft.to/lastmile_qr_scan", "android": "https://dc.lft.to/lastmile_qr_scan"}, "type": "electric_bike", "name": "d501056c32a2d8ebd815742126e8061c", "is_reserved": 0, "lon": -76.996841, "is_disabled": 0, "fusion_lat": 0.0, "lat": 38.83819733333333, "bike_id": "d501056c32a2d8ebd815742126e8061c", "fusion_lon": 0.0}, {"rental_uris": {"ios": "https://dc.lft.to/lastmile_qr_scan", "android": "https://dc.lft.to/lastmile_qr_scan"}, "type": "electric_scooter", "name": "302235ca2d17d7a4cb98106036698d7d", "is_reserved": 0, "lon": -77.038661, "is_disabled": 0, "fusion_lat": 0.0, "lat": 38.917117, "bike_id": "302235ca2d17d7a4cb98106036698d7d", "fusion_lon": 0.0}, {"rental_uris": {"ios": "https://dc.lft.to/lastmile_qr_scan", "android": "https://dc.lft.to/lastmile_qr_scan"}, "type": "electric_scooter", "name": "977a7029169ae26ae8d136e6c751c6da", "is_reserved": 0, "lon": -77.038695, "is_disabled": 0, "fusion_lat": 0.0, "lat": 38.91267366666667, "bike_id": "977a7029169ae26ae8d136e6c751c6da", "fusion_lon": 0.0}, {"rental_uris": {"ios": "https://dc.lft.to/lastmile_qr_scan", "android": "https://dc.lft.to/lastmile_qr_scan"}, "type": "electric_scooter", "name": "eb7c57f9c08545d73c6181ac8eed3774", "is_reserved": 0, "lon": -77.02525866666667, "is_disabled": 0, "fusion_lat": 0.0, "lat": 38.940329, "bike_id": "eb7c57f9c08545d73c6181ac8eed3774", "fusion_lon": 0.0}, {"rental_uris": {"ios": "https://dc.lft.to/lastmile_qr_scan", "android": "https://dc.lft.to/lastmile_qr_scan"}, "type": "electric_scooter", "name": "5220c293c64074b9539e29cee4781430", "is_reserved": 0, "lon": -77.005908, "is_disabled": 0, "fusion_lat": 0.0, "lat": 38.900408166666665, "bike_id": "5220c293c64074b9539e29cee4781430", "fusion_lon": 0.0}, {"rental_uris": {"ios": "https://dc.lft.to/lastmile_qr_scan", "android": "https://dc.lft.to/lastmile_qr_scan"}, "type": "electric_scooter", "name": "9e3b34db493d4061906513f432b42b8b", "is_reserved": 0, "lon": -77.068055, "is_disabled": 0, "fusion_lat": 0.0, "lat": 38.905167666666664, "bike_id": "9e3b34db493d4061906513f432b42b8b", "fusion_lon": 0.0}, {"rental_uris": {"ios": "https://dc.lft.to/lastmile_qr_scan", "android": "https://dc.lft.to/lastmile_qr_scan"}, "type": "electric_scooter", "name": "bf61483e1ba2a559af58e7af437884f6", "is_reserved": 0, "lon": -76.99028233333334, "is_disabled": 0, "fusion_lat": 0.0, "lat": 38.888640333333335, "bike_id": "bf61483e1ba2a559af58e7af437884f6", "fusion_lon": 0.0}, {"rental_uris": {"ios": "https://dc.lft.to/lastmile_qr_scan", "android": "https://dc.lft.to/lastmile_qr_scan"}, "type": "electric_scooter", "name": "6051f094a2198ff59c7aa3ee09e78986", "is_reserved": 0, "lon": -77.0468145, "is_disabled": 0, "fusion_lat": 0.0, "lat": 38.907277, "bike_id": "6051f094a2198ff59c7aa3ee09e78986", "fusion_lon": 0.0}, {"rental_uris": {"ios": "https://dc.lft.to/lastmile_qr_scan", "android": "https://dc.lft.to/lastmile_qr_scan"}, "type": "electric_scooter", "name": "cbafc1b0f91855d1027098fce4d7846b", "is_reserved": 0, "lon": -77.07198233333334, "is_disabled": 0, "fusion_lat": 0.0, "lat": 38.91253433333333, "bike_id": "cbafc1b0f91855d1027098fce4d7846b", "fusion_lon": 0.0}, {"rental_uris": {"ios": "https://dc.lft.to/lastmile_qr_scan", "android": "https://dc.lft.to/lastmile_qr_scan"}, "type": "electric_scooter", "name": "e4e8d53a599ed63f63e525a7bc0a3d25", "is_reserved": 0, "lon": -77.02344, "is_disabled": 0, "fusion_lat": 0.0, "lat": 38.88129683333333, "bike_id": "e4e8d53a599ed63f63e525a7bc0a3d25", "fusion_lon": 0.0}, {"rental_uris": {"ios": "https://dc.lft.to/lastmile_qr_scan", "android": "https://dc.lft.to/lastmile_qr_scan"}, "type": "electric_scooter", "name": "824dfd01b0812cbcbe65ccc3e28b0484", "is_reserved": 0, "lon": -77.04131316666667, "is_disabled": 0, "fusion_lat": 0.0, "lat": 38.92126566666666, "bike_id": "824dfd01b0812cbcbe65ccc3e28b0484", "fusion_lon": 0.0}, {"rental_uris": {"ios": "https://dc.lft.to/lastmile_qr_scan", "android": "https://dc.lft.to/lastmile_qr_scan"}, "type": "electric_scooter", "name": "77d43448a0358548394a20f500c52f3a", "is_reserved": 0, "lon": -77.0040125, "is_disabled": 0, "fusion_lat": 0.0, "lat": 38.8746095, "bike_id": "77d43448a0358548394a20f500c52f3a", "fusion_lon": 0.0}, {"rental_uris": {"ios": "https://dc.lft.to/lastmile_qr_scan", "android": "https://dc.lft.to/lastmile_qr_scan"}, "type": "electric_scooter", "name": "173627d7f31a156f26b94911a9b00000", "is_reserved": 0, "lon": -77.016452, "is_disabled": 0, "fusion_lat": 0.0, "lat": 38.915881, "bike_id": "173627d7f31a156f26b94911a9b00000", "fusion_lon": 0.0}, {"rental_uris": {"ios": "https://dc.lft.to/lastmile_qr_scan", "android": "https://dc.lft.to/lastmile_qr_scan"}, "type": "electric_scooter", "name": "8caa3a583cf6a17f98cd895696f6ce73", "is_reserved": 0, "lon": -77.00482166666667, "is_disabled": 0, "fusion_lat": 0.0, "lat": 38.87459, "bike_id": "8caa3a583cf6a17f98cd895696f6ce73", "fusion_lon": 0.0}, {"rental_uris": {"ios": "https://dc.lft.to/lastmile_qr_scan", "android": "https://dc.lft.to/lastmile_qr_scan"}, "type": "electric_scooter", "name": "28ebcdcc3561ec8cb6f7bfcdaa22c269", "is_reserved": 0, "lon": -77.046063, "is_disabled": 0, "fusion_lat": 0.0, "lat": 38.90116616666667, "bike_id": "28ebcdcc3561ec8cb6f7bfcdaa22c269", "fusion_lon": 0.0}, {"rental_uris": {"ios": "https://dc.lft.to/lastmile_qr_scan", "android": "https://dc.lft.to/lastmile_qr_scan"}, "type": "electric_scooter", "name": "6d2dd1cc31bf5315eb247b85e08b6a2e", "is_reserved": 0, "lon": -77.00840533333333, "is_disabled": 0, "fusion_lat": 0.0, "lat": 38.912595, "bike_id": "6d2dd1cc31bf5315eb247b85e08b6a2e", "fusion_lon": 0.0}, {"rental_uris": {"ios": "https://dc.lft.to/lastmile_qr_scan", "android": "https://dc.lft.to/lastmile_qr_scan"}, "type": "electric_scooter", "name": "3e9d911eb63c3a6c4190e6e7578ea734", "is_reserved": 0, "lon": -77.02778433333333, "is_disabled": 0, "fusion_lat": 0.0, "lat": 38.8875, "bike_id": "3e9d911eb63c3a6c4190e6e7578ea734", "fusion_lon": 0.0}, {"rental_uris": {"ios": "https://dc.lft.to/lastmile_qr_scan", "android": "https://dc.lft.to/lastmile_qr_scan"}, "type": "electric_scooter", "name": "bcef685b3dce2a5677676cf799ce57a7", "is_reserved": 0, "lon": -77.01439016666667, "is_disabled": 0, "fusion_lat": 0.0, "lat": 38.90232566666667, "bike_id": "bcef685b3dce2a5677676cf799ce57a7", "fusion_lon": 0.0}, {"rental_uris": {"ios": "https://dc.lft.to/lastmile_qr_scan", "android": "https://dc.lft.to/lastmile_qr_scan"}, "type": "electric_scooter", "name": "a5629e279d246412f29c450ae1f418b1", "is_reserved": 0, "lon": -77.02892033333333, "is_disabled": 0, "fusion_lat": 0.0, "lat": 38.90316466666667, "bike_id": "a5629e279d246412f29c450ae1f418b1", "fusion_lon": 0.0}, {"rental_uris": {"ios": "https://dc.lft.to/lastmile_qr_scan", "android": "https://dc.lft.to/lastmile_qr_scan"}, "type": "electric_scooter", "name": "da713b5110a15a5b990d76cfb3cc6aab", "is_reserved": 0, "lon": -77.04664666666666, "is_disabled": 0, "fusion_lat": 0.0, "lat": 38.89661866666667, "bike_id": "da713b5110a15a5b990d76cfb3cc6aab", "fusion_lon": 0.0}, {"rental_uris": {"ios": "https://dc.lft.to/lastmile_qr_scan", "android": "https://dc.lft.to/lastmile_qr_scan"}, "type": "electric_scooter", "name": "42ae41d7d9b094e7f36cedfe72a40fa4", "is_reserved": 0, "lon": -77.02694666666666, "is_disabled": 0, "fusion_lat": 0.0, "lat": 38.90531266666667, "bike_id": "42ae41d7d9b094e7f36cedfe72a40fa4", "fusion_lon": 0.0}, {"rental_uris": {"ios": "https://dc.lft.to/lastmile_qr_scan", "android": "https://dc.lft.to/lastmile_qr_scan"}, "type": "electric_scooter", "name": "cdcfc45de9e2c8336841475ff4f8dd15", "is_reserved": 0, "lon": -77.04625383333334, "is_disabled": 0, "fusion_lat": 0.0, "lat": 38.90661033333333, "bike_id": "cdcfc45de9e2c8336841475ff4f8dd15", "fusion_lon": 0.0}, {"rental_uris": {"ios": "https://dc.lft.to/lastmile_qr_scan", "android": "https://dc.lft.to/lastmile_qr_scan"}, "type": "electric_scooter", "name": "861c73d08f893dc0f6ddf056bbb56079", "is_reserved": 0, "lon": -77.02461733333334, "is_disabled": 0, "fusion_lat": 0.0, "lat": 38.9578005, "bike_id": "861c73d08f893dc0f6ddf056bbb56079", "fusion_lon": 0.0}, {"rental_uris": {"ios": "https://dc.lft.to/lastmile_qr_scan", "android": "https://dc.lft.to/lastmile_qr_scan"}, "type": "electric_scooter", "name": "73f19e4d5c893bd3ae1166591f6494b2", "is_reserved": 0, "lon": -77.037449, "is_disabled": 0, "fusion_lat": 0.0, "lat": 38.93574916666667, "bike_id": "73f19e4d5c893bd3ae1166591f6494b2", "fusion_lon": 0.0}, {"rental_uris": {"ios": "https://dc.lft.to/lastmile_qr_scan", "android": "https://dc.lft.to/lastmile_qr_scan"}, "type": "electric_scooter", "name": "74dfd48424c8d0fa2509fa1af946b381", "is_reserved": 0, "lon": -77.00574416666667, "is_disabled": 0, "fusion_lat": 0.0, "lat": 38.879081, "bike_id": "74dfd48424c8d0fa2509fa1af946b381", "fusion_lon": 0.0}, {"rental_uris": {"ios": "https://dc.lft.to/lastmile_qr_scan", "android": "https://dc.lft.to/lastmile_qr_scan"}, "type": "electric_bike", "name": "851aea6c1167a40b2f90f81508a78502", "is_reserved": 0, "lon": -77.0202985, "is_disabled": 0, "fusion_lat": 0.0, "lat": 38.96555566666667, "bike_id": "851aea6c1167a40b2f90f81508a78502", "fusion_lon": 0.0}, {"rental_uris": {"ios": "https://dc.lft.to/lastmile_qr_scan", "android": "https://dc.lft.to/lastmile_qr_scan"}, "type": "electric_bike", "name": "1a7a392d650cc7c2e27ab53cb777f79a", "is_reserved": 0, "lon": -76.98287266666667, "is_disabled": 0, "fusion_lat": 0.0, "lat": 38.84674783333333, "bike_id": "1a7a392d650cc7c2e27ab53cb777f79a", "fusion_lon": 0.0}, {"rental_uris": {"ios": "https://dc.lft.to/lastmile_qr_scan", "android": "https://dc.lft.to/lastmile_qr_scan"}, "type": "electric_bike", "name": "d4b65d7597bde39f5c950fafac87bdfd", "is_reserved": 0, "lon": -77.03192283333334, "is_disabled": 0, "fusion_lat": 0.0, "lat": 38.921121666666664, "bike_id": "d4b65d7597bde39f5c950fafac87bdfd", "fusion_lon": 0.0}, {"rental_uris": {"ios": "https://dc.lft.to/lastmile_qr_scan", "android": "https://dc.lft.to/lastmile_qr_scan"}, "type": "electric_scooter", "name": "c30a0c859c45a9a416d29bda0c7c19ee", "is_reserved": 0, "lon": -77.02818633333334, "is_disabled": 0, "fusion_lat": 0.0, "lat": 38.95639083333333, "bike_id": "c30a0c859c45a9a416d29bda0c7c19ee", "fusion_lon": 0.0}, {"rental_uris": {"ios": "https://dc.lft.to/lastmile_qr_scan", "android": "https://dc.lft.to/lastmile_qr_scan"}, "type": "electric_scooter", "name": "34e9c0c111b2c8d759373933cc09f5dc", "is_reserved": 0, "lon": -77.0060025, "is_disabled": 0, "fusion_lat": 0.0, "lat": 38.875719, "bike_id": "34e9c0c111b2c8d759373933cc09f5dc", "fusion_lon": 0.0}, {"rental_uris": {"ios": "https://dc.lft.to/lastmile_qr_scan", "android": "https://dc.lft.to/lastmile_qr_scan"}, "type": "electric_bike", "name": "40113ad170b8ae2fe387d1bc325dfd87", "is_reserved": 0, "lon": -77.00208083333334, "is_disabled": 0, "fusion_lat": 0.0, "lat": 38.98850316666667, "bike_id": "40113ad170b8ae2fe387d1bc325dfd87", "fusion_lon": 0.0}, {"rental_uris": {"ios": "https://dc.lft.to/lastmile_qr_scan", "android": "https://dc.lft.to/lastmile_qr_scan"}, "type": "electric_scooter", "name": "749bb53861fdbc652311a838f5fe0fbf", "is_reserved": 0, "lon": -77.04422383333333, "is_disabled": 0, "fusion_lat": 0.0, "lat": 38.897375333333336, "bike_id": "749bb53861fdbc652311a838f5fe0fbf", "fusion_lon": 0.0}, {"rental_uris": {"ios": "https://dc.lft.to/lastmile_qr_scan", "android": "https://dc.lft.to/lastmile_qr_scan"}, "type": "electric_scooter", "name": "8663d2cd2c3ad52d9a3755c34c94808d", "is_reserved": 0, "lon": -77.02299416666666, "is_disabled": 0, "fusion_lat": 0.0, "lat": 38.96130866666667, "bike_id": "8663d2cd2c3ad52d9a3755c34c94808d", "fusion_lon": 0.0}, {"rental_uris": {"ios": "https://dc.lft.to/lastmile_qr_scan", "android": "https://dc.lft.to/lastmile_qr_scan"}, "type": "electric_scooter", "name": "3b87737345b5b2a30ce9197526a32062", "is_reserved": 0, "lon": -77.0333035, "is_disabled": 0, "fusion_lat": 0.0, "lat": 38.90233283333333, "bike_id": "3b87737345b5b2a30ce9197526a32062", "fusion_lon": 0.0}, {"rental_uris": {"ios": "https://dc.lft.to/lastmile_qr_scan", "android": "https://dc.lft.to/lastmile_qr_scan"}, "type": "electric_scooter", "name": "218dd2948a6d30d0a193ee6fb3ac5381", "is_reserved": 0, "lon": -77.03451883333334, "is_disabled": 0, "fusion_lat": 0.0, "lat": 38.90842416666667, "bike_id": "218dd2948a6d30d0a193ee6fb3ac5381", "fusion_lon": 0.0}, {"rental_uris": {"ios": "https://dc.lft.to/lastmile_qr_scan", "android": "https://dc.lft.to/lastmile_qr_scan"}, "type": "electric_scooter", "name": "e168d3ad01d5f87abcf21eadef851036", "is_reserved": 0, "lon": -77.02405583333334, "is_disabled": 0, "fusion_lat": 0.0, "lat": 38.917131499999996, "bike_id": "e168d3ad01d5f87abcf21eadef851036", "fusion_lon": 0.0}, {"rental_uris": {"ios": "https://dc.lft.to/lastmile_qr_scan", "android": "https://dc.lft.to/lastmile_qr_scan"}, "type": "electric_scooter", "name": "a881f82cdb18df06f7543cce57ff84a1", "is_reserved": 0, "lon": -77.033803, "is_disabled": 0, "fusion_lat": 0.0, "lat": 38.9103865, "bike_id": "a881f82cdb18df06f7543cce57ff84a1", "fusion_lon": 0.0}, {"rental_uris": {"ios": "https://dc.lft.to/lastmile_qr_scan", "android": "https://dc.lft.to/lastmile_qr_scan"}, "type": "electric_scooter", "name": "72ca8c0065df4e3e57a636e275653823", "is_reserved": 0, "lon": -76.94870833333333, "is_disabled": 0, "fusion_lat": 0.0, "lat": 38.89493183333333, "bike_id": "72ca8c0065df4e3e57a636e275653823", "fusion_lon": 0.0}, {"rental_uris": {"ios": "https://dc.lft.to/lastmile_qr_scan", "android": "https://dc.lft.to/lastmile_qr_scan"}, "type": "electric_scooter", "name": "0df819ec24181d833473bca53783576d", "is_reserved": 0, "lon": -76.92636066666667, "is_disabled": 0, "fusion_lat": 0.0, "lat": 38.883676333333334, "bike_id": "0df819ec24181d833473bca53783576d", "fusion_lon": 0.0}, {"rental_uris": {"ios": "https://dc.lft.to/lastmile_qr_scan", "android": "https://dc.lft.to/lastmile_qr_scan"}, "type": "electric_scooter", "name": "0c3929e54e1ded2179f12f9c10f74fd9", "is_reserved": 0, "lon": -77.0477625, "is_disabled": 0, "fusion_lat": 0.0, "lat": 38.90854483333333, "bike_id": "0c3929e54e1ded2179f12f9c10f74fd9", "fusion_lon": 0.0}, {"rental_uris": {"ios": "https://dc.lft.to/lastmile_qr_scan", "android": "https://dc.lft.to/lastmile_qr_scan"}, "type": "electric_scooter", "name": "a4b66d9dbe3b4bb9e3a9836c92712fb8", "is_reserved": 0, "lon": -77.05031183333334, "is_disabled": 0, "fusion_lat": 0.0, "lat": 38.896808, "bike_id": "a4b66d9dbe3b4bb9e3a9836c92712fb8", "fusion_lon": 0.0}, {"rental_uris": {"ios": "https://dc.lft.to/lastmile_qr_scan", "android": "https://dc.lft.to/lastmile_qr_scan"}, "type": "electric_scooter", "name": "31306898d9685f843e292523e6cf40c5", "is_reserved": 0, "lon": -77.0363345, "is_disabled": 0, "fusion_lat": 0.0, "lat": 38.903680666666666, "bike_id": "31306898d9685f843e292523e6cf40c5", "fusion_lon": 0.0}, {"rental_uris": {"ios": "https://dc.lft.to/lastmile_qr_scan", "android": "https://dc.lft.to/lastmile_qr_scan"}, "type": "electric_scooter", "name": "36434e39d08bee1b22f8932eab5bd618", "is_reserved": 0, "lon": -76.985434, "is_disabled": 0, "fusion_lat": 0.0, "lat": 38.91291533333333, "bike_id": "36434e39d08bee1b22f8932eab5bd618", "fusion_lon": 0.0}, {"rental_uris": {"ios": "https://dc.lft.to/lastmile_qr_scan", "android": "https://dc.lft.to/lastmile_qr_scan"}, "type": "electric_scooter", "name": "ec43f88a461841a99b7be38a29f13c05", "is_reserved": 0, "lon": -77.00584433333333, "is_disabled": 0, "fusion_lat": 0.0, "lat": 38.87580483333333, "bike_id": "ec43f88a461841a99b7be38a29f13c05", "fusion_lon": 0.0}, {"rental_uris": {"ios": "https://dc.lft.to/lastmile_qr_scan", "android": "https://dc.lft.to/lastmile_qr_scan"}, "type": "electric_scooter", "name": "e7b8f7dc7db9891320e4f35eed4ae0cd", "is_reserved": 0, "lon": -77.04562716666666, "is_disabled": 0, "fusion_lat": 0.0, "lat": 38.91332516666667, "bike_id": "e7b8f7dc7db9891320e4f35eed4ae0cd", "fusion_lon": 0.0}, {"rental_uris": {"ios": "https://dc.lft.to/lastmile_qr_scan", "android": "https://dc.lft.to/lastmile_qr_scan"}, "type": "electric_scooter", "name": "ae98e291480bdbc67d4b67b4fe0215b6", "is_reserved": 0, "lon": -77.02763016666667, "is_disabled": 0, "fusion_lat": 0.0, "lat": 38.95779983333333, "bike_id": "ae98e291480bdbc67d4b67b4fe0215b6", "fusion_lon": 0.0}, {"rental_uris": {"ios": "https://dc.lft.to/lastmile_qr_scan", "android": "https://dc.lft.to/lastmile_qr_scan"}, "type": "electric_scooter", "name": "f9beaf7b4d25f2b311685b0e86039584", "is_reserved": 0, "lon": -77.033252, "is_disabled": 0, "fusion_lat": 0.0, "lat": 38.887708, "bike_id": "f9beaf7b4d25f2b311685b0e86039584", "fusion_lon": 0.0}, {"rental_uris": {"ios": "https://dc.lft.to/lastmile_qr_scan", "android": "https://dc.lft.to/lastmile_qr_scan"}, "type": "electric_scooter", "name": "0a4a6fab19398a2bd5ee3bea26aef534", "is_reserved": 0, "lon": -77.02302566666667, "is_disabled": 0, "fusion_lat": 0.0, "lat": 38.918354666666666, "bike_id": "0a4a6fab19398a2bd5ee3bea26aef534", "fusion_lon": 0.0}, {"rental_uris": {"ios": "https://dc.lft.to/lastmile_qr_scan", "android": "https://dc.lft.to/lastmile_qr_scan"}, "type": "electric_scooter", "name": "8fcf0f25f4a0facef5730e522a327250", "is_reserved": 0, "lon": -77.04167983333333, "is_disabled": 0, "fusion_lat": 0.0, "lat": 38.901567666666665, "bike_id": "8fcf0f25f4a0facef5730e522a327250", "fusion_lon": 0.0}, {"rental_uris": {"ios": "https://dc.lft.to/lastmile_qr_scan", "android": "https://dc.lft.to/lastmile_qr_scan"}, "type": "electric_scooter", "name": "6d8ff4b0d0ad84dc0887ea17eff0f5c0", "is_reserved": 0, "lon": -76.98889183333333, "is_disabled": 0, "fusion_lat": 0.0, "lat": 38.8995385, "bike_id": "6d8ff4b0d0ad84dc0887ea17eff0f5c0", "fusion_lon": 0.0}, {"rental_uris": {"ios": "https://dc.lft.to/lastmile_qr_scan", "android": "https://dc.lft.to/lastmile_qr_scan"}, "type": "electric_scooter", "name": "1b463b026c5d74a3568cc870c3e229ce", "is_reserved": 0, "lon": -77.04482833333333, "is_disabled": 0, "fusion_lat": 0.0, "lat": 38.89224, "bike_id": "1b463b026c5d74a3568cc870c3e229ce", "fusion_lon": 0.0}, {"rental_uris": {"ios": "https://dc.lft.to/lastmile_qr_scan", "android": "https://dc.lft.to/lastmile_qr_scan"}, "type": "electric_scooter", "name": "eb3cc8a684ee99a6d77501e4048286c3", "is_reserved": 0, "lon": -77.04354116666667, "is_disabled": 0, "fusion_lat": 0.0, "lat": 38.92169033333333, "bike_id": "eb3cc8a684ee99a6d77501e4048286c3", "fusion_lon": 0.0}, {"rental_uris": {"ios": "https://dc.lft.to/lastmile_qr_scan", "android": "https://dc.lft.to/lastmile_qr_scan"}, "type": "electric_scooter", "name": "60bb6bac244f0a3d1d3c99683894d695", "is_reserved": 0, "lon": -77.071209, "is_disabled": 0, "fusion_lat": 0.0, "lat": 38.905817, "bike_id": "60bb6bac244f0a3d1d3c99683894d695", "fusion_lon": 0.0}, {"rental_uris": {"ios": "https://dc.lft.to/lastmile_qr_scan", "android": "https://dc.lft.to/lastmile_qr_scan"}, "type": "electric_scooter", "name": "1c205245022fc15c0bffdfc9393999b7", "is_reserved": 0, "lon": -76.99101, "is_disabled": 0, "fusion_lat": 0.0, "lat": 38.857271, "bike_id": "1c205245022fc15c0bffdfc9393999b7", "fusion_lon": 0.0}, {"rental_uris": {"ios": "https://dc.lft.to/lastmile_qr_scan", "android": "https://dc.lft.to/lastmile_qr_scan"}, "type": "electric_scooter", "name": "5f04732e386fe44942e43c6a1cd92d93", "is_reserved": 0, "lon": -77.013292, "is_disabled": 0, "fusion_lat": 0.0, "lat": 38.920304, "bike_id": "5f04732e386fe44942e43c6a1cd92d93", "fusion_lon": 0.0}, {"rental_uris": {"ios": "https://dc.lft.to/lastmile_qr_scan", "android": "https://dc.lft.to/lastmile_qr_scan"}, "type": "electric_scooter", "name": "8adf927d3f946d1a0d87d31f60cda445", "is_reserved": 0, "lon": -77.01557783333334, "is_disabled": 0, "fusion_lat": 0.0, "lat": 38.90267033333333, "bike_id": "8adf927d3f946d1a0d87d31f60cda445", "fusion_lon": 0.0}, {"rental_uris": {"ios": "https://dc.lft.to/lastmile_qr_scan", "android": "https://dc.lft.to/lastmile_qr_scan"}, "type": "electric_scooter", "name": "bedc5dfe6c15d9d3870793e1529ac353", "is_reserved": 0, "lon": -77.04506066666667, "is_disabled": 0, "fusion_lat": 0.0, "lat": 38.892314, "bike_id": "bedc5dfe6c15d9d3870793e1529ac353", "fusion_lon": 0.0}, {"rental_uris": {"ios": "https://dc.lft.to/lastmile_qr_scan", "android": "https://dc.lft.to/lastmile_qr_scan"}, "type": "electric_scooter", "name": "0fef5afea3d6270d24ae87c68c528f86", "is_reserved": 0, "lon": -76.994797, "is_disabled": 0, "fusion_lat": 0.0, "lat": 38.86214066666667, "bike_id": "0fef5afea3d6270d24ae87c68c528f86", "fusion_lon": 0.0}, {"rental_uris": {"ios": "https://dc.lft.to/lastmile_qr_scan", "android": "https://dc.lft.to/lastmile_qr_scan"}, "type": "electric_scooter", "name": "e2ac36cfb719af26e80ff250c9c21d34", "is_reserved": 0, "lon": -77.03337866666666, "is_disabled": 0, "fusion_lat": 0.0, "lat": 38.9141845, "bike_id": "e2ac36cfb719af26e80ff250c9c21d34", "fusion_lon": 0.0}, {"rental_uris": {"ios": "https://dc.lft.to/lastmile_qr_scan", "android": "https://dc.lft.to/lastmile_qr_scan"}, "type": "electric_scooter", "name": "cb307f215baa028f1efc6c8ee94470ba", "is_reserved": 0, "lon": -77.06108716666667, "is_disabled": 0, "fusion_lat": 0.0, "lat": 38.9370925, "bike_id": "cb307f215baa028f1efc6c8ee94470ba", "fusion_lon": 0.0}, {"rental_uris": {"ios": "https://dc.lft.to/lastmile_qr_scan", "android": "https://dc.lft.to/lastmile_qr_scan"}, "type": "electric_scooter", "name": "e318d90a181c5d30d6c96f88df8ad383", "is_reserved": 0, "lon": -77.02688216666667, "is_disabled": 0, "fusion_lat": 0.0, "lat": 38.972447, "bike_id": "e318d90a181c5d30d6c96f88df8ad383", "fusion_lon": 0.0}, {"rental_uris": {"ios": "https://dc.lft.to/lastmile_qr_scan", "android": "https://dc.lft.to/lastmile_qr_scan"}, "type": "electric_scooter", "name": "b77b0e76afc06d1157c290cfd33e8b0a", "is_reserved": 0, "lon": -77.0231905, "is_disabled": 0, "fusion_lat": 0.0, "lat": 38.918332166666666, "bike_id": "b77b0e76afc06d1157c290cfd33e8b0a", "fusion_lon": 0.0}, {"rental_uris": {"ios": "https://dc.lft.to/lastmile_qr_scan", "android": "https://dc.lft.to/lastmile_qr_scan"}, "type": "electric_scooter", "name": "e305624e283aff511cb9be31cac1e451", "is_reserved": 0, "lon": -77.03836416666667, "is_disabled": 0, "fusion_lat": 0.0, "lat": 38.9098245, "bike_id": "e305624e283aff511cb9be31cac1e451", "fusion_lon": 0.0}, {"rental_uris": {"ios": "https://dc.lft.to/lastmile_qr_scan", "android": "https://dc.lft.to/lastmile_qr_scan"}, "type": "electric_scooter", "name": "208eabd12db1e2b1dea40fcb71983346", "is_reserved": 0, "lon": -77.03029533333333, "is_disabled": 0, "fusion_lat": 0.0, "lat": 38.89719933333333, "bike_id": "208eabd12db1e2b1dea40fcb71983346", "fusion_lon": 0.0}, {"rental_uris": {"ios": "https://dc.lft.to/lastmile_qr_scan", "android": "https://dc.lft.to/lastmile_qr_scan"}, "type": "electric_scooter", "name": "2d6f24d0f1e74ad313359b5065e95dc7", "is_reserved": 0, "lon": -77.0443725, "is_disabled": 0, "fusion_lat": 0.0, "lat": 38.91262233333333, "bike_id": "2d6f24d0f1e74ad313359b5065e95dc7", "fusion_lon": 0.0}, {"rental_uris": {"ios": "https://dc.lft.to/lastmile_qr_scan", "android": "https://dc.lft.to/lastmile_qr_scan"}, "type": "electric_scooter", "name": "ac8b31929bc4d336203822219ca041ee", "is_reserved": 0, "lon": -77.0019795, "is_disabled": 0, "fusion_lat": 0.0, "lat": 38.90034033333333, "bike_id": "ac8b31929bc4d336203822219ca041ee", "fusion_lon": 0.0}, {"rental_uris": {"ios": "https://dc.lft.to/lastmile_qr_scan", "android": "https://dc.lft.to/lastmile_qr_scan"}, "type": "electric_scooter", "name": "416c5c0813625a699135b2f3ee323e44", "is_reserved": 0, "lon": -76.9828225, "is_disabled": 0, "fusion_lat": 0.0, "lat": 38.903393, "bike_id": "416c5c0813625a699135b2f3ee323e44", "fusion_lon": 0.0}, {"rental_uris": {"ios": "https://dc.lft.to/lastmile_qr_scan", "android": "https://dc.lft.to/lastmile_qr_scan"}, "type": "electric_scooter", "name": "3ab0e07e7a1b3aaaa230a9d2f07e957e", "is_reserved": 0, "lon": -77.03081816666666, "is_disabled": 0, "fusion_lat": 0.0, "lat": 38.92378383333333, "bike_id": "3ab0e07e7a1b3aaaa230a9d2f07e957e", "fusion_lon": 0.0}, {"rental_uris": {"ios": "https://dc.lft.to/lastmile_qr_scan", "android": "https://dc.lft.to/lastmile_qr_scan"}, "type": "electric_scooter", "name": "526a5721826165e7450b7e769ec3a54a", "is_reserved": 0, "lon": -77.029537, "is_disabled": 0, "fusion_lat": 0.0, "lat": 38.89743883333333, "bike_id": "526a5721826165e7450b7e769ec3a54a", "fusion_lon": 0.0}, {"rental_uris": {"ios": "https://dc.lft.to/lastmile_qr_scan", "android": "https://dc.lft.to/lastmile_qr_scan"}, "type": "electric_scooter", "name": "f352b436b87b15b01c8c2a017967a7c1", "is_reserved": 0, "lon": -77.00215133333333, "is_disabled": 0, "fusion_lat": 0.0, "lat": 38.91458566666667, "bike_id": "f352b436b87b15b01c8c2a017967a7c1", "fusion_lon": 0.0}, {"rental_uris": {"ios": "https://dc.lft.to/lastmile_qr_scan", "android": "https://dc.lft.to/lastmile_qr_scan"}, "type": "electric_bike", "name": "be7e316620e56e5113517737506fcb89", "is_reserved": 0, "lon": -77.0431075, "is_disabled": 0, "fusion_lat": 0.0, "lat": 39.03422116666667, "bike_id": "be7e316620e56e5113517737506fcb89", "fusion_lon": 0.0}, {"rental_uris": {"ios": "https://dc.lft.to/lastmile_qr_scan", "android": "https://dc.lft.to/lastmile_qr_scan"}, "type": "electric_scooter", "name": "1e1dcf281d33bf41e0557b35f596f7a4", "is_reserved": 0, "lon": -77.01787583333333, "is_disabled": 0, "fusion_lat": 0.0, "lat": 38.900742666666666, "bike_id": "1e1dcf281d33bf41e0557b35f596f7a4", "fusion_lon": 0.0}, {"rental_uris": {"ios": "https://dc.lft.to/lastmile_qr_scan", "android": "https://dc.lft.to/lastmile_qr_scan"}, "type": "electric_scooter", "name": "1f0e582fc3db752419b990ee5ece6e67", "is_reserved": 0, "lon": -76.993497, "is_disabled": 0, "fusion_lat": 0.0, "lat": 38.876888666666666, "bike_id": "1f0e582fc3db752419b990ee5ece6e67", "fusion_lon": 0.0}, {"rental_uris": {"ios": "https://dc.lft.to/lastmile_qr_scan", "android": "https://dc.lft.to/lastmile_qr_scan"}, "type": "electric_scooter", "name": "20e5e740b6a21a0125c3a09a538f4c0e", "is_reserved": 0, "lon": -76.98108783333333, "is_disabled": 0, "fusion_lat": 0.0, "lat": 38.902365833333334, "bike_id": "20e5e740b6a21a0125c3a09a538f4c0e", "fusion_lon": 0.0}, {"rental_uris": {"ios": "https://dc.lft.to/lastmile_qr_scan", "android": "https://dc.lft.to/lastmile_qr_scan"}, "type": "electric_scooter", "name": "190cb3fe3945135d468409db3a61c04b", "is_reserved": 0, "lon": -77.03215033333333, "is_disabled": 0, "fusion_lat": 0.0, "lat": 38.907086, "bike_id": "190cb3fe3945135d468409db3a61c04b", "fusion_lon": 0.0}, {"rental_uris": {"ios": "https://dc.lft.to/lastmile_qr_scan", "android": "https://dc.lft.to/lastmile_qr_scan"}, "type": "electric_bike", "name": "707fb35ab4748506165ee3cbc68b4d21", "is_reserved": 0, "lon": -77.11355383333333, "is_disabled": 0, "fusion_lat": 0.0, "lat": 38.84195916666667, "bike_id": "707fb35ab4748506165ee3cbc68b4d21", "fusion_lon": 0.0}, {"rental_uris": {"ios": "https://dc.lft.to/lastmile_qr_scan", "android": "https://dc.lft.to/lastmile_qr_scan"}, "type": "electric_scooter", "name": "d50da3fea3b7467f503c77ed4b87c8b8", "is_reserved": 0, "lon": -77.00094983333334, "is_disabled": 0, "fusion_lat": 0.0, "lat": 38.90850283333333, "bike_id": "d50da3fea3b7467f503c77ed4b87c8b8", "fusion_lon": 0.0}, {"rental_uris": {"ios": "https://dc.lft.to/lastmile_qr_scan", "android": "https://dc.lft.to/lastmile_qr_scan"}, "type": "electric_scooter", "name": "760a87f880563c7fdcc8a8614fdb1eb4", "is_reserved": 0, "lon": -77.00525016666667, "is_disabled": 0, "fusion_lat": 0.0, "lat": 38.879158833333335, "bike_id": "760a87f880563c7fdcc8a8614fdb1eb4", "fusion_lon": 0.0}, {"rental_uris": {"ios": "https://dc.lft.to/lastmile_qr_scan", "android": "https://dc.lft.to/lastmile_qr_scan"}, "type": "electric_scooter", "name": "2f2c776dc39b639e7101e342a8b50531", "is_reserved": 0, "lon": -77.0328365, "is_disabled": 0, "fusion_lat": 0.0, "lat": 38.932561, "bike_id": "2f2c776dc39b639e7101e342a8b50531", "fusion_lon": 0.0}, {"rental_uris": {"ios": "https://dc.lft.to/lastmile_qr_scan", "android": "https://dc.lft.to/lastmile_qr_scan"}, "type": "electric_scooter", "name": "f545f990a3e07d9896451788df5ce424", "is_reserved": 0, "lon": -77.04508683333333, "is_disabled": 0, "fusion_lat": 0.0, "lat": 38.908046, "bike_id": "f545f990a3e07d9896451788df5ce424", "fusion_lon": 0.0}, {"rental_uris": {"ios": "https://dc.lft.to/lastmile_qr_scan", "android": "https://dc.lft.to/lastmile_qr_scan"}, "type": "electric_scooter", "name": "2fe9c0d28a797002190e419a0a591b2e", "is_reserved": 0, "lon": -76.97372133333333, "is_disabled": 0, "fusion_lat": 0.0, "lat": 38.850000333333334, "bike_id": "2fe9c0d28a797002190e419a0a591b2e", "fusion_lon": 0.0}, {"rental_uris": {"ios": "https://dc.lft.to/lastmile_qr_scan", "android": "https://dc.lft.to/lastmile_qr_scan"}, "type": "electric_scooter", "name": "52d39801f33d8c82ec3667370cd39030", "is_reserved": 0, "lon": -77.03645516666667, "is_disabled": 0, "fusion_lat": 0.0, "lat": 38.9182925, "bike_id": "52d39801f33d8c82ec3667370cd39030", "fusion_lon": 0.0}, {"rental_uris": {"ios": "https://dc.lft.to/lastmile_qr_scan", "android": "https://dc.lft.to/lastmile_qr_scan"}, "type": "electric_scooter", "name": "1cdec2e02839bc78f99adee29474c25c", "is_reserved": 0, "lon": -77.01024333333334, "is_disabled": 0, "fusion_lat": 0.0, "lat": 38.9065675, "bike_id": "1cdec2e02839bc78f99adee29474c25c", "fusion_lon": 0.0}, {"rental_uris": {"ios": "https://dc.lft.to/lastmile_qr_scan", "android": "https://dc.lft.to/lastmile_qr_scan"}, "type": "electric_scooter", "name": "8e555e7557ee2fc8335dd0ea51c8f9b5", "is_reserved": 0, "lon": -77.074544, "is_disabled": 0, "fusion_lat": 0.0, "lat": 38.93783283333333, "bike_id": "8e555e7557ee2fc8335dd0ea51c8f9b5", "fusion_lon": 0.0}, {"rental_uris": {"ios": "https://dc.lft.to/lastmile_qr_scan", "android": "https://dc.lft.to/lastmile_qr_scan"}, "type": "electric_scooter", "name": "7780ca4ca77b4f3e9dd6c681924b16b6", "is_reserved": 0, "lon": -77.011174, "is_disabled": 0, "fusion_lat": 0.0, "lat": 38.900152, "bike_id": "7780ca4ca77b4f3e9dd6c681924b16b6", "fusion_lon": 0.0}, {"rental_uris": {"ios": "https://dc.lft.to/lastmile_qr_scan", "android": "https://dc.lft.to/lastmile_qr_scan"}, "type": "electric_scooter", "name": "cc872ace371b1e9215e9fc99714faa05", "is_reserved": 0, "lon": -77.02819583333333, "is_disabled": 0, "fusion_lat": 0.0, "lat": 38.90934933333333, "bike_id": "cc872ace371b1e9215e9fc99714faa05", "fusion_lon": 0.0}, {"rental_uris": {"ios": "https://dc.lft.to/lastmile_qr_scan", "android": "https://dc.lft.to/lastmile_qr_scan"}, "type": "electric_scooter", "name": "b73fa448ec2f06b98d911a0a1370bb1c", "is_reserved": 0, "lon": -77.04363616666667, "is_disabled": 0, "fusion_lat": 0.0, "lat": 38.90812733333333, "bike_id": "b73fa448ec2f06b98d911a0a1370bb1c", "fusion_lon": 0.0}, {"rental_uris": {"ios": "https://dc.lft.to/lastmile_qr_scan", "android": "https://dc.lft.to/lastmile_qr_scan"}, "type": "electric_scooter", "name": "0eb47c93ac9bb86b3d275ce23fca9d9f", "is_reserved": 0, "lon": -77.02759233333333, "is_disabled": 0, "fusion_lat": 0.0, "lat": 38.9049, "bike_id": "0eb47c93ac9bb86b3d275ce23fca9d9f", "fusion_lon": 0.0}, {"rental_uris": {"ios": "https://dc.lft.to/lastmile_qr_scan", "android": "https://dc.lft.to/lastmile_qr_scan"}, "type": "electric_scooter", "name": "409661b4f920ddb8c01466bd39c8bc84", "is_reserved": 0, "lon": -77.01157566666667, "is_disabled": 0, "fusion_lat": 0.0, "lat": 38.91101833333333, "bike_id": "409661b4f920ddb8c01466bd39c8bc84", "fusion_lon": 0.0}, {"rental_uris": {"ios": "https://dc.lft.to/lastmile_qr_scan", "android": "https://dc.lft.to/lastmile_qr_scan"}, "type": "electric_scooter", "name": "2c1eeec015f76ea9cf3d9d3cae85de1b", "is_reserved": 0, "lon": -77.07822533333334, "is_disabled": 0, "fusion_lat": 0.0, "lat": 38.92258866666667, "bike_id": "2c1eeec015f76ea9cf3d9d3cae85de1b", "fusion_lon": 0.0}, {"rental_uris": {"ios": "https://dc.lft.to/lastmile_qr_scan", "android": "https://dc.lft.to/lastmile_qr_scan"}, "type": "electric_scooter", "name": "93362d4e088dd0d22737473e793c8233", "is_reserved": 0, "lon": -77.0015785, "is_disabled": 0, "fusion_lat": 0.0, "lat": 38.87500583333333, "bike_id": "93362d4e088dd0d22737473e793c8233", "fusion_lon": 0.0}, {"rental_uris": {"ios": "https://dc.lft.to/lastmile_qr_scan", "android": "https://dc.lft.to/lastmile_qr_scan"}, "type": "electric_scooter", "name": "4ddcc53175b7d93644fad8b744a8d943", "is_reserved": 0, "lon": -77.02686016666667, "is_disabled": 0, "fusion_lat": 0.0, "lat": 38.901041, "bike_id": "4ddcc53175b7d93644fad8b744a8d943", "fusion_lon": 0.0}, {"rental_uris": {"ios": "https://dc.lft.to/lastmile_qr_scan", "android": "https://dc.lft.to/lastmile_qr_scan"}, "type": "electric_bike", "name": "5260bddf38b4c6770d08b584fd74dd9f", "is_reserved": 0, "lon": -77.08982966666666, "is_disabled": 0, "fusion_lat": 0.0, "lat": 38.911766, "bike_id": "5260bddf38b4c6770d08b584fd74dd9f", "fusion_lon": 0.0}, {"rental_uris": {"ios": "https://dc.lft.to/lastmile_qr_scan", "android": "https://dc.lft.to/lastmile_qr_scan"}, "type": "electric_scooter", "name": "55e889401158833e315c358834fe2558", "is_reserved": 0, "lon": -77.011933, "is_disabled": 0, "fusion_lat": 0.0, "lat": 38.900316, "bike_id": "55e889401158833e315c358834fe2558", "fusion_lon": 0.0}, {"rental_uris": {"ios": "https://dc.lft.to/lastmile_qr_scan", "android": "https://dc.lft.to/lastmile_qr_scan"}, "type": "electric_scooter", "name": "2b3b4df3ab8b657867fd86b516492e50", "is_reserved": 0, "lon": -77.00690766666666, "is_disabled": 0, "fusion_lat": 0.0, "lat": 38.900157, "bike_id": "2b3b4df3ab8b657867fd86b516492e50", "fusion_lon": 0.0}, {"rental_uris": {"ios": "https://dc.lft.to/lastmile_qr_scan", "android": "https://dc.lft.to/lastmile_qr_scan"}, "type": "electric_scooter", "name": "a00b692c0df4302eb183bdda18759ed0", "is_reserved": 0, "lon": -77.03954233333333, "is_disabled": 0, "fusion_lat": 0.0, "lat": 38.898244, "bike_id": "a00b692c0df4302eb183bdda18759ed0", "fusion_lon": 0.0}, {"rental_uris": {"ios": "https://dc.lft.to/lastmile_qr_scan", "android": "https://dc.lft.to/lastmile_qr_scan"}, "type": "electric_scooter", "name": "8ed46cff02244487e95ad7d99e976bdf", "is_reserved": 0, "lon": -77.038401, "is_disabled": 0, "fusion_lat": 0.0, "lat": 38.90775683333333, "bike_id": "8ed46cff02244487e95ad7d99e976bdf", "fusion_lon": 0.0}, {"rental_uris": {"ios": "https://dc.lft.to/lastmile_qr_scan", "android": "https://dc.lft.to/lastmile_qr_scan"}, "type": "electric_scooter", "name": "770938f5d75c116d1ed4eb840df91c09", "is_reserved": 0, "lon": -77.0249095, "is_disabled": 0, "fusion_lat": 0.0, "lat": 38.9016915, "bike_id": "770938f5d75c116d1ed4eb840df91c09", "fusion_lon": 0.0}, {"rental_uris": {"ios": "https://dc.lft.to/lastmile_qr_scan", "android": "https://dc.lft.to/lastmile_qr_scan"}, "type": "electric_scooter", "name": "466389f5af808a5a5e3b574f45375cd0", "is_reserved": 0, "lon": -77.048034, "is_disabled": 0, "fusion_lat": 0.0, "lat": 38.8922205, "bike_id": "466389f5af808a5a5e3b574f45375cd0", "fusion_lon": 0.0}, {"rental_uris": {"ios": "https://dc.lft.to/lastmile_qr_scan", "android": "https://dc.lft.to/lastmile_qr_scan"}, "type": "electric_scooter", "name": "4533b4b304f3b018f12a7ee27d97e66d", "is_reserved": 0, "lon": -77.0198815, "is_disabled": 0, "fusion_lat": 0.0, "lat": 38.93072816666667, "bike_id": "4533b4b304f3b018f12a7ee27d97e66d", "fusion_lon": 0.0}, {"rental_uris": {"ios": "https://dc.lft.to/lastmile_qr_scan", "android": "https://dc.lft.to/lastmile_qr_scan"}, "type": "electric_scooter", "name": "6ae107f18341c69b629392c116b96603", "is_reserved": 0, "lon": -77.02395066666666, "is_disabled": 0, "fusion_lat": 0.0, "lat": 38.925999, "bike_id": "6ae107f18341c69b629392c116b96603", "fusion_lon": 0.0}, {"rental_uris": {"ios": "https://dc.lft.to/lastmile_qr_scan", "android": "https://dc.lft.to/lastmile_qr_scan"}, "type": "electric_scooter", "name": "c782e5c69f83877c6305b54262b34baf", "is_reserved": 0, "lon": -76.98698366666666, "is_disabled": 0, "fusion_lat": 0.0, "lat": 38.91292383333333, "bike_id": "c782e5c69f83877c6305b54262b34baf", "fusion_lon": 0.0}, {"rental_uris": {"ios": "https://dc.lft.to/lastmile_qr_scan", "android": "https://dc.lft.to/lastmile_qr_scan"}, "type": "electric_scooter", "name": "3dbb0d5f2d77603953b4b460271b27fc", "is_reserved": 0, "lon": -77.0028545, "is_disabled": 0, "fusion_lat": 0.0, "lat": 38.901361, "bike_id": "3dbb0d5f2d77603953b4b460271b27fc", "fusion_lon": 0.0}, {"rental_uris": {"ios": "https://dc.lft.to/lastmile_qr_scan", "android": "https://dc.lft.to/lastmile_qr_scan"}, "type": "electric_scooter", "name": "63ec316423135a6ba5241958ee2eac39", "is_reserved": 0, "lon": -77.0668975, "is_disabled": 0, "fusion_lat": 0.0, "lat": 38.9096915, "bike_id": "63ec316423135a6ba5241958ee2eac39", "fusion_lon": 0.0}, {"rental_uris": {"ios": "https://dc.lft.to/lastmile_qr_scan", "android": "https://dc.lft.to/lastmile_qr_scan"}, "type": "electric_scooter", "name": "adcf5ed300ac8991a02f55745b44b578", "is_reserved": 0, "lon": -77.00164816666667, "is_disabled": 0, "fusion_lat": 0.0, "lat": 38.87396366666667, "bike_id": "adcf5ed300ac8991a02f55745b44b578", "fusion_lon": 0.0}, {"rental_uris": {"ios": "https://dc.lft.to/lastmile_qr_scan", "android": "https://dc.lft.to/lastmile_qr_scan"}, "type": "electric_scooter", "name": "44fe5e59e04cfe5eee1b6da1ac6d6457", "is_reserved": 0, "lon": -77.01638633333333, "is_disabled": 0, "fusion_lat": 0.0, "lat": 38.92940466666667, "bike_id": "44fe5e59e04cfe5eee1b6da1ac6d6457", "fusion_lon": 0.0}, {"rental_uris": {"ios": "https://dc.lft.to/lastmile_qr_scan", "android": "https://dc.lft.to/lastmile_qr_scan"}, "type": "electric_scooter", "name": "1bb4e8d4562ba53f686b583c9ff94d1e", "is_reserved": 0, "lon": -77.0292105, "is_disabled": 0, "fusion_lat": 0.0, "lat": 38.9345525, "bike_id": "1bb4e8d4562ba53f686b583c9ff94d1e", "fusion_lon": 0.0}, {"rental_uris": {"ios": "https://dc.lft.to/lastmile_qr_scan", "android": "https://dc.lft.to/lastmile_qr_scan"}, "type": "electric_scooter", "name": "b9ae332813950719ce39da8193aa9a0c", "is_reserved": 0, "lon": -77.0363655, "is_disabled": 0, "fusion_lat": 0.0, "lat": 38.906204333333335, "bike_id": "b9ae332813950719ce39da8193aa9a0c", "fusion_lon": 0.0}, {"rental_uris": {"ios": "https://dc.lft.to/lastmile_qr_scan", "android": "https://dc.lft.to/lastmile_qr_scan"}, "type": "electric_scooter", "name": "b651e206a243b1f3b1572eb9f0359fb2", "is_reserved": 0, "lon": -77.03350183333333, "is_disabled": 0, "fusion_lat": 0.0, "lat": 38.897379, "bike_id": "b651e206a243b1f3b1572eb9f0359fb2", "fusion_lon": 0.0}, {"rental_uris": {"ios": "https://dc.lft.to/lastmile_qr_scan", "android": "https://dc.lft.to/lastmile_qr_scan"}, "type": "electric_scooter", "name": "9f925e82cc7a2e6845d0ac5ebe3b3734", "is_reserved": 0, "lon": -77.0354845, "is_disabled": 0, "fusion_lat": 0.0, "lat": 38.9038485, "bike_id": "9f925e82cc7a2e6845d0ac5ebe3b3734", "fusion_lon": 0.0}, {"rental_uris": {"ios": "https://dc.lft.to/lastmile_qr_scan", "android": "https://dc.lft.to/lastmile_qr_scan"}, "type": "electric_scooter", "name": "a834331c19001e1e1de6e92cccd83e9b", "is_reserved": 0, "lon": -77.01756233333333, "is_disabled": 0, "fusion_lat": 0.0, "lat": 38.87690816666667, "bike_id": "a834331c19001e1e1de6e92cccd83e9b", "fusion_lon": 0.0}, {"rental_uris": {"ios": "https://dc.lft.to/lastmile_qr_scan", "android": "https://dc.lft.to/lastmile_qr_scan"}, "type": "electric_scooter", "name": "8796be2e17e44952e93ab418b28200a4", "is_reserved": 0, "lon": -77.027933, "is_disabled": 0, "fusion_lat": 0.0, "lat": 38.956084, "bike_id": "8796be2e17e44952e93ab418b28200a4", "fusion_lon": 0.0}, {"rental_uris": {"ios": "https://dc.lft.to/lastmile_qr_scan", "android": "https://dc.lft.to/lastmile_qr_scan"}, "type": "electric_scooter", "name": "d0b196acb1f78a3c21125440057f11f1", "is_reserved": 0, "lon": -77.036596, "is_disabled": 0, "fusion_lat": 0.0, "lat": 38.92284333333333, "bike_id": "d0b196acb1f78a3c21125440057f11f1", "fusion_lon": 0.0}, {"rental_uris": {"ios": "https://dc.lft.to/lastmile_qr_scan", "android": "https://dc.lft.to/lastmile_qr_scan"}, "type": "electric_scooter", "name": "9cc5f0d5f4b4ab421b3016a63d0ef08b", "is_reserved": 0, "lon": -77.02905066666666, "is_disabled": 0, "fusion_lat": 0.0, "lat": 38.94042816666666, "bike_id": "9cc5f0d5f4b4ab421b3016a63d0ef08b", "fusion_lon": 0.0}, {"rental_uris": {"ios": "https://dc.lft.to/lastmile_qr_scan", "android": "https://dc.lft.to/lastmile_qr_scan"}, "type": "electric_scooter", "name": "ff318e1b13d78bacf0ccdc67843755d2", "is_reserved": 0, "lon": -77.02179766666667, "is_disabled": 0, "fusion_lat": 0.0, "lat": 38.894859333333336, "bike_id": "ff318e1b13d78bacf0ccdc67843755d2", "fusion_lon": 0.0}, {"rental_uris": {"ios": "https://dc.lft.to/lastmile_qr_scan", "android": "https://dc.lft.to/lastmile_qr_scan"}, "type": "electric_scooter", "name": "c853891fc812fce1d414957cc32b64c3", "is_reserved": 0, "lon": -77.03534633333334, "is_disabled": 0, "fusion_lat": 0.0, "lat": 38.923855333333336, "bike_id": "c853891fc812fce1d414957cc32b64c3", "fusion_lon": 0.0}, {"rental_uris": {"ios": "https://dc.lft.to/lastmile_qr_scan", "android": "https://dc.lft.to/lastmile_qr_scan"}, "type": "electric_scooter", "name": "349477cc98b82ce2ec65f6c0dee1ace0", "is_reserved": 0, "lon": -76.97045, "is_disabled": 0, "fusion_lat": 0.0, "lat": 38.873233666666664, "bike_id": "349477cc98b82ce2ec65f6c0dee1ace0", "fusion_lon": 0.0}, {"rental_uris": {"ios": "https://dc.lft.to/lastmile_qr_scan", "android": "https://dc.lft.to/lastmile_qr_scan"}, "type": "electric_scooter", "name": "a0089c8d7346b969476005c54f89c1b9", "is_reserved": 0, "lon": -77.03245116666666, "is_disabled": 0, "fusion_lat": 0.0, "lat": 38.910402166666664, "bike_id": "a0089c8d7346b969476005c54f89c1b9", "fusion_lon": 0.0}, {"rental_uris": {"ios": "https://dc.lft.to/lastmile_qr_scan", "android": "https://dc.lft.to/lastmile_qr_scan"}, "type": "electric_scooter", "name": "7f5c8bfab64462277c0746080e5fc481", "is_reserved": 0, "lon": -77.0206005, "is_disabled": 0, "fusion_lat": 0.0, "lat": 38.908514333333336, "bike_id": "7f5c8bfab64462277c0746080e5fc481", "fusion_lon": 0.0}, {"rental_uris": {"ios": "https://dc.lft.to/lastmile_qr_scan", "android": "https://dc.lft.to/lastmile_qr_scan"}, "type": "electric_scooter", "name": "ed9f69a1d28c39560fe14af381408509", "is_reserved": 0, "lon": -77.00878783333333, "is_disabled": 0, "fusion_lat": 0.0, "lat": 38.915482, "bike_id": "ed9f69a1d28c39560fe14af381408509", "fusion_lon": 0.0}, {"rental_uris": {"ios": "https://dc.lft.to/lastmile_qr_scan", "android": "https://dc.lft.to/lastmile_qr_scan"}, "type": "electric_scooter", "name": "a9ed922ccbffbd6c1708aa5826328e01", "is_reserved": 0, "lon": -77.0187395, "is_disabled": 0, "fusion_lat": 0.0, "lat": 38.930478666666666, "bike_id": "a9ed922ccbffbd6c1708aa5826328e01", "fusion_lon": 0.0}, {"rental_uris": {"ios": "https://dc.lft.to/lastmile_qr_scan", "android": "https://dc.lft.to/lastmile_qr_scan"}, "type": "electric_scooter", "name": "b7abbf1f2f2b7445e5fe7f6caafd0c1f", "is_reserved": 0, "lon": -77.03861733333333, "is_disabled": 0, "fusion_lat": 0.0, "lat": 38.908766666666665, "bike_id": "b7abbf1f2f2b7445e5fe7f6caafd0c1f", "fusion_lon": 0.0}, {"rental_uris": {"ios": "https://dc.lft.to/lastmile_qr_scan", "android": "https://dc.lft.to/lastmile_qr_scan"},