{"data": {"bikes": [{"is_disabled": 0, "fusion_lat": 0.0, "lat": 38.9223845, "type": "electric_scooter", "lon": -77.03085983333334, "is_reserved": 0, "fusion_lon": 0.0, "bike_id": "ef5188af3b0b89173b5d9c17c08a9f07", "name": "ef5188af3b0b89173b5d9c17c08a9f07", "rental_uris": {"ios": "https://dc.lft.to/lastmile_qr_scan", "android": "https://dc.lft.to/lastmile_qr_scan"}}, {"is_disabled": 0, "fusion_lat": 0.0, "lat": 38.88449283333333, "type": "electric_scooter", "lon": -76.95097566666666, "is_reserved": 0, "fusion_lon": 0.0, "bike_id": "c1d783aeca647dded266ca30467e1931", "name": "c1d783aeca647dded266ca30467e1931", "rental_uris": {"ios": "https://dc.lft.to/lastmile_qr_scan", "android": "https://dc.lft.to/lastmile_qr_scan"}}, {"is_disabled": 0, "fusion_lat": 0.0, "lat": 38.896791666666665, "type": "electric_scooter", "lon": -76.99624933333334, "is_reserved": 0, "fusion_lon": 0.0, "bike_id": "eb2d8a46b17a2586355a339ceba26bab", "name": "eb2d8a46b17a2586355a339ceba26bab", "rental_uris": {"ios": "https://dc.lft.to/lastmile_qr_scan", "android": "https://dc.lft.to/lastmile_qr_scan"}}, {"is_disabled": 0, "fusion_lat": 0.0, "lat": 38.880451, "type": "electric_scooter", "lon": -76.98630883333334, "is_reserved": 0, "fusion_lon": 0.0, "bike_id": "f045ea763194b80ce844f8ea9c956c7c", "name": "f045ea763194b80ce844f8ea9c956c7c", "rental_uris": {"ios": "https://dc.lft.to/lastmile_qr_scan", "android": "https://dc.lft.to/lastmile_qr_scan"}}, {"is_disabled": 0, "fusion_lat": 0.0, "lat": 38.928619166666664, "type": "electric_scooter", "lon": -77.01385516666667, "is_reserved": 0, "fusion_lon": 0.0, "bike_id": "55864ed32bf4329d577e2d4e922a51dd", "name": "55864ed32bf4329d577e2d4e922a51dd", "rental_uris": {"ios": "https://dc.lft.to/lastmile_qr_scan", "android": "https://dc.lft.to/lastmile_qr_scan"}}, {"is_disabled": 0, "fusion_lat": 0.0, "lat": 38.892227, "type": "electric_scooter", "lon": -77.04198533333333, "is_reserved": 0, "fusion_lon": 0.0, "bike_id": "30c965eaa45163b554bd225c745a4df2", "name": "30c965eaa45163b554bd225c745a4df2", "rental_uris": {"ios": "https://dc.lft.to/lastmile_qr_scan", "android": "https://dc.lft.to/lastmile_qr_scan"}}, {"is_disabled": 0, "fusion_lat": 0.0, "lat": 38.91553716666667, "type": "electric_scooter", "lon": -77.03035616666666, "is_reserved": 0, "fusion_lon": 0.0, "bike_id": "e4821b1ec24c936530ceaf3a6d47a8ee", "name": "e4821b1ec24c936530ceaf3a6d47a8ee", "rental_uris": {"ios": "https://dc.lft.to/lastmile_qr_scan", "android": "https://dc.lft.to/lastmile_qr_scan"}}, {"is_disabled": 0, "fusion_lat": 0.0, "lat": 38.8991455, "type": "electric_scooter", "lon": -76.93383316666667, "is_reserved": 0, "fusion_lon": 0.0, "bike_id": "89a9fe08c56e60e96da3f36573aef5ae", "name": "89a9fe08c56e60e96da3f36573aef5ae", "rental_uris": {"ios": "https://dc.lft.to/lastmile_qr_scan", "android": "https://dc.lft.to/lastmile_qr_scan"}}, {"is_disabled": 0, "fusion_lat": 0.0, "lat": 38.8949975, "type": "electric_scooter", "lon": -77.022862, "is_reserved": 0, "fusion_lon": 0.0, "bike_id": "6898d6cba39298eeb7d3b36e074cac1c", "name": "6898d6cba39298eeb7d3b36e074cac1c", "rental_uris": {"ios": "https://dc.lft.to/lastmile_qr_scan", "android": "https://dc.lft.to/lastmile_qr_scan"}}, {"is_disabled": 0, "fusion_lat": 0.0, "lat": 38.91761283333334, "type": "electric_scooter", "lon": -77.03664116666667, "is_reserved": 0, "fusion_lon": 0.0, "bike_id": "6d4cc8d442d5f654b0128867b9115ec9", "name": "6d4cc8d442d5f654b0128867b9115ec9", "rental_uris": {"ios": "https://dc.lft.to/lastmile_qr_scan", "android": "https://dc.lft.to/lastmile_qr_scan"}}, {"is_disabled": 0, "fusion_lat": 0.0, "lat": 38.87083716666667, "type": "electric_bike", "lon": -77.012056, "is_reserved": 0, "fusion_lon": 0.0, "bike_id": "0b31e68c87eaeeb4bca693a33a7df493", "name": "0b31e68c87eaeeb4bca693a33a7df493", "rental_uris": {"ios": "https://dc.lft.to/lastmile_qr_scan", "android": "https://dc.lft.to/lastmile_qr_scan"}}, {"is_disabled": 0, "fusion_lat": 0.0, "lat": 38.891894, "type": "electric_bike", "lon": -77.12262083333333, "is_reserved": 0, "fusion_lon": 0.0, "bike_id": "2bddd5c79548ba498c0a10b753673c64", "name": "2bddd5c79548ba498c0a10b753673c64", "rental_uris": {"ios": "https://dc.lft.to/lastmile_qr_scan", "android": "https://dc.lft.to/lastmile_qr_scan"}}, {"is_disabled": 0, "fusion_lat": 0.0, "lat": 38.918487666666664, "type": "electric_scooter", "lon": -77.03183983333334, "is_reserved": 0, "fusion_lon": 0.0, "bike_id": "376050f6e89e8446e0ccc46f35eda303", "name": "376050f6e89e8446e0ccc46f35eda303", "rental_uris": {"ios": "https://dc.lft.to/lastmile_qr_scan", "android": "https://dc.lft.to/lastmile_qr_scan"}}, {"is_disabled": 0, "fusion_lat": 0.0, "lat": 38.92115183333333, "type": "electric_scooter", "lon": -77.03178366666667, "is_reserved": 0, "fusion_lon": 0.0, "bike_id": "dbbe2f88dcffa49ab38523ad84e16857", "name": "dbbe2f88dcffa49ab38523ad84e16857", "rental_uris": {"ios": "https://dc.lft.to/lastmile_qr_scan", "android": "https://dc.lft.to/lastmile_qr_scan"}}, {"is_disabled": 0, "fusion_lat": 0.0, "lat": 38.941689333333336, "type": "electric_scooter", "lon": -77.025338, "is_reserved": 0, "fusion_lon": 0.0, "bike_id": "9401a45569e4e71b6c397ffa5eb90fb4", "name": "9401a45569e4e71b6c397ffa5eb90fb4", "rental_uris": {"ios": "https://dc.lft.to/lastmile_qr_scan", "android": "https://dc.lft.to/lastmile_qr_scan"}}, {"is_disabled": 0, "fusion_lat": 0.0, "lat": 38.905014, "type": "electric_scooter", "lon": -77.02507616666666, "is_reserved": 0, "fusion_lon": 0.0, "bike_id": "2599c89418de6a20256d393615ccdb61", "name": "2599c89418de6a20256d393615ccdb61", "rental_uris": {"ios": "https://dc.lft.to/lastmile_qr_scan", "android": "https://dc.lft.to/lastmile_qr_scan"}}, {"is_disabled": 0, "fusion_lat": 0.0, "lat": 38.907179166666666, "type": "electric_scooter", "lon": -76.99795883333333, "is_reserved": 0, "fusion_lon": 0.0, "bike_id": "a1c19790d21b182046bcdca06f24d856", "name": "a1c19790d21b182046bcdca06f24d856", "rental_uris": {"ios": "https://dc.lft.to/lastmile_qr_scan", "android": "https://dc.lft.to/lastmile_qr_scan"}}, {"is_disabled": 0, "fusion_lat": 0.0, "lat": 38.902635333333336, "type": "electric_scooter", "lon": -77.04113183333334, "is_reserved": 0, "fusion_lon": 0.0, "bike_id": "78dbc95b27d987764a874ecabc73e90f", "name": "78dbc95b27d987764a874ecabc73e90f", "rental_uris": {"ios": "https://dc.lft.to/lastmile_qr_scan", "android": "https://dc.lft.to/lastmile_qr_scan"}}, {"is_disabled": 0, "fusion_lat": 0.0, "lat": 38.936033333333334, "type": "electric_scooter", "lon": -77.02331883333333, "is_reserved": 0, "fusion_lon": 0.0, "bike_id": "2c5055506c78ee43b31d8baa3ff7291b", "name": "2c5055506c78ee43b31d8baa3ff7291b", "rental_uris": {"ios": "https://dc.lft.to/lastmile_qr_scan", "android": "https://dc.lft.to/lastmile_qr_scan"}}, {"is_disabled": 0, "fusion_lat": 0.0, "lat": 38.91615516666667, "type": "electric_scooter", "lon": -77.0230365, "is_reserved": 0, "fusion_lon": 0.0, "bike_id": "7b8d4d6d221e6902de485585595f7f37", "name": "7b8d4d6d221e6902de485585595f7f37", "rental_uris": {"ios": "https://dc.lft.to/lastmile_qr_scan", "android": "https://dc.lft.to/lastmile_qr_scan"}}, {"is_disabled": 0, "fusion_lat": 0.0, "lat": 38.924319833333335, "type": "electric_scooter", "lon": -77.042472, "is_reserved": 0, "fusion_lon": 0.0, "bike_id": "c89f195c1c9b2a30b0ed2d1cc20337ea", "name": "c89f195c1c9b2a30b0ed2d1cc20337ea", "rental_uris": {"ios": "https://dc.lft.to/lastmile_qr_scan", "android": "https://dc.lft.to/lastmile_qr_scan"}}, {"is_disabled": 0, "fusion_lat": 0.0, "lat": 38.882893, "type": "electric_scooter", "lon": -76.99145266666666, "is_reserved": 0, "fusion_lon": 0.0, "bike_id": "078277abfdcd64071f93fa4f3031c202", "name": "078277abfdcd64071f93fa4f3031c202", "rental_uris": {"ios": "https://dc.lft.to/lastmile_qr_scan", "android": "https://dc.lft.to/lastmile_qr_scan"}}, {"is_disabled": 0, "fusion_lat": 0.0, "lat": 38.910176666666665, "type": "electric_scooter", "lon": -77.05467583333333, "is_reserved": 0, "fusion_lon": 0.0, "bike_id": "24809ae5815f007791308a9d304244b6", "name": "24809ae5815f007791308a9d304244b6", "rental_uris": {"ios": "https://dc.lft.to/lastmile_qr_scan", "android": "https://dc.lft.to/lastmile_qr_scan"}}, {"is_disabled": 0, "fusion_lat": 0.0, "lat": 38.86616583333333, "type": "electric_bike", "lon": -76.94575483333334, "is_reserved": 0, "fusion_lon": 0.0, "bike_id": "03008ea277a1171aad993b8e1ce2b21a", "name": "03008ea277a1171aad993b8e1ce2b21a", "rental_uris": {"ios": "https://dc.lft.to/lastmile_qr_scan", "android": "https://dc.lft.to/lastmile_qr_scan"}}, {"is_disabled": 0, "fusion_lat": 0.0, "lat": 38.924611666666664, "type": "electric_bike", "lon": -77.20836066666666, "is_reserved": 0, "fusion_lon": 0.0, "bike_id": "d144dce78f0421743bf8ce4779284a7d", "name": "d144dce78f0421743bf8ce4779284a7d", "rental_uris": {"ios": "https://dc.lft.to/lastmile_qr_scan", "android": "https://dc.lft.to/lastmile_qr_scan"}}, {"is_disabled": 0, "fusion_lat": 0.0, "lat": 38.89064066666667, "type": "electric_scooter", "lon": -76.943347, "is_reserved": 0, "fusion_lon": 0.0, "bike_id": "50971cce6e78ecbe26a10225a8e0e789", "name": "50971cce6e78ecbe26a10225a8e0e789", "rental_uris": {"ios": "https://dc.lft.to/lastmile_qr_scan", "android": "https://dc.lft.to/lastmile_qr_scan"}}, {"is_disabled": 0, "fusion_lat": 0.0, "lat": 38.9129965, "type": "electric_scooter", "lon": -77.04351483333333, "is_reserved": 0, "fusion_lon": 0.0, "bike_id": "512620cd371d5ee9a2337f13eadf1fca", "name": "512620cd371d5ee9a2337f13eadf1fca", "rental_uris": {"ios": "https://dc.lft.to/lastmile_qr_scan", "android": "https://dc.lft.to/lastmile_qr_scan"}}, {"is_disabled": 0, "fusion_lat": 0.0, "lat": 38.90770833333333, "type": "electric_scooter", "lon": -77.03824016666667, "is_reserved": 0, "fusion_lon": 0.0, "bike_id": "2b9cdb6bdf7b9768eb9c2b12f8391ad7", "name": "2b9cdb6bdf7b9768eb9c2b12f8391ad7", "rental_uris": {"ios": "https://dc.lft.to/lastmile_qr_scan", "android": "https://dc.lft.to/lastmile_qr_scan"}}, {"is_disabled": 0, "fusion_lat": 0.0, "lat": 38.85806766666666, "type": "electric_scooter", "lon": -76.98653183333333, "is_reserved": 0, "fusion_lon": 0.0, "bike_id": "4c33e85eff6d890183896ff3f4f10492", "name": "4c33e85eff6d890183896ff3f4f10492", "rental_uris": {"ios": "https://dc.lft.to/lastmile_qr_scan", "android": "https://dc.lft.to/lastmile_qr_scan"}}, {"is_disabled": 0, "fusion_lat": 0.0, "lat": 38.887381500000004, "type": "electric_scooter", "lon": -77.01527366666667, "is_reserved": 0, "fusion_lon": 0.0, "bike_id": "e6d10f0a5b2521aa53d17914caca4595", "name": "e6d10f0a5b2521aa53d17914caca4595", "rental_uris": {"ios": "https://dc.lft.to/lastmile_qr_scan", "android": "https://dc.lft.to/lastmile_qr_scan"}}, {"is_disabled": 0, "fusion_lat": 0.0, "lat": 38.94185016666667, "type": "electric_scooter", "lon": -77.02490016666667, "is_reserved": 0, "fusion_lon": 0.0, "bike_id": "3ae2e5bb290f1317d193c641f41535ec", "name": "3ae2e5bb290f1317d193c641f41535ec", "rental_uris": {"ios": "https://dc.lft.to/lastmile_qr_scan", "android": "https://dc.lft.to/lastmile_qr_scan"}}, {"is_disabled": 0, "fusion_lat": 0.0, "lat": 38.905713666666664, "type": "electric_scooter", "lon": -77.02209, "is_reserved": 0, "fusion_lon": 0.0, "bike_id": "91d075f2a4cf8895af3a7e99c1d128e4", "name": "91d075f2a4cf8895af3a7e99c1d128e4", "rental_uris": {"ios": "https://dc.lft.to/lastmile_qr_scan", "android": "https://dc.lft.to/lastmile_qr_scan"}}, {"is_disabled": 0, "fusion_lat": 0.0, "lat": 38.920254, "type": "electric_scooter", "lon": -77.0280815, "is_reserved": 0, "fusion_lon": 0.0, "bike_id": "010ca227003a188c8d07d5a464fede70", "name": "010ca227003a188c8d07d5a464fede70", "rental_uris": {"ios": "https://dc.lft.to/lastmile_qr_scan", "android": "https://dc.lft.to/lastmile_qr_scan"}}, {"is_disabled": 0, "fusion_lat": 0.0, "lat": 38.916816, "type": "electric_scooter", "lon": -77.01208116666666, "is_reserved": 0, "fusion_lon": 0.0, "bike_id": "fe13e0a85f60c1b8b1b238c8927b8cdd", "name": "fe13e0a85f60c1b8b1b238c8927b8cdd", "rental_uris": {"ios": "https://dc.lft.to/lastmile_qr_scan", "android": "https://dc.lft.to/lastmile_qr_scan"}}, {"is_disabled": 0, "fusion_lat": 0.0, "lat": 38.905896166666665, "type": "electric_scooter", "lon": -76.986173, "is_reserved": 0, "fusion_lon": 0.0, "bike_id": "98e6e345eca1f4d77ffb033e0c780a72", "name": "98e6e345eca1f4d77ffb033e0c780a72", "rental_uris": {"ios": "https://dc.lft.to/lastmile_qr_scan", "android": "https://dc.lft.to/lastmile_qr_scan"}}, {"is_disabled": 0, "fusion_lat": 0.0, "lat": 38.9141525, "type": "electric_scooter", "lon": -77.03994066666667, "is_reserved": 0, "fusion_lon": 0.0, "bike_id": "c825e3a6f6fcd778c219adb73bc91438", "name": "c825e3a6f6fcd778c219adb73bc91438", "rental_uris": {"ios": "https://dc.lft.to/lastmile_qr_scan", "android": "https://dc.lft.to/lastmile_qr_scan"}}, {"is_disabled": 0, "fusion_lat": 0.0, "lat": 38.881048166666666, "type": "electric_scooter", "lon": -77.01648783333333, "is_reserved": 0, "fusion_lon": 0.0, "bike_id": "edc617619691b0f5d8c45bea2ec0f433", "name": "edc617619691b0f5d8c45bea2ec0f433", "rental_uris": {"ios": "https://dc.lft.to/lastmile_qr_scan", "android": "https://dc.lft.to/lastmile_qr_scan"}}, {"is_disabled": 0, "fusion_lat": 0.0, "lat": 38.908587833333335, "type": "electric_scooter", "lon": -77.02849733333333, "is_reserved": 0, "fusion_lon": 0.0, "bike_id": "df177870675a6ba69cb3942f1675830f", "name": "df177870675a6ba69cb3942f1675830f", "rental_uris": {"ios": "https://dc.lft.to/lastmile_qr_scan", "android": "https://dc.lft.to/lastmile_qr_scan"}}, {"is_disabled": 0, "fusion_lat": 0.0, "lat": 38.928500166666666, "type": "electric_scooter", "lon": -77.0139335, "is_reserved": 0, "fusion_lon": 0.0, "bike_id": "24dd5a75a2cae99a1d13cdfd715aaa9b", "name": "24dd5a75a2cae99a1d13cdfd715aaa9b", "rental_uris": {"ios": "https://dc.lft.to/lastmile_qr_scan", "android": "https://dc.lft.to/lastmile_qr_scan"}}, {"is_disabled": 0, "fusion_lat": 0.0, "lat": 38.89729766666667, "type": "electric_scooter", "lon": -77.048851, "is_reserved": 0, "fusion_lon": 0.0, "bike_id": "308b88ee0ca6e624498cbbbf0040c02d", "name": "308b88ee0ca6e624498cbbbf0040c02d", "rental_uris": {"ios": "https://dc.lft.to/lastmile_qr_scan", "android": "https://dc.lft.to/lastmile_qr_scan"}}, {"is_disabled": 0, "fusion_lat": 0.0, "lat": 38.911115333333335, "type": "electric_scooter", "lon": -77.04496283333333, "is_reserved": 0, "fusion_lon": 0.0, "bike_id": "f6f8e958c29cd2c6ce2e8e3bde6a495c", "name": "f6f8e958c29cd2c6ce2e8e3bde6a495c", "rental_uris": {"ios": "https://dc.lft.to/lastmile_qr_scan", "android": "https://dc.lft.to/lastmile_qr_scan"}}, {"is_disabled": 0, "fusion_lat": 0.0, "lat": 38.89220733333333, "type": "electric_bike", "lon": -77.1077905, "is_reserved": 0, "fusion_lon": 0.0, "bike_id": "c658ee0d3ad52f8d1c1a1317a123aeaf", "name": "c658ee0d3ad52f8d1c1a1317a123aeaf", "rental_uris": {"ios": "https://dc.lft.to/lastmile_qr_scan", "android": "https://dc.lft.to/lastmile_qr_scan"}}, {"is_disabled": 0, "fusion_lat": 0.0, "lat": 38.909159333333335, "type": "electric_scooter", "lon": -77.0800645, "is_reserved": 0, "fusion_lon": 0.0, "bike_id": "c14f8848de8bd04ca700071d0cbe03a5", "name": "c14f8848de8bd04ca700071d0cbe03a5", "rental_uris": {"ios": "https://dc.lft.to/lastmile_qr_scan", "android": "https://dc.lft.to/lastmile_qr_scan"}}, {"is_disabled": 0, "fusion_lat": 0.0, "lat": 38.90690166666667, "type": "electric_scooter", "lon": -77.0634175, "is_reserved": 0, "fusion_lon": 0.0, "bike_id": "2fd77af8f803fe3052b9cc495681be2c", "name": "2fd77af8f803fe3052b9cc495681be2c", "rental_uris": {"ios": "https://dc.lft.to/lastmile_qr_scan", "android": "https://dc.lft.to/lastmile_qr_scan"}}, {"is_disabled": 0, "fusion_lat": 0.0, "lat": 38.889886833333335, "type": "electric_scooter", "lon": -76.99514266666667, "is_reserved": 0, "fusion_lon": 0.0, "bike_id": "795f8739891eea2dc95aabaf27a3f092", "name": "795f8739891eea2dc95aabaf27a3f092", "rental_uris": {"ios": "https://dc.lft.to/lastmile_qr_scan", "android": "https://dc.lft.to/lastmile_qr_scan"}}, {"is_disabled": 0, "fusion_lat": 0.0, "lat": 38.84427433333333, "type": "electric_scooter", "lon": -76.997781, "is_reserved": 0, "fusion_lon": 0.0, "bike_id": "474e812f59a8d2d7a32f158da46afa3c", "name": "474e812f59a8d2d7a32f158da46afa3c", "rental_uris": {"ios": "https://dc.lft.to/lastmile_qr_scan", "android": "https://dc.lft.to/lastmile_qr_scan"}}, {"is_disabled": 0, "fusion_lat": 0.0, "lat": 38.906377166666665, "type": "electric_scooter", "lon": -77.04663033333334, "is_reserved": 0, "fusion_lon": 0.0, "bike_id": "bb76089b90cb1af9b49f48c6c6eef73e", "name": "bb76089b90cb1af9b49f48c6c6eef73e", "rental_uris": {"ios": "https://dc.lft.to/lastmile_qr_scan", "android": "https://dc.lft.to/lastmile_qr_scan"}}, {"is_disabled": 0, "fusion_lat": 0.0, "lat": 38.915515, "type": "electric_scooter", "lon": -77.04156333333333, "is_reserved": 0, "fusion_lon": 0.0, "bike_id": "c616760dcaefdf94f3fb4aec386099f4", "name": "c616760dcaefdf94f3fb4aec386099f4", "rental_uris": {"ios": "https://dc.lft.to/lastmile_qr_scan", "android": "https://dc.lft.to/lastmile_qr_scan"}}, {"is_disabled": 0, "fusion_lat": 0.0, "lat": 38.90688733333333, "type": "electric_bike", "lon": -76.95185466666666, "is_reserved": 0, "fusion_lon": 0.0, "bike_id": "328bdbf2a9dea77eec16d2921cc67c75", "name": "328bdbf2a9dea77eec16d2921cc67c75", "rental_uris": {"ios": "https://dc.lft.to/lastmile_qr_scan", "android": "https://dc.lft.to/lastmile_qr_scan"}}, {"is_disabled": 0, "fusion_lat": 0.0, "lat": 38.907656, "type": "electric_scooter", "lon": -77.02062683333334, "is_reserved": 0, "fusion_lon": 0.0, "bike_id": "45367af299352cf86b7cfb7d960fd5cc", "name": "45367af299352cf86b7cfb7d960fd5cc", "rental_uris": {"ios": "https://dc.lft.to/lastmile_qr_scan", "android": "https://dc.lft.to/lastmile_qr_scan"}}, {"is_disabled": 0, "fusion_lat": 0.0, "lat": 38.882626, "type": "electric_scooter", "lon": -76.995338, "is_reserved": 0, "fusion_lon": 0.0, "bike_id": "5d04837ce04cd392757de0c3a8d8ee6c", "name": "5d04837ce04cd392757de0c3a8d8ee6c", "rental_uris": {"ios": "https://dc.lft.to/lastmile_qr_scan", "android": "https://dc.lft.to/lastmile_qr_scan"}}, {"is_disabled": 0, "fusion_lat": 0.0, "lat": 38.9156285, "type": "electric_scooter", "lon": -77.03211483333334, "is_reserved": 0, "fusion_lon": 0.0, "bike_id": "606bd9ac8ed5e7e71e10ea24f177fb50", "name": "606bd9ac8ed5e7e71e10ea24f177fb50", "rental_uris": {"ios": "https://dc.lft.to/lastmile_qr_scan", "android": "https://dc.lft.to/lastmile_qr_scan"}}, {"is_disabled": 0, "fusion_lat": 0.0, "lat": 38.86615416666667, "type": "electric_scooter", "lon": -76.98651566666666, "is_reserved": 0, "fusion_lon": 0.0, "bike_id": "d1746944663c8e37a9eca51894131356", "name": "d1746944663c8e37a9eca51894131356", "rental_uris": {"ios": "https://dc.lft.to/lastmile_qr_scan", "android": "https://dc.lft.to/lastmile_qr_scan"}}, {"is_disabled": 0, "fusion_lat": 0.0, "lat": 38.86251933333333, "type": "electric_scooter", "lon": -76.986977, "is_reserved": 0, "fusion_lon": 0.0, "bike_id": "620de6f785dd2d41b6c1cec4d7b578e6", "name": "620de6f785dd2d41b6c1cec4d7b578e6", "rental_uris": {"ios": "https://dc.lft.to/lastmile_qr_scan", "android": "https://dc.lft.to/lastmile_qr_scan"}}, {"is_disabled": 0, "fusion_lat": 0.0, "lat": 38.80228283333334, "type": "electric_bike", "lon": -77.07918916666667, "is_reserved": 0, "fusion_lon": 0.0, "bike_id": "471fa577b1c553109b306a6ba82ae556", "name": "471fa577b1c553109b306a6ba82ae556", "rental_uris": {"ios": "https://dc.lft.to/lastmile_qr_scan", "android": "https://dc.lft.to/lastmile_qr_scan"}}, {"is_disabled": 0, "fusion_lat": 0.0, "lat": 38.9020105, "type": "electric_scooter", "lon": -77.02368283333334, "is_reserved": 0, "fusion_lon": 0.0, "bike_id": "606774f3df8356a264a85650f49e5d27", "name": "606774f3df8356a264a85650f49e5d27", "rental_uris": {"ios": "https://dc.lft.to/lastmile_qr_scan", "android": "https://dc.lft.to/lastmile_qr_scan"}}, {"is_disabled": 0, "fusion_lat": 0.0, "lat": 38.909673833333336, "type": "electric_scooter", "lon": -77.038656, "is_reserved": 0, "fusion_lon": 0.0, "bike_id": "317017aa4d5b6a14b8c0f6d780ba2b2b", "name": "317017aa4d5b6a14b8c0f6d780ba2b2b", "rental_uris": {"ios": "https://dc.lft.to/lastmile_qr_scan", "android": "https://dc.lft.to/lastmile_qr_scan"}}, {"is_disabled": 0, "fusion_lat": 0.0, "lat": 38.923689333333336, "type": "electric_scooter", "lon": -77.05764433333333, "is_reserved": 0, "fusion_lon": 0.0, "bike_id": "2f909d5c4df2594f335d71d7c41cb84e", "name": "2f909d5c4df2594f335d71d7c41cb84e", "rental_uris": {"ios": "https://dc.lft.to/lastmile_qr_scan", "android": "https://dc.lft.to/lastmile_qr_scan"}}, {"is_disabled": 0, "fusion_lat": 0.0, "lat": 38.9039645, "type": "electric_scooter", "lon": -77.06297716666667, "is_reserved": 0, "fusion_lon": 0.0, "bike_id": "aa1bd3d4cce6b7b8e1ca827f6af459d1", "name": "aa1bd3d4cce6b7b8e1ca827f6af459d1", "rental_uris": {"ios": "https://dc.lft.to/lastmile_qr_scan", "android": "https://dc.lft.to/lastmile_qr_scan"}}, {"is_disabled": 0, "fusion_lat": 0.0, "lat": 38.932083, "type": "electric_bike", "lon": -76.974252, "is_reserved": 0, "fusion_lon": 0.0, "bike_id": "e7c6823465e70125ed6593e8d235f13b", "name": "e7c6823465e70125ed6593e8d235f13b", "rental_uris": {"ios": "https://dc.lft.to/lastmile_qr_scan", "android": "https://dc.lft.to/lastmile_qr_scan"}}, {"is_disabled": 0, "fusion_lat": 0.0, "lat": 38.8723065, "type": "electric_scooter", "lon": -77.01767216666667, "is_reserved": 0, "fusion_lon": 0.0, "bike_id": "67bf7a5d8fc66199084e55241dff6854", "name": "67bf7a5d8fc66199084e55241dff6854", "rental_uris": {"ios": "https://dc.lft.to/lastmile_qr_scan", "android": "https://dc.lft.to/lastmile_qr_scan"}}, {"is_disabled": 0, "fusion_lat": 0.0, "lat": 38.86408983333333, "type": "electric_scooter", "lon": -77.01358583333334, "is_reserved": 0, "fusion_lon": 0.0, "bike_id": "f929ed8da33a6f67474a280799fa197a", "name": "f929ed8da33a6f67474a280799fa197a", "rental_uris": {"ios": "https://dc.lft.to/lastmile_qr_scan", "android": "https://dc.lft.to/lastmile_qr_scan"}}, {"is_disabled": 0, "fusion_lat": 0.0, "lat": 38.8947475, "type": "electric_scooter", "lon": -77.02170466666666, "is_reserved": 0, "fusion_lon": 0.0, "bike_id": "31b6fce161129baa273160cf31470b16", "name": "31b6fce161129baa273160cf31470b16", "rental_uris": {"ios": "https://dc.lft.to/lastmile_qr_scan", "android": "https://dc.lft.to/lastmile_qr_scan"}}, {"is_disabled": 0, "fusion_lat": 0.0, "lat": 38.8842905, "type": "electric_scooter", "lon": -77.030509, "is_reserved": 0, "fusion_lon": 0.0, "bike_id": "69fb59987ca3585b2b834b113c190882", "name": "69fb59987ca3585b2b834b113c190882", "rental_uris": {"ios": "https://dc.lft.to/lastmile_qr_scan", "android": "https://dc.lft.to/lastmile_qr_scan"}}, {"is_disabled": 0, "fusion_lat": 0.0, "lat": 38.90173733333334, "type": "electric_scooter", "lon": -76.99997583333334, "is_reserved": 0, "fusion_lon": 0.0, "bike_id": "c6c87516d89f767af6c7bb102c45387e", "name": "c6c87516d89f767af6c7bb102c45387e", "rental_uris": {"ios": "https://dc.lft.to/lastmile_qr_scan", "android": "https://dc.lft.to/lastmile_qr_scan"}}, {"is_disabled": 0, "fusion_lat": 0.0, "lat": 38.894661166666666, "type": "electric_scooter", "lon": -77.00060383333333, "is_reserved": 0, "fusion_lon": 0.0, "bike_id": "bd21840f05a65ff1885cc4862b75b952", "name": "bd21840f05a65ff1885cc4862b75b952", "rental_uris": {"ios": "https://dc.lft.to/lastmile_qr_scan", "android": "https://dc.lft.to/lastmile_qr_scan"}}, {"is_disabled": 0, "fusion_lat": 0.0, "lat": 38.9000845, "type": "electric_scooter", "lon": -76.98673133333334, "is_reserved": 0, "fusion_lon": 0.0, "bike_id": "ce9da1d9ec9b8741bb2d321225ebde68", "name": "ce9da1d9ec9b8741bb2d321225ebde68", "rental_uris": {"ios": "https://dc.lft.to/lastmile_qr_scan", "android": "https://dc.lft.to/lastmile_qr_scan"}}, {"is_disabled": 0, "fusion_lat": 0.0, "lat": 38.9257225, "type": "electric_scooter", "lon": -77.05758016666667, "is_reserved": 0, "fusion_lon": 0.0, "bike_id": "38ef6e4377fe2041c064f4d9a06d9e30", "name": "38ef6e4377fe2041c064f4d9a06d9e30", "rental_uris": {"ios": "https://dc.lft.to/lastmile_qr_scan", "android": "https://dc.lft.to/lastmile_qr_scan"}}, {"is_disabled": 0, "fusion_lat": 0.0, "lat": 38.903019666666665, "type": "electric_scooter", "lon": -77.03454283333333, "is_reserved": 0, "fusion_lon": 0.0, "bike_id": "0f1cbf94a8abb2e5e6f460b447b6bc8d", "name": "0f1cbf94a8abb2e5e6f460b447b6bc8d", "rental_uris": {"ios": "https://dc.lft.to/lastmile_qr_scan", "android": "https://dc.lft.to/lastmile_qr_scan"}}, {"is_disabled": 0, "fusion_lat": 0.0, "lat": 38.93076533333333, "type": "electric_scooter", "lon": -77.037565, "is_reserved": 0, "fusion_lon": 0.0, "bike_id": "e9c6361e24d91b73a0207726532a30f9", "name": "e9c6361e24d91b73a0207726532a30f9", "rental_uris": {"ios": "https://dc.lft.to/lastmile_qr_scan", "android": "https://dc.lft.to/lastmile_qr_scan"}}, {"is_disabled": 0, "fusion_lat": 0.0, "lat": 38.9305755, "type": "electric_scooter", "lon": -77.02655433333334, "is_reserved": 0, "fusion_lon": 0.0, "bike_id": "fbc2c15a1e35c5686178507d994c0b78", "name": "fbc2c15a1e35c5686178507d994c0b78", "rental_uris": {"ios": "https://dc.lft.to/lastmile_qr_scan", "android": "https://dc.lft.to/lastmile_qr_scan"}}, {"is_disabled": 0, "fusion_lat": 0.0, "lat": 38.8661855, "type": "electric_scooter", "lon": -76.9869385, "is_reserved": 0, "fusion_lon": 0.0, "bike_id": "97acd7f6ef458c3c8ccba2aae2a718c7", "name": "97acd7f6ef458c3c8ccba2aae2a718c7", "rental_uris": {"ios": "https://dc.lft.to/lastmile_qr_scan", "android": "https://dc.lft.to/lastmile_qr_scan"}}, {"is_disabled": 0, "fusion_lat": 0.0, "lat": 38.90126683333333, "type": "electric_scooter", "lon": -77.002765, "is_reserved": 0, "fusion_lon": 0.0, "bike_id": "91d9088d882c863d7286ff8bc951e421", "name": "91d9088d882c863d7286ff8bc951e421", "rental_uris": {"ios": "https://dc.lft.to/lastmile_qr_scan", "android": "https://dc.lft.to/lastmile_qr_scan"}}, {"is_disabled": 0, "fusion_lat": 0.0, "lat": 38.842897, "type": "electric_scooter", "lon": -76.99944316666667, "is_reserved": 0, "fusion_lon": 0.0, "bike_id": "f936bac2f168f29ef75206d8d1e88f47", "name": "f936bac2f168f29ef75206d8d1e88f47", "rental_uris": {"ios": "https://dc.lft.to/lastmile_qr_scan", "android": "https://dc.lft.to/lastmile_qr_scan"}}, {"is_disabled": 0, "fusion_lat": 0.0, "lat": 38.893727166666665, "type": "electric_scooter", "lon": -76.94998333333334, "is_reserved": 0, "fusion_lon": 0.0, "bike_id": "a7f0b35c7a68ee9f3f19210108778552", "name": "a7f0b35c7a68ee9f3f19210108778552", "rental_uris": {"ios": "https://dc.lft.to/lastmile_qr_scan", "android": "https://dc.lft.to/lastmile_qr_scan"}}, {"is_disabled": 0, "fusion_lat": 0.0, "lat": 38.918766833333336, "type": "electric_scooter", "lon": -77.02960733333333, "is_reserved": 0, "fusion_lon": 0.0, "bike_id": "41cdcd7121a265f5d825aad3511572e7", "name": "41cdcd7121a265f5d825aad3511572e7", "rental_uris": {"ios": "https://dc.lft.to/lastmile_qr_scan", "android": "https://dc.lft.to/lastmile_qr_scan"}}, {"is_disabled": 0, "fusion_lat": 0.0, "lat": 38.85770183333333, "type": "electric_bike", "lon": -76.98772366666667, "is_reserved": 0, "fusion_lon": 0.0, "bike_id": "88351eb6fb108f28c7e49a2d538a662c", "name": "88351eb6fb108f28c7e49a2d538a662c", "rental_uris": {"ios": "https://dc.lft.to/lastmile_qr_scan", "android": "https://dc.lft.to/lastmile_qr_scan"}}, {"is_disabled": 0, "fusion_lat": 0.0, "lat": 38.9057385, "type": "electric_scooter", "lon": -77.00732316666667, "is_reserved": 0, "fusion_lon": 0.0, "bike_id": "b5294ed20781642d05f21d020dafc561", "name": "b5294ed20781642d05f21d020dafc561", "rental_uris": {"ios": "https://dc.lft.to/lastmile_qr_scan", "android": "https://dc.lft.to/lastmile_qr_scan"}}, {"is_disabled": 0, "fusion_lat": 0.0, "lat": 38.90720983333333, "type": "electric_scooter", "lon": -77.04345983333333, "is_reserved": 0, "fusion_lon": 0.0, "bike_id": "21c954979410242266ccaa85f77d3dc5", "name": "21c954979410242266ccaa85f77d3dc5", "rental_uris": {"ios": "https://dc.lft.to/lastmile_qr_scan", "android": "https://dc.lft.to/lastmile_qr_scan"}}, {"is_disabled": 0, "fusion_lat": 0.0, "lat": 38.92359166666667, "type": "electric_scooter", "lon": -77.05126183333333, "is_reserved": 0, "fusion_lon": 0.0, "bike_id": "4ac69b8e13ef92684a9048208106f8a6", "name": "4ac69b8e13ef92684a9048208106f8a6", "rental_uris": {"ios": "https://dc.lft.to/lastmile_qr_scan", "android": "https://dc.lft.to/lastmile_qr_scan"}}, {"is_disabled": 0, "fusion_lat": 0.0, "lat": 38.884791666666665, "type": "electric_scooter", "lon": -77.0154135, "is_reserved": 0, "fusion_lon": 0.0, "bike_id": "ed64cdf39abf8468cec1e2f192812efb", "name": "ed64cdf39abf8468cec1e2f192812efb", "rental_uris": {"ios": "https://dc.lft.to/lastmile_qr_scan", "android": "https://dc.lft.to/lastmile_qr_scan"}}, {"is_disabled": 0, "fusion_lat": 0.0, "lat": 38.914955666666664, "type": "electric_scooter", "lon": -76.98376233333333, "is_reserved": 0, "fusion_lon": 0.0, "bike_id": "3273754c2819e57df9aefacd9a108b1b", "name": "3273754c2819e57df9aefacd9a108b1b", "rental_uris": {"ios": "https://dc.lft.to/lastmile_qr_scan", "android": "https://dc.lft.to/lastmile_qr_scan"}}, {"is_disabled": 0, "fusion_lat": 0.0, "lat": 38.9212415, "type": "electric_scooter", "lon": -77.01780933333333, "is_reserved": 0, "fusion_lon": 0.0, "bike_id": "898b9275a9044c2a491c132b89141f70", "name": "898b9275a9044c2a491c132b89141f70", "rental_uris": {"ios": "https://dc.lft.to/lastmile_qr_scan", "android": "https://dc.lft.to/lastmile_qr_scan"}}, {"is_disabled": 0, "fusion_lat": 0.0, "lat": 38.95279, "type": "electric_bike", "lon": -77.001978, "is_reserved": 0, "fusion_lon": 0.0, "bike_id": "7475505bf29c9ad44b94330a523a55e0", "name": "7475505bf29c9ad44b94330a523a55e0", "rental_uris": {"ios": "https://dc.lft.to/lastmile_qr_scan", "android": "https://dc.lft.to/lastmile_qr_scan"}}, {"is_disabled": 0, "fusion_lat": 0.0, "lat": 38.92010533333333, "type": "electric_scooter", "lon": -77.031978, "is_reserved": 0, "fusion_lon": 0.0, "bike_id": "af7d4efc2f6174dd5a10b6ecb5cb230c", "name": "af7d4efc2f6174dd5a10b6ecb5cb230c", "rental_uris": {"ios": "https://dc.lft.to/lastmile_qr_scan", "android": "https://dc.lft.to/lastmile_qr_scan"}}, {"is_disabled": 0, "fusion_lat": 0.0, "lat": 38.90572683333333, "type": "electric_scooter", "lon": -77.03838883333333, "is_reserved": 0, "fusion_lon": 0.0, "bike_id": "c1434e30176f47336f1c900488ad54df", "name": "c1434e30176f47336f1c900488ad54df", "rental_uris": {"ios": "https://dc.lft.to/lastmile_qr_scan", "android": "https://dc.lft.to/lastmile_qr_scan"}}, {"is_disabled": 0, "fusion_lat": 0.0, "lat": 38.849303666666664, "type": "electric_bike", "lon": -77.10012233333333, "is_reserved": 0, "fusion_lon": 0.0, "bike_id": "47a21fd62710b497498deedb8dac12c9", "name": "47a21fd62710b497498deedb8dac12c9", "rental_uris": {"ios": "https://dc.lft.to/lastmile_qr_scan", "android": "https://dc.lft.to/lastmile_qr_scan"}}, {"is_disabled": 0, "fusion_lat": 0.0, "lat": 38.899877000000004, "type": "electric_scooter", "lon": -77.02666983333333, "is_reserved": 0, "fusion_lon": 0.0, "bike_id": "0a7a0bd034860993c66c0b7ee49cfc56", "name": "0a7a0bd034860993c66c0b7ee49cfc56", "rental_uris": {"ios": "https://dc.lft.to/lastmile_qr_scan", "android": "https://dc.lft.to/lastmile_qr_scan"}}, {"is_disabled": 0, "fusion_lat": 0.0, "lat": 38.9259395, "type": "electric_scooter", "lon": -77.00465766666666, "is_reserved": 0, "fusion_lon": 0.0, "bike_id": "73a5accf56cbc1250511588df48ece4a", "name": "73a5accf56cbc1250511588df48ece4a", "rental_uris": {"ios": "https://dc.lft.to/lastmile_qr_scan", "android": "https://dc.lft.to/lastmile_qr_scan"}}, {"is_disabled": 0, "fusion_lat": 0.0, "lat": 38.9004325, "type": "electric_scooter", "lon": -77.00218316666667, "is_reserved": 0, "fusion_lon": 0.0, "bike_id": "fa98c75a7457434036e6d7f2d303382d", "name": "fa98c75a7457434036e6d7f2d303382d", "rental_uris": {"ios": "https://dc.lft.to/lastmile_qr_scan", "android": "https://dc.lft.to/lastmile_qr_scan"}}, {"is_disabled": 0, "fusion_lat": 0.0, "lat": 38.91556833333333, "type": "electric_scooter", "lon": -77.04871816666666, "is_reserved": 0, "fusion_lon": 0.0, "bike_id": "0bdae6a8b0409dc6212553ba022fd32f", "name": "0bdae6a8b0409dc6212553ba022fd32f", "rental_uris": {"ios": "https://dc.lft.to/lastmile_qr_scan", "android": "https://dc.lft.to/lastmile_qr_scan"}}, {"is_disabled": 0, "fusion_lat": 0.0, "lat": 38.885094333333335, "type": "electric_scooter", "lon": -77.01550033333334, "is_reserved": 0, "fusion_lon": 0.0, "bike_id": "adbf745b76b041afc72600b0be9b4d00", "name": "adbf745b76b041afc72600b0be9b4d00", "rental_uris": {"ios": "https://dc.lft.to/lastmile_qr_scan", "android": "https://dc.lft.to/lastmile_qr_scan"}}, {"is_disabled": 0, "fusion_lat": 0.0, "lat": 38.90305633333333, "type": "electric_scooter", "lon": -76.97807883333333, "is_reserved": 0, "fusion_lon": 0.0, "bike_id": "6e592b802eefc3dc224b8f4ccd07d6f4", "name": "6e592b802eefc3dc224b8f4ccd07d6f4", "rental_uris": {"ios": "https://dc.lft.to/lastmile_qr_scan", "android": "https://dc.lft.to/lastmile_qr_scan"}}, {"is_disabled": 0, "fusion_lat": 0.0, "lat": 38.866974166666665, "type": "electric_bike", "lon": -76.98955933333333, "is_reserved": 0, "fusion_lon": 0.0, "bike_id": "14adc206f5048967722f90ff79cc3e08", "name": "14adc206f5048967722f90ff79cc3e08", "rental_uris": {"ios": "https://dc.lft.to/lastmile_qr_scan", "android": "https://dc.lft.to/lastmile_qr_scan"}}, {"is_disabled": 0, "fusion_lat": 0.0, "lat": 38.970871, "type": "electric_bike", "lon": -77.06971083333333, "is_reserved": 0, "fusion_lon": 0.0, "bike_id": "36f6622731fcef2e4050eb3dce3d31ca", "name": "36f6622731fcef2e4050eb3dce3d31ca", "rental_uris": {"ios": "https://dc.lft.to/lastmile_qr_scan", "android": "https://dc.lft.to/lastmile_qr_scan"}}, {"is_disabled": 0, "fusion_lat": 0.0, "lat": 38.9250785, "type": "electric_scooter", "lon": -77.0388265, "is_reserved": 0, "fusion_lon": 0.0, "bike_id": "3d79c20638f32b1118dc639017ed6623", "name": "3d79c20638f32b1118dc639017ed6623", "rental_uris": {"ios": "https://dc.lft.to/lastmile_qr_scan", "android": "https://dc.lft.to/lastmile_qr_scan"}}, {"is_disabled": 0, "fusion_lat": 0.0, "lat": 38.898735, "type": "electric_scooter", "lon": -76.931825, "is_reserved": 0, "fusion_lon": 0.0, "bike_id": "e83f279e1a754702545e1a83fb32316e", "name": "e83f279e1a754702545e1a83fb32316e", "rental_uris": {"ios": "https://dc.lft.to/lastmile_qr_scan", "android": "https://dc.lft.to/lastmile_qr_scan"}}, {"is_disabled": 0, "fusion_lat": 0.0, "lat": 38.86162233333334, "type": "electric_bike", "lon": -77.13093583333334, "is_reserved": 0, "fusion_lon": 0.0, "bike_id": "228f08c919e8485d735668e4ede62bbb", "name": "228f08c919e8485d735668e4ede62bbb", "rental_uris": {"ios": "https://dc.lft.to/lastmile_qr_scan", "android": "https://dc.lft.to/lastmile_qr_scan"}}, {"is_disabled": 0, "fusion_lat": 0.0, "lat": 38.919742166666666, "type": "electric_scooter", "lon": -77.04172233333334, "is_reserved": 0, "fusion_lon": 0.0, "bike_id": "b59a9cf5876f38e9b009059819853c89", "name": "b59a9cf5876f38e9b009059819853c89", "rental_uris": {"ios": "https://dc.lft.to/lastmile_qr_scan", "android": "https://dc.lft.to/lastmile_qr_scan"}}, {"is_disabled": 0, "fusion_lat": 0.0, "lat": 38.90369116666667, "type": "electric_scooter", "lon": -77.041673, "is_reserved": 0, "fusion_lon": 0.0, "bike_id": "abb176d3d3a425b5d87292d7599efe63", "name": "abb176d3d3a425b5d87292d7599efe63", "rental_uris": {"ios": "https://dc.lft.to/lastmile_qr_scan", "android": "https://dc.lft.to/lastmile_qr_scan"}}, {"is_disabled": 0, "fusion_lat": 0.0, "lat": 38.9670295, "type": "electric_bike", "lon": -77.10221883333334, "is_reserved": 0, "fusion_lon": 0.0, "bike_id": "efa302a86182c38f83136c937cea5b2b", "name": "efa302a86182c38f83136c937cea5b2b", "rental_uris": {"ios": "https://dc.lft.to/lastmile_qr_scan", "android": "https://dc.lft.to/lastmile_qr_scan"}}, {"is_disabled": 0, "fusion_lat": 0.0, "lat": 38.905741166666665, "type": "electric_scooter", "lon": -77.02208433333334, "is_reserved": 0, "fusion_lon": 0.0, "bike_id": "ca1b3140bdb3b1b2ba7d95f5c85050d8", "name": "ca1b3140bdb3b1b2ba7d95f5c85050d8", "rental_uris": {"ios": "https://dc.lft.to/lastmile_qr_scan", "android": "https://dc.lft.to/lastmile_qr_scan"}}, {"is_disabled": 0, "fusion_lat": 0.0, "lat": 38.93235116666666, "type": "electric_bike", "lon": -76.97422716666667, "is_reserved": 0, "fusion_lon": 0.0, "bike_id": "496500af72d2cf9bb9ac15a501b8fc6f", "name": "496500af72d2cf9bb9ac15a501b8fc6f", "rental_uris": {"ios": "https://dc.lft.to/lastmile_qr_scan", "android": "https://dc.lft.to/lastmile_qr_scan"}}, {"is_disabled": 0, "fusion_lat": 0.0, "lat": 38.921121166666666, "type": "electric_scooter", "lon": -77.042172, "is_reserved": 0, "fusion_lon": 0.0, "bike_id": "d41c61d8fb8772aaec3c94ff56ee7fa7", "name": "d41c61d8fb8772aaec3c94ff56ee7fa7", "rental_uris": {"ios": "https://dc.lft.to/lastmile_qr_scan", "android": "https://dc.lft.to/lastmile_qr_scan"}}, {"is_disabled": 0, "fusion_lat": 0.0, "lat": 38.90471483333334, "type": "electric_scooter", "lon": -77.05323316666667, "is_reserved": 0, "fusion_lon": 0.0, "bike_id": "ae380462267643a7c94ceab3c540ccc0", "name": "ae380462267643a7c94ceab3c540ccc0", "rental_uris": {"ios": "https://dc.lft.to/lastmile_qr_scan", "android": "https://dc.lft.to/lastmile_qr_scan"}}, {"is_disabled": 0, "fusion_lat": 0.0, "lat": 38.91407016666667, "type": "electric_scooter", "lon": -77.02046516666667, "is_reserved": 0, "fusion_lon": 0.0, "bike_id": "692853b9798fd4bf58cea3789fbbbb47", "name": "692853b9798fd4bf58cea3789fbbbb47", "rental_uris": {"ios": "https://dc.lft.to/lastmile_qr_scan", "android": "https://dc.lft.to/lastmile_qr_scan"}}, {"is_disabled": 0, "fusion_lat": 0.0, "lat": 38.88927233333333, "type": "electric_scooter", "lon": -76.97375783333334, "is_reserved": 0, "fusion_lon": 0.0, "bike_id": "0944a331e9759cae20253486900a0678", "name": "0944a331e9759cae20253486900a0678", "rental_uris": {"ios": "https://dc.lft.to/lastmile_qr_scan", "android": "https://dc.lft.to/lastmile_qr_scan"}}, {"is_disabled": 0, "fusion_lat": 0.0, "lat": 38.89758033333333, "type": "electric_scooter", "lon": -77.02690883333334, "is_reserved": 0, "fusion_lon": 0.0, "bike_id": "2711356466a93437f084bf127d26dac8", "name": "2711356466a93437f084bf127d26dac8", "rental_uris": {"ios": "https://dc.lft.to/lastmile_qr_scan", "android": "https://dc.lft.to/lastmile_qr_scan"}}, {"is_disabled": 0, "fusion_lat": 0.0, "lat": 38.9018755, "type": "electric_scooter", "lon": -77.02185666666666, "is_reserved": 0, "fusion_lon": 0.0, "bike_id": "2da90d833bb76936590544a56d4d8aff", "name": "2da90d833bb76936590544a56d4d8aff", "rental_uris": {"ios": "https://dc.lft.to/lastmile_qr_scan", "android": "https://dc.lft.to/lastmile_qr_scan"}}, {"is_disabled": 0, "fusion_lat": 0.0, "lat": 38.91836266666667, "type": "electric_scooter", "lon": -77.03211783333333, "is_reserved": 0, "fusion_lon": 0.0, "bike_id": "48c6e436a10e607fa73a6666af50731d", "name": "48c6e436a10e607fa73a6666af50731d", "rental_uris": {"ios": "https://dc.lft.to/lastmile_qr_scan", "android": "https://dc.lft.to/lastmile_qr_scan"}}, {"is_disabled": 0, "fusion_lat": 0.0, "lat": 38.900324166666664, "type": "electric_scooter", "lon": -77.00215083333333, "is_reserved": 0, "fusion_lon": 0.0, "bike_id": "38bd2c6bb11d7a8390370ff519f066af", "name": "38bd2c6bb11d7a8390370ff519f066af", "rental_uris": {"ios": "https://dc.lft.to/lastmile_qr_scan", "android": "https://dc.lft.to/lastmile_qr_scan"}}, {"is_disabled": 0, "fusion_lat": 0.0, "lat": 38.905026166666666, "type": "electric_scooter", "lon": -76.97927016666667, "is_reserved": 0, "fusion_lon": 0.0, "bike_id": "de75e6087bd611ffe8cdb6ef1f305983", "name": "de75e6087bd611ffe8cdb6ef1f305983", "rental_uris": {"ios": "https://dc.lft.to/lastmile_qr_scan", "android": "https://dc.lft.to/lastmile_qr_scan"}}, {"is_disabled": 0, "fusion_lat": 0.0, "lat": 38.88041033333333, "type": "electric_scooter", "lon": -77.019372, "is_reserved": 0, "fusion_lon": 0.0, "bike_id": "df191ebc22185cd7b2377394f8a1231c", "name": "df191ebc22185cd7b2377394f8a1231c", "rental_uris": {"ios": "https://dc.lft.to/lastmile_qr_scan", "android": "https://dc.lft.to/lastmile_qr_scan"}}, {"is_disabled": 0, "fusion_lat": 0.0, "lat": 38.87007633333333, "type": "electric_bike", "lon": -76.96020266666666, "is_reserved": 0, "fusion_lon": 0.0, "bike_id": "1a79e4f9459e21db46ec812c808022f4", "name": "1a79e4f9459e21db46ec812c808022f4", "rental_uris": {"ios": "https://dc.lft.to/lastmile_qr_scan", "android": "https://dc.lft.to/lastmile_qr_scan"}}, {"is_disabled": 0, "fusion_lat": 0.0, "lat": 38.936713166666664, "type": "electric_bike", "lon": -76.95224933333333, "is_reserved": 0, "fusion_lon": 0.0, "bike_id": "aafaa5cbdd10491432ae6a7b73b15215", "name": "aafaa5cbdd10491432ae6a7b73b15215", "rental_uris": {"ios": "https://dc.lft.to/lastmile_qr_scan", "android": "https://dc.lft.to/lastmile_qr_scan"}}, {"is_disabled": 0, "fusion_lat": 0.0, "lat": 38.8368595, "type": "electric_scooter", "lon": -77.00595233333334, "is_reserved": 0, "fusion_lon": 0.0, "bike_id": "08a5746c160e9600850c7bb39b33b913", "name": "08a5746c160e9600850c7bb39b33b913", "rental_uris": {"ios": "https://dc.lft.to/lastmile_qr_scan", "android": "https://dc.lft.to/lastmile_qr_scan"}}, {"is_disabled": 0, "fusion_lat": 0.0, "lat": 38.927670666666664, "type": "electric_scooter", "lon": -77.0271005, "is_reserved": 0, "fusion_lon": 0.0, "bike_id": "7ca63f204f82ab3baada6d39a2e90c23", "name": "7ca63f204f82ab3baada6d39a2e90c23", "rental_uris": {"ios": "https://dc.lft.to/lastmile_qr_scan", "android": "https://dc.lft.to/lastmile_qr_scan"}}, {"is_disabled": 0, "fusion_lat": 0.0, "lat": 38.90029216666667, "type": "electric_scooter", "lon": -76.99744866666667, "is_reserved": 0, "fusion_lon": 0.0, "bike_id": "2a569f152b8236fb74af13325af94d39", "name": "2a569f152b8236fb74af13325af94d39", "rental_uris": {"ios": "https://dc.lft.to/lastmile_qr_scan", "android": "https://dc.lft.to/lastmile_qr_scan"}}, {"is_disabled": 0, "fusion_lat": 0.0, "lat": 38.902548333333336, "type": "electric_scooter", "lon": -77.0175875, "is_reserved": 0, "fusion_lon": 0.0, "bike_id": "c870d7e3ef794dde7f2f0502f496db54", "name": "c870d7e3ef794dde7f2f0502f496db54", "rental_uris": {"ios": "https://dc.lft.to/lastmile_qr_scan", "android": "https://dc.lft.to/lastmile_qr_scan"}}, {"is_disabled": 0, "fusion_lat": 0.0, "lat": 38.917523, "type": "electric_scooter", "lon": -77.03209116666666, "is_reserved": 0, "fusion_lon": 0.0, "bike_id": "3a0a4c0deb872f9cf640f3b59894b97d", "name": "3a0a4c0deb872f9cf640f3b59894b97d", "rental_uris": {"ios": "https://dc.lft.to/lastmile_qr_scan", "android": "https://dc.lft.to/lastmile_qr_scan"}}, {"is_disabled": 0, "fusion_lat": 0.0, "lat": 38.9236, "type": "electric_scooter", "lon": -77.05077083333333, "is_reserved": 0, "fusion_lon": 0.0, "bike_id": "2979e514c69f939305d69b5005c42cc1", "name": "2979e514c69f939305d69b5005c42cc1", "rental_uris": {"ios": "https://dc.lft.to/lastmile_qr_scan", "android": "https://dc.lft.to/lastmile_qr_scan"}}, {"is_disabled": 0, "fusion_lat": 0.0, "lat": 38.936176, "type": "electric_scooter", "lon": -77.08159966666666, "is_reserved": 0, "fusion_lon": 0.0, "bike_id": "b5e19be41267c81b050336d4e4bdfc08", "name": "b5e19be41267c81b050336d4e4bdfc08", "rental_uris": {"ios": "https://dc.lft.to/lastmile_qr_scan", "android": "https://dc.lft.to/lastmile_qr_scan"}}, {"is_disabled": 0, "fusion_lat": 0.0, "lat": 38.934969333333335, "type": "electric_scooter", "lon": -77.0580365, "is_reserved": 0, "fusion_lon": 0.0, "bike_id": "ea230fffedcac1efa27f990946724f06", "name": "ea230fffedcac1efa27f990946724f06", "rental_uris": {"ios": "https://dc.lft.to/lastmile_qr_scan", "android": "https://dc.lft.to/lastmile_qr_scan"}}, {"is_disabled": 0, "fusion_lat": 0.0, "lat": 38.91960983333333, "type": "electric_scooter", "lon": -77.04333516666667, "is_reserved": 0, "fusion_lon": 0.0, "bike_id": "fbdb6aa9fc258b6d9616e62bbea6e260", "name": "fbdb6aa9fc258b6d9616e62bbea6e260", "rental_uris": {"ios": "https://dc.lft.to/lastmile_qr_scan", "android": "https://dc.lft.to/lastmile_qr_scan"}}, {"is_disabled": 0, "fusion_lat": 0.0, "lat": 38.90728433333334, "type": "electric_scooter", "lon": -77.01073583333333, "is_reserved": 0, "fusion_lon": 0.0, "bike_id": "afb2b5f12fce6ed04ccfa8e9b44388b9", "name": "afb2b5f12fce6ed04ccfa8e9b44388b9", "rental_uris": {"ios": "https://dc.lft.to/lastmile_qr_scan", "android": "https://dc.lft.to/lastmile_qr_scan"}}, {"is_disabled": 0, "fusion_lat": 0.0, "lat": 38.8749975, "type": "electric_bike", "lon": -77.02591816666667, "is_reserved": 0, "fusion_lon": 0.0, "bike_id": "e100663e4675155faea32f0bbec699a8", "name": "e100663e4675155faea32f0bbec699a8", "rental_uris": {"ios": "https://dc.lft.to/lastmile_qr_scan", "android": "https://dc.lft.to/lastmile_qr_scan"}}, {"is_disabled": 0, "fusion_lat": 0.0, "lat": 38.905753833333335, "type": "electric_scooter", "lon": -77.04866266666667, "is_reserved": 0, "fusion_lon": 0.0, "bike_id": "69b346927ed95fc471dad70f887638e4", "name": "69b346927ed95fc471dad70f887638e4", "rental_uris": {"ios": "https://dc.lft.to/lastmile_qr_scan", "android": "https://dc.lft.to/lastmile_qr_scan"}}, {"is_disabled": 0, "fusion_lat": 0.0, "lat": 38.881399333333334, "type": "electric_scooter", "lon": -77.02686866666667, "is_reserved": 0, "fusion_lon": 0.0, "bike_id": "0e07e77effb8cce0f4029b46817d604f", "name": "0e07e77effb8cce0f4029b46817d604f", "rental_uris": {"ios": "https://dc.lft.to/lastmile_qr_scan", "android": "https://dc.lft.to/lastmile_qr_scan"}}, {"is_disabled": 0, "fusion_lat": 0.0, "lat": 38.92061116666667, "type": "electric_scooter", "lon": -77.03465733333333, "is_reserved": 0, "fusion_lon": 0.0, "bike_id": "741df9b29a29b42463486355adcd6218", "name": "741df9b29a29b42463486355adcd6218", "rental_uris": {"ios": "https://dc.lft.to/lastmile_qr_scan", "android": "https://dc.lft.to/lastmile_qr_scan"}}, {"is_disabled": 0, "fusion_lat": 0.0, "lat": 38.89122283333333, "type": "electric_scooter", "lon": -76.94088216666667, "is_reserved": 0, "fusion_lon": 0.0, "bike_id": "786e6d84046dae0b6fdb158fa80ee2aa", "name": "786e6d84046dae0b6fdb158fa80ee2aa", "rental_uris": {"ios": "https://dc.lft.to/lastmile_qr_scan", "android": "https://dc.lft.to/lastmile_qr_scan"}}, {"is_disabled": 0, "fusion_lat": 0.0, "lat": 38.908375666666664, "type": "electric_scooter", "lon": -77.085008, "is_reserved": 0, "fusion_lon": 0.0, "bike_id": "5467ebf24ae3dda3228bf596836de375", "name": "5467ebf24ae3dda3228bf596836de375", "rental_uris": {"ios": "https://dc.lft.to/lastmile_qr_scan", "android": "https://dc.lft.to/lastmile_qr_scan"}}, {"is_disabled": 0, "fusion_lat": 0.0, "lat": 39.015932166666666, "type": "electric_bike", "lon": -77.04422533333333, "is_reserved": 0, "fusion_lon": 0.0, "bike_id": "ae38f5ec986c3c8117aaa87482aadf8d", "name": "ae38f5ec986c3c8117aaa87482aadf8d", "rental_uris": {"ios": "https://dc.lft.to/lastmile_qr_scan", "android": "https://dc.lft.to/lastmile_qr_scan"}}, {"is_disabled": 0, "fusion_lat": 0.0, "lat": 38.91047116666667, "type": "electric_scooter", "lon": -77.0219825, "is_reserved": 0, "fusion_lon": 0.0, "bike_id": "e66f415d310a2d634b9af43ecd5d9e29", "name": "e66f415d310a2d634b9af43ecd5d9e29", "rental_uris": {"ios": "https://dc.lft.to/lastmile_qr_scan", "android": "https://dc.lft.to/lastmile_qr_scan"}}, {"is_disabled": 0, "fusion_lat": 0.0, "lat": 38.911169, "type": "electric_scooter", "lon": -77.03744916666666, "is_reserved": 0, "fusion_lon": 0.0, "bike_id": "52b47ed48384cc5ea62af720caebba07", "name": "52b47ed48384cc5ea62af720caebba07", "rental_uris": {"ios": "https://dc.lft.to/lastmile_qr_scan", "android": "https://dc.lft.to/lastmile_qr_scan"}}, {"is_disabled": 0, "fusion_lat": 0.0, "lat": 38.92721216666666, "type": "electric_scooter", "lon": -77.0208795, "is_reserved": 0, "fusion_lon": 0.0, "bike_id": "98fc7bc6eed58400dad905cc84fb8962", "name": "98fc7bc6eed58400dad905cc84fb8962", "rental_uris": {"ios": "https://dc.lft.to/lastmile_qr_scan", "android": "https://dc.lft.to/lastmile_qr_scan"}}, {"is_disabled": 0, "fusion_lat": 0.0, "lat": 38.86907866666667, "type": "electric_bike", "lon": -77.1317525, "is_reserved": 0, "fusion_lon": 0.0, "bike_id": "8daf9311907635e747aaf19f1a122f3b", "name": "8daf9311907635e747aaf19f1a122f3b", "rental_uris": {"ios": "https://dc.lft.to/lastmile_qr_scan", "android": "https://dc.lft.to/lastmile_qr_scan"}}, {"is_disabled": 0, "fusion_lat": 0.0, "lat": 38.93247066666667, "type": "electric_scooter", "lon": -77.03107116666666, "is_reserved": 0, "fusion_lon": 0.0, "bike_id": "a6e5226d50e324ed183bbe4ec49fff35", "name": "a6e5226d50e324ed183bbe4ec49fff35", "rental_uris": {"ios": "https://dc.lft.to/lastmile_qr_scan", "android": "https://dc.lft.to/lastmile_qr_scan"}}, {"is_disabled": 0, "fusion_lat": 0.0, "lat": 38.819985333333335, "type": "electric_bike", "lon": -76.9981095, "is_reserved": 0, "fusion_lon": 0.0, "bike_id": "a0c2a505738124228ebe6f636a74086b", "name": "a0c2a505738124228ebe6f636a74086b", "rental_uris": {"ios": "https://dc.lft.to/lastmile_qr_scan", "android": "https://dc.lft.to/lastmile_qr_scan"}}, {"is_disabled": 0, "fusion_lat": 0.0, "lat": 38.92512633333333, "type": "electric_scooter", "lon": -77.03880983333333, "is_reserved": 0, "fusion_lon": 0.0, "bike_id": "601797596f90a86342952b649e09e8bd", "name": "601797596f90a86342952b649e09e8bd", "rental_uris": {"ios": "https://dc.lft.to/lastmile_qr_scan", "android": "https://dc.lft.to/lastmile_qr_scan"}}, {"is_disabled": 0, "fusion_lat": 0.0, "lat": 38.892267333333336, "type": "electric_scooter", "lon": -77.04641366666667, "is_reserved": 0, "fusion_lon": 0.0, "bike_id": "f022c41175561b2580022779dd05f56e", "name": "f022c41175561b2580022779dd05f56e", "rental_uris": {"ios": "https://dc.lft.to/lastmile_qr_scan", "android": "https://dc.lft.to/lastmile_qr_scan"}}, {"is_disabled": 0, "fusion_lat": 0.0, "lat": 38.92923166666667, "type": "electric_scooter", "lon": -77.03209283333334, "is_reserved": 0, "fusion_lon": 0.0, "bike_id": "4433e129ad9803480e772cb2120ea1e9", "name": "4433e129ad9803480e772cb2120ea1e9", "rental_uris": {"ios": "https://dc.lft.to/lastmile_qr_scan", "android": "https://dc.lft.to/lastmile_qr_scan"}}, {"is_disabled": 0, "fusion_lat": 0.0, "lat": 38.94147, "type": "electric_scooter", "lon": -77.02983533333334, "is_reserved": 0, "fusion_lon": 0.0, "bike_id": "98bedc12d1444e28e2cc56395eaa6b95", "name": "98bedc12d1444e28e2cc56395eaa6b95", "rental_uris": {"ios": "https://dc.lft.to/lastmile_qr_scan", "android": "https://dc.lft.to/lastmile_qr_scan"}}, {"is_disabled": 0, "fusion_lat": 0.0, "lat": 38.893624833333334, "type": "electric_scooter", "lon": -76.94971333333334, "is_reserved": 0, "fusion_lon": 0.0, "bike_id": "e324de1aeb81f5e3b8a2fc47de10a59f", "name": "e324de1aeb81f5e3b8a2fc47de10a59f", "rental_uris": {"ios": "https://dc.lft.to/lastmile_qr_scan", "android": "https://dc.lft.to/lastmile_qr_scan"}}, {"is_disabled": 0, "fusion_lat": 0.0, "lat": 38.9284705, "type": "electric_scooter", "lon": -77.05427733333333, "is_reserved": 0, "fusion_lon": 0.0, "bike_id": "00f2f7598c3aa7b08bd7ce77a51f9338", "name": "00f2f7598c3aa7b08bd7ce77a51f9338", "rental_uris": {"ios": "https://dc.lft.to/lastmile_qr_scan", "android": "https://dc.lft.to/lastmile_qr_scan"}}, {"is_disabled": 0, "fusion_lat": 0.0, "lat": 38.93287866666667, "type": "electric_scooter", "lon": -77.0397295, "is_reserved": 0, "fusion_lon": 0.0, "bike_id": "8ce8aae8d1bc6dcc213e7c6d3513576b", "name": "8ce8aae8d1bc6dcc213e7c6d3513576b", "rental_uris": {"ios": "https://dc.lft.to/lastmile_qr_scan", "android": "https://dc.lft.to/lastmile_qr_scan"}}, {"is_disabled": 0, "fusion_lat": 0.0, "lat": 38.8718935, "type": "electric_bike", "lon": -77.08408433333334, "is_reserved": 0, "fusion_lon": 0.0, "bike_id": "4b25402e124bcf7d38a8b80754301ffe", "name": "4b25402e124bcf7d38a8b80754301ffe", "rental_uris": {"ios": "https://dc.lft.to/lastmile_qr_scan", "android": "https://dc.lft.to/lastmile_qr_scan"}}, {"is_disabled": 0, "fusion_lat": 0.0, "lat": 38.909752833333336, "type": "electric_scooter", "lon": -77.0404975, "is_reserved": 0, "fusion_lon": 0.0, "bike_id": "ce35c84d06609cd4bfa5f93af5ca619e", "name": "ce35c84d06609cd4bfa5f93af5ca619e", "rental_uris": {"ios": "https://dc.lft.to/lastmile_qr_scan", "android": "https://dc.lft.to/lastmile_qr_scan"}}, {"is_disabled": 0, "fusion_lat": 0.0, "lat": 38.91109266666667, "type": "electric_scooter", "lon": -77.04838766666667, "is_reserved": 0, "fusion_lon": 0.0, "bike_id": "1185e99e3d046b2a80c34703400c6c97", "name": "1185e99e3d046b2a80c34703400c6c97", "rental_uris": {"ios": "https://dc.lft.to/lastmile_qr_scan", "android": "https://dc.lft.to/lastmile_qr_scan"}}, {"is_disabled": 0, "fusion_lat": 0.0, "lat": 38.93241966666667, "type": "electric_scooter", "lon": -77.03281066666666, "is_reserved": 0, "fusion_lon": 0.0, "bike_id": "d77ea335bed02552f5ac000ac5eae116", "name": "d77ea335bed02552f5ac000ac5eae116", "rental_uris": {"ios": "https://dc.lft.to/lastmile_qr_scan", "android": "https://dc.lft.to/lastmile_qr_scan"}}, {"is_disabled": 0, "fusion_lat": 0.0, "lat": 38.898138333333335, "type": "electric_scooter", "lon": -77.032961, "is_reserved": 0, "fusion_lon": 0.0, "bike_id": "9b8cc1887106d18327b36fcfde08ffe4", "name": "9b8cc1887106d18327b36fcfde08ffe4", "rental_uris": {"ios": "https://dc.lft.to/lastmile_qr_scan", "android": "https://dc.lft.to/lastmile_qr_scan"}}, {"is_disabled": 0, "fusion_lat": 0.0, "lat": 38.896255833333335, "type": "electric_scooter", "lon": -76.99852116666666, "is_reserved": 0, "fusion_lon": 0.0, "bike_id": "9cdfb033ce8a462a5c5b44bfb9385ce1", "name": "9cdfb033ce8a462a5c5b44bfb9385ce1", "rental_uris": {"ios": "https://dc.lft.to/lastmile_qr_scan", "android": "https://dc.lft.to/lastmile_qr_scan"}}, {"is_disabled": 0, "fusion_lat": 0.0, "lat": 38.894973666666665, "type": "electric_scooter", "lon": -77.02280933333333, "is_reserved": 0, "fusion_lon": 0.0, "bike_id": "c3eb57c66ee51d8be4be2ee50c73289c", "name": "c3eb57c66ee51d8be4be2ee50c73289c", "rental_uris": {"ios": "https://dc.lft.to/lastmile_qr_scan", "android": "https://dc.lft.to/lastmile_qr_scan"}}, {"is_disabled": 0, "fusion_lat": 0.0, "lat": 38.905613333333335, "type": "electric_scooter", "lon": -77.03068183333333, "is_reserved": 0, "fusion_lon": 0.0, "bike_id": "b77974fdc9590485bf81224a591fef8a", "name": "b77974fdc9590485bf81224a591fef8a", "rental_uris": {"ios": "https://dc.lft.to/lastmile_qr_scan", "android": "https://dc.lft.to/lastmile_qr_scan"}}, {"is_disabled": 0, "fusion_lat": 0.0, "lat": 38.892262333333335, "type": "electric_scooter", "lon": -77.04640566666667, "is_reserved": 0, "fusion_lon": 0.0, "bike_id": "bb6232f8e5680d8cf6c6e553aa6ec78d", "name": "bb6232f8e5680d8cf6c6e553aa6ec78d", "rental_uris": {"ios": "https://dc.lft.to/lastmile_qr_scan", "android": "https://dc.lft.to/lastmile_qr_scan"}}, {"is_disabled": 0, "fusion_lat": 0.0, "lat": 38.91923633333333, "type": "electric_scooter", "lon": -77.03421583333333, "is_reserved": 0, "fusion_lon": 0.0, "bike_id": "8479f93532dfa7a2137f8f0ce1f3d8a9", "name": "8479f93532dfa7a2137f8f0ce1f3d8a9", "rental_uris": {"ios": "https://dc.lft.to/lastmile_qr_scan", "android": "https://dc.lft.to/lastmile_qr_scan"}}, {"is_disabled": 0, "fusion_lat": 0.0, "lat": 38.935319, "type": "electric_scooter", "lon": -77.02350216666666, "is_reserved": 0, "fusion_lon": 0.0, "bike_id": "6562783e0f1c2bf02bf2f5dab85b0c2c", "name": "6562783e0f1c2bf02bf2f5dab85b0c2c", "rental_uris": {"ios": "https://dc.lft.to/lastmile_qr_scan", "android": "https://dc.lft.to/lastmile_qr_scan"}}, {"is_disabled": 0, "fusion_lat": 0.0, "lat": 38.919522, "type": "electric_scooter", "lon": -77.0319915, "is_reserved": 0, "fusion_lon": 0.0, "bike_id": "7b3991c418712cf174867b49f36fb3db", "name": "7b3991c418712cf174867b49f36fb3db", "rental_uris": {"ios": "https://dc.lft.to/lastmile_qr_scan", "android": "https://dc.lft.to/lastmile_qr_scan"}}, {"is_disabled": 0, "fusion_lat": 0.0, "lat": 38.9376445, "type": "electric_scooter", "lon": -77.02111666666667, "is_reserved": 0, "fusion_lon": 0.0, "bike_id": "02aa7daf48ed38066b926964e5429afe", "name": "02aa7daf48ed38066b926964e5429afe", "rental_uris": {"ios": "https://dc.lft.to/lastmile_qr_scan", "android": "https://dc.lft.to/lastmile_qr_scan"}}, {"is_disabled": 0, "fusion_lat": 0.0, "lat": 38.9079715, "type": "electric_scooter", "lon": -77.04468183333333, "is_reserved": 0, "fusion_lon": 0.0, "bike_id": "e123d8ae2c80f91bf34b051bec882cab", "name": "e123d8ae2c80f91bf34b051bec882cab", "rental_uris": {"ios": "https://dc.lft.to/lastmile_qr_scan", "android": "https://dc.lft.to/lastmile_qr_scan"}}, {"is_disabled": 0, "fusion_lat": 0.0, "lat": 38.92639, "type": "electric_scooter", "lon": -77.0134065, "is_reserved": 0, "fusion_lon": 0.0, "bike_id": "6b9bfcc1461153970d64efff99673073", "name": "6b9bfcc1461153970d64efff99673073", "rental_uris": {"ios": "https://dc.lft.to/lastmile_qr_scan", "android": "https://dc.lft.to/lastmile_qr_scan"}}, {"is_disabled": 0, "fusion_lat": 0.0, "lat": 38.92606983333334, "type": "electric_scooter", "lon": -77.05687833333333, "is_reserved": 0, "fusion_lon": 0.0, "bike_id": "b0721bedae0b8debf3346abe86f03acc", "name": "b0721bedae0b8debf3346abe86f03acc", "rental_uris": {"ios": "https://dc.lft.to/lastmile_qr_scan", "android": "https://dc.lft.to/lastmile_qr_scan"}}, {"is_disabled": 0, "fusion_lat": 0.0, "lat": 38.89896366666667, "type": "electric_scooter", "lon": -77.007377, "is_reserved": 0, "fusion_lon": 0.0, "bike_id": "5415b50e6f5ecab86a8e936ea323d568", "name": "5415b50e6f5ecab86a8e936ea323d568", "rental_uris": {"ios": "https://dc.lft.to/lastmile_qr_scan", "android": "https://dc.lft.to/lastmile_qr_scan"}}, {"is_disabled": 0, "fusion_lat": 0.0, "lat": 38.9526235, "type": "electric_bike", "lon": -77.06985716666667, "is_reserved": 0, "fusion_lon": 0.0, "bike_id": "96253a90c2d4bee8124ee817ebc0fba3", "name": "96253a90c2d4bee8124ee817ebc0fba3", "rental_uris": {"ios": "https://dc.lft.to/lastmile_qr_scan", "android": "https://dc.lft.to/lastmile_qr_scan"}}, {"is_disabled": 0, "fusion_lat": 0.0, "lat": 38.918256666666665, "type": "electric_scooter", "lon": -77.03534516666667, "is_reserved": 0, "fusion_lon": 0.0, "bike_id": "358fa6d316cc773f3f00b9c2d4c40e1a", "name": "358fa6d316cc773f3f00b9c2d4c40e1a", "rental_uris": {"ios": "https://dc.lft.to/lastmile_qr_scan", "android": "https://dc.lft.to/lastmile_qr_scan"}}, {"is_disabled": 0, "fusion_lat": 0.0, "lat": 38.82086433333333, "type": "electric_bike", "lon": -77.05361866666667, "is_reserved": 0, "fusion_lon": 0.0, "bike_id": "d0a11e140faab3e76b82377a8c28b0f0", "name": "d0a11e140faab3e76b82377a8c28b0f0", "rental_uris": {"ios": "https://dc.lft.to/lastmile_qr_scan", "android": "https://dc.lft.to/lastmile_qr_scan"}}, {"is_disabled": 0, "fusion_lat": 0.0, "lat": 38.92321116666667, "type": "electric_scooter", "lon": -77.03902783333334, "is_reserved": 0, "fusion_lon": 0.0, "bike_id": "60650f943d0098aa3fe804363e293ef0", "name": "60650f943d0098aa3fe804363e293ef0", "rental_uris": {"ios": "https://dc.lft.to/lastmile_qr_scan", "android": "https://dc.lft.to/lastmile_qr_scan"}}, {"is_disabled": 0, "fusion_lat": 0.0, "lat": 38.950852, "type": "electric_scooter", "lon": -77.02835683333333, "is_reserved": 0, "fusion_lon": 0.0, "bike_id": "9747e0dad06b5553593d64e4b41540d4", "name": "9747e0dad06b5553593d64e4b41540d4", "rental_uris": {"ios": "https://dc.lft.to/lastmile_qr_scan", "android": "https://dc.lft.to/lastmile_qr_scan"}}, {"is_disabled": 0, "fusion_lat": 0.0, "lat": 38.90972816666667, "type": "electric_scooter", "lon": -77.03868083333333, "is_reserved": 0, "fusion_lon": 0.0, "bike_id": "9fe125d71c8ddd4a6c13c9000ba496f4", "name": "9fe125d71c8ddd4a6c13c9000ba496f4", "rental_uris": {"ios": "https://dc.lft.to/lastmile_qr_scan", "android": "https://dc.lft.to/lastmile_qr_scan"}}, {"is_disabled": 0, "fusion_lat": 0.0, "lat": 38.940876333333335, "type": "electric_scooter", "lon": -77.02724433333333, "is_reserved": 0, "fusion_lon": 0.0, "bike_id": "bf290ed65252c9ee8f211dc6eadb38eb", "name": "bf290ed65252c9ee8f211dc6eadb38eb", "rental_uris": {"ios": "https://dc.lft.to/lastmile_qr_scan", "android": "https://dc.lft.to/lastmile_qr_scan"}}, {"is_disabled": 0, "fusion_lat": 0.0, "lat": 38.9196825, "type": "electric_scooter", "lon": -77.03212933333333, "is_reserved": 0, "fusion_lon": 0.0, "bike_id": "926a1b876cb8f49dfc631acff4b06bd1", "name": "926a1b876cb8f49dfc631acff4b06bd1", "rental_uris": {"ios": "https://dc.lft.to/lastmile_qr_scan", "android": "https://dc.lft.to/lastmile_qr_scan"}}, {"is_disabled": 0, "fusion_lat": 0.0, "lat": 38.919998666666665, "type": "electric_scooter", "lon": -77.0219665, "is_reserved": 0, "fusion_lon": 0.0, "bike_id": "998f9f71d9f2f2d872f0c73a08bffbb1", "name": "998f9f71d9f2f2d872f0c73a08bffbb1", "rental_uris": {"ios": "https://dc.lft.to/lastmile_qr_scan", "android": "https://dc.lft.to/lastmile_qr_scan"}}, {"is_disabled": 0, "fusion_lat": 0.0, "lat": 38.90564416666667, "type": "electric_scooter", "lon": -77.005844, "is_reserved": 0, "fusion_lon": 0.0, "bike_id": "7a8c60cad9de588afd2d4fc8acc2075a", "name": "7a8c60cad9de588afd2d4fc8acc2075a", "rental_uris": {"ios": "https://dc.lft.to/lastmile_qr_scan", "android": "https://dc.lft.to/lastmile_qr_scan"}}, {"is_disabled": 0, "fusion_lat": 0.0, "lat": 38.93144566666667, "type": "electric_scooter", "lon": -77.02988466666666, "is_reserved": 0, "fusion_lon": 0.0, "bike_id": "d32a336d998fe3807e04f31970e3344e", "name": "d32a336d998fe3807e04f31970e3344e", "rental_uris": {"ios": "https://dc.lft.to/lastmile_qr_scan", "android": "https://dc.lft.to/lastmile_qr_scan"}}, {"is_disabled": 0, "fusion_lat": 0.0, "lat": 38.902718666666665, "type": "electric_scooter", "lon": -77.04015516666666, "is_reserved": 0, "fusion_lon": 0.0, "bike_id": "d225cdd1989d9f71186b76298a574a10", "name": "d225cdd1989d9f71186b76298a574a10", "rental_uris": {"ios": "https://dc.lft.to/lastmile_qr_scan", "android": "https://dc.lft.to/lastmile_qr_scan"}}, {"is_disabled": 0, "fusion_lat": 0.0, "lat": 38.91558166666667, "type": "electric_scooter", "lon": -77.021555, "is_reserved": 0, "fusion_lon": 0.0, "bike_id": "b2557a3430fd90902ffc64a40a8a027b", "name": "b2557a3430fd90902ffc64a40a8a027b", "rental_uris": {"ios": "https://dc.lft.to/lastmile_qr_scan", "android": "https://dc.lft.to/lastmile_qr_scan"}}, {"is_disabled": 0, "fusion_lat": 0.0, "lat": 38.9174865, "type": "electric_scooter", "lon": -77.03433766666667, "is_reserved": 0, "fusion_lon": 0.0, "bike_id": "5a94bbe616b3a3f63fd7d069e8d31e88", "name": "5a94bbe616b3a3f63fd7d069e8d31e88", "rental_uris": {"ios": "https://dc.lft.to/lastmile_qr_scan", "android": "https://dc.lft.to/lastmile_qr_scan"}}, {"is_disabled": 0, "fusion_lat": 0.0, "lat": 38.855613, "type": "electric_scooter", "lon": -76.99497766666667, "is_reserved": 0, "fusion_lon": 0.0, "bike_id": "1229c57488d20cb385431a4fcdb78e45", "name": "1229c57488d20cb385431a4fcdb78e45", "rental_uris": {"ios": "https://dc.lft.to/lastmile_qr_scan", "android": "https://dc.lft.to/lastmile_qr_scan"}}, {"is_disabled": 0, "fusion_lat": 0.0, "lat": 38.92722, "type": "electric_scooter", "lon": -77.03663183333333, "is_reserved": 0, "fusion_lon": 0.0, "bike_id": "f7e6a38e603bdfb85a235c927d74e9a1", "name": "f7e6a38e603bdfb85a235c927d74e9a1", "rental_uris": {"ios": "https://dc.lft.to/lastmile_qr_scan", "android": "https://dc.lft.to/lastmile_qr_scan"}}, {"is_disabled": 0, "fusion_lat": 0.0, "lat": 38.897988166666664, "type": "electric_scooter", "lon": -77.01895733333333, "is_reserved": 0, "fusion_lon": 0.0, "bike_id": "2e495c03bd8ec39f7a6d168f1010e52e", "name": "2e495c03bd8ec39f7a6d168f1010e52e", "rental_uris": {"ios": "https://dc.lft.to/lastmile_qr_scan", "android": "https://dc.lft.to/lastmile_qr_scan"}}, {"is_disabled": 0, "fusion_lat": 0.0, "lat": 38.93800816666667, "type": "electric_scooter", "lon": -77.05993916666667, "is_reserved": 0, "fusion_lon": 0.0, "bike_id": "85bfc36dcc9175f015d04b8698c76bea", "name": "85bfc36dcc9175f015d04b8698c76bea", "rental_uris": {"ios": "https://dc.lft.to/lastmile_qr_scan", "android": "https://dc.lft.to/lastmile_qr_scan"}}, {"is_disabled": 0, "fusion_lat": 0.0, "lat": 38.879200166666664, "type": "electric_scooter", "lon": -76.99245166666667, "is_reserved": 0, "fusion_lon": 0.0, "bike_id": "b3504970d2811ed79c1772c5d5c5abc0", "name": "b3504970d2811ed79c1772c5d5c5abc0", "rental_uris": {"ios": "https://dc.lft.to/lastmile_qr_scan", "android": "https://dc.lft.to/lastmile_qr_scan"}}, {"is_disabled": 0, "fusion_lat": 0.0, "lat": 38.9130335, "type": "electric_bike", "lon": -77.08290616666666, "is_reserved": 0, "fusion_lon": 0.0, "bike_id": "2924b91da2fcd11f0ced1f0a3895e27c", "name": "2924b91da2fcd11f0ced1f0a3895e27c", "rental_uris": {"ios": "https://dc.lft.to/lastmile_qr_scan", "android": "https://dc.lft.to/lastmile_qr_scan"}}, {"is_disabled": 0, "fusion_lat": 0.0, "lat": 38.91254266666667, "type": "electric_scooter", "lon": -77.02222133333333, "is_reserved": 0, "fusion_lon": 0.0, "bike_id": "b51edf52f0c55c34a9cf5e9fb5fe202e", "name": "b51edf52f0c55c34a9cf5e9fb5fe202e", "rental_uris": {"ios": "https://dc.lft.to/lastmile_qr_scan", "android": "https://dc.lft.to/lastmile_qr_scan"}}, {"is_disabled": 0, "fusion_lat": 0.0, "lat": 38.922818, "type": "electric_scooter", "lon": -77.04133083333333, "is_reserved": 0, "fusion_lon": 0.0, "bike_id": "dada3d62439b8433e5d0f76081fa58c3", "name": "dada3d62439b8433e5d0f76081fa58c3", "rental_uris": {"ios": "https://dc.lft.to/lastmile_qr_scan", "android": "https://dc.lft.to/lastmile_qr_scan"}}, {"is_disabled": 0, "fusion_lat": 0.0, "lat": 38.93361616666667, "type": "electric_scooter", "lon": -77.03443916666667, "is_reserved": 0, "fusion_lon": 0.0, "bike_id": "46b34a95f46784eb5d24a274dfa9bcea", "name": "46b34a95f46784eb5d24a274dfa9bcea", "rental_uris": {"ios": "https://dc.lft.to/lastmile_qr_scan", "android": "https://dc.lft.to/lastmile_qr_scan"}}, {"is_disabled": 0, "fusion_lat": 0.0, "lat": 38.917027, "type": "electric_scooter", "lon": -77.01229883333333, "is_reserved": 0, "fusion_lon": 0.0, "bike_id": "5e3c6dda71a3d00bb01a09737db045f6", "name": "5e3c6dda71a3d00bb01a09737db045f6", "rental_uris": {"ios": "https://dc.lft.to/lastmile_qr_scan", "android": "https://dc.lft.to/lastmile_qr_scan"}}, {"is_disabled": 0, "fusion_lat": 0.0, "lat": 38.913362, "type": "electric_scooter", "lon": -77.048187, "is_reserved": 0, "fusion_lon": 0.0, "bike_id": "cbbf8ef7af6697a5758884080b5efe1c", "name": "cbbf8ef7af6697a5758884080b5efe1c", "rental_uris": {"ios": "https://dc.lft.to/lastmile_qr_scan", "android": "https://dc.lft.to/lastmile_qr_scan"}}, {"is_disabled": 0, "fusion_lat": 0.0, "lat": 38.908657833333336, "type": "electric_scooter", "lon": -76.9979795, "is_reserved": 0, "fusion_lon": 0.0, "bike_id": "f5230198d48f14c10041658d7c697fbf", "name": "f5230198d48f14c10041658d7c697fbf", "rental_uris": {"ios": "https://dc.lft.to/lastmile_qr_scan", "android": "https://dc.lft.to/lastmile_qr_scan"}}, {"is_disabled": 0, "fusion_lat": 0.0, "lat": 38.92363533333334, "type": "electric_scooter", "lon": -77.0190125, "is_reserved": 0, "fusion_lon": 0.0, "bike_id": "68b22f1bbeee525076fde86fc8c472dd", "name": "68b22f1bbeee525076fde86fc8c472dd", "rental_uris": {"ios": "https://dc.lft.to/lastmile_qr_scan", "android": "https://dc.lft.to/lastmile_qr_scan"}}, {"is_disabled": 0, "fusion_lat": 0.0, "lat": 38.9153035, "type": "electric_scooter", "lon": -77.01999816666667, "is_reserved": 0, "fusion_lon": 0.0, "bike_id": "ec7f32d7c02d277ecd916a372d5c422c", "name": "ec7f32d7c02d277ecd916a372d5c422c", "rental_uris": {"ios": "https://dc.lft.to/lastmile_qr_scan", "android": "https://dc.lft.to/lastmile_qr_scan"}}, {"is_disabled": 0, "fusion_lat": 0.0, "lat": 38.880363333333335, "type": "electric_scooter", "lon": -77.00560466666667, "is_reserved": 0, "fusion_lon": 0.0, "bike_id": "3867ae1a6444608057743d2bc4898d06", "name": "3867ae1a6444608057743d2bc4898d06", "rental_uris": {"ios": "https://dc.lft.to/lastmile_qr_scan", "android": "https://dc.lft.to/lastmile_qr_scan"}}, {"is_disabled": 0, "fusion_lat": 0.0, "lat": 38.884773833333334, "type": "electric_scooter", "lon": -76.94598383333333, "is_reserved": 0, "fusion_lon": 0.0, "bike_id": "27b9cc5134602328c4f296e27f72eac8", "name": "27b9cc5134602328c4f296e27f72eac8", "rental_uris": {"ios": "https://dc.lft.to/lastmile_qr_scan", "android": "https://dc.lft.to/lastmile_qr_scan"}}, {"is_disabled": 0, "fusion_lat": 0.0, "lat": 38.924704166666665, "type": "electric_scooter", "lon": -77.0337835, "is_reserved": 0, "fusion_lon": 0.0, "bike_id": "d4d8a934e9ce0444a02e94c3b7133ab9", "name": "d4d8a934e9ce0444a02e94c3b7133ab9", "rental_uris": {"ios": "https://dc.lft.to/lastmile_qr_scan", "android": "https://dc.lft.to/lastmile_qr_scan"}}, {"is_disabled": 0, "fusion_lat": 0.0, "lat": 38.92461133333333, "type": "electric_scooter", "lon": -77.057666, "is_reserved": 0, "fusion_lon": 0.0, "bike_id": "06830e979ae7463fb0a9cd64ae488e34", "name": "06830e979ae7463fb0a9cd64ae488e34", "rental_uris": {"ios": "https://dc.lft.to/lastmile_qr_scan", "android": "https://dc.lft.to/lastmile_qr_scan"}}, {"is_disabled": 0, "fusion_lat": 0.0, "lat": 38.921280333333335, "type": "electric_scooter", "lon": -77.04114516666667, "is_reserved": 0, "fusion_lon": 0.0, "bike_id": "3fa56866498454a17dfca887a0ee9c72", "name": "3fa56866498454a17dfca887a0ee9c72", "rental_uris": {"ios": "https://dc.lft.to/lastmile_qr_scan", "android": "https://dc.lft.to/lastmile_qr_scan"}}, {"is_disabled": 0, "fusion_lat": 0.0, "lat": 38.89027216666667, "type": "electric_scooter", "lon": -76.93723116666666, "is_reserved": 0, "fusion_lon": 0.0, "bike_id": "997811bb98ba39ba815bdcbdaeaa0420", "name": "997811bb98ba39ba815bdcbdaeaa0420", "rental_uris": {"ios": "https://dc.lft.to/lastmile_qr_scan", "android": "https://dc.lft.to/lastmile_qr_scan"}}, {"is_disabled": 0, "fusion_lat": 0.0, "lat": 38.888833, "type": "electric_scooter", "lon": -76.93150366666667, "is_reserved": 0, "fusion_lon": 0.0, "bike_id": "b62131ee6da751a140b101d3bae20d95", "name": "b62131ee6da751a140b101d3bae20d95", "rental_uris": {"ios": "https://dc.lft.to/lastmile_qr_scan", "android": "https://dc.lft.to/lastmile_qr_scan"}}, {"is_disabled": 0, "fusion_lat": 0.0, "lat": 38.8960135, "type": "electric_scooter", "lon": -76.95519366666667, "is_reserved": 0, "fusion_lon": 0.0, "bike_id": "c80482e1832800878047077d9c8122e4", "name": "c80482e1832800878047077d9c8122e4", "rental_uris": {"ios": "https://dc.lft.to/lastmile_qr_scan", "android": "https://dc.lft.to/lastmile_qr_scan"}}, {"is_disabled": 0, "fusion_lat": 0.0, "lat": 38.921133833333336, "type": "electric_scooter", "lon": -77.042159, "is_reserved": 0, "fusion_lon": 0.0, "bike_id": "6bd067059a7bec7dbb4066137dd09aae", "name": "6bd067059a7bec7dbb4066137dd09aae", "rental_uris": {"ios": "https://dc.lft.to/lastmile_qr_scan", "android": "https://dc.lft.to/lastmile_qr_scan"}}, {"is_disabled": 0, "fusion_lat": 0.0, "lat": 38.9191285, "type": "electric_scooter", "lon": -77.0462225, "is_reserved": 0, "fusion_lon": 0.0, "bike_id": "3f2830b2929ff3f9c501de6cb8e2928f", "name": "3f2830b2929ff3f9c501de6cb8e2928f", "rental_uris": {"ios": "https://dc.lft.to/lastmile_qr_scan", "android": "https://dc.lft.to/lastmile_qr_scan"}}, {"is_disabled": 0, "fusion_lat": 0.0, "lat": 38.91702433333333, "type": "electric_scooter", "lon": -77.03477283333334, "is_reserved": 0, "fusion_lon": 0.0, "bike_id": "9bb327076cfe49b2ce32388238b6c489", "name": "9bb327076cfe49b2ce32388238b6c489", "rental_uris": {"ios": "https://dc.lft.to/lastmile_qr_scan", "android": "https://dc.lft.to/lastmile_qr_scan"}}, {"is_disabled": 0, "fusion_lat": 0.0, "lat": 38.853215, "type": "electric_scooter", "lon": -76.98005316666666, "is_reserved": 0, "fusion_lon": 0.0, "bike_id": "96cd0a8e20c1f4c7193d08f3af8ca6a1", "name": "96cd0a8e20c1f4c7193d08f3af8ca6a1", "rental_uris": {"ios": "https://dc.lft.to/lastmile_qr_scan", "android": "https://dc.lft.to/lastmile_qr_scan"}}, {"is_disabled": 0, "fusion_lat": 0.0, "lat": 38.8960915, "type": "electric_scooter", "lon": -77.04241233333333, "is_reserved": 0, "fusion_lon": 0.0, "bike_id": "57f98a2f66d0b1e7ef97692990a39657", "name": "57f98a2f66d0b1e7ef97692990a39657", "rental_uris": {"ios": "https://dc.lft.to/lastmile_qr_scan", "android": "https://dc.lft.to/lastmile_qr_scan"}}, {"is_disabled": 0, "fusion_lat": 0.0, "lat": 38.8989985, "type": "electric_scooter", "lon": -77.0037015, "is_reserved": 0, "fusion_lon": 0.0, "bike_id": "37684ad1d25f13c66aed6f4e4c0417e3", "name": "37684ad1d25f13c66aed6f4e4c0417e3", "rental_uris": {"ios": "https://dc.lft.to/lastmile_qr_scan", "android": "https://dc.lft.to/lastmile_qr_scan"}}, {"is_disabled": 0, "fusion_lat": 0.0, "lat": 38.900305333333336, "type": "electric_scooter", "lon": -77.00207683333333, "is_reserved": 0, "fusion_lon": 0.0, "bike_id": "fce169581527c52e2f4446b6eade9b72", "name": "fce169581527c52e2f4446b6eade9b72", "rental_uris": {"ios": "https://dc.lft.to/lastmile_qr_scan", "android": "https://dc.lft.to/lastmile_qr_scan"}}, {"is_disabled": 0, "fusion_lat": 0.0, "lat": 38.9057095, "type": "electric_scooter", "lon": -77.02198383333334, "is_reserved": 0, "fusion_lon": 0.0, "bike_id": "4a924f96e9f679f7b748f2d530871ea8", "name": "4a924f96e9f679f7b748f2d530871ea8", "rental_uris": {"ios": "https://dc.lft.to/lastmile_qr_scan", "android": "https://dc.lft.to/lastmile_qr_scan"}}, {"is_disabled": 0, "fusion_lat": 0.0, "lat": 38.9190765, "type": "electric_scooter", "lon": -77.04111, "is_reserved": 0, "fusion_lon": 0.0, "bike_id": "a197e820056426141e6f701f045e4465", "name": "a197e820056426141e6f701f045e4465", "rental_uris": {"ios": "https://dc.lft.to/lastmile_qr_scan", "android": "https://dc.lft.to/lastmile_qr_scan"}}, {"is_disabled": 0, "fusion_lat": 0.0, "lat": 38.961466333333334, "type": "electric_scooter", "lon": -76.99775033333333, "is_reserved": 0, "fusion_lon": 0.0, "bike_id": "37f2d6ae96e08bbbf395bdb23871e9d6", "name": "37f2d6ae96e08bbbf395bdb23871e9d6", "rental_uris": {"ios": "https://dc.lft.to/lastmile_qr_scan", "android": "https://dc.lft.to/lastmile_qr_scan"}}, {"is_disabled": 0, "fusion_lat": 0.0, "lat": 38.933945, "type": "electric_scooter", "lon": -77.02050816666667, "is_reserved": 0, "fusion_lon": 0.0, "bike_id": "9b2d86d68207e05000afc70b7a3b9643", "name": "9b2d86d68207e05000afc70b7a3b9643", "rental_uris": {"ios": "https://dc.lft.to/lastmile_qr_scan", "android": "https://dc.lft.to/lastmile_qr_scan"}}, {"is_disabled": 0, "fusion_lat": 0.0, "lat": 38.92250716666667, "type": "electric_scooter", "lon": -77.041434, "is_reserved": 0, "fusion_lon": 0.0, "bike_id": "d9df72ee70a49965eaa24f61fb6b18d1", "name": "d9df72ee70a49965eaa24f61fb6b18d1", "rental_uris": {"ios": "https://dc.lft.to/lastmile_qr_scan", "android": "https://dc.lft.to/lastmile_qr_scan"}}, {"is_disabled": 0, "fusion_lat": 0.0, "lat": 38.933131333333336, "type": "electric_scooter", "lon": -77.0328105, "is_reserved": 0, "fusion_lon": 0.0, "bike_id": "7d6a8fc3b661793c7b60b8fd12595ddb", "name": "7d6a8fc3b661793c7b60b8fd12595ddb", "rental_uris": {"ios": "https://dc.lft.to/lastmile_qr_scan", "android": "https://dc.lft.to/lastmile_qr_scan"}}, {"is_disabled": 0, "fusion_lat": 0.0, "lat": 38.9404305, "type": "electric_scooter", "lon": -77.02978033333333, "is_reserved": 0, "fusion_lon": 0.0, "bike_id": "eeb7e87905e01462c5fccec1f00c29ff", "name": "eeb7e87905e01462c5fccec1f00c29ff", "rental_uris": {"ios": "https://dc.lft.to/lastmile_qr_scan", "android": "https://dc.lft.to/lastmile_qr_scan"}}, {"is_disabled": 0, "fusion_lat": 0.0, "lat": 38.914757333333334, "type": "electric_scooter", "lon": -77.00949366666667, "is_reserved": 0, "fusion_lon": 0.0, "bike_id": "f9f67efcd52a6041aac75cb8bb75e0e8", "name": "f9f67efcd52a6041aac75cb8bb75e0e8", "rental_uris": {"ios": "https://dc.lft.to/lastmile_qr_scan", "android": "https://dc.lft.to/lastmile_qr_scan"}}, {"is_disabled": 0, "fusion_lat": 0.0, "lat": 38.908425666666666, "type": "electric_scooter", "lon": -77.04468616666666, "is_reserved": 0, "fusion_lon": 0.0, "bike_id": "d56a064ecb6ccac857829dcbffadfd12", "name": "d56a064ecb6ccac857829dcbffadfd12", "rental_uris": {"ios": "https://dc.lft.to/lastmile_qr_scan", "android": "https://dc.lft.to/lastmile_qr_scan"}}, {"is_disabled": 0, "fusion_lat": 0.0, "lat": 38.87227383333333, "type": "electric_scooter", "lon": -77.01196266666666, "is_reserved": 0, "fusion_lon": 0.0, "bike_id": "5ee59628ebdee2ec3e1399a93dea0d06", "name": "5ee59628ebdee2ec3e1399a93dea0d06", "rental_uris": {"ios": "https://dc.lft.to/lastmile_qr_scan", "android": "https://dc.lft.to/lastmile_qr_scan"}}, {"is_disabled": 0, "fusion_lat": 0.0, "lat": 38.90322283333333, "type": "electric_scooter", "lon": -76.972915, "is_reserved": 0, "fusion_lon": 0.0, "bike_id": "3af5259202e38c954f63b7a0b67c27a6", "name": "3af5259202e38c954f63b7a0b67c27a6", "rental_uris": {"ios": "https://dc.lft.to/lastmile_qr_scan", "android": "https://dc.lft.to/lastmile_qr_scan"}}, {"is_disabled": 0, "fusion_lat": 0.0, "lat": 38.887828999999996, "type": "electric_scooter", "lon": -76.95535366666667, "is_reserved": 0, "fusion_lon": 0.0, "bike_id": "b10293c14b6e49a4a194ff0f6a4ed833", "name": "b10293c14b6e49a4a194ff0f6a4ed833", "rental_uris": {"ios": "https://dc.lft.to/lastmile_qr_scan", "android": "https://dc.lft.to/lastmile_qr_scan"}}, {"is_disabled": 0, "fusion_lat": 0.0, "lat": 38.930942333333334, "type": "electric_scooter", "lon": -77.02393183333334, "is_reserved": 0, "fusion_lon": 0.0, "bike_id": "290b56983b2ba0be59ffe72b188d596f", "name": "290b56983b2ba0be59ffe72b188d596f", "rental_uris": {"ios": "https://dc.lft.to/lastmile_qr_scan", "android": "https://dc.lft.to/lastmile_qr_scan"}}, {"is_disabled": 0, "fusion_lat": 0.0, "lat": 38.882007, "type": "electric_scooter", "lon": -76.99944566666667, "is_reserved": 0, "fusion_lon": 0.0, "bike_id": "e26a5758cfc0e4150c32a0f39fe2783c", "name": "e26a5758cfc0e4150c32a0f39fe2783c", "rental_uris": {"ios": "https://dc.lft.to/lastmile_qr_scan", "android": "https://dc.lft.to/lastmile_qr_scan"}}, {"is_disabled": 0, "fusion_lat": 0.0, "lat": 38.926071, "type": "electric_scooter", "lon": -77.05684916666667, "is_reserved": 0, "fusion_lon": 0.0, "bike_id": "848653c85f232b22fb6ca940d3f954a4", "name": "848653c85f232b22fb6ca940d3f954a4", "rental_uris": {"ios": "https://dc.lft.to/lastmile_qr_scan", "android": "https://dc.lft.to/lastmile_qr_scan"}}, {"is_disabled": 0, "fusion_lat": 0.0, "lat": 38.81051216666667, "type": "electric_bike", "lon": -77.08509966666666, "is_reserved": 0, "fusion_lon": 0.0, "bike_id": "2dbf2bf8aeea4ed49985394042aa6def", "name": "2dbf2bf8aeea4ed49985394042aa6def", "rental_uris": {"ios": "https://dc.lft.to/lastmile_qr_scan", "android": "https://dc.lft.to/lastmile_qr_scan"}}, {"is_disabled": 0, "fusion_lat": 0.0, "lat": 38.90356, "type": "electric_scooter", "lon": -77.00339633333333, "is_reserved": 0, "fusion_lon": 0.0, "bike_id": "23484d14d9fa98230b4525b66a9a3da9", "name": "23484d14d9fa98230b4525b66a9a3da9", "rental_uris": {"ios": "https://dc.lft.to/lastmile_qr_scan", "android": "https://dc.lft.to/lastmile_qr_scan"}}, {"is_disabled": 0, "fusion_lat": 0.0, "lat": 38.9156495, "type": "electric_scooter", "lon": -77.009643, "is_reserved": 0, "fusion_lon": 0.0, "bike_id": "aef8a39b3097c2654edb25b7bb4742f2", "name": "aef8a39b3097c2654edb25b7bb4742f2", "rental_uris": {"ios": "https://dc.lft.to/lastmile_qr_scan", "android": "https://dc.lft.to/lastmile_qr_scan"}}, {"is_disabled": 0, "fusion_lat": 0.0, "lat": 38.88684816666667, "type": "electric_scooter", "lon": -77.0020395, "is_reserved": 0, "fusion_lon": 0.0, "bike_id": "d020e3433997c3b161ce53abab3e6165", "name": "d020e3433997c3b161ce53abab3e6165", "rental_uris": {"ios": "https://dc.lft.to/lastmile_qr_scan", "android": "https://dc.lft.to/lastmile_qr_scan"}}, {"is_disabled": 0, "fusion_lat": 0.0, "lat": 38.90943266666667, "type": "electric_scooter", "lon": -77.04662166666667, "is_reserved": 0, "fusion_lon": 0.0, "bike_id": "649de227db24db6a458ae9bbfd853f12", "name": "649de227db24db6a458ae9bbfd853f12", "rental_uris": {"ios": "https://dc.lft.to/lastmile_qr_scan", "android": "https://dc.lft.to/lastmile_qr_scan"}}, {"is_disabled": 0, "fusion_lat": 0.0, "lat": 38.9081535, "type": "electric_scooter", "lon": -77.0339155, "is_reserved": 0, "fusion_lon": 0.0, "bike_id": "0a0f333002d39fa409e27559112b74db", "name": "0a0f333002d39fa409e27559112b74db", "rental_uris": {"ios": "https://dc.lft.to/lastmile_qr_scan", "android": "https://dc.lft.to/lastmile_qr_scan"}}, {"is_disabled": 0, "fusion_lat": 0.0, "lat": 38.906422166666665, "type": "electric_scooter", "lon": -77.01136016666666, "is_reserved": 0, "fusion_lon": 0.0, "bike_id": "f8682111ec78eab9a1acf076dc1933be", "name": "f8682111ec78eab9a1acf076dc1933be", "rental_uris": {"ios": "https://dc.lft.to/lastmile_qr_scan", "android": "https://dc.lft.to/lastmile_qr_scan"}}, {"is_disabled": 0, "fusion_lat": 0.0, "lat": 38.904695, "type": "electric_scooter", "lon": -77.05326216666667, "is_reserved": 0, "fusion_lon": 0.0, "bike_id": "967af4cd2ca9a6e28620356b2802db2b", "name": "967af4cd2ca9a6e28620356b2802db2b", "rental_uris": {"ios": "https://dc.lft.to/lastmile_qr_scan", "android": "https://dc.lft.to/lastmile_qr_scan"}}, {"is_disabled": 0, "fusion_lat": 0.0, "lat": 38.844253, "type": "electric_scooter", "lon": -76.99775683333333, "is_reserved": 0, "fusion_lon": 0.0, "bike_id": "2a688cec943a250f0cf2e601c41545d0", "name": "2a688cec943a250f0cf2e601c41545d0", "rental_uris": {"ios": "https://dc.lft.to/lastmile_qr_scan", "android": "https://dc.lft.to/lastmile_qr_scan"}}, {"is_disabled": 0, "fusion_lat": 0.0, "lat": 38.896167166666665, "type": "electric_scooter", "lon": -77.045026, "is_reserved": 0, "fusion_lon": 0.0, "bike_id": "a43a5c796ee2ff42f0fd7c5dabb5e3b7", "name": "a43a5c796ee2ff42f0fd7c5dabb5e3b7", "rental_uris": {"ios": "https://dc.lft.to/lastmile_qr_scan", "android": "https://dc.lft.to/lastmile_qr_scan"}}, {"is_disabled": 0, "fusion_lat": 0.0, "lat": 38.854353833333334, "type": "electric_bike", "lon": -76.9096825, "is_reserved": 0, "fusion_lon": 0.0, "bike_id": "6d809e4c786e9c49d6b123c95f6fecb5", "name": "6d809e4c786e9c49d6b123c95f6fecb5", "rental_uris": {"ios": "https://dc.lft.to/lastmile_qr_scan", "android": "https://dc.lft.to/lastmile_qr_scan"}}, {"is_disabled": 0, "fusion_lat": 0.0, "lat": 38.8922145, "type": "electric_scooter", "lon": -77.048601, "is_reserved": 0, "fusion_lon": 0.0, "bike_id": "395017da5625d01e24aa7908de64a2c9", "name": "395017da5625d01e24aa7908de64a2c9", "rental_uris": {"ios": "https://dc.lft.to/lastmile_qr_scan", "android": "https://dc.lft.to/lastmile_qr_scan"}}, {"is_disabled": 0, "fusion_lat": 0.0, "lat": 38.91115, "type": "electric_scooter", "lon": -77.03829, "is_reserved": 0, "fusion_lon": 0.0, "bike_id": "1e7d813c9b6e232f060cbca23d0c0e46", "name": "1e7d813c9b6e232f060cbca23d0c0e46", "rental_uris": {"ios": "https://dc.lft.to/lastmile_qr_scan", "android": "https://dc.lft.to/lastmile_qr_scan"}}, {"is_disabled": 0, "fusion_lat": 0.0, "lat": 38.877430833333335, "type": "electric_bike", "lon": -76.98053533333334, "is_reserved": 0, "fusion_lon": 0.0, "bike_id": "71a4340ea219b1e2c33b280900b72459", "name": "71a4340ea219b1e2c33b280900b72459", "rental_uris": {"ios": "https://dc.lft.to/lastmile_qr_scan", "android": "https://dc.lft.to/lastmile_qr_scan"}}, {"is_disabled": 0, "fusion_lat": 0.0, "lat": 38.9063825, "type": "electric_scooter", "lon": -77.03580083333334, "is_reserved": 0, "fusion_lon": 0.0, "bike_id": "c076a05f32a4b6e4d67cf64e56da27b0", "name": "c076a05f32a4b6e4d67cf64e56da27b0", "rental_uris": {"ios": "https://dc.lft.to/lastmile_qr_scan", "android": "https://dc.lft.to/lastmile_qr_scan"}}, {"is_disabled": 0, "fusion_lat": 0.0, "lat": 38.934208, "type": "electric_scooter", "lon": -77.028485, "is_reserved": 0, "fusion_lon": 0.0, "bike_id": "909269a65e21524029cc74b3e8730893", "name": "909269a65e21524029cc74b3e8730893", "rental_uris": {"ios": "https://dc.lft.to/lastmile_qr_scan", "android": "https://dc.lft.to/lastmile_qr_scan"}}, {"is_disabled": 0, "fusion_lat": 0.0, "lat": 38.902744166666665, "type": "electric_scooter", "lon": -77.0601665, "is_reserved": 0, "fusion_lon": 0.0, "bike_id": "e79e21e786b1dad9a561a069b28ae3c7", "name": "e79e21e786b1dad9a561a069b28ae3c7", "rental_uris": {"ios": "https://dc.lft.to/lastmile_qr_scan", "android": "https://dc.lft.to/lastmile_qr_scan"}}, {"is_disabled": 0, "fusion_lat": 0.0, "lat": 38.938801166666664, "type": "electric_scooter", "lon": -77.02476883333334, "is_reserved": 0, "fusion_lon": 0.0, "bike_id": "dfa6e73bdf723ecbfb18159965583bb2", "name": "dfa6e73bdf723ecbfb18159965583bb2", "rental_uris": {"ios": "https://dc.lft.to/lastmile_qr_scan", "android": "https://dc.lft.to/lastmile_qr_scan"}}, {"is_disabled": 0, "fusion_lat": 0.0, "lat": 38.87900466666667, "type": "electric_scooter", "lon": -77.00530333333333, "is_reserved": 0, "fusion_lon": 0.0, "bike_id": "0f6815e04eb217cff04ad6b5a26c6d74", "name": "0f6815e04eb217cff04ad6b5a26c6d74", "rental_uris": {"ios": "https://dc.lft.to/lastmile_qr_scan", "android": "https://dc.lft.to/lastmile_qr_scan"}}, {"is_disabled": 0, "fusion_lat": 0.0, "lat": 38.91485016666667, "type": "electric_scooter", "lon": -77.03231033333333, "is_reserved": 0, "fusion_lon": 0.0, "bike_id": "20f83bf3e6793c27a1b99b230c0e52e3", "name": "20f83bf3e6793c27a1b99b230c0e52e3", "rental_uris": {"ios": "https://dc.lft.to/lastmile_qr_scan", "android": "https://dc.lft.to/lastmile_qr_scan"}}, {"is_disabled": 0, "fusion_lat": 0.0, "lat": 38.84621216666667, "type": "electric_bike", "lon": -77.06936083333333, "is_reserved": 0, "fusion_lon": 0.0, "bike_id": "f917f7b0233cb3721e4fb295b8c1d583", "name": "f917f7b0233cb3721e4fb295b8c1d583", "rental_uris": {"ios": "https://dc.lft.to/lastmile_qr_scan", "android": "https://dc.lft.to/lastmile_qr_scan"}}, {"is_disabled": 0, "fusion_lat": 0.0, "lat": 38.921637, "type": "electric_scooter", "lon": -77.04010983333333, "is_reserved": 0, "fusion_lon": 0.0, "bike_id": "4cd4c35534f8cbad55d07daf8bd6c13a", "name": "4cd4c35534f8cbad55d07daf8bd6c13a", "rental_uris": {"ios": "https://dc.lft.to/lastmile_qr_scan", "android": "https://dc.lft.to/lastmile_qr_scan"}}, {"is_disabled": 0, "fusion_lat": 0.0, "lat": 38.92328766666667, "type": "electric_scooter", "lon": -77.03896983333334, "is_reserved": 0, "fusion_lon": 0.0, "bike_id": "94c911b8eaf05e3627c2f362f6604f6e", "name": "94c911b8eaf05e3627c2f362f6604f6e", "rental_uris": {"ios": "https://dc.lft.to/lastmile_qr_scan", "android": "https://dc.lft.to/lastmile_qr_scan"}}, {"is_disabled": 0, "fusion_lat": 0.0, "lat": 39.0305055, "type": "electric_bike", "lon": -77.094843, "is_reserved": 0, "fusion_lon": 0.0, "bike_id": "516df83f24ee7ad60d89ab0c0e013d2c", "name": "516df83f24ee7ad60d89ab0c0e013d2c", "rental_uris": {"ios": "https://dc.lft.to/lastmile_qr_scan", "android": "https://dc.lft.to/lastmile_qr_scan"}}, {"is_disabled": 0, "fusion_lat": 0.0, "lat": 38.905445666666665, "type": "electric_scooter", "lon": -77.04655016666666, "is_reserved": 0, "fusion_lon": 0.0, "bike_id": "cc4fed43babdddafeab27356ae243d17", "name": "cc4fed43babdddafeab27356ae243d17", "rental_uris": {"ios": "https://dc.lft.to/lastmile_qr_scan", "android": "https://dc.lft.to/lastmile_qr_scan"}}, {"is_disabled": 0, "fusion_lat": 0.0, "lat": 38.904969333333334, "type": "electric_scooter", "lon": -77.06277066666667, "is_reserved": 0, "fusion_lon": 0.0, "bike_id": "0133f268ec859bfada90e14b787598f9", "name": "0133f268ec859bfada90e14b787598f9", "rental_uris": {"ios": "https://dc.lft.to/lastmile_qr_scan", "android": "https://dc.lft.to/lastmile_qr_scan"}}, {"is_disabled": 0, "fusion_lat": 0.0, "lat": 38.897751166666666, "type": "electric_scooter", "lon": -76.97725766666667, "is_reserved": 0, "fusion_lon": 0.0, "bike_id": "35a57ac3059dc08d01e3fb1819b79ab1", "name": "35a57ac3059dc08d01e3fb1819b79ab1", "rental_uris": {"ios": "https://dc.lft.to/lastmile_qr_scan", "android": "https://dc.lft.to/lastmile_qr_scan"}}, {"is_disabled": 0, "fusion_lat": 0.0, "lat": 38.88706766666667, "type": "electric_scooter", "lon": -77.0015195, "is_reserved": 0, "fusion_lon": 0.0, "bike_id": "24742e125a6572c36664ac9a19aa6d08", "name": "24742e125a6572c36664ac9a19aa6d08", "rental_uris": {"ios": "https://dc.lft.to/lastmile_qr_scan", "android": "https://dc.lft.to/lastmile_qr_scan"}}, {"is_disabled": 0, "fusion_lat": 0.0, "lat": 38.9217575, "type": "electric_scooter", "lon": -77.04240666666666, "is_reserved": 0, "fusion_lon": 0.0, "bike_id": "2d88c7afaa9f7875841971b54909eea4", "name": "2d88c7afaa9f7875841971b54909eea4", "rental_uris": {"ios": "https://dc.lft.to/lastmile_qr_scan", "android": "https://dc.lft.to/lastmile_qr_scan"}}, {"is_disabled": 0, "fusion_lat": 0.0, "lat": 38.89243033333333, "type": "electric_bike", "lon": -76.98543033333333, "is_reserved": 0, "fusion_lon": 0.0, "bike_id": "90f66aa0720cfc4dd5cb606f3983b176", "name": "90f66aa0720cfc4dd5cb606f3983b176", "rental_uris": {"ios": "https://dc.lft.to/lastmile_qr_scan", "android": "https://dc.lft.to/lastmile_qr_scan"}}, {"is_disabled": 0, "fusion_lat": 0.0, "lat": 38.923086166666664, "type": "electric_scooter", "lon": -77.02114666666667, "is_reserved": 0, "fusion_lon": 0.0, "bike_id": "c8ad3b6e0008359526d2ecd9fe03b7bd", "name": "c8ad3b6e0008359526d2ecd9fe03b7bd", "rental_uris": {"ios": "https://dc.lft.to/lastmile_qr_scan", "android": "https://dc.lft.to/lastmile_qr_scan"}}, {"is_disabled": 0, "fusion_lat": 0.0, "lat": 38.8946415, "type": "electric_scooter", "lon": -76.99383783333333, "is_reserved": 0, "fusion_lon": 0.0, "bike_id": "1ad5a011133845eee98d4bcc6ba8e230", "name": "1ad5a011133845eee98d4bcc6ba8e230", "rental_uris": {"ios": "https://dc.lft.to/lastmile_qr_scan", "android": "https://dc.lft.to/lastmile_qr_scan"}}, {"is_disabled": 0, "fusion_lat": 0.0, "lat": 38.931656833333335, "type": "electric_scooter", "lon": -77.036295, "is_reserved": 0, "fusion_lon": 0.0, "bike_id": "c84e873a54e62b96e52569b2f8b017ac", "name": "c84e873a54e62b96e52569b2f8b017ac", "rental_uris": {"ios": "https://dc.lft.to/lastmile_qr_scan", "android": "https://dc.lft.to/lastmile_qr_scan"}}, {"is_disabled": 0, "fusion_lat": 0.0, "lat": 38.91547716666667, "type": "electric_scooter", "lon": -77.0350885, "is_reserved": 0, "fusion_lon": 0.0, "bike_id": "dfe56bd823ec217268d29bd040eb0d64", "name": "dfe56bd823ec217268d29bd040eb0d64", "rental_uris": {"ios": "https://dc.lft.to/lastmile_qr_scan", "android": "https://dc.lft.to/lastmile_qr_scan"}}, {"is_disabled": 0, "fusion_lat": 0.0, "lat": 38.91708166666667, "type": "electric_scooter", "lon": -77.0288405, "is_reserved": 0, "fusion_lon": 0.0, "bike_id": "30d89dca1a9ef0ed1dbe29b0ea620335", "name": "30d89dca1a9ef0ed1dbe29b0ea620335", "rental_uris": {"ios": "https://dc.lft.to/lastmile_qr_scan", "android": "https://dc.lft.to/lastmile_qr_scan"}}, {"is_disabled": 0, "fusion_lat": 0.0, "lat": 38.8885975, "type": "electric_scooter", "lon": -77.0011455, "is_reserved": 0, "fusion_lon": 0.0, "bike_id": "56eff724ef05334ed7dbac435483aa78", "name": "56eff724ef05334ed7dbac435483aa78", "rental_uris": {"ios": "https://dc.lft.to/lastmile_qr_scan", "android": "https://dc.lft.to/lastmile_qr_scan"}}, {"is_disabled": 0, "fusion_lat": 0.0, "lat": 38.89652133333333, "type": "electric_scooter", "lon": -77.04960833333334, "is_reserved": 0, "fusion_lon": 0.0, "bike_id": "bcd8fec4a0fe707860a509f3874868ed", "name": "bcd8fec4a0fe707860a509f3874868ed", "rental_uris": {"ios": "https://dc.lft.to/lastmile_qr_scan", "android": "https://dc.lft.to/lastmile_qr_scan"}}, {"is_disabled": 0, "fusion_lat": 0.0, "lat": 38.90718716666667, "type": "electric_scooter", "lon": -77.02537283333334, "is_reserved": 0, "fusion_lon": 0.0, "bike_id": "4a4d634727e5ce926088c38579f9e721", "name": "4a4d634727e5ce926088c38579f9e721", "rental_uris": {"ios": "https://dc.lft.to/lastmile_qr_scan", "android": "https://dc.lft.to/lastmile_qr_scan"}}, {"is_disabled": 0, "fusion_lat": 0.0, "lat": 38.906590333333334, "type": "electric_scooter", "lon": -77.0082305, "is_reserved": 0, "fusion_lon": 0.0, "bike_id": "ead56d664aa46657d991374ac75d42f3", "name": "ead56d664aa46657d991374ac75d42f3", "rental_uris": {"ios": "https://dc.lft.to/lastmile_qr_scan", "android": "https://dc.lft.to/lastmile_qr_scan"}}, {"is_disabled": 0, "fusion_lat": 0.0, "lat": 38.88034533333333, "type": "electric_scooter", "lon": -77.03075966666667, "is_reserved": 0, "fusion_lon": 0.0, "bike_id": "7967f2344d5519dffb3ae098bd381dd2", "name": "7967f2344d5519dffb3ae098bd381dd2", "rental_uris": {"ios": "https://dc.lft.to/lastmile_qr_scan", "android": "https://dc.lft.to/lastmile_qr_scan"}}, {"is_disabled": 0, "fusion_lat": 0.0, "lat": 38.9209945, "type": "electric_scooter", "lon": -77.0633445, "is_reserved": 0, "fusion_lon": 0.0, "bike_id": "707b4c707485d1fa873a4efafd8e94ce", "name": "707b4c707485d1fa873a4efafd8e94ce", "rental_uris": {"ios": "https://dc.lft.to/lastmile_qr_scan", "android": "https://dc.lft.to/lastmile_qr_scan"}}, {"is_disabled": 0, "fusion_lat": 0.0, "lat": 38.86662716666667, "type": "electric_scooter", "lon": -76.989064, "is_reserved": 0, "fusion_lon": 0.0, "bike_id": "f3de3d057ad438fa6e97961ae6fecb20", "name": "f3de3d057ad438fa6e97961ae6fecb20", "rental_uris": {"ios": "https://dc.lft.to/lastmile_qr_scan", "android": "https://dc.lft.to/lastmile_qr_scan"}}, {"is_disabled": 0, "fusion_lat": 0.0, "lat": 38.92284866666667, "type": "electric_scooter", "lon": -77.029671, "is_reserved": 0, "fusion_lon": 0.0, "bike_id": "bbbd233c2e2ba290e361ca34977a3c34", "name": "bbbd233c2e2ba290e361ca34977a3c34", "rental_uris": {"ios": "https://dc.lft.to/lastmile_qr_scan", "android": "https://dc.lft.to/lastmile_qr_scan"}}, {"is_disabled": 0, "fusion_lat": 0.0, "lat": 38.91747683333333, "type": "electric_scooter", "lon": -77.034644, "is_reserved": 0, "fusion_lon": 0.0, "bike_id": "934ce7e0d32195c22cf08bd03451c730", "name": "934ce7e0d32195c22cf08bd03451c730", "rental_uris": {"ios": "https://dc.lft.to/lastmile_qr_scan", "android": "https://dc.lft.to/lastmile_qr_scan"}}, {"is_disabled": 0, "fusion_lat": 0.0, "lat": 38.903297, "type": "electric_scooter", "lon": -77.03457983333334, "is_reserved": 0, "fusion_lon": 0.0, "bike_id": "1ee99aa76f0a211a0d0a711fb7337f41", "name": "1ee99aa76f0a211a0d0a711fb7337f41", "rental_uris": {"ios": "https://dc.lft.to/lastmile_qr_scan", "android": "https://dc.lft.to/lastmile_qr_scan"}}, {"is_disabled": 0, "fusion_lat": 0.0, "lat": 38.91659966666667, "type": "electric_scooter", "lon": -77.04178916666666, "is_reserved": 0, "fusion_lon": 0.0, "bike_id": "b3f4da2d28248bdeece552c515492015", "name": "b3f4da2d28248bdeece552c515492015", "rental_uris": {"ios": "https://dc.lft.to/lastmile_qr_scan", "android": "https://dc.lft.to/lastmile_qr_scan"}}, {"is_disabled": 0, "fusion_lat": 0.0, "lat": 38.859585, "type": "electric_scooter", "lon": -76.99102, "is_reserved": 0, "fusion_lon": 0.0, "bike_id": "effb7484394bdeaed3163879dba36a70", "name": "effb7484394bdeaed3163879dba36a70", "rental_uris": {"ios": "https://dc.lft.to/lastmile_qr_scan", "android": "https://dc.lft.to/lastmile_qr_scan"}}, {"is_disabled": 0, "fusion_lat": 0.0, "lat": 38.939823833333335, "type": "electric_scooter", "lon": -77.02894716666667, "is_reserved": 0, "fusion_lon": 0.0, "bike_id": "6f57690e3c93071c9d7bcc71a52ddb0f", "name": "6f57690e3c93071c9d7bcc71a52ddb0f", "rental_uris": {"ios": "https://dc.lft.to/lastmile_qr_scan", "android": "https://dc.lft.to/lastmile_qr_scan"}}, {"is_disabled": 0, "fusion_lat": 0.0, "lat": 38.92483633333333, "type": "electric_scooter", "lon": -77.0262265, "is_reserved": 0, "fusion_lon": 0.0, "bike_id": "7e54405bf9f76d1e839342b0eb42892a", "name": "7e54405bf9f76d1e839342b0eb42892a", "rental_uris": {"ios": "https://dc.lft.to/lastmile_qr_scan", "android": "https://dc.lft.to/lastmile_qr_scan"}}, {"is_disabled": 0, "fusion_lat": 0.0, "lat": 38.912365, "type": "electric_bike", "lon": -77.073033, "is_reserved": 0, "fusion_lon": 0.0, "bike_id": "956199778bd60ae613b0c6dbee1fd635", "name": "956199778bd60ae613b0c6dbee1fd635", "rental_uris": {"ios": "https://dc.lft.to/lastmile_qr_scan", "android": "https://dc.lft.to/lastmile_qr_scan"}}, {"is_disabled": 0, "fusion_lat": 0.0, "lat": 38.8922445, "type": "electric_scooter", "lon": -77.04656516666667, "is_reserved": 0, "fusion_lon": 0.0, "bike_id": "71d22ff88184947ad975d0ab97cd67f2", "name": "71d22ff88184947ad975d0ab97cd67f2", "rental_uris": {"ios": "https://dc.lft.to/lastmile_qr_scan", "android": "https://dc.lft.to/lastmile_qr_scan"}}, {"is_disabled": 0, "fusion_lat": 0.0, "lat": 38.91815966666667, "type": "electric_scooter", "lon": -77.03288933333333, "is_reserved": 0, "fusion_lon": 0.0, "bike_id": "6dde7d7cfdd70ef0ddf6fde5516fba25", "name": "6dde7d7cfdd70ef0ddf6fde5516fba25", "rental_uris": {"ios": "https://dc.lft.to/lastmile_qr_scan", "android": "https://dc.lft.to/lastmile_qr_scan"}}, {"is_disabled": 0, "fusion_lat": 0.0, "lat": 38.936327666666664, "type": "electric_scooter", "lon": -77.03657433333333, "is_reserved": 0, "fusion_lon": 0.0, "bike_id": "606e1708351021aac21f50d4e95d784b", "name": "606e1708351021aac21f50d4e95d784b", "rental_uris": {"ios": "https://dc.lft.to/lastmile_qr_scan", "android": "https://dc.lft.to/lastmile_qr_scan"}}, {"is_disabled": 0, "fusion_lat": 0.0, "lat": 38.8784135, "type": "electric_scooter", "lon": -77.01961366666667, "is_reserved": 0, "fusion_lon": 0.0, "bike_id": "2218c593d8646d824463d0b61bb68687", "name": "2218c593d8646d824463d0b61bb68687", "rental_uris": {"ios": "https://dc.lft.to/lastmile_qr_scan", "android": "https://dc.lft.to/lastmile_qr_scan"}}, {"is_disabled": 0, "fusion_lat": 0.0, "lat": 38.912972333333336, "type": "electric_scooter", "lon": -77.01962916666666, "is_reserved": 0, "fusion_lon": 0.0, "bike_id": "887ef796bfb0170552c107925f34b792", "name": "887ef796bfb0170552c107925f34b792", "rental_uris": {"ios": "https://dc.lft.to/lastmile_qr_scan", "android": "https://dc.lft.to/lastmile_qr_scan"}}, {"is_disabled": 0, "fusion_lat": 0.0, "lat": 38.91690766666667, "type": "electric_scooter", "lon": -77.04612083333333, "is_reserved": 0, "fusion_lon": 0.0, "bike_id": "8358254005bcb83c0f0b7d135619a760", "name": "8358254005bcb83c0f0b7d135619a760", "rental_uris": {"ios": "https://dc.lft.to/lastmile_qr_scan", "android": "https://dc.lft.to/lastmile_qr_scan"}}, {"is_disabled": 0, "fusion_lat": 0.0, "lat": 38.905569, "type": "electric_scooter", "lon": -77.04656633333333, "is_reserved": 0, "fusion_lon": 0.0, "bike_id": "f84a51265ca34f6c6341951180ebc091", "name": "f84a51265ca34f6c6341951180ebc091", "rental_uris": {"ios": "https://dc.lft.to/lastmile_qr_scan", "android": "https://dc.lft.to/lastmile_qr_scan"}}, {"is_disabled": 0, "fusion_lat": 0.0, "lat": 38.91549716666667, "type": "electric_scooter", "lon": -77.0415585, "is_reserved": 0, "fusion_lon": 0.0, "bike_id": "87a5b13833ab10b4d771e04b970e0e7a", "name": "87a5b13833ab10b4d771e04b970e0e7a", "rental_uris": {"ios": "https://dc.lft.to/lastmile_qr_scan", "android": "https://dc.lft.to/lastmile_qr_scan"}}, {"is_disabled": 0, "fusion_lat": 0.0, "lat": 38.92068783333333, "type": "electric_scooter", "lon": -77.043778, "is_reserved": 0, "fusion_lon": 0.0, "bike_id": "fc7fa529c3df10c318acacc7f1c7b516", "name": "fc7fa529c3df10c318acacc7f1c7b516", "rental_uris": {"ios": "https://dc.lft.to/lastmile_qr_scan", "android": "https://dc.lft.to/lastmile_qr_scan"}}, {"is_disabled": 0, "fusion_lat": 0.0, "lat": 38.91460683333333, "type": "electric_scooter", "lon": -77.04634483333334, "is_reserved": 0, "fusion_lon": 0.0, "bike_id": "3def9b614a40983d360f52db46c4fe06", "name": "3def9b614a40983d360f52db46c4fe06", "rental_uris": {"ios": "https://dc.lft.to/lastmile_qr_scan", "android": "https://dc.lft.to/lastmile_qr_scan"}}, {"is_disabled": 0, "fusion_lat": 0.0, "lat": 38.9025155, "type": "electric_scooter", "lon": -77.04577783333333, "is_reserved": 0, "fusion_lon": 0.0, "bike_id": "d32dab892d72662ddcfcef194e876aec", "name": "d32dab892d72662ddcfcef194e876aec", "rental_uris": {"ios": "https://dc.lft.to/lastmile_qr_scan", "android": "https://dc.lft.to/lastmile_qr_scan"}}, {"is_disabled": 0, "fusion_lat": 0.0, "lat": 38.850623166666665, "type": "electric_bike", "lon": -76.97330283333334, "is_reserved": 0, "fusion_lon": 0.0, "bike_id": "11a800a64ab8ec7376f0f191d397c6fa", "name": "11a800a64ab8ec7376f0f191d397c6fa", "rental_uris": {"ios": "https://dc.lft.to/lastmile_qr_scan", "android": "https://dc.lft.to/lastmile_qr_scan"}},