{"data": {"bikes": [{"is_reserved": 0, "type": "electric_scooter", "bike_id": "4791c8ac35fbbb42d9820133adc14e5f", "lat": 38.896116666666664, "lon": -77.0262685, "rental_uris": {"android": "https://dc.lft.to/lastmile_qr_scan", "ios": "https://dc.lft.to/lastmile_qr_scan"}, "is_disabled": 0, "fusion_lat": 0.0, "name": "4791c8ac35fbbb42d9820133adc14e5f", "fusion_lon": 0.0}, {"is_reserved": 0, "type": "electric_scooter", "bike_id": "a595329c97bd42733b818bef93099641", "lat": 38.88688883333333, "lon": -77.02006633333333, "rental_uris": {"android": "https://dc.lft.to/lastmile_qr_scan", "ios": "https://dc.lft.to/lastmile_qr_scan"}, "is_disabled": 0, "fusion_lat": 0.0, "name": "a595329c97bd42733b818bef93099641", "fusion_lon": 0.0}, {"is_reserved": 0, "type": "electric_scooter", "bike_id": "412ed1ab02a41ff7d891c21ffca6f587", "lat": 38.9026295, "lon": -77.03960716666667, "rental_uris": {"android": "https://dc.lft.to/lastmile_qr_scan", "ios": "https://dc.lft.to/lastmile_qr_scan"}, "is_disabled": 0, "fusion_lat": 0.0, "name": "412ed1ab02a41ff7d891c21ffca6f587", "fusion_lon": 0.0}, {"is_reserved": 0, "type": "electric_scooter", "bike_id": "5352e31fa86564af44779a799dd5c4a6", "lat": 38.9119275, "lon": -77.00722333333333, "rental_uris": {"android": "https://dc.lft.to/lastmile_qr_scan", "ios": "https://dc.lft.to/lastmile_qr_scan"}, "is_disabled": 0, "fusion_lat": 0.0, "name": "5352e31fa86564af44779a799dd5c4a6", "fusion_lon": 0.0}, {"is_reserved": 0, "type": "electric_scooter", "bike_id": "428893da188c53f2db555e48eb866eb9", "lat": 38.95956316666667, "lon": -77.0726025, "rental_uris": {"android": "https://dc.lft.to/lastmile_qr_scan", "ios": "https://dc.lft.to/lastmile_qr_scan"}, "is_disabled": 0, "fusion_lat": 0.0, "name": "428893da188c53f2db555e48eb866eb9", "fusion_lon": 0.0}, {"is_reserved": 0, "type": "electric_scooter", "bike_id": "a2082e94820207e3209a4cbbd577393a", "lat": 38.895289, "lon": -77.0397795, "rental_uris": {"android": "https://dc.lft.to/lastmile_qr_scan", "ios": "https://dc.lft.to/lastmile_qr_scan"}, "is_disabled": 0, "fusion_lat": 0.0, "name": "a2082e94820207e3209a4cbbd577393a", "fusion_lon": 0.0}, {"is_reserved": 0, "type": "electric_scooter", "bike_id": "30151cd144676b8c6d619412b9c8066a", "lat": 38.92484966666667, "lon": -77.02713583333333, "rental_uris": {"android": "https://dc.lft.to/lastmile_qr_scan", "ios": "https://dc.lft.to/lastmile_qr_scan"}, "is_disabled": 0, "fusion_lat": 0.0, "name": "30151cd144676b8c6d619412b9c8066a", "fusion_lon": 0.0}, {"is_reserved": 0, "type": "electric_scooter", "bike_id": "f5d30b34a83e0dfd2e336cef1e1b34f8", "lat": 38.89541233333333, "lon": -76.984924, "rental_uris": {"android": "https://dc.lft.to/lastmile_qr_scan", "ios": "https://dc.lft.to/lastmile_qr_scan"}, "is_disabled": 0, "fusion_lat": 0.0, "name": "f5d30b34a83e0dfd2e336cef1e1b34f8", "fusion_lon": 0.0}, {"is_reserved": 0, "type": "electric_scooter", "bike_id": "856262cd00897a2a75da8aa993435b79", "lat": 38.93412433333334, "lon": -77.02843766666666, "rental_uris": {"android": "https://dc.lft.to/lastmile_qr_scan", "ios": "https://dc.lft.to/lastmile_qr_scan"}, "is_disabled": 0, "fusion_lat": 0.0, "name": "856262cd00897a2a75da8aa993435b79", "fusion_lon": 0.0}, {"is_reserved": 0, "type": "electric_scooter", "bike_id": "08c8ed8195c0645b80627f788f8bd9df", "lat": 38.9174675, "lon": -77.04072766666667, "rental_uris": {"android": "https://dc.lft.to/lastmile_qr_scan", "ios": "https://dc.lft.to/lastmile_qr_scan"}, "is_disabled": 0, "fusion_lat": 0.0, "name": "08c8ed8195c0645b80627f788f8bd9df", "fusion_lon": 0.0}, {"is_reserved": 0, "type": "electric_bike", "bike_id": "0a5312205f6e97adfcdffb4a1d633952", "lat": 39.0858835, "lon": -77.12266916666667, "rental_uris": {"android": "https://dc.lft.to/lastmile_qr_scan", "ios": "https://dc.lft.to/lastmile_qr_scan"}, "is_disabled": 0, "fusion_lat": 0.0, "name": "0a5312205f6e97adfcdffb4a1d633952", "fusion_lon": 0.0}, {"is_reserved": 0, "type": "electric_scooter", "bike_id": "42ef2af63c4d2ce398f6003069b78fe9", "lat": 38.90357183333333, "lon": -77.03459783333334, "rental_uris": {"android": "https://dc.lft.to/lastmile_qr_scan", "ios": "https://dc.lft.to/lastmile_qr_scan"}, "is_disabled": 0, "fusion_lat": 0.0, "name": "42ef2af63c4d2ce398f6003069b78fe9", "fusion_lon": 0.0}, {"is_reserved": 0, "type": "electric_bike", "bike_id": "2f08baf9b5c4585c1bc8486ad124cf4d", "lat": 38.97236, "lon": -77.02713483333333, "rental_uris": {"android": "https://dc.lft.to/lastmile_qr_scan", "ios": "https://dc.lft.to/lastmile_qr_scan"}, "is_disabled": 0, "fusion_lat": 0.0, "name": "2f08baf9b5c4585c1bc8486ad124cf4d", "fusion_lon": 0.0}, {"is_reserved": 0, "type": "electric_scooter", "bike_id": "c17e614a5cb5e09f8b4392f7e4c1b264", "lat": 38.894551666666665, "lon": -77.0239195, "rental_uris": {"android": "https://dc.lft.to/lastmile_qr_scan", "ios": "https://dc.lft.to/lastmile_qr_scan"}, "is_disabled": 0, "fusion_lat": 0.0, "name": "c17e614a5cb5e09f8b4392f7e4c1b264", "fusion_lon": 0.0}, {"is_reserved": 0, "type": "electric_scooter", "bike_id": "aaf424ccbba41eec7b1b7ffb7e21a25b", "lat": 38.9203675, "lon": -77.04196383333333, "rental_uris": {"android": "https://dc.lft.to/lastmile_qr_scan", "ios": "https://dc.lft.to/lastmile_qr_scan"}, "is_disabled": 0, "fusion_lat": 0.0, "name": "aaf424ccbba41eec7b1b7ffb7e21a25b", "fusion_lon": 0.0}, {"is_reserved": 0, "type": "electric_bike", "bike_id": "7ccb5d3e1477755e91da72bc782a2c68", "lat": 38.82002633333333, "lon": -77.08104433333334, "rental_uris": {"android": "https://dc.lft.to/lastmile_qr_scan", "ios": "https://dc.lft.to/lastmile_qr_scan"}, "is_disabled": 0, "fusion_lat": 0.0, "name": "7ccb5d3e1477755e91da72bc782a2c68", "fusion_lon": 0.0}, {"is_reserved": 0, "type": "electric_bike", "bike_id": "d068db35f905ca7e116dcabea8d528a3", "lat": 38.92447633333333, "lon": -77.01920433333333, "rental_uris": {"android": "https://dc.lft.to/lastmile_qr_scan", "ios": "https://dc.lft.to/lastmile_qr_scan"}, "is_disabled": 0, "fusion_lat": 0.0, "name": "d068db35f905ca7e116dcabea8d528a3", "fusion_lon": 0.0}, {"is_reserved": 0, "type": "electric_scooter", "bike_id": "ac604c69409c708d6c28baeed3eaf6eb", "lat": 38.90768766666667, "lon": -77.04520183333334, "rental_uris": {"android": "https://dc.lft.to/lastmile_qr_scan", "ios": "https://dc.lft.to/lastmile_qr_scan"}, "is_disabled": 0, "fusion_lat": 0.0, "name": "ac604c69409c708d6c28baeed3eaf6eb", "fusion_lon": 0.0}, {"is_reserved": 0, "type": "electric_scooter", "bike_id": "091674a6e64ee7a62d5ddf7756e89a4c", "lat": 38.90622283333333, "lon": -77.03148683333333, "rental_uris": {"android": "https://dc.lft.to/lastmile_qr_scan", "ios": "https://dc.lft.to/lastmile_qr_scan"}, "is_disabled": 0, "fusion_lat": 0.0, "name": "091674a6e64ee7a62d5ddf7756e89a4c", "fusion_lon": 0.0}, {"is_reserved": 0, "type": "electric_scooter", "bike_id": "c5b1fd1f0da8d521e027b3ad17dbb924", "lat": 38.92638933333333, "lon": -77.036884, "rental_uris": {"android": "https://dc.lft.to/lastmile_qr_scan", "ios": "https://dc.lft.to/lastmile_qr_scan"}, "is_disabled": 0, "fusion_lat": 0.0, "name": "c5b1fd1f0da8d521e027b3ad17dbb924", "fusion_lon": 0.0}, {"is_reserved": 0, "type": "electric_scooter", "bike_id": "345d0808391c19693ca148bc73e9c87b", "lat": 38.91523633333333, "lon": -77.0198345, "rental_uris": {"android": "https://dc.lft.to/lastmile_qr_scan", "ios": "https://dc.lft.to/lastmile_qr_scan"}, "is_disabled": 0, "fusion_lat": 0.0, "name": "345d0808391c19693ca148bc73e9c87b", "fusion_lon": 0.0}, {"is_reserved": 0, "type": "electric_scooter", "bike_id": "84bca939321832e9566f102744cdc117", "lat": 38.897203, "lon": -77.02083233333333, "rental_uris": {"android": "https://dc.lft.to/lastmile_qr_scan", "ios": "https://dc.lft.to/lastmile_qr_scan"}, "is_disabled": 0, "fusion_lat": 0.0, "name": "84bca939321832e9566f102744cdc117", "fusion_lon": 0.0}, {"is_reserved": 0, "type": "electric_scooter", "bike_id": "a77cd12bc617b75c0d3c442872ac4761", "lat": 38.89717616666667, "lon": -77.02283366666667, "rental_uris": {"android": "https://dc.lft.to/lastmile_qr_scan", "ios": "https://dc.lft.to/lastmile_qr_scan"}, "is_disabled": 0, "fusion_lat": 0.0, "name": "a77cd12bc617b75c0d3c442872ac4761", "fusion_lon": 0.0}, {"is_reserved": 0, "type": "electric_scooter", "bike_id": "869ade17a365082217073f8379a307ba", "lat": 38.86485033333334, "lon": -76.97746833333333, "rental_uris": {"android": "https://dc.lft.to/lastmile_qr_scan", "ios": "https://dc.lft.to/lastmile_qr_scan"}, "is_disabled": 0, "fusion_lat": 0.0, "name": "869ade17a365082217073f8379a307ba", "fusion_lon": 0.0}, {"is_reserved": 0, "type": "electric_scooter", "bike_id": "1cbe2d3d0ace08b282a27a2cd3cc48f7", "lat": 38.9001475, "lon": -77.01212366666667, "rental_uris": {"android": "https://dc.lft.to/lastmile_qr_scan", "ios": "https://dc.lft.to/lastmile_qr_scan"}, "is_disabled": 0, "fusion_lat": 0.0, "name": "1cbe2d3d0ace08b282a27a2cd3cc48f7", "fusion_lon": 0.0}, {"is_reserved": 0, "type": "electric_bike", "bike_id": "a90289d35edbdc7091a0b3ed6da08576", "lat": 38.8892825, "lon": -76.91323983333334, "rental_uris": {"android": "https://dc.lft.to/lastmile_qr_scan", "ios": "https://dc.lft.to/lastmile_qr_scan"}, "is_disabled": 0, "fusion_lat": 0.0, "name": "a90289d35edbdc7091a0b3ed6da08576", "fusion_lon": 0.0}, {"is_reserved": 0, "type": "electric_scooter", "bike_id": "d251cf2d89ff119d2c045700e8109780", "lat": 38.924815333333335, "lon": -77.02269016666666, "rental_uris": {"android": "https://dc.lft.to/lastmile_qr_scan", "ios": "https://dc.lft.to/lastmile_qr_scan"}, "is_disabled": 0, "fusion_lat": 0.0, "name": "d251cf2d89ff119d2c045700e8109780", "fusion_lon": 0.0}, {"is_reserved": 0, "type": "electric_scooter", "bike_id": "87423f0b9b526a2203fce028b86a30ce", "lat": 38.929977666666666, "lon": -77.05539066666667, "rental_uris": {"android": "https://dc.lft.to/lastmile_qr_scan", "ios": "https://dc.lft.to/lastmile_qr_scan"}, "is_disabled": 0, "fusion_lat": 0.0, "name": "87423f0b9b526a2203fce028b86a30ce", "fusion_lon": 0.0}, {"is_reserved": 0, "type": "electric_scooter", "bike_id": "cf1ccb97d584701374931413d60f6f0f", "lat": 38.910703833333336, "lon": -77.01625383333334, "rental_uris": {"android": "https://dc.lft.to/lastmile_qr_scan", "ios": "https://dc.lft.to/lastmile_qr_scan"}, "is_disabled": 0, "fusion_lat": 0.0, "name": "cf1ccb97d584701374931413d60f6f0f", "fusion_lon": 0.0}, {"is_reserved": 0, "type": "electric_scooter", "bike_id": "5f6cced3e764f6442b3533f3a8243a5f", "lat": 38.89515866666667, "lon": -76.99208233333333, "rental_uris": {"android": "https://dc.lft.to/lastmile_qr_scan", "ios": "https://dc.lft.to/lastmile_qr_scan"}, "is_disabled": 0, "fusion_lat": 0.0, "name": "5f6cced3e764f6442b3533f3a8243a5f", "fusion_lon": 0.0}, {"is_reserved": 0, "type": "electric_scooter", "bike_id": "e0bba03f26ececdc499045d8c0852cee", "lat": 38.887450666666666, "lon": -76.98357516666667, "rental_uris": {"android": "https://dc.lft.to/lastmile_qr_scan", "ios": "https://dc.lft.to/lastmile_qr_scan"}, "is_disabled": 0, "fusion_lat": 0.0, "name": "e0bba03f26ececdc499045d8c0852cee", "fusion_lon": 0.0}, {"is_reserved": 0, "type": "electric_scooter", "bike_id": "8b9f811167284547b5542fb18da3aac8", "lat": 38.900324, "lon": -76.9983715, "rental_uris": {"android": "https://dc.lft.to/lastmile_qr_scan", "ios": "https://dc.lft.to/lastmile_qr_scan"}, "is_disabled": 0, "fusion_lat": 0.0, "name": "8b9f811167284547b5542fb18da3aac8", "fusion_lon": 0.0}, {"is_reserved": 0, "type": "electric_scooter", "bike_id": "3621aedcb9d99fd0d594536887261365", "lat": 38.898675, "lon": -77.02150966666666, "rental_uris": {"android": "https://dc.lft.to/lastmile_qr_scan", "ios": "https://dc.lft.to/lastmile_qr_scan"}, "is_disabled": 0, "fusion_lat": 0.0, "name": "3621aedcb9d99fd0d594536887261365", "fusion_lon": 0.0}, {"is_reserved": 0, "type": "electric_scooter", "bike_id": "1f6cc51f8d7a3ca915747fcabd34216e", "lat": 38.9055185, "lon": -77.0296105, "rental_uris": {"android": "https://dc.lft.to/lastmile_qr_scan", "ios": "https://dc.lft.to/lastmile_qr_scan"}, "is_disabled": 0, "fusion_lat": 0.0, "name": "1f6cc51f8d7a3ca915747fcabd34216e", "fusion_lon": 0.0}, {"is_reserved": 0, "type": "electric_scooter", "bike_id": "c2792d171fbcf20d91c7f6d4895253af", "lat": 38.89227916666667, "lon": -77.01768266666667, "rental_uris": {"android": "https://dc.lft.to/lastmile_qr_scan", "ios": "https://dc.lft.to/lastmile_qr_scan"}, "is_disabled": 0, "fusion_lat": 0.0, "name": "c2792d171fbcf20d91c7f6d4895253af", "fusion_lon": 0.0}, {"is_reserved": 0, "type": "electric_scooter", "bike_id": "5ce2f9fbc503c21076782b8eb3f1066f", "lat": 38.917090333333334, "lon": -77.03234833333333, "rental_uris": {"android": "https://dc.lft.to/lastmile_qr_scan", "ios": "https://dc.lft.to/lastmile_qr_scan"}, "is_disabled": 0, "fusion_lat": 0.0, "name": "5ce2f9fbc503c21076782b8eb3f1066f", "fusion_lon": 0.0}, {"is_reserved": 0, "type": "electric_scooter", "bike_id": "8c3463c8f3ab41d530a2a836a0fc0f6f", "lat": 38.9369605, "lon": -77.0559735, "rental_uris": {"android": "https://dc.lft.to/lastmile_qr_scan", "ios": "https://dc.lft.to/lastmile_qr_scan"}, "is_disabled": 0, "fusion_lat": 0.0, "name": "8c3463c8f3ab41d530a2a836a0fc0f6f", "fusion_lon": 0.0}, {"is_reserved": 0, "type": "electric_scooter", "bike_id": "c87e6e6d71e378dfe62552ac8d474a65", "lat": 38.905337333333335, "lon": -77.0591525, "rental_uris": {"android": "https://dc.lft.to/lastmile_qr_scan", "ios": "https://dc.lft.to/lastmile_qr_scan"}, "is_disabled": 0, "fusion_lat": 0.0, "name": "c87e6e6d71e378dfe62552ac8d474a65", "fusion_lon": 0.0}, {"is_reserved": 0, "type": "electric_scooter", "bike_id": "ec3b5e68ca9ecdb1e83250298ce3eba3", "lat": 38.93332633333333, "lon": -77.02905266666667, "rental_uris": {"android": "https://dc.lft.to/lastmile_qr_scan", "ios": "https://dc.lft.to/lastmile_qr_scan"}, "is_disabled": 0, "fusion_lat": 0.0, "name": "ec3b5e68ca9ecdb1e83250298ce3eba3", "fusion_lon": 0.0}, {"is_reserved": 0, "type": "electric_scooter", "bike_id": "a12296bb40a91c8a93ffed952df59dbb", "lat": 38.93717266666667, "lon": -77.03262183333334, "rental_uris": {"android": "https://dc.lft.to/lastmile_qr_scan", "ios": "https://dc.lft.to/lastmile_qr_scan"}, "is_disabled": 0, "fusion_lat": 0.0, "name": "a12296bb40a91c8a93ffed952df59dbb", "fusion_lon": 0.0}, {"is_reserved": 0, "type": "electric_scooter", "bike_id": "4cc6f1b46d41e1eeb4ca2e17d15da545", "lat": 38.9068185, "lon": -77.02692833333333, "rental_uris": {"android": "https://dc.lft.to/lastmile_qr_scan", "ios": "https://dc.lft.to/lastmile_qr_scan"}, "is_disabled": 0, "fusion_lat": 0.0, "name": "4cc6f1b46d41e1eeb4ca2e17d15da545", "fusion_lon": 0.0}, {"is_reserved": 0, "type": "electric_scooter", "bike_id": "b655984a60635506bc10c99ad2f9f125", "lat": 38.9026495, "lon": -77.00323533333334, "rental_uris": {"android": "https://dc.lft.to/lastmile_qr_scan", "ios": "https://dc.lft.to/lastmile_qr_scan"}, "is_disabled": 0, "fusion_lat": 0.0, "name": "b655984a60635506bc10c99ad2f9f125", "fusion_lon": 0.0}, {"is_reserved": 0, "type": "electric_scooter", "bike_id": "542026ff9a32e03b8cfbad6c1e1c717f", "lat": 38.92041533333333, "lon": -77.04832716666667, "rental_uris": {"android": "https://dc.lft.to/lastmile_qr_scan", "ios": "https://dc.lft.to/lastmile_qr_scan"}, "is_disabled": 0, "fusion_lat": 0.0, "name": "542026ff9a32e03b8cfbad6c1e1c717f", "fusion_lon": 0.0}, {"is_reserved": 0, "type": "electric_scooter", "bike_id": "00284e2704ef5ef5dc0a8642f31eda6a", "lat": 38.917113666666665, "lon": -77.03851833333333, "rental_uris": {"android": "https://dc.lft.to/lastmile_qr_scan", "ios": "https://dc.lft.to/lastmile_qr_scan"}, "is_disabled": 0, "fusion_lat": 0.0, "name": "00284e2704ef5ef5dc0a8642f31eda6a", "fusion_lon": 0.0}, {"is_reserved": 0, "type": "electric_scooter", "bike_id": "2d6227b57c2a2fd08afef64f32330e7f", "lat": 38.920388333333335, "lon": -77.0419735, "rental_uris": {"android": "https://dc.lft.to/lastmile_qr_scan", "ios": "https://dc.lft.to/lastmile_qr_scan"}, "is_disabled": 0, "fusion_lat": 0.0, "name": "2d6227b57c2a2fd08afef64f32330e7f", "fusion_lon": 0.0}, {"is_reserved": 0, "type": "electric_scooter", "bike_id": "9da34a912bdf39772ae0c9e60833b495", "lat": 38.91673466666667, "lon": -77.023874, "rental_uris": {"android": "https://dc.lft.to/lastmile_qr_scan", "ios": "https://dc.lft.to/lastmile_qr_scan"}, "is_disabled": 0, "fusion_lat": 0.0, "name": "9da34a912bdf39772ae0c9e60833b495", "fusion_lon": 0.0}, {"is_reserved": 0, "type": "electric_scooter", "bike_id": "66985d7a81e9e23c0bd5f26eaff8c98c", "lat": 38.91906733333333, "lon": -77.04808366666667, "rental_uris": {"android": "https://dc.lft.to/lastmile_qr_scan", "ios": "https://dc.lft.to/lastmile_qr_scan"}, "is_disabled": 0, "fusion_lat": 0.0, "name": "66985d7a81e9e23c0bd5f26eaff8c98c", "fusion_lon": 0.0}, {"is_reserved": 0, "type": "electric_scooter", "bike_id": "02a9a6eb772365b4cb5dfda9816631f6", "lat": 38.91805016666667, "lon": -77.03304616666667, "rental_uris": {"android": "https://dc.lft.to/lastmile_qr_scan", "ios": "https://dc.lft.to/lastmile_qr_scan"}, "is_disabled": 0, "fusion_lat": 0.0, "name": "02a9a6eb772365b4cb5dfda9816631f6", "fusion_lon": 0.0}, {"is_reserved": 0, "type": "electric_scooter", "bike_id": "81c308a1b196bb3af190813ef71e7fc7", "lat": 38.9024005, "lon": -77.02652683333334, "rental_uris": {"android": "https://dc.lft.to/lastmile_qr_scan", "ios": "https://dc.lft.to/lastmile_qr_scan"}, "is_disabled": 0, "fusion_lat": 0.0, "name": "81c308a1b196bb3af190813ef71e7fc7", "fusion_lon": 0.0}, {"is_reserved": 0, "type": "electric_scooter", "bike_id": "524a825f55eb243661ca61de5f28a18e", "lat": 38.853131166666664, "lon": -76.98005666666667, "rental_uris": {"android": "https://dc.lft.to/lastmile_qr_scan", "ios": "https://dc.lft.to/lastmile_qr_scan"}, "is_disabled": 0, "fusion_lat": 0.0, "name": "524a825f55eb243661ca61de5f28a18e", "fusion_lon": 0.0}, {"is_reserved": 0, "type": "electric_bike", "bike_id": "c439910612f37f0ef40a2a995c797857", "lat": 38.8913495, "lon": -77.18294566666667, "rental_uris": {"android": "https://dc.lft.to/lastmile_qr_scan", "ios": "https://dc.lft.to/lastmile_qr_scan"}, "is_disabled": 0, "fusion_lat": 0.0, "name": "c439910612f37f0ef40a2a995c797857", "fusion_lon": 0.0}, {"is_reserved": 0, "type": "electric_scooter", "bike_id": "6b1296a149efdc5fc353458a825f48cd", "lat": 38.924465166666664, "lon": -77.02035316666667, "rental_uris": {"android": "https://dc.lft.to/lastmile_qr_scan", "ios": "https://dc.lft.to/lastmile_qr_scan"}, "is_disabled": 0, "fusion_lat": 0.0, "name": "6b1296a149efdc5fc353458a825f48cd", "fusion_lon": 0.0}, {"is_reserved": 0, "type": "electric_scooter", "bike_id": "3d9df49a3e4fe1a751d75f355ed6a165", "lat": 38.91707233333333, "lon": -77.03229016666667, "rental_uris": {"android": "https://dc.lft.to/lastmile_qr_scan", "ios": "https://dc.lft.to/lastmile_qr_scan"}, "is_disabled": 0, "fusion_lat": 0.0, "name": "3d9df49a3e4fe1a751d75f355ed6a165", "fusion_lon": 0.0}, {"is_reserved": 0, "type": "electric_scooter", "bike_id": "fe3c459a41cc307415fcd019773dcf5b", "lat": 38.924088833333336, "lon": -77.0201, "rental_uris": {"android": "https://dc.lft.to/lastmile_qr_scan", "ios": "https://dc.lft.to/lastmile_qr_scan"}, "is_disabled": 0, "fusion_lat": 0.0, "name": "fe3c459a41cc307415fcd019773dcf5b", "fusion_lon": 0.0}, {"is_reserved": 0, "type": "electric_scooter", "bike_id": "cf2b34fc4927decc33f1e41e0cfb5294", "lat": 38.9167555, "lon": -77.03195916666667, "rental_uris": {"android": "https://dc.lft.to/lastmile_qr_scan", "ios": "https://dc.lft.to/lastmile_qr_scan"}, "is_disabled": 0, "fusion_lat": 0.0, "name": "cf2b34fc4927decc33f1e41e0cfb5294", "fusion_lon": 0.0}, {"is_reserved": 0, "type": "electric_scooter", "bike_id": "9650b1a31ff1cefc74ec05728d280367", "lat": 38.905731833333334, "lon": -77.04181866666667, "rental_uris": {"android": "https://dc.lft.to/lastmile_qr_scan", "ios": "https://dc.lft.to/lastmile_qr_scan"}, "is_disabled": 0, "fusion_lat": 0.0, "name": "9650b1a31ff1cefc74ec05728d280367", "fusion_lon": 0.0}, {"is_reserved": 0, "type": "electric_scooter", "bike_id": "d0397647e4e4246cba7136d7fd156335", "lat": 38.899724666666664, "lon": -77.02706166666667, "rental_uris": {"android": "https://dc.lft.to/lastmile_qr_scan", "ios": "https://dc.lft.to/lastmile_qr_scan"}, "is_disabled": 0, "fusion_lat": 0.0, "name": "d0397647e4e4246cba7136d7fd156335", "fusion_lon": 0.0}, {"is_reserved": 0, "type": "electric_scooter", "bike_id": "fbee376730796063e6cf4981cd2d2480", "lat": 38.90188966666667, "lon": -77.02159233333333, "rental_uris": {"android": "https://dc.lft.to/lastmile_qr_scan", "ios": "https://dc.lft.to/lastmile_qr_scan"}, "is_disabled": 0, "fusion_lat": 0.0, "name": "fbee376730796063e6cf4981cd2d2480", "fusion_lon": 0.0}, {"is_reserved": 0, "type": "electric_scooter", "bike_id": "c9abf96450378e92131b12a1abaebe03", "lat": 38.918441333333334, "lon": -77.041115, "rental_uris": {"android": "https://dc.lft.to/lastmile_qr_scan", "ios": "https://dc.lft.to/lastmile_qr_scan"}, "is_disabled": 0, "fusion_lat": 0.0, "name": "c9abf96450378e92131b12a1abaebe03", "fusion_lon": 0.0}, {"is_reserved": 0, "type": "electric_bike", "bike_id": "327735be036da4e02ce9b2ccb695400a", "lat": 38.893908, "lon": -76.86845866666667, "rental_uris": {"android": "https://dc.lft.to/lastmile_qr_scan", "ios": "https://dc.lft.to/lastmile_qr_scan"}, "is_disabled": 0, "fusion_lat": 0.0, "name": "327735be036da4e02ce9b2ccb695400a", "fusion_lon": 0.0}, {"is_reserved": 0, "type": "electric_bike", "bike_id": "29ced9e9d665a9d796d1c1970907256b", "lat": 38.99997783333333, "lon": -76.91803383333334, "rental_uris": {"android": "https://dc.lft.to/lastmile_qr_scan", "ios": "https://dc.lft.to/lastmile_qr_scan"}, "is_disabled": 0, "fusion_lat": 0.0, "name": "29ced9e9d665a9d796d1c1970907256b", "fusion_lon": 0.0}, {"is_reserved": 0, "type": "electric_scooter", "bike_id": "1877f3ba36d1060c511d47291b43a432", "lat": 38.9175885, "lon": -77.0036385, "rental_uris": {"android": "https://dc.lft.to/lastmile_qr_scan", "ios": "https://dc.lft.to/lastmile_qr_scan"}, "is_disabled": 0, "fusion_lat": 0.0, "name": "1877f3ba36d1060c511d47291b43a432", "fusion_lon": 0.0}, {"is_reserved": 0, "type": "electric_scooter", "bike_id": "6a36d2a6bdc0c65d18062915f024265a", "lat": 38.91983533333333, "lon": -76.97306833333333, "rental_uris": {"android": "https://dc.lft.to/lastmile_qr_scan", "ios": "https://dc.lft.to/lastmile_qr_scan"}, "is_disabled": 0, "fusion_lat": 0.0, "name": "6a36d2a6bdc0c65d18062915f024265a", "fusion_lon": 0.0}, {"is_reserved": 0, "type": "electric_bike", "bike_id": "a700872aa7443c2c2ff3915874b46fbb", "lat": 39.010956166666666, "lon": -77.04952433333334, "rental_uris": {"android": "https://dc.lft.to/lastmile_qr_scan", "ios": "https://dc.lft.to/lastmile_qr_scan"}, "is_disabled": 0, "fusion_lat": 0.0, "name": "a700872aa7443c2c2ff3915874b46fbb", "fusion_lon": 0.0}, {"is_reserved": 0, "type": "electric_scooter", "bike_id": "f2c6cbd731616f112c7a85b4f2c154c0", "lat": 38.9264615, "lon": -77.03422216666667, "rental_uris": {"android": "https://dc.lft.to/lastmile_qr_scan", "ios": "https://dc.lft.to/lastmile_qr_scan"}, "is_disabled": 0, "fusion_lat": 0.0, "name": "f2c6cbd731616f112c7a85b4f2c154c0", "fusion_lon": 0.0}, {"is_reserved": 0, "type": "electric_scooter", "bike_id": "e07f5698640ebcbda0012f1ef4db77dd", "lat": 38.90009, "lon": -76.98909366666666, "rental_uris": {"android": "https://dc.lft.to/lastmile_qr_scan", "ios": "https://dc.lft.to/lastmile_qr_scan"}, "is_disabled": 0, "fusion_lat": 0.0, "name": "e07f5698640ebcbda0012f1ef4db77dd", "fusion_lon": 0.0}, {"is_reserved": 0, "type": "electric_bike", "bike_id": "bce7c188150ff0490f338a7837cf1153", "lat": 38.863297, "lon": -76.98727133333334, "rental_uris": {"android": "https://dc.lft.to/lastmile_qr_scan", "ios": "https://dc.lft.to/lastmile_qr_scan"}, "is_disabled": 0, "fusion_lat": 0.0, "name": "bce7c188150ff0490f338a7837cf1153", "fusion_lon": 0.0}, {"is_reserved": 0, "type": "electric_scooter", "bike_id": "dd0d86e25cb5a0f1d7339fb81d20e756", "lat": 38.91708716666667, "lon": -77.0384145, "rental_uris": {"android": "https://dc.lft.to/lastmile_qr_scan", "ios": "https://dc.lft.to/lastmile_qr_scan"}, "is_disabled": 0, "fusion_lat": 0.0, "name": "dd0d86e25cb5a0f1d7339fb81d20e756", "fusion_lon": 0.0}, {"is_reserved": 0, "type": "electric_scooter", "bike_id": "c4592fefbbe9ef876b7566fece186ce1", "lat": 38.902857, "lon": -77.0399735, "rental_uris": {"android": "https://dc.lft.to/lastmile_qr_scan", "ios": "https://dc.lft.to/lastmile_qr_scan"}, "is_disabled": 0, "fusion_lat": 0.0, "name": "c4592fefbbe9ef876b7566fece186ce1", "fusion_lon": 0.0}, {"is_reserved": 0, "type": "electric_scooter", "bike_id": "b329f125ff598edb25d18b30bb207091", "lat": 38.89766, "lon": -77.02691516666667, "rental_uris": {"android": "https://dc.lft.to/lastmile_qr_scan", "ios": "https://dc.lft.to/lastmile_qr_scan"}, "is_disabled": 0, "fusion_lat": 0.0, "name": "b329f125ff598edb25d18b30bb207091", "fusion_lon": 0.0}, {"is_reserved": 0, "type": "electric_scooter", "bike_id": "03122de4134891180e5433eabcf274e6", "lat": 38.918371666666665, "lon": -77.03899816666667, "rental_uris": {"android": "https://dc.lft.to/lastmile_qr_scan", "ios": "https://dc.lft.to/lastmile_qr_scan"}, "is_disabled": 0, "fusion_lat": 0.0, "name": "03122de4134891180e5433eabcf274e6", "fusion_lon": 0.0}, {"is_reserved": 0, "type": "electric_scooter", "bike_id": "1ed5c9f0438ee775473f5aa8a9963bb2", "lat": 38.915579666666666, "lon": -77.02972066666666, "rental_uris": {"android": "https://dc.lft.to/lastmile_qr_scan", "ios": "https://dc.lft.to/lastmile_qr_scan"}, "is_disabled": 0, "fusion_lat": 0.0, "name": "1ed5c9f0438ee775473f5aa8a9963bb2", "fusion_lon": 0.0}, {"is_reserved": 0, "type": "electric_scooter", "bike_id": "d8f2298cd9abd16a205ef1ddf079dfd6", "lat": 38.885117, "lon": -77.01117183333334, "rental_uris": {"android": "https://dc.lft.to/lastmile_qr_scan", "ios": "https://dc.lft.to/lastmile_qr_scan"}, "is_disabled": 0, "fusion_lat": 0.0, "name": "d8f2298cd9abd16a205ef1ddf079dfd6", "fusion_lon": 0.0}, {"is_reserved": 0, "type": "electric_scooter", "bike_id": "87cdb061b766b3920cd110b1b0cf93d4", "lat": 38.915932833333336, "lon": -77.02391733333333, "rental_uris": {"android": "https://dc.lft.to/lastmile_qr_scan", "ios": "https://dc.lft.to/lastmile_qr_scan"}, "is_disabled": 0, "fusion_lat": 0.0, "name": "87cdb061b766b3920cd110b1b0cf93d4", "fusion_lon": 0.0}, {"is_reserved": 0, "type": "electric_scooter", "bike_id": "9e44540fa2162259775d3e8a381876ca", "lat": 38.9469145, "lon": -77.02246233333334, "rental_uris": {"android": "https://dc.lft.to/lastmile_qr_scan", "ios": "https://dc.lft.to/lastmile_qr_scan"}, "is_disabled": 0, "fusion_lat": 0.0, "name": "9e44540fa2162259775d3e8a381876ca", "fusion_lon": 0.0}, {"is_reserved": 0, "type": "electric_scooter", "bike_id": "9ca9fbb349231a65ace5de881b8b3b13", "lat": 38.92984233333333, "lon": -77.03476283333333, "rental_uris": {"android": "https://dc.lft.to/lastmile_qr_scan", "ios": "https://dc.lft.to/lastmile_qr_scan"}, "is_disabled": 0, "fusion_lat": 0.0, "name": "9ca9fbb349231a65ace5de881b8b3b13", "fusion_lon": 0.0}, {"is_reserved": 0, "type": "electric_scooter", "bike_id": "ff1eeb25a77418b8df275f4e369362c0", "lat": 38.89220016666667, "lon": -77.02412316666667, "rental_uris": {"android": "https://dc.lft.to/lastmile_qr_scan", "ios": "https://dc.lft.to/lastmile_qr_scan"}, "is_disabled": 0, "fusion_lat": 0.0, "name": "ff1eeb25a77418b8df275f4e369362c0", "fusion_lon": 0.0}, {"is_reserved": 0, "type": "electric_scooter", "bike_id": "b08c7ae9235ea7ea832f8c665ef662a6", "lat": 38.912630166666666, "lon": -77.01246433333333, "rental_uris": {"android": "https://dc.lft.to/lastmile_qr_scan", "ios": "https://dc.lft.to/lastmile_qr_scan"}, "is_disabled": 0, "fusion_lat": 0.0, "name": "b08c7ae9235ea7ea832f8c665ef662a6", "fusion_lon": 0.0}, {"is_reserved": 0, "type": "electric_bike", "bike_id": "1528d104ae2ac23c73f972ee77b42453", "lat": 38.97271216666667, "lon": -77.03645033333333, "rental_uris": {"android": "https://dc.lft.to/lastmile_qr_scan", "ios": "https://dc.lft.to/lastmile_qr_scan"}, "is_disabled": 0, "fusion_lat": 0.0, "name": "1528d104ae2ac23c73f972ee77b42453", "fusion_lon": 0.0}, {"is_reserved": 0, "type": "electric_scooter", "bike_id": "969d2bd85a39e3ac0e653d7d4f6e107c", "lat": 38.92603533333333, "lon": -77.0570795, "rental_uris": {"android": "https://dc.lft.to/lastmile_qr_scan", "ios": "https://dc.lft.to/lastmile_qr_scan"}, "is_disabled": 0, "fusion_lat": 0.0, "name": "969d2bd85a39e3ac0e653d7d4f6e107c", "fusion_lon": 0.0}, {"is_reserved": 0, "type": "electric_scooter", "bike_id": "6f8bea35dca2bd7573dacb466d953c6c", "lat": 38.9215745, "lon": -77.03354016666667, "rental_uris": {"android": "https://dc.lft.to/lastmile_qr_scan", "ios": "https://dc.lft.to/lastmile_qr_scan"}, "is_disabled": 0, "fusion_lat": 0.0, "name": "6f8bea35dca2bd7573dacb466d953c6c", "fusion_lon": 0.0}, {"is_reserved": 0, "type": "electric_scooter", "bike_id": "55772a9201a30f479e15b1f2c04fa30e", "lat": 38.92891633333333, "lon": -77.032862, "rental_uris": {"android": "https://dc.lft.to/lastmile_qr_scan", "ios": "https://dc.lft.to/lastmile_qr_scan"}, "is_disabled": 0, "fusion_lat": 0.0, "name": "55772a9201a30f479e15b1f2c04fa30e", "fusion_lon": 0.0}, {"is_reserved": 0, "type": "electric_bike", "bike_id": "e6474712d9fd72c5020465e3918d67f5", "lat": 38.80252083333333, "lon": -77.1217275, "rental_uris": {"android": "https://dc.lft.to/lastmile_qr_scan", "ios": "https://dc.lft.to/lastmile_qr_scan"}, "is_disabled": 0, "fusion_lat": 0.0, "name": "e6474712d9fd72c5020465e3918d67f5", "fusion_lon": 0.0}, {"is_reserved": 0, "type": "electric_scooter", "bike_id": "e4b7d5f98cbfb9f6ccf74623abaa5cf8", "lat": 38.916374, "lon": -77.02099316666667, "rental_uris": {"android": "https://dc.lft.to/lastmile_qr_scan", "ios": "https://dc.lft.to/lastmile_qr_scan"}, "is_disabled": 0, "fusion_lat": 0.0, "name": "e4b7d5f98cbfb9f6ccf74623abaa5cf8", "fusion_lon": 0.0}, {"is_reserved": 0, "type": "electric_bike", "bike_id": "e44f5681b9dc0ed7c0589f96c41480e5", "lat": 38.90853716666667, "lon": -76.98481883333334, "rental_uris": {"android": "https://dc.lft.to/lastmile_qr_scan", "ios": "https://dc.lft.to/lastmile_qr_scan"}, "is_disabled": 0, "fusion_lat": 0.0, "name": "e44f5681b9dc0ed7c0589f96c41480e5", "fusion_lon": 0.0}, {"is_reserved": 0, "type": "electric_scooter", "bike_id": "337f930a8d0c27347c6f0e0fb560ad16", "lat": 38.883218666666664, "lon": -77.01542616666667, "rental_uris": {"android": "https://dc.lft.to/lastmile_qr_scan", "ios": "https://dc.lft.to/lastmile_qr_scan"}, "is_disabled": 0, "fusion_lat": 0.0, "name": "337f930a8d0c27347c6f0e0fb560ad16", "fusion_lon": 0.0}, {"is_reserved": 0, "type": "electric_scooter", "bike_id": "c377c97ee73f99790ba6330bfd57d542", "lat": 38.907650833333335, "lon": -77.04511983333333, "rental_uris": {"android": "https://dc.lft.to/lastmile_qr_scan", "ios": "https://dc.lft.to/lastmile_qr_scan"}, "is_disabled": 0, "fusion_lat": 0.0, "name": "c377c97ee73f99790ba6330bfd57d542", "fusion_lon": 0.0}, {"is_reserved": 0, "type": "electric_scooter", "bike_id": "acb98e737ecee039af76063a228fece7", "lat": 38.952148666666666, "lon": -77.00249216666667, "rental_uris": {"android": "https://dc.lft.to/lastmile_qr_scan", "ios": "https://dc.lft.to/lastmile_qr_scan"}, "is_disabled": 0, "fusion_lat": 0.0, "name": "acb98e737ecee039af76063a228fece7", "fusion_lon": 0.0}, {"is_reserved": 0, "type": "electric_scooter", "bike_id": "cff900670ca010bdac12b62cf673f65d", "lat": 38.91664216666667, "lon": -77.0237565, "rental_uris": {"android": "https://dc.lft.to/lastmile_qr_scan", "ios": "https://dc.lft.to/lastmile_qr_scan"}, "is_disabled": 0, "fusion_lat": 0.0, "name": "cff900670ca010bdac12b62cf673f65d", "fusion_lon": 0.0}, {"is_reserved": 0, "type": "electric_scooter", "bike_id": "223a0888b1a9fe8a8a02dcd9352204a6", "lat": 38.901079833333334, "lon": -77.01640016666667, "rental_uris": {"android": "https://dc.lft.to/lastmile_qr_scan", "ios": "https://dc.lft.to/lastmile_qr_scan"}, "is_disabled": 0, "fusion_lat": 0.0, "name": "223a0888b1a9fe8a8a02dcd9352204a6", "fusion_lon": 0.0}, {"is_reserved": 0, "type": "electric_scooter", "bike_id": "f4c36c5379b53ccda540423a4c8999bc", "lat": 38.9256345, "lon": -77.02276616666667, "rental_uris": {"android": "https://dc.lft.to/lastmile_qr_scan", "ios": "https://dc.lft.to/lastmile_qr_scan"}, "is_disabled": 0, "fusion_lat": 0.0, "name": "f4c36c5379b53ccda540423a4c8999bc", "fusion_lon": 0.0}, {"is_reserved": 0, "type": "electric_scooter", "bike_id": "e39eb983043444a412c2f7f8fda34fef", "lat": 38.91103616666667, "lon": -77.01908283333333, "rental_uris": {"android": "https://dc.lft.to/lastmile_qr_scan", "ios": "https://dc.lft.to/lastmile_qr_scan"}, "is_disabled": 0, "fusion_lat": 0.0, "name": "e39eb983043444a412c2f7f8fda34fef", "fusion_lon": 0.0}, {"is_reserved": 0, "type": "electric_scooter", "bike_id": "0e4e35230763fd34ddb02aae6209845c", "lat": 38.930172666666664, "lon": -77.023302, "rental_uris": {"android": "https://dc.lft.to/lastmile_qr_scan", "ios": "https://dc.lft.to/lastmile_qr_scan"}, "is_disabled": 0, "fusion_lat": 0.0, "name": "0e4e35230763fd34ddb02aae6209845c", "fusion_lon": 0.0}, {"is_reserved": 0, "type": "electric_scooter", "bike_id": "ecb12c6a16020df41f2d7d2ced5d2deb", "lat": 38.91618, "lon": -77.03210483333334, "rental_uris": {"android": "https://dc.lft.to/lastmile_qr_scan", "ios": "https://dc.lft.to/lastmile_qr_scan"}, "is_disabled": 0, "fusion_lat": 0.0, "name": "ecb12c6a16020df41f2d7d2ced5d2deb", "fusion_lon": 0.0}, {"is_reserved": 0, "type": "electric_scooter", "bike_id": "af3412b641267c724414c2d1e5a1eca0", "lat": 38.89827, "lon": -77.04813433333334, "rental_uris": {"android": "https://dc.lft.to/lastmile_qr_scan", "ios": "https://dc.lft.to/lastmile_qr_scan"}, "is_disabled": 0, "fusion_lat": 0.0, "name": "af3412b641267c724414c2d1e5a1eca0", "fusion_lon": 0.0}, {"is_reserved": 0, "type": "electric_scooter", "bike_id": "267854de7ec202dc470eb3dc3b86f071", "lat": 38.9170815, "lon": -77.02973716666666, "rental_uris": {"android": "https://dc.lft.to/lastmile_qr_scan", "ios": "https://dc.lft.to/lastmile_qr_scan"}, "is_disabled": 0, "fusion_lat": 0.0, "name": "267854de7ec202dc470eb3dc3b86f071", "fusion_lon": 0.0}, {"is_reserved": 0, "type": "electric_scooter", "bike_id": "320c4686ac909dc240c83b8bb86ff766", "lat": 38.9259815, "lon": -77.02420916666667, "rental_uris": {"android": "https://dc.lft.to/lastmile_qr_scan", "ios": "https://dc.lft.to/lastmile_qr_scan"}, "is_disabled": 0, "fusion_lat": 0.0, "name": "320c4686ac909dc240c83b8bb86ff766", "fusion_lon": 0.0}, {"is_reserved": 0, "type": "electric_scooter", "bike_id": "8553dfc8a3a94cf779c98a69ff07c674", "lat": 38.892592, "lon": -76.93004466666666, "rental_uris": {"android": "https://dc.lft.to/lastmile_qr_scan", "ios": "https://dc.lft.to/lastmile_qr_scan"}, "is_disabled": 0, "fusion_lat": 0.0, "name": "8553dfc8a3a94cf779c98a69ff07c674", "fusion_lon": 0.0}, {"is_reserved": 0, "type": "electric_scooter", "bike_id": "95b75aba1d90b6e199eb3736c0a803c3", "lat": 38.89903433333333, "lon": -77.018576, "rental_uris": {"android": "https://dc.lft.to/lastmile_qr_scan", "ios": "https://dc.lft.to/lastmile_qr_scan"}, "is_disabled": 0, "fusion_lat": 0.0, "name": "95b75aba1d90b6e199eb3736c0a803c3", "fusion_lon": 0.0}, {"is_reserved": 0, "type": "electric_scooter", "bike_id": "3098e3e4a54759bf45ab7e935ef06066", "lat": 38.89745383333333, "lon": -77.03037116666667, "rental_uris": {"android": "https://dc.lft.to/lastmile_qr_scan", "ios": "https://dc.lft.to/lastmile_qr_scan"}, "is_disabled": 0, "fusion_lat": 0.0, "name": "3098e3e4a54759bf45ab7e935ef06066", "fusion_lon": 0.0}, {"is_reserved": 0, "type": "electric_scooter", "bike_id": "d88ab28458a6f5c138bd450564e9e658", "lat": 38.917238833333336, "lon": -77.036429, "rental_uris": {"android": "https://dc.lft.to/lastmile_qr_scan", "ios": "https://dc.lft.to/lastmile_qr_scan"}, "is_disabled": 0, "fusion_lat": 0.0, "name": "d88ab28458a6f5c138bd450564e9e658", "fusion_lon": 0.0}, {"is_reserved": 0, "type": "electric_scooter", "bike_id": "e2db421f5e28c7a6f38814f1e15f9384", "lat": 38.9169195, "lon": -77.03771383333333, "rental_uris": {"android": "https://dc.lft.to/lastmile_qr_scan", "ios": "https://dc.lft.to/lastmile_qr_scan"}, "is_disabled": 0, "fusion_lat": 0.0, "name": "e2db421f5e28c7a6f38814f1e15f9384", "fusion_lon": 0.0}, {"is_reserved": 0, "type": "electric_scooter", "bike_id": "e192acc5a056cf83db0b89864d0a78c9", "lat": 38.883828333333334, "lon": -76.93048533333334, "rental_uris": {"android": "https://dc.lft.to/lastmile_qr_scan", "ios": "https://dc.lft.to/lastmile_qr_scan"}, "is_disabled": 0, "fusion_lat": 0.0, "name": "e192acc5a056cf83db0b89864d0a78c9", "fusion_lon": 0.0}, {"is_reserved": 0, "type": "electric_scooter", "bike_id": "7ee8fd57ee28fb608d72eb524faa87a6", "lat": 38.88720166666667, "lon": -77.01989666666667, "rental_uris": {"android": "https://dc.lft.to/lastmile_qr_scan", "ios": "https://dc.lft.to/lastmile_qr_scan"}, "is_disabled": 0, "fusion_lat": 0.0, "name": "7ee8fd57ee28fb608d72eb524faa87a6", "fusion_lon": 0.0}, {"is_reserved": 0, "type": "electric_scooter", "bike_id": "17126532f6f8600083c66c18e7bca4aa", "lat": 38.920399333333336, "lon": -77.0419345, "rental_uris": {"android": "https://dc.lft.to/lastmile_qr_scan", "ios": "https://dc.lft.to/lastmile_qr_scan"}, "is_disabled": 0, "fusion_lat": 0.0, "name": "17126532f6f8600083c66c18e7bca4aa", "fusion_lon": 0.0}, {"is_reserved": 0, "type": "electric_scooter", "bike_id": "995cb40e0932de5d47bd74412a2fab73", "lat": 38.9007685, "lon": -77.01898583333333, "rental_uris": {"android": "https://dc.lft.to/lastmile_qr_scan", "ios": "https://dc.lft.to/lastmile_qr_scan"}, "is_disabled": 0, "fusion_lat": 0.0, "name": "995cb40e0932de5d47bd74412a2fab73", "fusion_lon": 0.0}, {"is_reserved": 0, "type": "electric_scooter", "bike_id": "bf1c54b5146989188fa15b288367f4f6", "lat": 38.896427, "lon": -76.99024316666667, "rental_uris": {"android": "https://dc.lft.to/lastmile_qr_scan", "ios": "https://dc.lft.to/lastmile_qr_scan"}, "is_disabled": 0, "fusion_lat": 0.0, "name": "bf1c54b5146989188fa15b288367f4f6", "fusion_lon": 0.0}, {"is_reserved": 0, "type": "electric_scooter", "bike_id": "536ade1dda9b7b09b330c6860079ddf0", "lat": 38.89608883333333, "lon": -76.97684033333333, "rental_uris": {"android": "https://dc.lft.to/lastmile_qr_scan", "ios": "https://dc.lft.to/lastmile_qr_scan"}, "is_disabled": 0, "fusion_lat": 0.0, "name": "536ade1dda9b7b09b330c6860079ddf0", "fusion_lon": 0.0}, {"is_reserved": 0, "type": "electric_scooter", "bike_id": "57b27d97057a71088beca558731b0252", "lat": 38.897005166666666, "lon": -77.0216755, "rental_uris": {"android": "https://dc.lft.to/lastmile_qr_scan", "ios": "https://dc.lft.to/lastmile_qr_scan"}, "is_disabled": 0, "fusion_lat": 0.0, "name": "57b27d97057a71088beca558731b0252", "fusion_lon": 0.0}, {"is_reserved": 0, "type": "electric_scooter", "bike_id": "6c9a48a4d56ba6a0ec6f282ad7296327", "lat": 38.9055295, "lon": -77.00581, "rental_uris": {"android": "https://dc.lft.to/lastmile_qr_scan", "ios": "https://dc.lft.to/lastmile_qr_scan"}, "is_disabled": 0, "fusion_lat": 0.0, "name": "6c9a48a4d56ba6a0ec6f282ad7296327", "fusion_lon": 0.0}, {"is_reserved": 0, "type": "electric_scooter", "bike_id": "da9eda28e64ba6f9d80c5ed5fcfb8c6b", "lat": 38.9077565, "lon": -77.07709783333334, "rental_uris": {"android": "https://dc.lft.to/lastmile_qr_scan", "ios": "https://dc.lft.to/lastmile_qr_scan"}, "is_disabled": 0, "fusion_lat": 0.0, "name": "da9eda28e64ba6f9d80c5ed5fcfb8c6b", "fusion_lon": 0.0}, {"is_reserved": 0, "type": "electric_scooter", "bike_id": "1e9515e464bedfbac88289700274ee13", "lat": 38.919261, "lon": -77.0197695, "rental_uris": {"android": "https://dc.lft.to/lastmile_qr_scan", "ios": "https://dc.lft.to/lastmile_qr_scan"}, "is_disabled": 0, "fusion_lat": 0.0, "name": "1e9515e464bedfbac88289700274ee13", "fusion_lon": 0.0}, {"is_reserved": 0, "type": "electric_scooter", "bike_id": "963320f8b4e4da28ad52c237c8bc5bc8", "lat": 38.93634516666667, "lon": -77.05998, "rental_uris": {"android": "https://dc.lft.to/lastmile_qr_scan", "ios": "https://dc.lft.to/lastmile_qr_scan"}, "is_disabled": 0, "fusion_lat": 0.0, "name": "963320f8b4e4da28ad52c237c8bc5bc8", "fusion_lon": 0.0}, {"is_reserved": 0, "type": "electric_scooter", "bike_id": "71525a146613e2fe9e3d778643ccbb58", "lat": 38.89707933333333, "lon": -76.99117483333333, "rental_uris": {"android": "https://dc.lft.to/lastmile_qr_scan", "ios": "https://dc.lft.to/lastmile_qr_scan"}, "is_disabled": 0, "fusion_lat": 0.0, "name": "71525a146613e2fe9e3d778643ccbb58", "fusion_lon": 0.0}, {"is_reserved": 0, "type": "electric_scooter", "bike_id": "1e7f120505da2fa5b68275828a6175ac", "lat": 38.91491283333333, "lon": -77.01994733333333, "rental_uris": {"android": "https://dc.lft.to/lastmile_qr_scan", "ios": "https://dc.lft.to/lastmile_qr_scan"}, "is_disabled": 0, "fusion_lat": 0.0, "name": "1e7f120505da2fa5b68275828a6175ac", "fusion_lon": 0.0}, {"is_reserved": 0, "type": "electric_scooter", "bike_id": "e35fbd1d9f8b44b1bd71066b2532c339", "lat": 38.9237065, "lon": -77.08049583333333, "rental_uris": {"android": "https://dc.lft.to/lastmile_qr_scan", "ios": "https://dc.lft.to/lastmile_qr_scan"}, "is_disabled": 0, "fusion_lat": 0.0, "name": "e35fbd1d9f8b44b1bd71066b2532c339", "fusion_lon": 0.0}, {"is_reserved": 0, "type": "electric_scooter", "bike_id": "f210d4e287b95fa95a071d9bd10fc861", "lat": 38.927861166666666, "lon": -77.03604683333333, "rental_uris": {"android": "https://dc.lft.to/lastmile_qr_scan", "ios": "https://dc.lft.to/lastmile_qr_scan"}, "is_disabled": 0, "fusion_lat": 0.0, "name": "f210d4e287b95fa95a071d9bd10fc861", "fusion_lon": 0.0}, {"is_reserved": 0, "type": "electric_scooter", "bike_id": "7b695e545b97bf438c36d7d6b18ff8fa", "lat": 38.97297616666667, "lon": -77.036291, "rental_uris": {"android": "https://dc.lft.to/lastmile_qr_scan", "ios": "https://dc.lft.to/lastmile_qr_scan"}, "is_disabled": 0, "fusion_lat": 0.0, "name": "7b695e545b97bf438c36d7d6b18ff8fa", "fusion_lon": 0.0}, {"is_reserved": 0, "type": "electric_scooter", "bike_id": "8e0d2978e1417dc48cfe0a4a0b6e1e3a", "lat": 38.8644965, "lon": -76.99123616666667, "rental_uris": {"android": "https://dc.lft.to/lastmile_qr_scan", "ios": "https://dc.lft.to/lastmile_qr_scan"}, "is_disabled": 0, "fusion_lat": 0.0, "name": "8e0d2978e1417dc48cfe0a4a0b6e1e3a", "fusion_lon": 0.0}, {"is_reserved": 0, "type": "electric_scooter", "bike_id": "0dcb91ebd469f8162cfe96ff3e8a83fb", "lat": 38.9002255, "lon": -76.9983295, "rental_uris": {"android": "https://dc.lft.to/lastmile_qr_scan", "ios": "https://dc.lft.to/lastmile_qr_scan"}, "is_disabled": 0, "fusion_lat": 0.0, "name": "0dcb91ebd469f8162cfe96ff3e8a83fb", "fusion_lon": 0.0}, {"is_reserved": 0, "type": "electric_scooter", "bike_id": "c3085589047a9ed89f400fea5943ce73", "lat": 38.917128166666664, "lon": -77.03855533333333, "rental_uris": {"android": "https://dc.lft.to/lastmile_qr_scan", "ios": "https://dc.lft.to/lastmile_qr_scan"}, "is_disabled": 0, "fusion_lat": 0.0, "name": "c3085589047a9ed89f400fea5943ce73", "fusion_lon": 0.0}, {"is_reserved": 0, "type": "electric_scooter", "bike_id": "19ff5efbff6c6568bc3cdddc57b4b560", "lat": 38.93023216666667, "lon": -77.03789083333334, "rental_uris": {"android": "https://dc.lft.to/lastmile_qr_scan", "ios": "https://dc.lft.to/lastmile_qr_scan"}, "is_disabled": 0, "fusion_lat": 0.0, "name": "19ff5efbff6c6568bc3cdddc57b4b560", "fusion_lon": 0.0}, {"is_reserved": 0, "type": "electric_scooter", "bike_id": "00fbc4e59c153016bcff593dd4545d68", "lat": 38.91482883333333, "lon": -77.02186216666666, "rental_uris": {"android": "https://dc.lft.to/lastmile_qr_scan", "ios": "https://dc.lft.to/lastmile_qr_scan"}, "is_disabled": 0, "fusion_lat": 0.0, "name": "00fbc4e59c153016bcff593dd4545d68", "fusion_lon": 0.0}, {"is_reserved": 0, "type": "electric_bike", "bike_id": "697c2861c014aa326676ae82b6db98b8", "lat": 38.90620283333333, "lon": -77.070252, "rental_uris": {"android": "https://dc.lft.to/lastmile_qr_scan", "ios": "https://dc.lft.to/lastmile_qr_scan"}, "is_disabled": 0, "fusion_lat": 0.0, "name": "697c2861c014aa326676ae82b6db98b8", "fusion_lon": 0.0}, {"is_reserved": 0, "type": "electric_bike", "bike_id": "c3ae3c779fc5078659e2b35b8b44a035", "lat": 39.0944355, "lon": -77.13462283333334, "rental_uris": {"android": "https://dc.lft.to/lastmile_qr_scan", "ios": "https://dc.lft.to/lastmile_qr_scan"}, "is_disabled": 0, "fusion_lat": 0.0, "name": "c3ae3c779fc5078659e2b35b8b44a035", "fusion_lon": 0.0}, {"is_reserved": 0, "type": "electric_scooter", "bike_id": "0afa2fe234255d422de399544d2655c0", "lat": 38.9248365, "lon": -77.02816883333334, "rental_uris": {"android": "https://dc.lft.to/lastmile_qr_scan", "ios": "https://dc.lft.to/lastmile_qr_scan"}, "is_disabled": 0, "fusion_lat": 0.0, "name": "0afa2fe234255d422de399544d2655c0", "fusion_lon": 0.0}, {"is_reserved": 0, "type": "electric_scooter", "bike_id": "0e98ce35bccadb4612c4d39ef492adb3", "lat": 38.912474833333334, "lon": -77.0476695, "rental_uris": {"android": "https://dc.lft.to/lastmile_qr_scan", "ios": "https://dc.lft.to/lastmile_qr_scan"}, "is_disabled": 0, "fusion_lat": 0.0, "name": "0e98ce35bccadb4612c4d39ef492adb3", "fusion_lon": 0.0}, {"is_reserved": 0, "type": "electric_scooter", "bike_id": "434689ceb6c445d2ed48b2693958547d", "lat": 38.910029333333334, "lon": -76.99410366666666, "rental_uris": {"android": "https://dc.lft.to/lastmile_qr_scan", "ios": "https://dc.lft.to/lastmile_qr_scan"}, "is_disabled": 0, "fusion_lat": 0.0, "name": "434689ceb6c445d2ed48b2693958547d", "fusion_lon": 0.0}, {"is_reserved": 0, "type": "electric_scooter", "bike_id": "1b1bc2a1f1fe8b8f9ebf07319ab1edcc", "lat": 38.931154166666666, "lon": -77.02319883333334, "rental_uris": {"android": "https://dc.lft.to/lastmile_qr_scan", "ios": "https://dc.lft.to/lastmile_qr_scan"}, "is_disabled": 0, "fusion_lat": 0.0, "name": "1b1bc2a1f1fe8b8f9ebf07319ab1edcc", "fusion_lon": 0.0}, {"is_reserved": 0, "type": "electric_scooter", "bike_id": "20c4770b2dffe1794bb2d9322a6e6da7", "lat": 38.932309333333336, "lon": -76.99749083333333, "rental_uris": {"android": "https://dc.lft.to/lastmile_qr_scan", "ios": "https://dc.lft.to/lastmile_qr_scan"}, "is_disabled": 0, "fusion_lat": 0.0, "name": "20c4770b2dffe1794bb2d9322a6e6da7", "fusion_lon": 0.0}, {"is_reserved": 0, "type": "electric_bike", "bike_id": "910b9a664c7ddd4d6dfdde2a99a26f96", "lat": 38.8411105, "lon": -77.08927433333334, "rental_uris": {"android": "https://dc.lft.to/lastmile_qr_scan", "ios": "https://dc.lft.to/lastmile_qr_scan"}, "is_disabled": 0, "fusion_lat": 0.0, "name": "910b9a664c7ddd4d6dfdde2a99a26f96", "fusion_lon": 0.0}, {"is_reserved": 0, "type": "electric_scooter", "bike_id": "746665ce3e73fca707dc9cbcc1d12b05", "lat": 38.89374383333333, "lon": -76.94805366666667, "rental_uris": {"android": "https://dc.lft.to/lastmile_qr_scan", "ios": "https://dc.lft.to/lastmile_qr_scan"}, "is_disabled": 0, "fusion_lat": 0.0, "name": "746665ce3e73fca707dc9cbcc1d12b05", "fusion_lon": 0.0}, {"is_reserved": 0, "type": "electric_scooter", "bike_id": "f532d41ba462400c48e2669ddae5270a", "lat": 38.925035666666666, "lon": -77.02172216666666, "rental_uris": {"android": "https://dc.lft.to/lastmile_qr_scan", "ios": "https://dc.lft.to/lastmile_qr_scan"}, "is_disabled": 0, "fusion_lat": 0.0, "name": "f532d41ba462400c48e2669ddae5270a", "fusion_lon": 0.0}, {"is_reserved": 0, "type": "electric_scooter", "bike_id": "e252889e6abaa2fffb162790720c0488", "lat": 38.874671, "lon": -77.00545466666667, "rental_uris": {"android": "https://dc.lft.to/lastmile_qr_scan", "ios": "https://dc.lft.to/lastmile_qr_scan"}, "is_disabled": 0, "fusion_lat": 0.0, "name": "e252889e6abaa2fffb162790720c0488", "fusion_lon": 0.0}, {"is_reserved": 0, "type": "electric_scooter", "bike_id": "486805daf1a0b9ff5e03da16eecf0c40", "lat": 38.896155, "lon": -76.9972885, "rental_uris": {"android": "https://dc.lft.to/lastmile_qr_scan", "ios": "https://dc.lft.to/lastmile_qr_scan"}, "is_disabled": 0, "fusion_lat": 0.0, "name": "486805daf1a0b9ff5e03da16eecf0c40", "fusion_lon": 0.0}, {"is_reserved": 0, "type": "electric_scooter", "bike_id": "9df1119eb1a79e96b28164a523088625", "lat": 38.9179815, "lon": -77.04547833333334, "rental_uris": {"android": "https://dc.lft.to/lastmile_qr_scan", "ios": "https://dc.lft.to/lastmile_qr_scan"}, "is_disabled": 0, "fusion_lat": 0.0, "name": "9df1119eb1a79e96b28164a523088625", "fusion_lon": 0.0}, {"is_reserved": 0, "type": "electric_scooter", "bike_id": "fbc4f69a68bd0bd933a14a276faf6f0b", "lat": 38.910004, "lon": -77.02407483333333, "rental_uris": {"android": "https://dc.lft.to/lastmile_qr_scan", "ios": "https://dc.lft.to/lastmile_qr_scan"}, "is_disabled": 0, "fusion_lat": 0.0, "name": "fbc4f69a68bd0bd933a14a276faf6f0b", "fusion_lon": 0.0}, {"is_reserved": 0, "type": "electric_scooter", "bike_id": "98df0aaeb768de93c605691ce32e0351", "lat": 38.9238145, "lon": -77.0288155, "rental_uris": {"android": "https://dc.lft.to/lastmile_qr_scan", "ios": "https://dc.lft.to/lastmile_qr_scan"}, "is_disabled": 0, "fusion_lat": 0.0, "name": "98df0aaeb768de93c605691ce32e0351", "fusion_lon": 0.0}, {"is_reserved": 0, "type": "electric_scooter", "bike_id": "cdbee4cbf4ca095e41db63a7aa5fc9f7", "lat": 38.88368116666667, "lon": -76.9952045, "rental_uris": {"android": "https://dc.lft.to/lastmile_qr_scan", "ios": "https://dc.lft.to/lastmile_qr_scan"}, "is_disabled": 0, "fusion_lat": 0.0, "name": "cdbee4cbf4ca095e41db63a7aa5fc9f7", "fusion_lon": 0.0}, {"is_reserved": 0, "type": "electric_scooter", "bike_id": "a61d72ec2c1baec92e1cc4cded21ead4", "lat": 38.9239815, "lon": -77.05049066666666, "rental_uris": {"android": "https://dc.lft.to/lastmile_qr_scan", "ios": "https://dc.lft.to/lastmile_qr_scan"}, "is_disabled": 0, "fusion_lat": 0.0, "name": "a61d72ec2c1baec92e1cc4cded21ead4", "fusion_lon": 0.0}, {"is_reserved": 0, "type": "electric_scooter", "bike_id": "749314cf1fb37532cb773ea7fecef1ae", "lat": 38.89716166666667, "lon": -77.02792483333333, "rental_uris": {"android": "https://dc.lft.to/lastmile_qr_scan", "ios": "https://dc.lft.to/lastmile_qr_scan"}, "is_disabled": 0, "fusion_lat": 0.0, "name": "749314cf1fb37532cb773ea7fecef1ae", "fusion_lon": 0.0}, {"is_reserved": 0, "type": "electric_bike", "bike_id": "cb4fcc336956f2de5c2ddababb7d6897", "lat": 38.95870216666667, "lon": -76.970456, "rental_uris": {"android": "https://dc.lft.to/lastmile_qr_scan", "ios": "https://dc.lft.to/lastmile_qr_scan"}, "is_disabled": 0, "fusion_lat": 0.0, "name": "cb4fcc336956f2de5c2ddababb7d6897", "fusion_lon": 0.0}, {"is_reserved": 0, "type": "electric_bike", "bike_id": "f1fd101da325c6e5998f2270a6814550", "lat": 38.945618333333336, "lon": -76.9584205, "rental_uris": {"android": "https://dc.lft.to/lastmile_qr_scan", "ios": "https://dc.lft.to/lastmile_qr_scan"}, "is_disabled": 0, "fusion_lat": 0.0, "name": "f1fd101da325c6e5998f2270a6814550", "fusion_lon": 0.0}, {"is_reserved": 0, "type": "electric_scooter", "bike_id": "e523950accd5001c6b8deb7852bf9330", "lat": 38.91016916666667, "lon": -76.99372483333333, "rental_uris": {"android": "https://dc.lft.to/lastmile_qr_scan", "ios": "https://dc.lft.to/lastmile_qr_scan"}, "is_disabled": 0, "fusion_lat": 0.0, "name": "e523950accd5001c6b8deb7852bf9330", "fusion_lon": 0.0}, {"is_reserved": 0, "type": "electric_scooter", "bike_id": "fe469f02b10323f0fcd7f7fc5dc88e6f", "lat": 38.900735833333336, "lon": -77.04938683333333, "rental_uris": {"android": "https://dc.lft.to/lastmile_qr_scan", "ios": "https://dc.lft.to/lastmile_qr_scan"}, "is_disabled": 0, "fusion_lat": 0.0, "name": "fe469f02b10323f0fcd7f7fc5dc88e6f", "fusion_lon": 0.0}, {"is_reserved": 0, "type": "electric_scooter", "bike_id": "358dbbdeb987ab41d2a09afc992eaf24", "lat": 38.918170333333336, "lon": -77.03158866666666, "rental_uris": {"android": "https://dc.lft.to/lastmile_qr_scan", "ios": "https://dc.lft.to/lastmile_qr_scan"}, "is_disabled": 0, "fusion_lat": 0.0, "name": "358dbbdeb987ab41d2a09afc992eaf24", "fusion_lon": 0.0}, {"is_reserved": 0, "type": "electric_scooter", "bike_id": "c4292af043f57b98c03e55e439479e83", "lat": 38.922062333333336, "lon": -77.02032616666666, "rental_uris": {"android": "https://dc.lft.to/lastmile_qr_scan", "ios": "https://dc.lft.to/lastmile_qr_scan"}, "is_disabled": 0, "fusion_lat": 0.0, "name": "c4292af043f57b98c03e55e439479e83", "fusion_lon": 0.0}, {"is_reserved": 0, "type": "electric_scooter", "bike_id": "9be32156e03a6394b10fc2a8384277f3", "lat": 38.906212833333335, "lon": -77.0087995, "rental_uris": {"android": "https://dc.lft.to/lastmile_qr_scan", "ios": "https://dc.lft.to/lastmile_qr_scan"}, "is_disabled": 0, "fusion_lat": 0.0, "name": "9be32156e03a6394b10fc2a8384277f3", "fusion_lon": 0.0}, {"is_reserved": 0, "type": "electric_scooter", "bike_id": "25be58e62e6fe6d1f3c34201e5987a8c", "lat": 38.923978, "lon": -77.04299283333333, "rental_uris": {"android": "https://dc.lft.to/lastmile_qr_scan", "ios": "https://dc.lft.to/lastmile_qr_scan"}, "is_disabled": 0, "fusion_lat": 0.0, "name": "25be58e62e6fe6d1f3c34201e5987a8c", "fusion_lon": 0.0}, {"is_reserved": 0, "type": "electric_scooter", "bike_id": "d7a25db491562282b0e8b701ec3e7fce", "lat": 38.88722816666667, "lon": -77.028263, "rental_uris": {"android": "https://dc.lft.to/lastmile_qr_scan", "ios": "https://dc.lft.to/lastmile_qr_scan"}, "is_disabled": 0, "fusion_lat": 0.0, "name": "d7a25db491562282b0e8b701ec3e7fce", "fusion_lon": 0.0}, {"is_reserved": 0, "type": "electric_scooter", "bike_id": "6416cb0049636d0d712c67ec23f45a3a", "lat": 38.9025345, "lon": -77.02927166666667, "rental_uris": {"android": "https://dc.lft.to/lastmile_qr_scan", "ios": "https://dc.lft.to/lastmile_qr_scan"}, "is_disabled": 0, "fusion_lat": 0.0, "name": "6416cb0049636d0d712c67ec23f45a3a", "fusion_lon": 0.0}, {"is_reserved": 0, "type": "electric_scooter", "bike_id": "dff75ef77fc8a42cbe1ed58c2008ccb6", "lat": 38.95143783333333, "lon": -77.01869066666667, "rental_uris": {"android": "https://dc.lft.to/lastmile_qr_scan", "ios": "https://dc.lft.to/lastmile_qr_scan"}, "is_disabled": 0, "fusion_lat": 0.0, "name": "dff75ef77fc8a42cbe1ed58c2008ccb6", "fusion_lon": 0.0}, {"is_reserved": 0, "type": "electric_scooter", "bike_id": "3dab187a96b1d7e9d2cab545dcbfb2cf", "lat": 38.904265, "lon": -77.0186545, "rental_uris": {"android": "https://dc.lft.to/lastmile_qr_scan", "ios": "https://dc.lft.to/lastmile_qr_scan"}, "is_disabled": 0, "fusion_lat": 0.0, "name": "3dab187a96b1d7e9d2cab545dcbfb2cf", "fusion_lon": 0.0}, {"is_reserved": 0, "type": "electric_scooter", "bike_id": "17b23d4bd3a292a35cdb0afc5afd681c", "lat": 38.887544166666665, "lon": -77.03368266666666, "rental_uris": {"android": "https://dc.lft.to/lastmile_qr_scan", "ios": "https://dc.lft.to/lastmile_qr_scan"}, "is_disabled": 0, "fusion_lat": 0.0, "name": "17b23d4bd3a292a35cdb0afc5afd681c", "fusion_lon": 0.0}, {"is_reserved": 0, "type": "electric_scooter", "bike_id": "80039601247242f6855a2cc2d2911115", "lat": 38.89598516666667, "lon": -77.04688633333333, "rental_uris": {"android": "https://dc.lft.to/lastmile_qr_scan", "ios": "https://dc.lft.to/lastmile_qr_scan"}, "is_disabled": 0, "fusion_lat": 0.0, "name": "80039601247242f6855a2cc2d2911115", "fusion_lon": 0.0}, {"is_reserved": 0, "type": "electric_scooter", "bike_id": "e859fce2e1ecd6bdd87716f2db6fdd20", "lat": 38.915538833333336, "lon": -77.01164916666667, "rental_uris": {"android": "https://dc.lft.to/lastmile_qr_scan", "ios": "https://dc.lft.to/lastmile_qr_scan"}, "is_disabled": 0, "fusion_lat": 0.0, "name": "e859fce2e1ecd6bdd87716f2db6fdd20", "fusion_lon": 0.0}, {"is_reserved": 0, "type": "electric_bike", "bike_id": "ebcf1e34ad864ca946a8f10b57063774", "lat": 38.887846333333336, "lon": -76.923402, "rental_uris": {"android": "https://dc.lft.to/lastmile_qr_scan", "ios": "https://dc.lft.to/lastmile_qr_scan"}, "is_disabled": 0, "fusion_lat": 0.0, "name": "ebcf1e34ad864ca946a8f10b57063774", "fusion_lon": 0.0}, {"is_reserved": 0, "type": "electric_scooter", "bike_id": "7d0fb167e9001927d566a87df2e31458", "lat": 38.919254, "lon": -77.03400933333333, "rental_uris": {"android": "https://dc.lft.to/lastmile_qr_scan", "ios": "https://dc.lft.to/lastmile_qr_scan"}, "is_disabled": 0, "fusion_lat": 0.0, "name": "7d0fb167e9001927d566a87df2e31458", "fusion_lon": 0.0}, {"is_reserved": 0, "type": "electric_scooter", "bike_id": "c729fd7167b5521cd1049fe5e962f376", "lat": 38.920689, "lon": -76.98073816666667, "rental_uris": {"android": "https://dc.lft.to/lastmile_qr_scan", "ios": "https://dc.lft.to/lastmile_qr_scan"}, "is_disabled": 0, "fusion_lat": 0.0, "name": "c729fd7167b5521cd1049fe5e962f376", "fusion_lon": 0.0}, {"is_reserved": 0, "type": "electric_scooter", "bike_id": "e90ec82bec918adcb0d3488a517132da", "lat": 38.974909333333336, "lon": -77.0169865, "rental_uris": {"android": "https://dc.lft.to/lastmile_qr_scan", "ios": "https://dc.lft.to/lastmile_qr_scan"}, "is_disabled": 0, "fusion_lat": 0.0, "name": "e90ec82bec918adcb0d3488a517132da", "fusion_lon": 0.0}, {"is_reserved": 0, "type": "electric_scooter", "bike_id": "e3f2a03d25cf7f4b11e26a647ebffaa7", "lat": 38.897312, "lon": -77.05476783333333, "rental_uris": {"android": "https://dc.lft.to/lastmile_qr_scan", "ios": "https://dc.lft.to/lastmile_qr_scan"}, "is_disabled": 0, "fusion_lat": 0.0, "name": "e3f2a03d25cf7f4b11e26a647ebffaa7", "fusion_lon": 0.0}, {"is_reserved": 0, "type": "electric_scooter", "bike_id": "460f1676ae23fe6fcea32e9cd1aa473b", "lat": 38.90537966666667, "lon": -77.04174983333333, "rental_uris": {"android": "https://dc.lft.to/lastmile_qr_scan", "ios": "https://dc.lft.to/lastmile_qr_scan"}, "is_disabled": 0, "fusion_lat": 0.0, "name": "460f1676ae23fe6fcea32e9cd1aa473b", "fusion_lon": 0.0}, {"is_reserved": 0, "type": "electric_scooter", "bike_id": "404155d2d2f8d2d761e006a4e618cb2d", "lat": 38.899142499999996, "lon": -77.03252083333334, "rental_uris": {"android": "https://dc.lft.to/lastmile_qr_scan", "ios": "https://dc.lft.to/lastmile_qr_scan"}, "is_disabled": 0, "fusion_lat": 0.0, "name": "404155d2d2f8d2d761e006a4e618cb2d", "fusion_lon": 0.0}, {"is_reserved": 0, "type": "electric_scooter", "bike_id": "11a9486a47124fa9f9bbd6df048342d4", "lat": 38.89900333333333, "lon": -77.02177, "rental_uris": {"android": "https://dc.lft.to/lastmile_qr_scan", "ios": "https://dc.lft.to/lastmile_qr_scan"}, "is_disabled": 0, "fusion_lat": 0.0, "name": "11a9486a47124fa9f9bbd6df048342d4", "fusion_lon": 0.0}, {"is_reserved": 0, "type": "electric_scooter", "bike_id": "f1c0e01f7ce2d03c22c2d6e67d157984", "lat": 38.92413283333333, "lon": -77.0194245, "rental_uris": {"android": "https://dc.lft.to/lastmile_qr_scan", "ios": "https://dc.lft.to/lastmile_qr_scan"}, "is_disabled": 0, "fusion_lat": 0.0, "name": "f1c0e01f7ce2d03c22c2d6e67d157984", "fusion_lon": 0.0}, {"is_reserved": 0, "type": "electric_scooter", "bike_id": "704daa460c2287b8866f1cecb5d31dde", "lat": 38.913413166666665, "lon": -77.04802566666666, "rental_uris": {"android": "https://dc.lft.to/lastmile_qr_scan", "ios": "https://dc.lft.to/lastmile_qr_scan"}, "is_disabled": 0, "fusion_lat": 0.0, "name": "704daa460c2287b8866f1cecb5d31dde", "fusion_lon": 0.0}, {"is_reserved": 0, "type": "electric_scooter", "bike_id": "fee66db2a725b47f1eeb054116accd19", "lat": 38.93296933333333, "lon": -77.02144633333333, "rental_uris": {"android": "https://dc.lft.to/lastmile_qr_scan", "ios": "https://dc.lft.to/lastmile_qr_scan"}, "is_disabled": 0, "fusion_lat": 0.0, "name": "fee66db2a725b47f1eeb054116accd19", "fusion_lon": 0.0}, {"is_reserved": 0, "type": "electric_scooter", "bike_id": "66565c2d107c4fbfb5a37ab7983c296b", "lat": 38.90728566666667, "lon": -76.93448516666666, "rental_uris": {"android": "https://dc.lft.to/lastmile_qr_scan", "ios": "https://dc.lft.to/lastmile_qr_scan"}, "is_disabled": 0, "fusion_lat": 0.0, "name": "66565c2d107c4fbfb5a37ab7983c296b", "fusion_lon": 0.0}, {"is_reserved": 0, "type": "electric_scooter", "bike_id": "b0f7f8cd1a946d30fec5d5d542fde265", "lat": 38.89953333333333, "lon": -76.97907866666667, "rental_uris": {"android": "https://dc.lft.to/lastmile_qr_scan", "ios": "https://dc.lft.to/lastmile_qr_scan"}, "is_disabled": 0, "fusion_lat": 0.0, "name": "b0f7f8cd1a946d30fec5d5d542fde265", "fusion_lon": 0.0}, {"is_reserved": 0, "type": "electric_scooter", "bike_id": "91ade59d85ac0856e05b7edba89b17e4", "lat": 38.923328166666664, "lon": -77.035007, "rental_uris": {"android": "https://dc.lft.to/lastmile_qr_scan", "ios": "https://dc.lft.to/lastmile_qr_scan"}, "is_disabled": 0, "fusion_lat": 0.0, "name": "91ade59d85ac0856e05b7edba89b17e4", "fusion_lon": 0.0}, {"is_reserved": 0, "type": "electric_scooter", "bike_id": "451f04ebe87d8d5140cb48234b8e48cd", "lat": 38.90822133333333, "lon": -77.04334383333334, "rental_uris": {"android": "https://dc.lft.to/lastmile_qr_scan", "ios": "https://dc.lft.to/lastmile_qr_scan"}, "is_disabled": 0, "fusion_lat": 0.0, "name": "451f04ebe87d8d5140cb48234b8e48cd", "fusion_lon": 0.0}, {"is_reserved": 0, "type": "electric_scooter", "bike_id": "9aae6e54ba62230cbc2a670372a02b3c", "lat": 38.9064185, "lon": -76.983772, "rental_uris": {"android": "https://dc.lft.to/lastmile_qr_scan", "ios": "https://dc.lft.to/lastmile_qr_scan"}, "is_disabled": 0, "fusion_lat": 0.0, "name": "9aae6e54ba62230cbc2a670372a02b3c", "fusion_lon": 0.0}, {"is_reserved": 0, "type": "electric_scooter", "bike_id": "d109d2552acd510191159525708dbb1e", "lat": 38.913994, "lon": -77.031861, "rental_uris": {"android": "https://dc.lft.to/lastmile_qr_scan", "ios": "https://dc.lft.to/lastmile_qr_scan"}, "is_disabled": 0, "fusion_lat": 0.0, "name": "d109d2552acd510191159525708dbb1e", "fusion_lon": 0.0}, {"is_reserved": 0, "type": "electric_scooter", "bike_id": "836ca2988448061df106313169da6f0f", "lat": 38.9319935, "lon": -77.02822566666667, "rental_uris": {"android": "https://dc.lft.to/lastmile_qr_scan", "ios": "https://dc.lft.to/lastmile_qr_scan"}, "is_disabled": 0, "fusion_lat": 0.0, "name": "836ca2988448061df106313169da6f0f", "fusion_lon": 0.0}, {"is_reserved": 0, "type": "electric_scooter", "bike_id": "24b1b42209474cdeca11d8145042f7e7", "lat": 38.90957083333333, "lon": -77.04650916666667, "rental_uris": {"android": "https://dc.lft.to/lastmile_qr_scan", "ios": "https://dc.lft.to/lastmile_qr_scan"}, "is_disabled": 0, "fusion_lat": 0.0, "name": "24b1b42209474cdeca11d8145042f7e7", "fusion_lon": 0.0}, {"is_reserved": 0, "type": "electric_scooter", "bike_id": "4f637f214de855436bf6d7df6456b36a", "lat": 38.91552516666667, "lon": -77.03992816666667, "rental_uris": {"android": "https://dc.lft.to/lastmile_qr_scan", "ios": "https://dc.lft.to/lastmile_qr_scan"}, "is_disabled": 0, "fusion_lat": 0.0, "name": "4f637f214de855436bf6d7df6456b36a", "fusion_lon": 0.0}, {"is_reserved": 0, "type": "electric_scooter", "bike_id": "6f99b349f7e867e7225a190d9feadb95", "lat": 38.891674, "lon": -77.01549866666667, "rental_uris": {"android": "https://dc.lft.to/lastmile_qr_scan", "ios": "https://dc.lft.to/lastmile_qr_scan"}, "is_disabled": 0, "fusion_lat": 0.0, "name": "6f99b349f7e867e7225a190d9feadb95", "fusion_lon": 0.0}, {"is_reserved": 0, "type": "electric_scooter", "bike_id": "ae931a5268e498d8654dd0951831569a", "lat": 38.897406333333336, "lon": -76.997687, "rental_uris": {"android": "https://dc.lft.to/lastmile_qr_scan", "ios": "https://dc.lft.to/lastmile_qr_scan"}, "is_disabled": 0, "fusion_lat": 0.0, "name": "ae931a5268e498d8654dd0951831569a", "fusion_lon": 0.0}, {"is_reserved": 0, "type": "electric_scooter", "bike_id": "077fe79d9afb8c230d73c943defc59c8", "lat": 38.90668466666666, "lon": -77.02702966666666, "rental_uris": {"android": "https://dc.lft.to/lastmile_qr_scan", "ios": "https://dc.lft.to/lastmile_qr_scan"}, "is_disabled": 0, "fusion_lat": 0.0, "name": "077fe79d9afb8c230d73c943defc59c8", "fusion_lon": 0.0}, {"is_reserved": 0, "type": "electric_bike", "bike_id": "98aa18a9c6719c32b140bad3684c7150", "lat": 38.94665166666667, "lon": -76.99338316666666, "rental_uris": {"android": "https://dc.lft.to/lastmile_qr_scan", "ios": "https://dc.lft.to/lastmile_qr_scan"}, "is_disabled": 0, "fusion_lat": 0.0, "name": "98aa18a9c6719c32b140bad3684c7150", "fusion_lon": 0.0}, {"is_reserved": 0, "type": "electric_scooter", "bike_id": "87576df8817614f980e6861964106582", "lat": 38.914074166666666, "lon": -77.02247083333333, "rental_uris": {"android": "https://dc.lft.to/lastmile_qr_scan", "ios": "https://dc.lft.to/lastmile_qr_scan"}, "is_disabled": 0, "fusion_lat": 0.0, "name": "87576df8817614f980e6861964106582", "fusion_lon": 0.0}, {"is_reserved": 0, "type": "electric_scooter", "bike_id": "95ef5c4b30f6c47676692572a40c86c0", "lat": 38.916420333333335, "lon": -77.023818, "rental_uris": {"android": "https://dc.lft.to/lastmile_qr_scan", "ios": "https://dc.lft.to/lastmile_qr_scan"}, "is_disabled": 0, "fusion_lat": 0.0, "name": "95ef5c4b30f6c47676692572a40c86c0", "fusion_lon": 0.0}, {"is_reserved": 0, "type": "electric_scooter", "bike_id": "1f085bb0fb58979445c3e6cfb7ed4bb5", "lat": 38.892174833333335, "lon": -77.03109083333334, "rental_uris": {"android": "https://dc.lft.to/lastmile_qr_scan", "ios": "https://dc.lft.to/lastmile_qr_scan"}, "is_disabled": 0, "fusion_lat": 0.0, "name": "1f085bb0fb58979445c3e6cfb7ed4bb5", "fusion_lon": 0.0}, {"is_reserved": 0, "type": "electric_scooter", "bike_id": "eb3b5b3fb6a0e2b49c767072b65fa0a2", "lat": 38.892202, "lon": -77.01386366666667, "rental_uris": {"android": "https://dc.lft.to/lastmile_qr_scan", "ios": "https://dc.lft.to/lastmile_qr_scan"}, "is_disabled": 0, "fusion_lat": 0.0, "name": "eb3b5b3fb6a0e2b49c767072b65fa0a2", "fusion_lon": 0.0}, {"is_reserved": 0, "type": "electric_scooter", "bike_id": "ea04897d107e8c7e85a12c081ad2bf45", "lat": 38.916998666666665, "lon": -77.02412466666667, "rental_uris": {"android": "https://dc.lft.to/lastmile_qr_scan", "ios": "https://dc.lft.to/lastmile_qr_scan"}, "is_disabled": 0, "fusion_lat": 0.0, "name": "ea04897d107e8c7e85a12c081ad2bf45", "fusion_lon": 0.0}, {"is_reserved": 0, "type": "electric_scooter", "bike_id": "1b9e5638792a0272b90c3310238b743f", "lat": 38.91744816666667, "lon": -77.028016, "rental_uris": {"android": "https://dc.lft.to/lastmile_qr_scan", "ios": "https://dc.lft.to/lastmile_qr_scan"}, "is_disabled": 0, "fusion_lat": 0.0, "name": "1b9e5638792a0272b90c3310238b743f", "fusion_lon": 0.0}, {"is_reserved": 0, "type": "electric_scooter", "bike_id": "6833e9868588e3ecb737bac76ccb1a4b", "lat": 38.922479833333334, "lon": -77.0425445, "rental_uris": {"android": "https://dc.lft.to/lastmile_qr_scan", "ios": "https://dc.lft.to/lastmile_qr_scan"}, "is_disabled": 0, "fusion_lat": 0.0, "name": "6833e9868588e3ecb737bac76ccb1a4b", "fusion_lon": 0.0}, {"is_reserved": 0, "type": "electric_scooter", "bike_id": "ecab68be9f0217276df7a021fe11b681", "lat": 38.9407415, "lon": -77.05493116666666, "rental_uris": {"android": "https://dc.lft.to/lastmile_qr_scan", "ios": "https://dc.lft.to/lastmile_qr_scan"}, "is_disabled": 0, "fusion_lat": 0.0, "name": "ecab68be9f0217276df7a021fe11b681", "fusion_lon": 0.0}, {"is_reserved": 0, "type": "electric_scooter", "bike_id": "863a00dbaf61a15ece98a95f5ca7abfd", "lat": 38.924881666666664, "lon": -77.0271215, "rental_uris": {"android": "https://dc.lft.to/lastmile_qr_scan", "ios": "https://dc.lft.to/lastmile_qr_scan"}, "is_disabled": 0, "fusion_lat": 0.0, "name": "863a00dbaf61a15ece98a95f5ca7abfd", "fusion_lon": 0.0}, {"is_reserved": 0, "type": "electric_scooter", "bike_id": "3f1d037e3adec181a2fb97e79fb5842e", "lat": 38.90180316666667, "lon": -77.04880066666666, "rental_uris": {"android": "https://dc.lft.to/lastmile_qr_scan", "ios": "https://dc.lft.to/lastmile_qr_scan"}, "is_disabled": 0, "fusion_lat": 0.0, "name": "3f1d037e3adec181a2fb97e79fb5842e", "fusion_lon": 0.0}, {"is_reserved": 0, "type": "electric_scooter", "bike_id": "1064488c9b77e3bcaeb9f7e390e42a6c", "lat": 38.92833916666667, "lon": -77.0551635, "rental_uris": {"android": "https://dc.lft.to/lastmile_qr_scan", "ios": "https://dc.lft.to/lastmile_qr_scan"}, "is_disabled": 0, "fusion_lat": 0.0, "name": "1064488c9b77e3bcaeb9f7e390e42a6c", "fusion_lon": 0.0}, {"is_reserved": 0, "type": "electric_scooter", "bike_id": "195713ba0a025b8a2ee3f4b362dc47ba", "lat": 38.9243045, "lon": -77.0031845, "rental_uris": {"android": "https://dc.lft.to/lastmile_qr_scan", "ios": "https://dc.lft.to/lastmile_qr_scan"}, "is_disabled": 0, "fusion_lat": 0.0, "name": "195713ba0a025b8a2ee3f4b362dc47ba", "fusion_lon": 0.0}, {"is_reserved": 0, "type": "electric_scooter", "bike_id": "b476a71f5865080efb76e8e9ef14c0d5", "lat": 38.88526433333333, "lon": -76.996085, "rental_uris": {"android": "https://dc.lft.to/lastmile_qr_scan", "ios": "https://dc.lft.to/lastmile_qr_scan"}, "is_disabled": 0, "fusion_lat": 0.0, "name": "b476a71f5865080efb76e8e9ef14c0d5", "fusion_lon": 0.0}, {"is_reserved": 0, "type": "electric_scooter", "bike_id": "63ae0b08b79e1771caae24e58e4ad11b", "lat": 38.9039115, "lon": -77.06296133333333, "rental_uris": {"android": "https://dc.lft.to/lastmile_qr_scan", "ios": "https://dc.lft.to/lastmile_qr_scan"}, "is_disabled": 0, "fusion_lat": 0.0, "name": "63ae0b08b79e1771caae24e58e4ad11b", "fusion_lon": 0.0}, {"is_reserved": 0, "type": "electric_scooter", "bike_id": "d889e94137804424b41cc8117a1066bb", "lat": 38.898750166666666, "lon": -76.93184516666666, "rental_uris": {"android": "https://dc.lft.to/lastmile_qr_scan", "ios": "https://dc.lft.to/lastmile_qr_scan"}, "is_disabled": 0, "fusion_lat": 0.0, "name": "d889e94137804424b41cc8117a1066bb", "fusion_lon": 0.0}, {"is_reserved": 0, "type": "electric_scooter", "bike_id": "e51c44703b43649c978fc81a8322eafe", "lat": 38.928897166666665, "lon": -77.013729, "rental_uris": {"android": "https://dc.lft.to/lastmile_qr_scan", "ios": "https://dc.lft.to/lastmile_qr_scan"}, "is_disabled": 0, "fusion_lat": 0.0, "name": "e51c44703b43649c978fc81a8322eafe", "fusion_lon": 0.0}, {"is_reserved": 0, "type": "electric_scooter", "bike_id": "2e9653fc2889702ff23ffbb161499b73", "lat": 38.906773, "lon": -77.06251983333334, "rental_uris": {"android": "https://dc.lft.to/lastmile_qr_scan", "ios": "https://dc.lft.to/lastmile_qr_scan"}, "is_disabled": 0, "fusion_lat": 0.0, "name": "2e9653fc2889702ff23ffbb161499b73", "fusion_lon": 0.0}, {"is_reserved": 0, "type": "electric_scooter", "bike_id": "c0446da541d83a2d8bb61e65c9928f3f", "lat": 38.90677316666667, "lon": -77.00916466666666, "rental_uris": {"android": "https://dc.lft.to/lastmile_qr_scan", "ios": "https://dc.lft.to/lastmile_qr_scan"}, "is_disabled": 0, "fusion_lat": 0.0, "name": "c0446da541d83a2d8bb61e65c9928f3f", "fusion_lon": 0.0}, {"is_reserved": 0, "type": "electric_scooter", "bike_id": "148208d326997c8030b981dc04f8551f", "lat": 38.90723416666667, "lon": -77.0168045, "rental_uris": {"android": "https://dc.lft.to/lastmile_qr_scan", "ios": "https://dc.lft.to/lastmile_qr_scan"}, "is_disabled": 0, "fusion_lat": 0.0, "name": "148208d326997c8030b981dc04f8551f", "fusion_lon": 0.0}, {"is_reserved": 0, "type": "electric_scooter", "bike_id": "ef78610834285f5a6c439e632605ddd1", "lat": 38.923387166666664, "lon": -77.05061966666666, "rental_uris": {"android": "https://dc.lft.to/lastmile_qr_scan", "ios": "https://dc.lft.to/lastmile_qr_scan"}, "is_disabled": 0, "fusion_lat": 0.0, "name": "ef78610834285f5a6c439e632605ddd1", "fusion_lon": 0.0}, {"is_reserved": 0, "type": "electric_scooter", "bike_id": "05c41df7cb51efe8774621f522f26a62", "lat": 38.9169745, "lon": -77.04111966666666, "rental_uris": {"android": "https://dc.lft.to/lastmile_qr_scan", "ios": "https://dc.lft.to/lastmile_qr_scan"}, "is_disabled": 0, "fusion_lat": 0.0, "name": "05c41df7cb51efe8774621f522f26a62", "fusion_lon": 0.0}, {"is_reserved": 0, "type": "electric_scooter", "bike_id": "94e0d36f0298d6f3422f8fc30be55ba9", "lat": 38.915624333333334, "lon": -77.02556133333333, "rental_uris": {"android": "https://dc.lft.to/lastmile_qr_scan", "ios": "https://dc.lft.to/lastmile_qr_scan"}, "is_disabled": 0, "fusion_lat": 0.0, "name": "94e0d36f0298d6f3422f8fc30be55ba9", "fusion_lon": 0.0}, {"is_reserved": 0, "type": "electric_scooter", "bike_id": "614134bb230507ebdc63704f9a060abf", "lat": 38.932018666666664, "lon": -77.02391016666667, "rental_uris": {"android": "https://dc.lft.to/lastmile_qr_scan", "ios": "https://dc.lft.to/lastmile_qr_scan"}, "is_disabled": 0, "fusion_lat": 0.0, "name": "614134bb230507ebdc63704f9a060abf", "fusion_lon": 0.0}, {"is_reserved": 0, "type": "electric_scooter", "bike_id": "71438781f5d177057eefc67d438f88e5", "lat": 38.86967333333333, "lon": -77.01118016666666, "rental_uris": {"android": "https://dc.lft.to/lastmile_qr_scan", "ios": "https://dc.lft.to/lastmile_qr_scan"}, "is_disabled": 0, "fusion_lat": 0.0, "name": "71438781f5d177057eefc67d438f88e5", "fusion_lon": 0.0}, {"is_reserved": 0, "type": "electric_scooter", "bike_id": "20afd55c27c7a5b2aeb479e40c6260cc", "lat": 38.900811166666664, "lon": -77.04927966666666, "rental_uris": {"android": "https://dc.lft.to/lastmile_qr_scan", "ios": "https://dc.lft.to/lastmile_qr_scan"}, "is_disabled": 0, "fusion_lat": 0.0, "name": "20afd55c27c7a5b2aeb479e40c6260cc", "fusion_lon": 0.0}, {"is_reserved": 0, "type": "electric_scooter", "bike_id": "1a36256885d6cb977ff318e36f66482b", "lat": 38.91417966666667, "lon": -77.03189766666667, "rental_uris": {"android": "https://dc.lft.to/lastmile_qr_scan", "ios": "https://dc.lft.to/lastmile_qr_scan"}, "is_disabled": 0, "fusion_lat": 0.0, "name": "1a36256885d6cb977ff318e36f66482b", "fusion_lon": 0.0}, {"is_reserved": 0, "type": "electric_scooter", "bike_id": "439d5d59b8913a473d42fccf5f59949a", "lat": 38.934765166666665, "lon": -77.07329316666667, "rental_uris": {"android": "https://dc.lft.to/lastmile_qr_scan", "ios": "https://dc.lft.to/lastmile_qr_scan"}, "is_disabled": 0, "fusion_lat": 0.0, "name": "439d5d59b8913a473d42fccf5f59949a", "fusion_lon": 0.0}, {"is_reserved": 0, "type": "electric_scooter", "bike_id": "6a0c7452371049c978adfea7417e7054", "lat": 38.90720616666667, "lon": -77.04755533333334, "rental_uris": {"android": "https://dc.lft.to/lastmile_qr_scan", "ios": "https://dc.lft.to/lastmile_qr_scan"}, "is_disabled": 0, "fusion_lat": 0.0, "name": "6a0c7452371049c978adfea7417e7054", "fusion_lon": 0.0}, {"is_reserved": 0, "type": "electric_scooter", "bike_id": "99fa4e2bc3e92337372b6ae550b19b6d", "lat": 38.91618733333333, "lon": -77.00645233333333, "rental_uris": {"android": "https://dc.lft.to/lastmile_qr_scan", "ios": "https://dc.lft.to/lastmile_qr_scan"}, "is_disabled": 0, "fusion_lat": 0.0, "name": "99fa4e2bc3e92337372b6ae550b19b6d", "fusion_lon": 0.0}, {"is_reserved": 0, "type": "electric_scooter", "bike_id": "96a4e8ddef66bdf85d56a300d67adf7f", "lat": 38.924094833333335, "lon": -77.04030983333334, "rental_uris": {"android": "https://dc.lft.to/lastmile_qr_scan", "ios": "https://dc.lft.to/lastmile_qr_scan"}, "is_disabled": 0, "fusion_lat": 0.0, "name": "96a4e8ddef66bdf85d56a300d67adf7f", "fusion_lon": 0.0}, {"is_reserved": 0, "type": "electric_scooter", "bike_id": "55ccd86febb1543d3be1f0d52181a9e7", "lat": 38.90541316666667, "lon": -77.059207, "rental_uris": {"android": "https://dc.lft.to/lastmile_qr_scan", "ios": "https://dc.lft.to/lastmile_qr_scan"}, "is_disabled": 0, "fusion_lat": 0.0, "name": "55ccd86febb1543d3be1f0d52181a9e7", "fusion_lon": 0.0}, {"is_reserved": 0, "type": "electric_scooter", "bike_id": "8017cd991a47e381c1e8e6a1bca8a4a9", "lat": 38.905356, "lon": -77.05808933333333, "rental_uris": {"android": "https://dc.lft.to/lastmile_qr_scan", "ios": "https://dc.lft.to/lastmile_qr_scan"}, "is_disabled": 0, "fusion_lat": 0.0, "name": "8017cd991a47e381c1e8e6a1bca8a4a9", "fusion_lon": 0.0}, {"is_reserved": 0, "type": "electric_scooter", "bike_id": "11334930a609c9800b549f3ceb0cfd63", "lat": 38.9128575, "lon": -77.02299233333333, "rental_uris": {"android": "https://dc.lft.to/lastmile_qr_scan", "ios": "https://dc.lft.to/lastmile_qr_scan"}, "is_disabled": 0, "fusion_lat": 0.0, "name": "11334930a609c9800b549f3ceb0cfd63", "fusion_lon": 0.0}, {"is_reserved": 0, "type": "electric_bike", "bike_id": "7b1c7c0ae65a5fb0c067e08ede9f7583", "lat": 38.79331066666667, "lon": -77.00045616666667, "rental_uris": {"android": "https://dc.lft.to/lastmile_qr_scan", "ios": "https://dc.lft.to/lastmile_qr_scan"}, "is_disabled": 0, "fusion_lat": 0.0, "name": "7b1c7c0ae65a5fb0c067e08ede9f7583", "fusion_lon": 0.0}, {"is_reserved": 0, "type": "electric_scooter", "bike_id": "29535a86c075419fb607372210d237c6", "lat": 38.901438666666664, "lon": -77.05916816666667, "rental_uris": {"android": "https://dc.lft.to/lastmile_qr_scan", "ios": "https://dc.lft.to/lastmile_qr_scan"}, "is_disabled": 0, "fusion_lat": 0.0, "name": "29535a86c075419fb607372210d237c6", "fusion_lon": 0.0}, {"is_reserved": 0, "type": "electric_scooter", "bike_id": "1e4e2030b0246e8eb73e3a68f0962c49", "lat": 38.9375075, "lon": -77.02837166666667, "rental_uris": {"android": "https://dc.lft.to/lastmile_qr_scan", "ios": "https://dc.lft.to/lastmile_qr_scan"}, "is_disabled": 0, "fusion_lat": 0.0, "name": "1e4e2030b0246e8eb73e3a68f0962c49", "fusion_lon": 0.0}, {"is_reserved": 0, "type": "electric_scooter", "bike_id": "f62066af5b4f8e774a9e2e6f297acd6f", "lat": 38.894873, "lon": -77.021424, "rental_uris": {"android": "https://dc.lft.to/lastmile_qr_scan", "ios": "https://dc.lft.to/lastmile_qr_scan"}, "is_disabled": 0, "fusion_lat": 0.0, "name": "f62066af5b4f8e774a9e2e6f297acd6f", "fusion_lon": 0.0}, {"is_reserved": 0, "type": "electric_scooter", "bike_id": "54b6a0de29b4b119b39c5bfc5a2f664e", "lat": 38.87753516666667, "lon": -77.01888766666667, "rental_uris": {"android": "https://dc.lft.to/lastmile_qr_scan", "ios": "https://dc.lft.to/lastmile_qr_scan"}, "is_disabled": 0, "fusion_lat": 0.0, "name": "54b6a0de29b4b119b39c5bfc5a2f664e", "fusion_lon": 0.0}, {"is_reserved": 0, "type": "electric_scooter", "bike_id": "69cefd4816f0fb22a2bddbca8b9f3821", "lat": 38.905735166666666, "lon": -77.0079085, "rental_uris": {"android": "https://dc.lft.to/lastmile_qr_scan", "ios": "https://dc.lft.to/lastmile_qr_scan"}, "is_disabled": 0, "fusion_lat": 0.0, "name": "69cefd4816f0fb22a2bddbca8b9f3821", "fusion_lon": 0.0}, {"is_reserved": 0, "type": "electric_scooter", "bike_id": "f844c7728cc7c06d6352a611f6bdd160", "lat": 38.918579666666666, "lon": -77.041721, "rental_uris": {"android": "https://dc.lft.to/lastmile_qr_scan", "ios": "https://dc.lft.to/lastmile_qr_scan"}, "is_disabled": 0, "fusion_lat": 0.0, "name": "f844c7728cc7c06d6352a611f6bdd160", "fusion_lon": 0.0}, {"is_reserved": 0, "type": "electric_scooter", "bike_id": "9c5b8bacd617d1fe03ee797206a3db4a", "lat": 38.91688966666667, "lon": -77.02599933333333, "rental_uris": {"android": "https://dc.lft.to/lastmile_qr_scan", "ios": "https://dc.lft.to/lastmile_qr_scan"}, "is_disabled": 0, "fusion_lat": 0.0, "name": "9c5b8bacd617d1fe03ee797206a3db4a", "fusion_lon": 0.0}, {"is_reserved": 0, "type": "electric_scooter", "bike_id": "c68a8e31ec0af5fb30218fbbcb6f4547", "lat": 38.889689833333335, "lon": -76.9993855, "rental_uris": {"android": "https://dc.lft.to/lastmile_qr_scan", "ios": "https://dc.lft.to/lastmile_qr_scan"}, "is_disabled": 0, "fusion_lat": 0.0, "name": "c68a8e31ec0af5fb30218fbbcb6f4547", "fusion_lon": 0.0}, {"is_reserved": 0, "type": "electric_scooter", "bike_id": "0c54b981267c2674f1d3f0b1012640fa", "lat": 38.91540233333333, "lon": -77.03198266666666, "rental_uris": {"android": "https://dc.lft.to/lastmile_qr_scan", "ios": "https://dc.lft.to/lastmile_qr_scan"}, "is_disabled": 0, "fusion_lat": 0.0, "name": "0c54b981267c2674f1d3f0b1012640fa", "fusion_lon": 0.0}, {"is_reserved": 0, "type": "electric_scooter", "bike_id": "68fae3f0769bbe6efabff6a19afbf48a", "lat": 38.90364483333333, "lon": -76.98488466666667, "rental_uris": {"android": "https://dc.lft.to/lastmile_qr_scan", "ios": "https://dc.lft.to/lastmile_qr_scan"}, "is_disabled": 0, "fusion_lat": 0.0, "name": "68fae3f0769bbe6efabff6a19afbf48a", "fusion_lon": 0.0}, {"is_reserved": 0, "type": "electric_scooter", "bike_id": "36360a66bdce13cc75f834d9c769c48d", "lat": 38.926498, "lon": -77.03715466666667, "rental_uris": {"android": "https://dc.lft.to/lastmile_qr_scan", "ios": "https://dc.lft.to/lastmile_qr_scan"}, "is_disabled": 0, "fusion_lat": 0.0, "name": "36360a66bdce13cc75f834d9c769c48d", "fusion_lon": 0.0}, {"is_reserved": 0, "type": "electric_scooter", "bike_id": "8890b668d29b9848ee7cf7d53fef4160", "lat": 38.9147235, "lon": -76.98445583333333, "rental_uris": {"android": "https://dc.lft.to/lastmile_qr_scan", "ios": "https://dc.lft.to/lastmile_qr_scan"}, "is_disabled": 0, "fusion_lat": 0.0, "name": "8890b668d29b9848ee7cf7d53fef4160", "fusion_lon": 0.0}, {"is_reserved": 0, "type": "electric_bike", "bike_id": "277931e112bac3d20da3bc4ff35f8723", "lat": 38.882425, "lon": -76.9625745, "rental_uris": {"android": "https://dc.lft.to/lastmile_qr_scan", "ios": "https://dc.lft.to/lastmile_qr_scan"}, "is_disabled": 0, "fusion_lat": 0.0, "name": "277931e112bac3d20da3bc4ff35f8723", "fusion_lon": 0.0}, {"is_reserved": 0, "type": "electric_scooter", "bike_id": "fb8fac3e62cd25633d23e4dc42de1c15", "lat": 38.9226705, "lon": -77.01979516666667, "rental_uris": {"android": "https://dc.lft.to/lastmile_qr_scan", "ios": "https://dc.lft.to/lastmile_qr_scan"}, "is_disabled": 0, "fusion_lat": 0.0, "name": "fb8fac3e62cd25633d23e4dc42de1c15", "fusion_lon": 0.0}, {"is_reserved": 0, "type": "electric_scooter", "bike_id": "47116837d7fe030a53383044b1b46216", "lat": 38.90959866666667, "lon": -77.031607, "rental_uris": {"android": "https://dc.lft.to/lastmile_qr_scan", "ios": "https://dc.lft.to/lastmile_qr_scan"}, "is_disabled": 0, "fusion_lat": 0.0, "name": "47116837d7fe030a53383044b1b46216", "fusion_lon": 0.0}, {"is_reserved": 0, "type": "electric_scooter", "bike_id": "2732b895bae17ab7db688292f086712f", "lat": 38.92692666666667, "lon": -77.02582416666667, "rental_uris": {"android": "https://dc.lft.to/lastmile_qr_scan", "ios": "https://dc.lft.to/lastmile_qr_scan"}, "is_disabled": 0, "fusion_lat": 0.0, "name": "2732b895bae17ab7db688292f086712f", "fusion_lon": 0.0}, {"is_reserved": 0, "type": "electric_bike", "bike_id": "05a90e4f0293fded5161f0215f162c28", "lat": 38.94150966666667, "lon": -77.00190833333333, "rental_uris": {"android": "https://dc.lft.to/lastmile_qr_scan", "ios": "https://dc.lft.to/lastmile_qr_scan"}, "is_disabled": 0, "fusion_lat": 0.0, "name": "05a90e4f0293fded5161f0215f162c28", "fusion_lon": 0.0}, {"is_reserved": 0, "type": "electric_scooter", "bike_id": "ea6e579abb2219b66cc2448f520a6247", "lat": 38.89700283333333, "lon": -77.0049575, "rental_uris": {"android": "https://dc.lft.to/lastmile_qr_scan", "ios": "https://dc.lft.to/lastmile_qr_scan"}, "is_disabled": 0, "fusion_lat": 0.0, "name": "ea6e579abb2219b66cc2448f520a6247", "fusion_lon": 0.0}, {"is_reserved": 0, "type": "electric_scooter", "bike_id": "2ff55374f04660d1729bbd49067f0b2d", "lat": 38.90071566666667, "lon": -77.048779, "rental_uris": {"android": "https://dc.lft.to/lastmile_qr_scan", "ios": "https://dc.lft.to/lastmile_qr_scan"}, "is_disabled": 0, "fusion_lat": 0.0, "name": "2ff55374f04660d1729bbd49067f0b2d", "fusion_lon": 0.0}, {"is_reserved": 0, "type": "electric_scooter", "bike_id": "4b0483c1d8628e798188d7c5c979d3cb", "lat": 38.926693, "lon": -77.02293083333333, "rental_uris": {"android": "https://dc.lft.to/lastmile_qr_scan", "ios": "https://dc.lft.to/lastmile_qr_scan"}, "is_disabled": 0, "fusion_lat": 0.0, "name": "4b0483c1d8628e798188d7c5c979d3cb", "fusion_lon": 0.0}, {"is_reserved": 0, "type": "electric_scooter", "bike_id": "21155789204ecfa61cfda789b10e3791", "lat": 38.92600266666667, "lon": -77.02489033333333, "rental_uris": {"android": "https://dc.lft.to/lastmile_qr_scan", "ios": "https://dc.lft.to/lastmile_qr_scan"}, "is_disabled": 0, "fusion_lat": 0.0, "name": "21155789204ecfa61cfda789b10e3791", "fusion_lon": 0.0}, {"is_reserved": 0, "type": "electric_bike", "bike_id": "efebfa90a270c684be223edbb43fc818", "lat": 38.84535866666667, "lon": -77.07640833333333, "rental_uris": {"android": "https://dc.lft.to/lastmile_qr_scan", "ios": "https://dc.lft.to/lastmile_qr_scan"}, "is_disabled": 0, "fusion_lat": 0.0, "name": "efebfa90a270c684be223edbb43fc818", "fusion_lon": 0.0}, {"is_reserved": 0, "type": "electric_scooter", "bike_id": "b406e45cb9837245a6d599791d8ef40a", "lat": 38.89667133333333, "lon": -77.05011666666667, "rental_uris": {"android": "https://dc.lft.to/lastmile_qr_scan", "ios": "https://dc.lft.to/lastmile_qr_scan"}, "is_disabled": 0, "fusion_lat": 0.0, "name": "b406e45cb9837245a6d599791d8ef40a", "fusion_lon": 0.0}, {"is_reserved": 0, "type": "electric_scooter", "bike_id": "a92d0fceb842f0899476167adbe5a509", "lat": 38.94655316666667, "lon": -77.03279716666667, "rental_uris": {"android": "https://dc.lft.to/lastmile_qr_scan", "ios": "https://dc.lft.to/lastmile_qr_scan"}, "is_disabled": 0, "fusion_lat": 0.0, "name": "a92d0fceb842f0899476167adbe5a509", "fusion_lon": 0.0}, {"is_reserved": 0, "type": "electric_scooter", "bike_id": "fe18cc44859d951c2b481d2580463a68", "lat": 38.874701, "lon": -77.00558316666667, "rental_uris": {"android": "https://dc.lft.to/lastmile_qr_scan", "ios": "https://dc.lft.to/lastmile_qr_scan"}, "is_disabled": 0, "fusion_lat": 0.0, "name": "fe18cc44859d951c2b481d2580463a68", "fusion_lon": 0.0}, {"is_reserved": 0, "type": "electric_scooter", "bike_id": "c2b95251d028e2ec4fa27c6b3c85a55a", "lat": 38.8990615, "lon": -76.93368816666667, "rental_uris": {"android": "https://dc.lft.to/lastmile_qr_scan", "ios": "https://dc.lft.to/lastmile_qr_scan"}, "is_disabled": 0, "fusion_lat": 0.0, "name": "c2b95251d028e2ec4fa27c6b3c85a55a", "fusion_lon": 0.0}, {"is_reserved": 0, "type": "electric_scooter", "bike_id": "d53e3263cd77bbca773389305227bb85", "lat": 38.902795166666664, "lon": -77.00213283333333, "rental_uris": {"android": "https://dc.lft.to/lastmile_qr_scan", "ios": "https://dc.lft.to/lastmile_qr_scan"}, "is_disabled": 0, "fusion_lat": 0.0, "name": "d53e3263cd77bbca773389305227bb85", "fusion_lon": 0.0}, {"is_reserved": 0, "type": "electric_scooter", "bike_id": "8d604a1a6d364da14b5ffce185f02665", "lat": 38.8522215, "lon": -76.99425816666667, "rental_uris": {"android": "https://dc.lft.to/lastmile_qr_scan", "ios": "https://dc.lft.to/lastmile_qr_scan"}, "is_disabled": 0, "fusion_lat": 0.0, "name": "8d604a1a6d364da14b5ffce185f02665", "fusion_lon": 0.0}, {"is_reserved": 0, "type": "electric_scooter", "bike_id": "1101e255136ed813bad172dca7171a4b", "lat": 38.93887316666667, "lon": -77.03266366666666, "rental_uris": {"android": "https://dc.lft.to/lastmile_qr_scan", "ios": "https://dc.lft.to/lastmile_qr_scan"}, "is_disabled": 0, "fusion_lat": 0.0, "name": "1101e255136ed813bad172dca7171a4b", "fusion_lon": 0.0}, {"is_reserved": 0, "type": "electric_scooter", "bike_id": "1b13a44cafe932618020939ae1a475f4", "lat": 38.90549583333333, "lon": -77.03480433333333, "rental_uris": {"android": "https://dc.lft.to/lastmile_qr_scan", "ios": "https://dc.lft.to/lastmile_qr_scan"}, "is_disabled": 0, "fusion_lat": 0.0, "name": "1b13a44cafe932618020939ae1a475f4", "fusion_lon": 0.0}, {"is_reserved": 0, "type": "electric_scooter", "bike_id": "7412587cc96b9d5055ab9eba5dc2b003", "lat": 38.90496016666667, "lon": -77.02952666666667, "rental_uris": {"android": "https://dc.lft.to/lastmile_qr_scan", "ios": "https://dc.lft.to/lastmile_qr_scan"}, "is_disabled": 0, "fusion_lat": 0.0, "name": "7412587cc96b9d5055ab9eba5dc2b003", "fusion_lon": 0.0}, {"is_reserved": 0, "type": "electric_scooter", "bike_id": "95d537b2a1c95d6a4baa2df25f9b14f7", "lat": 38.905175, "lon": -77.06216383333333, "rental_uris": {"android": "https://dc.lft.to/lastmile_qr_scan", "ios": "https://dc.lft.to/lastmile_qr_scan"}, "is_disabled": 0, "fusion_lat": 0.0, "name": "95d537b2a1c95d6a4baa2df25f9b14f7", "fusion_lon": 0.0}, {"is_reserved": 0, "type": "electric_scooter", "bike_id": "4ae38c4b41a6422114b3c9e23d388899", "lat": 38.907274666666666, "lon": -77.0050495, "rental_uris": {"android": "https://dc.lft.to/lastmile_qr_scan", "ios": "https://dc.lft.to/lastmile_qr_scan"}, "is_disabled": 0, "fusion_lat": 0.0, "name": "4ae38c4b41a6422114b3c9e23d388899", "fusion_lon": 0.0}, {"is_reserved": 0, "type": "electric_scooter", "bike_id": "0e296d0fff64fdd2a0b863da3c08b5d7", "lat": 38.91695933333333, "lon": -77.04114, "rental_uris": {"android": "https://dc.lft.to/lastmile_qr_scan", "ios": "https://dc.lft.to/lastmile_qr_scan"}, "is_disabled": 0, "fusion_lat": 0.0, "name": "0e296d0fff64fdd2a0b863da3c08b5d7", "fusion_lon": 0.0}, {"is_reserved": 0, "type": "electric_scooter", "bike_id": "e8f719164fe490ca837a86f66be25b31", "lat": 38.91917, "lon": -77.04589933333334, "rental_uris": {"android": "https://dc.lft.to/lastmile_qr_scan", "ios": "https://dc.lft.to/lastmile_qr_scan"}, "is_disabled": 0, "fusion_lat": 0.0, "name": "e8f719164fe490ca837a86f66be25b31", "fusion_lon": 0.0}, {"is_reserved": 0, "type": "electric_scooter", "bike_id": "9264693c940f050409811dfb1a33707a", "lat": 38.917783166666666, "lon": -77.04096916666667, "rental_uris": {"android": "https://dc.lft.to/lastmile_qr_scan", "ios": "https://dc.lft.to/lastmile_qr_scan"}, "is_disabled": 0, "fusion_lat": 0.0, "name": "9264693c940f050409811dfb1a33707a", "fusion_lon": 0.0}, {"is_reserved": 0, "type": "electric_scooter", "bike_id": "b9781b848030a5c153c5d2d2a82072ce", "lat": 38.9037975, "lon": -77.04203133333333, "rental_uris": {"android": "https://dc.lft.to/lastmile_qr_scan", "ios": "https://dc.lft.to/lastmile_qr_scan"}, "is_disabled": 0, "fusion_lat": 0.0, "name": "b9781b848030a5c153c5d2d2a82072ce", "fusion_lon": 0.0}, {"is_reserved": 0, "type": "electric_scooter", "bike_id": "b857a8c22c7c50c83d27edb14d247fff", "lat": 38.9056665, "lon": -77.0059735, "rental_uris": {"android": "https://dc.lft.to/lastmile_qr_scan", "ios": "https://dc.lft.to/lastmile_qr_scan"}, "is_disabled": 0, "fusion_lat": 0.0, "name": "b857a8c22c7c50c83d27edb14d247fff", "fusion_lon": 0.0}, {"is_reserved": 0, "type": "electric_scooter", "bike_id": "4edb887b9971bd2ae63da33e098ab7c7", "lat": 38.92007516666666, "lon": -77.03208133333334, "rental_uris": {"android": "https://dc.lft.to/lastmile_qr_scan", "ios": "https://dc.lft.to/lastmile_qr_scan"}, "is_disabled": 0, "fusion_lat": 0.0, "name": "4edb887b9971bd2ae63da33e098ab7c7", "fusion_lon": 0.0}, {"is_reserved": 0, "type": "electric_scooter", "bike_id": "548b7ff643ea8370481bb9d3b3548f0d", "lat": 38.9235975, "lon": -77.04137133333333, "rental_uris": {"android": "https://dc.lft.to/lastmile_qr_scan", "ios": "https://dc.lft.to/lastmile_qr_scan"}, "is_disabled": 0, "fusion_lat": 0.0, "name": "548b7ff643ea8370481bb9d3b3548f0d", "fusion_lon": 0.0}, {"is_reserved": 0, "type": "electric_scooter", "bike_id": "074d98ee5ca5acf1cd9a04f1e532f6a5", "lat": 38.9347405, "lon": -77.05647816666666, "rental_uris": {"android": "https://dc.lft.to/lastmile_qr_scan", "ios": "https://dc.lft.to/lastmile_qr_scan"}, "is_disabled": 0, "fusion_lat": 0.0, "name": "074d98ee5ca5acf1cd9a04f1e532f6a5", "fusion_lon": 0.0}, {"is_reserved": 0, "type": "electric_scooter", "bike_id": "8e1b3b9d34b0f78d447b51a788030eb2", "lat": 38.9106385, "lon": -77.040939, "rental_uris": {"android": "https://dc.lft.to/lastmile_qr_scan", "ios": "https://dc.lft.to/lastmile_qr_scan"}, "is_disabled": 0, "fusion_lat": 0.0, "name": "8e1b3b9d34b0f78d447b51a788030eb2", "fusion_lon": 0.0}, {"is_reserved": 0, "type": "electric_scooter", "bike_id": "8cf7579eeac1600df382cf54570a8f72", "lat": 38.925993166666665, "lon": -77.0216595, "rental_uris": {"android": "https://dc.lft.to/lastmile_qr_scan", "ios": "https://dc.lft.to/lastmile_qr_scan"}, "is_disabled": 0, "fusion_lat": 0.0, "name": "8cf7579eeac1600df382cf54570a8f72", "fusion_lon": 0.0}, {"is_reserved": 0, "type": "electric_scooter", "bike_id": "0d3b4653d075b02e9539d9b408a24935", "lat": 38.94178016666667, "lon": -77.03630883333334, "rental_uris": {"android": "https://dc.lft.to/lastmile_qr_scan", "ios": "https://dc.lft.to/lastmile_qr_scan"}, "is_disabled": 0, "fusion_lat": 0.0, "name": "0d3b4653d075b02e9539d9b408a24935", "fusion_lon": 0.0}, {"is_reserved": 0, "type": "electric_scooter", "bike_id": "ac5f630242f947967f42d8920c8985c7", "lat": 38.90526766666667, "lon": -77.061456, "rental_uris": {"android": "https://dc.lft.to/lastmile_qr_scan", "ios": "https://dc.lft.to/lastmile_qr_scan"}, "is_disabled": 0, "fusion_lat": 0.0, "name": "ac5f630242f947967f42d8920c8985c7", "fusion_lon": 0.0}, {"is_reserved": 0, "type": "electric_scooter", "bike_id": "73b967c70e5f199589116f10a6788be6", "lat": 38.907666166666665, "lon": -77.035497, "rental_uris": {"android": "https://dc.lft.to/lastmile_qr_scan", "ios": "https://dc.lft.to/lastmile_qr_scan"}, "is_disabled": 0, "fusion_lat": 0.0, "name": "73b967c70e5f199589116f10a6788be6", "fusion_lon": 0.0}, {"is_reserved": 0, "type": "electric_scooter", "bike_id": "bbbffbb537de57dc7dd685121dc45e49", "lat": 38.892270333333336, "lon": -77.0160705, "rental_uris": {"android": "https://dc.lft.to/lastmile_qr_scan", "ios": "https://dc.lft.to/lastmile_qr_scan"}, "is_disabled": 0, "fusion_lat": 0.0, "name": "bbbffbb537de57dc7dd685121dc45e49", "fusion_lon": 0.0}, {"is_reserved": 0, "type": "electric_scooter", "bike_id": "99c3a34cd7af005c8665db23be1859a0", "lat": 38.90598283333333, "lon": -76.95054683333333, "rental_uris": {"android": "https://dc.lft.to/lastmile_qr_scan", "ios": "https://dc.lft.to/lastmile_qr_scan"}, "is_disabled": 0, "fusion_lat": 0.0, "name": "99c3a34cd7af005c8665db23be1859a0", "fusion_lon": 0.0}, {"is_reserved": 0, "type": "electric_scooter", "bike_id": "e1123e2005e77717026b9dbe2ca6662f", "lat": 38.90139416666667, "lon": -77.0417205, "rental_uris": {"android": "https://dc.lft.to/lastmile_qr_scan", "ios": "https://dc.lft.to/lastmile_qr_scan"}, "is_disabled": 0, "fusion_lat": 0.0, "name": "e1123e2005e77717026b9dbe2ca6662f", "fusion_lon": 0.0}, {"is_reserved": 0, "type": "electric_scooter", "bike_id": "d47f6cb821299a5cc90176f5a76ef2cc", "lat": 38.94073083333333, "lon": -77.05493833333334, "rental_uris": {"android": "https://dc.lft.to/lastmile_qr_scan", "ios": "https://dc.lft.to/lastmile_qr_scan"}, "is_disabled": 0, "fusion_lat": 0.0, "name": "d47f6cb821299a5cc90176f5a76ef2cc", "fusion_lon": 0.0}, {"is_reserved": 0, "type": "electric_scooter", "bike_id": "9f727095ca822a1805a6255133489026", "lat": 38.917047, "lon": -77.03868033333333, "rental_uris": {"android": "https://dc.lft.to/lastmile_qr_scan", "ios": "https://dc.lft.to/lastmile_qr_scan"}, "is_disabled": 0, "fusion_lat": 0.0, "name": "9f727095ca822a1805a6255133489026", "fusion_lon": 0.0}, {"is_reserved": 0, "type": "electric_scooter", "bike_id": "6b422fd0224d12a5591414c0984a933c", "lat": 38.88386666666667, "lon": -76.93038, "rental_uris": {"android": "https://dc.lft.to/lastmile_qr_scan", "ios": "https://dc.lft.to/lastmile_qr_scan"}, "is_disabled": 0, "fusion_lat": 0.0, "name": "6b422fd0224d12a5591414c0984a933c", "fusion_lon": 0.0}, {"is_reserved": 0, "type": "electric_scooter", "bike_id": "2b973acb36d42db3d18e3f8d6031faa8", "lat": 38.932030166666664, "lon": -77.0389045, "rental_uris": {"android": "https://dc.lft.to/lastmile_qr_scan", "ios": "https://dc.lft.to/lastmile_qr_scan"}, "is_disabled": 0, "fusion_lat": 0.0, "name": "2b973acb36d42db3d18e3f8d6031faa8", "fusion_lon": 0.0}, {"is_reserved": 0, "type": "electric_bike", "bike_id": "8e98976a765e4a4f499e0342d84fd3f2", "lat": 38.89454033333333, "lon": -77.19130666666666, "rental_uris": {"android": "https://dc.lft.to/lastmile_qr_scan", "ios": "https://dc.lft.to/lastmile_qr_scan"}, "is_disabled": 0, "fusion_lat": 0.0, "name": "8e98976a765e4a4f499e0342d84fd3f2", "fusion_lon": 0.0}, {"is_reserved": 0, "type": "electric_scooter", "bike_id": "61e3a2b407a730425d431b10fa25704d", "lat": 38.92387983333333, "lon": -77.05056066666667, "rental_uris": {"android": "https://dc.lft.to/lastmile_qr_scan", "ios": "https://dc.lft.to/lastmile_qr_scan"}, "is_disabled": 0, "fusion_lat": 0.0, "name": "61e3a2b407a730425d431b10fa25704d", "fusion_lon": 0.0}, {"is_reserved": 0, "type": "electric_bike", "bike_id": "a86400632d8ce7ea38caf7e4a7344746", "lat": 38.89459983333333, "lon": -77.10349683333334, "rental_uris": {"android": "https://dc.lft.to/lastmile_qr_scan", "ios": "https://dc.lft.to/lastmile_qr_scan"}, "is_disabled": 0, "fusion_lat": 0.0, "name": "a86400632d8ce7ea38caf7e4a7344746", "fusion_lon": 0.0}, {"is_reserved": 0, "type": "electric_scooter", "bike_id": "c2f905a22f2e1bf611c5d201e05e420e", "lat": 38.935049166666666, "lon": -77.04279616666666, "rental_uris": {"android": "https://dc.lft.to/lastmile_qr_scan", "ios": "https://dc.lft.to/lastmile_qr_scan"}, "is_disabled": 0, "fusion_lat": 0.0, "name": "c2f905a22f2e1bf611c5d201e05e420e", "fusion_lon": 0.0}, {"is_reserved": 0, "type": "electric_scooter", "bike_id": "5b3be29ecd186b3a7aa71ccfd4ae3348", "lat": 38.900217, "lon": -76.98842433333333, "rental_uris": {"android": "https://dc.lft.to/lastmile_qr_scan", "ios": "https://dc.lft.to/lastmile_qr_scan"}, "is_disabled": 0, "fusion_lat": 0.0, "name": "5b3be29ecd186b3a7aa71ccfd4ae3348", "fusion_lon": 0.0}, {"is_reserved": 0, "type": "electric_scooter", "bike_id": "f8e9d2ad5dc179b8742726adb5692569", "lat": 38.90398733333333, "lon": -77.02005183333333, "rental_uris": {"android": "https://dc.lft.to/lastmile_qr_scan", "ios": "https://dc.lft.to/lastmile_qr_scan"}, "is_disabled": 0, "fusion_lat": 0.0, "name": "f8e9d2ad5dc179b8742726adb5692569", "fusion_lon": 0.0}, {"is_reserved": 0, "type": "electric_scooter", "bike_id": "e5968902ec1813d88efc502bea2a88ee", "lat": 38.91823316666667, "lon": -77.02421566666666, "rental_uris": {"android": "https://dc.lft.to/lastmile_qr_scan", "ios": "https://dc.lft.to/lastmile_qr_scan"}, "is_disabled": 0, "fusion_lat": 0.0, "name": "e5968902ec1813d88efc502bea2a88ee", "fusion_lon": 0.0}, {"is_reserved": 0, "type": "electric_scooter", "bike_id": "4a9235231dcb243ad86b2a6d9c952a30", "lat": 38.917281, "lon": -77.01601233333334, "rental_uris": {"android": "https://dc.lft.to/lastmile_qr_scan", "ios": "https://dc.lft.to/lastmile_qr_scan"}, "is_disabled": 0, "fusion_lat": 0.0, "name": "4a9235231dcb243ad86b2a6d9c952a30", "fusion_lon": 0.0}, {"is_reserved": 0, "type": "electric_scooter", "bike_id": "703e5b8b5010a294bc2716e63655c44b", "lat": 38.9044415, "lon": -76.99620666666667, "rental_uris": {"android": "https://dc.lft.to/lastmile_qr_scan", "ios": "https://dc.lft.to/lastmile_qr_scan"}, "is_disabled": 0, "fusion_lat": 0.0, "name": "703e5b8b5010a294bc2716e63655c44b", "fusion_lon": 0.0}, {"is_reserved": 0, "type": "electric_scooter", "bike_id": "d5ee4844726ed2543b214cf5dcc63eb9", "lat": 38.915858, "lon": -77.02084533333333, "rental_uris": {"android": "https://dc.lft.to/lastmile_qr_scan", "ios": "https://dc.lft.to/lastmile_qr_scan"}, "is_disabled": 0, "fusion_lat": 0.0, "name": "d5ee4844726ed2543b214cf5dcc63eb9", "fusion_lon": 0.0}, {"is_reserved": 0, "type": "electric_scooter", "bike_id": "c2544dfc8e01c72aa681c297d61c9910", "lat": 38.92446566666667, "lon": -77.02032983333334, "rental_uris": {"android": "https://dc.lft.to/lastmile_qr_scan", "ios": "https://dc.lft.to/lastmile_qr_scan"}, "is_disabled": 0, "fusion_lat": 0.0, "name": "c2544dfc8e01c72aa681c297d61c9910", "fusion_lon": 0.0}, {"is_reserved": 0, "type": "electric_scooter", "bike_id": "6d13c21221afcf9b779a547addd41187", "lat": 38.9128595, "lon": -77.07276133333333, "rental_uris": {"android": "https://dc.lft.to/lastmile_qr_scan", "ios": "https://dc.lft.to/lastmile_qr_scan"}, "is_disabled": 0, "fusion_lat": 0.0, "name": "6d13c21221afcf9b779a547addd41187", "fusion_lon": 0.0}, {"is_reserved": 0, "type": "electric_scooter", "bike_id": "f383b73dee0e65ae67366cdafb1d99ae", "lat": 38.923872, "lon": -77.05053483333333, "rental_uris": {"android": "https://dc.lft.to/lastmile_qr_scan", "ios": "https://dc.lft.to/lastmile_qr_scan"}, "is_disabled": 0, "fusion_lat": 0.0, "name": "f383b73dee0e65ae67366cdafb1d99ae", "fusion_lon": 0.0}, {"is_reserved": 0, "type": "electric_scooter", "bike_id": "d166103eaaf728ebb2bf9811f04ec1f8", "lat": 38.8564235, "lon": -76.9967395, "rental_uris": {"android": "https://dc.lft.to/lastmile_qr_scan", "ios": "https://dc.lft.to/lastmile_qr_scan"}, "is_disabled": 0, "fusion_lat": 0.0, "name": "d166103eaaf728ebb2bf9811f04ec1f8", "fusion_lon": 0.0}, {"is_reserved": 0, "type": "electric_scooter", "bike_id": "f6513a75d4fe4270927c48ff6c8b5b24", "lat": 38.86113183333333, "lon": -76.9837995, "rental_uris": {"android": "https://dc.lft.to/lastmile_qr_scan", "ios": "https://dc.lft.to/lastmile_qr_scan"}, "is_disabled": 0, "fusion_lat": 0.0, "name": "f6513a75d4fe4270927c48ff6c8b5b24", "fusion_lon": 0.0},