{"data": {"bikes": [{"is_disabled": 0, "fusion_lon": 0.0, "fusion_lat": 0.0, "lat": 38.92852416666667, "type": "electric_scooter", "lon": -77.01406883333334, "bike_id": "8e8e5b0664ce1b6f0eb7c8c4730875ac", "rental_uris": {"android": "https://dc.lft.to/lastmile_qr_scan", "ios": "https://dc.lft.to/lastmile_qr_scan"}, "name": "8e8e5b0664ce1b6f0eb7c8c4730875ac", "is_reserved": 0}, {"is_disabled": 0, "fusion_lon": 0.0, "fusion_lat": 0.0, "lat": 38.916692166666664, "type": "electric_scooter", "lon": -77.0158395, "bike_id": "f32e9f17605b2f05bb1f2b5947eeeea2", "rental_uris": {"android": "https://dc.lft.to/lastmile_qr_scan", "ios": "https://dc.lft.to/lastmile_qr_scan"}, "name": "f32e9f17605b2f05bb1f2b5947eeeea2", "is_reserved": 0}, {"is_disabled": 0, "fusion_lon": 0.0, "fusion_lat": 0.0, "lat": 38.90044066666667, "type": "electric_scooter", "lon": -76.9227415, "bike_id": "eceda432a8adc8457918a7d1be941101", "rental_uris": {"android": "https://dc.lft.to/lastmile_qr_scan", "ios": "https://dc.lft.to/lastmile_qr_scan"}, "name": "eceda432a8adc8457918a7d1be941101", "is_reserved": 0}, {"is_disabled": 0, "fusion_lon": 0.0, "fusion_lat": 0.0, "lat": 38.934856833333335, "type": "electric_scooter", "lon": -77.07235833333333, "bike_id": "303a931ed088b1a31f004606c51ec3f8", "rental_uris": {"android": "https://dc.lft.to/lastmile_qr_scan", "ios": "https://dc.lft.to/lastmile_qr_scan"}, "name": "303a931ed088b1a31f004606c51ec3f8", "is_reserved": 0}, {"is_disabled": 0, "fusion_lon": 0.0, "fusion_lat": 0.0, "lat": 38.93174116666667, "type": "electric_scooter", "lon": -77.02348166666667, "bike_id": "a5171f3e713f977298a9251d89fe35bd", "rental_uris": {"android": "https://dc.lft.to/lastmile_qr_scan", "ios": "https://dc.lft.to/lastmile_qr_scan"}, "name": "a5171f3e713f977298a9251d89fe35bd", "is_reserved": 0}, {"is_disabled": 0, "fusion_lon": 0.0, "fusion_lat": 0.0, "lat": 38.89001366666667, "type": "electric_scooter", "lon": -77.00045416666667, "bike_id": "d9e05905528bd947736223214732dae6", "rental_uris": {"android": "https://dc.lft.to/lastmile_qr_scan", "ios": "https://dc.lft.to/lastmile_qr_scan"}, "name": "d9e05905528bd947736223214732dae6", "is_reserved": 0}, {"is_disabled": 0, "fusion_lon": 0.0, "fusion_lat": 0.0, "lat": 38.93528933333333, "type": "electric_scooter", "lon": -77.02386616666666, "bike_id": "4b411367cec387adcab80e2dc74a4553", "rental_uris": {"android": "https://dc.lft.to/lastmile_qr_scan", "ios": "https://dc.lft.to/lastmile_qr_scan"}, "name": "4b411367cec387adcab80e2dc74a4553", "is_reserved": 0}, {"is_disabled": 0, "fusion_lon": 0.0, "fusion_lat": 0.0, "lat": 38.861416, "type": "electric_scooter", "lon": -76.9852755, "bike_id": "1a391844b2d275f2776858787e753bbf", "rental_uris": {"android": "https://dc.lft.to/lastmile_qr_scan", "ios": "https://dc.lft.to/lastmile_qr_scan"}, "name": "1a391844b2d275f2776858787e753bbf", "is_reserved": 0}, {"is_disabled": 0, "fusion_lon": 0.0, "fusion_lat": 0.0, "lat": 38.918276666666664, "type": "electric_scooter", "lon": -77.02425383333333, "bike_id": "2bb2a313cb6b62d9f41a08cb1caff885", "rental_uris": {"android": "https://dc.lft.to/lastmile_qr_scan", "ios": "https://dc.lft.to/lastmile_qr_scan"}, "name": "2bb2a313cb6b62d9f41a08cb1caff885", "is_reserved": 0}, {"is_disabled": 0, "fusion_lon": 0.0, "fusion_lat": 0.0, "lat": 38.895547666666666, "type": "electric_scooter", "lon": -77.046728, "bike_id": "5a51ff4c76823c5fa6cd85285771dc94", "rental_uris": {"android": "https://dc.lft.to/lastmile_qr_scan", "ios": "https://dc.lft.to/lastmile_qr_scan"}, "name": "5a51ff4c76823c5fa6cd85285771dc94", "is_reserved": 0}, {"is_disabled": 0, "fusion_lon": 0.0, "fusion_lat": 0.0, "lat": 38.89368916666667, "type": "electric_scooter", "lon": -76.949997, "bike_id": "71f29a9fff0d764b75e26bdfec10e1a3", "rental_uris": {"android": "https://dc.lft.to/lastmile_qr_scan", "ios": "https://dc.lft.to/lastmile_qr_scan"}, "name": "71f29a9fff0d764b75e26bdfec10e1a3", "is_reserved": 0}, {"is_disabled": 0, "fusion_lon": 0.0, "fusion_lat": 0.0, "lat": 38.93622966666667, "type": "electric_scooter", "lon": -77.05900533333333, "bike_id": "e62033631f954ffd664c28fc9de24c6a", "rental_uris": {"android": "https://dc.lft.to/lastmile_qr_scan", "ios": "https://dc.lft.to/lastmile_qr_scan"}, "name": "e62033631f954ffd664c28fc9de24c6a", "is_reserved": 0}, {"is_disabled": 0, "fusion_lon": 0.0, "fusion_lat": 0.0, "lat": 38.90205533333334, "type": "electric_scooter", "lon": -77.02432316666666, "bike_id": "564056d0c040172ecece2b72b8d77e0e", "rental_uris": {"android": "https://dc.lft.to/lastmile_qr_scan", "ios": "https://dc.lft.to/lastmile_qr_scan"}, "name": "564056d0c040172ecece2b72b8d77e0e", "is_reserved": 0}, {"is_disabled": 0, "fusion_lon": 0.0, "fusion_lat": 0.0, "lat": 38.92734683333333, "type": "electric_scooter", "lon": -77.02239883333333, "bike_id": "ae171ffdf6c37ddf653c4ffcae463d80", "rental_uris": {"android": "https://dc.lft.to/lastmile_qr_scan", "ios": "https://dc.lft.to/lastmile_qr_scan"}, "name": "ae171ffdf6c37ddf653c4ffcae463d80", "is_reserved": 0}, {"is_disabled": 0, "fusion_lon": 0.0, "fusion_lat": 0.0, "lat": 38.90233816666667, "type": "electric_scooter", "lon": -77.04572816666666, "bike_id": "33683b4768e675dd469b328054829456", "rental_uris": {"android": "https://dc.lft.to/lastmile_qr_scan", "ios": "https://dc.lft.to/lastmile_qr_scan"}, "name": "33683b4768e675dd469b328054829456", "is_reserved": 0}, {"is_disabled": 0, "fusion_lon": 0.0, "fusion_lat": 0.0, "lat": 38.92572083333334, "type": "electric_scooter", "lon": -77.04024933333334, "bike_id": "52cc505e54dc3836818dd49a2ac27541", "rental_uris": {"android": "https://dc.lft.to/lastmile_qr_scan", "ios": "https://dc.lft.to/lastmile_qr_scan"}, "name": "52cc505e54dc3836818dd49a2ac27541", "is_reserved": 0}, {"is_disabled": 0, "fusion_lon": 0.0, "fusion_lat": 0.0, "lat": 39.038786, "type": "electric_bike", "lon": -77.109136, "bike_id": "6bcdee869844167b4e9de5700d9053b3", "rental_uris": {"android": "https://dc.lft.to/lastmile_qr_scan", "ios": "https://dc.lft.to/lastmile_qr_scan"}, "name": "6bcdee869844167b4e9de5700d9053b3", "is_reserved": 0}, {"is_disabled": 0, "fusion_lon": 0.0, "fusion_lat": 0.0, "lat": 38.885720666666664, "type": "electric_scooter", "lon": -76.91910933333334, "bike_id": "ee320d26f750d27c5b962ee36f463c4b", "rental_uris": {"android": "https://dc.lft.to/lastmile_qr_scan", "ios": "https://dc.lft.to/lastmile_qr_scan"}, "name": "ee320d26f750d27c5b962ee36f463c4b", "is_reserved": 0}, {"is_disabled": 0, "fusion_lon": 0.0, "fusion_lat": 0.0, "lat": 38.897474, "type": "electric_scooter", "lon": -77.04815816666667, "bike_id": "bf7f4a6f7bb06d2349c05333f4d4a1bf", "rental_uris": {"android": "https://dc.lft.to/lastmile_qr_scan", "ios": "https://dc.lft.to/lastmile_qr_scan"}, "name": "bf7f4a6f7bb06d2349c05333f4d4a1bf", "is_reserved": 0}, {"is_disabled": 0, "fusion_lon": 0.0, "fusion_lat": 0.0, "lat": 38.8707035, "type": "electric_bike", "lon": -77.11064033333334, "bike_id": "470ae2b6246a6a5b3d1e9cf11c51c2fd", "rental_uris": {"android": "https://dc.lft.to/lastmile_qr_scan", "ios": "https://dc.lft.to/lastmile_qr_scan"}, "name": "470ae2b6246a6a5b3d1e9cf11c51c2fd", "is_reserved": 0}, {"is_disabled": 0, "fusion_lon": 0.0, "fusion_lat": 0.0, "lat": 38.90943166666667, "type": "electric_scooter", "lon": -77.047217, "bike_id": "8af53cfd27a933489181f3d3b18c5372", "rental_uris": {"android": "https://dc.lft.to/lastmile_qr_scan", "ios": "https://dc.lft.to/lastmile_qr_scan"}, "name": "8af53cfd27a933489181f3d3b18c5372", "is_reserved": 0}, {"is_disabled": 0, "fusion_lon": 0.0, "fusion_lat": 0.0, "lat": 38.91509933333333, "type": "electric_scooter", "lon": -77.02286233333334, "bike_id": "71b1c5cf9a2a9ddc7e72b4d0258979dd", "rental_uris": {"android": "https://dc.lft.to/lastmile_qr_scan", "ios": "https://dc.lft.to/lastmile_qr_scan"}, "name": "71b1c5cf9a2a9ddc7e72b4d0258979dd", "is_reserved": 0}, {"is_disabled": 0, "fusion_lon": 0.0, "fusion_lat": 0.0, "lat": 38.892876, "type": "electric_bike", "lon": -77.0014505, "bike_id": "c6e6c44c32d96ae8d24717a5237b5ad0", "rental_uris": {"android": "https://dc.lft.to/lastmile_qr_scan", "ios": "https://dc.lft.to/lastmile_qr_scan"}, "name": "c6e6c44c32d96ae8d24717a5237b5ad0", "is_reserved": 0}, {"is_disabled": 0, "fusion_lon": 0.0, "fusion_lat": 0.0, "lat": 38.936687, "type": "electric_bike", "lon": -76.952068, "bike_id": "3028539455b8f8a4378fb2ab4d871ec5", "rental_uris": {"android": "https://dc.lft.to/lastmile_qr_scan", "ios": "https://dc.lft.to/lastmile_qr_scan"}, "name": "3028539455b8f8a4378fb2ab4d871ec5", "is_reserved": 0}, {"is_disabled": 0, "fusion_lon": 0.0, "fusion_lat": 0.0, "lat": 38.95326266666667, "type": "electric_scooter", "lon": -77.0685465, "bike_id": "b4ec7474f26b94f9f7ec01fdcfc8ade2", "rental_uris": {"android": "https://dc.lft.to/lastmile_qr_scan", "ios": "https://dc.lft.to/lastmile_qr_scan"}, "name": "b4ec7474f26b94f9f7ec01fdcfc8ade2", "is_reserved": 0}, {"is_disabled": 0, "fusion_lon": 0.0, "fusion_lat": 0.0, "lat": 38.902667666666666, "type": "electric_scooter", "lon": -77.06138483333334, "bike_id": "fc0dd42ba233028707ea45959a768327", "rental_uris": {"android": "https://dc.lft.to/lastmile_qr_scan", "ios": "https://dc.lft.to/lastmile_qr_scan"}, "name": "fc0dd42ba233028707ea45959a768327", "is_reserved": 0}, {"is_disabled": 0, "fusion_lon": 0.0, "fusion_lat": 0.0, "lat": 38.91031483333333, "type": "electric_scooter", "lon": -77.04259466666667, "bike_id": "4f471dfab14008c653de282b8eaf0067", "rental_uris": {"android": "https://dc.lft.to/lastmile_qr_scan", "ios": "https://dc.lft.to/lastmile_qr_scan"}, "name": "4f471dfab14008c653de282b8eaf0067", "is_reserved": 0}, {"is_disabled": 0, "fusion_lon": 0.0, "fusion_lat": 0.0, "lat": 38.97538333333333, "type": "electric_bike", "lon": -76.99528283333333, "bike_id": "7b564080cab3f01d710e9de8f99f63eb", "rental_uris": {"android": "https://dc.lft.to/lastmile_qr_scan", "ios": "https://dc.lft.to/lastmile_qr_scan"}, "name": "7b564080cab3f01d710e9de8f99f63eb", "is_reserved": 0}, {"is_disabled": 0, "fusion_lon": 0.0, "fusion_lat": 0.0, "lat": 38.871372666666666, "type": "electric_scooter", "lon": -77.00753816666666, "bike_id": "76443e8326629c8194160be4f032bbb9", "rental_uris": {"android": "https://dc.lft.to/lastmile_qr_scan", "ios": "https://dc.lft.to/lastmile_qr_scan"}, "name": "76443e8326629c8194160be4f032bbb9", "is_reserved": 0}, {"is_disabled": 0, "fusion_lon": 0.0, "fusion_lat": 0.0, "lat": 38.915833166666665, "type": "electric_bike", "lon": -76.971528, "bike_id": "8d73358ec141f690a935a75f2dece103", "rental_uris": {"android": "https://dc.lft.to/lastmile_qr_scan", "ios": "https://dc.lft.to/lastmile_qr_scan"}, "name": "8d73358ec141f690a935a75f2dece103", "is_reserved": 0}, {"is_disabled": 0, "fusion_lon": 0.0, "fusion_lat": 0.0, "lat": 38.896989833333336, "type": "electric_scooter", "lon": -77.011815, "bike_id": "4e9faa828c46530e275ed0fa624d4836", "rental_uris": {"android": "https://dc.lft.to/lastmile_qr_scan", "ios": "https://dc.lft.to/lastmile_qr_scan"}, "name": "4e9faa828c46530e275ed0fa624d4836", "is_reserved": 0}, {"is_disabled": 0, "fusion_lon": 0.0, "fusion_lat": 0.0, "lat": 38.9357985, "type": "electric_bike", "lon": -77.08252783333333, "bike_id": "aa96d4023134b1fc43a79f6aec6edd2e", "rental_uris": {"android": "https://dc.lft.to/lastmile_qr_scan", "ios": "https://dc.lft.to/lastmile_qr_scan"}, "name": "aa96d4023134b1fc43a79f6aec6edd2e", "is_reserved": 0}, {"is_disabled": 0, "fusion_lon": 0.0, "fusion_lat": 0.0, "lat": 38.917966, "type": "electric_scooter", "lon": -77.0415735, "bike_id": "d3f310c61173ed31d8aadcd691bc0da3", "rental_uris": {"android": "https://dc.lft.to/lastmile_qr_scan", "ios": "https://dc.lft.to/lastmile_qr_scan"}, "name": "d3f310c61173ed31d8aadcd691bc0da3", "is_reserved": 0}, {"is_disabled": 0, "fusion_lon": 0.0, "fusion_lat": 0.0, "lat": 38.91986566666667, "type": "electric_bike", "lon": -76.97314083333333, "bike_id": "d6cf758c8aa6a78aa8a8fb618666ea85", "rental_uris": {"android": "https://dc.lft.to/lastmile_qr_scan", "ios": "https://dc.lft.to/lastmile_qr_scan"}, "name": "d6cf758c8aa6a78aa8a8fb618666ea85", "is_reserved": 0}, {"is_disabled": 0, "fusion_lon": 0.0, "fusion_lat": 0.0, "lat": 38.8961735, "type": "electric_scooter", "lon": -77.0090955, "bike_id": "d921bfb0468a8aa0e03bb3fd8b6ef30f", "rental_uris": {"android": "https://dc.lft.to/lastmile_qr_scan", "ios": "https://dc.lft.to/lastmile_qr_scan"}, "name": "d921bfb0468a8aa0e03bb3fd8b6ef30f", "is_reserved": 0}, {"is_disabled": 0, "fusion_lon": 0.0, "fusion_lat": 0.0, "lat": 38.93364666666667, "type": "electric_scooter", "lon": -77.07262283333333, "bike_id": "af70f9a4bce77d88b479d5794fdab338", "rental_uris": {"android": "https://dc.lft.to/lastmile_qr_scan", "ios": "https://dc.lft.to/lastmile_qr_scan"}, "name": "af70f9a4bce77d88b479d5794fdab338", "is_reserved": 0}, {"is_disabled": 0, "fusion_lon": 0.0, "fusion_lat": 0.0, "lat": 38.89746233333334, "type": "electric_scooter", "lon": -77.03030833333334, "bike_id": "24ad623847ebd016fc1a98667d785ee5", "rental_uris": {"android": "https://dc.lft.to/lastmile_qr_scan", "ios": "https://dc.lft.to/lastmile_qr_scan"}, "name": "24ad623847ebd016fc1a98667d785ee5", "is_reserved": 0}, {"is_disabled": 0, "fusion_lon": 0.0, "fusion_lat": 0.0, "lat": 38.90858866666667, "type": "electric_scooter", "lon": -77.04515733333334, "bike_id": "ce30c19b21a6e708e48793e9656aac89", "rental_uris": {"android": "https://dc.lft.to/lastmile_qr_scan", "ios": "https://dc.lft.to/lastmile_qr_scan"}, "name": "ce30c19b21a6e708e48793e9656aac89", "is_reserved": 0}, {"is_disabled": 0, "fusion_lon": 0.0, "fusion_lat": 0.0, "lat": 38.9783825, "type": "electric_bike", "lon": -77.09133533333333, "bike_id": "42573087f024bac805cde5ef217c6483", "rental_uris": {"android": "https://dc.lft.to/lastmile_qr_scan", "ios": "https://dc.lft.to/lastmile_qr_scan"}, "name": "42573087f024bac805cde5ef217c6483", "is_reserved": 0}, {"is_disabled": 0, "fusion_lon": 0.0, "fusion_lat": 0.0, "lat": 38.90466933333333, "type": "electric_scooter", "lon": -77.03546466666667, "bike_id": "5fbc24bdab1b48308c8ab8b21ca50ec0", "rental_uris": {"android": "https://dc.lft.to/lastmile_qr_scan", "ios": "https://dc.lft.to/lastmile_qr_scan"}, "name": "5fbc24bdab1b48308c8ab8b21ca50ec0", "is_reserved": 0}, {"is_disabled": 0, "fusion_lon": 0.0, "fusion_lat": 0.0, "lat": 38.90823016666667, "type": "electric_scooter", "lon": -77.0319185, "bike_id": "870e27cd1bbcc7c0c701ebc18f955d5f", "rental_uris": {"android": "https://dc.lft.to/lastmile_qr_scan", "ios": "https://dc.lft.to/lastmile_qr_scan"}, "name": "870e27cd1bbcc7c0c701ebc18f955d5f", "is_reserved": 0}, {"is_disabled": 0, "fusion_lon": 0.0, "fusion_lat": 0.0, "lat": 38.881421, "type": "electric_scooter", "lon": -77.0271025, "bike_id": "c0155cb55488a073fc0ef1695a289263", "rental_uris": {"android": "https://dc.lft.to/lastmile_qr_scan", "ios": "https://dc.lft.to/lastmile_qr_scan"}, "name": "c0155cb55488a073fc0ef1695a289263", "is_reserved": 0}, {"is_disabled": 0, "fusion_lon": 0.0, "fusion_lat": 0.0, "lat": 38.902212666666664, "type": "electric_scooter", "lon": -77.02235966666667, "bike_id": "ee148cd31525ae32529b483a2e588d58", "rental_uris": {"android": "https://dc.lft.to/lastmile_qr_scan", "ios": "https://dc.lft.to/lastmile_qr_scan"}, "name": "ee148cd31525ae32529b483a2e588d58", "is_reserved": 0}, {"is_disabled": 0, "fusion_lon": 0.0, "fusion_lat": 0.0, "lat": 38.92394683333333, "type": "electric_scooter", "lon": -77.03549266666667, "bike_id": "95c8379fdd59553ba21c58a1537fb260", "rental_uris": {"android": "https://dc.lft.to/lastmile_qr_scan", "ios": "https://dc.lft.to/lastmile_qr_scan"}, "name": "95c8379fdd59553ba21c58a1537fb260", "is_reserved": 0}, {"is_disabled": 0, "fusion_lon": 0.0, "fusion_lat": 0.0, "lat": 38.927677833333334, "type": "electric_bike", "lon": -77.02796716666667, "bike_id": "d14d155a1ea2fab0fff3e9e58b67daa8", "rental_uris": {"android": "https://dc.lft.to/lastmile_qr_scan", "ios": "https://dc.lft.to/lastmile_qr_scan"}, "name": "d14d155a1ea2fab0fff3e9e58b67daa8", "is_reserved": 0}, {"is_disabled": 0, "fusion_lon": 0.0, "fusion_lat": 0.0, "lat": 38.882024666666666, "type": "electric_scooter", "lon": -76.92705533333333, "bike_id": "e58ff78873153a6c8f53b5411e0d96c3", "rental_uris": {"android": "https://dc.lft.to/lastmile_qr_scan", "ios": "https://dc.lft.to/lastmile_qr_scan"}, "name": "e58ff78873153a6c8f53b5411e0d96c3", "is_reserved": 0}, {"is_disabled": 0, "fusion_lon": 0.0, "fusion_lat": 0.0, "lat": 38.8748715, "type": "electric_scooter", "lon": -77.00121183333333, "bike_id": "81d346e794014f198b6c8c66d7716de1", "rental_uris": {"android": "https://dc.lft.to/lastmile_qr_scan", "ios": "https://dc.lft.to/lastmile_qr_scan"}, "name": "81d346e794014f198b6c8c66d7716de1", "is_reserved": 0}, {"is_disabled": 0, "fusion_lon": 0.0, "fusion_lat": 0.0, "lat": 38.88399716666667, "type": "electric_scooter", "lon": -76.95415283333334, "bike_id": "680b39469f2c7a9bf51b8d80a6963523", "rental_uris": {"android": "https://dc.lft.to/lastmile_qr_scan", "ios": "https://dc.lft.to/lastmile_qr_scan"}, "name": "680b39469f2c7a9bf51b8d80a6963523", "is_reserved": 0}, {"is_disabled": 0, "fusion_lon": 0.0, "fusion_lat": 0.0, "lat": 38.910108666666666, "type": "electric_scooter", "lon": -77.02194083333333, "bike_id": "da398d0e5db328605e6b85a24d8ffb81", "rental_uris": {"android": "https://dc.lft.to/lastmile_qr_scan", "ios": "https://dc.lft.to/lastmile_qr_scan"}, "name": "da398d0e5db328605e6b85a24d8ffb81", "is_reserved": 0}, {"is_disabled": 0, "fusion_lon": 0.0, "fusion_lat": 0.0, "lat": 39.088331333333336, "type": "electric_bike", "lon": -77.178102, "bike_id": "c6036a201f2da800602579762aca62e2", "rental_uris": {"android": "https://dc.lft.to/lastmile_qr_scan", "ios": "https://dc.lft.to/lastmile_qr_scan"}, "name": "c6036a201f2da800602579762aca62e2", "is_reserved": 0}, {"is_disabled": 0, "fusion_lon": 0.0, "fusion_lat": 0.0, "lat": 38.89727933333333, "type": "electric_scooter", "lon": -77.032027, "bike_id": "2c2fd975000869f510cf28ac931cc659", "rental_uris": {"android": "https://dc.lft.to/lastmile_qr_scan", "ios": "https://dc.lft.to/lastmile_qr_scan"}, "name": "2c2fd975000869f510cf28ac931cc659", "is_reserved": 0}, {"is_disabled": 0, "fusion_lon": 0.0, "fusion_lat": 0.0, "lat": 38.91431933333333, "type": "electric_scooter", "lon": -77.03469433333333, "bike_id": "f0a921c1898fba9a19486a893c297254", "rental_uris": {"android": "https://dc.lft.to/lastmile_qr_scan", "ios": "https://dc.lft.to/lastmile_qr_scan"}, "name": "f0a921c1898fba9a19486a893c297254", "is_reserved": 0}, {"is_disabled": 0, "fusion_lon": 0.0, "fusion_lat": 0.0, "lat": 38.930919833333334, "type": "electric_scooter", "lon": -77.072677, "bike_id": "7292fdbc8cf6c0bbe19f98c1e8a8144f", "rental_uris": {"android": "https://dc.lft.to/lastmile_qr_scan", "ios": "https://dc.lft.to/lastmile_qr_scan"}, "name": "7292fdbc8cf6c0bbe19f98c1e8a8144f", "is_reserved": 0}, {"is_disabled": 0, "fusion_lon": 0.0, "fusion_lat": 0.0, "lat": 38.91416383333333, "type": "electric_scooter", "lon": -77.01880583333333, "bike_id": "7355e54a4b47ee650183c0f5a7770bae", "rental_uris": {"android": "https://dc.lft.to/lastmile_qr_scan", "ios": "https://dc.lft.to/lastmile_qr_scan"}, "name": "7355e54a4b47ee650183c0f5a7770bae", "is_reserved": 0}, {"is_disabled": 0, "fusion_lon": 0.0, "fusion_lat": 0.0, "lat": 38.90680966666667, "type": "electric_scooter", "lon": -77.06334933333333, "bike_id": "5d3fdabe2b6effe6b78fe0e232731f49", "rental_uris": {"android": "https://dc.lft.to/lastmile_qr_scan", "ios": "https://dc.lft.to/lastmile_qr_scan"}, "name": "5d3fdabe2b6effe6b78fe0e232731f49", "is_reserved": 0}, {"is_disabled": 0, "fusion_lon": 0.0, "fusion_lat": 0.0, "lat": 38.94886833333333, "type": "electric_bike", "lon": -76.963802, "bike_id": "cd4e79658ed3e3739f7406c6144bd56a", "rental_uris": {"android": "https://dc.lft.to/lastmile_qr_scan", "ios": "https://dc.lft.to/lastmile_qr_scan"}, "name": "cd4e79658ed3e3739f7406c6144bd56a", "is_reserved": 0}, {"is_disabled": 0, "fusion_lon": 0.0, "fusion_lat": 0.0, "lat": 38.91916033333333, "type": "electric_scooter", "lon": -77.02400733333333, "bike_id": "989406d88042ec08a457fc04342a7b0a", "rental_uris": {"android": "https://dc.lft.to/lastmile_qr_scan", "ios": "https://dc.lft.to/lastmile_qr_scan"}, "name": "989406d88042ec08a457fc04342a7b0a", "is_reserved": 0}, {"is_disabled": 0, "fusion_lon": 0.0, "fusion_lat": 0.0, "lat": 38.93695733333333, "type": "electric_scooter", "lon": -77.05603716666667, "bike_id": "7fc7d37437950a78253a118788b38512", "rental_uris": {"android": "https://dc.lft.to/lastmile_qr_scan", "ios": "https://dc.lft.to/lastmile_qr_scan"}, "name": "7fc7d37437950a78253a118788b38512", "is_reserved": 0}, {"is_disabled": 0, "fusion_lon": 0.0, "fusion_lat": 0.0, "lat": 38.88835866666667, "type": "electric_scooter", "lon": -76.91778666666667, "bike_id": "00d3f32f2308ceda0b9b7bbbb8060904", "rental_uris": {"android": "https://dc.lft.to/lastmile_qr_scan", "ios": "https://dc.lft.to/lastmile_qr_scan"}, "name": "00d3f32f2308ceda0b9b7bbbb8060904", "is_reserved": 0}, {"is_disabled": 0, "fusion_lon": 0.0, "fusion_lat": 0.0, "lat": 38.932225333333335, "type": "electric_scooter", "lon": -76.99935383333333, "bike_id": "6e26bab864c253425ef3551c15797bab", "rental_uris": {"android": "https://dc.lft.to/lastmile_qr_scan", "ios": "https://dc.lft.to/lastmile_qr_scan"}, "name": "6e26bab864c253425ef3551c15797bab", "is_reserved": 0}, {"is_disabled": 0, "fusion_lon": 0.0, "fusion_lat": 0.0, "lat": 38.95296733333333, "type": "electric_scooter", "lon": -77.0698555, "bike_id": "a62d37228049bf4744b1b91ca5c6d161", "rental_uris": {"android": "https://dc.lft.to/lastmile_qr_scan", "ios": "https://dc.lft.to/lastmile_qr_scan"}, "name": "a62d37228049bf4744b1b91ca5c6d161", "is_reserved": 0}, {"is_disabled": 0, "fusion_lon": 0.0, "fusion_lat": 0.0, "lat": 38.901207, "type": "electric_scooter", "lon": -77.00233466666667, "bike_id": "1809749ab7ae417efa9c20961f2f510e", "rental_uris": {"android": "https://dc.lft.to/lastmile_qr_scan", "ios": "https://dc.lft.to/lastmile_qr_scan"}, "name": "1809749ab7ae417efa9c20961f2f510e", "is_reserved": 0}, {"is_disabled": 0, "fusion_lon": 0.0, "fusion_lat": 0.0, "lat": 38.90364116666667, "type": "electric_scooter", "lon": -77.02158016666667, "bike_id": "b52184c100fc0fcf8688261c934674ed", "rental_uris": {"android": "https://dc.lft.to/lastmile_qr_scan", "ios": "https://dc.lft.to/lastmile_qr_scan"}, "name": "b52184c100fc0fcf8688261c934674ed", "is_reserved": 0}, {"is_disabled": 0, "fusion_lon": 0.0, "fusion_lat": 0.0, "lat": 38.89732766666667, "type": "electric_scooter", "lon": -77.04763016666666, "bike_id": "a23b13bdc95b0a154f45e8fc49991187", "rental_uris": {"android": "https://dc.lft.to/lastmile_qr_scan", "ios": "https://dc.lft.to/lastmile_qr_scan"}, "name": "a23b13bdc95b0a154f45e8fc49991187", "is_reserved": 0}, {"is_disabled": 0, "fusion_lon": 0.0, "fusion_lat": 0.0, "lat": 38.9244095, "type": "electric_scooter", "lon": -77.03350816666666, "bike_id": "82ce0a5c5f51a892b5cb8046de0e320f", "rental_uris": {"android": "https://dc.lft.to/lastmile_qr_scan", "ios": "https://dc.lft.to/lastmile_qr_scan"}, "name": "82ce0a5c5f51a892b5cb8046de0e320f", "is_reserved": 0}, {"is_disabled": 0, "fusion_lon": 0.0, "fusion_lat": 0.0, "lat": 38.905986, "type": "electric_scooter", "lon": -77.05134833333334, "bike_id": "eae174c37e871b5abe664d06b3216325", "rental_uris": {"android": "https://dc.lft.to/lastmile_qr_scan", "ios": "https://dc.lft.to/lastmile_qr_scan"}, "name": "eae174c37e871b5abe664d06b3216325", "is_reserved": 0}, {"is_disabled": 0, "fusion_lon": 0.0, "fusion_lat": 0.0, "lat": 38.877748833333335, "type": "electric_scooter", "lon": -77.01439166666667, "bike_id": "141d3946a9218d6846cd86656ba24f8e", "rental_uris": {"android": "https://dc.lft.to/lastmile_qr_scan", "ios": "https://dc.lft.to/lastmile_qr_scan"}, "name": "141d3946a9218d6846cd86656ba24f8e", "is_reserved": 0}, {"is_disabled": 0, "fusion_lon": 0.0, "fusion_lat": 0.0, "lat": 38.91345283333333, "type": "electric_scooter", "lon": -77.00893333333333, "bike_id": "1e126fe38d7d12eb2f609814d4706c87", "rental_uris": {"android": "https://dc.lft.to/lastmile_qr_scan", "ios": "https://dc.lft.to/lastmile_qr_scan"}, "name": "1e126fe38d7d12eb2f609814d4706c87", "is_reserved": 0}, {"is_disabled": 0, "fusion_lon": 0.0, "fusion_lat": 0.0, "lat": 38.902577666666666, "type": "electric_scooter", "lon": -77.0347185, "bike_id": "d5559538c61505ad104a36f0a780b183", "rental_uris": {"android": "https://dc.lft.to/lastmile_qr_scan", "ios": "https://dc.lft.to/lastmile_qr_scan"}, "name": "d5559538c61505ad104a36f0a780b183", "is_reserved": 0}, {"is_disabled": 0, "fusion_lon": 0.0, "fusion_lat": 0.0, "lat": 38.9036225, "type": "electric_scooter", "lon": -77.03996033333334, "bike_id": "49aa2d06e6cf1db44a8ab7720538bed5", "rental_uris": {"android": "https://dc.lft.to/lastmile_qr_scan", "ios": "https://dc.lft.to/lastmile_qr_scan"}, "name": "49aa2d06e6cf1db44a8ab7720538bed5", "is_reserved": 0}, {"is_disabled": 0, "fusion_lon": 0.0, "fusion_lat": 0.0, "lat": 38.84888333333333, "type": "electric_scooter", "lon": -77.0052185, "bike_id": "3d875195067e27e054620b933950c007", "rental_uris": {"android": "https://dc.lft.to/lastmile_qr_scan", "ios": "https://dc.lft.to/lastmile_qr_scan"}, "name": "3d875195067e27e054620b933950c007", "is_reserved": 0}, {"is_disabled": 0, "fusion_lon": 0.0, "fusion_lat": 0.0, "lat": 38.86350766666666, "type": "electric_scooter", "lon": -76.990629, "bike_id": "46437879d26fea8c0ff9af690e5a86c4", "rental_uris": {"android": "https://dc.lft.to/lastmile_qr_scan", "ios": "https://dc.lft.to/lastmile_qr_scan"}, "name": "46437879d26fea8c0ff9af690e5a86c4", "is_reserved": 0}, {"is_disabled": 0, "fusion_lon": 0.0, "fusion_lat": 0.0, "lat": 38.93107633333333, "type": "electric_scooter", "lon": -77.05598816666667, "bike_id": "7e7af5b0645315cdd4114ff4906b28a9", "rental_uris": {"android": "https://dc.lft.to/lastmile_qr_scan", "ios": "https://dc.lft.to/lastmile_qr_scan"}, "name": "7e7af5b0645315cdd4114ff4906b28a9", "is_reserved": 0}, {"is_disabled": 0, "fusion_lon": 0.0, "fusion_lat": 0.0, "lat": 38.900222666666664, "type": "electric_scooter", "lon": -76.98809516666667, "bike_id": "3f02fc69a80aed16e51c20f06b607d27", "rental_uris": {"android": "https://dc.lft.to/lastmile_qr_scan", "ios": "https://dc.lft.to/lastmile_qr_scan"}, "name": "3f02fc69a80aed16e51c20f06b607d27", "is_reserved": 0}, {"is_disabled": 0, "fusion_lon": 0.0, "fusion_lat": 0.0, "lat": 38.9344865, "type": "electric_scooter", "lon": -77.0387415, "bike_id": "f4d4c03fac2ba93257721decae626ed4", "rental_uris": {"android": "https://dc.lft.to/lastmile_qr_scan", "ios": "https://dc.lft.to/lastmile_qr_scan"}, "name": "f4d4c03fac2ba93257721decae626ed4", "is_reserved": 0}, {"is_disabled": 0, "fusion_lon": 0.0, "fusion_lat": 0.0, "lat": 38.999321333333334, "type": "electric_bike", "lon": -77.001201, "bike_id": "dfedd43e07edd20d2fd77e7b5cb00856", "rental_uris": {"android": "https://dc.lft.to/lastmile_qr_scan", "ios": "https://dc.lft.to/lastmile_qr_scan"}, "name": "dfedd43e07edd20d2fd77e7b5cb00856", "is_reserved": 0}, {"is_disabled": 0, "fusion_lon": 0.0, "fusion_lat": 0.0, "lat": 38.85534533333333, "type": "electric_bike", "lon": -77.10726616666666, "bike_id": "6f0866c9c8c461a128f33f7b20fa6c1e", "rental_uris": {"android": "https://dc.lft.to/lastmile_qr_scan", "ios": "https://dc.lft.to/lastmile_qr_scan"}, "name": "6f0866c9c8c461a128f33f7b20fa6c1e", "is_reserved": 0}, {"is_disabled": 0, "fusion_lon": 0.0, "fusion_lat": 0.0, "lat": 39.0959125, "type": "electric_bike", "lon": -77.14780683333333, "bike_id": "a7fe123439dcb012a449d61c4ecad73e", "rental_uris": {"android": "https://dc.lft.to/lastmile_qr_scan", "ios": "https://dc.lft.to/lastmile_qr_scan"}, "name": "a7fe123439dcb012a449d61c4ecad73e", "is_reserved": 0}, {"is_disabled": 0, "fusion_lon": 0.0, "fusion_lat": 0.0, "lat": 38.8949935, "type": "electric_scooter", "lon": -76.94881416666666, "bike_id": "d69c3447ada54e028063c4313fcbf926", "rental_uris": {"android": "https://dc.lft.to/lastmile_qr_scan", "ios": "https://dc.lft.to/lastmile_qr_scan"}, "name": "d69c3447ada54e028063c4313fcbf926", "is_reserved": 0}, {"is_disabled": 0, "fusion_lon": 0.0, "fusion_lat": 0.0, "lat": 38.906358166666664, "type": "electric_scooter", "lon": -77.02502166666666, "bike_id": "4ca0bc7b9773da6cd2e2e745120dcc18", "rental_uris": {"android": "https://dc.lft.to/lastmile_qr_scan", "ios": "https://dc.lft.to/lastmile_qr_scan"}, "name": "4ca0bc7b9773da6cd2e2e745120dcc18", "is_reserved": 0}, {"is_disabled": 0, "fusion_lon": 0.0, "fusion_lat": 0.0, "lat": 38.905189666666665, "type": "electric_scooter", "lon": -76.98267383333334, "bike_id": "f7ed31f457df8c8870b0c6a576bdf0eb", "rental_uris": {"android": "https://dc.lft.to/lastmile_qr_scan", "ios": "https://dc.lft.to/lastmile_qr_scan"}, "name": "f7ed31f457df8c8870b0c6a576bdf0eb", "is_reserved": 0}, {"is_disabled": 0, "fusion_lon": 0.0, "fusion_lat": 0.0, "lat": 38.8635725, "type": "electric_scooter", "lon": -76.99064683333333, "bike_id": "41d47c76fa357b1332cc67d44803e7b6", "rental_uris": {"android": "https://dc.lft.to/lastmile_qr_scan", "ios": "https://dc.lft.to/lastmile_qr_scan"}, "name": "41d47c76fa357b1332cc67d44803e7b6", "is_reserved": 0}, {"is_disabled": 0, "fusion_lon": 0.0, "fusion_lat": 0.0, "lat": 38.919393166666666, "type": "electric_scooter", "lon": -77.08135716666666, "bike_id": "98f1da3dd3760d39a3341e30ead41fcf", "rental_uris": {"android": "https://dc.lft.to/lastmile_qr_scan", "ios": "https://dc.lft.to/lastmile_qr_scan"}, "name": "98f1da3dd3760d39a3341e30ead41fcf", "is_reserved": 0}, {"is_disabled": 0, "fusion_lon": 0.0, "fusion_lat": 0.0, "lat": 38.91840333333333, "type": "electric_scooter", "lon": -77.02966133333334, "bike_id": "88f343b36a75fdaab92dbf479d8d8988", "rental_uris": {"android": "https://dc.lft.to/lastmile_qr_scan", "ios": "https://dc.lft.to/lastmile_qr_scan"}, "name": "88f343b36a75fdaab92dbf479d8d8988", "is_reserved": 0}, {"is_disabled": 0, "fusion_lon": 0.0, "fusion_lat": 0.0, "lat": 38.902548833333334, "type": "electric_scooter", "lon": -77.0344095, "bike_id": "bdce061990b2ef21837edfd663b4d532", "rental_uris": {"android": "https://dc.lft.to/lastmile_qr_scan", "ios": "https://dc.lft.to/lastmile_qr_scan"}, "name": "bdce061990b2ef21837edfd663b4d532", "is_reserved": 0}, {"is_disabled": 0, "fusion_lon": 0.0, "fusion_lat": 0.0, "lat": 38.924122833333335, "type": "electric_scooter", "lon": -77.05633716666667, "bike_id": "ce2b4ba076ed069cfde996ce421ef932", "rental_uris": {"android": "https://dc.lft.to/lastmile_qr_scan", "ios": "https://dc.lft.to/lastmile_qr_scan"}, "name": "ce2b4ba076ed069cfde996ce421ef932", "is_reserved": 0}, {"is_disabled": 0, "fusion_lon": 0.0, "fusion_lat": 0.0, "lat": 38.905429833333336, "type": "electric_scooter", "lon": -77.02206883333334, "bike_id": "1a6abc56d0559fbc6d73195961e17092", "rental_uris": {"android": "https://dc.lft.to/lastmile_qr_scan", "ios": "https://dc.lft.to/lastmile_qr_scan"}, "name": "1a6abc56d0559fbc6d73195961e17092", "is_reserved": 0}, {"is_disabled": 0, "fusion_lon": 0.0, "fusion_lat": 0.0, "lat": 38.912836, "type": "electric_scooter", "lon": -76.98680183333333, "bike_id": "1d9baea16ee12c8ebecd09d1e1eed771", "rental_uris": {"android": "https://dc.lft.to/lastmile_qr_scan", "ios": "https://dc.lft.to/lastmile_qr_scan"}, "name": "1d9baea16ee12c8ebecd09d1e1eed771", "is_reserved": 0}, {"is_disabled": 0, "fusion_lon": 0.0, "fusion_lat": 0.0, "lat": 38.9025235, "type": "electric_scooter", "lon": -77.03469066666666, "bike_id": "d266883929c7208db6de2e427607bc6d", "rental_uris": {"android": "https://dc.lft.to/lastmile_qr_scan", "ios": "https://dc.lft.to/lastmile_qr_scan"}, "name": "d266883929c7208db6de2e427607bc6d", "is_reserved": 0}, {"is_disabled": 0, "fusion_lon": 0.0, "fusion_lat": 0.0, "lat": 38.897082833333336, "type": "electric_scooter", "lon": -77.02447, "bike_id": "bae630b57516e10eeb9885e8e7d0e00d", "rental_uris": {"android": "https://dc.lft.to/lastmile_qr_scan", "ios": "https://dc.lft.to/lastmile_qr_scan"}, "name": "bae630b57516e10eeb9885e8e7d0e00d", "is_reserved": 0}, {"is_disabled": 0, "fusion_lon": 0.0, "fusion_lat": 0.0, "lat": 38.836020166666664, "type": "electric_bike", "lon": -77.003869, "bike_id": "574ca8ccee9f3688b146d550f027de69", "rental_uris": {"android": "https://dc.lft.to/lastmile_qr_scan", "ios": "https://dc.lft.to/lastmile_qr_scan"}, "name": "574ca8ccee9f3688b146d550f027de69", "is_reserved": 0}, {"is_disabled": 0, "fusion_lon": 0.0, "fusion_lat": 0.0, "lat": 38.908955166666665, "type": "electric_scooter", "lon": -77.02294183333333, "bike_id": "de7f0de57ff0a36a2b74561a1400a9c6", "rental_uris": {"android": "https://dc.lft.to/lastmile_qr_scan", "ios": "https://dc.lft.to/lastmile_qr_scan"}, "name": "de7f0de57ff0a36a2b74561a1400a9c6", "is_reserved": 0}, {"is_disabled": 0, "fusion_lon": 0.0, "fusion_lat": 0.0, "lat": 38.92016816666667, "type": "electric_scooter", "lon": -77.03163233333333, "bike_id": "37dc3e4349cbe93433213b91193c5a4e", "rental_uris": {"android": "https://dc.lft.to/lastmile_qr_scan", "ios": "https://dc.lft.to/lastmile_qr_scan"}, "name": "37dc3e4349cbe93433213b91193c5a4e", "is_reserved": 0}, {"is_disabled": 0, "fusion_lon": 0.0, "fusion_lat": 0.0, "lat": 38.907914833333336, "type": "electric_bike", "lon": -77.02971783333334, "bike_id": "5606e5b36046f5a064d1dea9ebae1e40", "rental_uris": {"android": "https://dc.lft.to/lastmile_qr_scan", "ios": "https://dc.lft.to/lastmile_qr_scan"}, "name": "5606e5b36046f5a064d1dea9ebae1e40", "is_reserved": 0}, {"is_disabled": 0, "fusion_lon": 0.0, "fusion_lat": 0.0, "lat": 38.904743, "type": "electric_scooter", "lon": -77.02987083333333, "bike_id": "3f8d6c4c0072105033c560ce60ba6cc2", "rental_uris": {"android": "https://dc.lft.to/lastmile_qr_scan", "ios": "https://dc.lft.to/lastmile_qr_scan"}, "name": "3f8d6c4c0072105033c560ce60ba6cc2", "is_reserved": 0}, {"is_disabled": 0, "fusion_lon": 0.0, "fusion_lat": 0.0, "lat": 38.913957833333335, "type": "electric_scooter", "lon": -77.03175283333333, "bike_id": "aa7780e05d75d178acb3488b1f0b7149", "rental_uris": {"android": "https://dc.lft.to/lastmile_qr_scan", "ios": "https://dc.lft.to/lastmile_qr_scan"}, "name": "aa7780e05d75d178acb3488b1f0b7149", "is_reserved": 0}, {"is_disabled": 0, "fusion_lon": 0.0, "fusion_lat": 0.0, "lat": 38.9692035, "type": "electric_bike", "lon": -77.02620766666666, "bike_id": "cd6b2b9cf917bbe5bb7fa63a0bb0b412", "rental_uris": {"android": "https://dc.lft.to/lastmile_qr_scan", "ios": "https://dc.lft.to/lastmile_qr_scan"}, "name": "cd6b2b9cf917bbe5bb7fa63a0bb0b412", "is_reserved": 0}, {"is_disabled": 0, "fusion_lon": 0.0, "fusion_lat": 0.0, "lat": 38.91199016666667, "type": "electric_scooter", "lon": -77.03838866666666, "bike_id": "b1b8d27eaa50bef8aa2314dccef00b90", "rental_uris": {"android": "https://dc.lft.to/lastmile_qr_scan", "ios": "https://dc.lft.to/lastmile_qr_scan"}, "name": "b1b8d27eaa50bef8aa2314dccef00b90", "is_reserved": 0}, {"is_disabled": 0, "fusion_lon": 0.0, "fusion_lat": 0.0, "lat": 38.899069833333336, "type": "electric_scooter", "lon": -76.93390833333333, "bike_id": "46d96f4841c7f81e83480985adef110a", "rental_uris": {"android": "https://dc.lft.to/lastmile_qr_scan", "ios": "https://dc.lft.to/lastmile_qr_scan"}, "name": "46d96f4841c7f81e83480985adef110a", "is_reserved": 0}, {"is_disabled": 0, "fusion_lon": 0.0, "fusion_lat": 0.0, "lat": 38.9197545, "type": "electric_scooter", "lon": -77.03877916666667, "bike_id": "27d48895e561360afbbe73ff6cb6c383", "rental_uris": {"android": "https://dc.lft.to/lastmile_qr_scan", "ios": "https://dc.lft.to/lastmile_qr_scan"}, "name": "27d48895e561360afbbe73ff6cb6c383", "is_reserved": 0}, {"is_disabled": 0, "fusion_lon": 0.0, "fusion_lat": 0.0, "lat": 38.91695883333333, "type": "electric_scooter", "lon": -77.005274, "bike_id": "c57ecf0004db7a8f1d73b5c0329c10d5", "rental_uris": {"android": "https://dc.lft.to/lastmile_qr_scan", "ios": "https://dc.lft.to/lastmile_qr_scan"}, "name": "c57ecf0004db7a8f1d73b5c0329c10d5", "is_reserved": 0}, {"is_disabled": 0, "fusion_lon": 0.0, "fusion_lat": 0.0, "lat": 38.91800666666666, "type": "electric_scooter", "lon": -77.0325955, "bike_id": "8ec1d8dc9af01824426f31459aed2ee7", "rental_uris": {"android": "https://dc.lft.to/lastmile_qr_scan", "ios": "https://dc.lft.to/lastmile_qr_scan"}, "name": "8ec1d8dc9af01824426f31459aed2ee7", "is_reserved": 0}, {"is_disabled": 0, "fusion_lon": 0.0, "fusion_lat": 0.0, "lat": 38.928951166666664, "type": "electric_scooter", "lon": -77.03264366666667, "bike_id": "77788aeb7aef3462542f60d54dc75bf8", "rental_uris": {"android": "https://dc.lft.to/lastmile_qr_scan", "ios": "https://dc.lft.to/lastmile_qr_scan"}, "name": "77788aeb7aef3462542f60d54dc75bf8", "is_reserved": 0}, {"is_disabled": 0, "fusion_lon": 0.0, "fusion_lat": 0.0, "lat": 38.9003825, "type": "electric_scooter", "lon": -77.04671283333333, "bike_id": "6d593f8181d3ada4f957f0b507d02491", "rental_uris": {"android": "https://dc.lft.to/lastmile_qr_scan", "ios": "https://dc.lft.to/lastmile_qr_scan"}, "name": "6d593f8181d3ada4f957f0b507d02491", "is_reserved": 0}, {"is_disabled": 0, "fusion_lon": 0.0, "fusion_lat": 0.0, "lat": 38.945403, "type": "electric_bike", "lon": -77.05134733333334, "bike_id": "746a7003b5dc31b2fa5839727b750c09", "rental_uris": {"android": "https://dc.lft.to/lastmile_qr_scan", "ios": "https://dc.lft.to/lastmile_qr_scan"}, "name": "746a7003b5dc31b2fa5839727b750c09", "is_reserved": 0}, {"is_disabled": 0, "fusion_lon": 0.0, "fusion_lat": 0.0, "lat": 38.940688333333334, "type": "electric_scooter", "lon": -77.0287765, "bike_id": "c4c8c007eb35d28e5a789e88ecd2fb48", "rental_uris": {"android": "https://dc.lft.to/lastmile_qr_scan", "ios": "https://dc.lft.to/lastmile_qr_scan"}, "name": "c4c8c007eb35d28e5a789e88ecd2fb48", "is_reserved": 0}, {"is_disabled": 0, "fusion_lon": 0.0, "fusion_lat": 0.0, "lat": 38.9159895, "type": "electric_scooter", "lon": -77.02406183333333, "bike_id": "fa2d45082744c8202cd5f52059831ec5", "rental_uris": {"android": "https://dc.lft.to/lastmile_qr_scan", "ios": "https://dc.lft.to/lastmile_qr_scan"}, "name": "fa2d45082744c8202cd5f52059831ec5", "is_reserved": 0}, {"is_disabled": 0, "fusion_lon": 0.0, "fusion_lat": 0.0, "lat": 38.875803166666664, "type": "electric_scooter", "lon": -77.00419133333334, "bike_id": "a04c2392525e36532b36501ec94f095c", "rental_uris": {"android": "https://dc.lft.to/lastmile_qr_scan", "ios": "https://dc.lft.to/lastmile_qr_scan"}, "name": "a04c2392525e36532b36501ec94f095c", "is_reserved": 0}, {"is_disabled": 0, "fusion_lon": 0.0, "fusion_lat": 0.0, "lat": 38.895186833333334, "type": "electric_scooter", "lon": -77.04856466666666, "bike_id": "9e22e77966451e7b0e85e08ab8e4f5c4", "rental_uris": {"android": "https://dc.lft.to/lastmile_qr_scan", "ios": "https://dc.lft.to/lastmile_qr_scan"}, "name": "9e22e77966451e7b0e85e08ab8e4f5c4", "is_reserved": 0}, {"is_disabled": 0, "fusion_lon": 0.0, "fusion_lat": 0.0, "lat": 38.93972466666666, "type": "electric_bike", "lon": -77.3609685, "bike_id": "e0ec6d2a7f0b89e60bf02d1aa5b0effb", "rental_uris": {"android": "https://dc.lft.to/lastmile_qr_scan", "ios": "https://dc.lft.to/lastmile_qr_scan"}, "name": "e0ec6d2a7f0b89e60bf02d1aa5b0effb", "is_reserved": 0}, {"is_disabled": 0, "fusion_lon": 0.0, "fusion_lat": 0.0, "lat": 38.924695166666666, "type": "electric_scooter", "lon": -77.0730235, "bike_id": "2fc0574df9efe03b3b56632ad6015d07", "rental_uris": {"android": "https://dc.lft.to/lastmile_qr_scan", "ios": "https://dc.lft.to/lastmile_qr_scan"}, "name": "2fc0574df9efe03b3b56632ad6015d07", "is_reserved": 0}, {"is_disabled": 0, "fusion_lon": 0.0, "fusion_lat": 0.0, "lat": 38.921071, "type": "electric_scooter", "lon": -77.0176775, "bike_id": "82b4da6c62cc98415ee996475f4e391f", "rental_uris": {"android": "https://dc.lft.to/lastmile_qr_scan", "ios": "https://dc.lft.to/lastmile_qr_scan"}, "name": "82b4da6c62cc98415ee996475f4e391f", "is_reserved": 0}, {"is_disabled": 0, "fusion_lon": 0.0, "fusion_lat": 0.0, "lat": 38.903487166666665, "type": "electric_scooter", "lon": -77.05919966666667, "bike_id": "c5623acd7ea2cc3a1827b2e189b41ccc", "rental_uris": {"android": "https://dc.lft.to/lastmile_qr_scan", "ios": "https://dc.lft.to/lastmile_qr_scan"}, "name": "c5623acd7ea2cc3a1827b2e189b41ccc", "is_reserved": 0}, {"is_disabled": 0, "fusion_lon": 0.0, "fusion_lat": 0.0, "lat": 38.877463666666664, "type": "electric_bike", "lon": -76.9799955, "bike_id": "e8504b4d197388d7fd9c72ca91cffdbd", "rental_uris": {"android": "https://dc.lft.to/lastmile_qr_scan", "ios": "https://dc.lft.to/lastmile_qr_scan"}, "name": "e8504b4d197388d7fd9c72ca91cffdbd", "is_reserved": 0}, {"is_disabled": 0, "fusion_lon": 0.0, "fusion_lat": 0.0, "lat": 38.9169935, "type": "electric_scooter", "lon": -77.03196583333333, "bike_id": "d379e7d5b3892a61f9866d43800b8a0c", "rental_uris": {"android": "https://dc.lft.to/lastmile_qr_scan", "ios": "https://dc.lft.to/lastmile_qr_scan"}, "name": "d379e7d5b3892a61f9866d43800b8a0c", "is_reserved": 0}, {"is_disabled": 0, "fusion_lon": 0.0, "fusion_lat": 0.0, "lat": 38.922770666666665, "type": "electric_scooter", "lon": -77.04477283333334, "bike_id": "e1e4e9035d21e6ce7321bccc3d3aa08c", "rental_uris": {"android": "https://dc.lft.to/lastmile_qr_scan", "ios": "https://dc.lft.to/lastmile_qr_scan"}, "name": "e1e4e9035d21e6ce7321bccc3d3aa08c", "is_reserved": 0}, {"is_disabled": 0, "fusion_lon": 0.0, "fusion_lat": 0.0, "lat": 38.917843500000004, "type": "electric_scooter", "lon": -77.0235165, "bike_id": "5cb220228b9ded950d3a0a0ad1751923", "rental_uris": {"android": "https://dc.lft.to/lastmile_qr_scan", "ios": "https://dc.lft.to/lastmile_qr_scan"}, "name": "5cb220228b9ded950d3a0a0ad1751923", "is_reserved": 0}, {"is_disabled": 0, "fusion_lon": 0.0, "fusion_lat": 0.0, "lat": 38.90589533333333, "type": "electric_scooter", "lon": -77.06914816666666, "bike_id": "a3f24c256d775194246114d2a097868f", "rental_uris": {"android": "https://dc.lft.to/lastmile_qr_scan", "ios": "https://dc.lft.to/lastmile_qr_scan"}, "name": "a3f24c256d775194246114d2a097868f", "is_reserved": 0}, {"is_disabled": 0, "fusion_lon": 0.0, "fusion_lat": 0.0, "lat": 38.90891416666667, "type": "electric_scooter", "lon": -77.0321225, "bike_id": "6465071eee8663fa8089064312a60dc3", "rental_uris": {"android": "https://dc.lft.to/lastmile_qr_scan", "ios": "https://dc.lft.to/lastmile_qr_scan"}, "name": "6465071eee8663fa8089064312a60dc3", "is_reserved": 0}, {"is_disabled": 0, "fusion_lon": 0.0, "fusion_lat": 0.0, "lat": 38.8867185, "type": "electric_scooter", "lon": -77.01980566666667, "bike_id": "f6ac56c805293b4e51cff4a2f778853b", "rental_uris": {"android": "https://dc.lft.to/lastmile_qr_scan", "ios": "https://dc.lft.to/lastmile_qr_scan"}, "name": "f6ac56c805293b4e51cff4a2f778853b", "is_reserved": 0}, {"is_disabled": 0, "fusion_lon": 0.0, "fusion_lat": 0.0, "lat": 38.90032633333333, "type": "electric_scooter", "lon": -77.03377233333333, "bike_id": "0da4734e6c00842af32b66e9f3ddd657", "rental_uris": {"android": "https://dc.lft.to/lastmile_qr_scan", "ios": "https://dc.lft.to/lastmile_qr_scan"}, "name": "0da4734e6c00842af32b66e9f3ddd657", "is_reserved": 0}, {"is_disabled": 0, "fusion_lon": 0.0, "fusion_lat": 0.0, "lat": 38.871931833333335, "type": "electric_scooter", "lon": -76.97824916666667, "bike_id": "d09502b3efcbed3d615414e5ba2eefc6", "rental_uris": {"android": "https://dc.lft.to/lastmile_qr_scan", "ios": "https://dc.lft.to/lastmile_qr_scan"}, "name": "d09502b3efcbed3d615414e5ba2eefc6", "is_reserved": 0}, {"is_disabled": 0, "fusion_lon": 0.0, "fusion_lat": 0.0, "lat": 38.96136333333333, "type": "electric_scooter", "lon": -77.02800133333334, "bike_id": "40152da92707a0a1c369f0913a835f20", "rental_uris": {"android": "https://dc.lft.to/lastmile_qr_scan", "ios": "https://dc.lft.to/lastmile_qr_scan"}, "name": "40152da92707a0a1c369f0913a835f20", "is_reserved": 0}, {"is_disabled": 0, "fusion_lon": 0.0, "fusion_lat": 0.0, "lat": 38.9243295, "type": "electric_bike", "lon": -76.90757966666666, "bike_id": "cc38d7b5c71179c8d95444bb11ad7973", "rental_uris": {"android": "https://dc.lft.to/lastmile_qr_scan", "ios": "https://dc.lft.to/lastmile_qr_scan"}, "name": "cc38d7b5c71179c8d95444bb11ad7973", "is_reserved": 0}, {"is_disabled": 0, "fusion_lon": 0.0, "fusion_lat": 0.0, "lat": 38.90336883333333, "type": "electric_scooter", "lon": -77.03867466666667, "bike_id": "9c1449ee1090a3198d2afcbc5a38f854", "rental_uris": {"android": "https://dc.lft.to/lastmile_qr_scan", "ios": "https://dc.lft.to/lastmile_qr_scan"}, "name": "9c1449ee1090a3198d2afcbc5a38f854", "is_reserved": 0}, {"is_disabled": 0, "fusion_lon": 0.0, "fusion_lat": 0.0, "lat": 38.8890705, "type": "electric_scooter", "lon": -76.98011716666667, "bike_id": "352783132653a1ad1965f479b8ba7881", "rental_uris": {"android": "https://dc.lft.to/lastmile_qr_scan", "ios": "https://dc.lft.to/lastmile_qr_scan"}, "name": "352783132653a1ad1965f479b8ba7881", "is_reserved": 0}, {"is_disabled": 0, "fusion_lon": 0.0, "fusion_lat": 0.0, "lat": 38.90409966666667, "type": "electric_scooter", "lon": -77.06871633333333, "bike_id": "39854b498fe2fa5cea2028def3f90467", "rental_uris": {"android": "https://dc.lft.to/lastmile_qr_scan", "ios": "https://dc.lft.to/lastmile_qr_scan"}, "name": "39854b498fe2fa5cea2028def3f90467", "is_reserved": 0}, {"is_disabled": 0, "fusion_lon": 0.0, "fusion_lat": 0.0, "lat": 38.908007833333336, "type": "electric_scooter", "lon": -77.00156033333333, "bike_id": "28f3da2d35c9b5c2a1a722b0de64e1da", "rental_uris": {"android": "https://dc.lft.to/lastmile_qr_scan", "ios": "https://dc.lft.to/lastmile_qr_scan"}, "name": "28f3da2d35c9b5c2a1a722b0de64e1da", "is_reserved": 0}, {"is_disabled": 0, "fusion_lon": 0.0, "fusion_lat": 0.0, "lat": 38.925502, "type": "electric_scooter", "lon": -77.04160483333334, "bike_id": "b2da43799915a744ef4b62b4d16e4939", "rental_uris": {"android": "https://dc.lft.to/lastmile_qr_scan", "ios": "https://dc.lft.to/lastmile_qr_scan"}, "name": "b2da43799915a744ef4b62b4d16e4939", "is_reserved": 0}, {"is_disabled": 0, "fusion_lon": 0.0, "fusion_lat": 0.0, "lat": 38.93055366666667, "type": "electric_scooter", "lon": -77.034075, "bike_id": "5f24875ec1d6f286bf22a7361225dd6b", "rental_uris": {"android": "https://dc.lft.to/lastmile_qr_scan", "ios": "https://dc.lft.to/lastmile_qr_scan"}, "name": "5f24875ec1d6f286bf22a7361225dd6b", "is_reserved": 0}, {"is_disabled": 0, "fusion_lon": 0.0, "fusion_lat": 0.0, "lat": 38.924731333333334, "type": "electric_scooter", "lon": -77.0282745, "bike_id": "40bfb51fbe7eb582a28d8b76d9196298", "rental_uris": {"android": "https://dc.lft.to/lastmile_qr_scan", "ios": "https://dc.lft.to/lastmile_qr_scan"}, "name": "40bfb51fbe7eb582a28d8b76d9196298", "is_reserved": 0}, {"is_disabled": 0, "fusion_lon": 0.0, "fusion_lat": 0.0, "lat": 38.918251, "type": "electric_scooter", "lon": -77.0242485, "bike_id": "33b370ffa67e05de55c29b0444576415", "rental_uris": {"android": "https://dc.lft.to/lastmile_qr_scan", "ios": "https://dc.lft.to/lastmile_qr_scan"}, "name": "33b370ffa67e05de55c29b0444576415", "is_reserved": 0}, {"is_disabled": 0, "fusion_lon": 0.0, "fusion_lat": 0.0, "lat": 38.91400383333333, "type": "electric_scooter", "lon": -77.00809133333334, "bike_id": "7c5752b231483c151b20f61ec87d19d2", "rental_uris": {"android": "https://dc.lft.to/lastmile_qr_scan", "ios": "https://dc.lft.to/lastmile_qr_scan"}, "name": "7c5752b231483c151b20f61ec87d19d2", "is_reserved": 0}, {"is_disabled": 0, "fusion_lon": 0.0, "fusion_lat": 0.0, "lat": 38.90967233333333, "type": "electric_scooter", "lon": -77.04490716666666, "bike_id": "d6cd9d042e089a6a818b4aebe3029aab", "rental_uris": {"android": "https://dc.lft.to/lastmile_qr_scan", "ios": "https://dc.lft.to/lastmile_qr_scan"}, "name": "d6cd9d042e089a6a818b4aebe3029aab", "is_reserved": 0}, {"is_disabled": 0, "fusion_lon": 0.0, "fusion_lat": 0.0, "lat": 38.90873783333333, "type": "electric_scooter", "lon": -77.07635933333333, "bike_id": "c971cb3b154313b5cab5d2cd7bc307da", "rental_uris": {"android": "https://dc.lft.to/lastmile_qr_scan", "ios": "https://dc.lft.to/lastmile_qr_scan"}, "name": "c971cb3b154313b5cab5d2cd7bc307da", "is_reserved": 0}, {"is_disabled": 0, "fusion_lon": 0.0, "fusion_lat": 0.0, "lat": 38.90406633333333, "type": "electric_scooter", "lon": -77.02215083333333, "bike_id": "0ad3e11d6d3c059b680a5b9d21343a3d", "rental_uris": {"android": "https://dc.lft.to/lastmile_qr_scan", "ios": "https://dc.lft.to/lastmile_qr_scan"}, "name": "0ad3e11d6d3c059b680a5b9d21343a3d", "is_reserved": 0}, {"is_disabled": 0, "fusion_lon": 0.0, "fusion_lat": 0.0, "lat": 38.9096695, "type": "electric_scooter", "lon": -77.01107183333333, "bike_id": "dceb6748e00491f52def1fc29047f7c4", "rental_uris": {"android": "https://dc.lft.to/lastmile_qr_scan", "ios": "https://dc.lft.to/lastmile_qr_scan"}, "name": "dceb6748e00491f52def1fc29047f7c4", "is_reserved": 0}, {"is_disabled": 0, "fusion_lon": 0.0, "fusion_lat": 0.0, "lat": 38.8286635, "type": "electric_bike", "lon": -77.11223433333333, "bike_id": "ab0313855102504af19a8a519820505f", "rental_uris": {"android": "https://dc.lft.to/lastmile_qr_scan", "ios": "https://dc.lft.to/lastmile_qr_scan"}, "name": "ab0313855102504af19a8a519820505f", "is_reserved": 0}, {"is_disabled": 0, "fusion_lon": 0.0, "fusion_lat": 0.0, "lat": 38.91272166666667, "type": "electric_scooter", "lon": -77.037281, "bike_id": "a128c2372112e35a38ecd5a1cb811044", "rental_uris": {"android": "https://dc.lft.to/lastmile_qr_scan", "ios": "https://dc.lft.to/lastmile_qr_scan"}, "name": "a128c2372112e35a38ecd5a1cb811044", "is_reserved": 0}, {"is_disabled": 0, "fusion_lon": 0.0, "fusion_lat": 0.0, "lat": 39.00011883333333, "type": "electric_bike", "lon": -76.87286583333334, "bike_id": "9e3be9801dabe3b97f3de623f2815030", "rental_uris": {"android": "https://dc.lft.to/lastmile_qr_scan", "ios": "https://dc.lft.to/lastmile_qr_scan"}, "name": "9e3be9801dabe3b97f3de623f2815030", "is_reserved": 0}, {"is_disabled": 0, "fusion_lon": 0.0, "fusion_lat": 0.0, "lat": 38.909984333333334, "type": "electric_scooter", "lon": -77.03736033333334, "bike_id": "fd0022e51b151442c026814d907f3310", "rental_uris": {"android": "https://dc.lft.to/lastmile_qr_scan", "ios": "https://dc.lft.to/lastmile_qr_scan"}, "name": "fd0022e51b151442c026814d907f3310", "is_reserved": 0}, {"is_disabled": 0, "fusion_lon": 0.0, "fusion_lat": 0.0, "lat": 38.903957, "type": "electric_scooter", "lon": -77.043425, "bike_id": "dee7d8e76dee6135354a05293a6b957d", "rental_uris": {"android": "https://dc.lft.to/lastmile_qr_scan", "ios": "https://dc.lft.to/lastmile_qr_scan"}, "name": "dee7d8e76dee6135354a05293a6b957d", "is_reserved": 0}, {"is_disabled": 0, "fusion_lon": 0.0, "fusion_lat": 0.0, "lat": 38.91697166666667, "type": "electric_scooter", "lon": -77.02709966666667, "bike_id": "d793af3193f493cdb3b4ad1e866677f6", "rental_uris": {"android": "https://dc.lft.to/lastmile_qr_scan", "ios": "https://dc.lft.to/lastmile_qr_scan"}, "name": "d793af3193f493cdb3b4ad1e866677f6", "is_reserved": 0}, {"is_disabled": 0, "fusion_lon": 0.0, "fusion_lat": 0.0, "lat": 38.872810333333334, "type": "electric_scooter", "lon": -77.0098755, "bike_id": "fc208a94e663b3ce8494242d65054803", "rental_uris": {"android": "https://dc.lft.to/lastmile_qr_scan", "ios": "https://dc.lft.to/lastmile_qr_scan"}, "name": "fc208a94e663b3ce8494242d65054803", "is_reserved": 0}, {"is_disabled": 0, "fusion_lon": 0.0, "fusion_lat": 0.0, "lat": 38.903764, "type": "electric_scooter", "lon": -77.04122566666666, "bike_id": "59a4062c267ff75d6ea23046bd0be3ab", "rental_uris": {"android": "https://dc.lft.to/lastmile_qr_scan", "ios": "https://dc.lft.to/lastmile_qr_scan"}, "name": "59a4062c267ff75d6ea23046bd0be3ab", "is_reserved": 0}, {"is_disabled": 0, "fusion_lon": 0.0, "fusion_lat": 0.0, "lat": 38.886837, "type": "electric_scooter", "lon": -77.01979083333333, "bike_id": "000aaa9c6d26c98785867bf21853daa2", "rental_uris": {"android": "https://dc.lft.to/lastmile_qr_scan", "ios": "https://dc.lft.to/lastmile_qr_scan"}, "name": "000aaa9c6d26c98785867bf21853daa2", "is_reserved": 0}, {"is_disabled": 0, "fusion_lon": 0.0, "fusion_lat": 0.0, "lat": 38.9432545, "type": "electric_scooter", "lon": -77.08587066666666, "bike_id": "1eda75bd9105e6d376bd280a65f3180c", "rental_uris": {"android": "https://dc.lft.to/lastmile_qr_scan", "ios": "https://dc.lft.to/lastmile_qr_scan"}, "name": "1eda75bd9105e6d376bd280a65f3180c", "is_reserved": 0}, {"is_disabled": 0, "fusion_lon": 0.0, "fusion_lat": 0.0, "lat": 38.884781333333336, "type": "electric_scooter", "lon": -76.92957666666666, "bike_id": "8396c6528ebd7f5b21586c4a17a326e9", "rental_uris": {"android": "https://dc.lft.to/lastmile_qr_scan", "ios": "https://dc.lft.to/lastmile_qr_scan"}, "name": "8396c6528ebd7f5b21586c4a17a326e9", "is_reserved": 0}, {"is_disabled": 0, "fusion_lon": 0.0, "fusion_lat": 0.0, "lat": 38.9098555, "type": "electric_scooter", "lon": -77.02204333333333, "bike_id": "9c6a4502cb5daa4340a4e32412b814b5", "rental_uris": {"android": "https://dc.lft.to/lastmile_qr_scan", "ios": "https://dc.lft.to/lastmile_qr_scan"}, "name": "9c6a4502cb5daa4340a4e32412b814b5", "is_reserved": 0}, {"is_disabled": 0, "fusion_lon": 0.0, "fusion_lat": 0.0, "lat": 38.962601, "type": "electric_scooter", "lon": -77.02770183333334, "bike_id": "c8a2724227d1f2e8e267e41be02b5839", "rental_uris": {"android": "https://dc.lft.to/lastmile_qr_scan", "ios": "https://dc.lft.to/lastmile_qr_scan"}, "name": "c8a2724227d1f2e8e267e41be02b5839", "is_reserved": 0}, {"is_disabled": 0, "fusion_lon": 0.0, "fusion_lat": 0.0, "lat": 38.8834695, "type": "electric_scooter", "lon": -76.9278865, "bike_id": "f9c1fdbfe85cd99530b7bb6477c3ad05", "rental_uris": {"android": "https://dc.lft.to/lastmile_qr_scan", "ios": "https://dc.lft.to/lastmile_qr_scan"}, "name": "f9c1fdbfe85cd99530b7bb6477c3ad05", "is_reserved": 0}, {"is_disabled": 0, "fusion_lon": 0.0, "fusion_lat": 0.0, "lat": 38.892584, "type": "electric_scooter", "lon": -76.941636, "bike_id": "35c520be276cf097e8a44618b250da21", "rental_uris": {"android": "https://dc.lft.to/lastmile_qr_scan", "ios": "https://dc.lft.to/lastmile_qr_scan"}, "name": "35c520be276cf097e8a44618b250da21", "is_reserved": 0}, {"is_disabled": 0, "fusion_lon": 0.0, "fusion_lat": 0.0, "lat": 38.916965166666664, "type": "electric_scooter", "lon": -77.026608, "bike_id": "2755504c48ceead7e04616cd8c8cdaad", "rental_uris": {"android": "https://dc.lft.to/lastmile_qr_scan", "ios": "https://dc.lft.to/lastmile_qr_scan"}, "name": "2755504c48ceead7e04616cd8c8cdaad", "is_reserved": 0}, {"is_disabled": 0, "fusion_lon": 0.0, "fusion_lat": 0.0, "lat": 38.913772, "type": "electric_scooter", "lon": -77.029721, "bike_id": "86c0003f2dbaf6d864d002a5f668d10f", "rental_uris": {"android": "https://dc.lft.to/lastmile_qr_scan", "ios": "https://dc.lft.to/lastmile_qr_scan"}, "name": "86c0003f2dbaf6d864d002a5f668d10f", "is_reserved": 0}, {"is_disabled": 0, "fusion_lon": 0.0, "fusion_lat": 0.0, "lat": 38.908141, "type": "electric_scooter", "lon": -77.033463, "bike_id": "87de5d97db38186de8180c17125150b6", "rental_uris": {"android": "https://dc.lft.to/lastmile_qr_scan", "ios": "https://dc.lft.to/lastmile_qr_scan"}, "name": "87de5d97db38186de8180c17125150b6", "is_reserved": 0}, {"is_disabled": 0, "fusion_lon": 0.0, "fusion_lat": 0.0, "lat": 38.927034, "type": "electric_scooter", "lon": -76.97210866666667, "bike_id": "36e5f8cd6723fd7d893e95bd7c46ed07", "rental_uris": {"android": "https://dc.lft.to/lastmile_qr_scan", "ios": "https://dc.lft.to/lastmile_qr_scan"}, "name": "36e5f8cd6723fd7d893e95bd7c46ed07", "is_reserved": 0}, {"is_disabled": 0, "fusion_lon": 0.0, "fusion_lat": 0.0, "lat": 38.929373, "type": "electric_scooter", "lon": -77.03277466666667, "bike_id": "ef2b281d07551aa423af4241c1493029", "rental_uris": {"android": "https://dc.lft.to/lastmile_qr_scan", "ios": "https://dc.lft.to/lastmile_qr_scan"}, "name": "ef2b281d07551aa423af4241c1493029", "is_reserved": 0}, {"is_disabled": 0, "fusion_lon": 0.0, "fusion_lat": 0.0, "lat": 38.831733666666665, "type": "electric_bike", "lon": -76.99749583333333, "bike_id": "179bf0b251b88d32705950a70ebbb9c6", "rental_uris": {"android": "https://dc.lft.to/lastmile_qr_scan", "ios": "https://dc.lft.to/lastmile_qr_scan"}, "name": "179bf0b251b88d32705950a70ebbb9c6", "is_reserved": 0}, {"is_disabled": 0, "fusion_lon": 0.0, "fusion_lat": 0.0, "lat": 38.906487166666665, "type": "electric_scooter", "lon": -77.02536233333333, "bike_id": "132bf793f721c949a1e6b793d82e5020", "rental_uris": {"android": "https://dc.lft.to/lastmile_qr_scan", "ios": "https://dc.lft.to/lastmile_qr_scan"}, "name": "132bf793f721c949a1e6b793d82e5020", "is_reserved": 0}, {"is_disabled": 0, "fusion_lon": 0.0, "fusion_lat": 0.0, "lat": 38.89497933333333, "type": "electric_scooter", "lon": -76.94880833333333, "bike_id": "aa0d186887bc3602628ec5e5b7bf67d9", "rental_uris": {"android": "https://dc.lft.to/lastmile_qr_scan", "ios": "https://dc.lft.to/lastmile_qr_scan"}, "name": "aa0d186887bc3602628ec5e5b7bf67d9", "is_reserved": 0}, {"is_disabled": 0, "fusion_lon": 0.0, "fusion_lat": 0.0, "lat": 38.9181305, "type": "electric_scooter", "lon": -77.027178, "bike_id": "51e20a4d63c7828351c3af1cf2e96550", "rental_uris": {"android": "https://dc.lft.to/lastmile_qr_scan", "ios": "https://dc.lft.to/lastmile_qr_scan"}, "name": "51e20a4d63c7828351c3af1cf2e96550", "is_reserved": 0}, {"is_disabled": 0, "fusion_lon": 0.0, "fusion_lat": 0.0, "lat": 38.89647133333333, "type": "electric_scooter", "lon": -77.0435705, "bike_id": "e748803ae9bb1381785e8ccf22f470a6", "rental_uris": {"android": "https://dc.lft.to/lastmile_qr_scan", "ios": "https://dc.lft.to/lastmile_qr_scan"}, "name": "e748803ae9bb1381785e8ccf22f470a6", "is_reserved": 0}, {"is_disabled": 0, "fusion_lon": 0.0, "fusion_lat": 0.0, "lat": 38.91842483333333, "type": "electric_scooter", "lon": -77.02590366666666, "bike_id": "87496e8b7b9d3899cecd0b848ee4572a", "rental_uris": {"android": "https://dc.lft.to/lastmile_qr_scan", "ios": "https://dc.lft.to/lastmile_qr_scan"}, "name": "87496e8b7b9d3899cecd0b848ee4572a", "is_reserved": 0}, {"is_disabled": 0, "fusion_lon": 0.0, "fusion_lat": 0.0, "lat": 38.911299666666665, "type": "electric_scooter", "lon": -77.02189683333333, "bike_id": "a4595b87b413b8ed021c2b24e4fee912", "rental_uris": {"android": "https://dc.lft.to/lastmile_qr_scan", "ios": "https://dc.lft.to/lastmile_qr_scan"}, "name": "a4595b87b413b8ed021c2b24e4fee912", "is_reserved": 0}, {"is_disabled": 0, "fusion_lon": 0.0, "fusion_lat": 0.0, "lat": 38.9180375, "type": "electric_scooter", "lon": -77.034371, "bike_id": "4f840729b75bc836d7d52bca272c8d0c", "rental_uris": {"android": "https://dc.lft.to/lastmile_qr_scan", "ios": "https://dc.lft.to/lastmile_qr_scan"}, "name": "4f840729b75bc836d7d52bca272c8d0c", "is_reserved": 0}, {"is_disabled": 0, "fusion_lon": 0.0, "fusion_lat": 0.0, "lat": 38.90113566666667, "type": "electric_scooter", "lon": -77.00237266666667, "bike_id": "a86a0073087cb642e73ac294ff6b9345", "rental_uris": {"android": "https://dc.lft.to/lastmile_qr_scan", "ios": "https://dc.lft.to/lastmile_qr_scan"}, "name": "a86a0073087cb642e73ac294ff6b9345", "is_reserved": 0}, {"is_disabled": 0, "fusion_lon": 0.0, "fusion_lat": 0.0, "lat": 38.931196666666665, "type": "electric_scooter", "lon": -77.05707883333334, "bike_id": "37ee16a151f55f3b5a6a7221aa4e940e", "rental_uris": {"android": "https://dc.lft.to/lastmile_qr_scan", "ios": "https://dc.lft.to/lastmile_qr_scan"}, "name": "37ee16a151f55f3b5a6a7221aa4e940e", "is_reserved": 0}, {"is_disabled": 0, "fusion_lon": 0.0, "fusion_lat": 0.0, "lat": 38.89363316666667, "type": "electric_scooter", "lon": -77.02265716666666, "bike_id": "1df7dff20275e07f59e8ed548b80293f", "rental_uris": {"android": "https://dc.lft.to/lastmile_qr_scan", "ios": "https://dc.lft.to/lastmile_qr_scan"}, "name": "1df7dff20275e07f59e8ed548b80293f", "is_reserved": 0}, {"is_disabled": 0, "fusion_lon": 0.0, "fusion_lat": 0.0, "lat": 38.935291, "type": "electric_scooter", "lon": -77.023795, "bike_id": "aae1e93b0bf90e49fbd7015c8d00b7d2", "rental_uris": {"android": "https://dc.lft.to/lastmile_qr_scan", "ios": "https://dc.lft.to/lastmile_qr_scan"}, "name": "aae1e93b0bf90e49fbd7015c8d00b7d2", "is_reserved": 0}, {"is_disabled": 0, "fusion_lon": 0.0, "fusion_lat": 0.0, "lat": 38.82726866666667, "type": "electric_bike", "lon": -77.00867516666666, "bike_id": "e35f2ec032869fa4c5a545194258eb77", "rental_uris": {"android": "https://dc.lft.to/lastmile_qr_scan", "ios": "https://dc.lft.to/lastmile_qr_scan"}, "name": "e35f2ec032869fa4c5a545194258eb77", "is_reserved": 0}, {"is_disabled": 0, "fusion_lon": 0.0, "fusion_lat": 0.0, "lat": 38.887004833333336, "type": "electric_scooter", "lon": -76.95366833333334, "bike_id": "a2adf81162afc8bfe62c70938291ba2d", "rental_uris": {"android": "https://dc.lft.to/lastmile_qr_scan", "ios": "https://dc.lft.to/lastmile_qr_scan"}, "name": "a2adf81162afc8bfe62c70938291ba2d", "is_reserved": 0}, {"is_disabled": 0, "fusion_lon": 0.0, "fusion_lat": 0.0, "lat": 38.91412666666667, "type": "electric_scooter", "lon": -77.0425145, "bike_id": "34a7eec552b69a0e79dd31ea90bb6a98", "rental_uris": {"android": "https://dc.lft.to/lastmile_qr_scan", "ios": "https://dc.lft.to/lastmile_qr_scan"}, "name": "34a7eec552b69a0e79dd31ea90bb6a98", "is_reserved": 0}, {"is_disabled": 0, "fusion_lon": 0.0, "fusion_lat": 0.0, "lat": 38.9138095, "type": "electric_scooter", "lon": -77.02971633333334, "bike_id": "b85fa72edf78a986dc6bc8c2ef932b3d", "rental_uris": {"android": "https://dc.lft.to/lastmile_qr_scan", "ios": "https://dc.lft.to/lastmile_qr_scan"}, "name": "b85fa72edf78a986dc6bc8c2ef932b3d", "is_reserved": 0}, {"is_disabled": 0, "fusion_lon": 0.0, "fusion_lat": 0.0, "lat": 38.916365166666665, "type": "electric_scooter", "lon": -77.04156716666667, "bike_id": "5fc92245671527b18775533c8eaade40", "rental_uris": {"android": "https://dc.lft.to/lastmile_qr_scan", "ios": "https://dc.lft.to/lastmile_qr_scan"}, "name": "5fc92245671527b18775533c8eaade40", "is_reserved": 0}, {"is_disabled": 0, "fusion_lon": 0.0, "fusion_lat": 0.0, "lat": 38.842896333333336, "type": "electric_scooter", "lon": -76.99947666666667, "bike_id": "f7bc760e2678653501c2518577f7b182", "rental_uris": {"android": "https://dc.lft.to/lastmile_qr_scan", "ios": "https://dc.lft.to/lastmile_qr_scan"}, "name": "f7bc760e2678653501c2518577f7b182", "is_reserved": 0}, {"is_disabled": 0, "fusion_lon": 0.0, "fusion_lat": 0.0, "lat": 38.921250666666666, "type": "electric_scooter", "lon": -76.99578383333333, "bike_id": "313b02ca69e67cf50291066357c0d5ef", "rental_uris": {"android": "https://dc.lft.to/lastmile_qr_scan", "ios": "https://dc.lft.to/lastmile_qr_scan"}, "name": "313b02ca69e67cf50291066357c0d5ef", "is_reserved": 0}, {"is_disabled": 0, "fusion_lon": 0.0, "fusion_lat": 0.0, "lat": 38.90381083333333, "type": "electric_scooter", "lon": -77.0184275, "bike_id": "cd561f3ce4d164caf3237475131bfb32", "rental_uris": {"android": "https://dc.lft.to/lastmile_qr_scan", "ios": "https://dc.lft.to/lastmile_qr_scan"}, "name": "cd561f3ce4d164caf3237475131bfb32", "is_reserved": 0}, {"is_disabled": 0, "fusion_lon": 0.0, "fusion_lat": 0.0, "lat": 38.90144933333333, "type": "electric_scooter", "lon": -77.03987116666667, "bike_id": "adbf4d78935371fe67dcdf7498702944", "rental_uris": {"android": "https://dc.lft.to/lastmile_qr_scan", "ios": "https://dc.lft.to/lastmile_qr_scan"}, "name": "adbf4d78935371fe67dcdf7498702944", "is_reserved": 0}, {"is_disabled": 0, "fusion_lon": 0.0, "fusion_lat": 0.0, "lat": 38.90052033333333, "type": "electric_scooter", "lon": -76.986838, "bike_id": "267d7dcb5b22310a52e90a926102f619", "rental_uris": {"android": "https://dc.lft.to/lastmile_qr_scan", "ios": "https://dc.lft.to/lastmile_qr_scan"}, "name": "267d7dcb5b22310a52e90a926102f619", "is_reserved": 0}, {"is_disabled": 0, "fusion_lon": 0.0, "fusion_lat": 0.0, "lat": 38.90837166666667, "type": "electric_scooter", "lon": -77.04873533333334, "bike_id": "a03ae68c6cdf6299003cb983be139fed", "rental_uris": {"android": "https://dc.lft.to/lastmile_qr_scan", "ios": "https://dc.lft.to/lastmile_qr_scan"}, "name": "a03ae68c6cdf6299003cb983be139fed", "is_reserved": 0}, {"is_disabled": 0, "fusion_lon": 0.0, "fusion_lat": 0.0, "lat": 38.903459166666664, "type": "electric_scooter", "lon": -77.0289725, "bike_id": "112b7ec9f52ce075d6834d5fc5b5860d", "rental_uris": {"android": "https://dc.lft.to/lastmile_qr_scan", "ios": "https://dc.lft.to/lastmile_qr_scan"}, "name": "112b7ec9f52ce075d6834d5fc5b5860d", "is_reserved": 0}, {"is_disabled": 0, "fusion_lon": 0.0, "fusion_lat": 0.0, "lat": 38.89733783333333, "type": "electric_scooter", "lon": -77.04769266666666, "bike_id": "8eeafcc6ebd5bd10b7342f39814d9a75", "rental_uris": {"android": "https://dc.lft.to/lastmile_qr_scan", "ios": "https://dc.lft.to/lastmile_qr_scan"}, "name": "8eeafcc6ebd5bd10b7342f39814d9a75", "is_reserved": 0}, {"is_disabled": 0, "fusion_lon": 0.0, "fusion_lat": 0.0, "lat": 38.9096995, "type": "electric_scooter", "lon": -77.0416405, "bike_id": "2491539b04beaa05a3f6e1e8c3b5eeb8", "rental_uris": {"android": "https://dc.lft.to/lastmile_qr_scan", "ios": "https://dc.lft.to/lastmile_qr_scan"}, "name": "2491539b04beaa05a3f6e1e8c3b5eeb8", "is_reserved": 0}, {"is_disabled": 0, "fusion_lon": 0.0, "fusion_lat": 0.0, "lat": 38.92958383333333, "type": "electric_scooter", "lon": -77.02320666666667, "bike_id": "038e99a847f2a3d2ece5abfef2605b8d", "rental_uris": {"android": "https://dc.lft.to/lastmile_qr_scan", "ios": "https://dc.lft.to/lastmile_qr_scan"}, "name": "038e99a847f2a3d2ece5abfef2605b8d", "is_reserved": 0}, {"is_disabled": 0, "fusion_lon": 0.0, "fusion_lat": 0.0, "lat": 38.9655765, "type": "electric_bike", "lon": -77.02303466666666, "bike_id": "ccbbf93f22e04a9d2039a08dabf3465a", "rental_uris": {"android": "https://dc.lft.to/lastmile_qr_scan", "ios": "https://dc.lft.to/lastmile_qr_scan"}, "name": "ccbbf93f22e04a9d2039a08dabf3465a", "is_reserved": 0}, {"is_disabled": 0, "fusion_lon": 0.0, "fusion_lat": 0.0, "lat": 38.89408733333333, "type": "electric_scooter", "lon": -77.021544, "bike_id": "d79039c8e8a54b5a8f2cf927084e4787", "rental_uris": {"android": "https://dc.lft.to/lastmile_qr_scan", "ios": "https://dc.lft.to/lastmile_qr_scan"}, "name": "d79039c8e8a54b5a8f2cf927084e4787", "is_reserved": 0}, {"is_disabled": 0, "fusion_lon": 0.0, "fusion_lat": 0.0, "lat": 39.003734333333334, "type": "electric_bike", "lon": -77.01294083333333, "bike_id": "15e16f9842feb7b4a97190643c14aebd", "rental_uris": {"android": "https://dc.lft.to/lastmile_qr_scan", "ios": "https://dc.lft.to/lastmile_qr_scan"}, "name": "15e16f9842feb7b4a97190643c14aebd", "is_reserved": 0}, {"is_disabled": 0, "fusion_lon": 0.0, "fusion_lat": 0.0, "lat": 38.923097166666665, "type": "electric_scooter", "lon": -77.03107683333333, "bike_id": "3a652264f06e8356a7ef15cad95774a7", "rental_uris": {"android": "https://dc.lft.to/lastmile_qr_scan", "ios": "https://dc.lft.to/lastmile_qr_scan"}, "name": "3a652264f06e8356a7ef15cad95774a7", "is_reserved": 0}, {"is_disabled": 0, "fusion_lon": 0.0, "fusion_lat": 0.0, "lat": 38.90145033333334, "type": "electric_scooter", "lon": -77.039739, "bike_id": "3915cdc24f743663eadf2e1b317cdd26", "rental_uris": {"android": "https://dc.lft.to/lastmile_qr_scan", "ios": "https://dc.lft.to/lastmile_qr_scan"}, "name": "3915cdc24f743663eadf2e1b317cdd26", "is_reserved": 0}, {"is_disabled": 0, "fusion_lon": 0.0, "fusion_lat": 0.0, "lat": 38.90713083333333, "type": "electric_scooter", "lon": -77.0271245, "bike_id": "65899b381061a4f0db1028ba73e8ea43", "rental_uris": {"android": "https://dc.lft.to/lastmile_qr_scan", "ios": "https://dc.lft.to/lastmile_qr_scan"}, "name": "65899b381061a4f0db1028ba73e8ea43", "is_reserved": 0}, {"is_disabled": 0, "fusion_lon": 0.0, "fusion_lat": 0.0, "lat": 38.90183783333333, "type": "electric_scooter", "lon": -77.05026983333333, "bike_id": "4c0583e59b2f47bca0ea5281027e1471", "rental_uris": {"android": "https://dc.lft.to/lastmile_qr_scan", "ios": "https://dc.lft.to/lastmile_qr_scan"}, "name": "4c0583e59b2f47bca0ea5281027e1471", "is_reserved": 0}, {"is_disabled": 0, "fusion_lon": 0.0, "fusion_lat": 0.0, "lat": 38.95776133333333, "type": "electric_scooter", "lon": -77.027968, "bike_id": "4ea8b3a0ec536b73dd66472bce0b01f7", "rental_uris": {"android": "https://dc.lft.to/lastmile_qr_scan", "ios": "https://dc.lft.to/lastmile_qr_scan"}, "name": "4ea8b3a0ec536b73dd66472bce0b01f7", "is_reserved": 0}, {"is_disabled": 0, "fusion_lon": 0.0, "fusion_lat": 0.0, "lat": 38.92455733333333, "type": "electric_scooter", "lon": -77.02158966666667, "bike_id": "3ef587ac0b553e7655ce8e86a1f1d927", "rental_uris": {"android": "https://dc.lft.to/lastmile_qr_scan", "ios": "https://dc.lft.to/lastmile_qr_scan"}, "name": "3ef587ac0b553e7655ce8e86a1f1d927", "is_reserved": 0}, {"is_disabled": 0, "fusion_lon": 0.0, "fusion_lat": 0.0, "lat": 38.9123305, "type": "electric_scooter", "lon": -76.98448616666667, "bike_id": "285886517d29e7d425db43f65f32d8cc", "rental_uris": {"android": "https://dc.lft.to/lastmile_qr_scan", "ios": "https://dc.lft.to/lastmile_qr_scan"}, "name": "285886517d29e7d425db43f65f32d8cc", "is_reserved": 0}, {"is_disabled": 0, "fusion_lon": 0.0, "fusion_lat": 0.0, "lat": 38.94921766666667, "type": "electric_scooter", "lon": -77.01854833333333, "bike_id": "d609f9a7a5aaa03e81c9c8956421d38d", "rental_uris": {"android": "https://dc.lft.to/lastmile_qr_scan", "ios": "https://dc.lft.to/lastmile_qr_scan"}, "name": "d609f9a7a5aaa03e81c9c8956421d38d", "is_reserved": 0}, {"is_disabled": 0, "fusion_lon": 0.0, "fusion_lat": 0.0, "lat": 38.92503633333333, "type": "electric_scooter", "lon": -76.98225766666667, "bike_id": "9d89b32224aa8fa5a92045bd429038a6", "rental_uris": {"android": "https://dc.lft.to/lastmile_qr_scan", "ios": "https://dc.lft.to/lastmile_qr_scan"}, "name": "9d89b32224aa8fa5a92045bd429038a6", "is_reserved": 0}, {"is_disabled": 0, "fusion_lon": 0.0, "fusion_lat": 0.0, "lat": 38.90720133333333, "type": "electric_scooter", "lon": -77.02483316666667, "bike_id": "d9ccb1c10ad208a6b2b46a6d47f83b6a", "rental_uris": {"android": "https://dc.lft.to/lastmile_qr_scan", "ios": "https://dc.lft.to/lastmile_qr_scan"}, "name": "d9ccb1c10ad208a6b2b46a6d47f83b6a", "is_reserved": 0}, {"is_disabled": 0, "fusion_lon": 0.0, "fusion_lat": 0.0, "lat": 38.9216855, "type": "electric_scooter", "lon": -77.05529716666666, "bike_id": "d411f42c4b0a0e0dbe78c1b4585cd4dc", "rental_uris": {"android": "https://dc.lft.to/lastmile_qr_scan", "ios": "https://dc.lft.to/lastmile_qr_scan"}, "name": "d411f42c4b0a0e0dbe78c1b4585cd4dc", "is_reserved": 0}, {"is_disabled": 0, "fusion_lon": 0.0, "fusion_lat": 0.0, "lat": 38.87092233333333, "type": "electric_bike", "lon": -77.01206933333333, "bike_id": "324d257a352336504ccde532044f4e02", "rental_uris": {"android": "https://dc.lft.to/lastmile_qr_scan", "ios": "https://dc.lft.to/lastmile_qr_scan"}, "name": "324d257a352336504ccde532044f4e02", "is_reserved": 0}, {"is_disabled": 0, "fusion_lon": 0.0, "fusion_lat": 0.0, "lat": 38.93063333333333, "type": "electric_scooter", "lon": -77.0394295, "bike_id": "ce73ec1d929e7d7f40e0fe37ecabb38b", "rental_uris": {"android": "https://dc.lft.to/lastmile_qr_scan", "ios": "https://dc.lft.to/lastmile_qr_scan"}, "name": "ce73ec1d929e7d7f40e0fe37ecabb38b", "is_reserved": 0}, {"is_disabled": 0, "fusion_lon": 0.0, "fusion_lat": 0.0, "lat": 38.893494, "type": "electric_scooter", "lon": -76.94945116666666, "bike_id": "62c39670a63d8a561dc7c0c342f553e9", "rental_uris": {"android": "https://dc.lft.to/lastmile_qr_scan", "ios": "https://dc.lft.to/lastmile_qr_scan"}, "name": "62c39670a63d8a561dc7c0c342f553e9", "is_reserved": 0}, {"is_disabled": 0, "fusion_lon": 0.0, "fusion_lat": 0.0, "lat": 38.8985095, "type": "electric_scooter", "lon": -77.03952316666667, "bike_id": "c08ed8f13540118ab5c9e35ee703d934", "rental_uris": {"android": "https://dc.lft.to/lastmile_qr_scan", "ios": "https://dc.lft.to/lastmile_qr_scan"}, "name": "c08ed8f13540118ab5c9e35ee703d934", "is_reserved": 0}, {"is_disabled": 0, "fusion_lon": 0.0, "fusion_lat": 0.0, "lat": 38.913048833333335, "type": "electric_scooter", "lon": -77.0318895, "bike_id": "8afbac3072aca675398b68ed3b2a11e3", "rental_uris": {"android": "https://dc.lft.to/lastmile_qr_scan", "ios": "https://dc.lft.to/lastmile_qr_scan"}, "name": "8afbac3072aca675398b68ed3b2a11e3", "is_reserved": 0}, {"is_disabled": 0, "fusion_lon": 0.0, "fusion_lat": 0.0, "lat": 38.9061755, "type": "electric_scooter", "lon": -77.03207666666667, "bike_id": "92ae5c935571727f854dc54601d41bd4", "rental_uris": {"android": "https://dc.lft.to/lastmile_qr_scan", "ios": "https://dc.lft.to/lastmile_qr_scan"}, "name": "92ae5c935571727f854dc54601d41bd4", "is_reserved": 0}, {"is_disabled": 0, "fusion_lon": 0.0, "fusion_lat": 0.0, "lat": 38.961170833333334, "type": "electric_scooter", "lon": -77.08506366666667, "bike_id": "efb90d75cbef50d4b046974d1938cabc", "rental_uris": {"android": "https://dc.lft.to/lastmile_qr_scan", "ios": "https://dc.lft.to/lastmile_qr_scan"}, "name": "efb90d75cbef50d4b046974d1938cabc", "is_reserved": 0}, {"is_disabled": 0, "fusion_lon": 0.0, "fusion_lat": 0.0, "lat": 38.937863, "type": "electric_scooter", "lon": -77.0188085, "bike_id": "840951bbf9607a9f1f25fa9f4c7d4062", "rental_uris": {"android": "https://dc.lft.to/lastmile_qr_scan", "ios": "https://dc.lft.to/lastmile_qr_scan"}, "name": "840951bbf9607a9f1f25fa9f4c7d4062", "is_reserved": 0}, {"is_disabled": 0, "fusion_lon": 0.0, "fusion_lat": 0.0, "lat": 38.88660133333333, "type": "electric_bike", "lon": -77.16234183333333, "bike_id": "e02a93927f041c69aa5f5dd45ba7a01d", "rental_uris": {"android": "https://dc.lft.to/lastmile_qr_scan", "ios": "https://dc.lft.to/lastmile_qr_scan"}, "name": "e02a93927f041c69aa5f5dd45ba7a01d", "is_reserved": 0}, {"is_disabled": 0, "fusion_lon": 0.0, "fusion_lat": 0.0, "lat": 38.90770083333334, "type": "electric_scooter", "lon": -77.03464133333334, "bike_id": "a38a5843ea46b2685b4186c66f15dd71", "rental_uris": {"android": "https://dc.lft.to/lastmile_qr_scan", "ios": "https://dc.lft.to/lastmile_qr_scan"}, "name": "a38a5843ea46b2685b4186c66f15dd71", "is_reserved": 0}, {"is_disabled": 0, "fusion_lon": 0.0, "fusion_lat": 0.0, "lat": 38.9221895, "type": "electric_scooter", "lon": -77.03294683333333, "bike_id": "1f7cf8d06bcf92c906c7364a323c0067", "rental_uris": {"android": "https://dc.lft.to/lastmile_qr_scan", "ios": "https://dc.lft.to/lastmile_qr_scan"}, "name": "1f7cf8d06bcf92c906c7364a323c0067", "is_reserved": 0}, {"is_disabled": 0, "fusion_lon": 0.0, "fusion_lat": 0.0, "lat": 38.908327, "type": "electric_scooter", "lon": -76.99693483333333, "bike_id": "4c0b15287dba1483d14dd1a4825bd6bd", "rental_uris": {"android": "https://dc.lft.to/lastmile_qr_scan", "ios": "https://dc.lft.to/lastmile_qr_scan"}, "name": "4c0b15287dba1483d14dd1a4825bd6bd", "is_reserved": 0}, {"is_disabled": 0, "fusion_lon": 0.0, "fusion_lat": 0.0, "lat": 38.887396, "type": "electric_scooter", "lon": -77.01544266666667, "bike_id": "c88f9865df5220adad2ecb49c39c6bc0", "rental_uris": {"android": "https://dc.lft.to/lastmile_qr_scan", "ios": "https://dc.lft.to/lastmile_qr_scan"}, "name": "c88f9865df5220adad2ecb49c39c6bc0", "is_reserved": 0}, {"is_disabled": 0, "fusion_lon": 0.0, "fusion_lat": 0.0, "lat": 38.94964433333333, "type": "electric_scooter", "lon": -77.06694933333333, "bike_id": "328398ef75d171813b1a99e9e0d34dc5", "rental_uris": {"android": "https://dc.lft.to/lastmile_qr_scan", "ios": "https://dc.lft.to/lastmile_qr_scan"}, "name": "328398ef75d171813b1a99e9e0d34dc5", "is_reserved": 0}, {"is_disabled": 0, "fusion_lon": 0.0, "fusion_lat": 0.0, "lat": 38.902021, "type": "electric_scooter", "lon": -77.02374233333333, "bike_id": "c2ddef7186c17de776bf2f218d3abaca", "rental_uris": {"android": "https://dc.lft.to/lastmile_qr_scan", "ios": "https://dc.lft.to/lastmile_qr_scan"}, "name": "c2ddef7186c17de776bf2f218d3abaca", "is_reserved": 0}, {"is_disabled": 0, "fusion_lon": 0.0, "fusion_lat": 0.0, "lat": 38.871841833333335, "type": "electric_bike", "lon": -77.00599966666667, "bike_id": "136a897cea1e21ca710d84fbef64f0b1", "rental_uris": {"android": "https://dc.lft.to/lastmile_qr_scan", "ios": "https://dc.lft.to/lastmile_qr_scan"}, "name": "136a897cea1e21ca710d84fbef64f0b1", "is_reserved": 0}, {"is_disabled": 0, "fusion_lon": 0.0, "fusion_lat": 0.0, "lat": 38.88732816666667, "type": "electric_scooter", "lon": -77.01612966666667, "bike_id": "246986689f2503ae960645056da4c245", "rental_uris": {"android": "https://dc.lft.to/lastmile_qr_scan", "ios": "https://dc.lft.to/lastmile_qr_scan"}, "name": "246986689f2503ae960645056da4c245", "is_reserved": 0}, {"is_disabled": 0, "fusion_lon": 0.0, "fusion_lat": 0.0, "lat": 38.877562833333336, "type": "electric_bike", "lon": -76.99524433333333, "bike_id": "280b58ee30e9fd2708072d0c1c7d35a9", "rental_uris": {"android": "https://dc.lft.to/lastmile_qr_scan", "ios": "https://dc.lft.to/lastmile_qr_scan"}, "name": "280b58ee30e9fd2708072d0c1c7d35a9", "is_reserved": 0}, {"is_disabled": 0, "fusion_lon": 0.0, "fusion_lat": 0.0, "lat": 38.92247966666667, "type": "electric_scooter", "lon": -77.04133483333334, "bike_id": "79ccb3620010c2d2b3bf3e9ae88c64e0", "rental_uris": {"android": "https://dc.lft.to/lastmile_qr_scan", "ios": "https://dc.lft.to/lastmile_qr_scan"}, "name": "79ccb3620010c2d2b3bf3e9ae88c64e0", "is_reserved": 0}, {"is_disabled": 0, "fusion_lon": 0.0, "fusion_lat": 0.0, "lat": 38.91142266666667, "type": "electric_scooter", "lon": -77.04495, "bike_id": "5777ece74d02b4025850ec3c47838d14", "rental_uris": {"android": "https://dc.lft.to/lastmile_qr_scan", "ios": "https://dc.lft.to/lastmile_qr_scan"}, "name": "5777ece74d02b4025850ec3c47838d14", "is_reserved": 0}, {"is_disabled": 0, "fusion_lon": 0.0, "fusion_lat": 0.0, "lat": 38.911085666666665, "type": "electric_scooter", "lon": -77.0472415, "bike_id": "47046e2e732ad117c1f9a249ed85b171", "rental_uris": {"android": "https://dc.lft.to/lastmile_qr_scan", "ios": "https://dc.lft.to/lastmile_qr_scan"}, "name": "47046e2e732ad117c1f9a249ed85b171", "is_reserved": 0}, {"is_disabled": 0, "fusion_lon": 0.0, "fusion_lat": 0.0, "lat": 38.918159833333334, "type": "electric_scooter", "lon": -77.02531, "bike_id": "8efafff00b5c782bf894c55fbe89571e", "rental_uris": {"android": "https://dc.lft.to/lastmile_qr_scan", "ios": "https://dc.lft.to/lastmile_qr_scan"}, "name": "8efafff00b5c782bf894c55fbe89571e", "is_reserved": 0}, {"is_disabled": 0, "fusion_lon": 0.0, "fusion_lat": 0.0, "lat": 38.92860433333333, "type": "electric_scooter", "lon": -77.036065, "bike_id": "1b81cb49e93e266adb671666b4f229c4", "rental_uris": {"android": "https://dc.lft.to/lastmile_qr_scan", "ios": "https://dc.lft.to/lastmile_qr_scan"}, "name": "1b81cb49e93e266adb671666b4f229c4", "is_reserved": 0}, {"is_disabled": 0, "fusion_lon": 0.0, "fusion_lat": 0.0, "lat": 38.920297166666664, "type": "electric_scooter", "lon": -77.025901, "bike_id": "3447edc847594ede4f84e876f6c30109", "rental_uris": {"android": "https://dc.lft.to/lastmile_qr_scan", "ios": "https://dc.lft.to/lastmile_qr_scan"}, "name": "3447edc847594ede4f84e876f6c30109", "is_reserved": 0}, {"is_disabled": 0, "fusion_lon": 0.0, "fusion_lat": 0.0, "lat": 38.85908466666667, "type": "electric_scooter", "lon": -76.98787833333333, "bike_id": "96a6ba0fd5b0bdf8d9c157c32461919c", "rental_uris": {"android": "https://dc.lft.to/lastmile_qr_scan", "ios": "https://dc.lft.to/lastmile_qr_scan"}, "name": "96a6ba0fd5b0bdf8d9c157c32461919c", "is_reserved": 0}, {"is_disabled": 0, "fusion_lon": 0.0, "fusion_lat": 0.0, "lat": 38.926024, "type": "electric_scooter", "lon": -77.02154483333334, "bike_id": "79f66087d2b72e144190f4b1f7d5a172", "rental_uris": {"android": "https://dc.lft.to/lastmile_qr_scan", "ios": "https://dc.lft.to/lastmile_qr_scan"}, "name": "79f66087d2b72e144190f4b1f7d5a172", "is_reserved": 0}, {"is_disabled": 0, "fusion_lon": 0.0, "fusion_lat": 0.0, "lat": 38.908312, "type": "electric_scooter", "lon": -77.00375, "bike_id": "3a673334c46cbd6de0aaa0023d479b4b", "rental_uris": {"android": "https://dc.lft.to/lastmile_qr_scan", "ios": "https://dc.lft.to/lastmile_qr_scan"}, "name": "3a673334c46cbd6de0aaa0023d479b4b", "is_reserved": 0}, {"is_disabled": 0, "fusion_lon": 0.0, "fusion_lat": 0.0, "lat": 38.929712, "type": "electric_scooter", "lon": -77.03473416666667, "bike_id": "816a9fc75e1081b8a737e758dd63511c", "rental_uris": {"android": "https://dc.lft.to/lastmile_qr_scan", "ios": "https://dc.lft.to/lastmile_qr_scan"}, "name": "816a9fc75e1081b8a737e758dd63511c", "is_reserved": 0}, {"is_disabled": 0, "fusion_lon": 0.0, "fusion_lat": 0.0, "lat": 38.8973365, "type": "electric_scooter", "lon": -77.0259585, "bike_id": "d8f92727653d004a9f1d46d60f56d94d", "rental_uris": {"android": "https://dc.lft.to/lastmile_qr_scan", "ios": "https://dc.lft.to/lastmile_qr_scan"}, "name": "d8f92727653d004a9f1d46d60f56d94d", "is_reserved": 0}, {"is_disabled": 0, "fusion_lon": 0.0, "fusion_lat": 0.0, "lat": 38.928616, "type": "electric_scooter", "lon": -77.0141385, "bike_id": "eaf40eb1d0ad243e800d83d204a67b26", "rental_uris": {"android": "https://dc.lft.to/lastmile_qr_scan", "ios": "https://dc.lft.to/lastmile_qr_scan"}, "name": "eaf40eb1d0ad243e800d83d204a67b26", "is_reserved": 0}, {"is_disabled": 0, "fusion_lon": 0.0, "fusion_lat": 0.0, "lat": 38.99056733333333, "type": "electric_bike", "lon": -77.100289, "bike_id": "104bac10903bc3fcf8cf4cc241fcf577", "rental_uris": {"android": "https://dc.lft.to/lastmile_qr_scan", "ios": "https://dc.lft.to/lastmile_qr_scan"}, "name": "104bac10903bc3fcf8cf4cc241fcf577", "is_reserved": 0}, {"is_disabled": 0, "fusion_lon": 0.0, "fusion_lat": 0.0, "lat": 38.909737666666665, "type": "electric_scooter", "lon": -77.0676385, "bike_id": "c21f6dbe11c2a05e8fbab2dd89ba7ae3", "rental_uris": {"android": "https://dc.lft.to/lastmile_qr_scan", "ios": "https://dc.lft.to/lastmile_qr_scan"}, "name": "c21f6dbe11c2a05e8fbab2dd89ba7ae3", "is_reserved": 0}, {"is_disabled": 0, "fusion_lon": 0.0, "fusion_lat": 0.0, "lat": 38.9096545, "type": "electric_scooter", "lon": -77.0318095, "bike_id": "4e631914d82126a2e8287efde85b5b5a", "rental_uris": {"android": "https://dc.lft.to/lastmile_qr_scan", "ios": "https://dc.lft.to/lastmile_qr_scan"}, "name": "4e631914d82126a2e8287efde85b5b5a", "is_reserved": 0}, {"is_disabled": 0, "fusion_lon": 0.0, "fusion_lat": 0.0, "lat": 38.920901666666666, "type": "electric_scooter", "lon": -77.000654, "bike_id": "341b57fa9a3a3b3996709082e914b913", "rental_uris": {"android": "https://dc.lft.to/lastmile_qr_scan", "ios": "https://dc.lft.to/lastmile_qr_scan"}, "name": "341b57fa9a3a3b3996709082e914b913", "is_reserved": 0}, {"is_disabled": 0, "fusion_lon": 0.0, "fusion_lat": 0.0, "lat": 38.87610883333333, "type": "electric_scooter", "lon": -76.96543416666667, "bike_id": "d53b56cddd4014e482a7c34e5bfd1d7f", "rental_uris": {"android": "https://dc.lft.to/lastmile_qr_scan", "ios": "https://dc.lft.to/lastmile_qr_scan"}, "name": "d53b56cddd4014e482a7c34e5bfd1d7f", "is_reserved": 0}, {"is_disabled": 0, "fusion_lon": 0.0, "fusion_lat": 0.0, "lat": 38.99088533333333, "type": "electric_bike", "lon": -76.87497633333334, "bike_id": "d99469c874c25fe4e2590cef28660fbf", "rental_uris": {"android": "https://dc.lft.to/lastmile_qr_scan", "ios": "https://dc.lft.to/lastmile_qr_scan"}, "name": "d99469c874c25fe4e2590cef28660fbf", "is_reserved": 0}, {"is_disabled": 0, "fusion_lon": 0.0, "fusion_lat": 0.0, "lat": 38.9096565, "type": "electric_scooter", "lon": -77.04699083333334, "bike_id": "52de1858c03655d30f2c7be3ea603a21", "rental_uris": {"android": "https://dc.lft.to/lastmile_qr_scan", "ios": "https://dc.lft.to/lastmile_qr_scan"}, "name": "52de1858c03655d30f2c7be3ea603a21", "is_reserved": 0}, {"is_disabled": 0, "fusion_lon": 0.0, "fusion_lat": 0.0, "lat": 38.896688, "type": "electric_scooter", "lon": -77.0517085, "bike_id": "6dc74fc766f09ba7f841e518e6871b1b", "rental_uris": {"android": "https://dc.lft.to/lastmile_qr_scan", "ios": "https://dc.lft.to/lastmile_qr_scan"}, "name": "6dc74fc766f09ba7f841e518e6871b1b", "is_reserved": 0}, {"is_disabled": 0, "fusion_lon": 0.0, "fusion_lat": 0.0, "lat": 38.88592933333334, "type": "electric_scooter", "lon": -77.01991433333333, "bike_id": "0f5654810354179702f93805fc828c4c", "rental_uris": {"android": "https://dc.lft.to/lastmile_qr_scan", "ios": "https://dc.lft.to/lastmile_qr_scan"}, "name": "0f5654810354179702f93805fc828c4c", "is_reserved": 0}, {"is_disabled": 0, "fusion_lon": 0.0, "fusion_lat": 0.0, "lat": 38.92209583333333, "type": "electric_scooter", "lon": -77.042625, "bike_id": "e38f8e334245f1cbcbc0bec02f350319", "rental_uris": {"android": "https://dc.lft.to/lastmile_qr_scan", "ios": "https://dc.lft.to/lastmile_qr_scan"}, "name": "e38f8e334245f1cbcbc0bec02f350319", "is_reserved": 0}, {"is_disabled": 0, "fusion_lon": 0.0, "fusion_lat": 0.0, "lat": 38.845147833333336, "type": "electric_bike", "lon": -76.97211633333333, "bike_id": "b91522e086298c5856b0fc1791fff761", "rental_uris": {"android": "https://dc.lft.to/lastmile_qr_scan", "ios": "https://dc.lft.to/lastmile_qr_scan"}, "name": "b91522e086298c5856b0fc1791fff761", "is_reserved": 0}, {"is_disabled": 0, "fusion_lon": 0.0, "fusion_lat": 0.0, "lat": 38.90602233333333, "type": "electric_scooter", "lon": -77.0466425, "bike_id": "7caa7040a5ace3c04b7fd6d1df781d4b", "rental_uris": {"android": "https://dc.lft.to/lastmile_qr_scan", "ios": "https://dc.lft.to/lastmile_qr_scan"}, "name": "7caa7040a5ace3c04b7fd6d1df781d4b", "is_reserved": 0}, {"is_disabled": 0, "fusion_lon": 0.0, "fusion_lat": 0.0, "lat": 38.936251, "type": "electric_scooter", "lon": -77.02465816666667, "bike_id": "451e602aef439b2fce3cd0e86f40954e", "rental_uris": {"android": "https://dc.lft.to/lastmile_qr_scan", "ios": "https://dc.lft.to/lastmile_qr_scan"}, "name": "451e602aef439b2fce3cd0e86f40954e", "is_reserved": 0}, {"is_disabled": 0, "fusion_lon": 0.0, "fusion_lat": 0.0, "lat": 38.907051, "type": "electric_scooter", "lon": -77.02713733333333, "bike_id": "47f08e96c46c78abcd5112d3513fa4fa", "rental_uris": {"android": "https://dc.lft.to/lastmile_qr_scan", "ios": "https://dc.lft.to/lastmile_qr_scan"}, "name": "47f08e96c46c78abcd5112d3513fa4fa", "is_reserved": 0}, {"is_disabled": 0, "fusion_lon": 0.0, "fusion_lat": 0.0, "lat": 38.939650666666665, "type": "electric_scooter", "lon": -77.0325885, "bike_id": "2d62fdb046f8b8d53a0700ead8b563a9", "rental_uris": {"android": "https://dc.lft.to/lastmile_qr_scan", "ios": "https://dc.lft.to/lastmile_qr_scan"}, "name": "2d62fdb046f8b8d53a0700ead8b563a9", "is_reserved": 0}, {"is_disabled": 0, "fusion_lon": 0.0, "fusion_lat": 0.0, "lat": 38.90451483333333, "type": "electric_scooter", "lon": -77.02970583333334, "bike_id": "57bcdc86824043b2c82839d50a238145", "rental_uris": {"android": "https://dc.lft.to/lastmile_qr_scan", "ios": "https://dc.lft.to/lastmile_qr_scan"}, "name": "57bcdc86824043b2c82839d50a238145", "is_reserved": 0}, {"is_disabled": 0, "fusion_lon": 0.0, "fusion_lat": 0.0, "lat": 38.85868466666667, "type": "electric_scooter", "lon": -76.99024883333334, "bike_id": "3e1bb554f4192247c3b91ae64780c557", "rental_uris": {"android": "https://dc.lft.to/lastmile_qr_scan", "ios": "https://dc.lft.to/lastmile_qr_scan"}, "name": "3e1bb554f4192247c3b91ae64780c557", "is_reserved": 0}, {"is_disabled": 0, "fusion_lon": 0.0, "fusion_lat": 0.0, "lat": 38.915933, "type": "electric_scooter", "lon": -77.02350516666667, "bike_id": "d85586dc1340b95b186dba58762994d5", "rental_uris": {"android": "https://dc.lft.to/lastmile_qr_scan", "ios": "https://dc.lft.to/lastmile_qr_scan"}, "name": "d85586dc1340b95b186dba58762994d5", "is_reserved": 0}, {"is_disabled": 0, "fusion_lon": 0.0, "fusion_lat": 0.0, "lat": 38.863391166666666, "type": "electric_scooter", "lon": -76.98263333333334, "bike_id": "523b007e10598cdf52df34d6e63a7255", "rental_uris": {"android": "https://dc.lft.to/lastmile_qr_scan", "ios": "https://dc.lft.to/lastmile_qr_scan"}, "name": "523b007e10598cdf52df34d6e63a7255", "is_reserved": 0}, {"is_disabled": 0, "fusion_lon": 0.0, "fusion_lat": 0.0, "lat": 38.919106666666664, "type": "electric_scooter", "lon": -77.04809933333334, "bike_id": "78849114a23b5bc3b22976d7e911d69a", "rental_uris": {"android": "https://dc.lft.to/lastmile_qr_scan", "ios": "https://dc.lft.to/lastmile_qr_scan"}, "name": "78849114a23b5bc3b22976d7e911d69a", "is_reserved": 0}, {"is_disabled": 0, "fusion_lon": 0.0, "fusion_lat": 0.0, "lat": 38.9202735, "type": "electric_scooter", "lon": -77.02589333333333, "bike_id": "994ed046c5b9590e903938512a79c172", "rental_uris": {"android": "https://dc.lft.to/lastmile_qr_scan", "ios": "https://dc.lft.to/lastmile_qr_scan"}, "name": "994ed046c5b9590e903938512a79c172", "is_reserved": 0}, {"is_disabled": 0, "fusion_lon": 0.0, "fusion_lat": 0.0, "lat": 38.898167666666666, "type": "electric_scooter", "lon": -77.04343066666667, "bike_id": "12c49dd3f10a627587949ca06d699c13", "rental_uris": {"android": "https://dc.lft.to/lastmile_qr_scan", "ios": "https://dc.lft.to/lastmile_qr_scan"}, "name": "12c49dd3f10a627587949ca06d699c13", "is_reserved": 0}, {"is_disabled": 0, "fusion_lon": 0.0, "fusion_lat": 0.0, "lat": 38.9261645, "type": "electric_scooter", "lon": -77.0419385, "bike_id": "b440e47379b2cba85c2903eb6bb420c0", "rental_uris": {"android": "https://dc.lft.to/lastmile_qr_scan", "ios": "https://dc.lft.to/lastmile_qr_scan"}, "name": "b440e47379b2cba85c2903eb6bb420c0", "is_reserved": 0}, {"is_disabled": 0, "fusion_lon": 0.0, "fusion_lat": 0.0, "lat": 38.9204755, "type": "electric_scooter", "lon": -77.03480216666667, "bike_id": "c84a3f22144e72c67da1158e20d138cb", "rental_uris": {"android": "https://dc.lft.to/lastmile_qr_scan", "ios": "https://dc.lft.to/lastmile_qr_scan"}, "name": "c84a3f22144e72c67da1158e20d138cb", "is_reserved": 0}, {"is_disabled": 0, "fusion_lon": 0.0, "fusion_lat": 0.0, "lat": 38.944135833333334, "type": "electric_scooter", "lon": -77.06057416666667, "bike_id": "b07d5484b9efbc9702aa967c8fd9346c", "rental_uris": {"android": "https://dc.lft.to/lastmile_qr_scan", "ios": "https://dc.lft.to/lastmile_qr_scan"}, "name": "b07d5484b9efbc9702aa967c8fd9346c", "is_reserved": 0}, {"is_disabled": 0, "fusion_lon": 0.0, "fusion_lat": 0.0, "lat": 38.9967115, "type": "electric_bike", "lon": -76.9914565, "bike_id": "05361e331fd9797fb074856ea97942a1", "rental_uris": {"android": "https://dc.lft.to/lastmile_qr_scan", "ios": "https://dc.lft.to/lastmile_qr_scan"}, "name": "05361e331fd9797fb074856ea97942a1", "is_reserved": 0}, {"is_disabled": 0, "fusion_lon": 0.0, "fusion_lat": 0.0, "lat": 38.9459065, "type": "electric_bike", "lon": -77.344168, "bike_id": "6d4056fb9e94a09d59d114ada0a6e59d", "rental_uris": {"android": "https://dc.lft.to/lastmile_qr_scan", "ios": "https://dc.lft.to/lastmile_qr_scan"}, "name": "6d4056fb9e94a09d59d114ada0a6e59d", "is_reserved": 0}, {"is_disabled": 0, "fusion_lon": 0.0, "fusion_lat": 0.0, "lat": 38.87747316666667, "type": "electric_scooter", "lon": -77.00585116666667, "bike_id": "9f6eb4f967ef1fcbb1feb276afe182af", "rental_uris": {"android": "https://dc.lft.to/lastmile_qr_scan", "ios": "https://dc.lft.to/lastmile_qr_scan"}, "name": "9f6eb4f967ef1fcbb1feb276afe182af", "is_reserved": 0}, {"is_disabled": 0, "fusion_lon": 0.0, "fusion_lat": 0.0, "lat": 39.054535666666666, "type": "electric_bike", "lon": -77.143255, "bike_id": "a65663bfc674af23e806ee374896cc75", "rental_uris": {"android": "https://dc.lft.to/lastmile_qr_scan", "ios": "https://dc.lft.to/lastmile_qr_scan"}, "name": "a65663bfc674af23e806ee374896cc75", "is_reserved": 0}, {"is_disabled": 0, "fusion_lon": 0.0, "fusion_lat": 0.0, "lat": 38.884417, "type": "electric_scooter", "lon": -77.029658, "bike_id": "d5abddbd03b943da444c5b3183ce511f", "rental_uris": {"android": "https://dc.lft.to/lastmile_qr_scan", "ios": "https://dc.lft.to/lastmile_qr_scan"}, "name": "d5abddbd03b943da444c5b3183ce511f", "is_reserved": 0}, {"is_disabled": 0, "fusion_lon": 0.0, "fusion_lat": 0.0, "lat": 38.894892666666664, "type": "electric_scooter", "lon": -77.00956233333334, "bike_id": "9a2644e970534ba630a22fcd5fb48e00", "rental_uris": {"android": "https://dc.lft.to/lastmile_qr_scan", "ios": "https://dc.lft.to/lastmile_qr_scan"}, "name": "9a2644e970534ba630a22fcd5fb48e00", "is_reserved": 0}, {"is_disabled": 0, "fusion_lon": 0.0, "fusion_lat": 0.0, "lat": 38.9212605, "type": "electric_scooter", "lon": -77.03514916666667, "bike_id": "8b80bcc159ecf3a17d22ce0d0447176f", "rental_uris": {"android": "https://dc.lft.to/lastmile_qr_scan", "ios": "https://dc.lft.to/lastmile_qr_scan"}, "name": "8b80bcc159ecf3a17d22ce0d0447176f", "is_reserved": 0}, {"is_disabled": 0, "fusion_lon": 0.0, "fusion_lat": 0.0, "lat": 38.905495333333334, "type": "electric_scooter", "lon": -76.98146566666667, "bike_id": "2c1fb3435a266e197d153f2378b05f51", "rental_uris": {"android": "https://dc.lft.to/lastmile_qr_scan", "ios": "https://dc.lft.to/lastmile_qr_scan"}, "name": "2c1fb3435a266e197d153f2378b05f51", "is_reserved": 0}, {"is_disabled": 0, "fusion_lon": 0.0, "fusion_lat": 0.0, "lat": 38.90962433333333, "type": "electric_scooter", "lon": -77.03259983333334, "bike_id": "4c6d3af59a507f06c38f16f7570243be", "rental_uris": {"android": "https://dc.lft.to/lastmile_qr_scan", "ios": "https://dc.lft.to/lastmile_qr_scan"}, "name": "4c6d3af59a507f06c38f16f7570243be", "is_reserved": 0}, {"is_disabled": 0, "fusion_lon": 0.0, "fusion_lat": 0.0, "lat": 38.893876, "type": "electric_scooter", "lon": -76.9499925, "bike_id": "18896a2f9fde793b3f5e3ae517b1b6b6", "rental_uris": {"android": "https://dc.lft.to/lastmile_qr_scan", "ios": "https://dc.lft.to/lastmile_qr_scan"}, "name": "18896a2f9fde793b3f5e3ae517b1b6b6", "is_reserved": 0}, {"is_disabled": 0, "fusion_lon": 0.0, "fusion_lat": 0.0, "lat": 38.91228533333334, "type": "electric_scooter", "lon": -77.04886866666666, "bike_id": "3a237c8a78082568deb2881958123faa", "rental_uris": {"android": "https://dc.lft.to/lastmile_qr_scan", "ios": "https://dc.lft.to/lastmile_qr_scan"}, "name": "3a237c8a78082568deb2881958123faa", "is_reserved": 0}, {"is_disabled": 0, "fusion_lon": 0.0, "fusion_lat": 0.0, "lat": 38.88742366666666, "type": "electric_scooter", "lon": -77.01434266666666, "bike_id": "f49febd519cb3c2a8effabafc2928855", "rental_uris": {"android": "https://dc.lft.to/lastmile_qr_scan", "ios": "https://dc.lft.to/lastmile_qr_scan"}, "name": "f49febd519cb3c2a8effabafc2928855", "is_reserved": 0}, {"is_disabled": 0, "fusion_lon": 0.0, "fusion_lat": 0.0, "lat": 38.8813815, "type": "electric_scooter", "lon": -77.02710216666667, "bike_id": "3767cc4fae3630e3fc576248d0c07695", "rental_uris": {"android": "https://dc.lft.to/lastmile_qr_scan", "ios": "https://dc.lft.to/lastmile_qr_scan"}, "name": "3767cc4fae3630e3fc576248d0c07695", "is_reserved": 0}, {"is_disabled": 0, "fusion_lon": 0.0, "fusion_lat": 0.0, "lat": 38.908386, "type": "electric_scooter", "lon": -77.02696316666666, "bike_id": "299490065153efd73d2abfb6ff42e1c6", "rental_uris": {"android": "https://dc.lft.to/lastmile_qr_scan", "ios": "https://dc.lft.to/lastmile_qr_scan"}, "name": "299490065153efd73d2abfb6ff42e1c6", "is_reserved": 0}, {"is_disabled": 0, "fusion_lon": 0.0, "fusion_lat": 0.0, "lat": 38.900191666666665, "type": "electric_scooter", "lon": -77.04332283333333, "bike_id": "e6355db8a3c91721a3326f85b526f23d", "rental_uris": {"android": "https://dc.lft.to/lastmile_qr_scan", "ios": "https://dc.lft.to/lastmile_qr_scan"}, "name": "e6355db8a3c91721a3326f85b526f23d", "is_reserved": 0}, {"is_disabled": 0, "fusion_lon": 0.0, "fusion_lat": 0.0, "lat": 38.933135166666666, "type": "electric_scooter", "lon": -77.02931783333334, "bike_id": "2ad899dceb05eede2aae5a711bbea2e5", "rental_uris": {"android": "https://dc.lft.to/lastmile_qr_scan", "ios": "https://dc.lft.to/lastmile_qr_scan"}, "name": "2ad899dceb05eede2aae5a711bbea2e5", "is_reserved": 0}, {"is_disabled": 0, "fusion_lon": 0.0, "fusion_lat": 0.0, "lat": 38.968268333333334, "type": "electric_scooter", "lon": -77.0151625, "bike_id": "06ee73c8de0c3a998bfb4de07e0b16c7", "rental_uris": {"android": "https://dc.lft.to/lastmile_qr_scan", "ios": "https://dc.lft.to/lastmile_qr_scan"}, "name": "06ee73c8de0c3a998bfb4de07e0b16c7", "is_reserved": 0}, {"is_disabled": 0, "fusion_lon": 0.0, "fusion_lat": 0.0, "lat": 38.91392666666667, "type": "electric_scooter", "lon": -77.0005155, "bike_id": "c518ad5f2e2c83d2b1baf0c673722593", "rental_uris": {"android": "https://dc.lft.to/lastmile_qr_scan", "ios": "https://dc.lft.to/lastmile_qr_scan"}, "name": "c518ad5f2e2c83d2b1baf0c673722593", "is_reserved": 0}, {"is_disabled": 0, "fusion_lon": 0.0, "fusion_lat": 0.0, "lat": 38.93527616666667, "type": "electric_scooter", "lon": -77.02070866666666, "bike_id": "d71b4510408b5a1ff6a78987c225db91", "rental_uris": {"android": "https://dc.lft.to/lastmile_qr_scan", "ios": "https://dc.lft.to/lastmile_qr_scan"}, "name": "d71b4510408b5a1ff6a78987c225db91", "is_reserved": 0}, {"is_disabled": 0, "fusion_lon": 0.0, "fusion_lat": 0.0, "lat": 38.89718416666667, "type": "electric_scooter", "lon": -77.02717416666667, "bike_id": "3815948cb1465f410dfacc6af1b1312a", "rental_uris": {"android": "https://dc.lft.to/lastmile_qr_scan", "ios": "https://dc.lft.to/lastmile_qr_scan"}, "name": "3815948cb1465f410dfacc6af1b1312a", "is_reserved": 0}, {"is_disabled": 0, "fusion_lon": 0.0, "fusion_lat": 0.0, "lat": 38.914116, "type": "electric_scooter", "lon": -77.04177616666666, "bike_id": "e8a4e7c18c2b600da5a373a3de2cf5cf", "rental_uris": {"android": "https://dc.lft.to/lastmile_qr_scan", "ios": "https://dc.lft.to/lastmile_qr_scan"}, "name": "e8a4e7c18c2b600da5a373a3de2cf5cf", "is_reserved": 0}, {"is_disabled": 0, "fusion_lon": 0.0, "fusion_lat": 0.0, "lat": 38.930951, "type": "electric_scooter", "lon": -77.02550216666667, "bike_id": "72b1be5061791d76b8d943bb456f5329", "rental_uris": {"android": "https://dc.lft.to/lastmile_qr_scan", "ios": "https://dc.lft.to/lastmile_qr_scan"}, "name": "72b1be5061791d76b8d943bb456f5329", "is_reserved": 0}, {"is_disabled": 0, "fusion_lon": 0.0, "fusion_lat": 0.0, "lat": 38.99991816666667, "type": "electric_bike", "lon": -76.9181085, "bike_id": "07235cb96777513cc986ea95d582bc0f", "rental_uris": {"android": "https://dc.lft.to/lastmile_qr_scan", "ios": "https://dc.lft.to/lastmile_qr_scan"}, "name": "07235cb96777513cc986ea95d582bc0f", "is_reserved": 0}, {"is_disabled": 0, "fusion_lon": 0.0, "fusion_lat": 0.0, "lat": 38.9419505, "type": "electric_scooter", "lon": -77.0257855, "bike_id": "8a0dae3c8cf52132da2b8f80fcc0f8c1", "rental_uris": {"android": "https://dc.lft.to/lastmile_qr_scan", "ios": "https://dc.lft.to/lastmile_qr_scan"}, "name": "8a0dae3c8cf52132da2b8f80fcc0f8c1", "is_reserved": 0}, {"is_disabled": 0, "fusion_lon": 0.0, "fusion_lat": 0.0, "lat": 38.895333666666666, "type": "electric_bike", "lon": -77.04053933333333, "bike_id": "78d8a37c1e6e575468d6494e833ddcbe", "rental_uris": {"android": "https://dc.lft.to/lastmile_qr_scan", "ios": "https://dc.lft.to/lastmile_qr_scan"}, "name": "78d8a37c1e6e575468d6494e833ddcbe", "is_reserved": 0}, {"is_disabled": 0, "fusion_lon": 0.0, "fusion_lat": 0.0, "lat": 38.863567333333336, "type": "electric_scooter", "lon": -76.99066, "bike_id": "7e111482c26edc0e01cd1db61dfb3c54", "rental_uris": {"android": "https://dc.lft.to/lastmile_qr_scan", "ios": "https://dc.lft.to/lastmile_qr_scan"}, "name": "7e111482c26edc0e01cd1db61dfb3c54", "is_reserved": 0}, {"is_disabled": 0, "fusion_lon": 0.0, "fusion_lat": 0.0, "lat": 38.920177333333335, "type": "electric_scooter", "lon": -77.03157866666666, "bike_id": "30c2f160766fe80ae24b3c8b16adfa4e", "rental_uris": {"android": "https://dc.lft.to/lastmile_qr_scan", "ios": "https://dc.lft.to/lastmile_qr_scan"}, "name": "30c2f160766fe80ae24b3c8b16adfa4e", "is_reserved": 0}, {"is_disabled": 0, "fusion_lon": 0.0, "fusion_lat": 0.0, "lat": 38.8981545, "type": "electric_scooter", "lon": -77.043434, "bike_id": "982def359a2ef95a0e0b83e9b31ca305", "rental_uris": {"android": "https://dc.lft.to/lastmile_qr_scan", "ios": "https://dc.lft.to/lastmile_qr_scan"}, "name": "982def359a2ef95a0e0b83e9b31ca305", "is_reserved": 0}, {"is_disabled": 0, "fusion_lon": 0.0, "fusion_lat": 0.0, "lat": 38.90136066666667, "type": "electric_scooter", "lon": -77.060654, "bike_id": "919bb4b0428a5cd6312d29ca451a2ad7", "rental_uris": {"android": "https://dc.lft.to/lastmile_qr_scan", "ios": "https://dc.lft.to/lastmile_qr_scan"}, "name": "919bb4b0428a5cd6312d29ca451a2ad7", "is_reserved": 0},