{"data": {"bikes": [{"is_disabled": 0, "is_reserved": 0, "fusion_lat": 0.0, "lat": 38.931368166666665, "fusion_lon": 0.0, "rental_uris": {"ios": "https://dc.lft.to/lastmile_qr_scan", "android": "https://dc.lft.to/lastmile_qr_scan"}, "lon": -77.0234615, "bike_id": "1eaba4cfff0fefb1f89c36b7dd99ad82", "type": "electric_scooter", "name": "1eaba4cfff0fefb1f89c36b7dd99ad82"}, {"is_disabled": 0, "is_reserved": 0, "fusion_lat": 0.0, "lat": 38.906273166666665, "fusion_lon": 0.0, "rental_uris": {"ios": "https://dc.lft.to/lastmile_qr_scan", "android": "https://dc.lft.to/lastmile_qr_scan"}, "lon": -77.07033583333333, "bike_id": "c556d429f7549a77f855b8342f4a1d68", "type": "electric_scooter", "name": "c556d429f7549a77f855b8342f4a1d68"}, {"is_disabled": 0, "is_reserved": 0, "fusion_lat": 0.0, "lat": 38.90447733333333, "fusion_lon": 0.0, "rental_uris": {"ios": "https://dc.lft.to/lastmile_qr_scan", "android": "https://dc.lft.to/lastmile_qr_scan"}, "lon": -76.9963485, "bike_id": "ef707a9730cd70348cc6a5e07f8b0a55", "type": "electric_scooter", "name": "ef707a9730cd70348cc6a5e07f8b0a55"}, {"is_disabled": 0, "is_reserved": 0, "fusion_lat": 0.0, "lat": 38.894886666666665, "fusion_lon": 0.0, "rental_uris": {"ios": "https://dc.lft.to/lastmile_qr_scan", "android": "https://dc.lft.to/lastmile_qr_scan"}, "lon": -76.9788455, "bike_id": "55abd6c59669719bab22707e268ff9ae", "type": "electric_scooter", "name": "55abd6c59669719bab22707e268ff9ae"}, {"is_disabled": 0, "is_reserved": 0, "fusion_lat": 0.0, "lat": 38.8922695, "fusion_lon": 0.0, "rental_uris": {"ios": "https://dc.lft.to/lastmile_qr_scan", "android": "https://dc.lft.to/lastmile_qr_scan"}, "lon": -77.03336816666666, "bike_id": "63591229ec9d549ca0f7def39ee9a291", "type": "electric_scooter", "name": "63591229ec9d549ca0f7def39ee9a291"}, {"is_disabled": 0, "is_reserved": 0, "fusion_lat": 0.0, "lat": 38.922415666666666, "fusion_lon": 0.0, "rental_uris": {"ios": "https://dc.lft.to/lastmile_qr_scan", "android": "https://dc.lft.to/lastmile_qr_scan"}, "lon": -77.04013116666667, "bike_id": "d21f588e541c73b4f056acb1b9b9c8f7", "type": "electric_scooter", "name": "d21f588e541c73b4f056acb1b9b9c8f7"}, {"is_disabled": 0, "is_reserved": 0, "fusion_lat": 0.0, "lat": 38.91573266666666, "fusion_lon": 0.0, "rental_uris": {"ios": "https://dc.lft.to/lastmile_qr_scan", "android": "https://dc.lft.to/lastmile_qr_scan"}, "lon": -77.0319, "bike_id": "f3509dbc8924795318d6ac9eaa7dee43", "type": "electric_scooter", "name": "f3509dbc8924795318d6ac9eaa7dee43"}, {"is_disabled": 0, "is_reserved": 0, "fusion_lat": 0.0, "lat": 38.912689, "fusion_lon": 0.0, "rental_uris": {"ios": "https://dc.lft.to/lastmile_qr_scan", "android": "https://dc.lft.to/lastmile_qr_scan"}, "lon": -77.03032766666666, "bike_id": "d08729ec9b556515fbd170d2aa84e143", "type": "electric_scooter", "name": "d08729ec9b556515fbd170d2aa84e143"}, {"is_disabled": 0, "is_reserved": 0, "fusion_lat": 0.0, "lat": 38.90069233333333, "fusion_lon": 0.0, "rental_uris": {"ios": "https://dc.lft.to/lastmile_qr_scan", "android": "https://dc.lft.to/lastmile_qr_scan"}, "lon": -77.00670283333334, "bike_id": "3fb84a730683b7adaa686c54cad429d9", "type": "electric_scooter", "name": "3fb84a730683b7adaa686c54cad429d9"}, {"is_disabled": 0, "is_reserved": 0, "fusion_lat": 0.0, "lat": 38.92903166666667, "fusion_lon": 0.0, "rental_uris": {"ios": "https://dc.lft.to/lastmile_qr_scan", "android": "https://dc.lft.to/lastmile_qr_scan"}, "lon": -77.032903, "bike_id": "7938f109fe4e3e73e7d98ce745b2deba", "type": "electric_scooter", "name": "7938f109fe4e3e73e7d98ce745b2deba"}, {"is_disabled": 0, "is_reserved": 0, "fusion_lat": 0.0, "lat": 38.89706783333333, "fusion_lon": 0.0, "rental_uris": {"ios": "https://dc.lft.to/lastmile_qr_scan", "android": "https://dc.lft.to/lastmile_qr_scan"}, "lon": -77.0436625, "bike_id": "a861382909f391cea1acd3024b450c64", "type": "electric_scooter", "name": "a861382909f391cea1acd3024b450c64"}, {"is_disabled": 0, "is_reserved": 0, "fusion_lat": 0.0, "lat": 38.95793833333333, "fusion_lon": 0.0, "rental_uris": {"ios": "https://dc.lft.to/lastmile_qr_scan", "android": "https://dc.lft.to/lastmile_qr_scan"}, "lon": -77.02455783333333, "bike_id": "ddb27bcbc355154fab8509aafbba6339", "type": "electric_scooter", "name": "ddb27bcbc355154fab8509aafbba6339"}, {"is_disabled": 0, "is_reserved": 0, "fusion_lat": 0.0, "lat": 38.90645766666667, "fusion_lon": 0.0, "rental_uris": {"ios": "https://dc.lft.to/lastmile_qr_scan", "android": "https://dc.lft.to/lastmile_qr_scan"}, "lon": -77.06902633333333, "bike_id": "0d6f4529bf705a09f536336ce03e258b", "type": "electric_scooter", "name": "0d6f4529bf705a09f536336ce03e258b"}, {"is_disabled": 0, "is_reserved": 0, "fusion_lat": 0.0, "lat": 38.894284666666664, "fusion_lon": 0.0, "rental_uris": {"ios": "https://dc.lft.to/lastmile_qr_scan", "android": "https://dc.lft.to/lastmile_qr_scan"}, "lon": -77.055989, "bike_id": "15b09798db35e9e0a7394358ec94b160", "type": "electric_scooter", "name": "15b09798db35e9e0a7394358ec94b160"}, {"is_disabled": 0, "is_reserved": 0, "fusion_lat": 0.0, "lat": 38.8961085, "fusion_lon": 0.0, "rental_uris": {"ios": "https://dc.lft.to/lastmile_qr_scan", "android": "https://dc.lft.to/lastmile_qr_scan"}, "lon": -77.03179483333334, "bike_id": "1c3edcdb56e78ef6c6c8c526d96ff461", "type": "electric_scooter", "name": "1c3edcdb56e78ef6c6c8c526d96ff461"}, {"is_disabled": 0, "is_reserved": 0, "fusion_lat": 0.0, "lat": 38.95244433333333, "fusion_lon": 0.0, "rental_uris": {"ios": "https://dc.lft.to/lastmile_qr_scan", "android": "https://dc.lft.to/lastmile_qr_scan"}, "lon": -76.97953916666667, "bike_id": "5c218ab6c7b4287af83fe17dc5e18e66", "type": "electric_bike", "name": "5c218ab6c7b4287af83fe17dc5e18e66"}, {"is_disabled": 0, "is_reserved": 0, "fusion_lat": 0.0, "lat": 38.91123966666667, "fusion_lon": 0.0, "rental_uris": {"ios": "https://dc.lft.to/lastmile_qr_scan", "android": "https://dc.lft.to/lastmile_qr_scan"}, "lon": -77.01114383333334, "bike_id": "3feaeea877efb0adfe0caa4a76f75458", "type": "electric_scooter", "name": "3feaeea877efb0adfe0caa4a76f75458"}, {"is_disabled": 0, "is_reserved": 0, "fusion_lat": 0.0, "lat": 38.905491166666664, "fusion_lon": 0.0, "rental_uris": {"ios": "https://dc.lft.to/lastmile_qr_scan", "android": "https://dc.lft.to/lastmile_qr_scan"}, "lon": -77.0217625, "bike_id": "c670430016b713a3e74fb9dad0b20991", "type": "electric_scooter", "name": "c670430016b713a3e74fb9dad0b20991"}, {"is_disabled": 0, "is_reserved": 0, "fusion_lat": 0.0, "lat": 38.93486583333333, "fusion_lon": 0.0, "rental_uris": {"ios": "https://dc.lft.to/lastmile_qr_scan", "android": "https://dc.lft.to/lastmile_qr_scan"}, "lon": -77.03605583333334, "bike_id": "18eb1587b773a18277f1ca943f02116f", "type": "electric_scooter", "name": "18eb1587b773a18277f1ca943f02116f"}, {"is_disabled": 0, "is_reserved": 0, "fusion_lat": 0.0, "lat": 38.897827, "fusion_lon": 0.0, "rental_uris": {"ios": "https://dc.lft.to/lastmile_qr_scan", "android": "https://dc.lft.to/lastmile_qr_scan"}, "lon": -77.00745733333333, "bike_id": "c71b4b0fa2f7aacc77e00e23f42a5167", "type": "electric_scooter", "name": "c71b4b0fa2f7aacc77e00e23f42a5167"}, {"is_disabled": 0, "is_reserved": 0, "fusion_lat": 0.0, "lat": 38.8836325, "fusion_lon": 0.0, "rental_uris": {"ios": "https://dc.lft.to/lastmile_qr_scan", "android": "https://dc.lft.to/lastmile_qr_scan"}, "lon": -76.927884, "bike_id": "56aa8646f3f48569a70501883a549d62", "type": "electric_scooter", "name": "56aa8646f3f48569a70501883a549d62"}, {"is_disabled": 0, "is_reserved": 0, "fusion_lat": 0.0, "lat": 38.8924875, "fusion_lon": 0.0, "rental_uris": {"ios": "https://dc.lft.to/lastmile_qr_scan", "android": "https://dc.lft.to/lastmile_qr_scan"}, "lon": -77.03956016666666, "bike_id": "69be20566d8d76bf1e1e737753e8445f", "type": "electric_scooter", "name": "69be20566d8d76bf1e1e737753e8445f"}, {"is_disabled": 0, "is_reserved": 0, "fusion_lat": 0.0, "lat": 38.91315383333333, "fusion_lon": 0.0, "rental_uris": {"ios": "https://dc.lft.to/lastmile_qr_scan", "android": "https://dc.lft.to/lastmile_qr_scan"}, "lon": -77.032647, "bike_id": "4af46468916ae79897e15d5113196123", "type": "electric_scooter", "name": "4af46468916ae79897e15d5113196123"}, {"is_disabled": 0, "is_reserved": 0, "fusion_lat": 0.0, "lat": 38.928697, "fusion_lon": 0.0, "rental_uris": {"ios": "https://dc.lft.to/lastmile_qr_scan", "android": "https://dc.lft.to/lastmile_qr_scan"}, "lon": -77.078923, "bike_id": "53f2d3d95d3b94af743c1350b052b0a6", "type": "electric_scooter", "name": "53f2d3d95d3b94af743c1350b052b0a6"}, {"is_disabled": 0, "is_reserved": 0, "fusion_lat": 0.0, "lat": 38.901701, "fusion_lon": 0.0, "rental_uris": {"ios": "https://dc.lft.to/lastmile_qr_scan", "android": "https://dc.lft.to/lastmile_qr_scan"}, "lon": -77.02510533333333, "bike_id": "051e248d842ebf4a91d6ad49a708c8d1", "type": "electric_scooter", "name": "051e248d842ebf4a91d6ad49a708c8d1"}, {"is_disabled": 0, "is_reserved": 0, "fusion_lat": 0.0, "lat": 38.90265266666667, "fusion_lon": 0.0, "rental_uris": {"ios": "https://dc.lft.to/lastmile_qr_scan", "android": "https://dc.lft.to/lastmile_qr_scan"}, "lon": -76.928473, "bike_id": "4875ccf6207450c2f5d6df5b596d61ff", "type": "electric_scooter", "name": "4875ccf6207450c2f5d6df5b596d61ff"}, {"is_disabled": 0, "is_reserved": 0, "fusion_lat": 0.0, "lat": 38.909841166666666, "fusion_lon": 0.0, "rental_uris": {"ios": "https://dc.lft.to/lastmile_qr_scan", "android": "https://dc.lft.to/lastmile_qr_scan"}, "lon": -77.0317615, "bike_id": "b0c790587632277b7f675df73156720a", "type": "electric_scooter", "name": "b0c790587632277b7f675df73156720a"}, {"is_disabled": 0, "is_reserved": 0, "fusion_lat": 0.0, "lat": 38.927852333333334, "fusion_lon": 0.0, "rental_uris": {"ios": "https://dc.lft.to/lastmile_qr_scan", "android": "https://dc.lft.to/lastmile_qr_scan"}, "lon": -77.0272105, "bike_id": "447f1c01a6f8b3dfbb46bfd697f85993", "type": "electric_scooter", "name": "447f1c01a6f8b3dfbb46bfd697f85993"}, {"is_disabled": 0, "is_reserved": 0, "fusion_lat": 0.0, "lat": 38.87657516666667, "fusion_lon": 0.0, "rental_uris": {"ios": "https://dc.lft.to/lastmile_qr_scan", "android": "https://dc.lft.to/lastmile_qr_scan"}, "lon": -77.00887266666666, "bike_id": "7a53bb24d2ac7b918bfb7a1d26193f3b", "type": "electric_scooter", "name": "7a53bb24d2ac7b918bfb7a1d26193f3b"}, {"is_disabled": 0, "is_reserved": 0, "fusion_lat": 0.0, "lat": 38.835921666666664, "fusion_lon": 0.0, "rental_uris": {"ios": "https://dc.lft.to/lastmile_qr_scan", "android": "https://dc.lft.to/lastmile_qr_scan"}, "lon": -76.99016183333333, "bike_id": "0ff31ae4bd895505de5330d8a879c9a4", "type": "electric_bike", "name": "0ff31ae4bd895505de5330d8a879c9a4"}, {"is_disabled": 0, "is_reserved": 0, "fusion_lat": 0.0, "lat": 38.89503233333333, "fusion_lon": 0.0, "rental_uris": {"ios": "https://dc.lft.to/lastmile_qr_scan", "android": "https://dc.lft.to/lastmile_qr_scan"}, "lon": -76.97412933333334, "bike_id": "30527bb2b5e9f4f9f369c398184a73c8", "type": "electric_scooter", "name": "30527bb2b5e9f4f9f369c398184a73c8"}, {"is_disabled": 0, "is_reserved": 0, "fusion_lat": 0.0, "lat": 38.91749216666667, "fusion_lon": 0.0, "rental_uris": {"ios": "https://dc.lft.to/lastmile_qr_scan", "android": "https://dc.lft.to/lastmile_qr_scan"}, "lon": -77.01082883333333, "bike_id": "48bed16f3b1f48412a6f231004b2ff84", "type": "electric_scooter", "name": "48bed16f3b1f48412a6f231004b2ff84"}, {"is_disabled": 0, "is_reserved": 0, "fusion_lat": 0.0, "lat": 38.85069216666667, "fusion_lon": 0.0, "rental_uris": {"ios": "https://dc.lft.to/lastmile_qr_scan", "android": "https://dc.lft.to/lastmile_qr_scan"}, "lon": -76.98179833333333, "bike_id": "fb438bddf5d33c47d4e0861678d1638f", "type": "electric_bike", "name": "fb438bddf5d33c47d4e0861678d1638f"}, {"is_disabled": 0, "is_reserved": 0, "fusion_lat": 0.0, "lat": 38.911988666666666, "fusion_lon": 0.0, "rental_uris": {"ios": "https://dc.lft.to/lastmile_qr_scan", "android": "https://dc.lft.to/lastmile_qr_scan"}, "lon": -77.04447216666667, "bike_id": "63d02c091b0ed7689673e24e7b8feb31", "type": "electric_scooter", "name": "63d02c091b0ed7689673e24e7b8feb31"}, {"is_disabled": 0, "is_reserved": 0, "fusion_lat": 0.0, "lat": 38.89515633333333, "fusion_lon": 0.0, "rental_uris": {"ios": "https://dc.lft.to/lastmile_qr_scan", "android": "https://dc.lft.to/lastmile_qr_scan"}, "lon": -77.02286783333334, "bike_id": "d30b1a1169f42ce37c23fa9ce4907bb5", "type": "electric_scooter", "name": "d30b1a1169f42ce37c23fa9ce4907bb5"}, {"is_disabled": 0, "is_reserved": 0, "fusion_lat": 0.0, "lat": 38.922248, "fusion_lon": 0.0, "rental_uris": {"ios": "https://dc.lft.to/lastmile_qr_scan", "android": "https://dc.lft.to/lastmile_qr_scan"}, "lon": -77.02033583333333, "bike_id": "0796325f657c0d0d5f427f02c7354116", "type": "electric_scooter", "name": "0796325f657c0d0d5f427f02c7354116"}, {"is_disabled": 0, "is_reserved": 0, "fusion_lat": 0.0, "lat": 38.93612566666667, "fusion_lon": 0.0, "rental_uris": {"ios": "https://dc.lft.to/lastmile_qr_scan", "android": "https://dc.lft.to/lastmile_qr_scan"}, "lon": -77.05585016666667, "bike_id": "315b1de9e3ebc8ea0a51c5d4b7222ce9", "type": "electric_scooter", "name": "315b1de9e3ebc8ea0a51c5d4b7222ce9"}, {"is_disabled": 0, "is_reserved": 0, "fusion_lat": 0.0, "lat": 38.8923615, "fusion_lon": 0.0, "rental_uris": {"ios": "https://dc.lft.to/lastmile_qr_scan", "android": "https://dc.lft.to/lastmile_qr_scan"}, "lon": -77.02207866666667, "bike_id": "beb1c7d4d4e53bd9a17594336b0cf7c1", "type": "electric_scooter", "name": "beb1c7d4d4e53bd9a17594336b0cf7c1"}, {"is_disabled": 0, "is_reserved": 0, "fusion_lat": 0.0, "lat": 38.902877333333336, "fusion_lon": 0.0, "rental_uris": {"ios": "https://dc.lft.to/lastmile_qr_scan", "android": "https://dc.lft.to/lastmile_qr_scan"}, "lon": -77.02272816666667, "bike_id": "8b29fe9e9e5ca4ae7956a4fa64ac011e", "type": "electric_scooter", "name": "8b29fe9e9e5ca4ae7956a4fa64ac011e"}, {"is_disabled": 0, "is_reserved": 0, "fusion_lat": 0.0, "lat": 38.913371166666664, "fusion_lon": 0.0, "rental_uris": {"ios": "https://dc.lft.to/lastmile_qr_scan", "android": "https://dc.lft.to/lastmile_qr_scan"}, "lon": -77.01655916666667, "bike_id": "2c7d4a2e3c267aa537549caa13a92abe", "type": "electric_scooter", "name": "2c7d4a2e3c267aa537549caa13a92abe"}, {"is_disabled": 0, "is_reserved": 0, "fusion_lat": 0.0, "lat": 38.919414833333335, "fusion_lon": 0.0, "rental_uris": {"ios": "https://dc.lft.to/lastmile_qr_scan", "android": "https://dc.lft.to/lastmile_qr_scan"}, "lon": -77.044956, "bike_id": "cde97c9bfeb5e6f5e71928125e94daeb", "type": "electric_scooter", "name": "cde97c9bfeb5e6f5e71928125e94daeb"}, {"is_disabled": 0, "is_reserved": 0, "fusion_lat": 0.0, "lat": 38.930645, "fusion_lon": 0.0, "rental_uris": {"ios": "https://dc.lft.to/lastmile_qr_scan", "android": "https://dc.lft.to/lastmile_qr_scan"}, "lon": -77.04031966666666, "bike_id": "969b632102cffd21618fd163732c20ff", "type": "electric_scooter", "name": "969b632102cffd21618fd163732c20ff"}, {"is_disabled": 0, "is_reserved": 0, "fusion_lat": 0.0, "lat": 38.925538, "fusion_lon": 0.0, "rental_uris": {"ios": "https://dc.lft.to/lastmile_qr_scan", "android": "https://dc.lft.to/lastmile_qr_scan"}, "lon": -77.00322883333334, "bike_id": "ae06e98afdcedffd32a496ff0caf8957", "type": "electric_scooter", "name": "ae06e98afdcedffd32a496ff0caf8957"}, {"is_disabled": 0, "is_reserved": 0, "fusion_lat": 0.0, "lat": 38.8778775, "fusion_lon": 0.0, "rental_uris": {"ios": "https://dc.lft.to/lastmile_qr_scan", "android": "https://dc.lft.to/lastmile_qr_scan"}, "lon": -77.00128966666666, "bike_id": "32323100780d1d0c0d6ece4f9c1b13cd", "type": "electric_scooter", "name": "32323100780d1d0c0d6ece4f9c1b13cd"}, {"is_disabled": 0, "is_reserved": 0, "fusion_lat": 0.0, "lat": 38.936657833333335, "fusion_lon": 0.0, "rental_uris": {"ios": "https://dc.lft.to/lastmile_qr_scan", "android": "https://dc.lft.to/lastmile_qr_scan"}, "lon": -77.06605716666667, "bike_id": "147008fffd00c63290926b3ecda36e2a", "type": "electric_scooter", "name": "147008fffd00c63290926b3ecda36e2a"}, {"is_disabled": 0, "is_reserved": 0, "fusion_lat": 0.0, "lat": 38.931252, "fusion_lon": 0.0, "rental_uris": {"ios": "https://dc.lft.to/lastmile_qr_scan", "android": "https://dc.lft.to/lastmile_qr_scan"}, "lon": -77.02069116666667, "bike_id": "bd154999a2b73c2f5917647935b11113", "type": "electric_scooter", "name": "bd154999a2b73c2f5917647935b11113"}, {"is_disabled": 0, "is_reserved": 0, "fusion_lat": 0.0, "lat": 38.9163665, "fusion_lon": 0.0, "rental_uris": {"ios": "https://dc.lft.to/lastmile_qr_scan", "android": "https://dc.lft.to/lastmile_qr_scan"}, "lon": -77.00850583333333, "bike_id": "e3301d9a9ef700c539589ad371cca29d", "type": "electric_scooter", "name": "e3301d9a9ef700c539589ad371cca29d"}, {"is_disabled": 0, "is_reserved": 0, "fusion_lat": 0.0, "lat": 38.921822666666664, "fusion_lon": 0.0, "rental_uris": {"ios": "https://dc.lft.to/lastmile_qr_scan", "android": "https://dc.lft.to/lastmile_qr_scan"}, "lon": -76.99853016666667, "bike_id": "158f8d7faa11ebbf13d29f77dbda800c", "type": "electric_scooter", "name": "158f8d7faa11ebbf13d29f77dbda800c"}, {"is_disabled": 0, "is_reserved": 0, "fusion_lat": 0.0, "lat": 38.962299333333334, "fusion_lon": 0.0, "rental_uris": {"ios": "https://dc.lft.to/lastmile_qr_scan", "android": "https://dc.lft.to/lastmile_qr_scan"}, "lon": -77.0262505, "bike_id": "fb29e54413740671bee0205459fd1cee", "type": "electric_bike", "name": "fb29e54413740671bee0205459fd1cee"}, {"is_disabled": 0, "is_reserved": 0, "fusion_lat": 0.0, "lat": 38.88142883333333, "fusion_lon": 0.0, "rental_uris": {"ios": "https://dc.lft.to/lastmile_qr_scan", "android": "https://dc.lft.to/lastmile_qr_scan"}, "lon": -76.9962715, "bike_id": "d89563e58e83751f84a9ece0919794cd", "type": "electric_scooter", "name": "d89563e58e83751f84a9ece0919794cd"}, {"is_disabled": 0, "is_reserved": 0, "fusion_lat": 0.0, "lat": 38.933544, "fusion_lon": 0.0, "rental_uris": {"ios": "https://dc.lft.to/lastmile_qr_scan", "android": "https://dc.lft.to/lastmile_qr_scan"}, "lon": -77.02563683333334, "bike_id": "8656a24a80ab52e5ebb48f33e6cf53b0", "type": "electric_scooter", "name": "8656a24a80ab52e5ebb48f33e6cf53b0"}, {"is_disabled": 0, "is_reserved": 0, "fusion_lat": 0.0, "lat": 38.917218, "fusion_lon": 0.0, "rental_uris": {"ios": "https://dc.lft.to/lastmile_qr_scan", "android": "https://dc.lft.to/lastmile_qr_scan"}, "lon": -77.03862316666667, "bike_id": "0f4ab028cefe0e8acedda14d6bdd7d11", "type": "electric_scooter", "name": "0f4ab028cefe0e8acedda14d6bdd7d11"}, {"is_disabled": 0, "is_reserved": 0, "fusion_lat": 0.0, "lat": 38.8920195, "fusion_lon": 0.0, "rental_uris": {"ios": "https://dc.lft.to/lastmile_qr_scan", "android": "https://dc.lft.to/lastmile_qr_scan"}, "lon": -77.00298133333334, "bike_id": "887e87fb381f932421589dc0e9533bdb", "type": "electric_scooter", "name": "887e87fb381f932421589dc0e9533bdb"}, {"is_disabled": 0, "is_reserved": 0, "fusion_lat": 0.0, "lat": 38.80736566666667, "fusion_lon": 0.0, "rental_uris": {"ios": "https://dc.lft.to/lastmile_qr_scan", "android": "https://dc.lft.to/lastmile_qr_scan"}, "lon": -76.992659, "bike_id": "931f4179f16ed3b80c792e6bcb9e074e", "type": "electric_bike", "name": "931f4179f16ed3b80c792e6bcb9e074e"}, {"is_disabled": 0, "is_reserved": 0, "fusion_lat": 0.0, "lat": 38.92456516666667, "fusion_lon": 0.0, "rental_uris": {"ios": "https://dc.lft.to/lastmile_qr_scan", "android": "https://dc.lft.to/lastmile_qr_scan"}, "lon": -77.02038933333333, "bike_id": "f0f510b55e2fc1eb7a91dc03e6f33fd8", "type": "electric_scooter", "name": "f0f510b55e2fc1eb7a91dc03e6f33fd8"}, {"is_disabled": 0, "is_reserved": 0, "fusion_lat": 0.0, "lat": 38.921054833333336, "fusion_lon": 0.0, "rental_uris": {"ios": "https://dc.lft.to/lastmile_qr_scan", "android": "https://dc.lft.to/lastmile_qr_scan"}, "lon": -77.0176775, "bike_id": "ef818a537164d447a1455c37105e6cbc", "type": "electric_scooter", "name": "ef818a537164d447a1455c37105e6cbc"}, {"is_disabled": 0, "is_reserved": 0, "fusion_lat": 0.0, "lat": 38.871039, "fusion_lon": 0.0, "rental_uris": {"ios": "https://dc.lft.to/lastmile_qr_scan", "android": "https://dc.lft.to/lastmile_qr_scan"}, "lon": -77.01211366666666, "bike_id": "8b950233acbb7962a3577572e780c4a2", "type": "electric_scooter", "name": "8b950233acbb7962a3577572e780c4a2"}, {"is_disabled": 0, "is_reserved": 0, "fusion_lat": 0.0, "lat": 38.884890166666665, "fusion_lon": 0.0, "rental_uris": {"ios": "https://dc.lft.to/lastmile_qr_scan", "android": "https://dc.lft.to/lastmile_qr_scan"}, "lon": -77.0236385, "bike_id": "5120f4005b7a881e2fa95e5cbb208ebe", "type": "electric_scooter", "name": "5120f4005b7a881e2fa95e5cbb208ebe"}, {"is_disabled": 0, "is_reserved": 0, "fusion_lat": 0.0, "lat": 38.948545, "fusion_lon": 0.0, "rental_uris": {"ios": "https://dc.lft.to/lastmile_qr_scan", "android": "https://dc.lft.to/lastmile_qr_scan"}, "lon": -77.02114983333334, "bike_id": "af27acb59c901f3044c2294003ad71b9", "type": "electric_scooter", "name": "af27acb59c901f3044c2294003ad71b9"}, {"is_disabled": 0, "is_reserved": 0, "fusion_lat": 0.0, "lat": 38.87529633333333, "fusion_lon": 0.0, "rental_uris": {"ios": "https://dc.lft.to/lastmile_qr_scan", "android": "https://dc.lft.to/lastmile_qr_scan"}, "lon": -77.0123245, "bike_id": "ad708541eb64105089df0a218af8780b", "type": "electric_scooter", "name": "ad708541eb64105089df0a218af8780b"}, {"is_disabled": 0, "is_reserved": 0, "fusion_lat": 0.0, "lat": 38.927107166666666, "fusion_lon": 0.0, "rental_uris": {"ios": "https://dc.lft.to/lastmile_qr_scan", "android": "https://dc.lft.to/lastmile_qr_scan"}, "lon": -76.960833, "bike_id": "c358f8bb6bb1d6eb3009e6fc7cd60ed2", "type": "electric_scooter", "name": "c358f8bb6bb1d6eb3009e6fc7cd60ed2"}, {"is_disabled": 0, "is_reserved": 0, "fusion_lat": 0.0, "lat": 38.9257735, "fusion_lon": 0.0, "rental_uris": {"ios": "https://dc.lft.to/lastmile_qr_scan", "android": "https://dc.lft.to/lastmile_qr_scan"}, "lon": -76.99491533333334, "bike_id": "af376ed05c7ba4f64cc7b74ebde4e25b", "type": "electric_scooter", "name": "af376ed05c7ba4f64cc7b74ebde4e25b"}, {"is_disabled": 0, "is_reserved": 0, "fusion_lat": 0.0, "lat": 38.939499, "fusion_lon": 0.0, "rental_uris": {"ios": "https://dc.lft.to/lastmile_qr_scan", "android": "https://dc.lft.to/lastmile_qr_scan"}, "lon": -77.021814, "bike_id": "7f80dfa9fc3620ed6da19b9c9baaf471", "type": "electric_scooter", "name": "7f80dfa9fc3620ed6da19b9c9baaf471"}, {"is_disabled": 0, "is_reserved": 0, "fusion_lat": 0.0, "lat": 38.919041666666665, "fusion_lon": 0.0, "rental_uris": {"ios": "https://dc.lft.to/lastmile_qr_scan", "android": "https://dc.lft.to/lastmile_qr_scan"}, "lon": -77.0004625, "bike_id": "6af2f4cc13bed48d024a590dc0dcdf44", "type": "electric_scooter", "name": "6af2f4cc13bed48d024a590dc0dcdf44"}, {"is_disabled": 0, "is_reserved": 0, "fusion_lat": 0.0, "lat": 38.927875, "fusion_lon": 0.0, "rental_uris": {"ios": "https://dc.lft.to/lastmile_qr_scan", "android": "https://dc.lft.to/lastmile_qr_scan"}, "lon": -77.0271825, "bike_id": "1135c0f94ac1ce945369ac05971a2859", "type": "electric_scooter", "name": "1135c0f94ac1ce945369ac05971a2859"}, {"is_disabled": 0, "is_reserved": 0, "fusion_lat": 0.0, "lat": 39.000858666666666, "fusion_lon": 0.0, "rental_uris": {"ios": "https://dc.lft.to/lastmile_qr_scan", "android": "https://dc.lft.to/lastmile_qr_scan"}, "lon": -77.0063095, "bike_id": "25073d001afcfcbb5436ee2c0f0a4734", "type": "electric_bike", "name": "25073d001afcfcbb5436ee2c0f0a4734"}, {"is_disabled": 0, "is_reserved": 0, "fusion_lat": 0.0, "lat": 38.9119655, "fusion_lon": 0.0, "rental_uris": {"ios": "https://dc.lft.to/lastmile_qr_scan", "android": "https://dc.lft.to/lastmile_qr_scan"}, "lon": -77.0403535, "bike_id": "2a83a05ac4fb41e0d3a076ca410dd19c", "type": "electric_scooter", "name": "2a83a05ac4fb41e0d3a076ca410dd19c"}, {"is_disabled": 0, "is_reserved": 0, "fusion_lat": 0.0, "lat": 38.921649333333335, "fusion_lon": 0.0, "rental_uris": {"ios": "https://dc.lft.to/lastmile_qr_scan", "android": "https://dc.lft.to/lastmile_qr_scan"}, "lon": -77.03670466666667, "bike_id": "099bdeacd8b700da56ee25310e5e414f", "type": "electric_scooter", "name": "099bdeacd8b700da56ee25310e5e414f"}, {"is_disabled": 0, "is_reserved": 0, "fusion_lat": 0.0, "lat": 38.9084525, "fusion_lon": 0.0, "rental_uris": {"ios": "https://dc.lft.to/lastmile_qr_scan", "android": "https://dc.lft.to/lastmile_qr_scan"}, "lon": -77.02960116666667, "bike_id": "259a5980e936f17ecf51a51cbbcf60c1", "type": "electric_scooter", "name": "259a5980e936f17ecf51a51cbbcf60c1"}, {"is_disabled": 0, "is_reserved": 0, "fusion_lat": 0.0, "lat": 38.89926, "fusion_lon": 0.0, "rental_uris": {"ios": "https://dc.lft.to/lastmile_qr_scan", "android": "https://dc.lft.to/lastmile_qr_scan"}, "lon": -77.00382566666667, "bike_id": "c108f48722ee605ea0d40ad25d45d635", "type": "electric_scooter", "name": "c108f48722ee605ea0d40ad25d45d635"}, {"is_disabled": 0, "is_reserved": 0, "fusion_lat": 0.0, "lat": 38.905514333333336, "fusion_lon": 0.0, "rental_uris": {"ios": "https://dc.lft.to/lastmile_qr_scan", "android": "https://dc.lft.to/lastmile_qr_scan"}, "lon": -77.02182516666667, "bike_id": "b70e434d8f63ff740caee56001555e39", "type": "electric_scooter", "name": "b70e434d8f63ff740caee56001555e39"}, {"is_disabled": 0, "is_reserved": 0, "fusion_lat": 0.0, "lat": 38.902572, "fusion_lon": 0.0, "rental_uris": {"ios": "https://dc.lft.to/lastmile_qr_scan", "android": "https://dc.lft.to/lastmile_qr_scan"}, "lon": -77.01838466666666, "bike_id": "c976f7f6ef80794a5520e53db408411e", "type": "electric_scooter", "name": "c976f7f6ef80794a5520e53db408411e"}, {"is_disabled": 0, "is_reserved": 0, "fusion_lat": 0.0, "lat": 38.916781666666665, "fusion_lon": 0.0, "rental_uris": {"ios": "https://dc.lft.to/lastmile_qr_scan", "android": "https://dc.lft.to/lastmile_qr_scan"}, "lon": -77.03188583333333, "bike_id": "ec230d5f2577cac6c54b2c96151721fe", "type": "electric_scooter", "name": "ec230d5f2577cac6c54b2c96151721fe"}, {"is_disabled": 0, "is_reserved": 0, "fusion_lat": 0.0, "lat": 38.91559133333333, "fusion_lon": 0.0, "rental_uris": {"ios": "https://dc.lft.to/lastmile_qr_scan", "android": "https://dc.lft.to/lastmile_qr_scan"}, "lon": -77.05405366666666, "bike_id": "d9704076179c1bae35188415a075f1dd", "type": "electric_scooter", "name": "d9704076179c1bae35188415a075f1dd"}, {"is_disabled": 0, "is_reserved": 0, "fusion_lat": 0.0, "lat": 38.89239883333333, "fusion_lon": 0.0, "rental_uris": {"ios": "https://dc.lft.to/lastmile_qr_scan", "android": "https://dc.lft.to/lastmile_qr_scan"}, "lon": -77.033478, "bike_id": "af339b37a872d15171324adbe5172dfa", "type": "electric_scooter", "name": "af339b37a872d15171324adbe5172dfa"}, {"is_disabled": 0, "is_reserved": 0, "fusion_lat": 0.0, "lat": 38.91212983333333, "fusion_lon": 0.0, "rental_uris": {"ios": "https://dc.lft.to/lastmile_qr_scan", "android": "https://dc.lft.to/lastmile_qr_scan"}, "lon": -77.02095916666667, "bike_id": "10545ae450075cf9f26cbb30704162b7", "type": "electric_scooter", "name": "10545ae450075cf9f26cbb30704162b7"}, {"is_disabled": 0, "is_reserved": 0, "fusion_lat": 0.0, "lat": 38.91822583333333, "fusion_lon": 0.0, "rental_uris": {"ios": "https://dc.lft.to/lastmile_qr_scan", "android": "https://dc.lft.to/lastmile_qr_scan"}, "lon": -77.02527516666666, "bike_id": "285e20696080d16dbd43ad6111937464", "type": "electric_scooter", "name": "285e20696080d16dbd43ad6111937464"}, {"is_disabled": 0, "is_reserved": 0, "fusion_lat": 0.0, "lat": 38.892525, "fusion_lon": 0.0, "rental_uris": {"ios": "https://dc.lft.to/lastmile_qr_scan", "android": "https://dc.lft.to/lastmile_qr_scan"}, "lon": -77.033541, "bike_id": "a6f6a040746ff38d6b11e4fddacdef27", "type": "electric_scooter", "name": "a6f6a040746ff38d6b11e4fddacdef27"}, {"is_disabled": 0, "is_reserved": 0, "fusion_lat": 0.0, "lat": 38.930868, "fusion_lon": 0.0, "rental_uris": {"ios": "https://dc.lft.to/lastmile_qr_scan", "android": "https://dc.lft.to/lastmile_qr_scan"}, "lon": -77.03231, "bike_id": "97dc9ba73dfb66d335174a53c0475a7c", "type": "electric_scooter", "name": "97dc9ba73dfb66d335174a53c0475a7c"}, {"is_disabled": 0, "is_reserved": 0, "fusion_lat": 0.0, "lat": 38.9145635, "fusion_lon": 0.0, "rental_uris": {"ios": "https://dc.lft.to/lastmile_qr_scan", "android": "https://dc.lft.to/lastmile_qr_scan"}, "lon": -77.02200533333334, "bike_id": "cce394bbc516b4e9298013d0fbf83258", "type": "electric_scooter", "name": "cce394bbc516b4e9298013d0fbf83258"}, {"is_disabled": 0, "is_reserved": 0, "fusion_lat": 0.0, "lat": 38.91418216666667, "fusion_lon": 0.0, "rental_uris": {"ios": "https://dc.lft.to/lastmile_qr_scan", "android": "https://dc.lft.to/lastmile_qr_scan"}, "lon": -77.05211066666666, "bike_id": "426d95b93900effad348997801747a37", "type": "electric_scooter", "name": "426d95b93900effad348997801747a37"}, {"is_disabled": 0, "is_reserved": 0, "fusion_lat": 0.0, "lat": 39.02647916666667, "fusion_lon": 0.0, "rental_uris": {"ios": "https://dc.lft.to/lastmile_qr_scan", "android": "https://dc.lft.to/lastmile_qr_scan"}, "lon": -77.03683433333333, "bike_id": "01550ebc04a0bf80c9c53b112bd3cb2e", "type": "electric_bike", "name": "01550ebc04a0bf80c9c53b112bd3cb2e"}, {"is_disabled": 0, "is_reserved": 0, "fusion_lat": 0.0, "lat": 38.94333783333333, "fusion_lon": 0.0, "rental_uris": {"ios": "https://dc.lft.to/lastmile_qr_scan", "android": "https://dc.lft.to/lastmile_qr_scan"}, "lon": -77.02693683333334, "bike_id": "935884edbe31e27324182a8c4c0229d3", "type": "electric_scooter", "name": "935884edbe31e27324182a8c4c0229d3"}, {"is_disabled": 0, "is_reserved": 0, "fusion_lat": 0.0, "lat": 38.916808, "fusion_lon": 0.0, "rental_uris": {"ios": "https://dc.lft.to/lastmile_qr_scan", "android": "https://dc.lft.to/lastmile_qr_scan"}, "lon": -77.04701983333334, "bike_id": "97fe6051d1e540e7a1070152e0939210", "type": "electric_bike", "name": "97fe6051d1e540e7a1070152e0939210"}, {"is_disabled": 0, "is_reserved": 0, "fusion_lat": 0.0, "lat": 38.9014855, "fusion_lon": 0.0, "rental_uris": {"ios": "https://dc.lft.to/lastmile_qr_scan", "android": "https://dc.lft.to/lastmile_qr_scan"}, "lon": -76.97404833333333, "bike_id": "81329384847fc1c00f7d1f59f4a41f74", "type": "electric_scooter", "name": "81329384847fc1c00f7d1f59f4a41f74"}, {"is_disabled": 0, "is_reserved": 0, "fusion_lat": 0.0, "lat": 38.927656166666665, "fusion_lon": 0.0, "rental_uris": {"ios": "https://dc.lft.to/lastmile_qr_scan", "android": "https://dc.lft.to/lastmile_qr_scan"}, "lon": -77.05272833333333, "bike_id": "533963b95a81ce52646c45b391d1e646", "type": "electric_scooter", "name": "533963b95a81ce52646c45b391d1e646"}, {"is_disabled": 0, "is_reserved": 0, "fusion_lat": 0.0, "lat": 38.89692566666667, "fusion_lon": 0.0, "rental_uris": {"ios": "https://dc.lft.to/lastmile_qr_scan", "android": "https://dc.lft.to/lastmile_qr_scan"}, "lon": -77.02421066666666, "bike_id": "ee107098e60b14e6f6c5130756341633", "type": "electric_bike", "name": "ee107098e60b14e6f6c5130756341633"}, {"is_disabled": 0, "is_reserved": 0, "fusion_lat": 0.0, "lat": 38.9051375, "fusion_lon": 0.0, "rental_uris": {"ios": "https://dc.lft.to/lastmile_qr_scan", "android": "https://dc.lft.to/lastmile_qr_scan"}, "lon": -76.95212183333334, "bike_id": "c8202021f59f4cb9bb17dd7778a0524f", "type": "electric_scooter", "name": "c8202021f59f4cb9bb17dd7778a0524f"}, {"is_disabled": 0, "is_reserved": 0, "fusion_lat": 0.0, "lat": 38.92264333333333, "fusion_lon": 0.0, "rental_uris": {"ios": "https://dc.lft.to/lastmile_qr_scan", "android": "https://dc.lft.to/lastmile_qr_scan"}, "lon": -77.0366235, "bike_id": "78f4d58431f83a23255fc01f6d9535e5", "type": "electric_scooter", "name": "78f4d58431f83a23255fc01f6d9535e5"}, {"is_disabled": 0, "is_reserved": 0, "fusion_lat": 0.0, "lat": 38.9220315, "fusion_lon": 0.0, "rental_uris": {"ios": "https://dc.lft.to/lastmile_qr_scan", "android": "https://dc.lft.to/lastmile_qr_scan"}, "lon": -77.02037616666667, "bike_id": "2139566c4f17e97cfabad617bb270400", "type": "electric_scooter", "name": "2139566c4f17e97cfabad617bb270400"}, {"is_disabled": 0, "is_reserved": 0, "fusion_lat": 0.0, "lat": 38.8862245, "fusion_lon": 0.0, "rental_uris": {"ios": "https://dc.lft.to/lastmile_qr_scan", "android": "https://dc.lft.to/lastmile_qr_scan"}, "lon": -76.92635133333333, "bike_id": "ba4f1671b682cf3cbc272a5cef5b30aa", "type": "electric_scooter", "name": "ba4f1671b682cf3cbc272a5cef5b30aa"}, {"is_disabled": 0, "is_reserved": 0, "fusion_lat": 0.0, "lat": 38.89523166666667, "fusion_lon": 0.0, "rental_uris": {"ios": "https://dc.lft.to/lastmile_qr_scan", "android": "https://dc.lft.to/lastmile_qr_scan"}, "lon": -76.98112683333333, "bike_id": "d8ca305c5658b067b5395ddfeeb7ed16", "type": "electric_scooter", "name": "d8ca305c5658b067b5395ddfeeb7ed16"}, {"is_disabled": 0, "is_reserved": 0, "fusion_lat": 0.0, "lat": 38.920457, "fusion_lon": 0.0, "rental_uris": {"ios": "https://dc.lft.to/lastmile_qr_scan", "android": "https://dc.lft.to/lastmile_qr_scan"}, "lon": -77.03131233333333, "bike_id": "941ae2ff4d4a6158bc8d1e99538e70bf", "type": "electric_scooter", "name": "941ae2ff4d4a6158bc8d1e99538e70bf"}, {"is_disabled": 0, "is_reserved": 0, "fusion_lat": 0.0, "lat": 38.90690266666667, "fusion_lon": 0.0, "rental_uris": {"ios": "https://dc.lft.to/lastmile_qr_scan", "android": "https://dc.lft.to/lastmile_qr_scan"}, "lon": -77.02694533333333, "bike_id": "a3d3fd1690999c743796e65e82530c50", "type": "electric_scooter", "name": "a3d3fd1690999c743796e65e82530c50"}, {"is_disabled": 0, "is_reserved": 0, "fusion_lat": 0.0, "lat": 38.87843016666667, "fusion_lon": 0.0, "rental_uris": {"ios": "https://dc.lft.to/lastmile_qr_scan", "android": "https://dc.lft.to/lastmile_qr_scan"}, "lon": -76.9312845, "bike_id": "11e839fe69428ca791976dbb2535ec57", "type": "electric_scooter", "name": "11e839fe69428ca791976dbb2535ec57"}, {"is_disabled": 0, "is_reserved": 0, "fusion_lat": 0.0, "lat": 38.893671833333336, "fusion_lon": 0.0, "rental_uris": {"ios": "https://dc.lft.to/lastmile_qr_scan", "android": "https://dc.lft.to/lastmile_qr_scan"}, "lon": -77.0122675, "bike_id": "531b4b304646c2281724c4badf070544", "type": "electric_bike", "name": "531b4b304646c2281724c4badf070544"}, {"is_disabled": 0, "is_reserved": 0, "fusion_lat": 0.0, "lat": 39.0106845, "fusion_lon": 0.0, "rental_uris": {"ios": "https://dc.lft.to/lastmile_qr_scan", "android": "https://dc.lft.to/lastmile_qr_scan"}, "lon": -76.922414, "bike_id": "772ada60daa321e9f101e2581a9f1b1f", "type": "electric_bike", "name": "772ada60daa321e9f101e2581a9f1b1f"}, {"is_disabled": 0, "is_reserved": 0, "fusion_lat": 0.0, "lat": 38.920397666666666, "fusion_lon": 0.0, "rental_uris": {"ios": "https://dc.lft.to/lastmile_qr_scan", "android": "https://dc.lft.to/lastmile_qr_scan"}, "lon": -77.02613983333333, "bike_id": "81ac9c08fdac923db16ab19542981634", "type": "electric_scooter", "name": "81ac9c08fdac923db16ab19542981634"}, {"is_disabled": 0, "is_reserved": 0, "fusion_lat": 0.0, "lat": 38.923233333333336, "fusion_lon": 0.0, "rental_uris": {"ios": "https://dc.lft.to/lastmile_qr_scan", "android": "https://dc.lft.to/lastmile_qr_scan"}, "lon": -77.03908, "bike_id": "c67243bd64a0a213dbf11668a27e7809", "type": "electric_scooter", "name": "c67243bd64a0a213dbf11668a27e7809"}, {"is_disabled": 0, "is_reserved": 0, "fusion_lat": 0.0, "lat": 38.922725166666666, "fusion_lon": 0.0, "rental_uris": {"ios": "https://dc.lft.to/lastmile_qr_scan", "android": "https://dc.lft.to/lastmile_qr_scan"}, "lon": -77.03634716666667, "bike_id": "8d52f4f822fcb1d0a7192c538ecbd8a2", "type": "electric_scooter", "name": "8d52f4f822fcb1d0a7192c538ecbd8a2"}, {"is_disabled": 0, "is_reserved": 0, "fusion_lat": 0.0, "lat": 38.931011, "fusion_lon": 0.0, "rental_uris": {"ios": "https://dc.lft.to/lastmile_qr_scan", "android": "https://dc.lft.to/lastmile_qr_scan"}, "lon": -77.0343445, "bike_id": "04749e1865de6a4c4688c8ec5e9f1d5f", "type": "electric_scooter", "name": "04749e1865de6a4c4688c8ec5e9f1d5f"}, {"is_disabled": 0, "is_reserved": 0, "fusion_lat": 0.0, "lat": 38.8830495, "fusion_lon": 0.0, "rental_uris": {"ios": "https://dc.lft.to/lastmile_qr_scan", "android": "https://dc.lft.to/lastmile_qr_scan"}, "lon": -77.02558883333333, "bike_id": "a72f2b4d26b7907d7343684908e622a1", "type": "electric_scooter", "name": "a72f2b4d26b7907d7343684908e622a1"}, {"is_disabled": 0, "is_reserved": 0, "fusion_lat": 0.0, "lat": 38.882778333333334, "fusion_lon": 0.0, "rental_uris": {"ios": "https://dc.lft.to/lastmile_qr_scan", "android": "https://dc.lft.to/lastmile_qr_scan"}, "lon": -77.00651616666667, "bike_id": "a6b6bfc88985b8e1f8ec913d567413cb", "type": "electric_scooter", "name": "a6b6bfc88985b8e1f8ec913d567413cb"}, {"is_disabled": 0, "is_reserved": 0, "fusion_lat": 0.0, "lat": 38.90020283333333, "fusion_lon": 0.0, "rental_uris": {"ios": "https://dc.lft.to/lastmile_qr_scan", "android": "https://dc.lft.to/lastmile_qr_scan"}, "lon": -77.00309483333334, "bike_id": "81e327f0b52192b603d359b13cb06140", "type": "electric_scooter", "name": "81e327f0b52192b603d359b13cb06140"}, {"is_disabled": 0, "is_reserved": 0, "fusion_lat": 0.0, "lat": 38.923623166666665, "fusion_lon": 0.0, "rental_uris": {"ios": "https://dc.lft.to/lastmile_qr_scan", "android": "https://dc.lft.to/lastmile_qr_scan"}, "lon": -77.01905483333333, "bike_id": "e37d11f15a672e56e052fa01bd33acaa", "type": "electric_scooter", "name": "e37d11f15a672e56e052fa01bd33acaa"}, {"is_disabled": 0, "is_reserved": 0, "fusion_lat": 0.0, "lat": 38.83047216666667, "fusion_lon": 0.0, "rental_uris": {"ios": "https://dc.lft.to/lastmile_qr_scan", "android": "https://dc.lft.to/lastmile_qr_scan"}, "lon": -77.008224, "bike_id": "b5850010f295407ef1007c8754048908", "type": "electric_bike", "name": "b5850010f295407ef1007c8754048908"}, {"is_disabled": 0, "is_reserved": 0, "fusion_lat": 0.0, "lat": 38.89973666666667, "fusion_lon": 0.0, "rental_uris": {"ios": "https://dc.lft.to/lastmile_qr_scan", "android": "https://dc.lft.to/lastmile_qr_scan"}, "lon": -76.93759433333334, "bike_id": "8477a651dd8c6f73d5ad3c9c28280ef6", "type": "electric_scooter", "name": "8477a651dd8c6f73d5ad3c9c28280ef6"}, {"is_disabled": 0, "is_reserved": 0, "fusion_lat": 0.0, "lat": 38.90914866666667, "fusion_lon": 0.0, "rental_uris": {"ios": "https://dc.lft.to/lastmile_qr_scan", "android": "https://dc.lft.to/lastmile_qr_scan"}, "lon": -77.03398466666667, "bike_id": "e1adf4ac21d27c8aa4c9862bec7bd246", "type": "electric_scooter", "name": "e1adf4ac21d27c8aa4c9862bec7bd246"}, {"is_disabled": 0, "is_reserved": 0, "fusion_lat": 0.0, "lat": 38.92388716666667, "fusion_lon": 0.0, "rental_uris": {"ios": "https://dc.lft.to/lastmile_qr_scan", "android": "https://dc.lft.to/lastmile_qr_scan"}, "lon": -77.031154, "bike_id": "938f0a7fccc265615c172ae8e51ba33d", "type": "electric_scooter", "name": "938f0a7fccc265615c172ae8e51ba33d"}, {"is_disabled": 0, "is_reserved": 0, "fusion_lat": 0.0, "lat": 38.8844485, "fusion_lon": 0.0, "rental_uris": {"ios": "https://dc.lft.to/lastmile_qr_scan", "android": "https://dc.lft.to/lastmile_qr_scan"}, "lon": -76.93557166666666, "bike_id": "b5ac181e7a8f30d95948ba2630b6ca61", "type": "electric_scooter", "name": "b5ac181e7a8f30d95948ba2630b6ca61"}, {"is_disabled": 0, "is_reserved": 0, "fusion_lat": 0.0, "lat": 38.876851, "fusion_lon": 0.0, "rental_uris": {"ios": "https://dc.lft.to/lastmile_qr_scan", "android": "https://dc.lft.to/lastmile_qr_scan"}, "lon": -77.00068416666667, "bike_id": "b777f3329065d27bcb0f0dd3e8ffa9b4", "type": "electric_scooter", "name": "b777f3329065d27bcb0f0dd3e8ffa9b4"}, {"is_disabled": 0, "is_reserved": 0, "fusion_lat": 0.0, "lat": 38.8928275, "fusion_lon": 0.0, "rental_uris": {"ios": "https://dc.lft.to/lastmile_qr_scan", "android": "https://dc.lft.to/lastmile_qr_scan"}, "lon": -77.05051783333333, "bike_id": "63673b7707115d959ee2694b99aec33b", "type": "electric_scooter", "name": "63673b7707115d959ee2694b99aec33b"}, {"is_disabled": 0, "is_reserved": 0, "fusion_lat": 0.0, "lat": 38.92148616666667, "fusion_lon": 0.0, "rental_uris": {"ios": "https://dc.lft.to/lastmile_qr_scan", "android": "https://dc.lft.to/lastmile_qr_scan"}, "lon": -77.03501933333334, "bike_id": "2f9f45fa326e71f81c5d8e12d04a09b9", "type": "electric_scooter", "name": "2f9f45fa326e71f81c5d8e12d04a09b9"}, {"is_disabled": 0, "is_reserved": 0, "fusion_lat": 0.0, "lat": 38.90346533333334, "fusion_lon": 0.0, "rental_uris": {"ios": "https://dc.lft.to/lastmile_qr_scan", "android": "https://dc.lft.to/lastmile_qr_scan"}, "lon": -76.98276466666667, "bike_id": "158c345019b1b38bc2a3ea5658a26090", "type": "electric_scooter", "name": "158c345019b1b38bc2a3ea5658a26090"}, {"is_disabled": 0, "is_reserved": 0, "fusion_lat": 0.0, "lat": 38.904896, "fusion_lon": 0.0, "rental_uris": {"ios": "https://dc.lft.to/lastmile_qr_scan", "android": "https://dc.lft.to/lastmile_qr_scan"}, "lon": -77.00923716666667, "bike_id": "34a63e0f899a3bbea4a32121b23b955e", "type": "electric_scooter", "name": "34a63e0f899a3bbea4a32121b23b955e"}, {"is_disabled": 0, "is_reserved": 0, "fusion_lat": 0.0, "lat": 38.94143483333333, "fusion_lon": 0.0, "rental_uris": {"ios": "https://dc.lft.to/lastmile_qr_scan", "android": "https://dc.lft.to/lastmile_qr_scan"}, "lon": -77.02317266666667, "bike_id": "987469b38511177061d0e55d2016b43b", "type": "electric_scooter", "name": "987469b38511177061d0e55d2016b43b"}, {"is_disabled": 0, "is_reserved": 0, "fusion_lat": 0.0, "lat": 38.89610033333334, "fusion_lon": 0.0, "rental_uris": {"ios": "https://dc.lft.to/lastmile_qr_scan", "android": "https://dc.lft.to/lastmile_qr_scan"}, "lon": -77.04687983333334, "bike_id": "475e82342402078dabfe72b1232c8dbe", "type": "electric_scooter", "name": "475e82342402078dabfe72b1232c8dbe"}, {"is_disabled": 0, "is_reserved": 0, "fusion_lat": 0.0, "lat": 38.92220533333333, "fusion_lon": 0.0, "rental_uris": {"ios": "https://dc.lft.to/lastmile_qr_scan", "android": "https://dc.lft.to/lastmile_qr_scan"}, "lon": -77.03779683333333, "bike_id": "5950c6b8ca400d064f64550ee2d02387", "type": "electric_scooter", "name": "5950c6b8ca400d064f64550ee2d02387"}, {"is_disabled": 0, "is_reserved": 0, "fusion_lat": 0.0, "lat": 38.930715166666666, "fusion_lon": 0.0, "rental_uris": {"ios": "https://dc.lft.to/lastmile_qr_scan", "android": "https://dc.lft.to/lastmile_qr_scan"}, "lon": -77.032194, "bike_id": "c39a538cc2fb3efa6353f2233dfff57f", "type": "electric_scooter", "name": "c39a538cc2fb3efa6353f2233dfff57f"}, {"is_disabled": 0, "is_reserved": 0, "fusion_lat": 0.0, "lat": 38.93536433333333, "fusion_lon": 0.0, "rental_uris": {"ios": "https://dc.lft.to/lastmile_qr_scan", "android": "https://dc.lft.to/lastmile_qr_scan"}, "lon": -77.02352466666666, "bike_id": "41a8564790d5ed4aecea919fb3478156", "type": "electric_scooter", "name": "41a8564790d5ed4aecea919fb3478156"}, {"is_disabled": 0, "is_reserved": 0, "fusion_lat": 0.0, "lat": 38.928123666666664, "fusion_lon": 0.0, "rental_uris": {"ios": "https://dc.lft.to/lastmile_qr_scan", "android": "https://dc.lft.to/lastmile_qr_scan"}, "lon": -77.0435455, "bike_id": "182800d59dc4b0630c7af547fa1b67bf", "type": "electric_scooter", "name": "182800d59dc4b0630c7af547fa1b67bf"}, {"is_disabled": 0, "is_reserved": 0, "fusion_lat": 0.0, "lat": 38.913452166666666, "fusion_lon": 0.0, "rental_uris": {"ios": "https://dc.lft.to/lastmile_qr_scan", "android": "https://dc.lft.to/lastmile_qr_scan"}, "lon": -77.02875066666667, "bike_id": "185eb75f1d8e237b77c61989dd39c12c", "type": "electric_scooter", "name": "185eb75f1d8e237b77c61989dd39c12c"}, {"is_disabled": 0, "is_reserved": 0, "fusion_lat": 0.0, "lat": 38.9221505, "fusion_lon": 0.0, "rental_uris": {"ios": "https://dc.lft.to/lastmile_qr_scan", "android": "https://dc.lft.to/lastmile_qr_scan"}, "lon": -77.074381, "bike_id": "a7e8741b086ad80ce03ad8d3087e8f9d", "type": "electric_scooter", "name": "a7e8741b086ad80ce03ad8d3087e8f9d"}, {"is_disabled": 0, "is_reserved": 0, "fusion_lat": 0.0, "lat": 38.90596333333333, "fusion_lon": 0.0, "rental_uris": {"ios": "https://dc.lft.to/lastmile_qr_scan", "android": "https://dc.lft.to/lastmile_qr_scan"}, "lon": -77.01608833333333, "bike_id": "c7c3b2d1caccde679fc6944244386ae9", "type": "electric_scooter", "name": "c7c3b2d1caccde679fc6944244386ae9"}, {"is_disabled": 0, "is_reserved": 0, "fusion_lat": 0.0, "lat": 38.884381, "fusion_lon": 0.0, "rental_uris": {"ios": "https://dc.lft.to/lastmile_qr_scan", "android": "https://dc.lft.to/lastmile_qr_scan"}, "lon": -77.02463366666667, "bike_id": "b444b1aca8fc66558a4c862d20fb4354", "type": "electric_scooter", "name": "b444b1aca8fc66558a4c862d20fb4354"}, {"is_disabled": 0, "is_reserved": 0, "fusion_lat": 0.0, "lat": 38.921484166666666, "fusion_lon": 0.0, "rental_uris": {"ios": "https://dc.lft.to/lastmile_qr_scan", "android": "https://dc.lft.to/lastmile_qr_scan"}, "lon": -77.045646, "bike_id": "2110acdc45416c077f6b8ab623233cd1", "type": "electric_scooter", "name": "2110acdc45416c077f6b8ab623233cd1"}, {"is_disabled": 0, "is_reserved": 0, "fusion_lat": 0.0, "lat": 38.90442016666667, "fusion_lon": 0.0, "rental_uris": {"ios": "https://dc.lft.to/lastmile_qr_scan", "android": "https://dc.lft.to/lastmile_qr_scan"}, "lon": -77.03136183333334, "bike_id": "3cd3d33a5658faf9463e0447feaaa847", "type": "electric_scooter", "name": "3cd3d33a5658faf9463e0447feaaa847"}, {"is_disabled": 0, "is_reserved": 0, "fusion_lat": 0.0, "lat": 38.9059625, "fusion_lon": 0.0, "rental_uris": {"ios": "https://dc.lft.to/lastmile_qr_scan", "android": "https://dc.lft.to/lastmile_qr_scan"}, "lon": -77.00692983333333, "bike_id": "8794f95779ec545e977d4a339e67a5bb", "type": "electric_scooter", "name": "8794f95779ec545e977d4a339e67a5bb"}, {"is_disabled": 0, "is_reserved": 0, "fusion_lat": 0.0, "lat": 38.80742166666667, "fusion_lon": 0.0, "rental_uris": {"ios": "https://dc.lft.to/lastmile_qr_scan", "android": "https://dc.lft.to/lastmile_qr_scan"}, "lon": -77.0968395, "bike_id": "5f0905c1e87a19cafadd688befa9de6e", "type": "electric_bike", "name": "5f0905c1e87a19cafadd688befa9de6e"}, {"is_disabled": 0, "is_reserved": 0, "fusion_lat": 0.0, "lat": 38.93105883333333, "fusion_lon": 0.0, "rental_uris": {"ios": "https://dc.lft.to/lastmile_qr_scan", "android": "https://dc.lft.to/lastmile_qr_scan"}, "lon": -77.026692, "bike_id": "3b7338a4a5ea336d1b4670daa3425e25", "type": "electric_scooter", "name": "3b7338a4a5ea336d1b4670daa3425e25"}, {"is_disabled": 0, "is_reserved": 0, "fusion_lat": 0.0, "lat": 38.896814166666665, "fusion_lon": 0.0, "rental_uris": {"ios": "https://dc.lft.to/lastmile_qr_scan", "android": "https://dc.lft.to/lastmile_qr_scan"}, "lon": -77.04894633333333, "bike_id": "5feb5d8d6cefd3e3be36c1fd1317919f", "type": "electric_scooter", "name": "5feb5d8d6cefd3e3be36c1fd1317919f"}, {"is_disabled": 0, "is_reserved": 0, "fusion_lat": 0.0, "lat": 38.893695666666666, "fusion_lon": 0.0, "rental_uris": {"ios": "https://dc.lft.to/lastmile_qr_scan", "android": "https://dc.lft.to/lastmile_qr_scan"}, "lon": -76.94107, "bike_id": "8b818bb3e11769502c653fe3a65011a8", "type": "electric_scooter", "name": "8b818bb3e11769502c653fe3a65011a8"}, {"is_disabled": 0, "is_reserved": 0, "fusion_lat": 0.0, "lat": 38.91926383333333, "fusion_lon": 0.0, "rental_uris": {"ios": "https://dc.lft.to/lastmile_qr_scan", "android": "https://dc.lft.to/lastmile_qr_scan"}, "lon": -77.02978416666667, "bike_id": "2028f85db14cf19976269be6e0282389", "type": "electric_scooter", "name": "2028f85db14cf19976269be6e0282389"}, {"is_disabled": 0, "is_reserved": 0, "fusion_lat": 0.0, "lat": 39.00005316666667, "fusion_lon": 0.0, "rental_uris": {"ios": "https://dc.lft.to/lastmile_qr_scan", "android": "https://dc.lft.to/lastmile_qr_scan"}, "lon": -76.91804383333333, "bike_id": "4755cce948e35430f0b342b73164df0e", "type": "electric_bike", "name": "4755cce948e35430f0b342b73164df0e"}, {"is_disabled": 0, "is_reserved": 0, "fusion_lat": 0.0, "lat": 38.9370395, "fusion_lon": 0.0, "rental_uris": {"ios": "https://dc.lft.to/lastmile_qr_scan", "android": "https://dc.lft.to/lastmile_qr_scan"}, "lon": -77.05600933333334, "bike_id": "e3d7a08fa91bf9b8f6db378236aa4d0d", "type": "electric_scooter", "name": "e3d7a08fa91bf9b8f6db378236aa4d0d"}, {"is_disabled": 0, "is_reserved": 0, "fusion_lat": 0.0, "lat": 38.902716166666664, "fusion_lon": 0.0, "rental_uris": {"ios": "https://dc.lft.to/lastmile_qr_scan", "android": "https://dc.lft.to/lastmile_qr_scan"}, "lon": -77.039279, "bike_id": "a3c26f1f4327940d3aa0ab2666be9b03", "type": "electric_scooter", "name": "a3c26f1f4327940d3aa0ab2666be9b03"}, {"is_disabled": 0, "is_reserved": 0, "fusion_lat": 0.0, "lat": 38.8667515, "fusion_lon": 0.0, "rental_uris": {"ios": "https://dc.lft.to/lastmile_qr_scan", "android": "https://dc.lft.to/lastmile_qr_scan"}, "lon": -77.01069183333334, "bike_id": "b46f5334dd2f62d2682bc1e2c650342b", "type": "electric_scooter", "name": "b46f5334dd2f62d2682bc1e2c650342b"}, {"is_disabled": 0, "is_reserved": 0, "fusion_lat": 0.0, "lat": 38.89989933333333, "fusion_lon": 0.0, "rental_uris": {"ios": "https://dc.lft.to/lastmile_qr_scan", "android": "https://dc.lft.to/lastmile_qr_scan"}, "lon": -77.00925266666667, "bike_id": "3a6f4865d8057716b716ddc1cfa015bf", "type": "electric_scooter", "name": "3a6f4865d8057716b716ddc1cfa015bf"}, {"is_disabled": 0, "is_reserved": 0, "fusion_lat": 0.0, "lat": 38.8853265, "fusion_lon": 0.0, "rental_uris": {"ios": "https://dc.lft.to/lastmile_qr_scan", "android": "https://dc.lft.to/lastmile_qr_scan"}, "lon": -76.99796766666667, "bike_id": "49c38868df795fc7eea4e65a8b918d3b", "type": "electric_scooter", "name": "49c38868df795fc7eea4e65a8b918d3b"}, {"is_disabled": 0, "is_reserved": 0, "fusion_lat": 0.0, "lat": 38.916594, "fusion_lon": 0.0, "rental_uris": {"ios": "https://dc.lft.to/lastmile_qr_scan", "android": "https://dc.lft.to/lastmile_qr_scan"}, "lon": -77.0239275, "bike_id": "b810f4fedbfa230604745c648bef5527", "type": "electric_scooter", "name": "b810f4fedbfa230604745c648bef5527"}, {"is_disabled": 0, "is_reserved": 0, "fusion_lat": 0.0, "lat": 38.90275066666667, "fusion_lon": 0.0, "rental_uris": {"ios": "https://dc.lft.to/lastmile_qr_scan", "android": "https://dc.lft.to/lastmile_qr_scan"}, "lon": -77.026244, "bike_id": "2f500da2e7c6c811105f3e1fb6a50849", "type": "electric_scooter", "name": "2f500da2e7c6c811105f3e1fb6a50849"}, {"is_disabled": 0, "is_reserved": 0, "fusion_lat": 0.0, "lat": 38.8717745, "fusion_lon": 0.0, "rental_uris": {"ios": "https://dc.lft.to/lastmile_qr_scan", "android": "https://dc.lft.to/lastmile_qr_scan"}, "lon": -77.23394166666667, "bike_id": "bb776f8b1ef70823736d84a40b27e76b", "type": "electric_bike", "name": "bb776f8b1ef70823736d84a40b27e76b"}, {"is_disabled": 0, "is_reserved": 0, "fusion_lat": 0.0, "lat": 38.9653475, "fusion_lon": 0.0, "rental_uris": {"ios": "https://dc.lft.to/lastmile_qr_scan", "android": "https://dc.lft.to/lastmile_qr_scan"}, "lon": -77.03415333333334, "bike_id": "c6e0d0875753db668c68583679c8c04b", "type": "electric_bike", "name": "c6e0d0875753db668c68583679c8c04b"}, {"is_disabled": 0, "is_reserved": 0, "fusion_lat": 0.0, "lat": 38.9019285, "fusion_lon": 0.0, "rental_uris": {"ios": "https://dc.lft.to/lastmile_qr_scan", "android": "https://dc.lft.to/lastmile_qr_scan"}, "lon": -77.04874966666667, "bike_id": "3e88082d171810cb045398102e77287d", "type": "electric_scooter", "name": "3e88082d171810cb045398102e77287d"}, {"is_disabled": 0, "is_reserved": 0, "fusion_lat": 0.0, "lat": 38.93275666666667, "fusion_lon": 0.0, "rental_uris": {"ios": "https://dc.lft.to/lastmile_qr_scan", "android": "https://dc.lft.to/lastmile_qr_scan"}, "lon": -77.034812, "bike_id": "2808ba206c128c684484b3eebe7fad5d", "type": "electric_scooter", "name": "2808ba206c128c684484b3eebe7fad5d"}, {"is_disabled": 0, "is_reserved": 0, "fusion_lat": 0.0, "lat": 38.89909733333333, "fusion_lon": 0.0, "rental_uris": {"ios": "https://dc.lft.to/lastmile_qr_scan", "android": "https://dc.lft.to/lastmile_qr_scan"}, "lon": -77.039756, "bike_id": "aa0dfcce34f723ca46233dfef9653c5a", "type": "electric_scooter", "name": "aa0dfcce34f723ca46233dfef9653c5a"}, {"is_disabled": 0, "is_reserved": 0, "fusion_lat": 0.0, "lat": 38.92149716666667, "fusion_lon": 0.0, "rental_uris": {"ios": "https://dc.lft.to/lastmile_qr_scan", "android": "https://dc.lft.to/lastmile_qr_scan"}, "lon": -77.03507516666667, "bike_id": "ee767bb5f8cda1dd7fd1b5055e5f49ca", "type": "electric_scooter", "name": "ee767bb5f8cda1dd7fd1b5055e5f49ca"}, {"is_disabled": 0, "is_reserved": 0, "fusion_lat": 0.0, "lat": 38.927835333333334, "fusion_lon": 0.0, "rental_uris": {"ios": "https://dc.lft.to/lastmile_qr_scan", "android": "https://dc.lft.to/lastmile_qr_scan"}, "lon": -77.05261866666666, "bike_id": "4fe89e40585c22aadda6c00f8095bef9", "type": "electric_scooter", "name": "4fe89e40585c22aadda6c00f8095bef9"}, {"is_disabled": 0, "is_reserved": 0, "fusion_lat": 0.0, "lat": 38.907745166666665, "fusion_lon": 0.0, "rental_uris": {"ios": "https://dc.lft.to/lastmile_qr_scan", "android": "https://dc.lft.to/lastmile_qr_scan"}, "lon": -77.03543533333334, "bike_id": "f0912934439f09cfaf2ffff55d6aa1ed", "type": "electric_scooter", "name": "f0912934439f09cfaf2ffff55d6aa1ed"}, {"is_disabled": 0, "is_reserved": 0, "fusion_lat": 0.0, "lat": 38.886671166666666, "fusion_lon": 0.0, "rental_uris": {"ios": "https://dc.lft.to/lastmile_qr_scan", "android": "https://dc.lft.to/lastmile_qr_scan"}, "lon": -77.162321, "bike_id": "6f51a3fc6f94b132c6571e1ca23d9342", "type": "electric_bike", "name": "6f51a3fc6f94b132c6571e1ca23d9342"}, {"is_disabled": 0, "is_reserved": 0, "fusion_lat": 0.0, "lat": 38.905000666666666, "fusion_lon": 0.0, "rental_uris": {"ios": "https://dc.lft.to/lastmile_qr_scan", "android": "https://dc.lft.to/lastmile_qr_scan"}, "lon": -77.02499316666666, "bike_id": "9ba0ded36bd25c623ac241f248465586", "type": "electric_scooter", "name": "9ba0ded36bd25c623ac241f248465586"}, {"is_disabled": 0, "is_reserved": 0, "fusion_lat": 0.0, "lat": 38.912727833333335, "fusion_lon": 0.0, "rental_uris": {"ios": "https://dc.lft.to/lastmile_qr_scan", "android": "https://dc.lft.to/lastmile_qr_scan"}, "lon": -77.04551066666667, "bike_id": "77f5166bd9c62307093050b7ff55a6cb", "type": "electric_scooter", "name": "77f5166bd9c62307093050b7ff55a6cb"}, {"is_disabled": 0, "is_reserved": 0, "fusion_lat": 0.0, "lat": 38.92176516666667, "fusion_lon": 0.0, "rental_uris": {"ios": "https://dc.lft.to/lastmile_qr_scan", "android": "https://dc.lft.to/lastmile_qr_scan"}, "lon": -77.0181845, "bike_id": "1a9a85ffdf6820bdeb6b1a7b7c45d9bd", "type": "electric_scooter", "name": "1a9a85ffdf6820bdeb6b1a7b7c45d9bd"}, {"is_disabled": 0, "is_reserved": 0, "fusion_lat": 0.0, "lat": 38.90649916666667, "fusion_lon": 0.0, "rental_uris": {"ios": "https://dc.lft.to/lastmile_qr_scan", "android": "https://dc.lft.to/lastmile_qr_scan"}, "lon": -77.05310783333333, "bike_id": "5991c2dae55feafee3c2ccf8e51e8645", "type": "electric_scooter", "name": "5991c2dae55feafee3c2ccf8e51e8645"}, {"is_disabled": 0, "is_reserved": 0, "fusion_lat": 0.0, "lat": 38.941057666666666, "fusion_lon": 0.0, "rental_uris": {"ios": "https://dc.lft.to/lastmile_qr_scan", "android": "https://dc.lft.to/lastmile_qr_scan"}, "lon": -76.95626883333334, "bike_id": "a26fed59cfab4ab8ec24f362352a489e", "type": "electric_bike", "name": "a26fed59cfab4ab8ec24f362352a489e"}, {"is_disabled": 0, "is_reserved": 0, "fusion_lat": 0.0, "lat": 38.96767033333333, "fusion_lon": 0.0, "rental_uris": {"ios": "https://dc.lft.to/lastmile_qr_scan", "android": "https://dc.lft.to/lastmile_qr_scan"}, "lon": -77.03422583333334, "bike_id": "12a3b78b68d59379f922f3c2ceefc54e", "type": "electric_scooter", "name": "12a3b78b68d59379f922f3c2ceefc54e"}, {"is_disabled": 0, "is_reserved": 0, "fusion_lat": 0.0, "lat": 38.9141725, "fusion_lon": 0.0, "rental_uris": {"ios": "https://dc.lft.to/lastmile_qr_scan", "android": "https://dc.lft.to/lastmile_qr_scan"}, "lon": -77.03301083333334, "bike_id": "6951e78ec84d2fe26f1b2dca1c8d92d9", "type": "electric_scooter", "name": "6951e78ec84d2fe26f1b2dca1c8d92d9"}, {"is_disabled": 0, "is_reserved": 0, "fusion_lat": 0.0, "lat": 38.917927166666665, "fusion_lon": 0.0, "rental_uris": {"ios": "https://dc.lft.to/lastmile_qr_scan", "android": "https://dc.lft.to/lastmile_qr_scan"}, "lon": -77.03188766666666, "bike_id": "974a6754c3a1064789c7a3ab23ddb83a", "type": "electric_scooter", "name": "974a6754c3a1064789c7a3ab23ddb83a"}, {"is_disabled": 0, "is_reserved": 0, "fusion_lat": 0.0, "lat": 38.8933935, "fusion_lon": 0.0, "rental_uris": {"ios": "https://dc.lft.to/lastmile_qr_scan", "android": "https://dc.lft.to/lastmile_qr_scan"}, "lon": -76.9288725, "bike_id": "bee6208294e74224579502b7fc41bf51", "type": "electric_scooter", "name": "bee6208294e74224579502b7fc41bf51"}, {"is_disabled": 0, "is_reserved": 0, "fusion_lat": 0.0, "lat": 38.9300495, "fusion_lon": 0.0, "rental_uris": {"ios": "https://dc.lft.to/lastmile_qr_scan", "android": "https://dc.lft.to/lastmile_qr_scan"}, "lon": -77.0380655, "bike_id": "4ec5588557b2690626d2035bf66b0dbb", "type": "electric_scooter", "name": "4ec5588557b2690626d2035bf66b0dbb"}, {"is_disabled": 0, "is_reserved": 0, "fusion_lat": 0.0, "lat": 38.895117, "fusion_lon": 0.0, "rental_uris": {"ios": "https://dc.lft.to/lastmile_qr_scan", "android": "https://dc.lft.to/lastmile_qr_scan"}, "lon": -77.0229835, "bike_id": "414a488b8f1766c8c77b267b5297bd94", "type": "electric_scooter", "name": "414a488b8f1766c8c77b267b5297bd94"}, {"is_disabled": 0, "is_reserved": 0, "fusion_lat": 0.0, "lat": 38.920743333333334, "fusion_lon": 0.0, "rental_uris": {"ios": "https://dc.lft.to/lastmile_qr_scan", "android": "https://dc.lft.to/lastmile_qr_scan"}, "lon": -77.025654, "bike_id": "055dc506cca1940326bc2070645f3705", "type": "electric_scooter", "name": "055dc506cca1940326bc2070645f3705"}, {"is_disabled": 0, "is_reserved": 0, "fusion_lat": 0.0, "lat": 38.9012975, "fusion_lon": 0.0, "rental_uris": {"ios": "https://dc.lft.to/lastmile_qr_scan", "android": "https://dc.lft.to/lastmile_qr_scan"}, "lon": -77.03924116666667, "bike_id": "4abab824a394787ef1d19a305db6c470", "type": "electric_scooter", "name": "4abab824a394787ef1d19a305db6c470"}, {"is_disabled": 0, "is_reserved": 0, "fusion_lat": 0.0, "lat": 38.89224, "fusion_lon": 0.0, "rental_uris": {"ios": "https://dc.lft.to/lastmile_qr_scan", "android": "https://dc.lft.to/lastmile_qr_scan"}, "lon": -77.02775683333333, "bike_id": "a9309b7b8399a4524c6509ec066704c6", "type": "electric_scooter", "name": "a9309b7b8399a4524c6509ec066704c6"}, {"is_disabled": 0, "is_reserved": 0, "fusion_lat": 0.0, "lat": 38.89751733333333, "fusion_lon": 0.0, "rental_uris": {"ios": "https://dc.lft.to/lastmile_qr_scan", "android": "https://dc.lft.to/lastmile_qr_scan"}, "lon": -77.0217335, "bike_id": "d52554665afa625e5d04f3cdedfe867a", "type": "electric_scooter", "name": "d52554665afa625e5d04f3cdedfe867a"}, {"is_disabled": 0, "is_reserved": 0, "fusion_lat": 0.0, "lat": 38.897513333333336, "fusion_lon": 0.0, "rental_uris": {"ios": "https://dc.lft.to/lastmile_qr_scan", "android": "https://dc.lft.to/lastmile_qr_scan"}, "lon": -77.02162966666667, "bike_id": "18b83b0e5bbd573f56704a4c69884674", "type": "electric_scooter", "name": "18b83b0e5bbd573f56704a4c69884674"}, {"is_disabled": 0, "is_reserved": 0, "fusion_lat": 0.0, "lat": 38.90955, "fusion_lon": 0.0, "rental_uris": {"ios": "https://dc.lft.to/lastmile_qr_scan", "android": "https://dc.lft.to/lastmile_qr_scan"}, "lon": -77.04925466666667, "bike_id": "5ae57cd6529cdf92ab7f1e725f3c1f8c", "type": "electric_scooter", "name": "5ae57cd6529cdf92ab7f1e725f3c1f8c"}, {"is_disabled": 0, "is_reserved": 0, "fusion_lat": 0.0, "lat": 38.89427116666667, "fusion_lon": 0.0, "rental_uris": {"ios": "https://dc.lft.to/lastmile_qr_scan", "android": "https://dc.lft.to/lastmile_qr_scan"}, "lon": -77.0559705, "bike_id": "545e8ff98d5f0cc32f0d0422b313ece7", "type": "electric_scooter", "name": "545e8ff98d5f0cc32f0d0422b313ece7"}, {"is_disabled": 0, "is_reserved": 0, "fusion_lat": 0.0, "lat": 38.910622000000004, "fusion_lon": 0.0, "rental_uris": {"ios": "https://dc.lft.to/lastmile_qr_scan", "android": "https://dc.lft.to/lastmile_qr_scan"}, "lon": -77.02189916666667, "bike_id": "745a52b479cb7402880e52749e910225", "type": "electric_scooter", "name": "745a52b479cb7402880e52749e910225"}, {"is_disabled": 0, "is_reserved": 0, "fusion_lat": 0.0, "lat": 38.900476166666664, "fusion_lon": 0.0, "rental_uris": {"ios": "https://dc.lft.to/lastmile_qr_scan", "android": "https://dc.lft.to/lastmile_qr_scan"}, "lon": -77.0177405, "bike_id": "8452a383d4743b6ab9074ec0d769bb2b", "type": "electric_scooter", "name": "8452a383d4743b6ab9074ec0d769bb2b"}, {"is_disabled": 0, "is_reserved": 0, "fusion_lat": 0.0, "lat": 38.84622983333333, "fusion_lon": 0.0, "rental_uris": {"ios": "https://dc.lft.to/lastmile_qr_scan", "android": "https://dc.lft.to/lastmile_qr_scan"}, "lon": -76.97837583333333, "bike_id": "68a01c14b1bad09c750f39a5c271f9e4", "type": "electric_bike", "name": "68a01c14b1bad09c750f39a5c271f9e4"}, {"is_disabled": 0, "is_reserved": 0, "fusion_lat": 0.0, "lat": 38.898964, "fusion_lon": 0.0, "rental_uris": {"ios": "https://dc.lft.to/lastmile_qr_scan", "android": "https://dc.lft.to/lastmile_qr_scan"}, "lon": -77.0197455, "bike_id": "34e2cab38129ca6d87de7e94c576a797", "type": "electric_scooter", "name": "34e2cab38129ca6d87de7e94c576a797"}, {"is_disabled": 0, "is_reserved": 0, "fusion_lat": 0.0, "lat": 38.91931366666667, "fusion_lon": 0.0, "rental_uris": {"ios": "https://dc.lft.to/lastmile_qr_scan", "android": "https://dc.lft.to/lastmile_qr_scan"}, "lon": -77.044966, "bike_id": "35a9c3ed15e455b042eb1f0709e8fdd8", "type": "electric_scooter", "name": "35a9c3ed15e455b042eb1f0709e8fdd8"}, {"is_disabled": 0, "is_reserved": 0, "fusion_lat": 0.0, "lat": 38.91957383333333, "fusion_lon": 0.0, "rental_uris": {"ios": "https://dc.lft.to/lastmile_qr_scan", "android": "https://dc.lft.to/lastmile_qr_scan"}, "lon": -77.01888016666666, "bike_id": "697f6b847e9453fc8119352260333474", "type": "electric_scooter", "name": "697f6b847e9453fc8119352260333474"}, {"is_disabled": 0, "is_reserved": 0, "fusion_lat": 0.0, "lat": 38.88713883333333, "fusion_lon": 0.0, "rental_uris": {"ios": "https://dc.lft.to/lastmile_qr_scan", "android": "https://dc.lft.to/lastmile_qr_scan"}, "lon": -76.98341416666666, "bike_id": "2af412ea206f1c7e523a8f0ae2067a26", "type": "electric_scooter", "name": "2af412ea206f1c7e523a8f0ae2067a26"}, {"is_disabled": 0, "is_reserved": 0, "fusion_lat": 0.0, "lat": 38.88029783333333, "fusion_lon": 0.0, "rental_uris": {"ios": "https://dc.lft.to/lastmile_qr_scan", "android": "https://dc.lft.to/lastmile_qr_scan"}, "lon": -76.94321166666667, "bike_id": "1aeecd23c854a0b0df7e79502375d2d5", "type": "electric_scooter", "name": "1aeecd23c854a0b0df7e79502375d2d5"}, {"is_disabled": 0, "is_reserved": 0, "fusion_lat": 0.0, "lat": 38.84657883333333, "fusion_lon": 0.0, "rental_uris": {"ios": "https://dc.lft.to/lastmile_qr_scan", "android": "https://dc.lft.to/lastmile_qr_scan"}, "lon": -77.00369633333334, "bike_id": "b7806a038ab92adf1759cf3d1dff3b69", "type": "electric_scooter", "name": "b7806a038ab92adf1759cf3d1dff3b69"}, {"is_disabled": 0, "is_reserved": 0, "fusion_lat": 0.0, "lat": 38.91777733333333, "fusion_lon": 0.0, "rental_uris": {"ios": "https://dc.lft.to/lastmile_qr_scan", "android": "https://dc.lft.to/lastmile_qr_scan"}, "lon": -77.02694316666667, "bike_id": "edd06bf5829bbe574201c8806cbca75d", "type": "electric_scooter", "name": "edd06bf5829bbe574201c8806cbca75d"}, {"is_disabled": 0, "is_reserved": 0, "fusion_lat": 0.0, "lat": 38.89922966666666, "fusion_lon": 0.0, "rental_uris": {"ios": "https://dc.lft.to/lastmile_qr_scan", "android": "https://dc.lft.to/lastmile_qr_scan"}, "lon": -76.93382633333333, "bike_id": "fc47126a387786d1b1355db5f9cff841", "type": "electric_scooter", "name": "fc47126a387786d1b1355db5f9cff841"}, {"is_disabled": 0, "is_reserved": 0, "fusion_lat": 0.0, "lat": 38.89901416666667, "fusion_lon": 0.0, "rental_uris": {"ios": "https://dc.lft.to/lastmile_qr_scan", "android": "https://dc.lft.to/lastmile_qr_scan"}, "lon": -77.03982583333334, "bike_id": "413a1b7722d1b2c9813805568517c0a0", "type": "electric_scooter", "name": "413a1b7722d1b2c9813805568517c0a0"}, {"is_disabled": 0, "is_reserved": 0, "fusion_lat": 0.0, "lat": 38.912673166666664, "fusion_lon": 0.0, "rental_uris": {"ios": "https://dc.lft.to/lastmile_qr_scan", "android": "https://dc.lft.to/lastmile_qr_scan"}, "lon": -77.01604366666666, "bike_id": "8eb474c9e86f480ab5eaaa7e4d5bc49d", "type": "electric_scooter", "name": "8eb474c9e86f480ab5eaaa7e4d5bc49d"}, {"is_disabled": 0, "is_reserved": 0, "fusion_lat": 0.0, "lat": 38.88039333333333, "fusion_lon": 0.0, "rental_uris": {"ios": "https://dc.lft.to/lastmile_qr_scan", "android": "https://dc.lft.to/lastmile_qr_scan"}, "lon": -76.927248, "bike_id": "b0c19d1376b831c4008e71a20fb9bfb1", "type": "electric_scooter", "name": "b0c19d1376b831c4008e71a20fb9bfb1"}, {"is_disabled": 0, "is_reserved": 0, "fusion_lat": 0.0, "lat": 38.9167675, "fusion_lon": 0.0, "rental_uris": {"ios": "https://dc.lft.to/lastmile_qr_scan", "android": "https://dc.lft.to/lastmile_qr_scan"}, "lon": -77.0318545, "bike_id": "557881cff944d14271d42f41fb3d9fcb", "type": "electric_scooter", "name": "557881cff944d14271d42f41fb3d9fcb"}, {"is_disabled": 0, "is_reserved": 0, "fusion_lat": 0.0, "lat": 38.922614333333335, "fusion_lon": 0.0, "rental_uris": {"ios": "https://dc.lft.to/lastmile_qr_scan", "android": "https://dc.lft.to/lastmile_qr_scan"}, "lon": -77.072749, "bike_id": "56fa64f72e7b7a3c54d70d8361327a46", "type": "electric_scooter", "name": "56fa64f72e7b7a3c54d70d8361327a46"}, {"is_disabled": 0, "is_reserved": 0, "fusion_lat": 0.0, "lat": 38.92765433333334, "fusion_lon": 0.0, "rental_uris": {"ios": "https://dc.lft.to/lastmile_qr_scan", "android": "https://dc.lft.to/lastmile_qr_scan"}, "lon": -77.0295205, "bike_id": "537268d13b987514bd1cfd4ddab01318", "type": "electric_scooter", "name": "537268d13b987514bd1cfd4ddab01318"}, {"is_disabled": 0, "is_reserved": 0, "fusion_lat": 0.0, "lat": 38.89744483333333, "fusion_lon": 0.0, "rental_uris": {"ios": "https://dc.lft.to/lastmile_qr_scan", "android": "https://dc.lft.to/lastmile_qr_scan"}, "lon": -77.021548, "bike_id": "93a4dccde36793ca7483195ee1b133a1", "type": "electric_scooter", "name": "93a4dccde36793ca7483195ee1b133a1"}, {"is_disabled": 0, "is_reserved": 0, "fusion_lat": 0.0, "lat": 38.896149333333334, "fusion_lon": 0.0, "rental_uris": {"ios": "https://dc.lft.to/lastmile_qr_scan", "android": "https://dc.lft.to/lastmile_qr_scan"}, "lon": -77.00334116666667, "bike_id": "1f878dd51222cf0be4e583d0621fa509", "type": "electric_scooter", "name": "1f878dd51222cf0be4e583d0621fa509"}, {"is_disabled": 0, "is_reserved": 0, "fusion_lat": 0.0, "lat": 38.9287155, "fusion_lon": 0.0, "rental_uris": {"ios": "https://dc.lft.to/lastmile_qr_scan", "android": "https://dc.lft.to/lastmile_qr_scan"}, "lon": -77.05656783333333, "bike_id": "ba2ad613bed67a150906f2829a9754c1", "type": "electric_scooter", "name": "ba2ad613bed67a150906f2829a9754c1"}, {"is_disabled": 0, "is_reserved": 0, "fusion_lat": 0.0, "lat": 38.920151, "fusion_lon": 0.0, "rental_uris": {"ios": "https://dc.lft.to/lastmile_qr_scan", "android": "https://dc.lft.to/lastmile_qr_scan"}, "lon": -77.03158383333333, "bike_id": "6bbac118e2553fa62b91fd29aa710e2c", "type": "electric_scooter", "name": "6bbac118e2553fa62b91fd29aa710e2c"}, {"is_disabled": 0, "is_reserved": 0, "fusion_lat": 0.0, "lat": 38.82926366666667, "fusion_lon": 0.0, "rental_uris": {"ios": "https://dc.lft.to/lastmile_qr_scan", "android": "https://dc.lft.to/lastmile_qr_scan"}, "lon": -77.06873016666667, "bike_id": "e5142e4f7c47d0ef43ec9c8988ff1a05", "type": "electric_bike", "name": "e5142e4f7c47d0ef43ec9c8988ff1a05"}, {"is_disabled": 0, "is_reserved": 0, "fusion_lat": 0.0, "lat": 38.8052715, "fusion_lon": 0.0, "rental_uris": {"ios": "https://dc.lft.to/lastmile_qr_scan", "android": "https://dc.lft.to/lastmile_qr_scan"}, "lon": -77.04334966666667, "bike_id": "1402cbcd6d1199ee81f274d3f1d52ee4", "type": "electric_bike", "name": "1402cbcd6d1199ee81f274d3f1d52ee4"}, {"is_disabled": 0, "is_reserved": 0, "fusion_lat": 0.0, "lat": 38.917012, "fusion_lon": 0.0, "rental_uris": {"ios": "https://dc.lft.to/lastmile_qr_scan", "android": "https://dc.lft.to/lastmile_qr_scan"}, "lon": -77.02833666666666, "bike_id": "faffbcb3713ad23f0e1b092dbd203131", "type": "electric_bike", "name": "faffbcb3713ad23f0e1b092dbd203131"}, {"is_disabled": 0, "is_reserved": 0, "fusion_lat": 0.0, "lat": 38.878992833333335, "fusion_lon": 0.0, "rental_uris": {"ios": "https://dc.lft.to/lastmile_qr_scan", "android": "https://dc.lft.to/lastmile_qr_scan"}, "lon": -77.00563216666667, "bike_id": "971f0d7fec48a0b8cbcf4b6e98500a1a", "type": "electric_scooter", "name": "971f0d7fec48a0b8cbcf4b6e98500a1a"}, {"is_disabled": 0, "is_reserved": 0, "fusion_lat": 0.0, "lat": 38.908493, "fusion_lon": 0.0, "rental_uris": {"ios": "https://dc.lft.to/lastmile_qr_scan", "android": "https://dc.lft.to/lastmile_qr_scan"}, "lon": -76.93446666666667, "bike_id": "70a1b643d75529d2577e1a8f7ffdc206", "type": "electric_scooter", "name": "70a1b643d75529d2577e1a8f7ffdc206"}, {"is_disabled": 0, "is_reserved": 0, "fusion_lat": 0.0, "lat": 38.920523, "fusion_lon": 0.0, "rental_uris": {"ios": "https://dc.lft.to/lastmile_qr_scan", "android": "https://dc.lft.to/lastmile_qr_scan"}, "lon": -77.025741, "bike_id": "aa773105c5aa332aab1c20487c54fa9f", "type": "electric_scooter", "name": "aa773105c5aa332aab1c20487c54fa9f"}, {"is_disabled": 0, "is_reserved": 0, "fusion_lat": 0.0, "lat": 38.96800783333333, "fusion_lon": 0.0, "rental_uris": {"ios": "https://dc.lft.to/lastmile_qr_scan", "android": "https://dc.lft.to/lastmile_qr_scan"}, "lon": -77.02431383333334, "bike_id": "d752c7d0e5c51cdf9f4628a3412fb4cc", "type": "electric_scooter", "name": "d752c7d0e5c51cdf9f4628a3412fb4cc"}, {"is_disabled": 0, "is_reserved": 0, "fusion_lat": 0.0, "lat": 38.900298166666666, "fusion_lon": 0.0, "rental_uris": {"ios": "https://dc.lft.to/lastmile_qr_scan", "android": "https://dc.lft.to/lastmile_qr_scan"}, "lon": -76.98809633333333, "bike_id": "2a2aa0dee38b8464f9709936e7f04e6d", "type": "electric_scooter", "name": "2a2aa0dee38b8464f9709936e7f04e6d"}, {"is_disabled": 0, "is_reserved": 0, "fusion_lat": 0.0, "lat": 38.901599166666664, "fusion_lon": 0.0, "rental_uris": {"ios": "https://dc.lft.to/lastmile_qr_scan", "android": "https://dc.lft.to/lastmile_qr_scan"}, "lon": -77.02485716666666, "bike_id": "c0767b49690908bce0f1cd1ecad522de", "type": "electric_scooter", "name": "c0767b49690908bce0f1cd1ecad522de"}, {"is_disabled": 0, "is_reserved": 0, "fusion_lat": 0.0, "lat": 38.944937333333336, "fusion_lon": 0.0, "rental_uris": {"ios": "https://dc.lft.to/lastmile_qr_scan", "android": "https://dc.lft.to/lastmile_qr_scan"}, "lon": -77.00735783333333, "bike_id": "818d8febc03c45eabd0d7268859daf11", "type": "electric_bike", "name": "818d8febc03c45eabd0d7268859daf11"}, {"is_disabled": 0, "is_reserved": 0, "fusion_lat": 0.0, "lat": 38.89610733333333, "fusion_lon": 0.0, "rental_uris": {"ios": "https://dc.lft.to/lastmile_qr_scan", "android": "https://dc.lft.to/lastmile_qr_scan"}, "lon": -77.0468745, "bike_id": "1b59a139f88070b2a7af047f42bd6e50", "type": "electric_scooter", "name": "1b59a139f88070b2a7af047f42bd6e50"}, {"is_disabled": 0, "is_reserved": 0, "fusion_lat": 0.0, "lat": 38.921136, "fusion_lon": 0.0, "rental_uris": {"ios": "https://dc.lft.to/lastmile_qr_scan", "android": "https://dc.lft.to/lastmile_qr_scan"}, "lon": -77.041762, "bike_id": "89b3ae09d6dcf1703ae0545c9437cc8d", "type": "electric_scooter", "name": "89b3ae09d6dcf1703ae0545c9437cc8d"}, {"is_disabled": 0, "is_reserved": 0, "fusion_lat": 0.0, "lat": 38.902498666666666, "fusion_lon": 0.0, "rental_uris": {"ios": "https://dc.lft.to/lastmile_qr_scan", "android": "https://dc.lft.to/lastmile_qr_scan"}, "lon": -77.00771833333333, "bike_id": "ca697b438494b14ceeee1b4e303270f6", "type": "electric_scooter", "name": "ca697b438494b14ceeee1b4e303270f6"}, {"is_disabled": 0, "is_reserved": 0, "fusion_lat": 0.0, "lat": 38.87635916666667, "fusion_lon": 0.0, "rental_uris": {"ios": "https://dc.lft.to/lastmile_qr_scan", "android": "https://dc.lft.to/lastmile_qr_scan"}, "lon": -77.0095675, "bike_id": "c140b18d24b34d7ba242348450228da3", "type": "electric_scooter", "name": "c140b18d24b34d7ba242348450228da3"}, {"is_disabled": 0, "is_reserved": 0, "fusion_lat": 0.0, "lat": 38.8857975, "fusion_lon": 0.0, "rental_uris": {"ios": "https://dc.lft.to/lastmile_qr_scan", "android": "https://dc.lft.to/lastmile_qr_scan"}, "lon": -77.01212866666667, "bike_id": "da2ba3af78a4f3fe0070ffff1cee4b08", "type": "electric_scooter", "name": "da2ba3af78a4f3fe0070ffff1cee4b08"}, {"is_disabled": 0, "is_reserved": 0, "fusion_lat": 0.0, "lat": 38.9318975, "fusion_lon": 0.0, "rental_uris": {"ios": "https://dc.lft.to/lastmile_qr_scan", "android": "https://dc.lft.to/lastmile_qr_scan"}, "lon": -77.034471, "bike_id": "175f3f6b4b14b9e31627be33fddda01f", "type": "electric_scooter", "name": "175f3f6b4b14b9e31627be33fddda01f"}, {"is_disabled": 0, "is_reserved": 0, "fusion_lat": 0.0, "lat": 38.92173066666667, "fusion_lon": 0.0, "rental_uris": {"ios": "https://dc.lft.to/lastmile_qr_scan", "android": "https://dc.lft.to/lastmile_qr_scan"}, "lon": -77.032625, "bike_id": "d7941413a9c23bdf8cea8f40a03da8e2", "type": "electric_scooter", "name": "d7941413a9c23bdf8cea8f40a03da8e2"}, {"is_disabled": 0, "is_reserved": 0, "fusion_lat": 0.0, "lat": 38.910570666666665, "fusion_lon": 0.0, "rental_uris": {"ios": "https://dc.lft.to/lastmile_qr_scan", "android": "https://dc.lft.to/lastmile_qr_scan"}, "lon": -77.0230095, "bike_id": "fcab14b8665ee6f4aa192accd3716208", "type": "electric_scooter", "name": "fcab14b8665ee6f4aa192accd3716208"}, {"is_disabled": 0, "is_reserved": 0, "fusion_lat": 0.0, "lat": 38.928104, "fusion_lon": 0.0, "rental_uris": {"ios": "https://dc.lft.to/lastmile_qr_scan", "android": "https://dc.lft.to/lastmile_qr_scan"}, "lon": -77.04349716666667, "bike_id": "c10a33236fc5f1864f0407749ea3273e", "type": "electric_scooter", "name": "c10a33236fc5f1864f0407749ea3273e"}, {"is_disabled": 0, "is_reserved": 0, "fusion_lat": 0.0, "lat": 38.91041583333333, "fusion_lon": 0.0, "rental_uris": {"ios": "https://dc.lft.to/lastmile_qr_scan", "android": "https://dc.lft.to/lastmile_qr_scan"}, "lon": -76.93834716666667, "bike_id": "9e4553901df14d9bede8ff3d2d8678fc", "type": "electric_scooter", "name": "9e4553901df14d9bede8ff3d2d8678fc"}, {"is_disabled": 0, "is_reserved": 0, "fusion_lat": 0.0, "lat": 38.899416, "fusion_lon": 0.0, "rental_uris": {"ios": "https://dc.lft.to/lastmile_qr_scan", "android": "https://dc.lft.to/lastmile_qr_scan"}, "lon": -76.93773083333333, "bike_id": "e440010152c235e64c0b7cb45fe6705f", "type": "electric_scooter", "name": "e440010152c235e64c0b7cb45fe6705f"}, {"is_disabled": 0, "is_reserved": 0, "fusion_lat": 0.0, "lat": 39.03480116666667, "fusion_lon": 0.0, "rental_uris": {"ios": "https://dc.lft.to/lastmile_qr_scan", "android": "https://dc.lft.to/lastmile_qr_scan"}, "lon": -77.0410585, "bike_id": "353d85363b30693d8af6b0591a434b3f", "type": "electric_bike", "name": "353d85363b30693d8af6b0591a434b3f"}, {"is_disabled": 0, "is_reserved": 0, "fusion_lat": 0.0, "lat": 38.89636483333334, "fusion_lon": 0.0, "rental_uris": {"ios": "https://dc.lft.to/lastmile_qr_scan", "android": "https://dc.lft.to/lastmile_qr_scan"}, "lon": -76.92961866666667, "bike_id": "f3c5f00620ab3fa5b01acf9c3cfe18cb", "type": "electric_scooter", "name": "f3c5f00620ab3fa5b01acf9c3cfe18cb"}, {"is_disabled": 0, "is_reserved": 0, "fusion_lat": 0.0, "lat": 38.90188416666667, "fusion_lon": 0.0, "rental_uris": {"ios": "https://dc.lft.to/lastmile_qr_scan", "android": "https://dc.lft.to/lastmile_qr_scan"}, "lon": -76.9767785, "bike_id": "6535cb3c0d9e485448e96cdb89db9d91", "type": "electric_scooter", "name": "6535cb3c0d9e485448e96cdb89db9d91"}, {"is_disabled": 0, "is_reserved": 0, "fusion_lat": 0.0, "lat": 38.956073333333336, "fusion_lon": 0.0, "rental_uris": {"ios": "https://dc.lft.to/lastmile_qr_scan", "android": "https://dc.lft.to/lastmile_qr_scan"}, "lon": -77.01018083333334, "bike_id": "1d41ac91f022580a99a7faa1d53453ab", "type": "electric_bike", "name": "1d41ac91f022580a99a7faa1d53453ab"}, {"is_disabled": 0, "is_reserved": 0, "fusion_lat": 0.0, "lat": 38.911209666666664, "fusion_lon": 0.0, "rental_uris": {"ios": "https://dc.lft.to/lastmile_qr_scan", "android": "https://dc.lft.to/lastmile_qr_scan"}, "lon": -77.0223055, "bike_id": "7c6cedb64889582ec78e53510e4b79c4", "type": "electric_scooter", "name": "7c6cedb64889582ec78e53510e4b79c4"}, {"is_disabled": 0, "is_reserved": 0, "fusion_lat": 0.0, "lat": 38.920823, "fusion_lon": 0.0, "rental_uris": {"ios": "https://dc.lft.to/lastmile_qr_scan", "android": "https://dc.lft.to/lastmile_qr_scan"}, "lon": -77.0245105, "bike_id": "aa7501c33cba2ca58d6d8c74a2b9de66", "type": "electric_scooter", "name": "aa7501c33cba2ca58d6d8c74a2b9de66"}, {"is_disabled": 0, "is_reserved": 0, "fusion_lat": 0.0, "lat": 38.8800905, "fusion_lon": 0.0, "rental_uris": {"ios": "https://dc.lft.to/lastmile_qr_scan", "android": "https://dc.lft.to/lastmile_qr_scan"}, "lon": -76.99834516666667, "bike_id": "29a6bf39288877d96510939fcad67d26", "type": "electric_scooter", "name": "29a6bf39288877d96510939fcad67d26"}, {"is_disabled": 0, "is_reserved": 0, "fusion_lat": 0.0, "lat": 38.921021833333334, "fusion_lon": 0.0, "rental_uris": {"ios": "https://dc.lft.to/lastmile_qr_scan", "android": "https://dc.lft.to/lastmile_qr_scan"}, "lon": -77.02090033333333, "bike_id": "eeeb17e73b03cb999c83d37b8be8625f", "type": "electric_scooter", "name": "eeeb17e73b03cb999c83d37b8be8625f"}, {"is_disabled": 0, "is_reserved": 0, "fusion_lat": 0.0, "lat": 38.914467333333334, "fusion_lon": 0.0, "rental_uris": {"ios": "https://dc.lft.to/lastmile_qr_scan", "android": "https://dc.lft.to/lastmile_qr_scan"}, "lon": -77.02290416666666, "bike_id": "f41119059673f29ebc07e1a663b7a42a", "type": "electric_scooter", "name": "f41119059673f29ebc07e1a663b7a42a"}, {"is_disabled": 0, "is_reserved": 0, "fusion_lat": 0.0, "lat": 38.91793633333333, "fusion_lon": 0.0, "rental_uris": {"ios": "https://dc.lft.to/lastmile_qr_scan", "android": "https://dc.lft.to/lastmile_qr_scan"}, "lon": -77.03193416666667, "bike_id": "cdc8c2b930fd2396e345dd7f5b204397", "type": "electric_scooter", "name": "cdc8c2b930fd2396e345dd7f5b204397"}, {"is_disabled": 0, "is_reserved": 0, "fusion_lat": 0.0, "lat": 38.92493483333333, "fusion_lon": 0.0, "rental_uris": {"ios": "https://dc.lft.to/lastmile_qr_scan", "android": "https://dc.lft.to/lastmile_qr_scan"}, "lon": -77.02692933333333, "bike_id": "68124f59077bd33578c7b3421bbc3c76", "type": "electric_scooter", "name": "68124f59077bd33578c7b3421bbc3c76"}, {"is_disabled": 0, "is_reserved": 0, "fusion_lat": 0.0, "lat": 38.875833166666666, "fusion_lon": 0.0, "rental_uris": {"ios": "https://dc.lft.to/lastmile_qr_scan", "android": "https://dc.lft.to/lastmile_qr_scan"}, "lon": -77.2341025, "bike_id": "08fb87ca55ba026007406082d112fe80", "type": "electric_bike", "name": "08fb87ca55ba026007406082d112fe80"}, {"is_disabled": 0, "is_reserved": 0, "fusion_lat": 0.0, "lat": 38.88041616666667, "fusion_lon": 0.0, "rental_uris": {"ios": "https://dc.lft.to/lastmile_qr_scan", "android": "https://dc.lft.to/lastmile_qr_scan"}, "lon": -76.92721416666667, "bike_id": "8e22d365b0f1a795e4a82737bad9324b", "type": "electric_scooter", "name": "8e22d365b0f1a795e4a82737bad9324b"}, {"is_disabled": 0, "is_reserved": 0, "fusion_lat": 0.0, "lat": 38.89626783333333, "fusion_lon": 0.0, "rental_uris": {"ios": "https://dc.lft.to/lastmile_qr_scan", "android": "https://dc.lft.to/lastmile_qr_scan"}, "lon": -77.02316633333334, "bike_id": "7e56c55b22cca0b92bd88d2b187e78d5", "type": "electric_scooter", "name": "7e56c55b22cca0b92bd88d2b187e78d5"}, {"is_disabled": 0, "is_reserved": 0, "fusion_lat": 0.0, "lat": 38.8763415, "fusion_lon": 0.0, "rental_uris": {"ios": "https://dc.lft.to/lastmile_qr_scan", "android": "https://dc.lft.to/lastmile_qr_scan"}, "lon": -77.00954966666667, "bike_id": "07d27bfe59065fb37bcb4d1fa9423492", "type": "electric_scooter", "name": "07d27bfe59065fb37bcb4d1fa9423492"}, {"is_disabled": 0, "is_reserved": 0, "fusion_lat": 0.0, "lat": 38.87070083333333, "fusion_lon": 0.0, "rental_uris": {"ios": "https://dc.lft.to/lastmile_qr_scan", "android": "https://dc.lft.to/lastmile_qr_scan"}, "lon": -76.98128533333333, "bike_id": "58cd03e1f044f143fb8401b717a5e5a4", "type": "electric_scooter", "name": "58cd03e1f044f143fb8401b717a5e5a4"}, {"is_disabled": 0, "is_reserved": 0, "fusion_lat": 0.0, "lat": 38.88523, "fusion_lon": 0.0, "rental_uris": {"ios": "https://dc.lft.to/lastmile_qr_scan", "android": "https://dc.lft.to/lastmile_qr_scan"}, "lon": -77.02823866666667, "bike_id": "57664191f84406291c8741f033e31617", "type": "electric_scooter", "name": "57664191f84406291c8741f033e31617"}, {"is_disabled": 0, "is_reserved": 0, "fusion_lat": 0.0, "lat": 38.93449283333333, "fusion_lon": 0.0, "rental_uris": {"ios": "https://dc.lft.to/lastmile_qr_scan", "android": "https://dc.lft.to/lastmile_qr_scan"}, "lon": -77.02982533333333, "bike_id": "6eca965d6c06fa3c7b2b5afb30ab009b", "type": "electric_scooter", "name": "6eca965d6c06fa3c7b2b5afb30ab009b"}, {"is_disabled": 0, "is_reserved": 0, "fusion_lat": 0.0, "lat": 38.93384183333333, "fusion_lon": 0.0, "rental_uris": {"ios": "https://dc.lft.to/lastmile_qr_scan", "android": "https://dc.lft.to/lastmile_qr_scan"}, "lon": -77.02727866666666, "bike_id": "adadf9fafc6ee4acaa324e71565a00a9", "type": "electric_scooter", "name": "adadf9fafc6ee4acaa324e71565a00a9"}, {"is_disabled": 0, "is_reserved": 0, "fusion_lat": 0.0, "lat": 38.9061235, "fusion_lon": 0.0, "rental_uris": {"ios": "https://dc.lft.to/lastmile_qr_scan", "android": "https://dc.lft.to/lastmile_qr_scan"}, "lon": -77.0565345, "bike_id": "fce4db8401de7d9afdf32a5e54f2f5d7", "type": "electric_scooter", "name": "fce4db8401de7d9afdf32a5e54f2f5d7"}, {"is_disabled": 0, "is_reserved": 0, "fusion_lat": 0.0, "lat": 38.90041166666666, "fusion_lon": 0.0, "rental_uris": {"ios": "https://dc.lft.to/lastmile_qr_scan", "android": "https://dc.lft.to/lastmile_qr_scan"}, "lon": -77.0037545, "bike_id": "db5d75287486d6d35b48a989c49d0e3f", "type": "electric_scooter", "name": "db5d75287486d6d35b48a989c49d0e3f"}, {"is_disabled": 0, "is_reserved": 0, "fusion_lat": 0.0, "lat": 38.892283666666664, "fusion_lon": 0.0, "rental_uris": {"ios": "https://dc.lft.to/lastmile_qr_scan", "android": "https://dc.lft.to/lastmile_qr_scan"}, "lon": -77.04335416666666, "bike_id": "5a9d32b55ea75b8014320c8d4f639c43", "type": "electric_scooter", "name": "5a9d32b55ea75b8014320c8d4f639c43"}, {"is_disabled": 0, "is_reserved": 0, "fusion_lat": 0.0, "lat": 38.90264916666667, "fusion_lon": 0.0, "rental_uris": {"ios": "https://dc.lft.to/lastmile_qr_scan", "android": "https://dc.lft.to/lastmile_qr_scan"}, "lon": -77.01156516666667, "bike_id": "45dfd0a0473000a97a669f6680714e2d", "type": "electric_scooter", "name": "45dfd0a0473000a97a669f6680714e2d"}, {"is_disabled": 0, "is_reserved": 0, "fusion_lat": 0.0, "lat": 38.91977833333333, "fusion_lon": 0.0, "rental_uris": {"ios": "https://dc.lft.to/lastmile_qr_scan", "android": "https://dc.lft.to/lastmile_qr_scan"}, "lon": -77.00209983333333, "bike_id": "a37d55a9d222ef957d6b665cac53cb4a", "type": "electric_scooter", "name": "a37d55a9d222ef957d6b665cac53cb4a"}, {"is_disabled": 0, "is_reserved": 0, "fusion_lat": 0.0, "lat": 38.921133833333336, "fusion_lon": 0.0, "rental_uris": {"ios": "https://dc.lft.to/lastmile_qr_scan", "android": "https://dc.lft.to/lastmile_qr_scan"}, "lon": -77.0469445, "bike_id": "21e7ca563d57631e533810fb5ee810c2", "type": "electric_scooter", "name": "21e7ca563d57631e533810fb5ee810c2"}, {"is_disabled": 0, "is_reserved": 0, "fusion_lat": 0.0, "lat": 38.93363516666667, "fusion_lon": 0.0, "rental_uris": {"ios": "https://dc.lft.to/lastmile_qr_scan", "android": "https://dc.lft.to/lastmile_qr_scan"}, "lon": -77.026434, "bike_id": "6acf6204a1e332e2d76e2bb2d2c4137e", "type": "electric_scooter", "name": "6acf6204a1e332e2d76e2bb2d2c4137e"}, {"is_disabled": 0, "is_reserved": 0, "fusion_lat": 0.0, "lat": 38.911762333333336, "fusion_lon": 0.0, "rental_uris": {"ios": "https://dc.lft.to/lastmile_qr_scan", "android": "https://dc.lft.to/lastmile_qr_scan"}, "lon": -77.02828766666667, "bike_id": "01b2b053b5a71702b27003bd918ea5a3", "type": "electric_scooter", "name": "01b2b053b5a71702b27003bd918ea5a3"}, {"is_disabled": 0, "is_reserved": 0, "fusion_lat": 0.0, "lat": 38.906082833333336, "fusion_lon": 0.0, "rental_uris": {"ios": "https://dc.lft.to/lastmile_qr_scan", "android": "https://dc.lft.to/lastmile_qr_scan"}, "lon": -77.12887133333334, "bike_id": "5ccbeab8cdc12fa450ccb72f7ab9671c", "type": "electric_bike", "name": "5ccbeab8cdc12fa450ccb72f7ab9671c"}, {"is_disabled": 0, "is_reserved": 0, "fusion_lat": 0.0, "lat": 38.877405, "fusion_lon": 0.0, "rental_uris": {"ios": "https://dc.lft.to/lastmile_qr_scan", "android": "https://dc.lft.to/lastmile_qr_scan"}, "lon": -77.14870583333334, "bike_id": "fbb98927becfab72f50b8b52c66efabf", "type": "electric_bike", "name": "fbb98927becfab72f50b8b52c66efabf"}, {"is_disabled": 0, "is_reserved": 0, "fusion_lat": 0.0, "lat": 38.900301166666665, "fusion_lon": 0.0, "rental_uris": {"ios": "https://dc.lft.to/lastmile_qr_scan", "android": "https://dc.lft.to/lastmile_qr_scan"}, "lon": -77.01210833333333, "bike_id": "2b8d4cbe91be423603a7a2b1c318c60a", "type": "electric_scooter", "name": "2b8d4cbe91be423603a7a2b1c318c60a"}, {"is_disabled": 0, "is_reserved": 0, "fusion_lat": 0.0, "lat": 38.9220535, "fusion_lon": 0.0, "rental_uris": {"ios": "https://dc.lft.to/lastmile_qr_scan", "android": "https://dc.lft.to/lastmile_qr_scan"}, "lon": -76.996989, "bike_id": "70c81b92e7b00e437e525c37f00f8d3b", "type": "electric_scooter", "name": "70c81b92e7b00e437e525c37f00f8d3b"}, {"is_disabled": 0, "is_reserved": 0, "fusion_lat": 0.0, "lat": 39.005397333333335, "fusion_lon": 0.0, "rental_uris": {"ios": "https://dc.lft.to/lastmile_qr_scan", "android": "https://dc.lft.to/lastmile_qr_scan"}, "lon": -77.1040005, "bike_id": "c2fd7f3b28d9895886a6b63d250a963c", "type": "electric_bike", "name": "c2fd7f3b28d9895886a6b63d250a963c"}, {"is_disabled": 0, "is_reserved": 0, "fusion_lat": 0.0, "lat": 38.885366166666664, "fusion_lon": 0.0, "rental_uris": {"ios": "https://dc.lft.to/lastmile_qr_scan", "android": "https://dc.lft.to/lastmile_qr_scan"}, "lon": -76.99621416666666, "bike_id": "cd43374a56de783c25836a791bb33020", "type": "electric_scooter", "name": "cd43374a56de783c25836a791bb33020"}, {"is_disabled": 0, "is_reserved": 0, "fusion_lat": 0.0, "lat": 38.881089833333334, "fusion_lon": 0.0, "rental_uris": {"ios": "https://dc.lft.to/lastmile_qr_scan", "android": "https://dc.lft.to/lastmile_qr_scan"}, "lon": -77.012344, "bike_id": "2394ce215dc7e43273292b5dc0a383e9", "type": "electric_scooter", "name": "2394ce215dc7e43273292b5dc0a383e9"}, {"is_disabled": 0, "is_reserved": 0, "fusion_lat": 0.0, "lat": 38.90466133333334, "fusion_lon": 0.0, "rental_uris": {"ios": "https://dc.lft.to/lastmile_qr_scan", "android": "https://dc.lft.to/lastmile_qr_scan"}, "lon": -77.06601783333333, "bike_id": "c1a524c9bc267202a78e4dda2825ea8f", "type": "electric_bike", "name": "c1a524c9bc267202a78e4dda2825ea8f"}, {"is_disabled": 0, "is_reserved": 0, "fusion_lat": 0.0, "lat": 38.898603333333334, "fusion_lon": 0.0, "rental_uris": {"ios": "https://dc.lft.to/lastmile_qr_scan", "android": "https://dc.lft.to/lastmile_qr_scan"}, "lon": -77.048774, "bike_id": "eaffcfb2bd6582707a63711bb87e2a8e", "type": "electric_scooter", "name": "eaffcfb2bd6582707a63711bb87e2a8e"}, {"is_disabled": 0, "is_reserved": 0, "fusion_lat": 0.0, "lat": 38.920547166666665, "fusion_lon": 0.0, "rental_uris": {"ios": "https://dc.lft.to/lastmile_qr_scan", "android": "https://dc.lft.to/lastmile_qr_scan"}, "lon": -77.02375116666667, "bike_id": "91712d9c83cf1dd89393000d0aae2ba4", "type": "electric_scooter", "name": "91712d9c83cf1dd89393000d0aae2ba4"}, {"is_disabled": 0, "is_reserved": 0, "fusion_lat": 0.0, "lat": 38.92858183333333, "fusion_lon": 0.0, "rental_uris": {"ios": "https://dc.lft.to/lastmile_qr_scan", "android": "https://dc.lft.to/lastmile_qr_scan"}, "lon": -77.03735883333333, "bike_id": "4be37f3fe74ddfcc9d103096bf5bb2b8", "type": "electric_scooter", "name": "4be37f3fe74ddfcc9d103096bf5bb2b8"}, {"is_disabled": 0, "is_reserved": 0, "fusion_lat": 0.0, "lat": 38.936666833333334, "fusion_lon": 0.0, "rental_uris": {"ios": "https://dc.lft.to/lastmile_qr_scan", "android": "https://dc.lft.to/lastmile_qr_scan"}, "lon": -77.0660585, "bike_id": "6e5ec51d74759cbda61aa5500512cd8f", "type": "electric_scooter", "name": "6e5ec51d74759cbda61aa5500512cd8f"}, {"is_disabled": 0, "is_reserved": 0, "fusion_lat": 0.0, "lat": 38.895075, "fusion_lon": 0.0, "rental_uris": {"ios": "https://dc.lft.to/lastmile_qr_scan", "android": "https://dc.lft.to/lastmile_qr_scan"}, "lon": -77.02295783333334, "bike_id": "ead9eeec1e81b35e01af646fe6201245", "type": "electric_scooter", "name": "ead9eeec1e81b35e01af646fe6201245"}, {"is_disabled": 0, "is_reserved": 0, "fusion_lat": 0.0, "lat": 38.92893316666667, "fusion_lon": 0.0, "rental_uris": {"ios": "https://dc.lft.to/lastmile_qr_scan", "android": "https://dc.lft.to/lastmile_qr_scan"}, "lon": -77.019406, "bike_id": "2afabca869810cb8f4773d0a5f6e267e", "type": "electric_scooter", "name": "2afabca869810cb8f4773d0a5f6e267e"}, {"is_disabled": 0, "is_reserved": 0, "fusion_lat": 0.0, "lat": 38.9226385, "fusion_lon": 0.0, "rental_uris": {"ios": "https://dc.lft.to/lastmile_qr_scan", "android": "https://dc.lft.to/lastmile_qr_scan"}, "lon": -77.03659, "bike_id": "e0ef9b87c890cf783d8693438eb076c8", "type": "electric_scooter", "name": "e0ef9b87c890cf783d8693438eb076c8"}, {"is_disabled": 0, "is_reserved": 0, "fusion_lat": 0.0, "lat": 38.97346816666666, "fusion_lon": 0.0, "rental_uris": {"ios": "https://dc.lft.to/lastmile_qr_scan", "android": "https://dc.lft.to/lastmile_qr_scan"}, "lon": -77.0179515, "bike_id": "ad3994ef96eb1023ff42f00dcd4d7df4", "type": "electric_bike", "name": "ad3994ef96eb1023ff42f00dcd4d7df4"}, {"is_disabled": 0, "is_reserved": 0, "fusion_lat": 0.0, "lat": 38.92114216666667, "fusion_lon": 0.0, "rental_uris": {"ios": "https://dc.lft.to/lastmile_qr_scan", "android": "https://dc.lft.to/lastmile_qr_scan"}, "lon": -77.03186566666666, "bike_id": "ed52db56b66e76cdfcda3bfaf2636135", "type": "electric_scooter", "name": "ed52db56b66e76cdfcda3bfaf2636135"}, {"is_disabled": 0, "is_reserved": 0, "fusion_lat": 0.0, "lat": 38.90251216666667, "fusion_lon": 0.0, "rental_uris": {"ios": "https://dc.lft.to/lastmile_qr_scan", "android": "https://dc.lft.to/lastmile_qr_scan"}, "lon": -77.06260033333334, "bike_id": "fe8b08dde8a81d3f6cdc6ed286eeba15", "type": "electric_scooter", "name": "fe8b08dde8a81d3f6cdc6ed286eeba15"}, {"is_disabled": 0, "is_reserved": 0, "fusion_lat": 0.0, "lat": 38.848636, "fusion_lon": 0.0, "rental_uris": {"ios": "https://dc.lft.to/lastmile_qr_scan", "android": "https://dc.lft.to/lastmile_qr_scan"}, "lon": -77.06828666666667, "bike_id": "5e7fb2dc8521d01ec2d2bc56fd1c5227", "type": "electric_bike", "name": "5e7fb2dc8521d01ec2d2bc56fd1c5227"}, {"is_disabled": 0, "is_reserved": 0, "fusion_lat": 0.0, "lat": 38.92431083333334, "fusion_lon": 0.0, "rental_uris": {"ios": "https://dc.lft.to/lastmile_qr_scan", "android": "https://dc.lft.to/lastmile_qr_scan"}, "lon": -77.04245683333333, "bike_id": "3fbc55a08e5a94ca2918c89fae16f90d", "type": "electric_scooter", "name": "3fbc55a08e5a94ca2918c89fae16f90d"}, {"is_disabled": 0, "is_reserved": 0, "fusion_lat": 0.0, "lat": 38.878861666666666, "fusion_lon": 0.0, "rental_uris": {"ios": "https://dc.lft.to/lastmile_qr_scan", "android": "https://dc.lft.to/lastmile_qr_scan"}, "lon": -77.02323166666666, "bike_id": "4c4ecaca9300e5a1a71da3d875a87344", "type": "electric_scooter", "name": "4c4ecaca9300e5a1a71da3d875a87344"}, {"is_disabled": 0, "is_reserved": 0, "fusion_lat": 0.0, "lat": 38.87923166666667, "fusion_lon": 0.0, "rental_uris": {"ios": "https://dc.lft.to/lastmile_qr_scan", "android": "https://dc.lft.to/lastmile_qr_scan"}, "lon": -77.0075695, "bike_id": "d7885cc1c815f0973707cbb9343bd693", "type": "electric_scooter", "name": "d7885cc1c815f0973707cbb9343bd693"}, {"is_disabled": 0, "is_reserved": 0, "fusion_lat": 0.0, "lat": 38.87875616666667, "fusion_lon": 0.0, "rental_uris": {"ios": "https://dc.lft.to/lastmile_qr_scan", "android": "https://dc.lft.to/lastmile_qr_scan"}, "lon": -77.00772283333333, "bike_id": "f96d9a758a78dcb2ece997cd5c48b067", "type": "electric_scooter", "name": "f96d9a758a78dcb2ece997cd5c48b067"}, {"is_disabled": 0, "is_reserved": 0, "fusion_lat": 0.0, "lat": 38.89750216666667, "fusion_lon": 0.0, "rental_uris": {"ios": "https://dc.lft.to/lastmile_qr_scan", "android": "https://dc.lft.to/lastmile_qr_scan"}, "lon": -77.04629516666667, "bike_id": "c16a7328298f133195e3cc065d0a55ce", "type": "electric_scooter", "name": "c16a7328298f133195e3cc065d0a55ce"}, {"is_disabled": 0, "is_reserved": 0, "fusion_lat": 0.0, "lat": 38.8941675, "fusion_lon": 0.0, "rental_uris": {"ios": "https://dc.lft.to/lastmile_qr_scan", "android": "https://dc.lft.to/lastmile_qr_scan"}, "lon": -77.02164633333334, "bike_id": "71f71bac5819f2f6d2c41d2c80a1aff6", "type": "electric_scooter", "name": "71f71bac5819f2f6d2c41d2c80a1aff6"}, {"is_disabled": 0, "is_reserved": 0, "fusion_lat": 0.0, "lat": 38.91279183333333, "fusion_lon": 0.0, "rental_uris": {"ios": "https://dc.lft.to/lastmile_qr_scan", "android": "https://dc.lft.to/lastmile_qr_scan"}, "lon": -77.02267933333333, "bike_id": "ea7ff67372e133cb157c90f00e78e729", "type": "electric_scooter", "name": "ea7ff67372e133cb157c90f00e78e729"}, {"is_disabled": 0, "is_reserved": 0, "fusion_lat": 0.0, "lat": 38.919615666666665, "fusion_lon": 0.0, "rental_uris": {"ios": "https://dc.lft.to/lastmile_qr_scan", "android": "https://dc.lft.to/lastmile_qr_scan"}, "lon": -77.07868933333333, "bike_id": "4d6b037a7a17e6496ff3f981523816d3", "type": "electric_scooter", "name": "4d6b037a7a17e6496ff3f981523816d3"}, {"is_disabled": 0, "is_reserved": 0, "fusion_lat": 0.0, "lat": 38.9084625, "fusion_lon": 0.0, "rental_uris": {"ios": "https://dc.lft.to/lastmile_qr_scan", "android": "https://dc.lft.to/lastmile_qr_scan"}, "lon": -77.05813516666667, "bike_id": "bc68f250a5aba0077ca895e9801359c5", "type": "electric_scooter", "name": "bc68f250a5aba0077ca895e9801359c5"}, {"is_disabled": 0, "is_reserved": 0, "fusion_lat": 0.0, "lat": 38.899588333333334, "fusion_lon": 0.0, "rental_uris": {"ios": "https://dc.lft.to/lastmile_qr_scan", "android": "https://dc.lft.to/lastmile_qr_scan"}, "lon": -77.050401, "bike_id": "261d18b410074b8db64f5f2dcb2065af", "type": "electric_scooter", "name": "261d18b410074b8db64f5f2dcb2065af"}, {"is_disabled": 0, "is_reserved": 0, "fusion_lat": 0.0, "lat": 38.89741166666667, "fusion_lon": 0.0, "rental_uris": {"ios": "https://dc.lft.to/lastmile_qr_scan", "android": "https://dc.lft.to/lastmile_qr_scan"}, "lon": -77.02596216666667, "bike_id": "b375eb0caeef0ca855e4c7a1d22ddda9", "type": "electric_scooter", "name": "b375eb0caeef0ca855e4c7a1d22ddda9"}, {"is_disabled": 0, "is_reserved": 0, "fusion_lat": 0.0, "lat": 38.902737333333334, "fusion_lon": 0.0, "rental_uris": {"ios": "https://dc.lft.to/lastmile_qr_scan", "android": "https://dc.lft.to/lastmile_qr_scan"}, "lon": -77.00214083333333, "bike_id": "ee6b929b16f106ea2475ae07807d6bc1", "type": "electric_scooter", "name": "ee6b929b16f106ea2475ae07807d6bc1"}, {"is_disabled": 0, "is_reserved": 0, "fusion_lat": 0.0, "lat": 38.876128333333334, "fusion_lon": 0.0, "rental_uris": {"ios": "https://dc.lft.to/lastmile_qr_scan", "android": "https://dc.lft.to/lastmile_qr_scan"}, "lon": -77.00831983333333, "bike_id": "4143e07862c599903bad01693593fce3", "type": "electric_scooter", "name": "4143e07862c599903bad01693593fce3"}, {"is_disabled": 0, "is_reserved": 0, "fusion_lat": 0.0, "lat": 38.91276933333333, "fusion_lon": 0.0, "rental_uris": {"ios": "https://dc.lft.to/lastmile_qr_scan", "android": "https://dc.lft.to/lastmile_qr_scan"}, "lon": -77.0417885, "bike_id": "909cd8fdde8ef10e954dcf2430f79cf8", "type": "electric_scooter", "name": "909cd8fdde8ef10e954dcf2430f79cf8"}, {"is_disabled": 0, "is_reserved": 0, "fusion_lat": 0.0, "lat": 38.929784833333336, "fusion_lon": 0.0, "rental_uris": {"ios": "https://dc.lft.to/lastmile_qr_scan", "android": "https://dc.lft.to/lastmile_qr_scan"}, "lon": -77.0308425, "bike_id": "1f1a049f4d12abb4ddd53085253f79f1", "type": "electric_scooter", "name": "1f1a049f4d12abb4ddd53085253f79f1"}, {"is_disabled": 0, "is_reserved": 0, "fusion_lat": 0.0, "lat": 38.89234833333333, "fusion_lon": 0.0, "rental_uris": {"ios": "https://dc.lft.to/lastmile_qr_scan", "android": "https://dc.lft.to/lastmile_qr_scan"}, "lon": -77.04650516666666, "bike_id": "1fc2d450dd4d6dca91ca766f2f96c9cf", "type": "electric_scooter", "name": "1fc2d450dd4d6dca91ca766f2f96c9cf"}, {"is_disabled": 0, "is_reserved": 0, "fusion_lat": 0.0, "lat": 38.91671266666667, "fusion_lon": 0.0, "rental_uris": {"ios": "https://dc.lft.to/lastmile_qr_scan", "android": "https://dc.lft.to/lastmile_qr_scan"}, "lon": -77.03187316666667, "bike_id": "cdaf4967c56f54a318d18091f022f068", "type": "electric_scooter", "name": "cdaf4967c56f54a318d18091f022f068"}, {"is_disabled": 0, "is_reserved": 0, "fusion_lat": 0.0, "lat": 38.939869, "fusion_lon": 0.0, "rental_uris": {"ios": "https://dc.lft.to/lastmile_qr_scan", "android": "https://dc.lft.to/lastmile_qr_scan"}, "lon": -77.02900133333333, "bike_id": "f394cf74260f9794dd5a68b003222a8e", "type": "electric_scooter", "name": "f394cf74260f9794dd5a68b003222a8e"}, {"is_disabled": 0, "is_reserved": 0, "fusion_lat": 0.0, "lat": 38.93298166666667, "fusion_lon": 0.0, "rental_uris": {"ios": "https://dc.lft.to/lastmile_qr_scan", "android": "https://dc.lft.to/lastmile_qr_scan"}, "lon": -77.02314883333334, "bike_id": "4b7673541c75f6e1dcb4c5f02c3d5bb2", "type": "electric_scooter", "name": "4b7673541c75f6e1dcb4c5f02c3d5bb2"}, {"is_disabled": 0, "is_reserved": 0, "fusion_lat": 0.0, "lat": 38.9046195, "fusion_lon": 0.0, "rental_uris": {"ios": "https://dc.lft.to/lastmile_qr_scan", "android": "https://dc.lft.to/lastmile_qr_scan"}, "lon": -76.93269583333333, "bike_id": "6c26fdf9ec9115e1f9dd00609977da20", "type": "electric_scooter", "name": "6c26fdf9ec9115e1f9dd00609977da20"}, {"is_disabled": 0, "is_reserved": 0, "fusion_lat": 0.0, "lat": 38.896135666666666, "fusion_lon": 0.0, "rental_uris": {"ios": "https://dc.lft.to/lastmile_qr_scan", "android": "https://dc.lft.to/lastmile_qr_scan"}, "lon": -77.04504783333333, "bike_id": "b4e8c26ffa99c80e49091bed1461c5cd", "type": "electric_scooter", "name": "b4e8c26ffa99c80e49091bed1461c5cd"}, {"is_disabled": 0, "is_reserved": 0, "fusion_lat": 0.0, "lat": 38.91779283333334, "fusion_lon": 0.0, "rental_uris": {"ios": "https://dc.lft.to/lastmile_qr_scan", "android": "https://dc.lft.to/lastmile_qr_scan"}, "lon": -77.0269695, "bike_id": "c20c685171cf11f98249ce143fb28bae", "type": "electric_scooter", "name": "c20c685171cf11f98249ce143fb28bae"}, {"is_disabled": 0, "is_reserved": 0, "fusion_lat": 0.0, "lat": 38.89868766666667, "fusion_lon": 0.0, "rental_uris": {"ios": "https://dc.lft.to/lastmile_qr_scan", "android": "https://dc.lft.to/lastmile_qr_scan"}, "lon": -77.0500605, "bike_id": "754af34e6f032bae4b6e3e7b9e1efc5b", "type": "electric_scooter", "name": "754af34e6f032bae4b6e3e7b9e1efc5b"}, {"is_disabled": 0, "is_reserved": 0, "fusion_lat": 0.0, "lat": 38.942181166666664, "fusion_lon": 0.0, "rental_uris": {"ios": "https://dc.lft.to/lastmile_qr_scan", "android": "https://dc.lft.to/lastmile_qr_scan"}, "lon": -76.961345, "bike_id": "3ed74e37d5e7f4c2c840f7b48e13c855", "type": "electric_bike", "name": "3ed74e37d5e7f4c2c840f7b48e13c855"}, {"is_disabled": 0, "is_reserved": 0, "fusion_lat": 0.0, "lat": 38.80984766666667, "fusion_lon": 0.0, "rental_uris": {"ios": "https://dc.lft.to/lastmile_qr_scan", "android": "https://dc.lft.to/lastmile_qr_scan"}, "lon": -77.0765705, "bike_id": "002f2e5f12c002dc8d48777274c34ed4", "type": "electric_bike", "name": "002f2e5f12c002dc8d48777274c34ed4"}, {"is_disabled": 0, "is_reserved": 0, "fusion_lat": 0.0, "lat": 38.91771516666667, "fusion_lon": 0.0, "rental_uris": {"ios": "https://dc.lft.to/lastmile_qr_scan", "android": "https://dc.lft.to/lastmile_qr_scan"}, "lon": -77.014926, "bike_id": "321c573efc1fd02fa2aca09107ac4d9d", "type": "electric_scooter", "name": "321c573efc1fd02fa2aca09107ac4d9d"},