{"data": {"bikes": [{"rental_uris": {"android": "https://dc.lft.to/lastmile_qr_scan", "ios": "https://dc.lft.to/lastmile_qr_scan"}, "lon": -77.02564733333334, "name": "9743ae8e795afb751e60f219e65c6e57", "lat": 38.95125633333333, "is_reserved": 0, "fusion_lat": 0.0, "bike_id": "9743ae8e795afb751e60f219e65c6e57", "type": "electric_scooter", "is_disabled": 0, "fusion_lon": 0.0}, {"rental_uris": {"android": "https://dc.lft.to/lastmile_qr_scan", "ios": "https://dc.lft.to/lastmile_qr_scan"}, "lon": -77.04081233333334, "name": "206df5f6bb9d8099d87daa865868d009", "lat": 38.932852833333335, "is_reserved": 0, "fusion_lat": 0.0, "bike_id": "206df5f6bb9d8099d87daa865868d009", "type": "electric_scooter", "is_disabled": 0, "fusion_lon": 0.0}, {"rental_uris": {"android": "https://dc.lft.to/lastmile_qr_scan", "ios": "https://dc.lft.to/lastmile_qr_scan"}, "lon": -77.02098633333334, "name": "e845aa32b3bce13218fda7e762b7083a", "lat": 38.8948465, "is_reserved": 0, "fusion_lat": 0.0, "bike_id": "e845aa32b3bce13218fda7e762b7083a", "type": "electric_scooter", "is_disabled": 0, "fusion_lon": 0.0}, {"rental_uris": {"android": "https://dc.lft.to/lastmile_qr_scan", "ios": "https://dc.lft.to/lastmile_qr_scan"}, "lon": -77.01225383333333, "name": "6e7c86d2814efb289662da546941e9d1", "lat": 38.914030333333336, "is_reserved": 0, "fusion_lat": 0.0, "bike_id": "6e7c86d2814efb289662da546941e9d1", "type": "electric_scooter", "is_disabled": 0, "fusion_lon": 0.0}, {"rental_uris": {"android": "https://dc.lft.to/lastmile_qr_scan", "ios": "https://dc.lft.to/lastmile_qr_scan"}, "lon": -77.012264, "name": "e039426c695da307a0c67a4045b6fb73", "lat": 38.9182475, "is_reserved": 0, "fusion_lat": 0.0, "bike_id": "e039426c695da307a0c67a4045b6fb73", "type": "electric_scooter", "is_disabled": 0, "fusion_lon": 0.0}, {"rental_uris": {"android": "https://dc.lft.to/lastmile_qr_scan", "ios": "https://dc.lft.to/lastmile_qr_scan"}, "lon": -76.920459, "name": "bd2909c7c51a70df2d09ecb33d9c7999", "lat": 38.897326, "is_reserved": 0, "fusion_lat": 0.0, "bike_id": "bd2909c7c51a70df2d09ecb33d9c7999", "type": "electric_bike", "is_disabled": 0, "fusion_lon": 0.0}, {"rental_uris": {"android": "https://dc.lft.to/lastmile_qr_scan", "ios": "https://dc.lft.to/lastmile_qr_scan"}, "lon": -77.03216666666667, "name": "5cecd0cba6203d1cac926d471b53135d", "lat": 38.9168825, "is_reserved": 0, "fusion_lat": 0.0, "bike_id": "5cecd0cba6203d1cac926d471b53135d", "type": "electric_scooter", "is_disabled": 0, "fusion_lon": 0.0}, {"rental_uris": {"android": "https://dc.lft.to/lastmile_qr_scan", "ios": "https://dc.lft.to/lastmile_qr_scan"}, "lon": -77.0392275, "name": "08976aa6989881c85805a03fee17a0aa", "lat": 38.91633066666667, "is_reserved": 0, "fusion_lat": 0.0, "bike_id": "08976aa6989881c85805a03fee17a0aa", "type": "electric_scooter", "is_disabled": 0, "fusion_lon": 0.0}, {"rental_uris": {"android": "https://dc.lft.to/lastmile_qr_scan", "ios": "https://dc.lft.to/lastmile_qr_scan"}, "lon": -77.00588916666666, "name": "c85072030818596e8c09569e60644a06", "lat": 38.874795, "is_reserved": 0, "fusion_lat": 0.0, "bike_id": "c85072030818596e8c09569e60644a06", "type": "electric_scooter", "is_disabled": 0, "fusion_lon": 0.0}, {"rental_uris": {"android": "https://dc.lft.to/lastmile_qr_scan", "ios": "https://dc.lft.to/lastmile_qr_scan"}, "lon": -76.9302495, "name": "776841bd6aa687e07315d4e56701e213", "lat": 38.90167116666667, "is_reserved": 0, "fusion_lat": 0.0, "bike_id": "776841bd6aa687e07315d4e56701e213", "type": "electric_scooter", "is_disabled": 0, "fusion_lon": 0.0}, {"rental_uris": {"android": "https://dc.lft.to/lastmile_qr_scan", "ios": "https://dc.lft.to/lastmile_qr_scan"}, "lon": -76.999576, "name": "bbe66742f41043139af5f72772838788", "lat": 38.87859683333333, "is_reserved": 0, "fusion_lat": 0.0, "bike_id": "bbe66742f41043139af5f72772838788", "type": "electric_scooter", "is_disabled": 0, "fusion_lon": 0.0}, {"rental_uris": {"android": "https://dc.lft.to/lastmile_qr_scan", "ios": "https://dc.lft.to/lastmile_qr_scan"}, "lon": -77.0235275, "name": "7f4b1a1e81151df9f7f4247cf2d492b9", "lat": 38.935327, "is_reserved": 0, "fusion_lat": 0.0, "bike_id": "7f4b1a1e81151df9f7f4247cf2d492b9", "type": "electric_scooter", "is_disabled": 0, "fusion_lon": 0.0}, {"rental_uris": {"android": "https://dc.lft.to/lastmile_qr_scan", "ios": "https://dc.lft.to/lastmile_qr_scan"}, "lon": -77.02001433333334, "name": "67ac41fd246ac9c486cdc3021622ac4f", "lat": 38.966254166666666, "is_reserved": 0, "fusion_lat": 0.0, "bike_id": "67ac41fd246ac9c486cdc3021622ac4f", "type": "electric_scooter", "is_disabled": 0, "fusion_lon": 0.0}, {"rental_uris": {"android": "https://dc.lft.to/lastmile_qr_scan", "ios": "https://dc.lft.to/lastmile_qr_scan"}, "lon": -77.023621, "name": "c78377eb33c8eb9daf282f40d419bfb8", "lat": 38.9205985, "is_reserved": 0, "fusion_lat": 0.0, "bike_id": "c78377eb33c8eb9daf282f40d419bfb8", "type": "electric_scooter", "is_disabled": 0, "fusion_lon": 0.0}, {"rental_uris": {"android": "https://dc.lft.to/lastmile_qr_scan", "ios": "https://dc.lft.to/lastmile_qr_scan"}, "lon": -77.0401615, "name": "4aed843e4e53ef30f6f330c0eb908245", "lat": 38.92166066666667, "is_reserved": 0, "fusion_lat": 0.0, "bike_id": "4aed843e4e53ef30f6f330c0eb908245", "type": "electric_scooter", "is_disabled": 0, "fusion_lon": 0.0}, {"rental_uris": {"android": "https://dc.lft.to/lastmile_qr_scan", "ios": "https://dc.lft.to/lastmile_qr_scan"}, "lon": -76.98231766666666, "name": "0aeca31b4053264e562d4c7d90760f53", "lat": 38.864716666666666, "is_reserved": 0, "fusion_lat": 0.0, "bike_id": "0aeca31b4053264e562d4c7d90760f53", "type": "electric_scooter", "is_disabled": 0, "fusion_lon": 0.0}, {"rental_uris": {"android": "https://dc.lft.to/lastmile_qr_scan", "ios": "https://dc.lft.to/lastmile_qr_scan"}, "lon": -77.00732716666667, "name": "ef0c9e04f3f8689f2447139c2b9d54de", "lat": 38.89844183333334, "is_reserved": 0, "fusion_lat": 0.0, "bike_id": "ef0c9e04f3f8689f2447139c2b9d54de", "type": "electric_scooter", "is_disabled": 0, "fusion_lon": 0.0}, {"rental_uris": {"android": "https://dc.lft.to/lastmile_qr_scan", "ios": "https://dc.lft.to/lastmile_qr_scan"}, "lon": -76.98683333333334, "name": "f1c7f154d5022be6c3fb2017ec10f25b", "lat": 38.893632333333336, "is_reserved": 0, "fusion_lat": 0.0, "bike_id": "f1c7f154d5022be6c3fb2017ec10f25b", "type": "electric_scooter", "is_disabled": 0, "fusion_lon": 0.0}, {"rental_uris": {"android": "https://dc.lft.to/lastmile_qr_scan", "ios": "https://dc.lft.to/lastmile_qr_scan"}, "lon": -76.988263, "name": "375523949da5cd254fa3537025fd7319", "lat": 38.890819, "is_reserved": 0, "fusion_lat": 0.0, "bike_id": "375523949da5cd254fa3537025fd7319", "type": "electric_scooter", "is_disabled": 0, "fusion_lon": 0.0}, {"rental_uris": {"android": "https://dc.lft.to/lastmile_qr_scan", "ios": "https://dc.lft.to/lastmile_qr_scan"}, "lon": -77.037503, "name": "851600d7320937313635fb1573008c16", "lat": 38.91618283333333, "is_reserved": 0, "fusion_lat": 0.0, "bike_id": "851600d7320937313635fb1573008c16", "type": "electric_scooter", "is_disabled": 0, "fusion_lon": 0.0}, {"rental_uris": {"android": "https://dc.lft.to/lastmile_qr_scan", "ios": "https://dc.lft.to/lastmile_qr_scan"}, "lon": -76.98418233333334, "name": "6495ff08a21bd80322d65f346f1266d8", "lat": 38.90819316666666, "is_reserved": 0, "fusion_lat": 0.0, "bike_id": "6495ff08a21bd80322d65f346f1266d8", "type": "electric_scooter", "is_disabled": 0, "fusion_lon": 0.0}, {"rental_uris": {"android": "https://dc.lft.to/lastmile_qr_scan", "ios": "https://dc.lft.to/lastmile_qr_scan"}, "lon": -76.99741733333333, "name": "161be5eae86b122ab23ec08ad5f423c0", "lat": 38.86157383333333, "is_reserved": 0, "fusion_lat": 0.0, "bike_id": "161be5eae86b122ab23ec08ad5f423c0", "type": "electric_scooter", "is_disabled": 0, "fusion_lon": 0.0}, {"rental_uris": {"android": "https://dc.lft.to/lastmile_qr_scan", "ios": "https://dc.lft.to/lastmile_qr_scan"}, "lon": -77.03782566666666, "name": "fbe7091f298c3340b8f65a2d857719da", "lat": 38.927039666666666, "is_reserved": 0, "fusion_lat": 0.0, "bike_id": "fbe7091f298c3340b8f65a2d857719da", "type": "electric_scooter", "is_disabled": 0, "fusion_lon": 0.0}, {"rental_uris": {"android": "https://dc.lft.to/lastmile_qr_scan", "ios": "https://dc.lft.to/lastmile_qr_scan"}, "lon": -77.03643866666667, "name": "3a0173c82d54f4fb6b1512815afbee77", "lat": 38.901093833333334, "is_reserved": 0, "fusion_lat": 0.0, "bike_id": "3a0173c82d54f4fb6b1512815afbee77", "type": "electric_scooter", "is_disabled": 0, "fusion_lon": 0.0}, {"rental_uris": {"android": "https://dc.lft.to/lastmile_qr_scan", "ios": "https://dc.lft.to/lastmile_qr_scan"}, "lon": -77.02575933333334, "name": "f765c75e04efc487323b244da8759698", "lat": 38.920450833333334, "is_reserved": 0, "fusion_lat": 0.0, "bike_id": "f765c75e04efc487323b244da8759698", "type": "electric_scooter", "is_disabled": 0, "fusion_lon": 0.0}, {"rental_uris": {"android": "https://dc.lft.to/lastmile_qr_scan", "ios": "https://dc.lft.to/lastmile_qr_scan"}, "lon": -77.00950483333334, "name": "8cc28bbd7db6af0689ee3a1afc28e6c0", "lat": 38.92129966666667, "is_reserved": 0, "fusion_lat": 0.0, "bike_id": "8cc28bbd7db6af0689ee3a1afc28e6c0", "type": "electric_bike", "is_disabled": 0, "fusion_lon": 0.0}, {"rental_uris": {"android": "https://dc.lft.to/lastmile_qr_scan", "ios": "https://dc.lft.to/lastmile_qr_scan"}, "lon": -77.07265383333333, "name": "7056c646a64c2b4c48f0d08292e9fbe6", "lat": 38.93465316666666, "is_reserved": 0, "fusion_lat": 0.0, "bike_id": "7056c646a64c2b4c48f0d08292e9fbe6", "type": "electric_scooter", "is_disabled": 0, "fusion_lon": 0.0}, {"rental_uris": {"android": "https://dc.lft.to/lastmile_qr_scan", "ios": "https://dc.lft.to/lastmile_qr_scan"}, "lon": -76.94149, "name": "84e19710526ac197f3ab449d6dbca990", "lat": 38.90182133333333, "is_reserved": 0, "fusion_lat": 0.0, "bike_id": "84e19710526ac197f3ab449d6dbca990", "type": "electric_scooter", "is_disabled": 0, "fusion_lon": 0.0}, {"rental_uris": {"android": "https://dc.lft.to/lastmile_qr_scan", "ios": "https://dc.lft.to/lastmile_qr_scan"}, "lon": -77.02191483333333, "name": "6ab43b6a270e06656b6ff9198f230283", "lat": 38.909721166666664, "is_reserved": 0, "fusion_lat": 0.0, "bike_id": "6ab43b6a270e06656b6ff9198f230283", "type": "electric_scooter", "is_disabled": 0, "fusion_lon": 0.0}, {"rental_uris": {"android": "https://dc.lft.to/lastmile_qr_scan", "ios": "https://dc.lft.to/lastmile_qr_scan"}, "lon": -77.0022745, "name": "aba1d2315a00ec9b67d822b004388136", "lat": 38.89484983333333, "is_reserved": 0, "fusion_lat": 0.0, "bike_id": "aba1d2315a00ec9b67d822b004388136", "type": "electric_scooter", "is_disabled": 0, "fusion_lon": 0.0}, {"rental_uris": {"android": "https://dc.lft.to/lastmile_qr_scan", "ios": "https://dc.lft.to/lastmile_qr_scan"}, "lon": -77.02492833333334, "name": "022d7d85f8b0f266b2f625ab1d9965d2", "lat": 38.94188366666667, "is_reserved": 0, "fusion_lat": 0.0, "bike_id": "022d7d85f8b0f266b2f625ab1d9965d2", "type": "electric_scooter", "is_disabled": 0, "fusion_lon": 0.0}, {"rental_uris": {"android": "https://dc.lft.to/lastmile_qr_scan", "ios": "https://dc.lft.to/lastmile_qr_scan"}, "lon": -77.02150583333334, "name": "193baa3582e43368a2fcb03d58837d99", "lat": 38.924672666666666, "is_reserved": 0, "fusion_lat": 0.0, "bike_id": "193baa3582e43368a2fcb03d58837d99", "type": "electric_scooter", "is_disabled": 0, "fusion_lon": 0.0}, {"rental_uris": {"android": "https://dc.lft.to/lastmile_qr_scan", "ios": "https://dc.lft.to/lastmile_qr_scan"}, "lon": -77.184325, "name": "5375a7a5ac2c892366baa9339e46e11e", "lat": 38.890661333333334, "is_reserved": 0, "fusion_lat": 0.0, "bike_id": "5375a7a5ac2c892366baa9339e46e11e", "type": "electric_bike", "is_disabled": 0, "fusion_lon": 0.0}, {"rental_uris": {"android": "https://dc.lft.to/lastmile_qr_scan", "ios": "https://dc.lft.to/lastmile_qr_scan"}, "lon": -77.0393525, "name": "28d2e269b2f8ad5559ada71c586df343", "lat": 38.912613, "is_reserved": 0, "fusion_lat": 0.0, "bike_id": "28d2e269b2f8ad5559ada71c586df343", "type": "electric_scooter", "is_disabled": 0, "fusion_lon": 0.0}, {"rental_uris": {"android": "https://dc.lft.to/lastmile_qr_scan", "ios": "https://dc.lft.to/lastmile_qr_scan"}, "lon": -77.03387283333333, "name": "0e171332e4119217455002dc6dc00e38", "lat": 38.90199466666667, "is_reserved": 0, "fusion_lat": 0.0, "bike_id": "0e171332e4119217455002dc6dc00e38", "type": "electric_scooter", "is_disabled": 0, "fusion_lon": 0.0}, {"rental_uris": {"android": "https://dc.lft.to/lastmile_qr_scan", "ios": "https://dc.lft.to/lastmile_qr_scan"}, "lon": -76.94963066666666, "name": "bf318eeb12ed636789a78d7cfcf1e7ab", "lat": 38.894674, "is_reserved": 0, "fusion_lat": 0.0, "bike_id": "bf318eeb12ed636789a78d7cfcf1e7ab", "type": "electric_scooter", "is_disabled": 0, "fusion_lon": 0.0}, {"rental_uris": {"android": "https://dc.lft.to/lastmile_qr_scan", "ios": "https://dc.lft.to/lastmile_qr_scan"}, "lon": -77.0379475, "name": "4eb66b57751de4372356d728a2df50f1", "lat": 38.9250725, "is_reserved": 0, "fusion_lat": 0.0, "bike_id": "4eb66b57751de4372356d728a2df50f1", "type": "electric_scooter", "is_disabled": 0, "fusion_lon": 0.0}, {"rental_uris": {"android": "https://dc.lft.to/lastmile_qr_scan", "ios": "https://dc.lft.to/lastmile_qr_scan"}, "lon": -77.035414, "name": "fc1850603259ca03d1e98edb10e23124", "lat": 38.923381, "is_reserved": 0, "fusion_lat": 0.0, "bike_id": "fc1850603259ca03d1e98edb10e23124", "type": "electric_scooter", "is_disabled": 0, "fusion_lon": 0.0}, {"rental_uris": {"android": "https://dc.lft.to/lastmile_qr_scan", "ios": "https://dc.lft.to/lastmile_qr_scan"}, "lon": -76.97433583333333, "name": "2680d18479ad367afdfe3924e08f0349", "lat": 38.864258166666666, "is_reserved": 0, "fusion_lat": 0.0, "bike_id": "2680d18479ad367afdfe3924e08f0349", "type": "electric_scooter", "is_disabled": 0, "fusion_lon": 0.0}, {"rental_uris": {"android": "https://dc.lft.to/lastmile_qr_scan", "ios": "https://dc.lft.to/lastmile_qr_scan"}, "lon": -76.98727916666667, "name": "ca04dfd918adc44d6fc1ea1c1232d0b7", "lat": 38.86627083333333, "is_reserved": 0, "fusion_lat": 0.0, "bike_id": "ca04dfd918adc44d6fc1ea1c1232d0b7", "type": "electric_scooter", "is_disabled": 0, "fusion_lon": 0.0}, {"rental_uris": {"android": "https://dc.lft.to/lastmile_qr_scan", "ios": "https://dc.lft.to/lastmile_qr_scan"}, "lon": -76.99809283333333, "name": "21df0ecd6b9f0de1e164fac283f38f92", "lat": 38.819978, "is_reserved": 0, "fusion_lat": 0.0, "bike_id": "21df0ecd6b9f0de1e164fac283f38f92", "type": "electric_bike", "is_disabled": 0, "fusion_lon": 0.0}, {"rental_uris": {"android": "https://dc.lft.to/lastmile_qr_scan", "ios": "https://dc.lft.to/lastmile_qr_scan"}, "lon": -77.00211583333333, "name": "92d1829dc21d624027d56abbd47ebb74", "lat": 38.902461833333334, "is_reserved": 0, "fusion_lat": 0.0, "bike_id": "92d1829dc21d624027d56abbd47ebb74", "type": "electric_scooter", "is_disabled": 0, "fusion_lon": 0.0}, {"rental_uris": {"android": "https://dc.lft.to/lastmile_qr_scan", "ios": "https://dc.lft.to/lastmile_qr_scan"}, "lon": -77.0400325, "name": "af57a82bddadd1747b736df400d2dc7d", "lat": 38.934304, "is_reserved": 0, "fusion_lat": 0.0, "bike_id": "af57a82bddadd1747b736df400d2dc7d", "type": "electric_scooter", "is_disabled": 0, "fusion_lon": 0.0}, {"rental_uris": {"android": "https://dc.lft.to/lastmile_qr_scan", "ios": "https://dc.lft.to/lastmile_qr_scan"}, "lon": -77.02033033333333, "name": "e7c501cbdba59f51f33618ed8618c1b1", "lat": 38.913081166666665, "is_reserved": 0, "fusion_lat": 0.0, "bike_id": "e7c501cbdba59f51f33618ed8618c1b1", "type": "electric_scooter", "is_disabled": 0, "fusion_lon": 0.0}, {"rental_uris": {"android": "https://dc.lft.to/lastmile_qr_scan", "ios": "https://dc.lft.to/lastmile_qr_scan"}, "lon": -76.99999766666667, "name": "59b2601d41568e6cdfea436fed7b6d87", "lat": 38.8332645, "is_reserved": 0, "fusion_lat": 0.0, "bike_id": "59b2601d41568e6cdfea436fed7b6d87", "type": "electric_bike", "is_disabled": 0, "fusion_lon": 0.0}, {"rental_uris": {"android": "https://dc.lft.to/lastmile_qr_scan", "ios": "https://dc.lft.to/lastmile_qr_scan"}, "lon": -77.0228845, "name": "06ba5e37b2ac2c871667c0b49851d099", "lat": 38.897080833333334, "is_reserved": 0, "fusion_lat": 0.0, "bike_id": "06ba5e37b2ac2c871667c0b49851d099", "type": "electric_scooter", "is_disabled": 0, "fusion_lon": 0.0}, {"rental_uris": {"android": "https://dc.lft.to/lastmile_qr_scan", "ios": "https://dc.lft.to/lastmile_qr_scan"}, "lon": -77.05029416666666, "name": "5fe62570131439739c5f06695c522939", "lat": 38.92363816666666, "is_reserved": 0, "fusion_lat": 0.0, "bike_id": "5fe62570131439739c5f06695c522939", "type": "electric_scooter", "is_disabled": 0, "fusion_lon": 0.0}, {"rental_uris": {"android": "https://dc.lft.to/lastmile_qr_scan", "ios": "https://dc.lft.to/lastmile_qr_scan"}, "lon": -77.027229, "name": "d0e3f0a3917d71b43663b962c2599c6d", "lat": 38.9257, "is_reserved": 0, "fusion_lat": 0.0, "bike_id": "d0e3f0a3917d71b43663b962c2599c6d", "type": "electric_scooter", "is_disabled": 0, "fusion_lon": 0.0}, {"rental_uris": {"android": "https://dc.lft.to/lastmile_qr_scan", "ios": "https://dc.lft.to/lastmile_qr_scan"}, "lon": -77.02061816666667, "name": "03871acde19741915372e02385464fb4", "lat": 38.923646833333336, "is_reserved": 0, "fusion_lat": 0.0, "bike_id": "03871acde19741915372e02385464fb4", "type": "electric_scooter", "is_disabled": 0, "fusion_lon": 0.0}, {"rental_uris": {"android": "https://dc.lft.to/lastmile_qr_scan", "ios": "https://dc.lft.to/lastmile_qr_scan"}, "lon": -77.03257416666666, "name": "e727a38ad45dd14feb45aa69e6d3fb4e", "lat": 38.927956333333334, "is_reserved": 0, "fusion_lat": 0.0, "bike_id": "e727a38ad45dd14feb45aa69e6d3fb4e", "type": "electric_bike", "is_disabled": 0, "fusion_lon": 0.0}, {"rental_uris": {"android": "https://dc.lft.to/lastmile_qr_scan", "ios": "https://dc.lft.to/lastmile_qr_scan"}, "lon": -76.9996525, "name": "3c2b4d5eb05150331dd7497c8c819317", "lat": 38.9084595, "is_reserved": 0, "fusion_lat": 0.0, "bike_id": "3c2b4d5eb05150331dd7497c8c819317", "type": "electric_scooter", "is_disabled": 0, "fusion_lon": 0.0}, {"rental_uris": {"android": "https://dc.lft.to/lastmile_qr_scan", "ios": "https://dc.lft.to/lastmile_qr_scan"}, "lon": -77.01102683333333, "name": "958b440829a8ea1ade064b456609fd60", "lat": 38.90718533333333, "is_reserved": 0, "fusion_lat": 0.0, "bike_id": "958b440829a8ea1ade064b456609fd60", "type": "electric_scooter", "is_disabled": 0, "fusion_lon": 0.0}, {"rental_uris": {"android": "https://dc.lft.to/lastmile_qr_scan", "ios": "https://dc.lft.to/lastmile_qr_scan"}, "lon": -77.0444745, "name": "8f72fd585e7b3f816e36d6234126adeb", "lat": 38.90274866666667, "is_reserved": 0, "fusion_lat": 0.0, "bike_id": "8f72fd585e7b3f816e36d6234126adeb", "type": "electric_scooter", "is_disabled": 0, "fusion_lon": 0.0}, {"rental_uris": {"android": "https://dc.lft.to/lastmile_qr_scan", "ios": "https://dc.lft.to/lastmile_qr_scan"}, "lon": -77.0315625, "name": "0beec0dd9aee2c676692587f11bebb5a", "lat": 38.8953745, "is_reserved": 0, "fusion_lat": 0.0, "bike_id": "0beec0dd9aee2c676692587f11bebb5a", "type": "electric_scooter", "is_disabled": 0, "fusion_lon": 0.0}, {"rental_uris": {"android": "https://dc.lft.to/lastmile_qr_scan", "ios": "https://dc.lft.to/lastmile_qr_scan"}, "lon": -76.97858616666667, "name": "b19570e45b35b38837588f95bf531faf", "lat": 38.844647, "is_reserved": 0, "fusion_lat": 0.0, "bike_id": "b19570e45b35b38837588f95bf531faf", "type": "electric_bike", "is_disabled": 0, "fusion_lon": 0.0}, {"rental_uris": {"android": "https://dc.lft.to/lastmile_qr_scan", "ios": "https://dc.lft.to/lastmile_qr_scan"}, "lon": -77.01754016666666, "name": "274ec84bac35270cf2b8df42b1931b6e", "lat": 38.902541, "is_reserved": 0, "fusion_lat": 0.0, "bike_id": "274ec84bac35270cf2b8df42b1931b6e", "type": "electric_scooter", "is_disabled": 0, "fusion_lon": 0.0}, {"rental_uris": {"android": "https://dc.lft.to/lastmile_qr_scan", "ios": "https://dc.lft.to/lastmile_qr_scan"}, "lon": -76.966819, "name": "1d6e36980bfe31f00c1bc1e93a4ed60e", "lat": 38.85595133333333, "is_reserved": 0, "fusion_lat": 0.0, "bike_id": "1d6e36980bfe31f00c1bc1e93a4ed60e", "type": "electric_scooter", "is_disabled": 0, "fusion_lon": 0.0}, {"rental_uris": {"android": "https://dc.lft.to/lastmile_qr_scan", "ios": "https://dc.lft.to/lastmile_qr_scan"}, "lon": -77.01602583333333, "name": "2e1823171fd560220f4ad3b1e6ae0ff7", "lat": 38.89970566666667, "is_reserved": 0, "fusion_lat": 0.0, "bike_id": "2e1823171fd560220f4ad3b1e6ae0ff7", "type": "electric_scooter", "is_disabled": 0, "fusion_lon": 0.0}, {"rental_uris": {"android": "https://dc.lft.to/lastmile_qr_scan", "ios": "https://dc.lft.to/lastmile_qr_scan"}, "lon": -77.02078366666667, "name": "7059f9f46bd3e3c50d3b8aa6a963c8b0", "lat": 38.90201583333333, "is_reserved": 0, "fusion_lat": 0.0, "bike_id": "7059f9f46bd3e3c50d3b8aa6a963c8b0", "type": "electric_scooter", "is_disabled": 0, "fusion_lon": 0.0}, {"rental_uris": {"android": "https://dc.lft.to/lastmile_qr_scan", "ios": "https://dc.lft.to/lastmile_qr_scan"}, "lon": -77.03557733333334, "name": "d2c391d298267351a24137e586ff5e36", "lat": 38.90112166666667, "is_reserved": 0, "fusion_lat": 0.0, "bike_id": "d2c391d298267351a24137e586ff5e36", "type": "electric_scooter", "is_disabled": 0, "fusion_lon": 0.0}, {"rental_uris": {"android": "https://dc.lft.to/lastmile_qr_scan", "ios": "https://dc.lft.to/lastmile_qr_scan"}, "lon": -77.02169783333333, "name": "63d87ce54a834247cf5267d15b022c10", "lat": 38.90194616666667, "is_reserved": 0, "fusion_lat": 0.0, "bike_id": "63d87ce54a834247cf5267d15b022c10", "type": "electric_scooter", "is_disabled": 0, "fusion_lon": 0.0}, {"rental_uris": {"android": "https://dc.lft.to/lastmile_qr_scan", "ios": "https://dc.lft.to/lastmile_qr_scan"}, "lon": -77.091628, "name": "8d8f4c76b75faa43b39db5c56af3725e", "lat": 38.9396565, "is_reserved": 0, "fusion_lat": 0.0, "bike_id": "8d8f4c76b75faa43b39db5c56af3725e", "type": "electric_scooter", "is_disabled": 0, "fusion_lon": 0.0}, {"rental_uris": {"android": "https://dc.lft.to/lastmile_qr_scan", "ios": "https://dc.lft.to/lastmile_qr_scan"}, "lon": -77.02587183333333, "name": "3be11b4b45e84aff1e73f7b4010816ca", "lat": 38.88734016666667, "is_reserved": 0, "fusion_lat": 0.0, "bike_id": "3be11b4b45e84aff1e73f7b4010816ca", "type": "electric_scooter", "is_disabled": 0, "fusion_lon": 0.0}, {"rental_uris": {"android": "https://dc.lft.to/lastmile_qr_scan", "ios": "https://dc.lft.to/lastmile_qr_scan"}, "lon": -77.044099, "name": "06848f8e807009582eee0c30b9e3a2f2", "lat": 38.929500833333336, "is_reserved": 0, "fusion_lat": 0.0, "bike_id": "06848f8e807009582eee0c30b9e3a2f2", "type": "electric_scooter", "is_disabled": 0, "fusion_lon": 0.0}, {"rental_uris": {"android": "https://dc.lft.to/lastmile_qr_scan", "ios": "https://dc.lft.to/lastmile_qr_scan"}, "lon": -77.03573583333333, "name": "928a144f937d782dff3a85d053a28eba", "lat": 38.909652333333334, "is_reserved": 0, "fusion_lat": 0.0, "bike_id": "928a144f937d782dff3a85d053a28eba", "type": "electric_scooter", "is_disabled": 0, "fusion_lon": 0.0}, {"rental_uris": {"android": "https://dc.lft.to/lastmile_qr_scan", "ios": "https://dc.lft.to/lastmile_qr_scan"}, "lon": -77.0039135, "name": "1f53a1f3884369bed0f7808eabb6460a", "lat": 38.87704133333333, "is_reserved": 0, "fusion_lat": 0.0, "bike_id": "1f53a1f3884369bed0f7808eabb6460a", "type": "electric_scooter", "is_disabled": 0, "fusion_lon": 0.0}, {"rental_uris": {"android": "https://dc.lft.to/lastmile_qr_scan", "ios": "https://dc.lft.to/lastmile_qr_scan"}, "lon": -77.0513615, "name": "1049d1eaa58ead7a2f792225a10fb1e1", "lat": 38.89755266666667, "is_reserved": 0, "fusion_lat": 0.0, "bike_id": "1049d1eaa58ead7a2f792225a10fb1e1", "type": "electric_scooter", "is_disabled": 0, "fusion_lon": 0.0}, {"rental_uris": {"android": "https://dc.lft.to/lastmile_qr_scan", "ios": "https://dc.lft.to/lastmile_qr_scan"}, "lon": -76.9857315, "name": "5c62b5cbabd8fddb4968d67b6ec4cbc0", "lat": 38.866854333333336, "is_reserved": 0, "fusion_lat": 0.0, "bike_id": "5c62b5cbabd8fddb4968d67b6ec4cbc0", "type": "electric_scooter", "is_disabled": 0, "fusion_lon": 0.0}, {"rental_uris": {"android": "https://dc.lft.to/lastmile_qr_scan", "ios": "https://dc.lft.to/lastmile_qr_scan"}, "lon": -76.97981783333333, "name": "04b1c60eb1b70b9b10511a6c02b1e9ac", "lat": 38.897456, "is_reserved": 0, "fusion_lat": 0.0, "bike_id": "04b1c60eb1b70b9b10511a6c02b1e9ac", "type": "electric_scooter", "is_disabled": 0, "fusion_lon": 0.0}, {"rental_uris": {"android": "https://dc.lft.to/lastmile_qr_scan", "ios": "https://dc.lft.to/lastmile_qr_scan"}, "lon": -77.05135966666667, "name": "03320573bee746a5dcb16c80d8cfcfca", "lat": 38.9236265, "is_reserved": 0, "fusion_lat": 0.0, "bike_id": "03320573bee746a5dcb16c80d8cfcfca", "type": "electric_scooter", "is_disabled": 0, "fusion_lon": 0.0}, {"rental_uris": {"android": "https://dc.lft.to/lastmile_qr_scan", "ios": "https://dc.lft.to/lastmile_qr_scan"}, "lon": -77.00538666666667, "name": "4fb8116c3651225b86f92b171cb68c29", "lat": 38.91261683333333, "is_reserved": 0, "fusion_lat": 0.0, "bike_id": "4fb8116c3651225b86f92b171cb68c29", "type": "electric_scooter", "is_disabled": 0, "fusion_lon": 0.0}, {"rental_uris": {"android": "https://dc.lft.to/lastmile_qr_scan", "ios": "https://dc.lft.to/lastmile_qr_scan"}, "lon": -77.0091735, "name": "57b8ceab60b68f2130b9ede922864071", "lat": 38.89639283333333, "is_reserved": 0, "fusion_lat": 0.0, "bike_id": "57b8ceab60b68f2130b9ede922864071", "type": "electric_scooter", "is_disabled": 0, "fusion_lon": 0.0}, {"rental_uris": {"android": "https://dc.lft.to/lastmile_qr_scan", "ios": "https://dc.lft.to/lastmile_qr_scan"}, "lon": -77.04517266666667, "name": "243147c8dc59a0c36b0aef64292a1407", "lat": 38.892242, "is_reserved": 0, "fusion_lat": 0.0, "bike_id": "243147c8dc59a0c36b0aef64292a1407", "type": "electric_scooter", "is_disabled": 0, "fusion_lon": 0.0}, {"rental_uris": {"android": "https://dc.lft.to/lastmile_qr_scan", "ios": "https://dc.lft.to/lastmile_qr_scan"}, "lon": -77.03284716666667, "name": "44baa2ad903aa2f30380c05a0b11b867", "lat": 38.940971166666664, "is_reserved": 0, "fusion_lat": 0.0, "bike_id": "44baa2ad903aa2f30380c05a0b11b867", "type": "electric_scooter", "is_disabled": 0, "fusion_lon": 0.0}, {"rental_uris": {"android": "https://dc.lft.to/lastmile_qr_scan", "ios": "https://dc.lft.to/lastmile_qr_scan"}, "lon": -77.03259383333334, "name": "5bd042774d49fc6f0c02b18c1127e76b", "lat": 38.91921083333333, "is_reserved": 0, "fusion_lat": 0.0, "bike_id": "5bd042774d49fc6f0c02b18c1127e76b", "type": "electric_scooter", "is_disabled": 0, "fusion_lon": 0.0}, {"rental_uris": {"android": "https://dc.lft.to/lastmile_qr_scan", "ios": "https://dc.lft.to/lastmile_qr_scan"}, "lon": -77.0020945, "name": "53471255c4b3556552169bf31a0ae6dd", "lat": 38.900333333333336, "is_reserved": 0, "fusion_lat": 0.0, "bike_id": "53471255c4b3556552169bf31a0ae6dd", "type": "electric_scooter", "is_disabled": 0, "fusion_lon": 0.0}, {"rental_uris": {"android": "https://dc.lft.to/lastmile_qr_scan", "ios": "https://dc.lft.to/lastmile_qr_scan"}, "lon": -76.996002, "name": "58271fdbe5bf6ed04afb95e3266617e0", "lat": 38.85693766666667, "is_reserved": 0, "fusion_lat": 0.0, "bike_id": "58271fdbe5bf6ed04afb95e3266617e0", "type": "electric_scooter", "is_disabled": 0, "fusion_lon": 0.0}, {"rental_uris": {"android": "https://dc.lft.to/lastmile_qr_scan", "ios": "https://dc.lft.to/lastmile_qr_scan"}, "lon": -76.99502033333333, "name": "571bb57d6058b3edbaebbc4ef6198176", "lat": 38.90982666666667, "is_reserved": 0, "fusion_lat": 0.0, "bike_id": "571bb57d6058b3edbaebbc4ef6198176", "type": "electric_scooter", "is_disabled": 0, "fusion_lon": 0.0}, {"rental_uris": {"android": "https://dc.lft.to/lastmile_qr_scan", "ios": "https://dc.lft.to/lastmile_qr_scan"}, "lon": -76.980865, "name": "0393d5f2ad613f2b12206191eefee84c", "lat": 38.92254483333333, "is_reserved": 0, "fusion_lat": 0.0, "bike_id": "0393d5f2ad613f2b12206191eefee84c", "type": "electric_scooter", "is_disabled": 0, "fusion_lon": 0.0}, {"rental_uris": {"android": "https://dc.lft.to/lastmile_qr_scan", "ios": "https://dc.lft.to/lastmile_qr_scan"}, "lon": -77.05138233333334, "name": "c1a3dac22875713ae7c4d5cdae74cca8", "lat": 38.905130666666665, "is_reserved": 0, "fusion_lat": 0.0, "bike_id": "c1a3dac22875713ae7c4d5cdae74cca8", "type": "electric_scooter", "is_disabled": 0, "fusion_lon": 0.0}, {"rental_uris": {"android": "https://dc.lft.to/lastmile_qr_scan", "ios": "https://dc.lft.to/lastmile_qr_scan"}, "lon": -77.04148366666666, "name": "b3f1ce53db6fad0ab589f631e17612f3", "lat": 38.916227666666664, "is_reserved": 0, "fusion_lat": 0.0, "bike_id": "b3f1ce53db6fad0ab589f631e17612f3", "type": "electric_scooter", "is_disabled": 0, "fusion_lon": 0.0}, {"rental_uris": {"android": "https://dc.lft.to/lastmile_qr_scan", "ios": "https://dc.lft.to/lastmile_qr_scan"}, "lon": -77.00775383333334, "name": "e87166bed148a561daa0e96f7ac44eb1", "lat": 38.90726316666667, "is_reserved": 0, "fusion_lat": 0.0, "bike_id": "e87166bed148a561daa0e96f7ac44eb1", "type": "electric_scooter", "is_disabled": 0, "fusion_lon": 0.0}, {"rental_uris": {"android": "https://dc.lft.to/lastmile_qr_scan", "ios": "https://dc.lft.to/lastmile_qr_scan"}, "lon": -77.04541983333333, "name": "4e3bf03728a438b9fc91b612e391d471", "lat": 38.8987395, "is_reserved": 0, "fusion_lat": 0.0, "bike_id": "4e3bf03728a438b9fc91b612e391d471", "type": "electric_scooter", "is_disabled": 0, "fusion_lon": 0.0}, {"rental_uris": {"android": "https://dc.lft.to/lastmile_qr_scan", "ios": "https://dc.lft.to/lastmile_qr_scan"}, "lon": -77.03681616666667, "name": "5b7bbcd555cbb19efb979e2c8e12ab39", "lat": 38.918723666666665, "is_reserved": 0, "fusion_lat": 0.0, "bike_id": "5b7bbcd555cbb19efb979e2c8e12ab39", "type": "electric_scooter", "is_disabled": 0, "fusion_lon": 0.0}, {"rental_uris": {"android": "https://dc.lft.to/lastmile_qr_scan", "ios": "https://dc.lft.to/lastmile_qr_scan"}, "lon": -77.043397, "name": "1f5f6a03f4de444475b2de227a93072c", "lat": 38.92348233333333, "is_reserved": 0, "fusion_lat": 0.0, "bike_id": "1f5f6a03f4de444475b2de227a93072c", "type": "electric_scooter", "is_disabled": 0, "fusion_lon": 0.0}, {"rental_uris": {"android": "https://dc.lft.to/lastmile_qr_scan", "ios": "https://dc.lft.to/lastmile_qr_scan"}, "lon": -77.0312405, "name": "e0a4fef6659fa1a012c99a171fc91bf1", "lat": 38.9191845, "is_reserved": 0, "fusion_lat": 0.0, "bike_id": "e0a4fef6659fa1a012c99a171fc91bf1", "type": "electric_scooter", "is_disabled": 0, "fusion_lon": 0.0}, {"rental_uris": {"android": "https://dc.lft.to/lastmile_qr_scan", "ios": "https://dc.lft.to/lastmile_qr_scan"}, "lon": -77.05527433333333, "name": "28b4c8d1e30065aac021cd5578bfd45a", "lat": 38.897286333333334, "is_reserved": 0, "fusion_lat": 0.0, "bike_id": "28b4c8d1e30065aac021cd5578bfd45a", "type": "electric_scooter", "is_disabled": 0, "fusion_lon": 0.0}, {"rental_uris": {"android": "https://dc.lft.to/lastmile_qr_scan", "ios": "https://dc.lft.to/lastmile_qr_scan"}, "lon": -77.032028, "name": "cbfcee77efde8c9da4922ee38b045d66", "lat": 38.91642016666667, "is_reserved": 0, "fusion_lat": 0.0, "bike_id": "cbfcee77efde8c9da4922ee38b045d66", "type": "electric_scooter", "is_disabled": 0, "fusion_lon": 0.0}, {"rental_uris": {"android": "https://dc.lft.to/lastmile_qr_scan", "ios": "https://dc.lft.to/lastmile_qr_scan"}, "lon": -77.06470616666667, "name": "27581601e7697937b2196e1c7d2b4adf", "lat": 38.973818333333334, "is_reserved": 0, "fusion_lat": 0.0, "bike_id": "27581601e7697937b2196e1c7d2b4adf", "type": "electric_bike", "is_disabled": 0, "fusion_lon": 0.0}, {"rental_uris": {"android": "https://dc.lft.to/lastmile_qr_scan", "ios": "https://dc.lft.to/lastmile_qr_scan"}, "lon": -77.03870033333334, "name": "9d2a441d6a4e4a6972e3b815d14e4222", "lat": 38.902728, "is_reserved": 0, "fusion_lat": 0.0, "bike_id": "9d2a441d6a4e4a6972e3b815d14e4222", "type": "electric_scooter", "is_disabled": 0, "fusion_lon": 0.0}, {"rental_uris": {"android": "https://dc.lft.to/lastmile_qr_scan", "ios": "https://dc.lft.to/lastmile_qr_scan"}, "lon": -77.03178583333333, "name": "680344b3f8ff835e85521be2899111f8", "lat": 38.921038333333335, "is_reserved": 0, "fusion_lat": 0.0, "bike_id": "680344b3f8ff835e85521be2899111f8", "type": "electric_scooter", "is_disabled": 0, "fusion_lon": 0.0}, {"rental_uris": {"android": "https://dc.lft.to/lastmile_qr_scan", "ios": "https://dc.lft.to/lastmile_qr_scan"}, "lon": -76.94634216666667, "name": "df6695f2615297ce34472598aa37ec87", "lat": 38.898636333333336, "is_reserved": 0, "fusion_lat": 0.0, "bike_id": "df6695f2615297ce34472598aa37ec87", "type": "electric_scooter", "is_disabled": 0, "fusion_lon": 0.0}, {"rental_uris": {"android": "https://dc.lft.to/lastmile_qr_scan", "ios": "https://dc.lft.to/lastmile_qr_scan"}, "lon": -77.02225916666667, "name": "5f13c5a5d73b0b9f6288897de380cb11", "lat": 38.91254966666666, "is_reserved": 0, "fusion_lat": 0.0, "bike_id": "5f13c5a5d73b0b9f6288897de380cb11", "type": "electric_scooter", "is_disabled": 0, "fusion_lon": 0.0}, {"rental_uris": {"android": "https://dc.lft.to/lastmile_qr_scan", "ios": "https://dc.lft.to/lastmile_qr_scan"}, "lon": -77.02701, "name": "d01cbef1ea3849148a8950cf36d40eff", "lat": 38.91623216666667, "is_reserved": 0, "fusion_lat": 0.0, "bike_id": "d01cbef1ea3849148a8950cf36d40eff", "type": "electric_scooter", "is_disabled": 0, "fusion_lon": 0.0}, {"rental_uris": {"android": "https://dc.lft.to/lastmile_qr_scan", "ios": "https://dc.lft.to/lastmile_qr_scan"}, "lon": -77.048802, "name": "d6c85e5dc0e293c15ec56dee82451a87", "lat": 38.916200833333335, "is_reserved": 0, "fusion_lat": 0.0, "bike_id": "d6c85e5dc0e293c15ec56dee82451a87", "type": "electric_scooter", "is_disabled": 0, "fusion_lon": 0.0}, {"rental_uris": {"android": "https://dc.lft.to/lastmile_qr_scan", "ios": "https://dc.lft.to/lastmile_qr_scan"}, "lon": -77.03429966666667, "name": "3c6de808e3780aeba1c4d3b8a4eadbe6", "lat": 38.965274, "is_reserved": 0, "fusion_lat": 0.0, "bike_id": "3c6de808e3780aeba1c4d3b8a4eadbe6", "type": "electric_bike", "is_disabled": 0, "fusion_lon": 0.0}, {"rental_uris": {"android": "https://dc.lft.to/lastmile_qr_scan", "ios": "https://dc.lft.to/lastmile_qr_scan"}, "lon": -76.97776733333333, "name": "cabd79f8e8eb532e52778a823b86d9b0", "lat": 38.891863666666666, "is_reserved": 0, "fusion_lat": 0.0, "bike_id": "cabd79f8e8eb532e52778a823b86d9b0", "type": "electric_bike", "is_disabled": 0, "fusion_lon": 0.0}, {"rental_uris": {"android": "https://dc.lft.to/lastmile_qr_scan", "ios": "https://dc.lft.to/lastmile_qr_scan"}, "lon": -77.040586, "name": "3e68b94d7deccf86f0caf8ea5356890f", "lat": 38.902669833333334, "is_reserved": 0, "fusion_lat": 0.0, "bike_id": "3e68b94d7deccf86f0caf8ea5356890f", "type": "electric_scooter", "is_disabled": 0, "fusion_lon": 0.0}, {"rental_uris": {"android": "https://dc.lft.to/lastmile_qr_scan", "ios": "https://dc.lft.to/lastmile_qr_scan"}, "lon": -77.02365483333334, "name": "f59136dbe3ee6d87ff1e1455acdd146a", "lat": 38.932685666666664, "is_reserved": 0, "fusion_lat": 0.0, "bike_id": "f59136dbe3ee6d87ff1e1455acdd146a", "type": "electric_scooter", "is_disabled": 0, "fusion_lon": 0.0}, {"rental_uris": {"android": "https://dc.lft.to/lastmile_qr_scan", "ios": "https://dc.lft.to/lastmile_qr_scan"}, "lon": -77.03145366666666, "name": "2948064f596cf8f517d269af317d0f38", "lat": 38.941745166666664, "is_reserved": 0, "fusion_lat": 0.0, "bike_id": "2948064f596cf8f517d269af317d0f38", "type": "electric_scooter", "is_disabled": 0, "fusion_lon": 0.0}, {"rental_uris": {"android": "https://dc.lft.to/lastmile_qr_scan", "ios": "https://dc.lft.to/lastmile_qr_scan"}, "lon": -77.02208066666667, "name": "0811b46850b783201215f77e678b6d3d", "lat": 38.89577116666667, "is_reserved": 0, "fusion_lat": 0.0, "bike_id": "0811b46850b783201215f77e678b6d3d", "type": "electric_scooter", "is_disabled": 0, "fusion_lon": 0.0}, {"rental_uris": {"android": "https://dc.lft.to/lastmile_qr_scan", "ios": "https://dc.lft.to/lastmile_qr_scan"}, "lon": -77.02300366666667, "name": "cab378879421a9e14f6c3836cd00f8e1", "lat": 38.89581066666667, "is_reserved": 0, "fusion_lat": 0.0, "bike_id": "cab378879421a9e14f6c3836cd00f8e1", "type": "electric_scooter", "is_disabled": 0, "fusion_lon": 0.0}, {"rental_uris": {"android": "https://dc.lft.to/lastmile_qr_scan", "ios": "https://dc.lft.to/lastmile_qr_scan"}, "lon": -77.014786, "name": "e6caa211568c28e6a5c7664baf96294c", "lat": 38.91850983333333, "is_reserved": 0, "fusion_lat": 0.0, "bike_id": "e6caa211568c28e6a5c7664baf96294c", "type": "electric_scooter", "is_disabled": 0, "fusion_lon": 0.0}, {"rental_uris": {"android": "https://dc.lft.to/lastmile_qr_scan", "ios": "https://dc.lft.to/lastmile_qr_scan"}, "lon": -77.01213216666666, "name": "967f207fd22ff4c811799799c0a6426e", "lat": 38.91822416666667, "is_reserved": 0, "fusion_lat": 0.0, "bike_id": "967f207fd22ff4c811799799c0a6426e", "type": "electric_scooter", "is_disabled": 0, "fusion_lon": 0.0}, {"rental_uris": {"android": "https://dc.lft.to/lastmile_qr_scan", "ios": "https://dc.lft.to/lastmile_qr_scan"}, "lon": -77.04345533333333, "name": "abaa6298550c375d1f31c86c00e1fce0", "lat": 38.9132145, "is_reserved": 0, "fusion_lat": 0.0, "bike_id": "abaa6298550c375d1f31c86c00e1fce0", "type": "electric_scooter", "is_disabled": 0, "fusion_lon": 0.0}, {"rental_uris": {"android": "https://dc.lft.to/lastmile_qr_scan", "ios": "https://dc.lft.to/lastmile_qr_scan"}, "lon": -77.04688183333333, "name": "91e1a5e509a1fd062ed0c06d849d3bbb", "lat": 38.8922315, "is_reserved": 0, "fusion_lat": 0.0, "bike_id": "91e1a5e509a1fd062ed0c06d849d3bbb", "type": "electric_scooter", "is_disabled": 0, "fusion_lon": 0.0}, {"rental_uris": {"android": "https://dc.lft.to/lastmile_qr_scan", "ios": "https://dc.lft.to/lastmile_qr_scan"}, "lon": -77.032614, "name": "b4923d2140c6d3856cde295daf17aa2f", "lat": 38.938834666666665, "is_reserved": 0, "fusion_lat": 0.0, "bike_id": "b4923d2140c6d3856cde295daf17aa2f", "type": "electric_scooter", "is_disabled": 0, "fusion_lon": 0.0}, {"rental_uris": {"android": "https://dc.lft.to/lastmile_qr_scan", "ios": "https://dc.lft.to/lastmile_qr_scan"}, "lon": -77.0295205, "name": "ad26f04d3652f9727929b9c342a2dd9f", "lat": 38.91684566666667, "is_reserved": 0, "fusion_lat": 0.0, "bike_id": "ad26f04d3652f9727929b9c342a2dd9f", "type": "electric_scooter", "is_disabled": 0, "fusion_lon": 0.0}, {"rental_uris": {"android": "https://dc.lft.to/lastmile_qr_scan", "ios": "https://dc.lft.to/lastmile_qr_scan"}, "lon": -77.0366955, "name": "6a2044efaa848face2093a30a5f90f01", "lat": 38.918708, "is_reserved": 0, "fusion_lat": 0.0, "bike_id": "6a2044efaa848face2093a30a5f90f01", "type": "electric_scooter", "is_disabled": 0, "fusion_lon": 0.0}, {"rental_uris": {"android": "https://dc.lft.to/lastmile_qr_scan", "ios": "https://dc.lft.to/lastmile_qr_scan"}, "lon": -77.01269316666666, "name": "4e764a4ace110545ba7e4d5c72def52f", "lat": 38.864467, "is_reserved": 0, "fusion_lat": 0.0, "bike_id": "4e764a4ace110545ba7e4d5c72def52f", "type": "electric_bike", "is_disabled": 0, "fusion_lon": 0.0}, {"rental_uris": {"android": "https://dc.lft.to/lastmile_qr_scan", "ios": "https://dc.lft.to/lastmile_qr_scan"}, "lon": -77.036447, "name": "9249927c510434c5b338113b9940b1d4", "lat": 38.916175833333334, "is_reserved": 0, "fusion_lat": 0.0, "bike_id": "9249927c510434c5b338113b9940b1d4", "type": "electric_scooter", "is_disabled": 0, "fusion_lon": 0.0}, {"rental_uris": {"android": "https://dc.lft.to/lastmile_qr_scan", "ios": "https://dc.lft.to/lastmile_qr_scan"}, "lon": -77.02156433333333, "name": "86881fcfe4c091997fc2bcb6d1f087de", "lat": 38.94132466666667, "is_reserved": 0, "fusion_lat": 0.0, "bike_id": "86881fcfe4c091997fc2bcb6d1f087de", "type": "electric_scooter", "is_disabled": 0, "fusion_lon": 0.0}, {"rental_uris": {"android": "https://dc.lft.to/lastmile_qr_scan", "ios": "https://dc.lft.to/lastmile_qr_scan"}, "lon": -77.0435425, "name": "e7bdd12f40504a2951744961e81e00c1", "lat": 38.90881066666667, "is_reserved": 0, "fusion_lat": 0.0, "bike_id": "e7bdd12f40504a2951744961e81e00c1", "type": "electric_scooter", "is_disabled": 0, "fusion_lon": 0.0}, {"rental_uris": {"android": "https://dc.lft.to/lastmile_qr_scan", "ios": "https://dc.lft.to/lastmile_qr_scan"}, "lon": -77.06849833333334, "name": "fc4e490a92daec667e6e127cea2be38e", "lat": 38.9173255, "is_reserved": 0, "fusion_lat": 0.0, "bike_id": "fc4e490a92daec667e6e127cea2be38e", "type": "electric_scooter", "is_disabled": 0, "fusion_lon": 0.0}, {"rental_uris": {"android": "https://dc.lft.to/lastmile_qr_scan", "ios": "https://dc.lft.to/lastmile_qr_scan"}, "lon": -77.026912, "name": "8226e3b74ed9101d18f68b29d1333ff7", "lat": 38.91845033333333, "is_reserved": 0, "fusion_lat": 0.0, "bike_id": "8226e3b74ed9101d18f68b29d1333ff7", "type": "electric_scooter", "is_disabled": 0, "fusion_lon": 0.0}, {"rental_uris": {"android": "https://dc.lft.to/lastmile_qr_scan", "ios": "https://dc.lft.to/lastmile_qr_scan"}, "lon": -77.005908, "name": "aab904a1ec90c94173a1acbbe740fd9a", "lat": 38.875753, "is_reserved": 0, "fusion_lat": 0.0, "bike_id": "aab904a1ec90c94173a1acbbe740fd9a", "type": "electric_scooter", "is_disabled": 0, "fusion_lon": 0.0}, {"rental_uris": {"android": "https://dc.lft.to/lastmile_qr_scan", "ios": "https://dc.lft.to/lastmile_qr_scan"}, "lon": -76.98380166666666, "name": "7a1c1b6ffe6f6df33709fc3cdb4951e8", "lat": 38.9151035, "is_reserved": 0, "fusion_lat": 0.0, "bike_id": "7a1c1b6ffe6f6df33709fc3cdb4951e8", "type": "electric_scooter", "is_disabled": 0, "fusion_lon": 0.0}, {"rental_uris": {"android": "https://dc.lft.to/lastmile_qr_scan", "ios": "https://dc.lft.to/lastmile_qr_scan"}, "lon": -77.00761533333333, "name": "5982c09213485b09ee0d14342077a237", "lat": 38.9978305, "is_reserved": 0, "fusion_lat": 0.0, "bike_id": "5982c09213485b09ee0d14342077a237", "type": "electric_bike", "is_disabled": 0, "fusion_lon": 0.0}, {"rental_uris": {"android": "https://dc.lft.to/lastmile_qr_scan", "ios": "https://dc.lft.to/lastmile_qr_scan"}, "lon": -76.99985733333334, "name": "7a6615d5f86e12aa93482c7d7c81870a", "lat": 38.87505766666666, "is_reserved": 0, "fusion_lat": 0.0, "bike_id": "7a6615d5f86e12aa93482c7d7c81870a", "type": "electric_scooter", "is_disabled": 0, "fusion_lon": 0.0}, {"rental_uris": {"android": "https://dc.lft.to/lastmile_qr_scan", "ios": "https://dc.lft.to/lastmile_qr_scan"}, "lon": -77.02711433333333, "name": "8bceb75f0be80d31ad3c50c7dc6ab047", "lat": 38.928815, "is_reserved": 0, "fusion_lat": 0.0, "bike_id": "8bceb75f0be80d31ad3c50c7dc6ab047", "type": "electric_scooter", "is_disabled": 0, "fusion_lon": 0.0}, {"rental_uris": {"android": "https://dc.lft.to/lastmile_qr_scan", "ios": "https://dc.lft.to/lastmile_qr_scan"}, "lon": -77.1660735, "name": "8ef6a994e4fa2ff4420f5820acd39d1d", "lat": 39.119778833333335, "is_reserved": 0, "fusion_lat": 0.0, "bike_id": "8ef6a994e4fa2ff4420f5820acd39d1d", "type": "electric_bike", "is_disabled": 0, "fusion_lon": 0.0}, {"rental_uris": {"android": "https://dc.lft.to/lastmile_qr_scan", "ios": "https://dc.lft.to/lastmile_qr_scan"}, "lon": -77.02609416666667, "name": "6c9d9d4f33898b2457f32a87b2eb9d78", "lat": 38.92850883333333, "is_reserved": 0, "fusion_lat": 0.0, "bike_id": "6c9d9d4f33898b2457f32a87b2eb9d78", "type": "electric_bike", "is_disabled": 0, "fusion_lon": 0.0}, {"rental_uris": {"android": "https://dc.lft.to/lastmile_qr_scan", "ios": "https://dc.lft.to/lastmile_qr_scan"}, "lon": -77.03265233333333, "name": "630047cf96e2a72e0e83f69fa4c4f98b", "lat": 38.939829, "is_reserved": 0, "fusion_lat": 0.0, "bike_id": "630047cf96e2a72e0e83f69fa4c4f98b", "type": "electric_scooter", "is_disabled": 0, "fusion_lon": 0.0}, {"rental_uris": {"android": "https://dc.lft.to/lastmile_qr_scan", "ios": "https://dc.lft.to/lastmile_qr_scan"}, "lon": -76.98346, "name": "751f4bf04a7489a89c7575931564ceaa", "lat": 38.865665, "is_reserved": 0, "fusion_lat": 0.0, "bike_id": "751f4bf04a7489a89c7575931564ceaa", "type": "electric_scooter", "is_disabled": 0, "fusion_lon": 0.0}, {"rental_uris": {"android": "https://dc.lft.to/lastmile_qr_scan", "ios": "https://dc.lft.to/lastmile_qr_scan"}, "lon": -77.04576333333333, "name": "8e65f7c053b4b0718495dbe0e5042ccc", "lat": 38.91625533333333, "is_reserved": 0, "fusion_lat": 0.0, "bike_id": "8e65f7c053b4b0718495dbe0e5042ccc", "type": "electric_scooter", "is_disabled": 0, "fusion_lon": 0.0}, {"rental_uris": {"android": "https://dc.lft.to/lastmile_qr_scan", "ios": "https://dc.lft.to/lastmile_qr_scan"}, "lon": -77.02406233333333, "name": "97048d616cd0c10cccdd3442e0339a17", "lat": 38.91176566666667, "is_reserved": 0, "fusion_lat": 0.0, "bike_id": "97048d616cd0c10cccdd3442e0339a17", "type": "electric_scooter", "is_disabled": 0, "fusion_lon": 0.0}, {"rental_uris": {"android": "https://dc.lft.to/lastmile_qr_scan", "ios": "https://dc.lft.to/lastmile_qr_scan"}, "lon": -77.0384025, "name": "e7070e375d7e841a52ab370862423715", "lat": 38.90866166666667, "is_reserved": 0, "fusion_lat": 0.0, "bike_id": "e7070e375d7e841a52ab370862423715", "type": "electric_scooter", "is_disabled": 0, "fusion_lon": 0.0}, {"rental_uris": {"android": "https://dc.lft.to/lastmile_qr_scan", "ios": "https://dc.lft.to/lastmile_qr_scan"}, "lon": -77.03214783333334, "name": "7fabce05a74254665d390fbfaed00cd3", "lat": 38.89233316666667, "is_reserved": 0, "fusion_lat": 0.0, "bike_id": "7fabce05a74254665d390fbfaed00cd3", "type": "electric_scooter", "is_disabled": 0, "fusion_lon": 0.0}, {"rental_uris": {"android": "https://dc.lft.to/lastmile_qr_scan", "ios": "https://dc.lft.to/lastmile_qr_scan"}, "lon": -77.01381633333334, "name": "c56da48964004a559b64ccf90d7aef51", "lat": 38.9523275, "is_reserved": 0, "fusion_lat": 0.0, "bike_id": "c56da48964004a559b64ccf90d7aef51", "type": "electric_scooter", "is_disabled": 0, "fusion_lon": 0.0}, {"rental_uris": {"android": "https://dc.lft.to/lastmile_qr_scan", "ios": "https://dc.lft.to/lastmile_qr_scan"}, "lon": -77.00713883333333, "name": "c75e8041447069b0d5c5bbefb452b7b7", "lat": 38.88489533333333, "is_reserved": 0, "fusion_lat": 0.0, "bike_id": "c75e8041447069b0d5c5bbefb452b7b7", "type": "electric_scooter", "is_disabled": 0, "fusion_lon": 0.0}, {"rental_uris": {"android": "https://dc.lft.to/lastmile_qr_scan", "ios": "https://dc.lft.to/lastmile_qr_scan"}, "lon": -77.0427755, "name": "7dfe076aa76004472d349fd420718dc3", "lat": 38.907248333333335, "is_reserved": 0, "fusion_lat": 0.0, "bike_id": "7dfe076aa76004472d349fd420718dc3", "type": "electric_scooter", "is_disabled": 0, "fusion_lon": 0.0}, {"rental_uris": {"android": "https://dc.lft.to/lastmile_qr_scan", "ios": "https://dc.lft.to/lastmile_qr_scan"}, "lon": -76.98277466666667, "name": "93a0f36fd77b45397a8d6b185c337127", "lat": 38.867615666666666, "is_reserved": 0, "fusion_lat": 0.0, "bike_id": "93a0f36fd77b45397a8d6b185c337127", "type": "electric_scooter", "is_disabled": 0, "fusion_lon": 0.0}, {"rental_uris": {"android": "https://dc.lft.to/lastmile_qr_scan", "ios": "https://dc.lft.to/lastmile_qr_scan"}, "lon": -77.01224716666667, "name": "f5578fd9f61ab96f8441425525bc0b8a", "lat": 38.925994, "is_reserved": 0, "fusion_lat": 0.0, "bike_id": "f5578fd9f61ab96f8441425525bc0b8a", "type": "electric_scooter", "is_disabled": 0, "fusion_lon": 0.0}, {"rental_uris": {"android": "https://dc.lft.to/lastmile_qr_scan", "ios": "https://dc.lft.to/lastmile_qr_scan"}, "lon": -77.004958, "name": "7a2170056ebb2d5edf5423e08a36021d", "lat": 38.87454733333333, "is_reserved": 0, "fusion_lat": 0.0, "bike_id": "7a2170056ebb2d5edf5423e08a36021d", "type": "electric_scooter", "is_disabled": 0, "fusion_lon": 0.0}, {"rental_uris": {"android": "https://dc.lft.to/lastmile_qr_scan", "ios": "https://dc.lft.to/lastmile_qr_scan"}, "lon": -77.04713266666667, "name": "ec95edb63a85641d0b864b8ddb69db8b", "lat": 38.920505666666664, "is_reserved": 0, "fusion_lat": 0.0, "bike_id": "ec95edb63a85641d0b864b8ddb69db8b", "type": "electric_scooter", "is_disabled": 0, "fusion_lon": 0.0}, {"rental_uris": {"android": "https://dc.lft.to/lastmile_qr_scan", "ios": "https://dc.lft.to/lastmile_qr_scan"}, "lon": -77.04605816666667, "name": "424bf27e2d977e508142fcbef2765d7a", "lat": 38.91683166666667, "is_reserved": 0, "fusion_lat": 0.0, "bike_id": "424bf27e2d977e508142fcbef2765d7a", "type": "electric_scooter", "is_disabled": 0, "fusion_lon": 0.0}, {"rental_uris": {"android": "https://dc.lft.to/lastmile_qr_scan", "ios": "https://dc.lft.to/lastmile_qr_scan"}, "lon": -77.00528416666667, "name": "0540909aa4d009d9287a26f4bdf62fd0", "lat": 38.91794566666667, "is_reserved": 0, "fusion_lat": 0.0, "bike_id": "0540909aa4d009d9287a26f4bdf62fd0", "type": "electric_scooter", "is_disabled": 0, "fusion_lon": 0.0}, {"rental_uris": {"android": "https://dc.lft.to/lastmile_qr_scan", "ios": "https://dc.lft.to/lastmile_qr_scan"}, "lon": -77.02616933333333, "name": "be3e428ac4c36a4b7d7268fad2213b36", "lat": 38.89654916666667, "is_reserved": 0, "fusion_lat": 0.0, "bike_id": "be3e428ac4c36a4b7d7268fad2213b36", "type": "electric_scooter", "is_disabled": 0, "fusion_lon": 0.0}, {"rental_uris": {"android": "https://dc.lft.to/lastmile_qr_scan", "ios": "https://dc.lft.to/lastmile_qr_scan"}, "lon": -77.038435, "name": "87163bbeb0a6d1659bd8d8eae6249ac3", "lat": 38.9146635, "is_reserved": 0, "fusion_lat": 0.0, "bike_id": "87163bbeb0a6d1659bd8d8eae6249ac3", "type": "electric_scooter", "is_disabled": 0, "fusion_lon": 0.0}, {"rental_uris": {"android": "https://dc.lft.to/lastmile_qr_scan", "ios": "https://dc.lft.to/lastmile_qr_scan"}, "lon": -77.03623016666667, "name": "239946bee08e54d48a028607d93214de", "lat": 38.939137833333334, "is_reserved": 0, "fusion_lat": 0.0, "bike_id": "239946bee08e54d48a028607d93214de", "type": "electric_scooter", "is_disabled": 0, "fusion_lon": 0.0}, {"rental_uris": {"android": "https://dc.lft.to/lastmile_qr_scan", "ios": "https://dc.lft.to/lastmile_qr_scan"}, "lon": -77.033418, "name": "f2986d0b048cfe3a976fc11a99a07d10", "lat": 38.898420333333334, "is_reserved": 0, "fusion_lat": 0.0, "bike_id": "f2986d0b048cfe3a976fc11a99a07d10", "type": "electric_scooter", "is_disabled": 0, "fusion_lon": 0.0}, {"rental_uris": {"android": "https://dc.lft.to/lastmile_qr_scan", "ios": "https://dc.lft.to/lastmile_qr_scan"}, "lon": -77.08066316666667, "name": "eacf3912e4f66e85d6840b1622615bca", "lat": 39.052519333333336, "is_reserved": 0, "fusion_lat": 0.0, "bike_id": "eacf3912e4f66e85d6840b1622615bca", "type": "electric_bike", "is_disabled": 0, "fusion_lon": 0.0}, {"rental_uris": {"android": "https://dc.lft.to/lastmile_qr_scan", "ios": "https://dc.lft.to/lastmile_qr_scan"}, "lon": -76.9703405, "name": "fa69c392a327ace26904f3f8e469d8ae", "lat": 38.87360066666667, "is_reserved": 0, "fusion_lat": 0.0, "bike_id": "fa69c392a327ace26904f3f8e469d8ae", "type": "electric_scooter", "is_disabled": 0, "fusion_lon": 0.0}, {"rental_uris": {"android": "https://dc.lft.to/lastmile_qr_scan", "ios": "https://dc.lft.to/lastmile_qr_scan"}, "lon": -77.02943083333334, "name": "269e99d2c2512fd955ebd54a6b7fb30e", "lat": 38.902551833333334, "is_reserved": 0, "fusion_lat": 0.0, "bike_id": "269e99d2c2512fd955ebd54a6b7fb30e", "type": "electric_scooter", "is_disabled": 0, "fusion_lon": 0.0}, {"rental_uris": {"android": "https://dc.lft.to/lastmile_qr_scan", "ios": "https://dc.lft.to/lastmile_qr_scan"}, "lon": -77.03378983333333, "name": "a8c96749c3123b5010bb83b92f38f398", "lat": 38.92536066666667, "is_reserved": 0, "fusion_lat": 0.0, "bike_id": "a8c96749c3123b5010bb83b92f38f398", "type": "electric_scooter", "is_disabled": 0, "fusion_lon": 0.0}, {"rental_uris": {"android": "https://dc.lft.to/lastmile_qr_scan", "ios": "https://dc.lft.to/lastmile_qr_scan"}, "lon": -77.0235755, "name": "096ea7711815078b68661e946dadab4c", "lat": 38.9317905, "is_reserved": 0, "fusion_lat": 0.0, "bike_id": "096ea7711815078b68661e946dadab4c", "type": "electric_scooter", "is_disabled": 0, "fusion_lon": 0.0}, {"rental_uris": {"android": "https://dc.lft.to/lastmile_qr_scan", "ios": "https://dc.lft.to/lastmile_qr_scan"}, "lon": -77.044989, "name": "9e03b2e1ec8046ce833ccd4b52b85097", "lat": 38.91516766666667, "is_reserved": 0, "fusion_lat": 0.0, "bike_id": "9e03b2e1ec8046ce833ccd4b52b85097", "type": "electric_scooter", "is_disabled": 0, "fusion_lon": 0.0}, {"rental_uris": {"android": "https://dc.lft.to/lastmile_qr_scan", "ios": "https://dc.lft.to/lastmile_qr_scan"}, "lon": -77.020792, "name": "4d704df9c421340692f0865da4bbcabb", "lat": 38.930091833333336, "is_reserved": 0, "fusion_lat": 0.0, "bike_id": "4d704df9c421340692f0865da4bbcabb", "type": "electric_scooter", "is_disabled": 0, "fusion_lon": 0.0}, {"rental_uris": {"android": "https://dc.lft.to/lastmile_qr_scan", "ios": "https://dc.lft.to/lastmile_qr_scan"}, "lon": -77.024213, "name": "a1854012dd8bf46a660ebdc48d9264de", "lat": 38.93504866666667, "is_reserved": 0, "fusion_lat": 0.0, "bike_id": "a1854012dd8bf46a660ebdc48d9264de", "type": "electric_scooter", "is_disabled": 0, "fusion_lon": 0.0}, {"rental_uris": {"android": "https://dc.lft.to/lastmile_qr_scan", "ios": "https://dc.lft.to/lastmile_qr_scan"}, "lon": -76.95668616666667, "name": "b1cd1f023eb20ccfdbcfcffd11938965", "lat": 38.88493583333333, "is_reserved": 0, "fusion_lat": 0.0, "bike_id": "b1cd1f023eb20ccfdbcfcffd11938965", "type": "electric_bike", "is_disabled": 0, "fusion_lon": 0.0}, {"rental_uris": {"android": "https://dc.lft.to/lastmile_qr_scan", "ios": "https://dc.lft.to/lastmile_qr_scan"}, "lon": -76.98011783333334, "name": "39e328c12918175606c13f26eaf78465", "lat": 38.9067735, "is_reserved": 0, "fusion_lat": 0.0, "bike_id": "39e328c12918175606c13f26eaf78465", "type": "electric_scooter", "is_disabled": 0, "fusion_lon": 0.0}, {"rental_uris": {"android": "https://dc.lft.to/lastmile_qr_scan", "ios": "https://dc.lft.to/lastmile_qr_scan"}, "lon": -77.00199983333333, "name": "7ed7ed52d358689f0b00e5eab3ccfbb5", "lat": 38.966115, "is_reserved": 0, "fusion_lat": 0.0, "bike_id": "7ed7ed52d358689f0b00e5eab3ccfbb5", "type": "electric_scooter", "is_disabled": 0, "fusion_lon": 0.0}, {"rental_uris": {"android": "https://dc.lft.to/lastmile_qr_scan", "ios": "https://dc.lft.to/lastmile_qr_scan"}, "lon": -76.9453275, "name": "244ee65791d7c5ca3f8512f38599fb5a", "lat": 38.867555333333335, "is_reserved": 0, "fusion_lat": 0.0, "bike_id": "244ee65791d7c5ca3f8512f38599fb5a", "type": "electric_bike", "is_disabled": 0, "fusion_lon": 0.0}, {"rental_uris": {"android": "https://dc.lft.to/lastmile_qr_scan", "ios": "https://dc.lft.to/lastmile_qr_scan"}, "lon": -77.005824, "name": "93994aa1784809354ba7ff3330d226ec", "lat": 38.90561116666667, "is_reserved": 0, "fusion_lat": 0.0, "bike_id": "93994aa1784809354ba7ff3330d226ec", "type": "electric_scooter", "is_disabled": 0, "fusion_lon": 0.0}, {"rental_uris": {"android": "https://dc.lft.to/lastmile_qr_scan", "ios": "https://dc.lft.to/lastmile_qr_scan"}, "lon": -77.04630216666666, "name": "7128392e48645c049516e7545803c6b8", "lat": 38.906635666666666, "is_reserved": 0, "fusion_lat": 0.0, "bike_id": "7128392e48645c049516e7545803c6b8", "type": "electric_scooter", "is_disabled": 0, "fusion_lon": 0.0}, {"rental_uris": {"android": "https://dc.lft.to/lastmile_qr_scan", "ios": "https://dc.lft.to/lastmile_qr_scan"}, "lon": -77.0174195, "name": "1a7f5d317072b0c2e0c5791ee29e2694", "lat": 38.88300016666667, "is_reserved": 0, "fusion_lat": 0.0, "bike_id": "1a7f5d317072b0c2e0c5791ee29e2694", "type": "electric_scooter", "is_disabled": 0, "fusion_lon": 0.0}, {"rental_uris": {"android": "https://dc.lft.to/lastmile_qr_scan", "ios": "https://dc.lft.to/lastmile_qr_scan"}, "lon": -77.02009216666667, "name": "f67f1c2c71d8336fedf05bc515f2b516", "lat": 38.892519, "is_reserved": 0, "fusion_lat": 0.0, "bike_id": "f67f1c2c71d8336fedf05bc515f2b516", "type": "electric_scooter", "is_disabled": 0, "fusion_lon": 0.0}, {"rental_uris": {"android": "https://dc.lft.to/lastmile_qr_scan", "ios": "https://dc.lft.to/lastmile_qr_scan"}, "lon": -77.01744716666667, "name": "4e764fb637a97ad972f812ba95402aa3", "lat": 38.939884, "is_reserved": 0, "fusion_lat": 0.0, "bike_id": "4e764fb637a97ad972f812ba95402aa3", "type": "electric_scooter", "is_disabled": 0, "fusion_lon": 0.0}, {"rental_uris": {"android": "https://dc.lft.to/lastmile_qr_scan", "ios": "https://dc.lft.to/lastmile_qr_scan"}, "lon": -77.022375, "name": "9b75a6c22f027ee083b0d306e0d8907c", "lat": 38.922175333333335, "is_reserved": 0, "fusion_lat": 0.0, "bike_id": "9b75a6c22f027ee083b0d306e0d8907c", "type": "electric_scooter", "is_disabled": 0, "fusion_lon": 0.0}, {"rental_uris": {"android": "https://dc.lft.to/lastmile_qr_scan", "ios": "https://dc.lft.to/lastmile_qr_scan"}, "lon": -76.99037866666667, "name": "fec00cc4ba1116cf0a3d5b2c181feb65", "lat": 38.898501333333336, "is_reserved": 0, "fusion_lat": 0.0, "bike_id": "fec00cc4ba1116cf0a3d5b2c181feb65", "type": "electric_scooter", "is_disabled": 0, "fusion_lon": 0.0}, {"rental_uris": {"android": "https://dc.lft.to/lastmile_qr_scan", "ios": "https://dc.lft.to/lastmile_qr_scan"}, "lon": -77.01415866666666, "name": "ff1e4be95bbdae0c18df1cbfadef91de", "lat": 38.914068, "is_reserved": 0, "fusion_lat": 0.0, "bike_id": "ff1e4be95bbdae0c18df1cbfadef91de", "type": "electric_scooter", "is_disabled": 0, "fusion_lon": 0.0}, {"rental_uris": {"android": "https://dc.lft.to/lastmile_qr_scan", "ios": "https://dc.lft.to/lastmile_qr_scan"}, "lon": -77.0442375, "name": "def3ed67253b61e0551bcd4a7e310fb2", "lat": 38.89406283333334, "is_reserved": 0, "fusion_lat": 0.0, "bike_id": "def3ed67253b61e0551bcd4a7e310fb2", "type": "electric_scooter", "is_disabled": 0, "fusion_lon": 0.0}, {"rental_uris": {"android": "https://dc.lft.to/lastmile_qr_scan", "ios": "https://dc.lft.to/lastmile_qr_scan"}, "lon": -76.98342333333333, "name": "133dfa625adc881317644414eb36e7ba", "lat": 38.9150195, "is_reserved": 0, "fusion_lat": 0.0, "bike_id": "133dfa625adc881317644414eb36e7ba", "type": "electric_scooter", "is_disabled": 0, "fusion_lon": 0.0}, {"rental_uris": {"android": "https://dc.lft.to/lastmile_qr_scan", "ios": "https://dc.lft.to/lastmile_qr_scan"}, "lon": -77.032179, "name": "281820d7967f27cbfd1a8846a36ca53a", "lat": 38.93615416666667, "is_reserved": 0, "fusion_lat": 0.0, "bike_id": "281820d7967f27cbfd1a8846a36ca53a", "type": "electric_scooter", "is_disabled": 0, "fusion_lon": 0.0}, {"rental_uris": {"android": "https://dc.lft.to/lastmile_qr_scan", "ios": "https://dc.lft.to/lastmile_qr_scan"}, "lon": -77.0076435, "name": "cd4151481d9053de57f833d7d764c165", "lat": 38.9269485, "is_reserved": 0, "fusion_lat": 0.0, "bike_id": "cd4151481d9053de57f833d7d764c165", "type": "electric_scooter", "is_disabled": 0, "fusion_lon": 0.0}, {"rental_uris": {"android": "https://dc.lft.to/lastmile_qr_scan", "ios": "https://dc.lft.to/lastmile_qr_scan"}, "lon": -77.02510783333334, "name": "124276a99cf2812900756f8f8cfc4f1c", "lat": 38.921416, "is_reserved": 0, "fusion_lat": 0.0, "bike_id": "124276a99cf2812900756f8f8cfc4f1c", "type": "electric_scooter", "is_disabled": 0, "fusion_lon": 0.0}, {"rental_uris": {"android": "https://dc.lft.to/lastmile_qr_scan", "ios": "https://dc.lft.to/lastmile_qr_scan"}, "lon": -77.0344995, "name": "5cf782c64f5fe372c33844dc43d6421d", "lat": 38.9094995, "is_reserved": 0, "fusion_lat": 0.0, "bike_id": "5cf782c64f5fe372c33844dc43d6421d", "type": "electric_scooter", "is_disabled": 0, "fusion_lon": 0.0}, {"rental_uris": {"android": "https://dc.lft.to/lastmile_qr_scan", "ios": "https://dc.lft.to/lastmile_qr_scan"}, "lon": -77.05033283333333, "name": "2a385b4285b9b3e001c78dd7cd7a30c8", "lat": 38.92361666666667, "is_reserved": 0, "fusion_lat": 0.0, "bike_id": "2a385b4285b9b3e001c78dd7cd7a30c8", "type": "electric_scooter", "is_disabled": 0, "fusion_lon": 0.0}, {"rental_uris": {"android": "https://dc.lft.to/lastmile_qr_scan", "ios": "https://dc.lft.to/lastmile_qr_scan"}, "lon": -77.0576125, "name": "a19c5a3315af42f57a85e7c061577744", "lat": 38.924178166666664, "is_reserved": 0, "fusion_lat": 0.0, "bike_id": "a19c5a3315af42f57a85e7c061577744", "type": "electric_scooter", "is_disabled": 0, "fusion_lon": 0.0}, {"rental_uris": {"android": "https://dc.lft.to/lastmile_qr_scan", "ios": "https://dc.lft.to/lastmile_qr_scan"}, "lon": -77.02211833333334, "name": "7e226165a5f588f3436c140b1badba0e", "lat": 38.905847, "is_reserved": 0, "fusion_lat": 0.0, "bike_id": "7e226165a5f588f3436c140b1badba0e", "type": "electric_scooter", "is_disabled": 0, "fusion_lon": 0.0}, {"rental_uris": {"android": "https://dc.lft.to/lastmile_qr_scan", "ios": "https://dc.lft.to/lastmile_qr_scan"}, "lon": -77.01848683333333, "name": "83dd979ef9fc516485b97e1b6c7757a0", "lat": 38.97367066666666, "is_reserved": 0, "fusion_lat": 0.0, "bike_id": "83dd979ef9fc516485b97e1b6c7757a0", "type": "electric_scooter", "is_disabled": 0, "fusion_lon": 0.0}, {"rental_uris": {"android": "https://dc.lft.to/lastmile_qr_scan", "ios": "https://dc.lft.to/lastmile_qr_scan"}, "lon": -77.02613066666666, "name": "179670beb8f346b242601b4b624cf538", "lat": 38.8964855, "is_reserved": 0, "fusion_lat": 0.0, "bike_id": "179670beb8f346b242601b4b624cf538", "type": "electric_scooter", "is_disabled": 0, "fusion_lon": 0.0}, {"rental_uris": {"android": "https://dc.lft.to/lastmile_qr_scan", "ios": "https://dc.lft.to/lastmile_qr_scan"}, "lon": -77.0271275, "name": "43196b8f818b689b4b89f70362f3e403", "lat": 38.906753333333334, "is_reserved": 0, "fusion_lat": 0.0, "bike_id": "43196b8f818b689b4b89f70362f3e403", "type": "electric_scooter", "is_disabled": 0, "fusion_lon": 0.0}, {"rental_uris": {"android": "https://dc.lft.to/lastmile_qr_scan", "ios": "https://dc.lft.to/lastmile_qr_scan"}, "lon": -77.036345, "name": "1a4102de969ec20489c48b3f857d1523", "lat": 38.9274145, "is_reserved": 0, "fusion_lat": 0.0, "bike_id": "1a4102de969ec20489c48b3f857d1523", "type": "electric_scooter", "is_disabled": 0, "fusion_lon": 0.0}, {"rental_uris": {"android": "https://dc.lft.to/lastmile_qr_scan", "ios": "https://dc.lft.to/lastmile_qr_scan"}, "lon": -77.01685566666667, "name": "7322da26654a952eb0edf62ebd662f69", "lat": 38.90122783333333, "is_reserved": 0, "fusion_lat": 0.0, "bike_id": "7322da26654a952eb0edf62ebd662f69", "type": "electric_scooter", "is_disabled": 0, "fusion_lon": 0.0}, {"rental_uris": {"android": "https://dc.lft.to/lastmile_qr_scan", "ios": "https://dc.lft.to/lastmile_qr_scan"}, "lon": -77.0116175, "name": "316a3ef9b6854853d4283fdd57e87e92", "lat": 38.9202485, "is_reserved": 0, "fusion_lat": 0.0, "bike_id": "316a3ef9b6854853d4283fdd57e87e92", "type": "electric_scooter", "is_disabled": 0, "fusion_lon": 0.0}, {"rental_uris": {"android": "https://dc.lft.to/lastmile_qr_scan", "ios": "https://dc.lft.to/lastmile_qr_scan"}, "lon": -77.02088816666667, "name": "824030ff5603996ffd6d8d358fc2f065", "lat": 38.921078666666666, "is_reserved": 0, "fusion_lat": 0.0, "bike_id": "824030ff5603996ffd6d8d358fc2f065", "type": "electric_scooter", "is_disabled": 0, "fusion_lon": 0.0}, {"rental_uris": {"android": "https://dc.lft.to/lastmile_qr_scan", "ios": "https://dc.lft.to/lastmile_qr_scan"}, "lon": -77.0510555, "name": "4d16c3a358b577f8e11148e9a8b58132", "lat": 38.924969, "is_reserved": 0, "fusion_lat": 0.0, "bike_id": "4d16c3a358b577f8e11148e9a8b58132", "type": "electric_scooter", "is_disabled": 0, "fusion_lon": 0.0}, {"rental_uris": {"android": "https://dc.lft.to/lastmile_qr_scan", "ios": "https://dc.lft.to/lastmile_qr_scan"}, "lon": -77.03272016666666, "name": "a9093223ea4ea08528de3738c44bc613", "lat": 38.932521333333334, "is_reserved": 0, "fusion_lat": 0.0, "bike_id": "a9093223ea4ea08528de3738c44bc613", "type": "electric_scooter", "is_disabled": 0, "fusion_lon": 0.0}, {"rental_uris": {"android": "https://dc.lft.to/lastmile_qr_scan", "ios": "https://dc.lft.to/lastmile_qr_scan"}, "lon": -77.06096416666666, "name": "d9af1a24ce51b1a632d768376c3cf271", "lat": 38.91185333333333, "is_reserved": 0, "fusion_lat": 0.0, "bike_id": "d9af1a24ce51b1a632d768376c3cf271", "type": "electric_scooter", "is_disabled": 0, "fusion_lon": 0.0}, {"rental_uris": {"android": "https://dc.lft.to/lastmile_qr_scan", "ios": "https://dc.lft.to/lastmile_qr_scan"}, "lon": -76.9883765, "name": "a47a79a04526c888febfad290879435a", "lat": 38.8925845, "is_reserved": 0, "fusion_lat": 0.0, "bike_id": "a47a79a04526c888febfad290879435a", "type": "electric_scooter", "is_disabled": 0, "fusion_lon": 0.0}, {"rental_uris": {"android": "https://dc.lft.to/lastmile_qr_scan", "ios": "https://dc.lft.to/lastmile_qr_scan"}, "lon": -77.01185116666667, "name": "7a06a45f58cd187330c7518bd1b3d82b", "lat": 38.9157595, "is_reserved": 0, "fusion_lat": 0.0, "bike_id": "7a06a45f58cd187330c7518bd1b3d82b", "type": "electric_scooter", "is_disabled": 0, "fusion_lon": 0.0}, {"rental_uris": {"android": "https://dc.lft.to/lastmile_qr_scan", "ios": "https://dc.lft.to/lastmile_qr_scan"}, "lon": -76.99964183333333, "name": "48a1cdca7e302f9bb1b029272542e40b", "lat": 38.874162166666665, "is_reserved": 0, "fusion_lat": 0.0, "bike_id": "48a1cdca7e302f9bb1b029272542e40b", "type": "electric_scooter", "is_disabled": 0, "fusion_lon": 0.0}, {"rental_uris": {"android": "https://dc.lft.to/lastmile_qr_scan", "ios": "https://dc.lft.to/lastmile_qr_scan"}, "lon": -77.03231266666667, "name": "a2496c2edac150596a6b6c2b874cf053", "lat": 38.92269966666667, "is_reserved": 0, "fusion_lat": 0.0, "bike_id": "a2496c2edac150596a6b6c2b874cf053", "type": "electric_scooter", "is_disabled": 0, "fusion_lon": 0.0}, {"rental_uris": {"android": "https://dc.lft.to/lastmile_qr_scan", "ios": "https://dc.lft.to/lastmile_qr_scan"}, "lon": -77.007645, "name": "591221ba0ad2bc05dea18f40e896cc51", "lat": 38.90736866666667, "is_reserved": 0, "fusion_lat": 0.0, "bike_id": "591221ba0ad2bc05dea18f40e896cc51", "type": "electric_scooter", "is_disabled": 0, "fusion_lon": 0.0}, {"rental_uris": {"android": "https://dc.lft.to/lastmile_qr_scan", "ios": "https://dc.lft.to/lastmile_qr_scan"}, "lon": -77.00131, "name": "ed66cd32360eba39548c49deb912a405", "lat": 38.87881316666667, "is_reserved": 0, "fusion_lat": 0.0, "bike_id": "ed66cd32360eba39548c49deb912a405", "type": "electric_scooter", "is_disabled": 0, "fusion_lon": 0.0}, {"rental_uris": {"android": "https://dc.lft.to/lastmile_qr_scan", "ios": "https://dc.lft.to/lastmile_qr_scan"}, "lon": -77.0451655, "name": "0c42e0245d3d67d051bc0b330185a5fb", "lat": 38.90777383333333, "is_reserved": 0, "fusion_lat": 0.0, "bike_id": "0c42e0245d3d67d051bc0b330185a5fb", "type": "electric_scooter", "is_disabled": 0, "fusion_lon": 0.0}, {"rental_uris": {"android": "https://dc.lft.to/lastmile_qr_scan", "ios": "https://dc.lft.to/lastmile_qr_scan"}, "lon": -76.93341516666666, "name": "028adbb6425a6105d7653b79d36ee8c8", "lat": 38.9086715, "is_reserved": 0, "fusion_lat": 0.0, "bike_id": "028adbb6425a6105d7653b79d36ee8c8", "type": "electric_scooter", "is_disabled": 0, "fusion_lon": 0.0}, {"rental_uris": {"android": "https://dc.lft.to/lastmile_qr_scan", "ios": "https://dc.lft.to/lastmile_qr_scan"}, "lon": -77.0858975, "name": "3f7bd5347afe07636891c48112e7c7fe", "lat": 38.90866583333333, "is_reserved": 0, "fusion_lat": 0.0, "bike_id": "3f7bd5347afe07636891c48112e7c7fe", "type": "electric_scooter", "is_disabled": 0, "fusion_lon": 0.0}, {"rental_uris": {"android": "https://dc.lft.to/lastmile_qr_scan", "ios": "https://dc.lft.to/lastmile_qr_scan"}, "lon": -77.07157366666667, "name": "8d4d6c28dd0791fbeea1dc9b32e490df", "lat": 38.90688316666667, "is_reserved": 0, "fusion_lat": 0.0, "bike_id": "8d4d6c28dd0791fbeea1dc9b32e490df", "type": "electric_scooter", "is_disabled": 0, "fusion_lon": 0.0}, {"rental_uris": {"android": "https://dc.lft.to/lastmile_qr_scan", "ios": "https://dc.lft.to/lastmile_qr_scan"}, "lon": -77.02385716666667, "name": "e034d417231bf25b5659db78224b9c7f", "lat": 38.8922675, "is_reserved": 0, "fusion_lat": 0.0, "bike_id": "e034d417231bf25b5659db78224b9c7f", "type": "electric_scooter", "is_disabled": 0, "fusion_lon": 0.0}, {"rental_uris": {"android": "https://dc.lft.to/lastmile_qr_scan", "ios": "https://dc.lft.to/lastmile_qr_scan"}, "lon": -77.02090483333333, "name": "9bfbb6c1e8d8783c7e8d9575b88eb6a6", "lat": 38.910036, "is_reserved": 0, "fusion_lat": 0.0, "bike_id": "9bfbb6c1e8d8783c7e8d9575b88eb6a6", "type": "electric_scooter", "is_disabled": 0, "fusion_lon": 0.0}, {"rental_uris": {"android": "https://dc.lft.to/lastmile_qr_scan", "ios": "https://dc.lft.to/lastmile_qr_scan"}, "lon": -77.03197216666666, "name": "58dc97fa5b5e78222cf10ac388d124fe", "lat": 38.93073116666667, "is_reserved": 0, "fusion_lat": 0.0, "bike_id": "58dc97fa5b5e78222cf10ac388d124fe", "type": "electric_scooter", "is_disabled": 0, "fusion_lon": 0.0}, {"rental_uris": {"android": "https://dc.lft.to/lastmile_qr_scan", "ios": "https://dc.lft.to/lastmile_qr_scan"}, "lon": -77.053915, "name": "e032c98a8de8843cb59bcca947d9cdba", "lat": 38.90129566666667, "is_reserved": 0, "fusion_lat": 0.0, "bike_id": "e032c98a8de8843cb59bcca947d9cdba", "type": "electric_scooter", "is_disabled": 0, "fusion_lon": 0.0}, {"rental_uris": {"android": "https://dc.lft.to/lastmile_qr_scan", "ios": "https://dc.lft.to/lastmile_qr_scan"}, "lon": -76.99901383333334, "name": "1c7780e6282e11cfc6c8e23d3cb0a5b1", "lat": 38.9427175, "is_reserved": 0, "fusion_lat": 0.0, "bike_id": "1c7780e6282e11cfc6c8e23d3cb0a5b1", "type": "electric_bike", "is_disabled": 0, "fusion_lon": 0.0}, {"rental_uris": {"android": "https://dc.lft.to/lastmile_qr_scan", "ios": "https://dc.lft.to/lastmile_qr_scan"}, "lon": -77.047034, "name": "065c85f12f108bcbcee6557a91866cbc", "lat": 38.9215165, "is_reserved": 0, "fusion_lat": 0.0, "bike_id": "065c85f12f108bcbcee6557a91866cbc", "type": "electric_scooter", "is_disabled": 0, "fusion_lon": 0.0}, {"rental_uris": {"android": "https://dc.lft.to/lastmile_qr_scan", "ios": "https://dc.lft.to/lastmile_qr_scan"}, "lon": -77.03867583333333, "name": "e1e79f024931845cdfb32d2856104c1d", "lat": 38.91258, "is_reserved": 0, "fusion_lat": 0.0, "bike_id": "e1e79f024931845cdfb32d2856104c1d", "type": "electric_scooter", "is_disabled": 0, "fusion_lon": 0.0}, {"rental_uris": {"android": "https://dc.lft.to/lastmile_qr_scan", "ios": "https://dc.lft.to/lastmile_qr_scan"}, "lon": -77.02593866666666, "name": "e5ffb7768acf9e2cfa312a52e0aab1bb", "lat": 38.9023815, "is_reserved": 0, "fusion_lat": 0.0, "bike_id": "e5ffb7768acf9e2cfa312a52e0aab1bb", "type": "electric_scooter", "is_disabled": 0, "fusion_lon": 0.0}, {"rental_uris": {"android": "https://dc.lft.to/lastmile_qr_scan", "ios": "https://dc.lft.to/lastmile_qr_scan"}, "lon": -77.02584983333334, "name": "f5f228603519fffd54d466fa00e3df6d", "lat": 38.887345333333336, "is_reserved": 0, "fusion_lat": 0.0, "bike_id": "f5f228603519fffd54d466fa00e3df6d", "type": "electric_scooter", "is_disabled": 0, "fusion_lon": 0.0}, {"rental_uris": {"android": "https://dc.lft.to/lastmile_qr_scan", "ios": "https://dc.lft.to/lastmile_qr_scan"}, "lon": -77.003028, "name": "5b873ae049de1e0c0462d2c2cf557fc5", "lat": 38.92034116666667, "is_reserved": 0, "fusion_lat": 0.0, "bike_id": "5b873ae049de1e0c0462d2c2cf557fc5", "type": "electric_scooter", "is_disabled": 0, "fusion_lon": 0.0}, {"rental_uris": {"android": "https://dc.lft.to/lastmile_qr_scan", "ios": "https://dc.lft.to/lastmile_qr_scan"}, "lon": -77.14058266666666, "name": "115de5ccc4bdef094834084a46f974d4", "lat": 38.98769766666667, "is_reserved": 0, "fusion_lat": 0.0, "bike_id": "115de5ccc4bdef094834084a46f974d4", "type": "electric_bike", "is_disabled": 0, "fusion_lon": 0.0}, {"rental_uris": {"android": "https://dc.lft.to/lastmile_qr_scan", "ios": "https://dc.lft.to/lastmile_qr_scan"}, "lon": -77.0252485, "name": "a74327f56f381f0b617763d7eb5bb5c3", "lat": 38.91944266666667, "is_reserved": 0, "fusion_lat": 0.0, "bike_id": "a74327f56f381f0b617763d7eb5bb5c3", "type": "electric_scooter", "is_disabled": 0, "fusion_lon": 0.0}, {"rental_uris": {"android": "https://dc.lft.to/lastmile_qr_scan", "ios": "https://dc.lft.to/lastmile_qr_scan"}, "lon": -76.98701916666667, "name": "b09388343b7d780383925877dd264bfd", "lat": 38.867249666666666, "is_reserved": 0, "fusion_lat": 0.0, "bike_id": "b09388343b7d780383925877dd264bfd", "type": "electric_scooter", "is_disabled": 0, "fusion_lon": 0.0}, {"rental_uris": {"android": "https://dc.lft.to/lastmile_qr_scan", "ios": "https://dc.lft.to/lastmile_qr_scan"}, "lon": -77.00713016666667, "name": "70ebbfb82bf32db450e283fbb5339f0d", "lat": 38.88489666666667, "is_reserved": 0, "fusion_lat": 0.0, "bike_id": "70ebbfb82bf32db450e283fbb5339f0d", "type": "electric_scooter", "is_disabled": 0, "fusion_lon": 0.0}, {"rental_uris": {"android": "https://dc.lft.to/lastmile_qr_scan", "ios": "https://dc.lft.to/lastmile_qr_scan"}, "lon": -77.05132816666666, "name": "2cbaa2fe393de7a7b1c2826514206914", "lat": 38.9236315, "is_reserved": 0, "fusion_lat": 0.0, "bike_id": "2cbaa2fe393de7a7b1c2826514206914", "type": "electric_scooter", "is_disabled": 0, "fusion_lon": 0.0}, {"rental_uris": {"android": "https://dc.lft.to/lastmile_qr_scan", "ios": "https://dc.lft.to/lastmile_qr_scan"}, "lon": -77.03850233333333, "name": "55c8d080cce766b03ca9ec0188452762", "lat": 38.908727999999996, "is_reserved": 0, "fusion_lat": 0.0, "bike_id": "55c8d080cce766b03ca9ec0188452762", "type": "electric_scooter", "is_disabled": 0, "fusion_lon": 0.0}, {"rental_uris": {"android": "https://dc.lft.to/lastmile_qr_scan", "ios": "https://dc.lft.to/lastmile_qr_scan"}, "lon": -77.0451915, "name": "99008109c790c7329aa5781772cdbf3e", "lat": 38.89223066666667, "is_reserved": 0, "fusion_lat": 0.0, "bike_id": "99008109c790c7329aa5781772cdbf3e", "type": "electric_scooter", "is_disabled": 0, "fusion_lon": 0.0}, {"rental_uris": {"android": "https://dc.lft.to/lastmile_qr_scan", "ios": "https://dc.lft.to/lastmile_qr_scan"}, "lon": -76.98207483333333, "name": "03ad45e7eb8929d2dd7f71d7b989209a", "lat": 38.86603916666667, "is_reserved": 0, "fusion_lat": 0.0, "bike_id": "03ad45e7eb8929d2dd7f71d7b989209a", "type": "electric_scooter", "is_disabled": 0, "fusion_lon": 0.0}, {"rental_uris": {"android": "https://dc.lft.to/lastmile_qr_scan", "ios": "https://dc.lft.to/lastmile_qr_scan"}, "lon": -77.02080216666667, "name": "349482b1a642bb471ef0721bf2af394e", "lat": 38.92714333333333, "is_reserved": 0, "fusion_lat": 0.0, "bike_id": "349482b1a642bb471ef0721bf2af394e", "type": "electric_scooter", "is_disabled": 0, "fusion_lon": 0.0}, {"rental_uris": {"android": "https://dc.lft.to/lastmile_qr_scan", "ios": "https://dc.lft.to/lastmile_qr_scan"}, "lon": -77.04019783333334, "name": "0c38925e35296a724adb5ad969ad83e6", "lat": 38.923870666666666, "is_reserved": 0, "fusion_lat": 0.0, "bike_id": "0c38925e35296a724adb5ad969ad83e6", "type": "electric_bike", "is_disabled": 0, "fusion_lon": 0.0}, {"rental_uris": {"android": "https://dc.lft.to/lastmile_qr_scan", "ios": "https://dc.lft.to/lastmile_qr_scan"}, "lon": -77.03333633333334, "name": "5375d136ee81ea9ea6d72d86aada9e1e", "lat": 38.9156515, "is_reserved": 0, "fusion_lat": 0.0, "bike_id": "5375d136ee81ea9ea6d72d86aada9e1e", "type": "electric_scooter", "is_disabled": 0, "fusion_lon": 0.0}, {"rental_uris": {"android": "https://dc.lft.to/lastmile_qr_scan", "ios": "https://dc.lft.to/lastmile_qr_scan"}, "lon": -77.03351483333333, "name": "acb6efb627de8b490871e096aeda2968", "lat": 38.89830466666667, "is_reserved": 0, "fusion_lat": 0.0, "bike_id": "acb6efb627de8b490871e096aeda2968", "type": "electric_scooter", "is_disabled": 0, "fusion_lon": 0.0}, {"rental_uris": {"android": "https://dc.lft.to/lastmile_qr_scan", "ios": "https://dc.lft.to/lastmile_qr_scan"}, "lon": -77.0435185, "name": "c9c9eca827d800bee9619265f9cafa16", "lat": 38.90729116666667, "is_reserved": 0, "fusion_lat": 0.0, "bike_id": "c9c9eca827d800bee9619265f9cafa16", "type": "electric_scooter", "is_disabled": 0, "fusion_lon": 0.0}, {"rental_uris": {"android": "https://dc.lft.to/lastmile_qr_scan", "ios": "https://dc.lft.to/lastmile_qr_scan"}, "lon": -77.04337383333333, "name": "ec807629e8dbfb11c7e52673a2d96970", "lat": 38.897308333333335, "is_reserved": 0, "fusion_lat": 0.0, "bike_id": "ec807629e8dbfb11c7e52673a2d96970", "type": "electric_scooter", "is_disabled": 0, "fusion_lon": 0.0}, {"rental_uris": {"android": "https://dc.lft.to/lastmile_qr_scan", "ios": "https://dc.lft.to/lastmile_qr_scan"}, "lon": -77.01354416666666, "name": "c5e960789f2b4b2c05ab64877d8072cb", "lat": 38.91628133333333, "is_reserved": 0, "fusion_lat": 0.0, "bike_id": "c5e960789f2b4b2c05ab64877d8072cb", "type": "electric_scooter", "is_disabled": 0, "fusion_lon": 0.0}, {"rental_uris": {"android": "https://dc.lft.to/lastmile_qr_scan", "ios": "https://dc.lft.to/lastmile_qr_scan"}, "lon": -77.07389316666666, "name": "0fc1d8764663f821653836a6aa030269", "lat": 38.96179033333333, "is_reserved": 0, "fusion_lat": 0.0, "bike_id": "0fc1d8764663f821653836a6aa030269", "type": "electric_bike", "is_disabled": 0, "fusion_lon": 0.0}, {"rental_uris": {"android": "https://dc.lft.to/lastmile_qr_scan", "ios": "https://dc.lft.to/lastmile_qr_scan"}, "lon": -77.03121266666666, "name": "8fc2b505f77887b012606c17c515ba49", "lat": 38.916986333333334, "is_reserved": 0, "fusion_lat": 0.0, "bike_id": "8fc2b505f77887b012606c17c515ba49", "type": "electric_scooter", "is_disabled": 0, "fusion_lon": 0.0}, {"rental_uris": {"android": "https://dc.lft.to/lastmile_qr_scan", "ios": "https://dc.lft.to/lastmile_qr_scan"}, "lon": -77.04349883333333, "name": "998c0f59d1db883780caba9519974980", "lat": 38.90425066666667, "is_reserved": 0, "fusion_lat": 0.0, "bike_id": "998c0f59d1db883780caba9519974980", "type": "electric_scooter", "is_disabled": 0, "fusion_lon": 0.0}, {"rental_uris": {"android": "https://dc.lft.to/lastmile_qr_scan", "ios": "https://dc.lft.to/lastmile_qr_scan"}, "lon": -77.01892766666667, "name": "1060e610d31bd983cf3293a0c3f01c8a", "lat": 38.90497216666667, "is_reserved": 0, "fusion_lat": 0.0, "bike_id": "1060e610d31bd983cf3293a0c3f01c8a", "type": "electric_bike", "is_disabled": 0, "fusion_lon": 0.0}, {"rental_uris": {"android": "https://dc.lft.to/lastmile_qr_scan", "ios": "https://dc.lft.to/lastmile_qr_scan"}, "lon": -77.01765083333333, "name": "f294104a0e15a692a99286c753af3412", "lat": 38.87897366666667, "is_reserved": 0, "fusion_lat": 0.0, "bike_id": "f294104a0e15a692a99286c753af3412", "type": "electric_scooter", "is_disabled": 0, "fusion_lon": 0.0}, {"rental_uris": {"android": "https://dc.lft.to/lastmile_qr_scan", "ios": "https://dc.lft.to/lastmile_qr_scan"}, "lon": -77.03612583333333, "name": "fc47fae2859c9b4cc2aeee770ff6f91b", "lat": 38.93155333333333, "is_reserved": 0, "fusion_lat": 0.0, "bike_id": "fc47fae2859c9b4cc2aeee770ff6f91b", "type": "electric_scooter", "is_disabled": 0, "fusion_lon": 0.0}, {"rental_uris": {"android": "https://dc.lft.to/lastmile_qr_scan", "ios": "https://dc.lft.to/lastmile_qr_scan"}, "lon": -77.01912116666666, "name": "eff9b8632a47432e1ccf1d3e2397c246", "lat": 38.899699, "is_reserved": 0, "fusion_lat": 0.0, "bike_id": "eff9b8632a47432e1ccf1d3e2397c246", "type": "electric_scooter", "is_disabled": 0, "fusion_lon": 0.0}, {"rental_uris": {"android": "https://dc.lft.to/lastmile_qr_scan", "ios": "https://dc.lft.to/lastmile_qr_scan"}, "lon": -76.98716483333334, "name": "ea35404db9c2c30b17310669a0bb0138", "lat": 38.866266833333334, "is_reserved": 0, "fusion_lat": 0.0, "bike_id": "ea35404db9c2c30b17310669a0bb0138", "type": "electric_scooter", "is_disabled": 0, "fusion_lon": 0.0}, {"rental_uris": {"android": "https://dc.lft.to/lastmile_qr_scan", "ios": "https://dc.lft.to/lastmile_qr_scan"}, "lon": -77.0295655, "name": "35b974ea52c7c8bc5121a3be3024b79c", "lat": 38.904983, "is_reserved": 0, "fusion_lat": 0.0, "bike_id": "35b974ea52c7c8bc5121a3be3024b79c", "type": "electric_scooter", "is_disabled": 0, "fusion_lon": 0.0}, {"rental_uris": {"android": "https://dc.lft.to/lastmile_qr_scan", "ios": "https://dc.lft.to/lastmile_qr_scan"}, "lon": -77.00144033333333, "name": "30afbf1e9df5265ddec0dc765a626be6", "lat": 38.907400333333335, "is_reserved": 0, "fusion_lat": 0.0, "bike_id": "30afbf1e9df5265ddec0dc765a626be6", "type": "electric_scooter", "is_disabled": 0, "fusion_lon": 0.0}, {"rental_uris": {"android": "https://dc.lft.to/lastmile_qr_scan", "ios": "https://dc.lft.to/lastmile_qr_scan"}, "lon": -77.03861833333333, "name": "3043dc8039d1a9012952df859e149c16", "lat": 38.90782633333333, "is_reserved": 0, "fusion_lat": 0.0, "bike_id": "3043dc8039d1a9012952df859e149c16", "type": "electric_scooter", "is_disabled": 0, "fusion_lon": 0.0}, {"rental_uris": {"android": "https://dc.lft.to/lastmile_qr_scan", "ios": "https://dc.lft.to/lastmile_qr_scan"}, "lon": -77.00573833333333, "name": "229860dda9e0b58e234649f645c17ba9", "lat": 38.91820333333333, "is_reserved": 0, "fusion_lat": 0.0, "bike_id": "229860dda9e0b58e234649f645c17ba9", "type": "electric_scooter", "is_disabled": 0, "fusion_lon": 0.0}, {"rental_uris": {"android": "https://dc.lft.to/lastmile_qr_scan", "ios": "https://dc.lft.to/lastmile_qr_scan"}, "lon": -76.99580916666666, "name": "485014abe0b00d86c7737063ae2efd48", "lat": 38.851789833333335, "is_reserved": 0, "fusion_lat": 0.0, "bike_id": "485014abe0b00d86c7737063ae2efd48", "type": "electric_scooter", "is_disabled": 0, "fusion_lon": 0.0}, {"rental_uris": {"android": "https://dc.lft.to/lastmile_qr_scan", "ios": "https://dc.lft.to/lastmile_qr_scan"}, "lon": -77.021372, "name": "37f676216958e29d0bbee786e31a6750", "lat": 38.924907166666664, "is_reserved": 0, "fusion_lat": 0.0, "bike_id": "37f676216958e29d0bbee786e31a6750", "type": "electric_scooter", "is_disabled": 0, "fusion_lon": 0.0}, {"rental_uris": {"android": "https://dc.lft.to/lastmile_qr_scan", "ios": "https://dc.lft.to/lastmile_qr_scan"}, "lon": -76.98160683333333, "name": "7559d41291045ad86f7a599816a25e8f", "lat": 38.899381, "is_reserved": 0, "fusion_lat": 0.0, "bike_id": "7559d41291045ad86f7a599816a25e8f", "type": "electric_scooter", "is_disabled": 0, "fusion_lon": 0.0}, {"rental_uris": {"android": "https://dc.lft.to/lastmile_qr_scan", "ios": "https://dc.lft.to/lastmile_qr_scan"}, "lon": -77.036406, "name": "c1623520f8632632b3c4c38f5f5b15a8", "lat": 38.92302, "is_reserved": 0, "fusion_lat": 0.0, "bike_id": "c1623520f8632632b3c4c38f5f5b15a8", "type": "electric_scooter", "is_disabled": 0, "fusion_lon": 0.0}, {"rental_uris": {"android": "https://dc.lft.to/lastmile_qr_scan", "ios": "https://dc.lft.to/lastmile_qr_scan"}, "lon": -76.92659733333333, "name": "f2cee34003934227337c1691bc50c599", "lat": 38.90171316666667, "is_reserved": 0, "fusion_lat": 0.0, "bike_id": "f2cee34003934227337c1691bc50c599", "type": "electric_scooter", "is_disabled": 0, "fusion_lon": 0.0}, {"rental_uris": {"android": "https://dc.lft.to/lastmile_qr_scan", "ios": "https://dc.lft.to/lastmile_qr_scan"}, "lon": -77.02715183333333, "name": "101e29992419a457c7a80b137b28e68a", "lat": 38.90784, "is_reserved": 0, "fusion_lat": 0.0, "bike_id": "101e29992419a457c7a80b137b28e68a", "type": "electric_scooter", "is_disabled": 0, "fusion_lon": 0.0}, {"rental_uris": {"android": "https://dc.lft.to/lastmile_qr_scan", "ios": "https://dc.lft.to/lastmile_qr_scan"}, "lon": -77.022101, "name": "d33964ff75a9904f48879b445999e7db", "lat": 38.903073166666665, "is_reserved": 0, "fusion_lat": 0.0, "bike_id": "d33964ff75a9904f48879b445999e7db", "type": "electric_scooter", "is_disabled": 0, "fusion_lon": 0.0}, {"rental_uris": {"android": "https://dc.lft.to/lastmile_qr_scan", "ios": "https://dc.lft.to/lastmile_qr_scan"}, "lon": -76.95247516666667, "name": "b4159c4a1437cec27bc8fcef78705e92", "lat": 38.890452833333335, "is_reserved": 0, "fusion_lat": 0.0, "bike_id": "b4159c4a1437cec27bc8fcef78705e92", "type": "electric_scooter", "is_disabled": 0, "fusion_lon": 0.0}, {"rental_uris": {"android": "https://dc.lft.to/lastmile_qr_scan", "ios": "https://dc.lft.to/lastmile_qr_scan"}, "lon": -77.03522633333333, "name": "7c21a4d0c7b3adb3b5267b0b060d26eb", "lat": 38.9224275, "is_reserved": 0, "fusion_lat": 0.0, "bike_id": "7c21a4d0c7b3adb3b5267b0b060d26eb", "type": "electric_scooter", "is_disabled": 0, "fusion_lon": 0.0}, {"rental_uris": {"android": "https://dc.lft.to/lastmile_qr_scan", "ios": "https://dc.lft.to/lastmile_qr_scan"}, "lon": -77.023745, "name": "020523b83157223f84b0a47e990686f4", "lat": 38.919685666666666, "is_reserved": 0, "fusion_lat": 0.0, "bike_id": "020523b83157223f84b0a47e990686f4", "type": "electric_scooter", "is_disabled": 0, "fusion_lon": 0.0}, {"rental_uris": {"android": "https://dc.lft.to/lastmile_qr_scan", "ios": "https://dc.lft.to/lastmile_qr_scan"}, "lon": -77.013572, "name": "cc91e4abfe8810dc2a04a855beb5e52e", "lat": 38.897812, "is_reserved": 0, "fusion_lat": 0.0, "bike_id": "cc91e4abfe8810dc2a04a855beb5e52e", "type": "electric_scooter", "is_disabled": 0, "fusion_lon": 0.0}, {"rental_uris": {"android": "https://dc.lft.to/lastmile_qr_scan", "ios": "https://dc.lft.to/lastmile_qr_scan"}, "lon": -77.031764, "name": "94dba690bee3ff8e4372ca3357100ca7", "lat": 38.907264, "is_reserved": 0, "fusion_lat": 0.0, "bike_id": "94dba690bee3ff8e4372ca3357100ca7", "type": "electric_scooter", "is_disabled": 0, "fusion_lon": 0.0}, {"rental_uris": {"android": "https://dc.lft.to/lastmile_qr_scan", "ios": "https://dc.lft.to/lastmile_qr_scan"}, "lon": -77.0364085, "name": "f0a3b5576589d03cd23fa2c06f32c819", "lat": 38.914606, "is_reserved": 0, "fusion_lat": 0.0, "bike_id": "f0a3b5576589d03cd23fa2c06f32c819", "type": "electric_scooter", "is_disabled": 0, "fusion_lon": 0.0}, {"rental_uris": {"android": "https://dc.lft.to/lastmile_qr_scan", "ios": "https://dc.lft.to/lastmile_qr_scan"}, "lon": -77.027358, "name": "d1cc6a1d822be988b9af18f4e6acd034", "lat": 38.928723, "is_reserved": 0, "fusion_lat": 0.0, "bike_id": "d1cc6a1d822be988b9af18f4e6acd034", "type": "electric_scooter", "is_disabled": 0, "fusion_lon": 0.0}, {"rental_uris": {"android": "https://dc.lft.to/lastmile_qr_scan", "ios": "https://dc.lft.to/lastmile_qr_scan"}, "lon": -77.02641266666667, "name": "664010ccdb742dea0d7a5b1b3e46975b", "lat": 38.904243, "is_reserved": 0, "fusion_lat": 0.0, "bike_id": "664010ccdb742dea0d7a5b1b3e46975b", "type": "electric_scooter", "is_disabled": 0, "fusion_lon": 0.0}, {"rental_uris": {"android": "https://dc.lft.to/lastmile_qr_scan", "ios": "https://dc.lft.to/lastmile_qr_scan"}, "lon": -77.03405933333333, "name": "90cfb358d5f80ba2927e28ad329ec43e", "lat": 38.92440166666667, "is_reserved": 0, "fusion_lat": 0.0, "bike_id": "90cfb358d5f80ba2927e28ad329ec43e", "type": "electric_scooter", "is_disabled": 0, "fusion_lon": 0.0}, {"rental_uris": {"android": "https://dc.lft.to/lastmile_qr_scan", "ios": "https://dc.lft.to/lastmile_qr_scan"}, "lon": -77.0252205, "name": "f703f9bafb2baf962ad2f1bfa4244c71", "lat": 38.9375075, "is_reserved": 0, "fusion_lat": 0.0, "bike_id": "f703f9bafb2baf962ad2f1bfa4244c71", "type": "electric_scooter", "is_disabled": 0, "fusion_lon": 0.0}, {"rental_uris": {"android": "https://dc.lft.to/lastmile_qr_scan", "ios": "https://dc.lft.to/lastmile_qr_scan"}, "lon": -76.98892933333333, "name": "5b0b62f0ccc6a1cfa93ceeb82d3bb3e2", "lat": 38.866582666666666, "is_reserved": 0, "fusion_lat": 0.0, "bike_id": "5b0b62f0ccc6a1cfa93ceeb82d3bb3e2", "type": "electric_scooter", "is_disabled": 0, "fusion_lon": 0.0}, {"rental_uris": {"android": "https://dc.lft.to/lastmile_qr_scan", "ios": "https://dc.lft.to/lastmile_qr_scan"}, "lon": -77.01028883333333, "name": "9a89d59c09dc4bc7af5d5e69d87a19cc", "lat": 38.920243666666664, "is_reserved": 0, "fusion_lat": 0.0, "bike_id": "9a89d59c09dc4bc7af5d5e69d87a19cc", "type": "electric_scooter", "is_disabled": 0, "fusion_lon": 0.0}, {"rental_uris": {"android": "https://dc.lft.to/lastmile_qr_scan", "ios": "https://dc.lft.to/lastmile_qr_scan"}, "lon": -77.02689266666667, "name": "892e804bbeaf2037d27f36dbe3b54684", "lat": 38.909498166666665, "is_reserved": 0, "fusion_lat": 0.0, "bike_id": "892e804bbeaf2037d27f36dbe3b54684", "type": "electric_scooter", "is_disabled": 0, "fusion_lon": 0.0}, {"rental_uris": {"android": "https://dc.lft.to/lastmile_qr_scan", "ios": "https://dc.lft.to/lastmile_qr_scan"}, "lon": -76.98978733333334, "name": "aabc3933e21ff97f94a8796921a0ce88", "lat": 38.88230216666667, "is_reserved": 0, "fusion_lat": 0.0, "bike_id": "aabc3933e21ff97f94a8796921a0ce88", "type": "electric_scooter", "is_disabled": 0, "fusion_lon": 0.0}, {"rental_uris": {"android": "https://dc.lft.to/lastmile_qr_scan", "ios": "https://dc.lft.to/lastmile_qr_scan"}, "lon": -77.014618, "name": "d1cf0ec73dc6725088ddad663db49fc5", "lat": 38.879386833333335, "is_reserved": 0, "fusion_lat": 0.0, "bike_id": "d1cf0ec73dc6725088ddad663db49fc5", "type": "electric_scooter", "is_disabled": 0, "fusion_lon": 0.0}, {"rental_uris": {"android": "https://dc.lft.to/lastmile_qr_scan", "ios": "https://dc.lft.to/lastmile_qr_scan"}, "lon": -77.00933, "name": "f5a4ab5ba711cf55a11578e97b9065cd", "lat": 38.8762065, "is_reserved": 0, "fusion_lat": 0.0, "bike_id": "f5a4ab5ba711cf55a11578e97b9065cd", "type": "electric_scooter", "is_disabled": 0, "fusion_lon": 0.0}, {"rental_uris": {"android": "https://dc.lft.to/lastmile_qr_scan", "ios": "https://dc.lft.to/lastmile_qr_scan"}, "lon": -77.0228895, "name": "bbb73b56efa06f7af1559427c0430244", "lat": 38.91706833333333, "is_reserved": 0, "fusion_lat": 0.0, "bike_id": "bbb73b56efa06f7af1559427c0430244", "type": "electric_scooter", "is_disabled": 0, "fusion_lon": 0.0}, {"rental_uris": {"android": "https://dc.lft.to/lastmile_qr_scan", "ios": "https://dc.lft.to/lastmile_qr_scan"}, "lon": -77.0228445, "name": "424585c7913761d50c4bd38b9041715b", "lat": 38.9165545, "is_reserved": 0, "fusion_lat": 0.0, "bike_id": "424585c7913761d50c4bd38b9041715b", "type": "electric_scooter", "is_disabled": 0, "fusion_lon": 0.0}, {"rental_uris": {"android": "https://dc.lft.to/lastmile_qr_scan", "ios": "https://dc.lft.to/lastmile_qr_scan"}, "lon": -77.02269266666667, "name": "e1cd1a01d1ed2149adb18c01514aaeea", "lat": 38.89522616666667, "is_reserved": 0, "fusion_lat": 0.0, "bike_id": "e1cd1a01d1ed2149adb18c01514aaeea", "type": "electric_scooter", "is_disabled": 0, "fusion_lon": 0.0}, {"rental_uris": {"android": "https://dc.lft.to/lastmile_qr_scan", "ios": "https://dc.lft.to/lastmile_qr_scan"}, "lon": -77.04440516666666, "name": "d66cf811f382c7875a70a1cad0d7d17f", "lat": 38.91257733333333, "is_reserved": 0, "fusion_lat": 0.0, "bike_id": "d66cf811f382c7875a70a1cad0d7d17f", "type": "electric_scooter", "is_disabled": 0, "fusion_lon": 0.0}, {"rental_uris": {"android": "https://dc.lft.to/lastmile_qr_scan", "ios": "https://dc.lft.to/lastmile_qr_scan"}, "lon": -77.051155, "name": "767057a611ef117510fb8dce16013ae3", "lat": 38.813355333333334, "is_reserved": 0, "fusion_lat": 0.0, "bike_id": "767057a611ef117510fb8dce16013ae3", "type": "electric_bike", "is_disabled": 0, "fusion_lon": 0.0}, {"rental_uris": {"android": "https://dc.lft.to/lastmile_qr_scan", "ios": "https://dc.lft.to/lastmile_qr_scan"}, "lon": -77.0385195, "name": "19d9981f09dbef1974c843a80a26373d", "lat": 38.9076995, "is_reserved": 0, "fusion_lat": 0.0, "bike_id": "19d9981f09dbef1974c843a80a26373d", "type": "electric_scooter", "is_disabled": 0, "fusion_lon": 0.0}, {"rental_uris": {"android": "https://dc.lft.to/lastmile_qr_scan", "ios": "https://dc.lft.to/lastmile_qr_scan"}, "lon": -77.02527433333333, "name": "8614dfb165140682bc7e37919e892108", "lat": 38.920779333333336, "is_reserved": 0, "fusion_lat": 0.0, "bike_id": "8614dfb165140682bc7e37919e892108", "type": "electric_scooter", "is_disabled": 0, "fusion_lon": 0.0}, {"rental_uris": {"android": "https://dc.lft.to/lastmile_qr_scan", "ios": "https://dc.lft.to/lastmile_qr_scan"}, "lon": -77.01890483333334, "name": "7e4f87d55b125f894fb8af2afab59ccd", "lat": 38.8989395, "is_reserved": 0, "fusion_lat": 0.0, "bike_id": "7e4f87d55b125f894fb8af2afab59ccd", "type": "electric_scooter", "is_disabled": 0, "fusion_lon": 0.0}, {"rental_uris": {"android": "https://dc.lft.to/lastmile_qr_scan", "ios": "https://dc.lft.to/lastmile_qr_scan"}, "lon": -76.976286, "name": "c31e56953a5c8fef4c9d7219504cb6c6", "lat": 38.90156233333333, "is_reserved": 0, "fusion_lat": 0.0, "bike_id": "c31e56953a5c8fef4c9d7219504cb6c6", "type": "electric_scooter", "is_disabled": 0, "fusion_lon": 0.0}, {"rental_uris": {"android": "https://dc.lft.to/lastmile_qr_scan", "ios": "https://dc.lft.to/lastmile_qr_scan"}, "lon": -77.02279033333333, "name": "e1fc6bbb9f771d0362aa24821aa666b6", "lat": 38.9165275, "is_reserved": 0, "fusion_lat": 0.0, "bike_id": "e1fc6bbb9f771d0362aa24821aa666b6", "type": "electric_scooter", "is_disabled": 0, "fusion_lon": 0.0}, {"rental_uris": {"android": "https://dc.lft.to/lastmile_qr_scan", "ios": "https://dc.lft.to/lastmile_qr_scan"}, "lon": -77.012211, "name": "43c86036ab73294109b1185a4269fff5", "lat": 38.913463666666665, "is_reserved": 0, "fusion_lat": 0.0, "bike_id": "43c86036ab73294109b1185a4269fff5", "type": "electric_scooter", "is_disabled": 0, "fusion_lon": 0.0}, {"rental_uris": {"android": "https://dc.lft.to/lastmile_qr_scan", "ios": "https://dc.lft.to/lastmile_qr_scan"}, "lon": -77.00289633333334, "name": "7325d3efb035d4ddde0a3a7ec477424c", "lat": 38.87721833333333, "is_reserved": 0, "fusion_lat": 0.0, "bike_id": "7325d3efb035d4ddde0a3a7ec477424c", "type": "electric_scooter", "is_disabled": 0, "fusion_lon": 0.0}, {"rental_uris": {"android": "https://dc.lft.to/lastmile_qr_scan", "ios": "https://dc.lft.to/lastmile_qr_scan"}, "lon": -77.04478983333334, "name": "b709f0c2233a1584d7b3d8b6dfc17a38", "lat": 38.918831, "is_reserved": 0, "fusion_lat": 0.0, "bike_id": "b709f0c2233a1584d7b3d8b6dfc17a38", "type": "electric_scooter", "is_disabled": 0, "fusion_lon": 0.0}, {"rental_uris": {"android": "https://dc.lft.to/lastmile_qr_scan", "ios": "https://dc.lft.to/lastmile_qr_scan"}, "lon": -76.96260433333333, "name": "be01ce50ba4a882c157eb80bf829cb5f", "lat": 38.882477, "is_reserved": 0, "fusion_lat": 0.0, "bike_id": "be01ce50ba4a882c157eb80bf829cb5f", "type": "electric_bike", "is_disabled": 0, "fusion_lon": 0.0}, {"rental_uris": {"android": "https://dc.lft.to/lastmile_qr_scan", "ios": "https://dc.lft.to/lastmile_qr_scan"}, "lon": -77.04695766666667, "name": "9e5f71fcdd2b81fcc9ce432d297b767c", "lat": 38.90298583333333, "is_reserved": 0, "fusion_lat": 0.0, "bike_id": "9e5f71fcdd2b81fcc9ce432d297b767c", "type": "electric_scooter", "is_disabled": 0, "fusion_lon": 0.0}, {"rental_uris": {"android": "https://dc.lft.to/lastmile_qr_scan", "ios": "https://dc.lft.to/lastmile_qr_scan"}, "lon": -77.04350383333333, "name": "2c872e9b2185adba29a2662d9970b6d6", "lat": 38.90379, "is_reserved": 0, "fusion_lat": 0.0, "bike_id": "2c872e9b2185adba29a2662d9970b6d6", "type": "electric_scooter", "is_disabled": 0, "fusion_lon": 0.0}, {"rental_uris": {"android": "https://dc.lft.to/lastmile_qr_scan", "ios": "https://dc.lft.to/lastmile_qr_scan"}, "lon": -77.02835183333333, "name": "de92097281e7f603b4bcfdac11a283b6", "lat": 38.887310166666666, "is_reserved": 0, "fusion_lat": 0.0, "bike_id": "de92097281e7f603b4bcfdac11a283b6", "type": "electric_scooter", "is_disabled": 0, "fusion_lon": 0.0}, {"rental_uris": {"android": "https://dc.lft.to/lastmile_qr_scan", "ios": "https://dc.lft.to/lastmile_qr_scan"}, "lon": -77.02342033333333, "name": "39a6cfee0c303dcee182ca4b47ed2e5e", "lat": 38.91980216666666, "is_reserved": 0, "fusion_lat": 0.0, "bike_id": "39a6cfee0c303dcee182ca4b47ed2e5e", "type": "electric_scooter", "is_disabled": 0, "fusion_lon": 0.0}, {"rental_uris": {"android": "https://dc.lft.to/lastmile_qr_scan", "ios": "https://dc.lft.to/lastmile_qr_scan"}, "lon": -77.02276683333334, "name": "5d498710b928fa4e41476e70ebb670a6", "lat": 38.895139, "is_reserved": 0, "fusion_lat": 0.0, "bike_id": "5d498710b928fa4e41476e70ebb670a6", "type": "electric_scooter", "is_disabled": 0, "fusion_lon": 0.0}, {"rental_uris": {"android": "https://dc.lft.to/lastmile_qr_scan", "ios": "https://dc.lft.to/lastmile_qr_scan"}, "lon": -77.0223785, "name": "830fe4fbff3c04d875312703625f011b", "lat": 38.91117766666667, "is_reserved": 0, "fusion_lat": 0.0, "bike_id": "830fe4fbff3c04d875312703625f011b", "type": "electric_scooter", "is_disabled": 0, "fusion_lon": 0.0}, {"rental_uris": {"android": "https://dc.lft.to/lastmile_qr_scan", "ios": "https://dc.lft.to/lastmile_qr_scan"}, "lon": -77.01365083333333, "name": "1b6792ee47d981d2c6cab91d2d038a9d", "lat": 38.9128745, "is_reserved": 0, "fusion_lat": 0.0, "bike_id": "1b6792ee47d981d2c6cab91d2d038a9d", "type": "electric_scooter", "is_disabled": 0, "fusion_lon": 0.0}, {"rental_uris": {"android": "https://dc.lft.to/lastmile_qr_scan", "ios": "https://dc.lft.to/lastmile_qr_scan"}, "lon": -77.02609116666666, "name": "5a1a3a88ec2400311a491b1d18fb6d66", "lat": 38.944266666666664, "is_reserved": 0, "fusion_lat": 0.0, "bike_id": "5a1a3a88ec2400311a491b1d18fb6d66", "type": "electric_bike", "is_disabled": 0, "fusion_lon": 0.0}, {"rental_uris": {"android": "https://dc.lft.to/lastmile_qr_scan", "ios": "https://dc.lft.to/lastmile_qr_scan"}, "lon": -77.06308566666667, "name": "ededf916b080d4684ef2fe03793b751d", "lat": 38.79854383333333, "is_reserved": 0, "fusion_lat": 0.0, "bike_id": "ededf916b080d4684ef2fe03793b751d", "type": "electric_bike", "is_disabled": 0, "fusion_lon": 0.0}, {"rental_uris": {"android": "https://dc.lft.to/lastmile_qr_scan", "ios": "https://dc.lft.to/lastmile_qr_scan"}, "lon": -76.97723633333334, "name": "6f03facd412599e8affb38bf74cec924", "lat": 38.872445166666665, "is_reserved": 0, "fusion_lat": 0.0, "bike_id": "6f03facd412599e8affb38bf74cec924", "type": "electric_scooter", "is_disabled": 0, "fusion_lon": 0.0}, {"rental_uris": {"android": "https://dc.lft.to/lastmile_qr_scan", "ios": "https://dc.lft.to/lastmile_qr_scan"}, "lon": -77.01768433333334, "name": "021eeda67a1db808ac7822d3377a9d97", "lat": 38.877153666666665, "is_reserved": 0, "fusion_lat": 0.0, "bike_id": "021eeda67a1db808ac7822d3377a9d97", "type": "electric_scooter", "is_disabled": 0, "fusion_lon": 0.0}, {"rental_uris": {"android": "https://dc.lft.to/lastmile_qr_scan", "ios": "https://dc.lft.to/lastmile_qr_scan"}, "lon": -76.987583, "name": "4645415bd7234ebd340c0bc0da88cecd", "lat": 38.857718, "is_reserved": 0, "fusion_lat": 0.0, "bike_id": "4645415bd7234ebd340c0bc0da88cecd", "type": "electric_bike", "is_disabled": 0, "fusion_lon": 0.0}, {"rental_uris": {"android": "https://dc.lft.to/lastmile_qr_scan", "ios": "https://dc.lft.to/lastmile_qr_scan"}, "lon": -77.03199116666667, "name": "f12a09f8fe9dafb01595a96bac66acd5", "lat": 38.916373, "is_reserved": 0, "fusion_lat": 0.0, "bike_id": "f12a09f8fe9dafb01595a96bac66acd5", "type": "electric_scooter", "is_disabled": 0, "fusion_lon": 0.0}, {"rental_uris": {"android": "https://dc.lft.to/lastmile_qr_scan", "ios": "https://dc.lft.to/lastmile_qr_scan"}, "lon": -77.03875516666666, "name": "961c4b4c608a1845ee4c91f7d3475f53", "lat": 38.90658533333333, "is_reserved": 0, "fusion_lat": 0.0, "bike_id": "961c4b4c608a1845ee4c91f7d3475f53", "type": "electric_scooter", "is_disabled": 0, "fusion_lon": 0.0}, {"rental_uris": {"android": "https://dc.lft.to/lastmile_qr_scan", "ios": "https://dc.lft.to/lastmile_qr_scan"}, "lon": -77.0121735, "name": "5d8556c74b5a32c3945d49d7da1b273b", "lat": 38.9147315, "is_reserved": 0, "fusion_lat": 0.0, "bike_id": "5d8556c74b5a32c3945d49d7da1b273b", "type": "electric_scooter", "is_disabled": 0, "fusion_lon": 0.0}, {"rental_uris": {"android": "https://dc.lft.to/lastmile_qr_scan", "ios": "https://dc.lft.to/lastmile_qr_scan"}, "lon": -77.01207933333333, "name": "491e8114697304af785630f1b688b059", "lat": 38.8999605, "is_reserved": 0, "fusion_lat": 0.0, "bike_id": "491e8114697304af785630f1b688b059", "type": "electric_scooter", "is_disabled": 0, "fusion_lon": 0.0}, {"rental_uris": {"android": "https://dc.lft.to/lastmile_qr_scan", "ios": "https://dc.lft.to/lastmile_qr_scan"}, "lon": -77.00701766666667, "name": "be0602d045532b6c762f2e4f37b55229", "lat": 38.9525065, "is_reserved": 0, "fusion_lat": 0.0, "bike_id": "be0602d045532b6c762f2e4f37b55229", "type": "electric_scooter", "is_disabled": 0, "fusion_lon": 0.0}, {"rental_uris": {"android": "https://dc.lft.to/lastmile_qr_scan", "ios": "https://dc.lft.to/lastmile_qr_scan"}, "lon": -77.0259885, "name": "7affc4ae762cc182eae18de8172ba589", "lat": 38.94409866666667, "is_reserved": 0, "fusion_lat": 0.0, "bike_id": "7affc4ae762cc182eae18de8172ba589", "type": "electric_scooter", "is_disabled": 0, "fusion_lon": 0.0}, {"rental_uris": {"android": "https://dc.lft.to/lastmile_qr_scan", "ios": "https://dc.lft.to/lastmile_qr_scan"},