{"data": {"bikes": [{"fusion_lat": 0.0, "name": "bbf29b70daecf35913fc9a3b20e91ebf", "is_disabled": 0, "rental_uris": {"android": "https://dc.lft.to/lastmile_qr_scan", "ios": "https://dc.lft.to/lastmile_qr_scan"}, "fusion_lon": 0.0, "lat": 38.9287245, "bike_id": "bbf29b70daecf35913fc9a3b20e91ebf", "type": "electric_scooter", "is_reserved": 0, "lon": -77.03438516666667}, {"fusion_lat": 0.0, "name": "f697b066c8e2638cb56fba0f98df2516", "is_disabled": 0, "rental_uris": {"android": "https://dc.lft.to/lastmile_qr_scan", "ios": "https://dc.lft.to/lastmile_qr_scan"}, "fusion_lon": 0.0, "lat": 38.9231585, "bike_id": "f697b066c8e2638cb56fba0f98df2516", "type": "electric_scooter", "is_reserved": 0, "lon": -77.04134283333333}, {"fusion_lat": 0.0, "name": "c7747b61935dff54de04286ed4096b82", "is_disabled": 0, "rental_uris": {"android": "https://dc.lft.to/lastmile_qr_scan", "ios": "https://dc.lft.to/lastmile_qr_scan"}, "fusion_lon": 0.0, "lat": 38.917161666666665, "bike_id": "c7747b61935dff54de04286ed4096b82", "type": "electric_scooter", "is_reserved": 0, "lon": -77.02432283333333}, {"fusion_lat": 0.0, "name": "a8a868948741d9065184d9cb4f42e16e", "is_disabled": 0, "rental_uris": {"android": "https://dc.lft.to/lastmile_qr_scan", "ios": "https://dc.lft.to/lastmile_qr_scan"}, "fusion_lon": 0.0, "lat": 38.950543, "bike_id": "a8a868948741d9065184d9cb4f42e16e", "type": "electric_scooter", "is_reserved": 0, "lon": -77.0802975}, {"fusion_lat": 0.0, "name": "ffe55637e39e1f064dd08c385fe2a193", "is_disabled": 0, "rental_uris": {"android": "https://dc.lft.to/lastmile_qr_scan", "ios": "https://dc.lft.to/lastmile_qr_scan"}, "fusion_lon": 0.0, "lat": 38.91415516666667, "bike_id": "ffe55637e39e1f064dd08c385fe2a193", "type": "electric_scooter", "is_reserved": 0, "lon": -77.02823833333333}, {"fusion_lat": 0.0, "name": "d6714037acc084789ad57ed9961214ae", "is_disabled": 0, "rental_uris": {"android": "https://dc.lft.to/lastmile_qr_scan", "ios": "https://dc.lft.to/lastmile_qr_scan"}, "fusion_lon": 0.0, "lat": 38.90151566666667, "bike_id": "d6714037acc084789ad57ed9961214ae", "type": "electric_scooter", "is_reserved": 0, "lon": -76.930664}, {"fusion_lat": 0.0, "name": "7931984a4d792e924576af010adbd49d", "is_disabled": 0, "rental_uris": {"android": "https://dc.lft.to/lastmile_qr_scan", "ios": "https://dc.lft.to/lastmile_qr_scan"}, "fusion_lon": 0.0, "lat": 38.919608, "bike_id": "7931984a4d792e924576af010adbd49d", "type": "electric_scooter", "is_reserved": 0, "lon": -77.02399916666667}, {"fusion_lat": 0.0, "name": "85bf6dee67a332237f693d68d349d4de", "is_disabled": 0, "rental_uris": {"android": "https://dc.lft.to/lastmile_qr_scan", "ios": "https://dc.lft.to/lastmile_qr_scan"}, "fusion_lon": 0.0, "lat": 38.92230083333333, "bike_id": "85bf6dee67a332237f693d68d349d4de", "type": "electric_scooter", "is_reserved": 0, "lon": -77.042528}, {"fusion_lat": 0.0, "name": "c8a830a251faea26c67dd7a70f3741fd", "is_disabled": 0, "rental_uris": {"android": "https://dc.lft.to/lastmile_qr_scan", "ios": "https://dc.lft.to/lastmile_qr_scan"}, "fusion_lon": 0.0, "lat": 38.898523, "bike_id": "c8a830a251faea26c67dd7a70f3741fd", "type": "electric_bike", "is_reserved": 0, "lon": -77.01529716666667}, {"fusion_lat": 0.0, "name": "8d3eb7bb4da3b4d8a0d89e2dac19bd46", "is_disabled": 0, "rental_uris": {"android": "https://dc.lft.to/lastmile_qr_scan", "ios": "https://dc.lft.to/lastmile_qr_scan"}, "fusion_lon": 0.0, "lat": 38.91342983333333, "bike_id": "8d3eb7bb4da3b4d8a0d89e2dac19bd46", "type": "electric_bike", "is_reserved": 0, "lon": -77.02762}, {"fusion_lat": 0.0, "name": "d79df2340ccbe420d2f81127e5aef59e", "is_disabled": 0, "rental_uris": {"android": "https://dc.lft.to/lastmile_qr_scan", "ios": "https://dc.lft.to/lastmile_qr_scan"}, "fusion_lon": 0.0, "lat": 38.9084755, "bike_id": "d79df2340ccbe420d2f81127e5aef59e", "type": "electric_scooter", "is_reserved": 0, "lon": -76.99765}, {"fusion_lat": 0.0, "name": "47358f337addb94e1c13ed202649176d", "is_disabled": 0, "rental_uris": {"android": "https://dc.lft.to/lastmile_qr_scan", "ios": "https://dc.lft.to/lastmile_qr_scan"}, "fusion_lon": 0.0, "lat": 38.90680616666667, "bike_id": "47358f337addb94e1c13ed202649176d", "type": "electric_bike", "is_reserved": 0, "lon": -76.94496366666667}, {"fusion_lat": 0.0, "name": "350041b75c4b545e1df96e2449ef2889", "is_disabled": 0, "rental_uris": {"android": "https://dc.lft.to/lastmile_qr_scan", "ios": "https://dc.lft.to/lastmile_qr_scan"}, "fusion_lon": 0.0, "lat": 38.92422533333333, "bike_id": "350041b75c4b545e1df96e2449ef2889", "type": "electric_scooter", "is_reserved": 0, "lon": -77.04162133333334}, {"fusion_lat": 0.0, "name": "53893fa303a12a06cfc9e456a0e965bb", "is_disabled": 0, "rental_uris": {"android": "https://dc.lft.to/lastmile_qr_scan", "ios": "https://dc.lft.to/lastmile_qr_scan"}, "fusion_lon": 0.0, "lat": 38.91551166666667, "bike_id": "53893fa303a12a06cfc9e456a0e965bb", "type": "electric_scooter", "is_reserved": 0, "lon": -77.029856}, {"fusion_lat": 0.0, "name": "f850936c0998d3efe82ac1787ad8fd31", "is_disabled": 0, "rental_uris": {"android": "https://dc.lft.to/lastmile_qr_scan", "ios": "https://dc.lft.to/lastmile_qr_scan"}, "fusion_lon": 0.0, "lat": 38.875237166666665, "bike_id": "f850936c0998d3efe82ac1787ad8fd31", "type": "electric_bike", "is_reserved": 0, "lon": -77.0106025}, {"fusion_lat": 0.0, "name": "d09424336ab8ce87c2ee41660704419e", "is_disabled": 0, "rental_uris": {"android": "https://dc.lft.to/lastmile_qr_scan", "ios": "https://dc.lft.to/lastmile_qr_scan"}, "fusion_lon": 0.0, "lat": 38.904382, "bike_id": "d09424336ab8ce87c2ee41660704419e", "type": "electric_scooter", "is_reserved": 0, "lon": -77.05818033333334}, {"fusion_lat": 0.0, "name": "ed62dc140de2a78d616f787f48aa1d72", "is_disabled": 0, "rental_uris": {"android": "https://dc.lft.to/lastmile_qr_scan", "ios": "https://dc.lft.to/lastmile_qr_scan"}, "fusion_lon": 0.0, "lat": 38.90683516666667, "bike_id": "ed62dc140de2a78d616f787f48aa1d72", "type": "electric_scooter", "is_reserved": 0, "lon": -77.026961}, {"fusion_lat": 0.0, "name": "b790f8cfdaf4734ba952d7302b1536d8", "is_disabled": 0, "rental_uris": {"android": "https://dc.lft.to/lastmile_qr_scan", "ios": "https://dc.lft.to/lastmile_qr_scan"}, "fusion_lon": 0.0, "lat": 38.847546666666666, "bike_id": "b790f8cfdaf4734ba952d7302b1536d8", "type": "electric_scooter", "is_reserved": 0, "lon": -76.9950265}, {"fusion_lat": 0.0, "name": "d482323e793444bcc83cf54ce456dc74", "is_disabled": 0, "rental_uris": {"android": "https://dc.lft.to/lastmile_qr_scan", "ios": "https://dc.lft.to/lastmile_qr_scan"}, "fusion_lon": 0.0, "lat": 38.91044983333333, "bike_id": "d482323e793444bcc83cf54ce456dc74", "type": "electric_scooter", "is_reserved": 0, "lon": -77.03848666666667}, {"fusion_lat": 0.0, "name": "4bc41339dee0974835ee40d4026fb313", "is_disabled": 0, "rental_uris": {"android": "https://dc.lft.to/lastmile_qr_scan", "ios": "https://dc.lft.to/lastmile_qr_scan"}, "fusion_lon": 0.0, "lat": 38.923485166666666, "bike_id": "4bc41339dee0974835ee40d4026fb313", "type": "electric_scooter", "is_reserved": 0, "lon": -77.03536816666667}, {"fusion_lat": 0.0, "name": "af849edf4d7d85e4d28100affeed885a", "is_disabled": 0, "rental_uris": {"android": "https://dc.lft.to/lastmile_qr_scan", "ios": "https://dc.lft.to/lastmile_qr_scan"}, "fusion_lon": 0.0, "lat": 38.901707, "bike_id": "af849edf4d7d85e4d28100affeed885a", "type": "electric_scooter", "is_reserved": 0, "lon": -76.9926175}, {"fusion_lat": 0.0, "name": "00395736e8e18aef0f17f9b2d5a3cc4d", "is_disabled": 0, "rental_uris": {"android": "https://dc.lft.to/lastmile_qr_scan", "ios": "https://dc.lft.to/lastmile_qr_scan"}, "fusion_lon": 0.0, "lat": 38.9055865, "bike_id": "00395736e8e18aef0f17f9b2d5a3cc4d", "type": "electric_scooter", "is_reserved": 0, "lon": -77.00681333333333}, {"fusion_lat": 0.0, "name": "3094d4cc4e7e0534fb499032c1ff1f31", "is_disabled": 0, "rental_uris": {"android": "https://dc.lft.to/lastmile_qr_scan", "ios": "https://dc.lft.to/lastmile_qr_scan"}, "fusion_lon": 0.0, "lat": 38.92609933333333, "bike_id": "3094d4cc4e7e0534fb499032c1ff1f31", "type": "electric_scooter", "is_reserved": 0, "lon": -77.02160983333333}, {"fusion_lat": 0.0, "name": "e9b482068653a95f95b0a3cbf2fe1ddc", "is_disabled": 0, "rental_uris": {"android": "https://dc.lft.to/lastmile_qr_scan", "ios": "https://dc.lft.to/lastmile_qr_scan"}, "fusion_lon": 0.0, "lat": 38.9231765, "bike_id": "e9b482068653a95f95b0a3cbf2fe1ddc", "type": "electric_scooter", "is_reserved": 0, "lon": -77.03974216666667}, {"fusion_lat": 0.0, "name": "f4d47d5b921230704fc869846e142098", "is_disabled": 0, "rental_uris": {"android": "https://dc.lft.to/lastmile_qr_scan", "ios": "https://dc.lft.to/lastmile_qr_scan"}, "fusion_lon": 0.0, "lat": 38.93593516666667, "bike_id": "f4d47d5b921230704fc869846e142098", "type": "electric_scooter", "is_reserved": 0, "lon": -77.0364705}, {"fusion_lat": 0.0, "name": "8a4ea6018477ade6fed2534316df0aae", "is_disabled": 0, "rental_uris": {"android": "https://dc.lft.to/lastmile_qr_scan", "ios": "https://dc.lft.to/lastmile_qr_scan"}, "fusion_lon": 0.0, "lat": 38.90545783333334, "bike_id": "8a4ea6018477ade6fed2534316df0aae", "type": "electric_scooter", "is_reserved": 0, "lon": -77.0466865}, {"fusion_lat": 0.0, "name": "5f96a1e53f0f5228c2e0eb0cbf643147", "is_disabled": 0, "rental_uris": {"android": "https://dc.lft.to/lastmile_qr_scan", "ios": "https://dc.lft.to/lastmile_qr_scan"}, "fusion_lon": 0.0, "lat": 38.9005995, "bike_id": "5f96a1e53f0f5228c2e0eb0cbf643147", "type": "electric_scooter", "is_reserved": 0, "lon": -77.05669916666666}, {"fusion_lat": 0.0, "name": "819c39501c9543ce38543ce92441c4c8", "is_disabled": 0, "rental_uris": {"android": "https://dc.lft.to/lastmile_qr_scan", "ios": "https://dc.lft.to/lastmile_qr_scan"}, "fusion_lon": 0.0, "lat": 38.905444833333334, "bike_id": "819c39501c9543ce38543ce92441c4c8", "type": "electric_scooter", "is_reserved": 0, "lon": -77.040957}, {"fusion_lat": 0.0, "name": "ed155e1974d2c2a10f24d2b788ec449f", "is_disabled": 0, "rental_uris": {"android": "https://dc.lft.to/lastmile_qr_scan", "ios": "https://dc.lft.to/lastmile_qr_scan"}, "fusion_lon": 0.0, "lat": 38.8834115, "bike_id": "ed155e1974d2c2a10f24d2b788ec449f", "type": "electric_scooter", "is_reserved": 0, "lon": -77.031761}, {"fusion_lat": 0.0, "name": "b21c86fae307ec468c52275100c985fd", "is_disabled": 0, "rental_uris": {"android": "https://dc.lft.to/lastmile_qr_scan", "ios": "https://dc.lft.to/lastmile_qr_scan"}, "fusion_lon": 0.0, "lat": 38.90678366666667, "bike_id": "b21c86fae307ec468c52275100c985fd", "type": "electric_scooter", "is_reserved": 0, "lon": -77.03637033333334}, {"fusion_lat": 0.0, "name": "1e63d6b83df8c69815c136eaed110408", "is_disabled": 0, "rental_uris": {"android": "https://dc.lft.to/lastmile_qr_scan", "ios": "https://dc.lft.to/lastmile_qr_scan"}, "fusion_lon": 0.0, "lat": 38.91104083333333, "bike_id": "1e63d6b83df8c69815c136eaed110408", "type": "electric_scooter", "is_reserved": 0, "lon": -77.00214483333333}, {"fusion_lat": 0.0, "name": "1ea029b944845314a95dbe242f0e39cc", "is_disabled": 0, "rental_uris": {"android": "https://dc.lft.to/lastmile_qr_scan", "ios": "https://dc.lft.to/lastmile_qr_scan"}, "fusion_lon": 0.0, "lat": 38.917470333333334, "bike_id": "1ea029b944845314a95dbe242f0e39cc", "type": "electric_scooter", "is_reserved": 0, "lon": -77.06937983333333}, {"fusion_lat": 0.0, "name": "ef618879f4a78dc77c983e60f6b2d83a", "is_disabled": 0, "rental_uris": {"android": "https://dc.lft.to/lastmile_qr_scan", "ios": "https://dc.lft.to/lastmile_qr_scan"}, "fusion_lon": 0.0, "lat": 38.877304, "bike_id": "ef618879f4a78dc77c983e60f6b2d83a", "type": "electric_scooter", "is_reserved": 0, "lon": -77.005999}, {"fusion_lat": 0.0, "name": "b04b66793c24b46305cb414811676df4", "is_disabled": 0, "rental_uris": {"android": "https://dc.lft.to/lastmile_qr_scan", "ios": "https://dc.lft.to/lastmile_qr_scan"}, "fusion_lon": 0.0, "lat": 38.909133833333335, "bike_id": "b04b66793c24b46305cb414811676df4", "type": "electric_scooter", "is_reserved": 0, "lon": -77.0420755}, {"fusion_lat": 0.0, "name": "113448d03633cbf41c3b1db95294331f", "is_disabled": 0, "rental_uris": {"android": "https://dc.lft.to/lastmile_qr_scan", "ios": "https://dc.lft.to/lastmile_qr_scan"}, "fusion_lon": 0.0, "lat": 38.916151666666664, "bike_id": "113448d03633cbf41c3b1db95294331f", "type": "electric_scooter", "is_reserved": 0, "lon": -77.023936}, {"fusion_lat": 0.0, "name": "3f7e8a57e020f76af331456aeabb3fb0", "is_disabled": 0, "rental_uris": {"android": "https://dc.lft.to/lastmile_qr_scan", "ios": "https://dc.lft.to/lastmile_qr_scan"}, "fusion_lon": 0.0, "lat": 38.9007995, "bike_id": "3f7e8a57e020f76af331456aeabb3fb0", "type": "electric_scooter", "is_reserved": 0, "lon": -77.04759983333334}, {"fusion_lat": 0.0, "name": "8d04d3b4f9afabc78fbe4bd4cefaa0d6", "is_disabled": 0, "rental_uris": {"android": "https://dc.lft.to/lastmile_qr_scan", "ios": "https://dc.lft.to/lastmile_qr_scan"}, "fusion_lon": 0.0, "lat": 38.88988533333333, "bike_id": "8d04d3b4f9afabc78fbe4bd4cefaa0d6", "type": "electric_bike", "is_reserved": 0, "lon": -77.07135183333334}, {"fusion_lat": 0.0, "name": "0ab3fec6222356f1d59304a652157998", "is_disabled": 0, "rental_uris": {"android": "https://dc.lft.to/lastmile_qr_scan", "ios": "https://dc.lft.to/lastmile_qr_scan"}, "fusion_lon": 0.0, "lat": 38.938279666666666, "bike_id": "0ab3fec6222356f1d59304a652157998", "type": "electric_scooter", "is_reserved": 0, "lon": -76.9918795}, {"fusion_lat": 0.0, "name": "4722b4982f39fad7eaf28da9244e250b", "is_disabled": 0, "rental_uris": {"android": "https://dc.lft.to/lastmile_qr_scan", "ios": "https://dc.lft.to/lastmile_qr_scan"}, "fusion_lon": 0.0, "lat": 38.90368733333333, "bike_id": "4722b4982f39fad7eaf28da9244e250b", "type": "electric_scooter", "is_reserved": 0, "lon": -77.03843783333333}, {"fusion_lat": 0.0, "name": "ca8d12a36c8f461230a6a270cffe0413", "is_disabled": 0, "rental_uris": {"android": "https://dc.lft.to/lastmile_qr_scan", "ios": "https://dc.lft.to/lastmile_qr_scan"}, "fusion_lon": 0.0, "lat": 38.917236833333334, "bike_id": "ca8d12a36c8f461230a6a270cffe0413", "type": "electric_scooter", "is_reserved": 0, "lon": -77.02696816666666}, {"fusion_lat": 0.0, "name": "904dc3ba9024e7873a05441986a98166", "is_disabled": 0, "rental_uris": {"android": "https://dc.lft.to/lastmile_qr_scan", "ios": "https://dc.lft.to/lastmile_qr_scan"}, "fusion_lon": 0.0, "lat": 38.907715, "bike_id": "904dc3ba9024e7873a05441986a98166", "type": "electric_scooter", "is_reserved": 0, "lon": -77.03531216666667}, {"fusion_lat": 0.0, "name": "8f7f523764c7ab976269fd7068eff885", "is_disabled": 0, "rental_uris": {"android": "https://dc.lft.to/lastmile_qr_scan", "ios": "https://dc.lft.to/lastmile_qr_scan"}, "fusion_lon": 0.0, "lat": 38.90459033333333, "bike_id": "8f7f523764c7ab976269fd7068eff885", "type": "electric_scooter", "is_reserved": 0, "lon": -77.02605316666667}, {"fusion_lat": 0.0, "name": "0d5d49598f1bfe5bb5ea18afa843667c", "is_disabled": 0, "rental_uris": {"android": "https://dc.lft.to/lastmile_qr_scan", "ios": "https://dc.lft.to/lastmile_qr_scan"}, "fusion_lon": 0.0, "lat": 38.91947416666667, "bike_id": "0d5d49598f1bfe5bb5ea18afa843667c", "type": "electric_bike", "is_reserved": 0, "lon": -77.22123966666666}, {"fusion_lat": 0.0, "name": "10950ca648a93172b2a4e8ce90bca2e8", "is_disabled": 0, "rental_uris": {"android": "https://dc.lft.to/lastmile_qr_scan", "ios": "https://dc.lft.to/lastmile_qr_scan"}, "fusion_lon": 0.0, "lat": 38.920534333333336, "bike_id": "10950ca648a93172b2a4e8ce90bca2e8", "type": "electric_scooter", "is_reserved": 0, "lon": -77.043537}, {"fusion_lat": 0.0, "name": "f423ced8a633289f100ee8e976bf15f5", "is_disabled": 0, "rental_uris": {"android": "https://dc.lft.to/lastmile_qr_scan", "ios": "https://dc.lft.to/lastmile_qr_scan"}, "fusion_lon": 0.0, "lat": 38.90622883333333, "bike_id": "f423ced8a633289f100ee8e976bf15f5", "type": "electric_scooter", "is_reserved": 0, "lon": -77.0501105}, {"fusion_lat": 0.0, "name": "534a3a529e72b270b9cd9093ae8dc29f", "is_disabled": 0, "rental_uris": {"android": "https://dc.lft.to/lastmile_qr_scan", "ios": "https://dc.lft.to/lastmile_qr_scan"}, "fusion_lon": 0.0, "lat": 38.895695, "bike_id": "534a3a529e72b270b9cd9093ae8dc29f", "type": "electric_scooter", "is_reserved": 0, "lon": -77.02202116666666}, {"fusion_lat": 0.0, "name": "8957b44c7a479658a69799c5f87531da", "is_disabled": 0, "rental_uris": {"android": "https://dc.lft.to/lastmile_qr_scan", "ios": "https://dc.lft.to/lastmile_qr_scan"}, "fusion_lon": 0.0, "lat": 38.8775345, "bike_id": "8957b44c7a479658a69799c5f87531da", "type": "electric_scooter", "is_reserved": 0, "lon": -77.00263533333333}, {"fusion_lat": 0.0, "name": "95ed2ec55dfe5d21f248203baabd0582", "is_disabled": 0, "rental_uris": {"android": "https://dc.lft.to/lastmile_qr_scan", "ios": "https://dc.lft.to/lastmile_qr_scan"}, "fusion_lon": 0.0, "lat": 38.89738966666667, "bike_id": "95ed2ec55dfe5d21f248203baabd0582", "type": "electric_scooter", "is_reserved": 0, "lon": -76.94722783333333}, {"fusion_lat": 0.0, "name": "473f924aac965b96cc5fe395a9efca68", "is_disabled": 0, "rental_uris": {"android": "https://dc.lft.to/lastmile_qr_scan", "ios": "https://dc.lft.to/lastmile_qr_scan"}, "fusion_lon": 0.0, "lat": 38.92484016666667, "bike_id": "473f924aac965b96cc5fe395a9efca68", "type": "electric_scooter", "is_reserved": 0, "lon": -77.035548}, {"fusion_lat": 0.0, "name": "0c5766b449c55229e4b54a3dba9e6362", "is_disabled": 0, "rental_uris": {"android": "https://dc.lft.to/lastmile_qr_scan", "ios": "https://dc.lft.to/lastmile_qr_scan"}, "fusion_lon": 0.0, "lat": 38.933513166666664, "bike_id": "0c5766b449c55229e4b54a3dba9e6362", "type": "electric_scooter", "is_reserved": 0, "lon": -77.06194783333333}, {"fusion_lat": 0.0, "name": "22fc6b0c107e07fd48c75d50a3d8b61e", "is_disabled": 0, "rental_uris": {"android": "https://dc.lft.to/lastmile_qr_scan", "ios": "https://dc.lft.to/lastmile_qr_scan"}, "fusion_lon": 0.0, "lat": 38.892127333333335, "bike_id": "22fc6b0c107e07fd48c75d50a3d8b61e", "type": "electric_scooter", "is_reserved": 0, "lon": -77.02648783333333}, {"fusion_lat": 0.0, "name": "f9ee70cab179e517dcf09f3a79828788", "is_disabled": 0, "rental_uris": {"android": "https://dc.lft.to/lastmile_qr_scan", "ios": "https://dc.lft.to/lastmile_qr_scan"}, "fusion_lon": 0.0, "lat": 38.87471683333333, "bike_id": "f9ee70cab179e517dcf09f3a79828788", "type": "electric_scooter", "is_reserved": 0, "lon": -77.00472116666667}, {"fusion_lat": 0.0, "name": "668bd6716593aa5da39d30de7f1e9082", "is_disabled": 0, "rental_uris": {"android": "https://dc.lft.to/lastmile_qr_scan", "ios": "https://dc.lft.to/lastmile_qr_scan"}, "fusion_lon": 0.0, "lat": 38.90724216666667, "bike_id": "668bd6716593aa5da39d30de7f1e9082", "type": "electric_scooter", "is_reserved": 0, "lon": -77.02503033333333}, {"fusion_lat": 0.0, "name": "c65275d8e10be2cefa7942489eb96b9d", "is_disabled": 0, "rental_uris": {"android": "https://dc.lft.to/lastmile_qr_scan", "ios": "https://dc.lft.to/lastmile_qr_scan"}, "fusion_lon": 0.0, "lat": 38.887292333333335, "bike_id": "c65275d8e10be2cefa7942489eb96b9d", "type": "electric_scooter", "is_reserved": 0, "lon": -77.01342716666667}, {"fusion_lat": 0.0, "name": "8faa0bd92d0399d85367a0df28da552c", "is_disabled": 0, "rental_uris": {"android": "https://dc.lft.to/lastmile_qr_scan", "ios": "https://dc.lft.to/lastmile_qr_scan"}, "fusion_lon": 0.0, "lat": 38.88425433333333, "bike_id": "8faa0bd92d0399d85367a0df28da552c", "type": "electric_scooter", "is_reserved": 0, "lon": -77.0289375}, {"fusion_lat": 0.0, "name": "44ace1c226f469c836015135e1774a29", "is_disabled": 0, "rental_uris": {"android": "https://dc.lft.to/lastmile_qr_scan", "ios": "https://dc.lft.to/lastmile_qr_scan"}, "fusion_lon": 0.0, "lat": 38.900619, "bike_id": "44ace1c226f469c836015135e1774a29", "type": "electric_scooter", "is_reserved": 0, "lon": -77.01686733333334}, {"fusion_lat": 0.0, "name": "b558bf5d84df3c6816ec0c6d8e75db34", "is_disabled": 0, "rental_uris": {"android": "https://dc.lft.to/lastmile_qr_scan", "ios": "https://dc.lft.to/lastmile_qr_scan"}, "fusion_lon": 0.0, "lat": 38.91472666666667, "bike_id": "b558bf5d84df3c6816ec0c6d8e75db34", "type": "electric_scooter", "is_reserved": 0, "lon": -76.9811065}, {"fusion_lat": 0.0, "name": "135c115b641a9aa8477ddc23e59f32ad", "is_disabled": 0, "rental_uris": {"android": "https://dc.lft.to/lastmile_qr_scan", "ios": "https://dc.lft.to/lastmile_qr_scan"}, "fusion_lon": 0.0, "lat": 38.92602316666667, "bike_id": "135c115b641a9aa8477ddc23e59f32ad", "type": "electric_scooter", "is_reserved": 0, "lon": -77.03751066666666}, {"fusion_lat": 0.0, "name": "d73246cb1335c22fb1f165cec915455d", "is_disabled": 0, "rental_uris": {"android": "https://dc.lft.to/lastmile_qr_scan", "ios": "https://dc.lft.to/lastmile_qr_scan"}, "fusion_lon": 0.0, "lat": 38.914809166666664, "bike_id": "d73246cb1335c22fb1f165cec915455d", "type": "electric_scooter", "is_reserved": 0, "lon": -77.04611816666667}, {"fusion_lat": 0.0, "name": "68b343da34b4b270a8bb4f20cc7111c1", "is_disabled": 0, "rental_uris": {"android": "https://dc.lft.to/lastmile_qr_scan", "ios": "https://dc.lft.to/lastmile_qr_scan"}, "fusion_lon": 0.0, "lat": 38.896628666666665, "bike_id": "68b343da34b4b270a8bb4f20cc7111c1", "type": "electric_scooter", "is_reserved": 0, "lon": -77.0504565}, {"fusion_lat": 0.0, "name": "486b19556ae073d6fb16adbd9cf4b282", "is_disabled": 0, "rental_uris": {"android": "https://dc.lft.to/lastmile_qr_scan", "ios": "https://dc.lft.to/lastmile_qr_scan"}, "fusion_lon": 0.0, "lat": 38.900708, "bike_id": "486b19556ae073d6fb16adbd9cf4b282", "type": "electric_scooter", "is_reserved": 0, "lon": -77.0220055}, {"fusion_lat": 0.0, "name": "61321c84269f1b0c30935773afd663df", "is_disabled": 0, "rental_uris": {"android": "https://dc.lft.to/lastmile_qr_scan", "ios": "https://dc.lft.to/lastmile_qr_scan"}, "fusion_lon": 0.0, "lat": 38.969893166666665, "bike_id": "61321c84269f1b0c30935773afd663df", "type": "electric_scooter", "is_reserved": 0, "lon": -77.01167933333333}, {"fusion_lat": 0.0, "name": "8a690c527c168f65db8a2598053b447c", "is_disabled": 0, "rental_uris": {"android": "https://dc.lft.to/lastmile_qr_scan", "ios": "https://dc.lft.to/lastmile_qr_scan"}, "fusion_lon": 0.0, "lat": 38.924363666666665, "bike_id": "8a690c527c168f65db8a2598053b447c", "type": "electric_scooter", "is_reserved": 0, "lon": -77.05214016666666}, {"fusion_lat": 0.0, "name": "866b020ca893a98e2d25e6a5c8b888d2", "is_disabled": 0, "rental_uris": {"android": "https://dc.lft.to/lastmile_qr_scan", "ios": "https://dc.lft.to/lastmile_qr_scan"}, "fusion_lon": 0.0, "lat": 38.90363683333333, "bike_id": "866b020ca893a98e2d25e6a5c8b888d2", "type": "electric_scooter", "is_reserved": 0, "lon": -77.05018783333334}, {"fusion_lat": 0.0, "name": "48d2b095bfd00250ba7b9049ae07a90b", "is_disabled": 0, "rental_uris": {"android": "https://dc.lft.to/lastmile_qr_scan", "ios": "https://dc.lft.to/lastmile_qr_scan"}, "fusion_lon": 0.0, "lat": 38.9314265, "bike_id": "48d2b095bfd00250ba7b9049ae07a90b", "type": "electric_bike", "is_reserved": 0, "lon": -77.00076283333334}, {"fusion_lat": 0.0, "name": "e97931a241b292bc17b714f734b19b58", "is_disabled": 0, "rental_uris": {"android": "https://dc.lft.to/lastmile_qr_scan", "ios": "https://dc.lft.to/lastmile_qr_scan"}, "fusion_lon": 0.0, "lat": 38.90586116666667, "bike_id": "e97931a241b292bc17b714f734b19b58", "type": "electric_scooter", "is_reserved": 0, "lon": -77.033993}, {"fusion_lat": 0.0, "name": "93e7e26196190b106c0f04cc8dbd8633", "is_disabled": 0, "rental_uris": {"android": "https://dc.lft.to/lastmile_qr_scan", "ios": "https://dc.lft.to/lastmile_qr_scan"}, "fusion_lon": 0.0, "lat": 38.88344083333333, "bike_id": "93e7e26196190b106c0f04cc8dbd8633", "type": "electric_scooter", "is_reserved": 0, "lon": -76.93505266666666}, {"fusion_lat": 0.0, "name": "691f646ade12753f134c0de0c8d29f3f", "is_disabled": 0, "rental_uris": {"android": "https://dc.lft.to/lastmile_qr_scan", "ios": "https://dc.lft.to/lastmile_qr_scan"}, "fusion_lon": 0.0, "lat": 38.92101183333333, "bike_id": "691f646ade12753f134c0de0c8d29f3f", "type": "electric_scooter", "is_reserved": 0, "lon": -77.0252045}, {"fusion_lat": 0.0, "name": "397bc58d76e185b91d7b8ba1afc6d508", "is_disabled": 0, "rental_uris": {"android": "https://dc.lft.to/lastmile_qr_scan", "ios": "https://dc.lft.to/lastmile_qr_scan"}, "fusion_lon": 0.0, "lat": 38.9232395, "bike_id": "397bc58d76e185b91d7b8ba1afc6d508", "type": "electric_scooter", "is_reserved": 0, "lon": -77.05688033333334}, {"fusion_lat": 0.0, "name": "fe88aec4ca046bddc75d1147c05dbd61", "is_disabled": 0, "rental_uris": {"android": "https://dc.lft.to/lastmile_qr_scan", "ios": "https://dc.lft.to/lastmile_qr_scan"}, "fusion_lon": 0.0, "lat": 38.915440333333336, "bike_id": "fe88aec4ca046bddc75d1147c05dbd61", "type": "electric_scooter", "is_reserved": 0, "lon": -77.06759866666667}, {"fusion_lat": 0.0, "name": "a9e7657cde305d310ce629fb0555bbb8", "is_disabled": 0, "rental_uris": {"android": "https://dc.lft.to/lastmile_qr_scan", "ios": "https://dc.lft.to/lastmile_qr_scan"}, "fusion_lon": 0.0, "lat": 38.89733233333333, "bike_id": "a9e7657cde305d310ce629fb0555bbb8", "type": "electric_scooter", "is_reserved": 0, "lon": -77.047392}, {"fusion_lat": 0.0, "name": "1aba85afab64cb1fbbabc139d8186c5a", "is_disabled": 0, "rental_uris": {"android": "https://dc.lft.to/lastmile_qr_scan", "ios": "https://dc.lft.to/lastmile_qr_scan"}, "fusion_lon": 0.0, "lat": 38.943893, "bike_id": "1aba85afab64cb1fbbabc139d8186c5a", "type": "electric_scooter", "is_reserved": 0, "lon": -77.09507316666667}, {"fusion_lat": 0.0, "name": "664e162dfb2ce5252db92f3501448974", "is_disabled": 0, "rental_uris": {"android": "https://dc.lft.to/lastmile_qr_scan", "ios": "https://dc.lft.to/lastmile_qr_scan"}, "fusion_lon": 0.0, "lat": 38.9471985, "bike_id": "664e162dfb2ce5252db92f3501448974", "type": "electric_scooter", "is_reserved": 0, "lon": -77.06537766666666}, {"fusion_lat": 0.0, "name": "7cb3f2a5eddfa5f50cc0cc6eb9fc9048", "is_disabled": 0, "rental_uris": {"android": "https://dc.lft.to/lastmile_qr_scan", "ios": "https://dc.lft.to/lastmile_qr_scan"}, "fusion_lon": 0.0, "lat": 38.92082116666667, "bike_id": "7cb3f2a5eddfa5f50cc0cc6eb9fc9048", "type": "electric_scooter", "is_reserved": 0, "lon": -77.01396566666666}, {"fusion_lat": 0.0, "name": "f311c4f95ba7d9f1a79fb264e5326f09", "is_disabled": 0, "rental_uris": {"android": "https://dc.lft.to/lastmile_qr_scan", "ios": "https://dc.lft.to/lastmile_qr_scan"}, "fusion_lon": 0.0, "lat": 38.90573766666667, "bike_id": "f311c4f95ba7d9f1a79fb264e5326f09", "type": "electric_scooter", "is_reserved": 0, "lon": -77.04271016666667}, {"fusion_lat": 0.0, "name": "df580a5a03679f2feb35ded8c60ac00b", "is_disabled": 0, "rental_uris": {"android": "https://dc.lft.to/lastmile_qr_scan", "ios": "https://dc.lft.to/lastmile_qr_scan"}, "fusion_lon": 0.0, "lat": 38.901271, "bike_id": "df580a5a03679f2feb35ded8c60ac00b", "type": "electric_scooter", "is_reserved": 0, "lon": -77.04160066666667}, {"fusion_lat": 0.0, "name": "b330f240cbb085481ecf9d2fe8a0b467", "is_disabled": 0, "rental_uris": {"android": "https://dc.lft.to/lastmile_qr_scan", "ios": "https://dc.lft.to/lastmile_qr_scan"}, "fusion_lon": 0.0, "lat": 38.93472883333333, "bike_id": "b330f240cbb085481ecf9d2fe8a0b467", "type": "electric_scooter", "is_reserved": 0, "lon": -77.07210683333334}, {"fusion_lat": 0.0, "name": "6afa7d506384ab0609f41c309ca3dc47", "is_disabled": 0, "rental_uris": {"android": "https://dc.lft.to/lastmile_qr_scan", "ios": "https://dc.lft.to/lastmile_qr_scan"}, "fusion_lon": 0.0, "lat": 38.89499466666667, "bike_id": "6afa7d506384ab0609f41c309ca3dc47", "type": "electric_scooter", "is_reserved": 0, "lon": -77.003349}, {"fusion_lat": 0.0, "name": "fb8aabe67ad8ecfb8993d7675555ec7e", "is_disabled": 0, "rental_uris": {"android": "https://dc.lft.to/lastmile_qr_scan", "ios": "https://dc.lft.to/lastmile_qr_scan"}, "fusion_lon": 0.0, "lat": 38.9008885, "bike_id": "fb8aabe67ad8ecfb8993d7675555ec7e", "type": "electric_scooter", "is_reserved": 0, "lon": -76.983328}, {"fusion_lat": 0.0, "name": "147e70ce3ea251db1b02b381a9cb142d", "is_disabled": 0, "rental_uris": {"android": "https://dc.lft.to/lastmile_qr_scan", "ios": "https://dc.lft.to/lastmile_qr_scan"}, "fusion_lon": 0.0, "lat": 38.902976333333335, "bike_id": "147e70ce3ea251db1b02b381a9cb142d", "type": "electric_scooter", "is_reserved": 0, "lon": -77.049597}, {"fusion_lat": 0.0, "name": "ccb7df6e8dc98cb37778a14ecd427abb", "is_disabled": 0, "rental_uris": {"android": "https://dc.lft.to/lastmile_qr_scan", "ios": "https://dc.lft.to/lastmile_qr_scan"}, "fusion_lon": 0.0, "lat": 38.905986166666665, "bike_id": "ccb7df6e8dc98cb37778a14ecd427abb", "type": "electric_scooter", "is_reserved": 0, "lon": -77.04070716666666}, {"fusion_lat": 0.0, "name": "b506b9de4766c33306583f5f794c9eeb", "is_disabled": 0, "rental_uris": {"android": "https://dc.lft.to/lastmile_qr_scan", "ios": "https://dc.lft.to/lastmile_qr_scan"}, "fusion_lon": 0.0, "lat": 38.892866166666664, "bike_id": "b506b9de4766c33306583f5f794c9eeb", "type": "electric_scooter", "is_reserved": 0, "lon": -77.01241316666666}, {"fusion_lat": 0.0, "name": "99562461b3081710c310733e75943d6f", "is_disabled": 0, "rental_uris": {"android": "https://dc.lft.to/lastmile_qr_scan", "ios": "https://dc.lft.to/lastmile_qr_scan"}, "fusion_lon": 0.0, "lat": 38.89844816666667, "bike_id": "99562461b3081710c310733e75943d6f", "type": "electric_scooter", "is_reserved": 0, "lon": -77.03030716666666}, {"fusion_lat": 0.0, "name": "37fdfbcd47b38468831b5299c5147962", "is_disabled": 0, "rental_uris": {"android": "https://dc.lft.to/lastmile_qr_scan", "ios": "https://dc.lft.to/lastmile_qr_scan"}, "fusion_lon": 0.0, "lat": 38.934472166666666, "bike_id": "37fdfbcd47b38468831b5299c5147962", "type": "electric_scooter", "is_reserved": 0, "lon": -77.03874016666667}, {"fusion_lat": 0.0, "name": "c970ab573c47d84ba16dd3ae37067bc4", "is_disabled": 0, "rental_uris": {"android": "https://dc.lft.to/lastmile_qr_scan", "ios": "https://dc.lft.to/lastmile_qr_scan"}, "fusion_lon": 0.0, "lat": 38.87162933333333, "bike_id": "c970ab573c47d84ba16dd3ae37067bc4", "type": "electric_scooter", "is_reserved": 0, "lon": -77.0057085}, {"fusion_lat": 0.0, "name": "0a5669321935a222b7f01074b4f9f712", "is_disabled": 0, "rental_uris": {"android": "https://dc.lft.to/lastmile_qr_scan", "ios": "https://dc.lft.to/lastmile_qr_scan"}, "fusion_lon": 0.0, "lat": 38.90215933333333, "bike_id": "0a5669321935a222b7f01074b4f9f712", "type": "electric_scooter", "is_reserved": 0, "lon": -77.05339533333333}, {"fusion_lat": 0.0, "name": "3111ac54dd3cc0e3c94c1035f5ddc28d", "is_disabled": 0, "rental_uris": {"android": "https://dc.lft.to/lastmile_qr_scan", "ios": "https://dc.lft.to/lastmile_qr_scan"}, "fusion_lon": 0.0, "lat": 38.8928185, "bike_id": "3111ac54dd3cc0e3c94c1035f5ddc28d", "type": "electric_scooter", "is_reserved": 0, "lon": -77.03207733333333}, {"fusion_lat": 0.0, "name": "d057b3468f6c6f1d33c25d1e69061408", "is_disabled": 0, "rental_uris": {"android": "https://dc.lft.to/lastmile_qr_scan", "ios": "https://dc.lft.to/lastmile_qr_scan"}, "fusion_lon": 0.0, "lat": 38.85875166666667, "bike_id": "d057b3468f6c6f1d33c25d1e69061408", "type": "electric_bike", "is_reserved": 0, "lon": -77.09563833333333}, {"fusion_lat": 0.0, "name": "3cf0bf04b5be61e5f6e065f705204741", "is_disabled": 0, "rental_uris": {"android": "https://dc.lft.to/lastmile_qr_scan", "ios": "https://dc.lft.to/lastmile_qr_scan"}, "fusion_lon": 0.0, "lat": 38.89798033333334, "bike_id": "3cf0bf04b5be61e5f6e065f705204741", "type": "electric_scooter", "is_reserved": 0, "lon": -76.984555}, {"fusion_lat": 0.0, "name": "2d96204c2693de1900254f00e8d1649e", "is_disabled": 0, "rental_uris": {"android": "https://dc.lft.to/lastmile_qr_scan", "ios": "https://dc.lft.to/lastmile_qr_scan"}, "fusion_lon": 0.0, "lat": 38.9298885, "bike_id": "2d96204c2693de1900254f00e8d1649e", "type": "electric_scooter", "is_reserved": 0, "lon": -77.03242133333333}, {"fusion_lat": 0.0, "name": "af0fd463591f950c1653db411f19819e", "is_disabled": 0, "rental_uris": {"android": "https://dc.lft.to/lastmile_qr_scan", "ios": "https://dc.lft.to/lastmile_qr_scan"}, "fusion_lon": 0.0, "lat": 38.867316833333334, "bike_id": "af0fd463591f950c1653db411f19819e", "type": "electric_scooter", "is_reserved": 0, "lon": -76.98792433333334}, {"fusion_lat": 0.0, "name": "bdef6a78c8f76a4123b251c9d16a5979", "is_disabled": 0, "rental_uris": {"android": "https://dc.lft.to/lastmile_qr_scan", "ios": "https://dc.lft.to/lastmile_qr_scan"}, "fusion_lon": 0.0, "lat": 38.924347833333336, "bike_id": "bdef6a78c8f76a4123b251c9d16a5979", "type": "electric_scooter", "is_reserved": 0, "lon": -77.04466783333334}, {"fusion_lat": 0.0, "name": "bd3ed91af6ba803415bed0b2994ca760", "is_disabled": 0, "rental_uris": {"android": "https://dc.lft.to/lastmile_qr_scan", "ios": "https://dc.lft.to/lastmile_qr_scan"}, "fusion_lon": 0.0, "lat": 38.924189166666665, "bike_id": "bd3ed91af6ba803415bed0b2994ca760", "type": "electric_scooter", "is_reserved": 0, "lon": -77.05747883333333}, {"fusion_lat": 0.0, "name": "054f5c7b11142b17fdbc6e842cf80ac3", "is_disabled": 0, "rental_uris": {"android": "https://dc.lft.to/lastmile_qr_scan", "ios": "https://dc.lft.to/lastmile_qr_scan"}, "fusion_lon": 0.0, "lat": 38.920808, "bike_id": "054f5c7b11142b17fdbc6e842cf80ac3", "type": "electric_scooter", "is_reserved": 0, "lon": -77.0222215}, {"fusion_lat": 0.0, "name": "15860ed464c837d207eb1c42dc18ef0b", "is_disabled": 0, "rental_uris": {"android": "https://dc.lft.to/lastmile_qr_scan", "ios": "https://dc.lft.to/lastmile_qr_scan"}, "fusion_lon": 0.0, "lat": 38.961830666666664, "bike_id": "15860ed464c837d207eb1c42dc18ef0b", "type": "electric_bike", "is_reserved": 0, "lon": -77.05268633333333}, {"fusion_lat": 0.0, "name": "b7dea528f14799c4663368292aa078e0", "is_disabled": 0, "rental_uris": {"android": "https://dc.lft.to/lastmile_qr_scan", "ios": "https://dc.lft.to/lastmile_qr_scan"}, "fusion_lon": 0.0, "lat": 38.920260999999996, "bike_id": "b7dea528f14799c4663368292aa078e0", "type": "electric_scooter", "is_reserved": 0, "lon": -77.01027016666667}, {"fusion_lat": 0.0, "name": "c36b91ee2b23a231fb81d6040189d3ad", "is_disabled": 0, "rental_uris": {"android": "https://dc.lft.to/lastmile_qr_scan", "ios": "https://dc.lft.to/lastmile_qr_scan"}, "fusion_lon": 0.0, "lat": 38.8970185, "bike_id": "c36b91ee2b23a231fb81d6040189d3ad", "type": "electric_scooter", "is_reserved": 0, "lon": -77.0130975}, {"fusion_lat": 0.0, "name": "f269e320e74bcdfb8d6b550b78f1f796", "is_disabled": 0, "rental_uris": {"android": "https://dc.lft.to/lastmile_qr_scan", "ios": "https://dc.lft.to/lastmile_qr_scan"}, "fusion_lon": 0.0, "lat": 38.902015166666665, "bike_id": "f269e320e74bcdfb8d6b550b78f1f796", "type": "electric_scooter", "is_reserved": 0, "lon": -77.02743283333334}, {"fusion_lat": 0.0, "name": "54a3753523f25ecbea1c0a6251a8a4a5", "is_disabled": 0, "rental_uris": {"android": "https://dc.lft.to/lastmile_qr_scan", "ios": "https://dc.lft.to/lastmile_qr_scan"}, "fusion_lon": 0.0, "lat": 38.9268955, "bike_id": "54a3753523f25ecbea1c0a6251a8a4a5", "type": "electric_scooter", "is_reserved": 0, "lon": -77.02785883333334}, {"fusion_lat": 0.0, "name": "5922df2d4e272d515acf03f63771b64e", "is_disabled": 0, "rental_uris": {"android": "https://dc.lft.to/lastmile_qr_scan", "ios": "https://dc.lft.to/lastmile_qr_scan"}, "fusion_lon": 0.0, "lat": 38.91718733333333, "bike_id": "5922df2d4e272d515acf03f63771b64e", "type": "electric_scooter", "is_reserved": 0, "lon": -77.02701783333333}, {"fusion_lat": 0.0, "name": "14e117e3c93d6037a203efbba06f9904", "is_disabled": 0, "rental_uris": {"android": "https://dc.lft.to/lastmile_qr_scan", "ios": "https://dc.lft.to/lastmile_qr_scan"}, "fusion_lon": 0.0, "lat": 38.89837166666667, "bike_id": "14e117e3c93d6037a203efbba06f9904", "type": "electric_scooter", "is_reserved": 0, "lon": -77.03023716666667}, {"fusion_lat": 0.0, "name": "3268e096b0574e680f088ef951ad7e8a", "is_disabled": 0, "rental_uris": {"android": "https://dc.lft.to/lastmile_qr_scan", "ios": "https://dc.lft.to/lastmile_qr_scan"}, "fusion_lon": 0.0, "lat": 38.9098195, "bike_id": "3268e096b0574e680f088ef951ad7e8a", "type": "electric_scooter", "is_reserved": 0, "lon": -77.08480016666667}, {"fusion_lat": 0.0, "name": "f1f68ec38010d97f6935f2597f8d7c3e", "is_disabled": 0, "rental_uris": {"android": "https://dc.lft.to/lastmile_qr_scan", "ios": "https://dc.lft.to/lastmile_qr_scan"}, "fusion_lon": 0.0, "lat": 38.9001525, "bike_id": "f1f68ec38010d97f6935f2597f8d7c3e", "type": "electric_scooter", "is_reserved": 0, "lon": -77.01183116666667}, {"fusion_lat": 0.0, "name": "e559bbc2938ab1a6c908cf4cd0d248fb", "is_disabled": 0, "rental_uris": {"android": "https://dc.lft.to/lastmile_qr_scan", "ios": "https://dc.lft.to/lastmile_qr_scan"}, "fusion_lon": 0.0, "lat": 38.9657465, "bike_id": "e559bbc2938ab1a6c908cf4cd0d248fb", "type": "electric_scooter", "is_reserved": 0, "lon": -77.00266616666667}, {"fusion_lat": 0.0, "name": "f59f864357a0713cfca0fbd5b2b91ba2", "is_disabled": 0, "rental_uris": {"android": "https://dc.lft.to/lastmile_qr_scan", "ios": "https://dc.lft.to/lastmile_qr_scan"}, "fusion_lon": 0.0, "lat": 38.93492616666666, "bike_id": "f59f864357a0713cfca0fbd5b2b91ba2", "type": "electric_scooter", "is_reserved": 0, "lon": -77.07274433333333}, {"fusion_lat": 0.0, "name": "1fc27d5c6a3d69155b4c32261355a181", "is_disabled": 0, "rental_uris": {"android": "https://dc.lft.to/lastmile_qr_scan", "ios": "https://dc.lft.to/lastmile_qr_scan"}, "fusion_lon": 0.0, "lat": 38.897913833333334, "bike_id": "1fc27d5c6a3d69155b4c32261355a181", "type": "electric_scooter", "is_reserved": 0, "lon": -76.94732366666666}, {"fusion_lat": 0.0, "name": "c12a895da665ccbecf4fccc31018cf5f", "is_disabled": 0, "rental_uris": {"android": "https://dc.lft.to/lastmile_qr_scan", "ios": "https://dc.lft.to/lastmile_qr_scan"}, "fusion_lon": 0.0, "lat": 38.914879, "bike_id": "c12a895da665ccbecf4fccc31018cf5f", "type": "electric_scooter", "is_reserved": 0, "lon": -77.0424095}, {"fusion_lat": 0.0, "name": "d8b53b3a96d253853a01fcb808191764", "is_disabled": 0, "rental_uris": {"android": "https://dc.lft.to/lastmile_qr_scan", "ios": "https://dc.lft.to/lastmile_qr_scan"}, "fusion_lon": 0.0, "lat": 38.90264883333333, "bike_id": "d8b53b3a96d253853a01fcb808191764", "type": "electric_scooter", "is_reserved": 0, "lon": -77.03632583333334}, {"fusion_lat": 0.0, "name": "da6be364a6ef92c2513f33e9263830ab", "is_disabled": 0, "rental_uris": {"android": "https://dc.lft.to/lastmile_qr_scan", "ios": "https://dc.lft.to/lastmile_qr_scan"}, "fusion_lon": 0.0, "lat": 38.923526333333335, "bike_id": "da6be364a6ef92c2513f33e9263830ab", "type": "electric_scooter", "is_reserved": 0, "lon": -77.03903983333333}, {"fusion_lat": 0.0, "name": "b8ae0fc38182c1842a862657aa239882", "is_disabled": 0, "rental_uris": {"android": "https://dc.lft.to/lastmile_qr_scan", "ios": "https://dc.lft.to/lastmile_qr_scan"}, "fusion_lon": 0.0, "lat": 38.902453666666666, "bike_id": "b8ae0fc38182c1842a862657aa239882", "type": "electric_scooter", "is_reserved": 0, "lon": -77.01817116666666}, {"fusion_lat": 0.0, "name": "208bf4510e903e7523703b0d7e4e0a21", "is_disabled": 0, "rental_uris": {"android": "https://dc.lft.to/lastmile_qr_scan", "ios": "https://dc.lft.to/lastmile_qr_scan"}, "fusion_lon": 0.0, "lat": 38.942715166666666, "bike_id": "208bf4510e903e7523703b0d7e4e0a21", "type": "electric_scooter", "is_reserved": 0, "lon": -77.03261466666666}, {"fusion_lat": 0.0, "name": "6f9c4404ce91aebaaca5d6724676b2c4", "is_disabled": 0, "rental_uris": {"android": "https://dc.lft.to/lastmile_qr_scan", "ios": "https://dc.lft.to/lastmile_qr_scan"}, "fusion_lon": 0.0, "lat": 38.91788183333333, "bike_id": "6f9c4404ce91aebaaca5d6724676b2c4", "type": "electric_scooter", "is_reserved": 0, "lon": -77.04047766666666}, {"fusion_lat": 0.0, "name": "7aead1040e4a607a2ee33b21df8b77a9", "is_disabled": 0, "rental_uris": {"android": "https://dc.lft.to/lastmile_qr_scan", "ios": "https://dc.lft.to/lastmile_qr_scan"}, "fusion_lon": 0.0, "lat": 38.9241895, "bike_id": "7aead1040e4a607a2ee33b21df8b77a9", "type": "electric_bike", "is_reserved": 0, "lon": -77.23258633333333}, {"fusion_lat": 0.0, "name": "75e5a823f837f03798ac45afdf3ee21f", "is_disabled": 0, "rental_uris": {"android": "https://dc.lft.to/lastmile_qr_scan", "ios": "https://dc.lft.to/lastmile_qr_scan"}, "fusion_lon": 0.0, "lat": 38.911955166666665, "bike_id": "75e5a823f837f03798ac45afdf3ee21f", "type": "electric_scooter", "is_reserved": 0, "lon": -77.03181433333333}, {"fusion_lat": 0.0, "name": "859e9c8cc6301f4aebd2c5ee44935297", "is_disabled": 0, "rental_uris": {"android": "https://dc.lft.to/lastmile_qr_scan", "ios": "https://dc.lft.to/lastmile_qr_scan"}, "fusion_lon": 0.0, "lat": 38.885216166666666, "bike_id": "859e9c8cc6301f4aebd2c5ee44935297", "type": "electric_scooter", "is_reserved": 0, "lon": -76.996225}, {"fusion_lat": 0.0, "name": "3d84e1849d0192c307268a13d86ffa8d", "is_disabled": 0, "rental_uris": {"android": "https://dc.lft.to/lastmile_qr_scan", "ios": "https://dc.lft.to/lastmile_qr_scan"}, "fusion_lon": 0.0, "lat": 38.898503833333336, "bike_id": "3d84e1849d0192c307268a13d86ffa8d", "type": "electric_scooter", "is_reserved": 0, "lon": -76.95047283333334}, {"fusion_lat": 0.0, "name": "0a4961ad5de950491fcb102a3ae11590", "is_disabled": 0, "rental_uris": {"android": "https://dc.lft.to/lastmile_qr_scan", "ios": "https://dc.lft.to/lastmile_qr_scan"}, "fusion_lon": 0.0, "lat": 38.905827333333335, "bike_id": "0a4961ad5de950491fcb102a3ae11590", "type": "electric_scooter", "is_reserved": 0, "lon": -77.04705983333334}, {"fusion_lat": 0.0, "name": "75d3c3c247236b144cc5f5470c1fc902", "is_disabled": 0, "rental_uris": {"android": "https://dc.lft.to/lastmile_qr_scan", "ios": "https://dc.lft.to/lastmile_qr_scan"}, "fusion_lon": 0.0, "lat": 38.9116675, "bike_id": "75d3c3c247236b144cc5f5470c1fc902", "type": "electric_scooter", "is_reserved": 0, "lon": -77.03190883333333}, {"fusion_lat": 0.0, "name": "d1de48bb79980202e16deb1fd39ebd6d", "is_disabled": 0, "rental_uris": {"android": "https://dc.lft.to/lastmile_qr_scan", "ios": "https://dc.lft.to/lastmile_qr_scan"}, "fusion_lon": 0.0, "lat": 38.89885683333333, "bike_id": "d1de48bb79980202e16deb1fd39ebd6d", "type": "electric_scooter", "is_reserved": 0, "lon": -77.02730883333334}, {"fusion_lat": 0.0, "name": "d5fe33b3d2c00e440544f432e77eb85f", "is_disabled": 0, "rental_uris": {"android": "https://dc.lft.to/lastmile_qr_scan", "ios": "https://dc.lft.to/lastmile_qr_scan"}, "fusion_lon": 0.0, "lat": 38.931762, "bike_id": "d5fe33b3d2c00e440544f432e77eb85f", "type": "electric_scooter", "is_reserved": 0, "lon": -77.023533}, {"fusion_lat": 0.0, "name": "9e2f1eb23be0abf6d67c3e18c8f4cf37", "is_disabled": 0, "rental_uris": {"android": "https://dc.lft.to/lastmile_qr_scan", "ios": "https://dc.lft.to/lastmile_qr_scan"}, "fusion_lon": 0.0, "lat": 38.89943233333334, "bike_id": "9e2f1eb23be0abf6d67c3e18c8f4cf37", "type": "electric_scooter", "is_reserved": 0, "lon": -77.04021466666667}, {"fusion_lat": 0.0, "name": "7734eb6a66928a8d6e1f1d06c7298323", "is_disabled": 0, "rental_uris": {"android": "https://dc.lft.to/lastmile_qr_scan", "ios": "https://dc.lft.to/lastmile_qr_scan"}, "fusion_lon": 0.0, "lat": 38.90242116666667, "bike_id": "7734eb6a66928a8d6e1f1d06c7298323", "type": "electric_scooter", "is_reserved": 0, "lon": -77.00203533333334}, {"fusion_lat": 0.0, "name": "aa0b985847b1741e7fe375e2cfb45e71", "is_disabled": 0, "rental_uris": {"android": "https://dc.lft.to/lastmile_qr_scan", "ios": "https://dc.lft.to/lastmile_qr_scan"}, "fusion_lon": 0.0, "lat": 38.906491333333335, "bike_id": "aa0b985847b1741e7fe375e2cfb45e71", "type": "electric_scooter", "is_reserved": 0, "lon": -77.02220783333334}, {"fusion_lat": 0.0, "name": "c8482c52f476dbddd8db90818780a4a1", "is_disabled": 0, "rental_uris": {"android": "https://dc.lft.to/lastmile_qr_scan", "ios": "https://dc.lft.to/lastmile_qr_scan"}, "fusion_lon": 0.0, "lat": 38.91750183333333, "bike_id": "c8482c52f476dbddd8db90818780a4a1", "type": "electric_scooter", "is_reserved": 0, "lon": -77.0693955}, {"fusion_lat": 0.0, "name": "be4dc84e9f836ceb19d40df0e7254d43", "is_disabled": 0, "rental_uris": {"android": "https://dc.lft.to/lastmile_qr_scan", "ios": "https://dc.lft.to/lastmile_qr_scan"}, "fusion_lon": 0.0, "lat": 38.91116316666667, "bike_id": "be4dc84e9f836ceb19d40df0e7254d43", "type": "electric_scooter", "is_reserved": 0, "lon": -77.01882283333333}, {"fusion_lat": 0.0, "name": "5741806db468eb598a0ae4f99f29b7a4", "is_disabled": 0, "rental_uris": {"android": "https://dc.lft.to/lastmile_qr_scan", "ios": "https://dc.lft.to/lastmile_qr_scan"}, "fusion_lon": 0.0, "lat": 38.91123983333333, "bike_id": "5741806db468eb598a0ae4f99f29b7a4", "type": "electric_scooter", "is_reserved": 0, "lon": -77.04376366666666}, {"fusion_lat": 0.0, "name": "f2d910279ac2d108bccc7a8b5e70c1fe", "is_disabled": 0, "rental_uris": {"android": "https://dc.lft.to/lastmile_qr_scan", "ios": "https://dc.lft.to/lastmile_qr_scan"}, "fusion_lon": 0.0, "lat": 38.90622533333333, "bike_id": "f2d910279ac2d108bccc7a8b5e70c1fe", "type": "electric_scooter", "is_reserved": 0, "lon": -77.0260445}, {"fusion_lat": 0.0, "name": "37e1f32050e3340a3ae628fa411d006d", "is_disabled": 0, "rental_uris": {"android": "https://dc.lft.to/lastmile_qr_scan", "ios": "https://dc.lft.to/lastmile_qr_scan"}, "fusion_lon": 0.0, "lat": 38.95240316666667, "bike_id": "37e1f32050e3340a3ae628fa411d006d", "type": "electric_bike", "is_reserved": 0, "lon": -76.97960716666667}, {"fusion_lat": 0.0, "name": "be6b191d4699b1d82e6d095cd8c303bd", "is_disabled": 0, "rental_uris": {"android": "https://dc.lft.to/lastmile_qr_scan", "ios": "https://dc.lft.to/lastmile_qr_scan"}, "fusion_lon": 0.0, "lat": 38.91632766666667, "bike_id": "be6b191d4699b1d82e6d095cd8c303bd", "type": "electric_scooter", "is_reserved": 0, "lon": -77.02971433333333}, {"fusion_lat": 0.0, "name": "e74db9432bbdc15b02ca5c3bfcd73c15", "is_disabled": 0, "rental_uris": {"android": "https://dc.lft.to/lastmile_qr_scan", "ios": "https://dc.lft.to/lastmile_qr_scan"}, "fusion_lon": 0.0, "lat": 38.88016066666667, "bike_id": "e74db9432bbdc15b02ca5c3bfcd73c15", "type": "electric_scooter", "is_reserved": 0, "lon": -76.98069116666667}, {"fusion_lat": 0.0, "name": "4330038f9306a379235e8c66a17a398e", "is_disabled": 0, "rental_uris": {"android": "https://dc.lft.to/lastmile_qr_scan", "ios": "https://dc.lft.to/lastmile_qr_scan"}, "fusion_lon": 0.0, "lat": 38.9574775, "bike_id": "4330038f9306a379235e8c66a17a398e", "type": "electric_scooter", "is_reserved": 0, "lon": -77.02336133333333}, {"fusion_lat": 0.0, "name": "f2be7d206b909f04a4e14482bf9983c9", "is_disabled": 0, "rental_uris": {"android": "https://dc.lft.to/lastmile_qr_scan", "ios": "https://dc.lft.to/lastmile_qr_scan"}, "fusion_lon": 0.0, "lat": 38.92390233333333, "bike_id": "f2be7d206b909f04a4e14482bf9983c9", "type": "electric_scooter", "is_reserved": 0, "lon": -77.02454083333333}, {"fusion_lat": 0.0, "name": "d2c5802255717bc6def7f0b9343f394f", "is_disabled": 0, "rental_uris": {"android": "https://dc.lft.to/lastmile_qr_scan", "ios": "https://dc.lft.to/lastmile_qr_scan"}, "fusion_lon": 0.0, "lat": 38.939569166666665, "bike_id": "d2c5802255717bc6def7f0b9343f394f", "type": "electric_scooter", "is_reserved": 0, "lon": -77.0328585}, {"fusion_lat": 0.0, "name": "833993764acfb6bee0eede90920228dd", "is_disabled": 0, "rental_uris": {"android": "https://dc.lft.to/lastmile_qr_scan", "ios": "https://dc.lft.to/lastmile_qr_scan"}, "fusion_lon": 0.0, "lat": 38.9285985, "bike_id": "833993764acfb6bee0eede90920228dd", "type": "electric_scooter", "is_reserved": 0, "lon": -77.03527816666667}, {"fusion_lat": 0.0, "name": "76a365645ba09888a185bde7ef7a7ec9", "is_disabled": 0, "rental_uris": {"android": "https://dc.lft.to/lastmile_qr_scan", "ios": "https://dc.lft.to/lastmile_qr_scan"}, "fusion_lon": 0.0, "lat": 38.90213266666667, "bike_id": "76a365645ba09888a185bde7ef7a7ec9", "type": "electric_scooter", "is_reserved": 0, "lon": -76.986153}, {"fusion_lat": 0.0, "name": "8495dc917f5b6bca4dc3023a47474742", "is_disabled": 0, "rental_uris": {"android": "https://dc.lft.to/lastmile_qr_scan", "ios": "https://dc.lft.to/lastmile_qr_scan"}, "fusion_lon": 0.0, "lat": 38.908229166666665, "bike_id": "8495dc917f5b6bca4dc3023a47474742", "type": "electric_scooter", "is_reserved": 0, "lon": -77.00223316666667}, {"fusion_lat": 0.0, "name": "581e389915ee13ba49c4c4bff672d941", "is_disabled": 0, "rental_uris": {"android": "https://dc.lft.to/lastmile_qr_scan", "ios": "https://dc.lft.to/lastmile_qr_scan"}, "fusion_lon": 0.0, "lat": 38.873721, "bike_id": "581e389915ee13ba49c4c4bff672d941", "type": "electric_scooter", "is_reserved": 0, "lon": -77.0009945}, {"fusion_lat": 0.0, "name": "5c85820da1de15cb3d7495deb0db064c", "is_disabled": 0, "rental_uris": {"android": "https://dc.lft.to/lastmile_qr_scan", "ios": "https://dc.lft.to/lastmile_qr_scan"}, "fusion_lon": 0.0, "lat": 38.914413833333334, "bike_id": "5c85820da1de15cb3d7495deb0db064c", "type": "electric_scooter", "is_reserved": 0, "lon": -77.02290516666666}, {"fusion_lat": 0.0, "name": "c5f6c64b9d9fad0a981af50c99d087eb", "is_disabled": 0, "rental_uris": {"android": "https://dc.lft.to/lastmile_qr_scan", "ios": "https://dc.lft.to/lastmile_qr_scan"}, "fusion_lon": 0.0, "lat": 38.90897733333333, "bike_id": "c5f6c64b9d9fad0a981af50c99d087eb", "type": "electric_scooter", "is_reserved": 0, "lon": -77.04400566666666}, {"fusion_lat": 0.0, "name": "fb6e888c9272a745bc542d264142adf2", "is_disabled": 0, "rental_uris": {"android": "https://dc.lft.to/lastmile_qr_scan", "ios": "https://dc.lft.to/lastmile_qr_scan"}, "fusion_lon": 0.0, "lat": 38.90037233333334, "bike_id": "fb6e888c9272a745bc542d264142adf2", "type": "electric_scooter", "is_reserved": 0, "lon": -76.992574}, {"fusion_lat": 0.0, "name": "7fdb9a33ad30a86ba78a3efdac33673b", "is_disabled": 0, "rental_uris": {"android": "https://dc.lft.to/lastmile_qr_scan", "ios": "https://dc.lft.to/lastmile_qr_scan"}, "fusion_lon": 0.0, "lat": 38.91762266666667, "bike_id": "7fdb9a33ad30a86ba78a3efdac33673b", "type": "electric_scooter", "is_reserved": 0, "lon": -77.06953116666666}, {"fusion_lat": 0.0, "name": "c20180a05859764c91c518e1a1e5a017", "is_disabled": 0, "rental_uris": {"android": "https://dc.lft.to/lastmile_qr_scan", "ios": "https://dc.lft.to/lastmile_qr_scan"}, "fusion_lon": 0.0, "lat": 38.892922666666664, "bike_id": "c20180a05859764c91c518e1a1e5a017", "type": "electric_scooter", "is_reserved": 0, "lon": -77.03204}, {"fusion_lat": 0.0, "name": "b22f9c9d9dfe39c6f50e8ecf97ada015", "is_disabled": 0, "rental_uris": {"android": "https://dc.lft.to/lastmile_qr_scan", "ios": "https://dc.lft.to/lastmile_qr_scan"}, "fusion_lon": 0.0, "lat": 38.906905, "bike_id": "b22f9c9d9dfe39c6f50e8ecf97ada015", "type": "electric_scooter", "is_reserved": 0, "lon": -77.0633465}, {"fusion_lat": 0.0, "name": "681768fbb6f73827c9bd053f20c276c7", "is_disabled": 0, "rental_uris": {"android": "https://dc.lft.to/lastmile_qr_scan", "ios": "https://dc.lft.to/lastmile_qr_scan"}, "fusion_lon": 0.0, "lat": 38.902411, "bike_id": "681768fbb6f73827c9bd053f20c276c7", "type": "electric_scooter", "is_reserved": 0, "lon": -77.001981}, {"fusion_lat": 0.0, "name": "0b51f0d7e8809c2a33c42d6947137b64", "is_disabled": 0, "rental_uris": {"android": "https://dc.lft.to/lastmile_qr_scan", "ios": "https://dc.lft.to/lastmile_qr_scan"}, "fusion_lon": 0.0, "lat": 38.873847166666664, "bike_id": "0b51f0d7e8809c2a33c42d6947137b64", "type": "electric_scooter", "is_reserved": 0, "lon": -77.000649}, {"fusion_lat": 0.0, "name": "bd2bbd7e7d213b72d5fab736969046a9", "is_disabled": 0, "rental_uris": {"android": "https://dc.lft.to/lastmile_qr_scan", "ios": "https://dc.lft.to/lastmile_qr_scan"}, "fusion_lon": 0.0, "lat": 38.874673, "bike_id": "bd2bbd7e7d213b72d5fab736969046a9", "type": "electric_scooter", "is_reserved": 0, "lon": -77.00473016666666}, {"fusion_lat": 0.0, "name": "cb61cf61ff475fb8fc5e136ba122a5d5", "is_disabled": 0, "rental_uris": {"android": "https://dc.lft.to/lastmile_qr_scan", "ios": "https://dc.lft.to/lastmile_qr_scan"}, "fusion_lon": 0.0, "lat": 38.926413833333335, "bike_id": "cb61cf61ff475fb8fc5e136ba122a5d5", "type": "electric_scooter", "is_reserved": 0, "lon": -77.0414135}, {"fusion_lat": 0.0, "name": "0a06c3fa3f960d2d68ebd499647d3de9", "is_disabled": 0, "rental_uris": {"android": "https://dc.lft.to/lastmile_qr_scan", "ios": "https://dc.lft.to/lastmile_qr_scan"}, "fusion_lon": 0.0, "lat": 38.92663916666667, "bike_id": "0a06c3fa3f960d2d68ebd499647d3de9", "type": "electric_scooter", "is_reserved": 0, "lon": -77.02310133333333}, {"fusion_lat": 0.0, "name": "e523adba197b59861220ed2495355959", "is_disabled": 0, "rental_uris": {"android": "https://dc.lft.to/lastmile_qr_scan", "ios": "https://dc.lft.to/lastmile_qr_scan"}, "fusion_lon": 0.0, "lat": 38.9077, "bike_id": "e523adba197b59861220ed2495355959", "type": "electric_scooter", "is_reserved": 0, "lon": -76.9936375}, {"fusion_lat": 0.0, "name": "7bb4f890908f50594fb0876bcb596281", "is_disabled": 0, "rental_uris": {"android": "https://dc.lft.to/lastmile_qr_scan", "ios": "https://dc.lft.to/lastmile_qr_scan"}, "fusion_lon": 0.0, "lat": 38.89470816666667, "bike_id": "7bb4f890908f50594fb0876bcb596281", "type": "electric_scooter", "is_reserved": 0, "lon": -77.01766266666667}, {"fusion_lat": 0.0, "name": "13b5e747907052890e462f6248ce7efe", "is_disabled": 0, "rental_uris": {"android": "https://dc.lft.to/lastmile_qr_scan", "ios": "https://dc.lft.to/lastmile_qr_scan"}, "fusion_lon": 0.0, "lat": 38.918084, "bike_id": "13b5e747907052890e462f6248ce7efe", "type": "electric_scooter", "is_reserved": 0, "lon": -77.026841}, {"fusion_lat": 0.0, "name": "5e923a891a28c48ed6fde399906b3cd1", "is_disabled": 0, "rental_uris": {"android": "https://dc.lft.to/lastmile_qr_scan", "ios": "https://dc.lft.to/lastmile_qr_scan"}, "fusion_lon": 0.0, "lat": 38.92135733333333, "bike_id": "5e923a891a28c48ed6fde399906b3cd1", "type": "electric_scooter", "is_reserved": 0, "lon": -77.02428283333333}, {"fusion_lat": 0.0, "name": "1ed5d5cb5b2dcc848b6ae3ec96c77144", "is_disabled": 0, "rental_uris": {"android": "https://dc.lft.to/lastmile_qr_scan", "ios": "https://dc.lft.to/lastmile_qr_scan"}, "fusion_lon": 0.0, "lat": 38.92758166666667, "bike_id": "1ed5d5cb5b2dcc848b6ae3ec96c77144", "type": "electric_scooter", "is_reserved": 0, "lon": -77.02963233333334}, {"fusion_lat": 0.0, "name": "f2c50b77bcbdf71e0db4b645bda67fe5", "is_disabled": 0, "rental_uris": {"android": "https://dc.lft.to/lastmile_qr_scan", "ios": "https://dc.lft.to/lastmile_qr_scan"}, "fusion_lon": 0.0, "lat": 38.9015585, "bike_id": "f2c50b77bcbdf71e0db4b645bda67fe5", "type": "electric_scooter", "is_reserved": 0, "lon": -77.03316766666667}, {"fusion_lat": 0.0, "name": "1dbfb7f440077266115356279db26af4", "is_disabled": 0, "rental_uris": {"android": "https://dc.lft.to/lastmile_qr_scan", "ios": "https://dc.lft.to/lastmile_qr_scan"}, "fusion_lon": 0.0, "lat": 38.908802333333334, "bike_id": "1dbfb7f440077266115356279db26af4", "type": "electric_scooter", "is_reserved": 0, "lon": -77.04349883333333}, {"fusion_lat": 0.0, "name": "06865ee3b314bba30a2a4952960b2014", "is_disabled": 0, "rental_uris": {"android": "https://dc.lft.to/lastmile_qr_scan", "ios": "https://dc.lft.to/lastmile_qr_scan"}, "fusion_lon": 0.0, "lat": 38.896099, "bike_id": "06865ee3b314bba30a2a4952960b2014", "type": "electric_scooter", "is_reserved": 0, "lon": -76.98107166666667}, {"fusion_lat": 0.0, "name": "123114403e38063c73aa33b5551c23d6", "is_disabled": 0, "rental_uris": {"android": "https://dc.lft.to/lastmile_qr_scan", "ios": "https://dc.lft.to/lastmile_qr_scan"}, "fusion_lon": 0.0, "lat": 38.897836833333336, "bike_id": "123114403e38063c73aa33b5551c23d6", "type": "electric_scooter", "is_reserved": 0, "lon": -77.02396033333333}, {"fusion_lat": 0.0, "name": "eca43215ef79366f23e00ff4becc2e52", "is_disabled": 0, "rental_uris": {"android": "https://dc.lft.to/lastmile_qr_scan", "ios": "https://dc.lft.to/lastmile_qr_scan"}, "fusion_lon": 0.0, "lat": 38.941947166666665, "bike_id": "eca43215ef79366f23e00ff4becc2e52", "type": "electric_scooter", "is_reserved": 0, "lon": -77.02569833333334}, {"fusion_lat": 0.0, "name": "67ed9a6c92c6bdfa3199b31d90ac7371", "is_disabled": 0, "rental_uris": {"android": "https://dc.lft.to/lastmile_qr_scan", "ios": "https://dc.lft.to/lastmile_qr_scan"}, "fusion_lon": 0.0, "lat": 38.884565, "bike_id": "67ed9a6c92c6bdfa3199b31d90ac7371", "type": "electric_scooter", "is_reserved": 0, "lon": -76.9262135}, {"fusion_lat": 0.0, "name": "3623b903724e08aed9e59c746fc180b8", "is_disabled": 0, "rental_uris": {"android": "https://dc.lft.to/lastmile_qr_scan", "ios": "https://dc.lft.to/lastmile_qr_scan"}, "fusion_lon": 0.0, "lat": 38.91713033333333, "bike_id": "3623b903724e08aed9e59c746fc180b8", "type": "electric_scooter", "is_reserved": 0, "lon": -77.034756}, {"fusion_lat": 0.0, "name": "9407601f6129fd19ad4adce6c24e5d17", "is_disabled": 0, "rental_uris": {"android": "https://dc.lft.to/lastmile_qr_scan", "ios": "https://dc.lft.to/lastmile_qr_scan"}, "fusion_lon": 0.0, "lat": 38.923422, "bike_id": "9407601f6129fd19ad4adce6c24e5d17", "type": "electric_scooter", "is_reserved": 0, "lon": -77.05181283333333}, {"fusion_lat": 0.0, "name": "be68b396001f49cff7db13ebf661b70c", "is_disabled": 0, "rental_uris": {"android": "https://dc.lft.to/lastmile_qr_scan", "ios": "https://dc.lft.to/lastmile_qr_scan"}, "fusion_lon": 0.0, "lat": 38.9054245, "bike_id": "be68b396001f49cff7db13ebf661b70c", "type": "electric_scooter", "is_reserved": 0, "lon": -77.05912016666667}, {"fusion_lat": 0.0, "name": "4d4dbd36f998bcea3a9f62760c9e8582", "is_disabled": 0, "rental_uris": {"android": "https://dc.lft.to/lastmile_qr_scan", "ios": "https://dc.lft.to/lastmile_qr_scan"}, "fusion_lon": 0.0, "lat": 38.932242, "bike_id": "4d4dbd36f998bcea3a9f62760c9e8582", "type": "electric_scooter", "is_reserved": 0, "lon": -76.994931}, {"fusion_lat": 0.0, "name": "a128e035b8323035a0b0b10c29e2b3e5", "is_disabled": 0, "rental_uris": {"android": "https://dc.lft.to/lastmile_qr_scan", "ios": "https://dc.lft.to/lastmile_qr_scan"}, "fusion_lon": 0.0, "lat": 38.89639483333333, "bike_id": "a128e035b8323035a0b0b10c29e2b3e5", "type": "electric_scooter", "is_reserved": 0, "lon": -77.009265}, {"fusion_lat": 0.0, "name": "448ec6e640ec0f5e99a59f3bb625ad8d", "is_disabled": 0, "rental_uris": {"android": "https://dc.lft.to/lastmile_qr_scan", "ios": "https://dc.lft.to/lastmile_qr_scan"}, "fusion_lon": 0.0, "lat": 38.90514066666667, "bike_id": "448ec6e640ec0f5e99a59f3bb625ad8d", "type": "electric_scooter", "is_reserved": 0, "lon": -77.02963683333333}, {"fusion_lat": 0.0, "name": "6388684b3dcdf0dfd3fc3f7676b552ed", "is_disabled": 0, "rental_uris": {"android": "https://dc.lft.to/lastmile_qr_scan", "ios": "https://dc.lft.to/lastmile_qr_scan"}, "fusion_lon": 0.0, "lat": 38.902427, "bike_id": "6388684b3dcdf0dfd3fc3f7676b552ed", "type": "electric_scooter", "is_reserved": 0, "lon": -77.06136733333334}, {"fusion_lat": 0.0, "name": "6b392d22f0d9e0431ce6cb3cefdb85e8", "is_disabled": 0, "rental_uris": {"android": "https://dc.lft.to/lastmile_qr_scan", "ios": "https://dc.lft.to/lastmile_qr_scan"}, "fusion_lon": 0.0, "lat": 38.92489283333333, "bike_id": "6b392d22f0d9e0431ce6cb3cefdb85e8", "type": "electric_scooter", "is_reserved": 0, "lon": -77.025428}, {"fusion_lat": 0.0, "name": "d016ce59d7e8d67544dbb4bb95612898", "is_disabled": 0, "rental_uris": {"android": "https://dc.lft.to/lastmile_qr_scan", "ios": "https://dc.lft.to/lastmile_qr_scan"}, "fusion_lon": 0.0, "lat": 38.92863783333333, "bike_id": "d016ce59d7e8d67544dbb4bb95612898", "type": "electric_scooter", "is_reserved": 0, "lon": -77.03040383333334}, {"fusion_lat": 0.0, "name": "9eb4b89786d3728d72c7b24c426ae955", "is_disabled": 0, "rental_uris": {"android": "https://dc.lft.to/lastmile_qr_scan", "ios": "https://dc.lft.to/lastmile_qr_scan"}, "fusion_lon": 0.0, "lat": 38.90835716666667, "bike_id": "9eb4b89786d3728d72c7b24c426ae955", "type": "electric_scooter", "is_reserved": 0, "lon": -77.03854933333334}, {"fusion_lat": 0.0, "name": "e66c5dfac044b9974e21f3cd3f688232", "is_disabled": 0, "rental_uris": {"android": "https://dc.lft.to/lastmile_qr_scan", "ios": "https://dc.lft.to/lastmile_qr_scan"}, "fusion_lon": 0.0, "lat": 38.99444033333333, "bike_id": "e66c5dfac044b9974e21f3cd3f688232", "type": "electric_bike", "is_reserved": 0, "lon": -76.9959055}, {"fusion_lat": 0.0, "name": "f3538cc11994397676ce97f406b4de05", "is_disabled": 0, "rental_uris": {"android": "https://dc.lft.to/lastmile_qr_scan", "ios": "https://dc.lft.to/lastmile_qr_scan"}, "fusion_lon": 0.0, "lat": 38.93477683333333, "bike_id": "f3538cc11994397676ce97f406b4de05", "type": "electric_scooter", "is_reserved": 0, "lon": -77.072722}, {"fusion_lat": 0.0, "name": "8f3abaf4e69b913c20d6eb4d17cba457", "is_disabled": 0, "rental_uris": {"android": "https://dc.lft.to/lastmile_qr_scan", "ios": "https://dc.lft.to/lastmile_qr_scan"}, "fusion_lon": 0.0, "lat": 38.89330616666667, "bike_id": "8f3abaf4e69b913c20d6eb4d17cba457", "type": "electric_scooter", "is_reserved": 0, "lon": -76.94380266666667}, {"fusion_lat": 0.0, "name": "a8200289e062c564ce617862cac02e82", "is_disabled": 0, "rental_uris": {"android": "https://dc.lft.to/lastmile_qr_scan", "ios": "https://dc.lft.to/lastmile_qr_scan"}, "fusion_lon": 0.0, "lat": 38.93353366666667, "bike_id": "a8200289e062c564ce617862cac02e82", "type": "electric_scooter", "is_reserved": 0, "lon": -77.0721745}, {"fusion_lat": 0.0, "name": "f6c8248e3463accbae668e000ec8e73f", "is_disabled": 0, "rental_uris": {"android": "https://dc.lft.to/lastmile_qr_scan", "ios": "https://dc.lft.to/lastmile_qr_scan"}, "fusion_lon": 0.0, "lat": 38.919889833333336, "bike_id": "f6c8248e3463accbae668e000ec8e73f", "type": "electric_scooter", "is_reserved": 0, "lon": -77.0217835}, {"fusion_lat": 0.0, "name": "fffcb15d88278d6a8b549d8e7a3d66f3", "is_disabled": 0, "rental_uris": {"android": "https://dc.lft.to/lastmile_qr_scan", "ios": "https://dc.lft.to/lastmile_qr_scan"}, "fusion_lon": 0.0, "lat": 38.931033166666666, "bike_id": "fffcb15d88278d6a8b549d8e7a3d66f3", "type": "electric_scooter", "is_reserved": 0, "lon": -77.02480183333333}, {"fusion_lat": 0.0, "name": "66a62a6b4b4f4caf94d292855ecb2197", "is_disabled": 0, "rental_uris": {"android": "https://dc.lft.to/lastmile_qr_scan", "ios": "https://dc.lft.to/lastmile_qr_scan"}, "fusion_lon": 0.0, "lat": 38.931080333333334, "bike_id": "66a62a6b4b4f4caf94d292855ecb2197", "type": "electric_scooter", "is_reserved": 0, "lon": -77.02971966666667}, {"fusion_lat": 0.0, "name": "9ec52a7a31b68747c405c540fd9fa9c4", "is_disabled": 0, "rental_uris": {"android": "https://dc.lft.to/lastmile_qr_scan", "ios": "https://dc.lft.to/lastmile_qr_scan"}, "fusion_lon": 0.0, "lat": 38.91733166666667, "bike_id": "9ec52a7a31b68747c405c540fd9fa9c4", "type": "electric_scooter", "is_reserved": 0, "lon": -77.03202816666666}, {"fusion_lat": 0.0, "name": "b78bc56d1ae73a1e5d5465dedd85e693", "is_disabled": 0, "rental_uris": {"android": "https://dc.lft.to/lastmile_qr_scan", "ios": "https://dc.lft.to/lastmile_qr_scan"}, "fusion_lon": 0.0, "lat": 38.94188583333333, "bike_id": "b78bc56d1ae73a1e5d5465dedd85e693", "type": "electric_scooter", "is_reserved": 0, "lon": -77.024846}, {"fusion_lat": 0.0, "name": "8b1d8be220bca23ed7c70ea79f977b47", "is_disabled": 0, "rental_uris": {"android": "https://dc.lft.to/lastmile_qr_scan", "ios": "https://dc.lft.to/lastmile_qr_scan"}, "fusion_lon": 0.0, "lat": 38.9030685, "bike_id": "8b1d8be220bca23ed7c70ea79f977b47", "type": "electric_scooter", "is_reserved": 0, "lon": -76.97653333333334}, {"fusion_lat": 0.0, "name": "5265ed91fa235a54bf1a3b0cc0145425", "is_disabled": 0, "rental_uris": {"android": "https://dc.lft.to/lastmile_qr_scan", "ios": "https://dc.lft.to/lastmile_qr_scan"}, "fusion_lon": 0.0, "lat": 38.921272, "bike_id": "5265ed91fa235a54bf1a3b0cc0145425", "type": "electric_scooter", "is_reserved": 0, "lon": -77.0442745}, {"fusion_lat": 0.0, "name": "7d639f93c70c44425716d4a9024d1c48", "is_disabled": 0, "rental_uris": {"android": "https://dc.lft.to/lastmile_qr_scan", "ios": "https://dc.lft.to/lastmile_qr_scan"}, "fusion_lon": 0.0, "lat": 38.899312333333334, "bike_id": "7d639f93c70c44425716d4a9024d1c48", "type": "electric_scooter", "is_reserved": 0, "lon": -77.02199383333334}, {"fusion_lat": 0.0, "name": "630cc536f122260fe70c43c884763ecb", "is_disabled": 0, "rental_uris": {"android": "https://dc.lft.to/lastmile_qr_scan", "ios": "https://dc.lft.to/lastmile_qr_scan"}, "fusion_lon": 0.0, "lat": 38.924481666666665, "bike_id": "630cc536f122260fe70c43c884763ecb", "type": "electric_scooter", "is_reserved": 0, "lon": -77.03970233333334}, {"fusion_lat": 0.0, "name": "6e8f74b61948ea6e0533ca16135b3a52", "is_disabled": 0, "rental_uris": {"android": "https://dc.lft.to/lastmile_qr_scan", "ios": "https://dc.lft.to/lastmile_qr_scan"}, "fusion_lon": 0.0, "lat": 38.90957, "bike_id": "6e8f74b61948ea6e0533ca16135b3a52", "type": "electric_scooter", "is_reserved": 0, "lon": -77.02385083333333}, {"fusion_lat": 0.0, "name": "bf334929d2bef00d8640b9492083544a", "is_disabled": 0, "rental_uris": {"android": "https://dc.lft.to/lastmile_qr_scan", "ios": "https://dc.lft.to/lastmile_qr_scan"}, "fusion_lon": 0.0, "lat": 38.90593766666667, "bike_id": "bf334929d2bef00d8640b9492083544a", "type": "electric_scooter", "is_reserved": 0, "lon": -77.00288883333333}, {"fusion_lat": 0.0, "name": "4c805a3f8067022de09c706f77c97776", "is_disabled": 0, "rental_uris": {"android": "https://dc.lft.to/lastmile_qr_scan", "ios": "https://dc.lft.to/lastmile_qr_scan"}, "fusion_lon": 0.0, "lat": 38.88753083333334, "bike_id": "4c805a3f8067022de09c706f77c97776", "type": "electric_scooter", "is_reserved": 0, "lon": -77.0213105}, {"fusion_lat": 0.0, "name": "231d3396c5514e60b3959e7d95349275", "is_disabled": 0, "rental_uris": {"android": "https://dc.lft.to/lastmile_qr_scan", "ios": "https://dc.lft.to/lastmile_qr_scan"}, "fusion_lon": 0.0, "lat": 38.898746, "bike_id": "231d3396c5514e60b3959e7d95349275", "type": "electric_bike", "is_reserved": 0, "lon": -77.11331}, {"fusion_lat": 0.0, "name": "e92fad537bbb24c4e936f0c3f341e4ae", "is_disabled": 0, "rental_uris": {"android": "https://dc.lft.to/lastmile_qr_scan", "ios": "https://dc.lft.to/lastmile_qr_scan"}, "fusion_lon": 0.0, "lat": 38.90571383333333, "bike_id": "e92fad537bbb24c4e936f0c3f341e4ae", "type": "electric_scooter", "is_reserved": 0, "lon": -77.01680983333334}, {"fusion_lat": 0.0, "name": "6a4ad80f3bdb229d8918998ef05d013b", "is_disabled": 0, "rental_uris": {"android": "https://dc.lft.to/lastmile_qr_scan", "ios": "https://dc.lft.to/lastmile_qr_scan"}, "fusion_lon": 0.0, "lat": 38.88168533333333, "bike_id": "6a4ad80f3bdb229d8918998ef05d013b", "type": "electric_scooter", "is_reserved": 0, "lon": -77.027758}, {"fusion_lat": 0.0, "name": "a91eddbb5be802775bb4161ca7f396f5", "is_disabled": 0, "rental_uris": {"android": "https://dc.lft.to/lastmile_qr_scan", "ios": "https://dc.lft.to/lastmile_qr_scan"}, "fusion_lon": 0.0, "lat": 38.955618666666666, "bike_id": "a91eddbb5be802775bb4161ca7f396f5", "type": "electric_bike", "is_reserved": 0, "lon": -77.0244005}, {"fusion_lat": 0.0, "name": "c0d385c855e3e168e5a82b891d0f85f7", "is_disabled": 0, "rental_uris": {"android": "https://dc.lft.to/lastmile_qr_scan", "ios": "https://dc.lft.to/lastmile_qr_scan"}, "fusion_lon": 0.0, "lat": 38.965026333333334, "bike_id": "c0d385c855e3e168e5a82b891d0f85f7", "type": "electric_bike", "is_reserved": 0, "lon": -77.02632}, {"fusion_lat": 0.0, "name": "86c0116566ce59d440b488b095423ff3", "is_disabled": 0, "rental_uris": {"android": "https://dc.lft.to/lastmile_qr_scan", "ios": "https://dc.lft.to/lastmile_qr_scan"}, "fusion_lon": 0.0, "lat": 39.01411983333333, "bike_id": "86c0116566ce59d440b488b095423ff3", "type": "electric_bike", "is_reserved": 0, "lon": -77.04508133333333}, {"fusion_lat": 0.0, "name": "d95c71c260bd1929b8b422c2d996a0eb", "is_disabled": 0, "rental_uris": {"android": "https://dc.lft.to/lastmile_qr_scan", "ios": "https://dc.lft.to/lastmile_qr_scan"}, "fusion_lon": 0.0, "lat": 38.899953833333335, "bike_id": "d95c71c260bd1929b8b422c2d996a0eb", "type": "electric_scooter", "is_reserved": 0, "lon": -77.02185966666667}, {"fusion_lat": 0.0, "name": "a150a0ced2f3fe87528564926c46eed2", "is_disabled": 0, "rental_uris": {"android": "https://dc.lft.to/lastmile_qr_scan", "ios": "https://dc.lft.to/lastmile_qr_scan"}, "fusion_lon": 0.0, "lat": 38.92027366666667, "bike_id": "a150a0ced2f3fe87528564926c46eed2", "type": "electric_scooter", "is_reserved": 0, "lon": -77.071486}, {"fusion_lat": 0.0, "name": "fdd7f5f46528a827a02980e5ecd7cc9f", "is_disabled": 0, "rental_uris": {"android": "https://dc.lft.to/lastmile_qr_scan", "ios": "https://dc.lft.to/lastmile_qr_scan"}, "fusion_lon": 0.0, "lat": 38.8957275, "bike_id": "fdd7f5f46528a827a02980e5ecd7cc9f", "type": "electric_scooter", "is_reserved": 0, "lon": -77.02310866666667}, {"fusion_lat": 0.0, "name": "36eaadd9461fc83e299e2e7066f41419", "is_disabled": 0, "rental_uris": {"android": "https://dc.lft.to/lastmile_qr_scan", "ios": "https://dc.lft.to/lastmile_qr_scan"}, "fusion_lon": 0.0, "lat": 38.906625166666664, "bike_id": "36eaadd9461fc83e299e2e7066f41419", "type": "electric_scooter", "is_reserved": 0, "lon": -77.03866266666667}, {"fusion_lat": 0.0, "name": "c483119887e86efc23c01dd90cbc355b", "is_disabled": 0, "rental_uris": {"android": "https://dc.lft.to/lastmile_qr_scan", "ios": "https://dc.lft.to/lastmile_qr_scan"}, "fusion_lon": 0.0, "lat": 38.902579, "bike_id": "c483119887e86efc23c01dd90cbc355b", "type": "electric_scooter", "is_reserved": 0, "lon": -77.01847466666666}, {"fusion_lat": 0.0, "name": "b253e93321834102410159049d160a73", "is_disabled": 0, "rental_uris": {"android": "https://dc.lft.to/lastmile_qr_scan", "ios": "https://dc.lft.to/lastmile_qr_scan"}, "fusion_lon": 0.0, "lat": 38.887455333333335, "bike_id": "b253e93321834102410159049d160a73", "type": "electric_scooter", "is_reserved": 0, "lon": -76.99848933333334}, {"fusion_lat": 0.0, "name": "1939f30dbb00bc573f31e76d5179f5fa", "is_disabled": 0, "rental_uris": {"android": "https://dc.lft.to/lastmile_qr_scan", "ios": "https://dc.lft.to/lastmile_qr_scan"}, "fusion_lon": 0.0, "lat": 38.92130566666667, "bike_id": "1939f30dbb00bc573f31e76d5179f5fa", "type": "electric_scooter", "is_reserved": 0, "lon": -77.04431666666666}, {"fusion_lat": 0.0, "name": "f9cebed8076cc25430375fc7efde7aad", "is_disabled": 0, "rental_uris": {"android": "https://dc.lft.to/lastmile_qr_scan", "ios": "https://dc.lft.to/lastmile_qr_scan"}, "fusion_lon": 0.0, "lat": 38.833612, "bike_id": "f9cebed8076cc25430375fc7efde7aad", "type": "electric_bike", "is_reserved": 0, "lon": -77.00305166666666}, {"fusion_lat": 0.0, "name": "c54461c604a4d9cf4042799a7016e5ce", "is_disabled": 0, "rental_uris": {"android": "https://dc.lft.to/lastmile_qr_scan", "ios": "https://dc.lft.to/lastmile_qr_scan"}, "fusion_lon": 0.0, "lat": 38.921778, "bike_id": "c54461c604a4d9cf4042799a7016e5ce", "type": "electric_scooter", "is_reserved": 0, "lon": -77.0266445}, {"fusion_lat": 0.0, "name": "ca1336a32c1e2f2717d76c2987eaa11a", "is_disabled": 0, "rental_uris": {"android": "https://dc.lft.to/lastmile_qr_scan", "ios": "https://dc.lft.to/lastmile_qr_scan"}, "fusion_lon": 0.0, "lat": 38.90432583333333, "bike_id": "ca1336a32c1e2f2717d76c2987eaa11a", "type": "electric_scooter", "is_reserved": 0, "lon": -76.97950083333333}, {"fusion_lat": 0.0, "name": "8a3fdd5084cb8f2fd9212f5d03bff0d1", "is_disabled": 0, "rental_uris": {"android": "https://dc.lft.to/lastmile_qr_scan", "ios": "https://dc.lft.to/lastmile_qr_scan"}, "fusion_lon": 0.0, "lat": 38.903871, "bike_id": "8a3fdd5084cb8f2fd9212f5d03bff0d1", "type": "electric_scooter", "is_reserved": 0, "lon": -77.03410183333334}, {"fusion_lat": 0.0, "name": "e8eb3cc47d19ccdd4d0bfd406dfa4dc6", "is_disabled": 0, "rental_uris": {"android": "https://dc.lft.to/lastmile_qr_scan", "ios": "https://dc.lft.to/lastmile_qr_scan"}, "fusion_lon": 0.0, "lat": 38.876361, "bike_id": "e8eb3cc47d19ccdd4d0bfd406dfa4dc6", "type": "electric_scooter", "is_reserved": 0, "lon": -77.00920333333333}, {"fusion_lat": 0.0, "name": "620d525217614582f35ceb47c373622a", "is_disabled": 0, "rental_uris": {"android": "https://dc.lft.to/lastmile_qr_scan", "ios": "https://dc.lft.to/lastmile_qr_scan"}, "fusion_lon": 0.0, "lat": 38.929872333333336, "bike_id": "620d525217614582f35ceb47c373622a", "type": "electric_scooter", "is_reserved": 0, "lon": -77.03474666666666}, {"fusion_lat": 0.0, "name": "b4bb26cffa9edae1d969a5a4a584574a", "is_disabled": 0, "rental_uris": {"android": "https://dc.lft.to/lastmile_qr_scan", "ios": "https://dc.lft.to/lastmile_qr_scan"}, "fusion_lon": 0.0, "lat": 38.9299345, "bike_id": "b4bb26cffa9edae1d969a5a4a584574a", "type": "electric_scooter", "is_reserved": 0, "lon": -77.03802266666666}, {"fusion_lat": 0.0, "name": "e5bcfa237806ac75f85392937549cbeb", "is_disabled": 0, "rental_uris": {"android": "https://dc.lft.to/lastmile_qr_scan", "ios": "https://dc.lft.to/lastmile_qr_scan"}, "fusion_lon": 0.0, "lat": 38.90794416666667, "bike_id": "e5bcfa237806ac75f85392937549cbeb", "type": "electric_scooter", "is_reserved": 0, "lon": -77.04338466666667}, {"fusion_lat": 0.0, "name": "da8e34c0b4b12436f34bd0b3da135ca8", "is_disabled": 0, "rental_uris": {"android": "https://dc.lft.to/lastmile_qr_scan", "ios": "https://dc.lft.to/lastmile_qr_scan"}, "fusion_lon": 0.0, "lat": 38.9308165, "bike_id": "da8e34c0b4b12436f34bd0b3da135ca8", "type": "electric_scooter", "is_reserved": 0, "lon": -77.03163483333333}, {"fusion_lat": 0.0, "name": "85b3bc483bae6d99750ded7a5b84de08", "is_disabled": 0, "rental_uris": {"android": "https://dc.lft.to/lastmile_qr_scan", "ios": "https://dc.lft.to/lastmile_qr_scan"}, "fusion_lon": 0.0, "lat": 38.884171, "bike_id": "85b3bc483bae6d99750ded7a5b84de08", "type": "electric_scooter", "is_reserved": 0, "lon": -77.02971183333334}, {"fusion_lat": 0.0, "name": "78df8a820c8ee1d71bcae80e1b618700", "is_disabled": 0, "rental_uris": {"android": "https://dc.lft.to/lastmile_qr_scan", "ios": "https://dc.lft.to/lastmile_qr_scan"}, "fusion_lon": 0.0, "lat": 38.91544616666667, "bike_id": "78df8a820c8ee1d71bcae80e1b618700", "type": "electric_scooter", "is_reserved": 0, "lon": -77.0319855}, {"fusion_lat": 0.0, "name": "a3d7e22016e2e5d73699f8dd7f9cf8d5", "is_disabled": 0, "rental_uris": {"android": "https://dc.lft.to/lastmile_qr_scan", "ios": "https://dc.lft.to/lastmile_qr_scan"}, "fusion_lon": 0.0, "lat": 38.89849183333333, "bike_id": "a3d7e22016e2e5d73699f8dd7f9cf8d5", "type": "electric_scooter", "is_reserved": 0, "lon": -76.98168466666667}, {"fusion_lat": 0.0, "name": "49be787c8656718f1b0aa3dd7913aab1", "is_disabled": 0, "rental_uris": {"android": "https://dc.lft.to/lastmile_qr_scan", "ios": "https://dc.lft.to/lastmile_qr_scan"}, "fusion_lon": 0.0, "lat": 38.835816666666666, "bike_id": "49be787c8656718f1b0aa3dd7913aab1", "type": "electric_bike", "is_reserved": 0, "lon": -76.99010466666667}, {"fusion_lat": 0.0, "name": "d5777f87d3871eeefae9790d5d7d67a2", "is_disabled": 0, "rental_uris": {"android": "https://dc.lft.to/lastmile_qr_scan", "ios": "https://dc.lft.to/lastmile_qr_scan"}, "fusion_lon": 0.0, "lat": 38.9075175, "bike_id": "d5777f87d3871eeefae9790d5d7d67a2", "type": "electric_scooter", "is_reserved": 0, "lon": -77.038323}, {"fusion_lat": 0.0, "name": "bc3de94225960bd8129a1d7dcb3589ac", "is_disabled": 0, "rental_uris": {"android": "https://dc.lft.to/lastmile_qr_scan", "ios": "https://dc.lft.to/lastmile_qr_scan"}, "fusion_lon": 0.0, "lat": 38.939854833333335, "bike_id": "bc3de94225960bd8129a1d7dcb3589ac", "type": "electric_scooter", "is_reserved": 0, "lon": -77.01915616666666}, {"fusion_lat": 0.0, "name": "f5dabd7312d7fdf8b0e8125638245c89", "is_disabled": 0, "rental_uris": {"android": "https://dc.lft.to/lastmile_qr_scan", "ios": "https://dc.lft.to/lastmile_qr_scan"}, "fusion_lon": 0.0, "lat": 38.91005033333333, "bike_id": "f5dabd7312d7fdf8b0e8125638245c89", "type": "electric_scooter", "is_reserved": 0, "lon": -77.0344595}, {"fusion_lat": 0.0, "name": "ef808d54b527b691bc25833512a97b2c", "is_disabled": 0, "rental_uris": {"android": "https://dc.lft.to/lastmile_qr_scan", "ios": "https://dc.lft.to/lastmile_qr_scan"}, "fusion_lon": 0.0, "lat": 38.90019, "bike_id": "ef808d54b527b691bc25833512a97b2c", "type": "electric_scooter", "is_reserved": 0, "lon": -77.01165366666666}, {"fusion_lat": 0.0, "name": "108c4ac28b86a7ee28a6240630b58920", "is_disabled": 0, "rental_uris": {"android": "https://dc.lft.to/lastmile_qr_scan", "ios": "https://dc.lft.to/lastmile_qr_scan"}, "fusion_lon": 0.0, "lat": 39.004804, "bike_id": "108c4ac28b86a7ee28a6240630b58920", "type": "electric_bike", "is_reserved": 0, "lon": -77.02189933333334}, {"fusion_lat": 0.0, "name": "766c2dc617619b89748f462b1f741c21", "is_disabled": 0, "rental_uris": {"android": "https://dc.lft.to/lastmile_qr_scan", "ios": "https://dc.lft.to/lastmile_qr_scan"}, "fusion_lon": 0.0, "lat": 38.94243633333333, "bike_id": "766c2dc617619b89748f462b1f741c21", "type": "electric_scooter", "is_reserved": 0, "lon": -77.03634833333334}, {"fusion_lat": 0.0, "name": "217abe1e4909af8565a685400dbacbd0", "is_disabled": 0, "rental_uris": {"android": "https://dc.lft.to/lastmile_qr_scan", "ios": "https://dc.lft.to/lastmile_qr_scan"}, "fusion_lon": 0.0, "lat": 38.91675766666667, "bike_id": "217abe1e4909af8565a685400dbacbd0", "type": "electric_scooter", "is_reserved": 0, "lon": -77.0271935}, {"fusion_lat": 0.0, "name": "c4231d6b28c0532dd01d8220b6eebe9b", "is_disabled": 0, "rental_uris": {"android": "https://dc.lft.to/lastmile_qr_scan", "ios": "https://dc.lft.to/lastmile_qr_scan"}, "fusion_lon": 0.0, "lat": 38.8865395, "bike_id": "c4231d6b28c0532dd01d8220b6eebe9b", "type": "electric_scooter", "is_reserved": 0, "lon": -77.00199933333333}, {"fusion_lat": 0.0, "name": "cf2ab72dbac83ce582eff7398386ebe9", "is_disabled": 0, "rental_uris": {"android": "https://dc.lft.to/lastmile_qr_scan", "ios": "https://dc.lft.to/lastmile_qr_scan"}, "fusion_lon": 0.0, "lat": 38.90137083333333, "bike_id": "cf2ab72dbac83ce582eff7398386ebe9", "type": "electric_scooter", "is_reserved": 0, "lon": -76.99119683333333}, {"fusion_lat": 0.0, "name": "309da96720528feda811bdc2bc9518cc", "is_disabled": 0, "rental_uris": {"android": "https://dc.lft.to/lastmile_qr_scan", "ios": "https://dc.lft.to/lastmile_qr_scan"}, "fusion_lon": 0.0, "lat": 38.873869, "bike_id": "309da96720528feda811bdc2bc9518cc", "type": "electric_scooter", "is_reserved": 0, "lon": -77.0005515}, {"fusion_lat": 0.0, "name": "bcabd43cbbfda752ec9a71007d433ade", "is_disabled": 0, "rental_uris": {"android": "https://dc.lft.to/lastmile_qr_scan", "ios": "https://dc.lft.to/lastmile_qr_scan"}, "fusion_lon": 0.0, "lat": 38.920757, "bike_id": "bcabd43cbbfda752ec9a71007d433ade", "type": "electric_scooter", "is_reserved": 0, "lon": -77.02311683333333}, {"fusion_lat": 0.0, "name": "5f954554b34b3175f803f6b35b8f99f4", "is_disabled": 0, "rental_uris": {"android": "https://dc.lft.to/lastmile_qr_scan", "ios": "https://dc.lft.to/lastmile_qr_scan"}, "fusion_lon": 0.0, "lat": 38.92645, "bike_id": "5f954554b34b3175f803f6b35b8f99f4", "type": "electric_scooter", "is_reserved": 0, "lon": -77.03392616666666}, {"fusion_lat": 0.0, "name": "6725f731f0b78762808ad37357c72caf", "is_disabled": 0, "rental_uris": {"android": "https://dc.lft.to/lastmile_qr_scan", "ios": "https://dc.lft.to/lastmile_qr_scan"}, "fusion_lon": 0.0, "lat": 38.90586483333333, "bike_id": "6725f731f0b78762808ad37357c72caf", "type": "electric_scooter", "is_reserved": 0, "lon": -77.03413966666666}, {"fusion_lat": 0.0, "name": "8eb2e5a4dad0ca8ce2741993b96ec425", "is_disabled": 0, "rental_uris": {"android": "https://dc.lft.to/lastmile_qr_scan", "ios": "https://dc.lft.to/lastmile_qr_scan"}, "fusion_lon": 0.0, "lat": 38.9203475, "bike_id": "8eb2e5a4dad0ca8ce2741993b96ec425", "type": "electric_scooter", "is_reserved": 0, "lon": -77.07140583333333}, {"fusion_lat": 0.0, "name": "f8e167bc97d841b462ea661511319892", "is_disabled": 0, "rental_uris": {"android": "https://dc.lft.to/lastmile_qr_scan", "ios": "https://dc.lft.to/lastmile_qr_scan"}, "fusion_lon": 0.0, "lat": 38.887617166666665, "bike_id": "f8e167bc97d841b462ea661511319892", "type": "electric_scooter", "is_reserved": 0, "lon": -77.0294585}, {"fusion_lat": 0.0, "name": "71069b5c54e3fdacf2188e34dfdf7fe2", "is_disabled": 0, "rental_uris": {"android": "https://dc.lft.to/lastmile_qr_scan", "ios": "https://dc.lft.to/lastmile_qr_scan"}, "fusion_lon": 0.0, "lat": 38.91199066666667, "bike_id": "71069b5c54e3fdacf2188e34dfdf7fe2", "type": "electric_scooter", "is_reserved": 0, "lon": -77.03180533333334}, {"fusion_lat": 0.0, "name": "9ba24615f6cc9c57df30bb28b7d57f18", "is_disabled": 0, "rental_uris": {"android": "https://dc.lft.to/lastmile_qr_scan", "ios": "https://dc.lft.to/lastmile_qr_scan"}, "fusion_lon": 0.0, "lat": 38.913404, "bike_id": "9ba24615f6cc9c57df30bb28b7d57f18", "type": "electric_bike", "is_reserved": 0, "lon": -76.9890035}, {"fusion_lat": 0.0, "name": "a2e60231e264ad8f70149a3d7bac8b47", "is_disabled": 0, "rental_uris": {"android": "https://dc.lft.to/lastmile_qr_scan", "ios": "https://dc.lft.to/lastmile_qr_scan"}, "fusion_lon": 0.0, "lat": 38.90392516666667, "bike_id": "a2e60231e264ad8f70149a3d7bac8b47", "type": "electric_scooter", "is_reserved": 0, "lon": -77.04884416666667}, {"fusion_lat": 0.0, "name": "28250e3a3f50b31f5fd859803bc27f91", "is_disabled": 0, "rental_uris": {"android": "https://dc.lft.to/lastmile_qr_scan", "ios": "https://dc.lft.to/lastmile_qr_scan"}, "fusion_lon": 0.0, "lat": 38.878742333333335, "bike_id": "28250e3a3f50b31f5fd859803bc27f91", "type": "electric_scooter", "is_reserved": 0, "lon": -77.0060065}, {"fusion_lat": 0.0, "name": "c06d94163f243e79593e2f1204681191", "is_disabled": 0, "rental_uris": {"android": "https://dc.lft.to/lastmile_qr_scan", "ios": "https://dc.lft.to/lastmile_qr_scan"}, "fusion_lon": 0.0, "lat": 38.90949, "bike_id": "c06d94163f243e79593e2f1204681191", "type": "electric_scooter", "is_reserved": 0, "lon": -77.0343985}, {"fusion_lat": 0.0, "name": "efbf6780cdf39918b4b0ed36721fbc91", "is_disabled": 0, "rental_uris": {"android": "https://dc.lft.to/lastmile_qr_scan", "ios": "https://dc.lft.to/lastmile_qr_scan"}, "fusion_lon": 0.0, "lat": 38.897368, "bike_id": "efbf6780cdf39918b4b0ed36721fbc91", "type": "electric_scooter", "is_reserved": 0, "lon": -77.00836183333334}, {"fusion_lat": 0.0, "name": "ae4c2ff47ca682272fbefa978c85f230", "is_disabled": 0, "rental_uris": {"android": "https://dc.lft.to/lastmile_qr_scan", "ios": "https://dc.lft.to/lastmile_qr_scan"}, "fusion_lon": 0.0, "lat": 38.91686116666666, "bike_id": "ae4c2ff47ca682272fbefa978c85f230", "type": "electric_scooter", "is_reserved": 0, "lon": -77.04141683333333}, {"fusion_lat": 0.0, "name": "d259e68944c0fa5fbabbe6801d391494", "is_disabled": 0, "rental_uris": {"android": "https://dc.lft.to/lastmile_qr_scan", "ios": "https://dc.lft.to/lastmile_qr_scan"}, "fusion_lon": 0.0, "lat": 38.93282983333334, "bike_id": "d259e68944c0fa5fbabbe6801d391494", "type": "electric_scooter", "is_reserved": 0, "lon": -77.04076766666667}, {"fusion_lat": 0.0, "name": "3edee50b1283b14c268fbdd24b604712", "is_disabled": 0, "rental_uris": {"android": "https://dc.lft.to/lastmile_qr_scan", "ios": "https://dc.lft.to/lastmile_qr_scan"}, "fusion_lon": 0.0, "lat": 38.910434, "bike_id": "3edee50b1283b14c268fbdd24b604712", "type": "electric_scooter", "is_reserved": 0, "lon": -77.03415083333333}, {"fusion_lat": 0.0, "name": "098d57ac6e8ccb227c7b53ab4493263f", "is_disabled": 0, "rental_uris": {"android": "https://dc.lft.to/lastmile_qr_scan", "ios": "https://dc.lft.to/lastmile_qr_scan"}, "fusion_lon": 0.0, "lat": 38.90961883333333, "bike_id": "098d57ac6e8ccb227c7b53ab4493263f", "type": "electric_scooter", "is_reserved": 0, "lon": -77.01439133333334}, {"fusion_lat": 0.0, "name": "2bd92cbf1d10e5422fdffc410a317a93", "is_disabled": 0, "rental_uris": {"android": "https://dc.lft.to/lastmile_qr_scan", "ios": "https://dc.lft.to/lastmile_qr_scan"}, "fusion_lon": 0.0, "lat": 38.91843166666666, "bike_id": "2bd92cbf1d10e5422fdffc410a317a93", "type": "electric_scooter", "is_reserved": 0, "lon": -76.96544216666666}, {"fusion_lat": 0.0, "name": "5f5844a93e9b02e63d1f6028afa59640", "is_disabled": 0, "rental_uris": {"android": "https://dc.lft.to/lastmile_qr_scan", "ios": "https://dc.lft.to/lastmile_qr_scan"}, "fusion_lon": 0.0, "lat": 38.92080166666667, "bike_id": "5f5844a93e9b02e63d1f6028afa59640", "type": "electric_scooter", "is_reserved": 0, "lon": -77.02220866666667}, {"fusion_lat": 0.0, "name": "2cffa8a6a1adadaa0b4a3e561ff26b94", "is_disabled": 0, "rental_uris": {"android": "https://dc.lft.to/lastmile_qr_scan", "ios": "https://dc.lft.to/lastmile_qr_scan"}, "fusion_lon": 0.0, "lat": 38.95801633333333, "bike_id": "2cffa8a6a1adadaa0b4a3e561ff26b94", "type": "electric_bike", "is_reserved": 0, "lon": -77.00191933333333}, {"fusion_lat": 0.0, "name": "fbffc37f6421c0cb31d17c3ec54a5eca", "is_disabled": 0, "rental_uris": {"android": "https://dc.lft.to/lastmile_qr_scan", "ios": "https://dc.lft.to/lastmile_qr_scan"}, "fusion_lon": 0.0, "lat": 38.8872055, "bike_id": "fbffc37f6421c0cb31d17c3ec54a5eca", "type": "electric_scooter", "is_reserved": 0, "lon": -76.99648833333333}, {"fusion_lat": 0.0, "name": "bb32908b8d95f303f68672c8bd2a5268", "is_disabled": 0, "rental_uris": {"android": "https://dc.lft.to/lastmile_qr_scan", "ios": "https://dc.lft.to/lastmile_qr_scan"}, "fusion_lon": 0.0, "lat": 38.916568166666664, "bike_id": "bb32908b8d95f303f68672c8bd2a5268", "type": "electric_scooter", "is_reserved": 0, "lon": -77.02287316666667}, {"fusion_lat": 0.0, "name": "bf08bb1a2209c0a5d9ea6a851e9c28e9", "is_disabled": 0, "rental_uris": {"android": "https://dc.lft.to/lastmile_qr_scan", "ios": "https://dc.lft.to/lastmile_qr_scan"}, "fusion_lon": 0.0, "lat": 38.930802166666666, "bike_id": "bf08bb1a2209c0a5d9ea6a851e9c28e9", "type": "electric_scooter", "is_reserved": 0, "lon": -77.02003483333333}, {"fusion_lat": 0.0, "name": "8ec0a95efad5ecc3f2be93df812f8275", "is_disabled": 0, "rental_uris": {"android": "https://dc.lft.to/lastmile_qr_scan", "ios": "https://dc.lft.to/lastmile_qr_scan"}, "fusion_lon": 0.0, "lat": 38.92085683333333, "bike_id": "8ec0a95efad5ecc3f2be93df812f8275", "type": "electric_scooter", "is_reserved": 0, "lon": -77.02405016666667}, {"fusion_lat": 0.0, "name": "0f74b39b40cf8d13843f7c76680a79f6", "is_disabled": 0, "rental_uris": {"android": "https://dc.lft.to/lastmile_qr_scan", "ios": "https://dc.lft.to/lastmile_qr_scan"}, "fusion_lon": 0.0, "lat": 38.993862666666665, "bike_id": "0f74b39b40cf8d13843f7c76680a79f6", "type": "electric_bike", "is_reserved": 0, "lon": -76.92887683333333}, {"fusion_lat": 0.0, "name": "b3e296a869b3ed81229c353b8f02d732", "is_disabled": 0, "rental_uris": {"android": "https://dc.lft.to/lastmile_qr_scan", "ios": "https://dc.lft.to/lastmile_qr_scan"}, "fusion_lon": 0.0, "lat": 38.9167435, "bike_id": "b3e296a869b3ed81229c353b8f02d732", "type": "electric_scooter", "is_reserved": 0, "lon": -77.027125}, {"fusion_lat": 0.0, "name": "834d834a834179b146c184dfdd3c0be8", "is_disabled": 0, "rental_uris": {"android": "https://dc.lft.to/lastmile_qr_scan", "ios": "https://dc.lft.to/lastmile_qr_scan"}, "fusion_lon": 0.0, "lat": 38.9247825, "bike_id": "834d834a834179b146c184dfdd3c0be8", "type": "electric_scooter", "is_reserved": 0, "lon": -77.035337}, {"fusion_lat": 0.0, "name": "679645a1da9e456aef064ba0d4e3d2aa", "is_disabled": 0, "rental_uris": {"android": "https://dc.lft.to/lastmile_qr_scan", "ios": "https://dc.lft.to/lastmile_qr_scan"}, "fusion_lon": 0.0, "lat": 38.901294666666665, "bike_id": "679645a1da9e456aef064ba0d4e3d2aa", "type": "electric_scooter", "is_reserved": 0, "lon": -77.045069}, {"fusion_lat": 0.0, "name": "2bb2adc74ef8393e9ea2bc9111df04a9", "is_disabled": 0, "rental_uris": {"android": "https://dc.lft.to/lastmile_qr_scan", "ios": "https://dc.lft.to/lastmile_qr_scan"}, "fusion_lon": 0.0, "lat": 38.920521666666666, "bike_id": "2bb2adc74ef8393e9ea2bc9111df04a9", "type": "electric_scooter", "is_reserved": 0, "lon": -77.03409983333333}, {"fusion_lat": 0.0, "name": "f2f037d44cabeb38779de76dfd01d0a9", "is_disabled": 0, "rental_uris": {"android": "https://dc.lft.to/lastmile_qr_scan", "ios": "https://dc.lft.to/lastmile_qr_scan"}, "fusion_lon": 0.0, "lat": 38.8975175, "bike_id": "f2f037d44cabeb38779de76dfd01d0a9", "type": "electric_scooter", "is_reserved": 0, "lon": -77.027461}, {"fusion_lat": 0.0, "name": "b2aa079061d6d31e7c9ae97c56333697", "is_disabled": 0, "rental_uris": {"android": "https://dc.lft.to/lastmile_qr_scan", "ios": "https://dc.lft.to/lastmile_qr_scan"}, "fusion_lon": 0.0, "lat": 38.880078166666664, "bike_id": "b2aa079061d6d31e7c9ae97c56333697", "type": "electric_scooter", "is_reserved": 0, "lon": -76.98362166666666}, {"fusion_lat": 0.0, "name": "7c45def0860ca2bcf2dd2841cbe7010d", "is_disabled": 0, "rental_uris": {"android": "https://dc.lft.to/lastmile_qr_scan", "ios": "https://dc.lft.to/lastmile_qr_scan"}, "fusion_lon": 0.0, "lat": 38.917234, "bike_id": "7c45def0860ca2bcf2dd2841cbe7010d", "type": "electric_scooter", "is_reserved": 0, "lon": -77.02700916666667}, {"fusion_lat": 0.0, "name": "06c5f52baec2a091b6974e5873e76f80", "is_disabled": 0, "rental_uris": {"android": "https://dc.lft.to/lastmile_qr_scan", "ios": "https://dc.lft.to/lastmile_qr_scan"}, "fusion_lon": 0.0, "lat": 38.89851616666667, "bike_id": "06c5f52baec2a091b6974e5873e76f80", "type": "electric_bike", "is_reserved": 0, "lon": -76.93193816666667}, {"fusion_lat": 0.0, "name": "2c14e6707ba4220eb6056ae75e2fc88d", "is_disabled": 0, "rental_uris": {"android": "https://dc.lft.to/lastmile_qr_scan", "ios": "https://dc.lft.to/lastmile_qr_scan"}, "fusion_lon": 0.0, "lat": 38.90972333333333, "bike_id": "2c14e6707ba4220eb6056ae75e2fc88d", "type": "electric_scooter", "is_reserved": 0, "lon": -77.02080683333334}, {"fusion_lat": 0.0, "name": "6f826c82a761167df1d0e838e9757fe9", "is_disabled": 0, "rental_uris": {"android": "https://dc.lft.to/lastmile_qr_scan", "ios": "https://dc.lft.to/lastmile_qr_scan"}, "fusion_lon": 0.0, "lat": 38.940899333333334, "bike_id": "6f826c82a761167df1d0e838e9757fe9", "type": "electric_scooter", "is_reserved": 0, "lon": -77.06181433333333}, {"fusion_lat": 0.0, "name": "a626b2ab54f1b70a0c852fd77857f920", "is_disabled": 0, "rental_uris": {"android": "https://dc.lft.to/lastmile_qr_scan", "ios": "https://dc.lft.to/lastmile_qr_scan"}, "fusion_lon": 0.0, "lat": 38.897298166666666, "bike_id": "a626b2ab54f1b70a0c852fd77857f920", "type": "electric_scooter", "is_reserved": 0, "lon": -77.05523666666667}, {"fusion_lat": 0.0, "name": "e97f53e07cf58e8641780951e5731930", "is_disabled": 0, "rental_uris": {"android": "https://dc.lft.to/lastmile_qr_scan", "ios": "https://dc.lft.to/lastmile_qr_scan"}, "fusion_lon": 0.0, "lat": 38.91175633333334, "bike_id": "e97f53e07cf58e8641780951e5731930", "type": "electric_scooter", "is_reserved": 0, "lon": -77.01124866666666}, {"fusion_lat": 0.0, "name": "0dae19ef664afb80c227a8b188c985ee", "is_disabled": 0, "rental_uris": {"android": "https://dc.lft.to/lastmile_qr_scan", "ios": "https://dc.lft.to/lastmile_qr_scan"}, "fusion_lon": 0.0, "lat": 38.8577125, "bike_id": "0dae19ef664afb80c227a8b188c985ee", "type": "electric_bike", "is_reserved": 0, "lon": -76.98773633333333}, {"fusion_lat": 0.0, "name": "54f65b7e8509f1fc27691490e73b7faa", "is_disabled": 0, "rental_uris": {"android": "https://dc.lft.to/lastmile_qr_scan", "ios": "https://dc.lft.to/lastmile_qr_scan"}, "fusion_lon": 0.0, "lat": 38.90297133333333, "bike_id": "54f65b7e8509f1fc27691490e73b7faa", "type": "electric_scooter", "is_reserved": 0, "lon": -77.00557333333333}, {"fusion_lat": 0.0, "name": "ce15c3aad30b159458812e3cd5499f47", "is_disabled": 0, "rental_uris": {"android": "https://dc.lft.to/lastmile_qr_scan", "ios": "https://dc.lft.to/lastmile_qr_scan"}, "fusion_lon": 0.0, "lat": 38.9222825, "bike_id": "ce15c3aad30b159458812e3cd5499f47", "type": "electric_bike", "is_reserved": 0, "lon": -77.02341383333334}, {"fusion_lat": 0.0, "name": "baadd785f5f9dc3ead379d21f2e34563", "is_disabled": 0, "rental_uris": {"android": "https://dc.lft.to/lastmile_qr_scan", "ios": "https://dc.lft.to/lastmile_qr_scan"}, "fusion_lon": 0.0, "lat": 38.89260733333333, "bike_id": "baadd785f5f9dc3ead379d21f2e34563", "type": "electric_scooter", "is_reserved": 0, "lon": -77.04665283333334}, {"fusion_lat": 0.0, "name": "820de18eb8fc2a1394be993faa9444af", "is_disabled": 0, "rental_uris": {"android": "https://dc.lft.to/lastmile_qr_scan", "ios": "https://dc.lft.to/lastmile_qr_scan"}, "fusion_lon": 0.0, "lat": 38.9002535, "bike_id": "820de18eb8fc2a1394be993faa9444af", "type": "electric_scooter", "is_reserved": 0, "lon": -76.97400866666666}, {"fusion_lat": 0.0, "name": "c3998dba0d50dd4b261b6714f5d64b24", "is_disabled": 0, "rental_uris": {"android": "https://dc.lft.to/lastmile_qr_scan", "ios": "https://dc.lft.to/lastmile_qr_scan"}, "fusion_lon": 0.0, "lat": 38.91516716666667, "bike_id": "c3998dba0d50dd4b261b6714f5d64b24", "type": "electric_scooter", "is_reserved": 0, "lon": -77.01218883333334}, {"fusion_lat": 0.0, "name": "c59ac0aa9388b9507681ce738d2bba39", "is_disabled": 0, "rental_uris": {"android": "https://dc.lft.to/lastmile_qr_scan", "ios": "https://dc.lft.to/lastmile_qr_scan"}, "fusion_lon": 0.0, "lat": 38.887567833333335, "bike_id": "c59ac0aa9388b9507681ce738d2bba39", "type": "electric_scooter", "is_reserved": 0, "lon": -77.03359666666667}, {"fusion_lat": 0.0, "name": "e58cfbdbeed374937ce51a1a60a2245e", "is_disabled": 0, "rental_uris": {"android": "https://dc.lft.to/lastmile_qr_scan", "ios": "https://dc.lft.to/lastmile_qr_scan"}, "fusion_lon": 0.0, "lat": 38.9171, "bike_id": "e58cfbdbeed374937ce51a1a60a2245e", "type": "electric_scooter", "is_reserved": 0, "lon": -77.02616233333333}, {"fusion_lat": 0.0, "name": "88cb499d50f4292cac782b7c935fc079", "is_disabled": 0, "rental_uris": {"android": "https://dc.lft.to/lastmile_qr_scan", "ios": "https://dc.lft.to/lastmile_qr_scan"}, "fusion_lon": 0.0, "lat": 38.917048333333334, "bike_id": "88cb499d50f4292cac782b7c935fc079", "type": "electric_scooter", "is_reserved": 0, "lon": -77.03348383333334}, {"fusion_lat": 0.0, "name": "a42d307b386f48edef3c8f9a7438657c", "is_disabled": 0, "rental_uris": {"android": "https://dc.lft.to/lastmile_qr_scan", "ios": "https://dc.lft.to/lastmile_qr_scan"}, "fusion_lon": 0.0, "lat": 38.8984505, "bike_id": "a42d307b386f48edef3c8f9a7438657c", "type": "electric_scooter", "is_reserved": 0, "lon": -77.0247265}, {"fusion_lat": 0.0, "name": "4df5c1e456f10d7e17da00c1585c0b0c", "is_disabled": 0, "rental_uris": {"android": "https://dc.lft.to/lastmile_qr_scan", "ios": "https://dc.lft.to/lastmile_qr_scan"}, "fusion_lon": 0.0, "lat": 38.90941516666667, "bike_id": "4df5c1e456f10d7e17da00c1585c0b0c", "type": "electric_scooter", "is_reserved": 0, "lon": -76.98771416666666}, {"fusion_lat": 0.0, "name": "52bf17811e8e318a01e3bed8d26c1ede", "is_disabled": 0, "rental_uris": {"android": "https://dc.lft.to/lastmile_qr_scan", "ios": "https://dc.lft.to/lastmile_qr_scan"}, "fusion_lon": 0.0, "lat": 38.91606783333334, "bike_id": "52bf17811e8e318a01e3bed8d26c1ede", "type": "electric_scooter", "is_reserved": 0, "lon": -77.023063}, {"fusion_lat": 0.0, "name": "b96a02ca08346d20d8902d7563aeb426", "is_disabled": 0, "rental_uris": {"android": "https://dc.lft.to/lastmile_qr_scan", "ios": "https://dc.lft.to/lastmile_qr_scan"}, "fusion_lon": 0.0, "lat": 38.913461, "bike_id": "b96a02ca08346d20d8902d7563aeb426", "type": "electric_scooter", "is_reserved": 0, "lon": -77.02063466666667}, {"fusion_lat": 0.0, "name": "af7dc1669b03e347607d073b1f15729a", "is_disabled": 0, "rental_uris": {"android": "https://dc.lft.to/lastmile_qr_scan", "ios": "https://dc.lft.to/lastmile_qr_scan"}, "fusion_lon": 0.0, "lat": 38.906712666666664, "bike_id": "af7dc1669b03e347607d073b1f15729a", "type": "electric_scooter", "is_reserved": 0, "lon": -76.9996865}, {"fusion_lat": 0.0, "name": "84cf771ddce3b5d4213d8c5c49d604a2", "is_disabled": 0, "rental_uris": {"android": "https://dc.lft.to/lastmile_qr_scan", "ios": "https://dc.lft.to/lastmile_qr_scan"}, "fusion_lon": 0.0, "lat": 38.923866333333336, "bike_id": "84cf771ddce3b5d4213d8c5c49d604a2", "type": "electric_scooter", "is_reserved": 0, "lon": -77.02741066666667}, {"fusion_lat": 0.0, "name": "255c64e3a2bd3407d26374b029015461", "is_disabled": 0, "rental_uris": {"android": "https://dc.lft.to/lastmile_qr_scan", "ios": "https://dc.lft.to/lastmile_qr_scan"}, "fusion_lon": 0.0, "lat": 38.915814833333336, "bike_id": "255c64e3a2bd3407d26374b029015461", "type": "electric_scooter", "is_reserved": 0, "lon": -77.04657966666667}, {"fusion_lat": 0.0, "name": "31261ee14abe537080627ebc7732be04", "is_disabled": 0, "rental_uris": {"android": "https://dc.lft.to/lastmile_qr_scan", "ios": "https://dc.lft.to/lastmile_qr_scan"}, "fusion_lon": 0.0, "lat": 38.89841166666667, "bike_id": "31261ee14abe537080627ebc7732be04", "type": "electric_scooter", "is_reserved": 0, "lon": -77.02697866666666}, {"fusion_lat": 0.0, "name": "754e06e16665d89aca95be6705e32c5c", "is_disabled": 0, "rental_uris": {"android": "https://dc.lft.to/lastmile_qr_scan", "ios": "https://dc.lft.to/lastmile_qr_scan"}, "fusion_lon": 0.0, "lat": 38.89841233333333, "bike_id": "754e06e16665d89aca95be6705e32c5c", "type": "electric_scooter", "is_reserved": 0, "lon": -77.02224416666667}, {"fusion_lat": 0.0, "name": "8ed4d4883db625b897ae17a12c555373", "is_disabled": 0, "rental_uris": {"android": "https://dc.lft.to/lastmile_qr_scan", "ios": "https://dc.lft.to/lastmile_qr_scan"}, "fusion_lon": 0.0, "lat": 38.878856999999996, "bike_id": "8ed4d4883db625b897ae17a12c555373", "type": "electric_scooter", "is_reserved": 0, "lon": -76.965454}, {"fusion_lat": 0.0, "name": "c1688ddf118bda7d85628347ad1916c7", "is_disabled": 0, "rental_uris": {"android": "https://dc.lft.to/lastmile_qr_scan", "ios": "https://dc.lft.to/lastmile_qr_scan"}, "fusion_lon": 0.0, "lat": 38.903927333333336, "bike_id": "c1688ddf118bda7d85628347ad1916c7", "type": "electric_scooter", "is_reserved": 0, "lon": -77.03655283333333}, {"fusion_lat": 0.0, "name": "4fcc12f0b86b6ac7e968f1a7e3ab7f19", "is_disabled": 0, "rental_uris": {"android": "https://dc.lft.to/lastmile_qr_scan", "ios": "https://dc.lft.to/lastmile_qr_scan"}, "fusion_lon": 0.0, "lat": 38.912207333333335, "bike_id": "4fcc12f0b86b6ac7e968f1a7e3ab7f19", "type": "electric_scooter", "is_reserved": 0, "lon": -77.00668316666666}, {"fusion_lat": 0.0, "name": "9102b77cf2fa09b59fe478ae7a1e57e9", "is_disabled": 0, "rental_uris": {"android": "https://dc.lft.to/lastmile_qr_scan", "ios": "https://dc.lft.to/lastmile_qr_scan"}, "fusion_lon": 0.0, "lat": 38.899306, "bike_id": "9102b77cf2fa09b59fe478ae7a1e57e9", "type": "electric_scooter", "is_reserved": 0, "lon": -77.02204783333333}, {"fusion_lat": 0.0, "name": "10f46ed9637f6f1f96c532ada7822e5c", "is_disabled": 0, "rental_uris": {"android": "https://dc.lft.to/lastmile_qr_scan", "ios": "https://dc.lft.to/lastmile_qr_scan"}, "fusion_lon": 0.0, "lat": 38.924799, "bike_id": "10f46ed9637f6f1f96c532ada7822e5c", "type": "electric_scooter", "is_reserved": 0, "lon": -77.03088566666666}, {"fusion_lat": 0.0, "name": "c62463d2aa12824b67c79cb1b93c23a1", "is_disabled": 0, "rental_uris": {"android": "https://dc.lft.to/lastmile_qr_scan", "ios": "https://dc.lft.to/lastmile_qr_scan"}, "fusion_lon": 0.0, "lat": 38.94430333333333, "bike_id": "c62463d2aa12824b67c79cb1b93c23a1", "type": "electric_bike", "is_reserved": 0, "lon": -77.02604633333333}, {"fusion_lat": 0.0, "name": "cc20c3d97bbd76458b775dcfdae25705", "is_disabled": 0, "rental_uris": {"android": "https://dc.lft.to/lastmile_qr_scan", "ios": "https://dc.lft.to/lastmile_qr_scan"}, "fusion_lon": 0.0, "lat": 38.92135233333333, "bike_id": "cc20c3d97bbd76458b775dcfdae25705", "type": "electric_scooter", "is_reserved": 0, "lon": -77.017986}, {"fusion_lat": 0.0, "name": "b7a864efcbf3b2f10131f5c6d64d9fa6", "is_disabled": 0, "rental_uris": {"android": "https://dc.lft.to/lastmile_qr_scan", "ios": "https://dc.lft.to/lastmile_qr_scan"}, "fusion_lon": 0.0, "lat": 38.961184, "bike_id": "b7a864efcbf3b2f10131f5c6d64d9fa6", "type": "electric_scooter", "is_reserved": 0, "lon": -77.02789983333334},