{"data": {"bikes": [{"type": "electric_scooter", "name": "197ddd8c85ab53ea2f005e29af0806a8", "rental_uris": {"ios": "https://dc.lft.to/lastmile_qr_scan", "android": "https://dc.lft.to/lastmile_qr_scan"}, "fusion_lon": 0.0, "lat": 38.898774, "is_disabled": 0, "bike_id": "197ddd8c85ab53ea2f005e29af0806a8", "fusion_lat": 0.0, "is_reserved": 0, "lon": -76.93185266666667}, {"type": "electric_scooter", "name": "7efe7802d0429fb6f6d2912d60ff779c", "rental_uris": {"ios": "https://dc.lft.to/lastmile_qr_scan", "android": "https://dc.lft.to/lastmile_qr_scan"}, "fusion_lon": 0.0, "lat": 38.920586166666666, "is_disabled": 0, "bike_id": "7efe7802d0429fb6f6d2912d60ff779c", "fusion_lat": 0.0, "is_reserved": 0, "lon": -77.02538666666666}, {"type": "electric_scooter", "name": "bf076a8ff65628416608db10153b2c05", "rental_uris": {"ios": "https://dc.lft.to/lastmile_qr_scan", "android": "https://dc.lft.to/lastmile_qr_scan"}, "fusion_lon": 0.0, "lat": 38.873977, "is_disabled": 0, "bike_id": "bf076a8ff65628416608db10153b2c05", "fusion_lat": 0.0, "is_reserved": 0, "lon": -77.002012}, {"type": "electric_scooter", "name": "71755db4c92adbeafed58fb6fcdfb2db", "rental_uris": {"ios": "https://dc.lft.to/lastmile_qr_scan", "android": "https://dc.lft.to/lastmile_qr_scan"}, "fusion_lon": 0.0, "lat": 38.90978916666667, "is_disabled": 0, "bike_id": "71755db4c92adbeafed58fb6fcdfb2db", "fusion_lat": 0.0, "is_reserved": 0, "lon": -77.0649505}, {"type": "electric_scooter", "name": "875902b5f26cf82853c98365f19d2c5d", "rental_uris": {"ios": "https://dc.lft.to/lastmile_qr_scan", "android": "https://dc.lft.to/lastmile_qr_scan"}, "fusion_lon": 0.0, "lat": 38.90013, "is_disabled": 0, "bike_id": "875902b5f26cf82853c98365f19d2c5d", "fusion_lat": 0.0, "is_reserved": 0, "lon": -76.98851883333333}, {"type": "electric_scooter", "name": "e7be16cbb60660624fec8a0a555bb84b", "rental_uris": {"ios": "https://dc.lft.to/lastmile_qr_scan", "android": "https://dc.lft.to/lastmile_qr_scan"}, "fusion_lon": 0.0, "lat": 38.8834445, "is_disabled": 0, "bike_id": "e7be16cbb60660624fec8a0a555bb84b", "fusion_lat": 0.0, "is_reserved": 0, "lon": -77.0175205}, {"type": "electric_scooter", "name": "06c1bf2336a2dc4e6b5dff8abd6878b4", "rental_uris": {"ios": "https://dc.lft.to/lastmile_qr_scan", "android": "https://dc.lft.to/lastmile_qr_scan"}, "fusion_lon": 0.0, "lat": 38.904536666666665, "is_disabled": 0, "bike_id": "06c1bf2336a2dc4e6b5dff8abd6878b4", "fusion_lat": 0.0, "is_reserved": 0, "lon": -77.03459}, {"type": "electric_scooter", "name": "8914d992b76071d5d1ad0421a79315e6", "rental_uris": {"ios": "https://dc.lft.to/lastmile_qr_scan", "android": "https://dc.lft.to/lastmile_qr_scan"}, "fusion_lon": 0.0, "lat": 38.9190685, "is_disabled": 0, "bike_id": "8914d992b76071d5d1ad0421a79315e6", "fusion_lat": 0.0, "is_reserved": 0, "lon": -77.04107566666667}, {"type": "electric_bike", "name": "99f870f1a961339791e41c52b906f36c", "rental_uris": {"ios": "https://dc.lft.to/lastmile_qr_scan", "android": "https://dc.lft.to/lastmile_qr_scan"}, "fusion_lon": 0.0, "lat": 39.0525415, "is_disabled": 0, "bike_id": "99f870f1a961339791e41c52b906f36c", "fusion_lat": 0.0, "is_reserved": 0, "lon": -77.08064133333333}, {"type": "electric_scooter", "name": "adba0502707a2255c12bfcc92fc14b65", "rental_uris": {"ios": "https://dc.lft.to/lastmile_qr_scan", "android": "https://dc.lft.to/lastmile_qr_scan"}, "fusion_lon": 0.0, "lat": 38.904842333333335, "is_disabled": 0, "bike_id": "adba0502707a2255c12bfcc92fc14b65", "fusion_lat": 0.0, "is_reserved": 0, "lon": -77.02977583333333}, {"type": "electric_scooter", "name": "5d13f7216f3886654730f83f147646b5", "rental_uris": {"ios": "https://dc.lft.to/lastmile_qr_scan", "android": "https://dc.lft.to/lastmile_qr_scan"}, "fusion_lon": 0.0, "lat": 38.896226, "is_disabled": 0, "bike_id": "5d13f7216f3886654730f83f147646b5", "fusion_lat": 0.0, "is_reserved": 0, "lon": -77.00923766666666}, {"type": "electric_scooter", "name": "19fe1f842074f1291e42b540b9725113", "rental_uris": {"ios": "https://dc.lft.to/lastmile_qr_scan", "android": "https://dc.lft.to/lastmile_qr_scan"}, "fusion_lon": 0.0, "lat": 38.93913216666667, "is_disabled": 0, "bike_id": "19fe1f842074f1291e42b540b9725113", "fusion_lat": 0.0, "is_reserved": 0, "lon": -77.03623266666666}, {"type": "electric_scooter", "name": "49c81a3c6a7e8213c7efc211eef66fc2", "rental_uris": {"ios": "https://dc.lft.to/lastmile_qr_scan", "android": "https://dc.lft.to/lastmile_qr_scan"}, "fusion_lon": 0.0, "lat": 38.87373066666667, "is_disabled": 0, "bike_id": "49c81a3c6a7e8213c7efc211eef66fc2", "fusion_lat": 0.0, "is_reserved": 0, "lon": -76.9700795}, {"type": "electric_scooter", "name": "fffe18c6628613a29d625d461e30b4bc", "rental_uris": {"ios": "https://dc.lft.to/lastmile_qr_scan", "android": "https://dc.lft.to/lastmile_qr_scan"}, "fusion_lon": 0.0, "lat": 38.88323616666667, "is_disabled": 0, "bike_id": "fffe18c6628613a29d625d461e30b4bc", "fusion_lat": 0.0, "is_reserved": 0, "lon": -77.017695}, {"type": "electric_scooter", "name": "a7454033816c869019d0656e27e9b655", "rental_uris": {"ios": "https://dc.lft.to/lastmile_qr_scan", "android": "https://dc.lft.to/lastmile_qr_scan"}, "fusion_lon": 0.0, "lat": 38.9108925, "is_disabled": 0, "bike_id": "a7454033816c869019d0656e27e9b655", "fusion_lat": 0.0, "is_reserved": 0, "lon": -77.03841333333334}, {"type": "electric_scooter", "name": "745793dd1443a60198171ad28a8ea72c", "rental_uris": {"ios": "https://dc.lft.to/lastmile_qr_scan", "android": "https://dc.lft.to/lastmile_qr_scan"}, "fusion_lon": 0.0, "lat": 38.877796333333336, "is_disabled": 0, "bike_id": "745793dd1443a60198171ad28a8ea72c", "fusion_lat": 0.0, "is_reserved": 0, "lon": -76.99407966666666}, {"type": "electric_scooter", "name": "3dfc562403a7311ea826f9f8520966ed", "rental_uris": {"ios": "https://dc.lft.to/lastmile_qr_scan", "android": "https://dc.lft.to/lastmile_qr_scan"}, "fusion_lon": 0.0, "lat": 38.89957716666667, "is_disabled": 0, "bike_id": "3dfc562403a7311ea826f9f8520966ed", "fusion_lat": 0.0, "is_reserved": 0, "lon": -77.0413125}, {"type": "electric_scooter", "name": "cbb24219af556d76c508f9d1428cdc9d", "rental_uris": {"ios": "https://dc.lft.to/lastmile_qr_scan", "android": "https://dc.lft.to/lastmile_qr_scan"}, "fusion_lon": 0.0, "lat": 38.892345666666664, "is_disabled": 0, "bike_id": "cbb24219af556d76c508f9d1428cdc9d", "fusion_lat": 0.0, "is_reserved": 0, "lon": -77.04875166666666}, {"type": "electric_scooter", "name": "7554a2fd98fb910ccba0ef6470579fe0", "rental_uris": {"ios": "https://dc.lft.to/lastmile_qr_scan", "android": "https://dc.lft.to/lastmile_qr_scan"}, "fusion_lon": 0.0, "lat": 38.91482383333334, "is_disabled": 0, "bike_id": "7554a2fd98fb910ccba0ef6470579fe0", "fusion_lat": 0.0, "is_reserved": 0, "lon": -77.006493}, {"type": "electric_scooter", "name": "a09a93598239506cf9deb5198111d974", "rental_uris": {"ios": "https://dc.lft.to/lastmile_qr_scan", "android": "https://dc.lft.to/lastmile_qr_scan"}, "fusion_lon": 0.0, "lat": 38.922124833333335, "is_disabled": 0, "bike_id": "a09a93598239506cf9deb5198111d974", "fusion_lat": 0.0, "is_reserved": 0, "lon": -77.035116}, {"type": "electric_scooter", "name": "4d58a8ad00193c1d496a539f552e90fc", "rental_uris": {"ios": "https://dc.lft.to/lastmile_qr_scan", "android": "https://dc.lft.to/lastmile_qr_scan"}, "fusion_lon": 0.0, "lat": 38.933758166666664, "is_disabled": 0, "bike_id": "4d58a8ad00193c1d496a539f552e90fc", "fusion_lat": 0.0, "is_reserved": 0, "lon": -77.0368575}, {"type": "electric_scooter", "name": "945db215b7c3b357694d152bdd5c6387", "rental_uris": {"ios": "https://dc.lft.to/lastmile_qr_scan", "android": "https://dc.lft.to/lastmile_qr_scan"}, "fusion_lon": 0.0, "lat": 38.91877566666667, "is_disabled": 0, "bike_id": "945db215b7c3b357694d152bdd5c6387", "fusion_lat": 0.0, "is_reserved": 0, "lon": -77.03187316666667}, {"type": "electric_scooter", "name": "ae4f1fc47651f1d17c1af61771277549", "rental_uris": {"ios": "https://dc.lft.to/lastmile_qr_scan", "android": "https://dc.lft.to/lastmile_qr_scan"}, "fusion_lon": 0.0, "lat": 38.928256, "is_disabled": 0, "bike_id": "ae4f1fc47651f1d17c1af61771277549", "fusion_lat": 0.0, "is_reserved": 0, "lon": -77.02259883333333}, {"type": "electric_scooter", "name": "5c4a82808664056ac1da8498b88497a7", "rental_uris": {"ios": "https://dc.lft.to/lastmile_qr_scan", "android": "https://dc.lft.to/lastmile_qr_scan"}, "fusion_lon": 0.0, "lat": 38.90970383333333, "is_disabled": 0, "bike_id": "5c4a82808664056ac1da8498b88497a7", "fusion_lat": 0.0, "is_reserved": 0, "lon": -77.03815966666667}, {"type": "electric_scooter", "name": "573ec28d018609e9bafaf4117a93b439", "rental_uris": {"ios": "https://dc.lft.to/lastmile_qr_scan", "android": "https://dc.lft.to/lastmile_qr_scan"}, "fusion_lon": 0.0, "lat": 38.9036615, "is_disabled": 0, "bike_id": "573ec28d018609e9bafaf4117a93b439", "fusion_lat": 0.0, "is_reserved": 0, "lon": -77.0034795}, {"type": "electric_scooter", "name": "f0577c216d9b357cbe78839eefc7b5d5", "rental_uris": {"ios": "https://dc.lft.to/lastmile_qr_scan", "android": "https://dc.lft.to/lastmile_qr_scan"}, "fusion_lon": 0.0, "lat": 38.903056, "is_disabled": 0, "bike_id": "f0577c216d9b357cbe78839eefc7b5d5", "fusion_lat": 0.0, "is_reserved": 0, "lon": -77.03820083333333}, {"type": "electric_scooter", "name": "69a2685886ee075245ac43a3de7d9236", "rental_uris": {"ios": "https://dc.lft.to/lastmile_qr_scan", "android": "https://dc.lft.to/lastmile_qr_scan"}, "fusion_lon": 0.0, "lat": 38.902567166666664, "is_disabled": 0, "bike_id": "69a2685886ee075245ac43a3de7d9236", "fusion_lat": 0.0, "is_reserved": 0, "lon": -77.00583933333333}, {"type": "electric_scooter", "name": "3768731b47179078878e6d806b5ea1ff", "rental_uris": {"ios": "https://dc.lft.to/lastmile_qr_scan", "android": "https://dc.lft.to/lastmile_qr_scan"}, "fusion_lon": 0.0, "lat": 38.896422333333334, "is_disabled": 0, "bike_id": "3768731b47179078878e6d806b5ea1ff", "fusion_lat": 0.0, "is_reserved": 0, "lon": -77.026158}, {"type": "electric_scooter", "name": "a76a1c17c163d74cba5cd29914acfa4b", "rental_uris": {"ios": "https://dc.lft.to/lastmile_qr_scan", "android": "https://dc.lft.to/lastmile_qr_scan"}, "fusion_lon": 0.0, "lat": 38.905767, "is_disabled": 0, "bike_id": "a76a1c17c163d74cba5cd29914acfa4b", "fusion_lat": 0.0, "is_reserved": 0, "lon": -77.04092866666667}, {"type": "electric_scooter", "name": "2bae5bf7ca7d4caadb82882d618da899", "rental_uris": {"ios": "https://dc.lft.to/lastmile_qr_scan", "android": "https://dc.lft.to/lastmile_qr_scan"}, "fusion_lon": 0.0, "lat": 38.912637333333336, "is_disabled": 0, "bike_id": "2bae5bf7ca7d4caadb82882d618da899", "fusion_lat": 0.0, "is_reserved": 0, "lon": -77.01439066666667}, {"type": "electric_scooter", "name": "99d9c90d615451206c7bd18cc0c8a32f", "rental_uris": {"ios": "https://dc.lft.to/lastmile_qr_scan", "android": "https://dc.lft.to/lastmile_qr_scan"}, "fusion_lon": 0.0, "lat": 38.886296, "is_disabled": 0, "bike_id": "99d9c90d615451206c7bd18cc0c8a32f", "fusion_lat": 0.0, "is_reserved": 0, "lon": -77.01528983333333}, {"type": "electric_scooter", "name": "7ddf47434a6c70292f504968877345f6", "rental_uris": {"ios": "https://dc.lft.to/lastmile_qr_scan", "android": "https://dc.lft.to/lastmile_qr_scan"}, "fusion_lon": 0.0, "lat": 38.93680416666667, "is_disabled": 0, "bike_id": "7ddf47434a6c70292f504968877345f6", "fusion_lat": 0.0, "is_reserved": 0, "lon": -77.08453183333333}, {"type": "electric_scooter", "name": "b534158ca03a319399771d062fdfcee9", "rental_uris": {"ios": "https://dc.lft.to/lastmile_qr_scan", "android": "https://dc.lft.to/lastmile_qr_scan"}, "fusion_lon": 0.0, "lat": 38.876671333333334, "is_disabled": 0, "bike_id": "b534158ca03a319399771d062fdfcee9", "fusion_lat": 0.0, "is_reserved": 0, "lon": -77.00522566666666}, {"type": "electric_scooter", "name": "df7d036a04853d552d0c9386cbbeaca8", "rental_uris": {"ios": "https://dc.lft.to/lastmile_qr_scan", "android": "https://dc.lft.to/lastmile_qr_scan"}, "fusion_lon": 0.0, "lat": 38.9004175, "is_disabled": 0, "bike_id": "df7d036a04853d552d0c9386cbbeaca8", "fusion_lat": 0.0, "is_reserved": 0, "lon": -76.98827683333333}, {"type": "electric_scooter", "name": "84b94ed92e666831d5e3fbf13a56fc7a", "rental_uris": {"ios": "https://dc.lft.to/lastmile_qr_scan", "android": "https://dc.lft.to/lastmile_qr_scan"}, "fusion_lon": 0.0, "lat": 38.915537, "is_disabled": 0, "bike_id": "84b94ed92e666831d5e3fbf13a56fc7a", "fusion_lat": 0.0, "is_reserved": 0, "lon": -77.037734}, {"type": "electric_scooter", "name": "f9a3be118c397b318d9f2d05f08c834a", "rental_uris": {"ios": "https://dc.lft.to/lastmile_qr_scan", "android": "https://dc.lft.to/lastmile_qr_scan"}, "fusion_lon": 0.0, "lat": 38.9260935, "is_disabled": 0, "bike_id": "f9a3be118c397b318d9f2d05f08c834a", "fusion_lat": 0.0, "is_reserved": 0, "lon": -77.057152}, {"type": "electric_scooter", "name": "c1bae8ccd9187cc91d278d7d101ac01d", "rental_uris": {"ios": "https://dc.lft.to/lastmile_qr_scan", "android": "https://dc.lft.to/lastmile_qr_scan"}, "fusion_lon": 0.0, "lat": 38.92368, "is_disabled": 0, "bike_id": "c1bae8ccd9187cc91d278d7d101ac01d", "fusion_lat": 0.0, "is_reserved": 0, "lon": -77.05034016666667}, {"type": "electric_scooter", "name": "94dc8abffd9d06b4aa781717c7cef857", "rental_uris": {"ios": "https://dc.lft.to/lastmile_qr_scan", "android": "https://dc.lft.to/lastmile_qr_scan"}, "fusion_lon": 0.0, "lat": 38.912585166666666, "is_disabled": 0, "bike_id": "94dc8abffd9d06b4aa781717c7cef857", "fusion_lat": 0.0, "is_reserved": 0, "lon": -76.9835515}, {"type": "electric_scooter", "name": "ce184d738f6000b49ae394487ca48e09", "rental_uris": {"ios": "https://dc.lft.to/lastmile_qr_scan", "android": "https://dc.lft.to/lastmile_qr_scan"}, "fusion_lon": 0.0, "lat": 38.9412805, "is_disabled": 0, "bike_id": "ce184d738f6000b49ae394487ca48e09", "fusion_lat": 0.0, "is_reserved": 0, "lon": -77.0154595}, {"type": "electric_scooter", "name": "bb984bf8c5030856a1e5af3a209fd9e3", "rental_uris": {"ios": "https://dc.lft.to/lastmile_qr_scan", "android": "https://dc.lft.to/lastmile_qr_scan"}, "fusion_lon": 0.0, "lat": 38.9390155, "is_disabled": 0, "bike_id": "bb984bf8c5030856a1e5af3a209fd9e3", "fusion_lat": 0.0, "is_reserved": 0, "lon": -77.0331615}, {"type": "electric_scooter", "name": "a8e4b7c9246e8c5b95547f5b4e84937c", "rental_uris": {"ios": "https://dc.lft.to/lastmile_qr_scan", "android": "https://dc.lft.to/lastmile_qr_scan"}, "fusion_lon": 0.0, "lat": 38.9251615, "is_disabled": 0, "bike_id": "a8e4b7c9246e8c5b95547f5b4e84937c", "fusion_lat": 0.0, "is_reserved": 0, "lon": -77.05130816666667}, {"type": "electric_scooter", "name": "a0b2357c2100771735d6d87ec795d23a", "rental_uris": {"ios": "https://dc.lft.to/lastmile_qr_scan", "android": "https://dc.lft.to/lastmile_qr_scan"}, "fusion_lon": 0.0, "lat": 38.927479166666664, "is_disabled": 0, "bike_id": "a0b2357c2100771735d6d87ec795d23a", "fusion_lat": 0.0, "is_reserved": 0, "lon": -77.02531766666667}, {"type": "electric_scooter", "name": "a2b539571f44e7e07f1e4ef4802caec1", "rental_uris": {"ios": "https://dc.lft.to/lastmile_qr_scan", "android": "https://dc.lft.to/lastmile_qr_scan"}, "fusion_lon": 0.0, "lat": 38.8966735, "is_disabled": 0, "bike_id": "a2b539571f44e7e07f1e4ef4802caec1", "fusion_lat": 0.0, "is_reserved": 0, "lon": -77.0321415}, {"type": "electric_scooter", "name": "57c70aa970d2bec82411bfc1aa907e67", "rental_uris": {"ios": "https://dc.lft.to/lastmile_qr_scan", "android": "https://dc.lft.to/lastmile_qr_scan"}, "fusion_lon": 0.0, "lat": 38.8937555, "is_disabled": 0, "bike_id": "57c70aa970d2bec82411bfc1aa907e67", "fusion_lat": 0.0, "is_reserved": 0, "lon": -77.01981583333334}, {"type": "electric_scooter", "name": "17c73c2eb6a833bda888c7480f882ce9", "rental_uris": {"ios": "https://dc.lft.to/lastmile_qr_scan", "android": "https://dc.lft.to/lastmile_qr_scan"}, "fusion_lon": 0.0, "lat": 38.900230666666666, "is_disabled": 0, "bike_id": "17c73c2eb6a833bda888c7480f882ce9", "fusion_lat": 0.0, "is_reserved": 0, "lon": -76.98754433333333}, {"type": "electric_scooter", "name": "0c14cdf992f573f90336b11d137332e8", "rental_uris": {"ios": "https://dc.lft.to/lastmile_qr_scan", "android": "https://dc.lft.to/lastmile_qr_scan"}, "fusion_lon": 0.0, "lat": 38.88436983333333, "is_disabled": 0, "bike_id": "0c14cdf992f573f90336b11d137332e8", "fusion_lat": 0.0, "is_reserved": 0, "lon": -77.01530516666666}, {"type": "electric_scooter", "name": "b8227a4d3a1bd75d5d0bd3430e2c639a", "rental_uris": {"ios": "https://dc.lft.to/lastmile_qr_scan", "android": "https://dc.lft.to/lastmile_qr_scan"}, "fusion_lon": 0.0, "lat": 38.9039875, "is_disabled": 0, "bike_id": "b8227a4d3a1bd75d5d0bd3430e2c639a", "fusion_lat": 0.0, "is_reserved": 0, "lon": -77.04352483333334}, {"type": "electric_scooter", "name": "4888dcb973f377bc81d069628853409f", "rental_uris": {"ios": "https://dc.lft.to/lastmile_qr_scan", "android": "https://dc.lft.to/lastmile_qr_scan"}, "fusion_lon": 0.0, "lat": 38.89136466666667, "is_disabled": 0, "bike_id": "4888dcb973f377bc81d069628853409f", "fusion_lat": 0.0, "is_reserved": 0, "lon": -76.99089816666667}, {"type": "electric_bike", "name": "d17f8602d00a4f111608fccd913090d9", "rental_uris": {"ios": "https://dc.lft.to/lastmile_qr_scan", "android": "https://dc.lft.to/lastmile_qr_scan"}, "fusion_lon": 0.0, "lat": 38.853188833333334, "is_disabled": 0, "bike_id": "d17f8602d00a4f111608fccd913090d9", "fusion_lat": 0.0, "is_reserved": 0, "lon": -76.9800695}, {"type": "electric_scooter", "name": "91c97347d01f4fbf31be671ab972e6fd", "rental_uris": {"ios": "https://dc.lft.to/lastmile_qr_scan", "android": "https://dc.lft.to/lastmile_qr_scan"}, "fusion_lon": 0.0, "lat": 38.90642283333333, "is_disabled": 0, "bike_id": "91c97347d01f4fbf31be671ab972e6fd", "fusion_lat": 0.0, "is_reserved": 0, "lon": -77.04137966666667}, {"type": "electric_scooter", "name": "a4c6c926df9a679274e1750c1ab9cf50", "rental_uris": {"ios": "https://dc.lft.to/lastmile_qr_scan", "android": "https://dc.lft.to/lastmile_qr_scan"}, "fusion_lon": 0.0, "lat": 38.9105365, "is_disabled": 0, "bike_id": "a4c6c926df9a679274e1750c1ab9cf50", "fusion_lat": 0.0, "is_reserved": 0, "lon": -76.98518933333334}, {"type": "electric_scooter", "name": "7aa11f72a07f8d4ab32494ed911158fc", "rental_uris": {"ios": "https://dc.lft.to/lastmile_qr_scan", "android": "https://dc.lft.to/lastmile_qr_scan"}, "fusion_lon": 0.0, "lat": 38.91831783333333, "is_disabled": 0, "bike_id": "7aa11f72a07f8d4ab32494ed911158fc", "fusion_lat": 0.0, "is_reserved": 0, "lon": -77.022868}, {"type": "electric_scooter", "name": "f8f69714c3e93b9b0d1206850b6cc806", "rental_uris": {"ios": "https://dc.lft.to/lastmile_qr_scan", "android": "https://dc.lft.to/lastmile_qr_scan"}, "fusion_lon": 0.0, "lat": 38.908598833333336, "is_disabled": 0, "bike_id": "f8f69714c3e93b9b0d1206850b6cc806", "fusion_lat": 0.0, "is_reserved": 0, "lon": -77.042934}, {"type": "electric_scooter", "name": "b38701ca1f65bdea30afef0584341ae8", "rental_uris": {"ios": "https://dc.lft.to/lastmile_qr_scan", "android": "https://dc.lft.to/lastmile_qr_scan"}, "fusion_lon": 0.0, "lat": 38.938699666666665, "is_disabled": 0, "bike_id": "b38701ca1f65bdea30afef0584341ae8", "fusion_lat": 0.0, "is_reserved": 0, "lon": -77.02629016666667}, {"type": "electric_bike", "name": "39b73cce02c189687b1dd0c68be42f17", "rental_uris": {"ios": "https://dc.lft.to/lastmile_qr_scan", "android": "https://dc.lft.to/lastmile_qr_scan"}, "fusion_lon": 0.0, "lat": 38.984620166666666, "is_disabled": 0, "bike_id": "39b73cce02c189687b1dd0c68be42f17", "fusion_lat": 0.0, "is_reserved": 0, "lon": -76.970575}, {"type": "electric_scooter", "name": "81a18c223a1065c1c8531b14277dfbfd", "rental_uris": {"ios": "https://dc.lft.to/lastmile_qr_scan", "android": "https://dc.lft.to/lastmile_qr_scan"}, "fusion_lon": 0.0, "lat": 38.93994033333333, "is_disabled": 0, "bike_id": "81a18c223a1065c1c8531b14277dfbfd", "fusion_lat": 0.0, "is_reserved": 0, "lon": -77.03263883333334}, {"type": "electric_scooter", "name": "c55d580b676ee9fc2c17fcbb98b3dd56", "rental_uris": {"ios": "https://dc.lft.to/lastmile_qr_scan", "android": "https://dc.lft.to/lastmile_qr_scan"}, "fusion_lon": 0.0, "lat": 38.887592833333336, "is_disabled": 0, "bike_id": "c55d580b676ee9fc2c17fcbb98b3dd56", "fusion_lat": 0.0, "is_reserved": 0, "lon": -76.97747633333333}, {"type": "electric_scooter", "name": "a6112489c3c74f1333307c8355bc36e2", "rental_uris": {"ios": "https://dc.lft.to/lastmile_qr_scan", "android": "https://dc.lft.to/lastmile_qr_scan"}, "fusion_lon": 0.0, "lat": 38.92604733333334, "is_disabled": 0, "bike_id": "a6112489c3c74f1333307c8355bc36e2", "fusion_lat": 0.0, "is_reserved": 0, "lon": -77.02383916666666}, {"type": "electric_scooter", "name": "023d621a0df2f57c5cc067ad965cb14f", "rental_uris": {"ios": "https://dc.lft.to/lastmile_qr_scan", "android": "https://dc.lft.to/lastmile_qr_scan"}, "fusion_lon": 0.0, "lat": 38.90980666666667, "is_disabled": 0, "bike_id": "023d621a0df2f57c5cc067ad965cb14f", "fusion_lat": 0.0, "is_reserved": 0, "lon": -77.03311716666667}, {"type": "electric_scooter", "name": "c742bb7aa36be9f87cb49443420caee2", "rental_uris": {"ios": "https://dc.lft.to/lastmile_qr_scan", "android": "https://dc.lft.to/lastmile_qr_scan"}, "fusion_lon": 0.0, "lat": 38.91755766666667, "is_disabled": 0, "bike_id": "c742bb7aa36be9f87cb49443420caee2", "fusion_lat": 0.0, "is_reserved": 0, "lon": -77.012196}, {"type": "electric_scooter", "name": "f495e125c8f2ac3de61f319f30676e77", "rental_uris": {"ios": "https://dc.lft.to/lastmile_qr_scan", "android": "https://dc.lft.to/lastmile_qr_scan"}, "fusion_lon": 0.0, "lat": 38.89223333333333, "is_disabled": 0, "bike_id": "f495e125c8f2ac3de61f319f30676e77", "fusion_lat": 0.0, "is_reserved": 0, "lon": -77.04770433333333}, {"type": "electric_scooter", "name": "acdde5641df6fcce543188fa9b546a82", "rental_uris": {"ios": "https://dc.lft.to/lastmile_qr_scan", "android": "https://dc.lft.to/lastmile_qr_scan"}, "fusion_lon": 0.0, "lat": 38.91707383333333, "is_disabled": 0, "bike_id": "acdde5641df6fcce543188fa9b546a82", "fusion_lat": 0.0, "is_reserved": 0, "lon": -77.03879783333333}, {"type": "electric_bike", "name": "14180cf2cb876736b73ae8a89e3e676b", "rental_uris": {"ios": "https://dc.lft.to/lastmile_qr_scan", "android": "https://dc.lft.to/lastmile_qr_scan"}, "fusion_lon": 0.0, "lat": 38.978833333333334, "is_disabled": 0, "bike_id": "14180cf2cb876736b73ae8a89e3e676b", "fusion_lat": 0.0, "is_reserved": 0, "lon": -77.06027633333333}, {"type": "electric_scooter", "name": "524bb09cd392f8417365e47b37e1a05c", "rental_uris": {"ios": "https://dc.lft.to/lastmile_qr_scan", "android": "https://dc.lft.to/lastmile_qr_scan"}, "fusion_lon": 0.0, "lat": 38.88606866666667, "is_disabled": 0, "bike_id": "524bb09cd392f8417365e47b37e1a05c", "fusion_lat": 0.0, "is_reserved": 0, "lon": -77.03211083333333}, {"type": "electric_scooter", "name": "f90cd0e231b9b3dcb0ccb97590ee46ae", "rental_uris": {"ios": "https://dc.lft.to/lastmile_qr_scan", "android": "https://dc.lft.to/lastmile_qr_scan"}, "fusion_lon": 0.0, "lat": 38.88736566666667, "is_disabled": 0, "bike_id": "f90cd0e231b9b3dcb0ccb97590ee46ae", "fusion_lat": 0.0, "is_reserved": 0, "lon": -77.02582483333333}, {"type": "electric_scooter", "name": "50712f641a2f69321c801a7d9e7e0de9", "rental_uris": {"ios": "https://dc.lft.to/lastmile_qr_scan", "android": "https://dc.lft.to/lastmile_qr_scan"}, "fusion_lon": 0.0, "lat": 38.9182295, "is_disabled": 0, "bike_id": "50712f641a2f69321c801a7d9e7e0de9", "fusion_lat": 0.0, "is_reserved": 0, "lon": -77.02301083333333}, {"type": "electric_scooter", "name": "37d6ce0d937ee3d2738b9303f10d7ca0", "rental_uris": {"ios": "https://dc.lft.to/lastmile_qr_scan", "android": "https://dc.lft.to/lastmile_qr_scan"}, "fusion_lon": 0.0, "lat": 38.91565166666667, "is_disabled": 0, "bike_id": "37d6ce0d937ee3d2738b9303f10d7ca0", "fusion_lat": 0.0, "is_reserved": 0, "lon": -77.02128866666666}, {"type": "electric_scooter", "name": "d6dbfe16dda0c8e8309146d792e94977", "rental_uris": {"ios": "https://dc.lft.to/lastmile_qr_scan", "android": "https://dc.lft.to/lastmile_qr_scan"}, "fusion_lon": 0.0, "lat": 38.92378383333333, "is_disabled": 0, "bike_id": "d6dbfe16dda0c8e8309146d792e94977", "fusion_lat": 0.0, "is_reserved": 0, "lon": -77.019817}, {"type": "electric_scooter", "name": "31aaa068044a4813fc5b4b7e86c057e1", "rental_uris": {"ios": "https://dc.lft.to/lastmile_qr_scan", "android": "https://dc.lft.to/lastmile_qr_scan"}, "fusion_lon": 0.0, "lat": 38.907310833333334, "is_disabled": 0, "bike_id": "31aaa068044a4813fc5b4b7e86c057e1", "fusion_lat": 0.0, "is_reserved": 0, "lon": -76.99777816666666}, {"type": "electric_scooter", "name": "5051597c1c0c86a6e63a6e3e1e449f71", "rental_uris": {"ios": "https://dc.lft.to/lastmile_qr_scan", "android": "https://dc.lft.to/lastmile_qr_scan"}, "fusion_lon": 0.0, "lat": 38.897633166666665, "is_disabled": 0, "bike_id": "5051597c1c0c86a6e63a6e3e1e449f71", "fusion_lat": 0.0, "is_reserved": 0, "lon": -77.03251483333334}, {"type": "electric_bike", "name": "de81e4de068ee6a62c4d80fd9af7f54c", "rental_uris": {"ios": "https://dc.lft.to/lastmile_qr_scan", "android": "https://dc.lft.to/lastmile_qr_scan"}, "fusion_lon": 0.0, "lat": 38.83929633333333, "is_disabled": 0, "bike_id": "de81e4de068ee6a62c4d80fd9af7f54c", "fusion_lat": 0.0, "is_reserved": 0, "lon": -77.0790785}, {"type": "electric_bike", "name": "1bbd585d029749aa6dd024e6330ef45f", "rental_uris": {"ios": "https://dc.lft.to/lastmile_qr_scan", "android": "https://dc.lft.to/lastmile_qr_scan"}, "fusion_lon": 0.0, "lat": 38.954821, "is_disabled": 0, "bike_id": "1bbd585d029749aa6dd024e6330ef45f", "fusion_lat": 0.0, "is_reserved": 0, "lon": -77.02664933333334}, {"type": "electric_scooter", "name": "f9d4f08a0b9d080402cc23ec81f4a817", "rental_uris": {"ios": "https://dc.lft.to/lastmile_qr_scan", "android": "https://dc.lft.to/lastmile_qr_scan"}, "fusion_lon": 0.0, "lat": 38.914832833333335, "is_disabled": 0, "bike_id": "f9d4f08a0b9d080402cc23ec81f4a817", "fusion_lat": 0.0, "is_reserved": 0, "lon": -77.03736283333333}, {"type": "electric_scooter", "name": "14e1c3b8653bbb4518d065ca1f350ac1", "rental_uris": {"ios": "https://dc.lft.to/lastmile_qr_scan", "android": "https://dc.lft.to/lastmile_qr_scan"}, "fusion_lon": 0.0, "lat": 38.917097166666665, "is_disabled": 0, "bike_id": "14e1c3b8653bbb4518d065ca1f350ac1", "fusion_lat": 0.0, "is_reserved": 0, "lon": -77.021795}, {"type": "electric_scooter", "name": "9e976b7cb5564d8d0083bd19d47e8956", "rental_uris": {"ios": "https://dc.lft.to/lastmile_qr_scan", "android": "https://dc.lft.to/lastmile_qr_scan"}, "fusion_lon": 0.0, "lat": 38.908252, "is_disabled": 0, "bike_id": "9e976b7cb5564d8d0083bd19d47e8956", "fusion_lat": 0.0, "is_reserved": 0, "lon": -77.0216715}, {"type": "electric_scooter", "name": "81b24ae77af8b82df2295a762083c6dd", "rental_uris": {"ios": "https://dc.lft.to/lastmile_qr_scan", "android": "https://dc.lft.to/lastmile_qr_scan"}, "fusion_lon": 0.0, "lat": 38.90499466666667, "is_disabled": 0, "bike_id": "81b24ae77af8b82df2295a762083c6dd", "fusion_lat": 0.0, "is_reserved": 0, "lon": -76.98135883333333}, {"type": "electric_scooter", "name": "b4d010a25560933eca93d8f39fbd8e9a", "rental_uris": {"ios": "https://dc.lft.to/lastmile_qr_scan", "android": "https://dc.lft.to/lastmile_qr_scan"}, "fusion_lon": 0.0, "lat": 38.914115333333335, "is_disabled": 0, "bike_id": "b4d010a25560933eca93d8f39fbd8e9a", "fusion_lat": 0.0, "is_reserved": 0, "lon": -77.01813083333333}, {"type": "electric_scooter", "name": "eb47ebfd5764134301dd754036ac31bb", "rental_uris": {"ios": "https://dc.lft.to/lastmile_qr_scan", "android": "https://dc.lft.to/lastmile_qr_scan"}, "fusion_lon": 0.0, "lat": 38.93190833333333, "is_disabled": 0, "bike_id": "eb47ebfd5764134301dd754036ac31bb", "fusion_lat": 0.0, "is_reserved": 0, "lon": -77.01992766666666}, {"type": "electric_scooter", "name": "45d7273fe85fa3130291493213ab8195", "rental_uris": {"ios": "https://dc.lft.to/lastmile_qr_scan", "android": "https://dc.lft.to/lastmile_qr_scan"}, "fusion_lon": 0.0, "lat": 38.912505833333334, "is_disabled": 0, "bike_id": "45d7273fe85fa3130291493213ab8195", "fusion_lat": 0.0, "is_reserved": 0, "lon": -77.03663966666667}, {"type": "electric_scooter", "name": "e304490ca2f21f2a44a44bc29111b6dd", "rental_uris": {"ios": "https://dc.lft.to/lastmile_qr_scan", "android": "https://dc.lft.to/lastmile_qr_scan"}, "fusion_lon": 0.0, "lat": 38.900241333333334, "is_disabled": 0, "bike_id": "e304490ca2f21f2a44a44bc29111b6dd", "fusion_lat": 0.0, "is_reserved": 0, "lon": -76.97400266666666}, {"type": "electric_bike", "name": "4ad7da109d19e00913b739f9cd2b0dea", "rental_uris": {"ios": "https://dc.lft.to/lastmile_qr_scan", "android": "https://dc.lft.to/lastmile_qr_scan"}, "fusion_lon": 0.0, "lat": 38.94508716666667, "is_disabled": 0, "bike_id": "4ad7da109d19e00913b739f9cd2b0dea", "fusion_lat": 0.0, "is_reserved": 0, "lon": -77.00671816666667}, {"type": "electric_scooter", "name": "bf771891e53330747839700f20ebf889", "rental_uris": {"ios": "https://dc.lft.to/lastmile_qr_scan", "android": "https://dc.lft.to/lastmile_qr_scan"}, "fusion_lon": 0.0, "lat": 38.91335566666667, "is_disabled": 0, "bike_id": "bf771891e53330747839700f20ebf889", "fusion_lat": 0.0, "is_reserved": 0, "lon": -77.0486975}, {"type": "electric_scooter", "name": "0b3e5972947ca866c00ff0c5debdfa42", "rental_uris": {"ios": "https://dc.lft.to/lastmile_qr_scan", "android": "https://dc.lft.to/lastmile_qr_scan"}, "fusion_lon": 0.0, "lat": 38.9203075, "is_disabled": 0, "bike_id": "0b3e5972947ca866c00ff0c5debdfa42", "fusion_lat": 0.0, "is_reserved": 0, "lon": -77.01782866666667}, {"type": "electric_scooter", "name": "5cb25fcefd5c0c552e1fbbe1131b2cc9", "rental_uris": {"ios": "https://dc.lft.to/lastmile_qr_scan", "android": "https://dc.lft.to/lastmile_qr_scan"}, "fusion_lon": 0.0, "lat": 38.9261695, "is_disabled": 0, "bike_id": "5cb25fcefd5c0c552e1fbbe1131b2cc9", "fusion_lat": 0.0, "is_reserved": 0, "lon": -77.039182}, {"type": "electric_scooter", "name": "675a828d3a4c518a8696f9b47dbc7efa", "rental_uris": {"ios": "https://dc.lft.to/lastmile_qr_scan", "android": "https://dc.lft.to/lastmile_qr_scan"}, "fusion_lon": 0.0, "lat": 38.938338333333334, "is_disabled": 0, "bike_id": "675a828d3a4c518a8696f9b47dbc7efa", "fusion_lat": 0.0, "is_reserved": 0, "lon": -77.085454}, {"type": "electric_scooter", "name": "d6f9175a4caf202d65ebed05b6313fdf", "rental_uris": {"ios": "https://dc.lft.to/lastmile_qr_scan", "android": "https://dc.lft.to/lastmile_qr_scan"}, "fusion_lon": 0.0, "lat": 38.916934166666664, "is_disabled": 0, "bike_id": "d6f9175a4caf202d65ebed05b6313fdf", "fusion_lat": 0.0, "is_reserved": 0, "lon": -77.00738533333333}, {"type": "electric_bike", "name": "ef76b7ebef06b37a6c55d94405cd51d4", "rental_uris": {"ios": "https://dc.lft.to/lastmile_qr_scan", "android": "https://dc.lft.to/lastmile_qr_scan"}, "fusion_lon": 0.0, "lat": 38.9574155, "is_disabled": 0, "bike_id": "ef76b7ebef06b37a6c55d94405cd51d4", "fusion_lat": 0.0, "is_reserved": 0, "lon": -76.972537}, {"type": "electric_bike", "name": "33ceacd1ab6241fc4a3c2944ae65a6c1", "rental_uris": {"ios": "https://dc.lft.to/lastmile_qr_scan", "android": "https://dc.lft.to/lastmile_qr_scan"}, "fusion_lon": 0.0, "lat": 38.95746616666667, "is_disabled": 0, "bike_id": "33ceacd1ab6241fc4a3c2944ae65a6c1", "fusion_lat": 0.0, "is_reserved": 0, "lon": -76.97254383333333}, {"type": "electric_scooter", "name": "e2b847f9cd86581f86a5a823a239d874", "rental_uris": {"ios": "https://dc.lft.to/lastmile_qr_scan", "android": "https://dc.lft.to/lastmile_qr_scan"}, "fusion_lon": 0.0, "lat": 38.8946665, "is_disabled": 0, "bike_id": "e2b847f9cd86581f86a5a823a239d874", "fusion_lat": 0.0, "is_reserved": 0, "lon": -77.02625083333334}, {"type": "electric_scooter", "name": "396f35a63bec3a65d496f03549b4f550", "rental_uris": {"ios": "https://dc.lft.to/lastmile_qr_scan", "android": "https://dc.lft.to/lastmile_qr_scan"}, "fusion_lon": 0.0, "lat": 38.8973755, "is_disabled": 0, "bike_id": "396f35a63bec3a65d496f03549b4f550", "fusion_lat": 0.0, "is_reserved": 0, "lon": -77.02013916666667}, {"type": "electric_scooter", "name": "74038d875e01aab314bde2a039bf6be7", "rental_uris": {"ios": "https://dc.lft.to/lastmile_qr_scan", "android": "https://dc.lft.to/lastmile_qr_scan"}, "fusion_lon": 0.0, "lat": 38.906648, "is_disabled": 0, "bike_id": "74038d875e01aab314bde2a039bf6be7", "fusion_lat": 0.0, "is_reserved": 0, "lon": -77.0259125}, {"type": "electric_scooter", "name": "e5cd5d386e1806d93dc8d307b55c0ab9", "rental_uris": {"ios": "https://dc.lft.to/lastmile_qr_scan", "android": "https://dc.lft.to/lastmile_qr_scan"}, "fusion_lon": 0.0, "lat": 38.906887, "is_disabled": 0, "bike_id": "e5cd5d386e1806d93dc8d307b55c0ab9", "fusion_lat": 0.0, "is_reserved": 0, "lon": -77.061454}, {"type": "electric_scooter", "name": "c4270307bd39f243a8c3c0a9b65aad1b", "rental_uris": {"ios": "https://dc.lft.to/lastmile_qr_scan", "android": "https://dc.lft.to/lastmile_qr_scan"}, "fusion_lon": 0.0, "lat": 38.91438566666667, "is_disabled": 0, "bike_id": "c4270307bd39f243a8c3c0a9b65aad1b", "fusion_lat": 0.0, "is_reserved": 0, "lon": -77.01219083333334}, {"type": "electric_scooter", "name": "f9c1512b4ec3d10684044452f5359214", "rental_uris": {"ios": "https://dc.lft.to/lastmile_qr_scan", "android": "https://dc.lft.to/lastmile_qr_scan"}, "fusion_lon": 0.0, "lat": 38.90045083333333, "is_disabled": 0, "bike_id": "f9c1512b4ec3d10684044452f5359214", "fusion_lat": 0.0, "is_reserved": 0, "lon": -77.0012295}, {"type": "electric_scooter", "name": "e97c2b55115102717ab56346bb525d16", "rental_uris": {"ios": "https://dc.lft.to/lastmile_qr_scan", "android": "https://dc.lft.to/lastmile_qr_scan"}, "fusion_lon": 0.0, "lat": 38.912709666666665, "is_disabled": 0, "bike_id": "e97c2b55115102717ab56346bb525d16", "fusion_lat": 0.0, "is_reserved": 0, "lon": -77.02213333333333}, {"type": "electric_scooter", "name": "65772bccb4b6ac56bff54298b98566eb", "rental_uris": {"ios": "https://dc.lft.to/lastmile_qr_scan", "android": "https://dc.lft.to/lastmile_qr_scan"}, "fusion_lon": 0.0, "lat": 38.9322245, "is_disabled": 0, "bike_id": "65772bccb4b6ac56bff54298b98566eb", "fusion_lat": 0.0, "is_reserved": 0, "lon": -77.02682833333333}, {"type": "electric_scooter", "name": "23a03ce55e483ea61ccce70bd3a742e1", "rental_uris": {"ios": "https://dc.lft.to/lastmile_qr_scan", "android": "https://dc.lft.to/lastmile_qr_scan"}, "fusion_lon": 0.0, "lat": 38.925467166666664, "is_disabled": 0, "bike_id": "23a03ce55e483ea61ccce70bd3a742e1", "fusion_lat": 0.0, "is_reserved": 0, "lon": -77.00072533333334}, {"type": "electric_bike", "name": "ad134a3bcf14e0d61acab341573fd077", "rental_uris": {"ios": "https://dc.lft.to/lastmile_qr_scan", "android": "https://dc.lft.to/lastmile_qr_scan"}, "fusion_lon": 0.0, "lat": 38.926658333333336, "is_disabled": 0, "bike_id": "ad134a3bcf14e0d61acab341573fd077", "fusion_lat": 0.0, "is_reserved": 0, "lon": -77.09848966666667}, {"type": "electric_scooter", "name": "18cfa33643c9de5b986f8ada866c0a00", "rental_uris": {"ios": "https://dc.lft.to/lastmile_qr_scan", "android": "https://dc.lft.to/lastmile_qr_scan"}, "fusion_lon": 0.0, "lat": 38.91643, "is_disabled": 0, "bike_id": "18cfa33643c9de5b986f8ada866c0a00", "fusion_lat": 0.0, "is_reserved": 0, "lon": -77.04788066666667}, {"type": "electric_scooter", "name": "a41e9aec7daf330d93b0b49178be3a55", "rental_uris": {"ios": "https://dc.lft.to/lastmile_qr_scan", "android": "https://dc.lft.to/lastmile_qr_scan"}, "fusion_lon": 0.0, "lat": 38.90436283333333, "is_disabled": 0, "bike_id": "a41e9aec7daf330d93b0b49178be3a55", "fusion_lat": 0.0, "is_reserved": 0, "lon": -77.025926}, {"type": "electric_scooter", "name": "919c17667630be579a92e9ff6c248fc6", "rental_uris": {"ios": "https://dc.lft.to/lastmile_qr_scan", "android": "https://dc.lft.to/lastmile_qr_scan"}, "fusion_lon": 0.0, "lat": 38.92121983333333, "is_disabled": 0, "bike_id": "919c17667630be579a92e9ff6c248fc6", "fusion_lat": 0.0, "is_reserved": 0, "lon": -77.04387583333333}, {"type": "electric_scooter", "name": "101a985e66e2b1075f883059239a0486", "rental_uris": {"ios": "https://dc.lft.to/lastmile_qr_scan", "android": "https://dc.lft.to/lastmile_qr_scan"}, "fusion_lon": 0.0, "lat": 38.8847755, "is_disabled": 0, "bike_id": "101a985e66e2b1075f883059239a0486", "fusion_lat": 0.0, "is_reserved": 0, "lon": -76.949889}, {"type": "electric_scooter", "name": "1870a18537ba5ac4b957c61a2f44849a", "rental_uris": {"ios": "https://dc.lft.to/lastmile_qr_scan", "android": "https://dc.lft.to/lastmile_qr_scan"}, "fusion_lon": 0.0, "lat": 38.8965495, "is_disabled": 0, "bike_id": "1870a18537ba5ac4b957c61a2f44849a", "fusion_lat": 0.0, "is_reserved": 0, "lon": -77.0463945}, {"type": "electric_scooter", "name": "f8cb2a1dd4010780a7d5f125285b5ebd", "rental_uris": {"ios": "https://dc.lft.to/lastmile_qr_scan", "android": "https://dc.lft.to/lastmile_qr_scan"}, "fusion_lon": 0.0, "lat": 38.88328716666667, "is_disabled": 0, "bike_id": "f8cb2a1dd4010780a7d5f125285b5ebd", "fusion_lat": 0.0, "is_reserved": 0, "lon": -77.01771716666667}, {"type": "electric_scooter", "name": "5caad80e7f1197e7789391b9a0dd9da9", "rental_uris": {"ios": "https://dc.lft.to/lastmile_qr_scan", "android": "https://dc.lft.to/lastmile_qr_scan"}, "fusion_lon": 0.0, "lat": 38.936755166666664, "is_disabled": 0, "bike_id": "5caad80e7f1197e7789391b9a0dd9da9", "fusion_lat": 0.0, "is_reserved": 0, "lon": -77.035919}, {"type": "electric_scooter", "name": "9a14bba523774c8cb04b5e75fee26ae7", "rental_uris": {"ios": "https://dc.lft.to/lastmile_qr_scan", "android": "https://dc.lft.to/lastmile_qr_scan"}, "fusion_lon": 0.0, "lat": 38.902283, "is_disabled": 0, "bike_id": "9a14bba523774c8cb04b5e75fee26ae7", "fusion_lat": 0.0, "is_reserved": 0, "lon": -77.04610233333334}, {"type": "electric_scooter", "name": "97a17ffee94c85f0ca358ffe37994be8", "rental_uris": {"ios": "https://dc.lft.to/lastmile_qr_scan", "android": "https://dc.lft.to/lastmile_qr_scan"}, "fusion_lon": 0.0, "lat": 38.92041483333333, "is_disabled": 0, "bike_id": "97a17ffee94c85f0ca358ffe37994be8", "fusion_lat": 0.0, "is_reserved": 0, "lon": -77.01679983333334}, {"type": "electric_scooter", "name": "f0b79c72e8d05ed3b2f9bc429572fbba", "rental_uris": {"ios": "https://dc.lft.to/lastmile_qr_scan", "android": "https://dc.lft.to/lastmile_qr_scan"}, "fusion_lon": 0.0, "lat": 38.93870533333333, "is_disabled": 0, "bike_id": "f0b79c72e8d05ed3b2f9bc429572fbba", "fusion_lat": 0.0, "is_reserved": 0, "lon": -77.02460966666666}, {"type": "electric_scooter", "name": "03bbe11e7458e5d130feb4a6745d6a16", "rental_uris": {"ios": "https://dc.lft.to/lastmile_qr_scan", "android": "https://dc.lft.to/lastmile_qr_scan"}, "fusion_lon": 0.0, "lat": 38.945130666666664, "is_disabled": 0, "bike_id": "03bbe11e7458e5d130feb4a6745d6a16", "fusion_lat": 0.0, "is_reserved": 0, "lon": -77.03353933333334}, {"type": "electric_scooter", "name": "a51e5984d0702296072b6ca1f0899dfe", "rental_uris": {"ios": "https://dc.lft.to/lastmile_qr_scan", "android": "https://dc.lft.to/lastmile_qr_scan"}, "fusion_lon": 0.0, "lat": 38.91632333333333, "is_disabled": 0, "bike_id": "a51e5984d0702296072b6ca1f0899dfe", "fusion_lat": 0.0, "is_reserved": 0, "lon": -77.04117516666666}, {"type": "electric_scooter", "name": "cda5c2f3637a9d5c0d453236482c2a2c", "rental_uris": {"ios": "https://dc.lft.to/lastmile_qr_scan", "android": "https://dc.lft.to/lastmile_qr_scan"}, "fusion_lon": 0.0, "lat": 38.90641266666667, "is_disabled": 0, "bike_id": "cda5c2f3637a9d5c0d453236482c2a2c", "fusion_lat": 0.0, "is_reserved": 0, "lon": -77.053307}, {"type": "electric_scooter", "name": "527e01037ea04ce1668ec3fac6f6dfeb", "rental_uris": {"ios": "https://dc.lft.to/lastmile_qr_scan", "android": "https://dc.lft.to/lastmile_qr_scan"}, "fusion_lon": 0.0, "lat": 38.902362833333335, "is_disabled": 0, "bike_id": "527e01037ea04ce1668ec3fac6f6dfeb", "fusion_lat": 0.0, "is_reserved": 0, "lon": -77.04057016666667}, {"type": "electric_bike", "name": "b1e149cd45b95772e7685dbd53a5f0de", "rental_uris": {"ios": "https://dc.lft.to/lastmile_qr_scan", "android": "https://dc.lft.to/lastmile_qr_scan"}, "fusion_lon": 0.0, "lat": 38.794687, "is_disabled": 0, "bike_id": "b1e149cd45b95772e7685dbd53a5f0de", "fusion_lat": 0.0, "is_reserved": 0, "lon": -76.99249516666667}, {"type": "electric_scooter", "name": "09cbe6c208407f675de6f920e2a6105a", "rental_uris": {"ios": "https://dc.lft.to/lastmile_qr_scan", "android": "https://dc.lft.to/lastmile_qr_scan"}, "fusion_lon": 0.0, "lat": 38.86686183333333, "is_disabled": 0, "bike_id": "09cbe6c208407f675de6f920e2a6105a", "fusion_lat": 0.0, "is_reserved": 0, "lon": -76.9850365}, {"type": "electric_scooter", "name": "094985b14dab406b6a1180e2d4c96811", "rental_uris": {"ios": "https://dc.lft.to/lastmile_qr_scan", "android": "https://dc.lft.to/lastmile_qr_scan"}, "fusion_lon": 0.0, "lat": 38.90217466666667, "is_disabled": 0, "bike_id": "094985b14dab406b6a1180e2d4c96811", "fusion_lat": 0.0, "is_reserved": 0, "lon": -77.025889}, {"type": "electric_scooter", "name": "025928bd7351ecd1f6c6414fc00ad335", "rental_uris": {"ios": "https://dc.lft.to/lastmile_qr_scan", "android": "https://dc.lft.to/lastmile_qr_scan"}, "fusion_lon": 0.0, "lat": 38.9190305, "is_disabled": 0, "bike_id": "025928bd7351ecd1f6c6414fc00ad335", "fusion_lat": 0.0, "is_reserved": 0, "lon": -77.02760483333333}, {"type": "electric_scooter", "name": "3e2a804375045d5710a5335db68aba34", "rental_uris": {"ios": "https://dc.lft.to/lastmile_qr_scan", "android": "https://dc.lft.to/lastmile_qr_scan"}, "fusion_lon": 0.0, "lat": 38.900325, "is_disabled": 0, "bike_id": "3e2a804375045d5710a5335db68aba34", "fusion_lat": 0.0, "is_reserved": 0, "lon": -77.05826883333333}, {"type": "electric_scooter", "name": "86c233263d9cb23f70b710bf633307a9", "rental_uris": {"ios": "https://dc.lft.to/lastmile_qr_scan", "android": "https://dc.lft.to/lastmile_qr_scan"}, "fusion_lon": 0.0, "lat": 38.903962666666665, "is_disabled": 0, "bike_id": "86c233263d9cb23f70b710bf633307a9", "fusion_lat": 0.0, "is_reserved": 0, "lon": -77.048738}, {"type": "electric_bike", "name": "eefcadf0dbd34128e9862b9e1af37a3a", "rental_uris": {"ios": "https://dc.lft.to/lastmile_qr_scan", "android": "https://dc.lft.to/lastmile_qr_scan"}, "fusion_lon": 0.0, "lat": 38.8246245, "is_disabled": 0, "bike_id": "eefcadf0dbd34128e9862b9e1af37a3a", "fusion_lat": 0.0, "is_reserved": 0, "lon": -77.007917}, {"type": "electric_scooter", "name": "c2cd5e06033c852ea09eb99051b5a8b7", "rental_uris": {"ios": "https://dc.lft.to/lastmile_qr_scan", "android": "https://dc.lft.to/lastmile_qr_scan"}, "fusion_lon": 0.0, "lat": 38.9050745, "is_disabled": 0, "bike_id": "c2cd5e06033c852ea09eb99051b5a8b7", "fusion_lat": 0.0, "is_reserved": 0, "lon": -77.02985883333334}, {"type": "electric_scooter", "name": "6bdafd8d9d411f8232245a4d15602f86", "rental_uris": {"ios": "https://dc.lft.to/lastmile_qr_scan", "android": "https://dc.lft.to/lastmile_qr_scan"}, "fusion_lon": 0.0, "lat": 38.8646095, "is_disabled": 0, "bike_id": "6bdafd8d9d411f8232245a4d15602f86", "fusion_lat": 0.0, "is_reserved": 0, "lon": -77.01267416666667}, {"type": "electric_scooter", "name": "8266eadb407a9257c1f3ffde2f0d6f77", "rental_uris": {"ios": "https://dc.lft.to/lastmile_qr_scan", "android": "https://dc.lft.to/lastmile_qr_scan"}, "fusion_lon": 0.0, "lat": 38.887636666666666, "is_disabled": 0, "bike_id": "8266eadb407a9257c1f3ffde2f0d6f77", "fusion_lat": 0.0, "is_reserved": 0, "lon": -76.97755166666667}, {"type": "electric_scooter", "name": "fbd9027dcfd77cfb53c7093fb68c537d", "rental_uris": {"ios": "https://dc.lft.to/lastmile_qr_scan", "android": "https://dc.lft.to/lastmile_qr_scan"}, "fusion_lon": 0.0, "lat": 38.920762, "is_disabled": 0, "bike_id": "fbd9027dcfd77cfb53c7093fb68c537d", "fusion_lat": 0.0, "is_reserved": 0, "lon": -77.0349285}, {"type": "electric_scooter", "name": "c90df327b67425c03e2bd5a58d6f534b", "rental_uris": {"ios": "https://dc.lft.to/lastmile_qr_scan", "android": "https://dc.lft.to/lastmile_qr_scan"}, "fusion_lon": 0.0, "lat": 38.914894333333336, "is_disabled": 0, "bike_id": "c90df327b67425c03e2bd5a58d6f534b", "fusion_lat": 0.0, "is_reserved": 0, "lon": -77.04837283333333}, {"type": "electric_scooter", "name": "08390f3eb43f9cc794ee63cefacd07f5", "rental_uris": {"ios": "https://dc.lft.to/lastmile_qr_scan", "android": "https://dc.lft.to/lastmile_qr_scan"}, "fusion_lon": 0.0, "lat": 38.923044166666664, "is_disabled": 0, "bike_id": "08390f3eb43f9cc794ee63cefacd07f5", "fusion_lat": 0.0, "is_reserved": 0, "lon": -77.04123933333334}, {"type": "electric_scooter", "name": "7cbea2069f7f6f411c9e15e87dce6d83", "rental_uris": {"ios": "https://dc.lft.to/lastmile_qr_scan", "android": "https://dc.lft.to/lastmile_qr_scan"}, "fusion_lon": 0.0, "lat": 38.900381, "is_disabled": 0, "bike_id": "7cbea2069f7f6f411c9e15e87dce6d83", "fusion_lat": 0.0, "is_reserved": 0, "lon": -77.01302416666667}, {"type": "electric_scooter", "name": "e3d6e0e5f7a350f34e8316b51360d3ca", "rental_uris": {"ios": "https://dc.lft.to/lastmile_qr_scan", "android": "https://dc.lft.to/lastmile_qr_scan"}, "fusion_lon": 0.0, "lat": 38.91264266666667, "is_disabled": 0, "bike_id": "e3d6e0e5f7a350f34e8316b51360d3ca", "fusion_lat": 0.0, "is_reserved": 0, "lon": -77.0484015}, {"type": "electric_scooter", "name": "7ac18a2d9ef28e29156bff013801f541", "rental_uris": {"ios": "https://dc.lft.to/lastmile_qr_scan", "android": "https://dc.lft.to/lastmile_qr_scan"}, "fusion_lon": 0.0, "lat": 38.909534, "is_disabled": 0, "bike_id": "7ac18a2d9ef28e29156bff013801f541", "fusion_lat": 0.0, "is_reserved": 0, "lon": -76.98542766666667}, {"type": "electric_scooter", "name": "c1fea60e8c8eda32e3c9a1d33de5b9bc", "rental_uris": {"ios": "https://dc.lft.to/lastmile_qr_scan", "android": "https://dc.lft.to/lastmile_qr_scan"}, "fusion_lon": 0.0, "lat": 38.8958135, "is_disabled": 0, "bike_id": "c1fea60e8c8eda32e3c9a1d33de5b9bc", "fusion_lat": 0.0, "is_reserved": 0, "lon": -77.02569383333334}, {"type": "electric_scooter", "name": "9863db0af9f4c3f829147ea325f07041", "rental_uris": {"ios": "https://dc.lft.to/lastmile_qr_scan", "android": "https://dc.lft.to/lastmile_qr_scan"}, "fusion_lon": 0.0, "lat": 38.9490825, "is_disabled": 0, "bike_id": "9863db0af9f4c3f829147ea325f07041", "fusion_lat": 0.0, "is_reserved": 0, "lon": -77.06621133333333}, {"type": "electric_bike", "name": "8b3961a3e7fa604c901f0882cdec442c", "rental_uris": {"ios": "https://dc.lft.to/lastmile_qr_scan", "android": "https://dc.lft.to/lastmile_qr_scan"}, "fusion_lon": 0.0, "lat": 38.8651615, "is_disabled": 0, "bike_id": "8b3961a3e7fa604c901f0882cdec442c", "fusion_lat": 0.0, "is_reserved": 0, "lon": -77.12938416666667}, {"type": "electric_scooter", "name": "548f5a369cf62118cee869bb88d4b29a", "rental_uris": {"ios": "https://dc.lft.to/lastmile_qr_scan", "android": "https://dc.lft.to/lastmile_qr_scan"}, "fusion_lon": 0.0, "lat": 38.9236315, "is_disabled": 0, "bike_id": "548f5a369cf62118cee869bb88d4b29a", "fusion_lat": 0.0, "is_reserved": 0, "lon": -77.05053733333334}, {"type": "electric_scooter", "name": "11101e4e75d4d663bdee1919bf4326b6", "rental_uris": {"ios": "https://dc.lft.to/lastmile_qr_scan", "android": "https://dc.lft.to/lastmile_qr_scan"}, "fusion_lon": 0.0, "lat": 38.90040183333333, "is_disabled": 0, "bike_id": "11101e4e75d4d663bdee1919bf4326b6", "fusion_lat": 0.0, "is_reserved": 0, "lon": -77.0069985}, {"type": "electric_scooter", "name": "a66a6bfcf8ed672db66d14a86e77e477", "rental_uris": {"ios": "https://dc.lft.to/lastmile_qr_scan", "android": "https://dc.lft.to/lastmile_qr_scan"}, "fusion_lon": 0.0, "lat": 38.908262, "is_disabled": 0, "bike_id": "a66a6bfcf8ed672db66d14a86e77e477", "fusion_lat": 0.0, "is_reserved": 0, "lon": -77.0435585}, {"type": "electric_scooter", "name": "9907a747d1fc40f30b94bc5507bd991c", "rental_uris": {"ios": "https://dc.lft.to/lastmile_qr_scan", "android": "https://dc.lft.to/lastmile_qr_scan"}, "fusion_lon": 0.0, "lat": 38.893642666666665, "is_disabled": 0, "bike_id": "9907a747d1fc40f30b94bc5507bd991c", "fusion_lat": 0.0, "is_reserved": 0, "lon": -76.92597183333334}, {"type": "electric_scooter", "name": "f169b4e82e955404bd916690e4e3f331", "rental_uris": {"ios": "https://dc.lft.to/lastmile_qr_scan", "android": "https://dc.lft.to/lastmile_qr_scan"}, "fusion_lon": 0.0, "lat": 38.91712733333333, "is_disabled": 0, "bike_id": "f169b4e82e955404bd916690e4e3f331", "fusion_lat": 0.0, "is_reserved": 0, "lon": -77.0345525}, {"type": "electric_scooter", "name": "329d91aa4a126acd8ac9ef631bee84bd", "rental_uris": {"ios": "https://dc.lft.to/lastmile_qr_scan", "android": "https://dc.lft.to/lastmile_qr_scan"}, "fusion_lon": 0.0, "lat": 38.91694066666667, "is_disabled": 0, "bike_id": "329d91aa4a126acd8ac9ef631bee84bd", "fusion_lat": 0.0, "is_reserved": 0, "lon": -77.042176}, {"type": "electric_scooter", "name": "9db2b05b036f85796597cac7549ed3d9", "rental_uris": {"ios": "https://dc.lft.to/lastmile_qr_scan", "android": "https://dc.lft.to/lastmile_qr_scan"}, "fusion_lon": 0.0, "lat": 38.900300666666666, "is_disabled": 0, "bike_id": "9db2b05b036f85796597cac7549ed3d9", "fusion_lat": 0.0, "is_reserved": 0, "lon": -77.00196833333334}, {"type": "electric_bike", "name": "4f01561eb23ba0de037063763fa6d272", "rental_uris": {"ios": "https://dc.lft.to/lastmile_qr_scan", "android": "https://dc.lft.to/lastmile_qr_scan"}, "fusion_lon": 0.0, "lat": 38.9631925, "is_disabled": 0, "bike_id": "4f01561eb23ba0de037063763fa6d272", "fusion_lat": 0.0, "is_reserved": 0, "lon": -77.074911}, {"type": "electric_bike", "name": "179748cb58f4810f558b9cdaee9a0b56", "rental_uris": {"ios": "https://dc.lft.to/lastmile_qr_scan", "android": "https://dc.lft.to/lastmile_qr_scan"}, "fusion_lon": 0.0, "lat": 38.89613583333333, "is_disabled": 0, "bike_id": "179748cb58f4810f558b9cdaee9a0b56", "fusion_lat": 0.0, "is_reserved": 0, "lon": -76.907502}, {"type": "electric_scooter", "name": "c86d908d6283e86b42bf4611cd3de8b0", "rental_uris": {"ios": "https://dc.lft.to/lastmile_qr_scan", "android": "https://dc.lft.to/lastmile_qr_scan"}, "fusion_lon": 0.0, "lat": 38.91030283333333, "is_disabled": 0, "bike_id": "c86d908d6283e86b42bf4611cd3de8b0", "fusion_lat": 0.0, "is_reserved": 0, "lon": -77.02927016666666}, {"type": "electric_scooter", "name": "9084eacfbc68bde9d1cb814e51bceb65", "rental_uris": {"ios": "https://dc.lft.to/lastmile_qr_scan", "android": "https://dc.lft.to/lastmile_qr_scan"}, "fusion_lon": 0.0, "lat": 38.90603433333333, "is_disabled": 0, "bike_id": "9084eacfbc68bde9d1cb814e51bceb65", "fusion_lat": 0.0, "is_reserved": 0, "lon": -77.05690333333334}, {"type": "electric_bike", "name": "1b7c1063058a0adf60d6eb1dc43f161e", "rental_uris": {"ios": "https://dc.lft.to/lastmile_qr_scan", "android": "https://dc.lft.to/lastmile_qr_scan"}, "fusion_lon": 0.0, "lat": 38.80449766666667, "is_disabled": 0, "bike_id": "1b7c1063058a0adf60d6eb1dc43f161e", "fusion_lat": 0.0, "is_reserved": 0, "lon": -77.05386316666667}, {"type": "electric_scooter", "name": "bf0aef4b0912b836b5888d0ecf5313e4", "rental_uris": {"ios": "https://dc.lft.to/lastmile_qr_scan", "android": "https://dc.lft.to/lastmile_qr_scan"}, "fusion_lon": 0.0, "lat": 38.931479833333334, "is_disabled": 0, "bike_id": "bf0aef4b0912b836b5888d0ecf5313e4", "fusion_lat": 0.0, "is_reserved": 0, "lon": -77.04189133333334}, {"type": "electric_scooter", "name": "f1da0d9d8ef5b2ddd68d7d334260ed74", "rental_uris": {"ios": "https://dc.lft.to/lastmile_qr_scan", "android": "https://dc.lft.to/lastmile_qr_scan"}, "fusion_lon": 0.0, "lat": 38.898494, "is_disabled": 0, "bike_id": "f1da0d9d8ef5b2ddd68d7d334260ed74", "fusion_lat": 0.0, "is_reserved": 0, "lon": -77.04144016666666}, {"type": "electric_scooter", "name": "76fbb765c3f39c5f7e429bfbdec2a804", "rental_uris": {"ios": "https://dc.lft.to/lastmile_qr_scan", "android": "https://dc.lft.to/lastmile_qr_scan"}, "fusion_lon": 0.0, "lat": 38.92026633333333, "is_disabled": 0, "bike_id": "76fbb765c3f39c5f7e429bfbdec2a804", "fusion_lat": 0.0, "is_reserved": 0, "lon": -77.01792583333334}, {"type": "electric_scooter", "name": "16c358d45a225350bc255aad5c1a1f16", "rental_uris": {"ios": "https://dc.lft.to/lastmile_qr_scan", "android": "https://dc.lft.to/lastmile_qr_scan"}, "fusion_lon": 0.0, "lat": 38.924137333333334, "is_disabled": 0, "bike_id": "16c358d45a225350bc255aad5c1a1f16", "fusion_lat": 0.0, "is_reserved": 0, "lon": -77.04463116666666}, {"type": "electric_scooter", "name": "c093f30d112296a06ced2f6dbaa900cb", "rental_uris": {"ios": "https://dc.lft.to/lastmile_qr_scan", "android": "https://dc.lft.to/lastmile_qr_scan"}, "fusion_lon": 0.0, "lat": 38.8871945, "is_disabled": 0, "bike_id": "c093f30d112296a06ced2f6dbaa900cb", "fusion_lat": 0.0, "is_reserved": 0, "lon": -76.99684116666667}, {"type": "electric_scooter", "name": "ce8fbbe859705a6471eaa8c45081379e", "rental_uris": {"ios": "https://dc.lft.to/lastmile_qr_scan", "android": "https://dc.lft.to/lastmile_qr_scan"}, "fusion_lon": 0.0, "lat": 38.92690866666667, "is_disabled": 0, "bike_id": "ce8fbbe859705a6471eaa8c45081379e", "fusion_lat": 0.0, "is_reserved": 0, "lon": -77.01492533333334}, {"type": "electric_scooter", "name": "00ba15d9dc476bce7e4d1ac6070314a5", "rental_uris": {"ios": "https://dc.lft.to/lastmile_qr_scan", "android": "https://dc.lft.to/lastmile_qr_scan"}, "fusion_lon": 0.0, "lat": 38.920424833333335, "is_disabled": 0, "bike_id": "00ba15d9dc476bce7e4d1ac6070314a5", "fusion_lat": 0.0, "is_reserved": 0, "lon": -77.017939}, {"type": "electric_scooter", "name": "1247d9aa154dfc3684ee976b3576d4fe", "rental_uris": {"ios": "https://dc.lft.to/lastmile_qr_scan", "android": "https://dc.lft.to/lastmile_qr_scan"}, "fusion_lon": 0.0, "lat": 38.93237766666667, "is_disabled": 0, "bike_id": "1247d9aa154dfc3684ee976b3576d4fe", "fusion_lat": 0.0, "is_reserved": 0, "lon": -77.03414616666667}, {"type": "electric_scooter", "name": "15a1355196c441cdddbe606e220f1998", "rental_uris": {"ios": "https://dc.lft.to/lastmile_qr_scan", "android": "https://dc.lft.to/lastmile_qr_scan"}, "fusion_lon": 0.0, "lat": 38.90409966666667, "is_disabled": 0, "bike_id": "15a1355196c441cdddbe606e220f1998", "fusion_lat": 0.0, "is_reserved": 0, "lon": -76.9732875}, {"type": "electric_scooter", "name": "26bbc58d1036cd32c089da5f39b2a5f3", "rental_uris": {"ios": "https://dc.lft.to/lastmile_qr_scan", "android": "https://dc.lft.to/lastmile_qr_scan"}, "fusion_lon": 0.0, "lat": 38.92100083333333, "is_disabled": 0, "bike_id": "26bbc58d1036cd32c089da5f39b2a5f3", "fusion_lat": 0.0, "is_reserved": 0, "lon": -77.046771}, {"type": "electric_scooter", "name": "85ffb53cab22d19b0200c0371e14ba4b", "rental_uris": {"ios": "https://dc.lft.to/lastmile_qr_scan", "android": "https://dc.lft.to/lastmile_qr_scan"}, "fusion_lon": 0.0, "lat": 38.928801, "is_disabled": 0, "bike_id": "85ffb53cab22d19b0200c0371e14ba4b", "fusion_lat": 0.0, "is_reserved": 0, "lon": -77.02708733333333}, {"type": "electric_scooter", "name": "50b7deae172ed42aabca12372f85c89c", "rental_uris": {"ios": "https://dc.lft.to/lastmile_qr_scan", "android": "https://dc.lft.to/lastmile_qr_scan"}, "fusion_lon": 0.0, "lat": 38.913152, "is_disabled": 0, "bike_id": "50b7deae172ed42aabca12372f85c89c", "fusion_lat": 0.0, "is_reserved": 0, "lon": -77.01512783333334}, {"type": "electric_scooter", "name": "996139971498c78a555d19f5f5eae491", "rental_uris": {"ios": "https://dc.lft.to/lastmile_qr_scan", "android": "https://dc.lft.to/lastmile_qr_scan"}, "fusion_lon": 0.0, "lat": 38.89825533333333, "is_disabled": 0, "bike_id": "996139971498c78a555d19f5f5eae491", "fusion_lat": 0.0, "is_reserved": 0, "lon": -77.03157783333333}, {"type": "electric_scooter", "name": "cf019e85ae920c9715a18052d3f1d69e", "rental_uris": {"ios": "https://dc.lft.to/lastmile_qr_scan", "android": "https://dc.lft.to/lastmile_qr_scan"}, "fusion_lon": 0.0, "lat": 38.902618333333336, "is_disabled": 0, "bike_id": "cf019e85ae920c9715a18052d3f1d69e", "fusion_lat": 0.0, "is_reserved": 0, "lon": -76.97456766666667}, {"type": "electric_scooter", "name": "6cbb74954d90535ae22755e5e124f47a", "rental_uris": {"ios": "https://dc.lft.to/lastmile_qr_scan", "android": "https://dc.lft.to/lastmile_qr_scan"}, "fusion_lon": 0.0, "lat": 38.908577666666666, "is_disabled": 0, "bike_id": "6cbb74954d90535ae22755e5e124f47a", "fusion_lat": 0.0, "is_reserved": 0, "lon": -76.9979585}, {"type": "electric_scooter", "name": "433a92fd695d65bf2bdeb9cac88e81d1", "rental_uris": {"ios": "https://dc.lft.to/lastmile_qr_scan", "android": "https://dc.lft.to/lastmile_qr_scan"}, "fusion_lon": 0.0, "lat": 38.91506183333333, "is_disabled": 0, "bike_id": "433a92fd695d65bf2bdeb9cac88e81d1", "fusion_lat": 0.0, "is_reserved": 0, "lon": -77.038249}, {"type": "electric_scooter", "name": "b60c1cefea44717ec6f763fa54221678", "rental_uris": {"ios": "https://dc.lft.to/lastmile_qr_scan", "android": "https://dc.lft.to/lastmile_qr_scan"}, "fusion_lon": 0.0, "lat": 38.912512666666665, "is_disabled": 0, "bike_id": "b60c1cefea44717ec6f763fa54221678", "fusion_lat": 0.0, "is_reserved": 0, "lon": -77.01906766666667}, {"type": "electric_scooter", "name": "58470ffcccc174a72b91de91f89ff22d", "rental_uris": {"ios": "https://dc.lft.to/lastmile_qr_scan", "android": "https://dc.lft.to/lastmile_qr_scan"}, "fusion_lon": 0.0, "lat": 38.9078985, "is_disabled": 0, "bike_id": "58470ffcccc174a72b91de91f89ff22d", "fusion_lat": 0.0, "is_reserved": 0, "lon": -77.04004733333333}, {"type": "electric_scooter", "name": "2ed4e3754b3286f4dbef22e5edd44170", "rental_uris": {"ios": "https://dc.lft.to/lastmile_qr_scan", "android": "https://dc.lft.to/lastmile_qr_scan"}, "fusion_lon": 0.0, "lat": 38.92870083333333, "is_disabled": 0, "bike_id": "2ed4e3754b3286f4dbef22e5edd44170", "fusion_lat": 0.0, "is_reserved": 0, "lon": -77.01414883333334}, {"type": "electric_scooter", "name": "38ff3f298fad63cb62f201de2013fd7c", "rental_uris": {"ios": "https://dc.lft.to/lastmile_qr_scan", "android": "https://dc.lft.to/lastmile_qr_scan"}, "fusion_lon": 0.0, "lat": 38.9282755, "is_disabled": 0, "bike_id": "38ff3f298fad63cb62f201de2013fd7c", "fusion_lat": 0.0, "is_reserved": 0, "lon": -77.05437316666666}, {"type": "electric_scooter", "name": "5482e1784c7daf5a6624043d6c2a0bed", "rental_uris": {"ios": "https://dc.lft.to/lastmile_qr_scan", "android": "https://dc.lft.to/lastmile_qr_scan"}, "fusion_lon": 0.0, "lat": 38.905992166666664, "is_disabled": 0, "bike_id": "5482e1784c7daf5a6624043d6c2a0bed", "fusion_lat": 0.0, "is_reserved": 0, "lon": -77.02603533333334}, {"type": "electric_scooter", "name": "31741a1218c13274f65f664cc7dba7a5", "rental_uris": {"ios": "https://dc.lft.to/lastmile_qr_scan", "android": "https://dc.lft.to/lastmile_qr_scan"}, "fusion_lon": 0.0, "lat": 38.9420185, "is_disabled": 0, "bike_id": "31741a1218c13274f65f664cc7dba7a5", "fusion_lat": 0.0, "is_reserved": 0, "lon": -77.025933}, {"type": "electric_scooter", "name": "af86c774ee5c275b71f3b86c548acb4f", "rental_uris": {"ios": "https://dc.lft.to/lastmile_qr_scan", "android": "https://dc.lft.to/lastmile_qr_scan"}, "fusion_lon": 0.0, "lat": 38.96040566666667, "is_disabled": 0, "bike_id": "af86c774ee5c275b71f3b86c548acb4f", "fusion_lat": 0.0, "is_reserved": 0, "lon": -77.07190783333333}, {"type": "electric_scooter", "name": "a4c6c54ad98c58b5e7432f182999de48", "rental_uris": {"ios": "https://dc.lft.to/lastmile_qr_scan", "android": "https://dc.lft.to/lastmile_qr_scan"}, "fusion_lon": 0.0, "lat": 38.892138833333334, "is_disabled": 0, "bike_id": "a4c6c54ad98c58b5e7432f182999de48", "fusion_lat": 0.0, "is_reserved": 0, "lon": -76.99569966666667}, {"type": "electric_scooter", "name": "1c797e88d9e858fd031720a6a5ab2142", "rental_uris": {"ios": "https://dc.lft.to/lastmile_qr_scan", "android": "https://dc.lft.to/lastmile_qr_scan"}, "fusion_lon": 0.0, "lat": 38.9230665, "is_disabled": 0, "bike_id": "1c797e88d9e858fd031720a6a5ab2142", "fusion_lat": 0.0, "is_reserved": 0, "lon": -77.041807}, {"type": "electric_bike", "name": "48acdad63802d047a45b2cfbb2fc1712", "rental_uris": {"ios": "https://dc.lft.to/lastmile_qr_scan", "android": "https://dc.lft.to/lastmile_qr_scan"}, "fusion_lon": 0.0, "lat": 38.95683733333333, "is_disabled": 0, "bike_id": "48acdad63802d047a45b2cfbb2fc1712", "fusion_lat": 0.0, "is_reserved": 0, "lon": -77.02227366666666}, {"type": "electric_scooter", "name": "7b8cc770dd98a00d12946ce55b5ad9ef", "rental_uris": {"ios": "https://dc.lft.to/lastmile_qr_scan", "android": "https://dc.lft.to/lastmile_qr_scan"}, "fusion_lon": 0.0, "lat": 38.8841475, "is_disabled": 0, "bike_id": "7b8cc770dd98a00d12946ce55b5ad9ef", "fusion_lat": 0.0, "is_reserved": 0, "lon": -77.0252785}, {"type": "electric_scooter", "name": "1ad258fc67dd23dcc5bc84bac58402fd", "rental_uris": {"ios": "https://dc.lft.to/lastmile_qr_scan", "android": "https://dc.lft.to/lastmile_qr_scan"}, "fusion_lon": 0.0, "lat": 38.9241005, "is_disabled": 0, "bike_id": "1ad258fc67dd23dcc5bc84bac58402fd", "fusion_lat": 0.0, "is_reserved": 0, "lon": -77.0256155}, {"type": "electric_scooter", "name": "a4cc5e92aecbe01b91c6d95b4113e646", "rental_uris": {"ios": "https://dc.lft.to/lastmile_qr_scan", "android": "https://dc.lft.to/lastmile_qr_scan"}, "fusion_lon": 0.0, "lat": 38.900279, "is_disabled": 0, "bike_id": "a4cc5e92aecbe01b91c6d95b4113e646", "fusion_lat": 0.0, "is_reserved": 0, "lon": -76.987049}, {"type": "electric_scooter", "name": "cdfbaaab29b7857634779d50e53a5438", "rental_uris": {"ios": "https://dc.lft.to/lastmile_qr_scan", "android": "https://dc.lft.to/lastmile_qr_scan"}, "fusion_lon": 0.0, "lat": 38.915477, "is_disabled": 0, "bike_id": "cdfbaaab29b7857634779d50e53a5438", "fusion_lat": 0.0, "is_reserved": 0, "lon": -77.03855183333333}, {"type": "electric_bike", "name": "b570500695e2e14dd1dbd747d0da0adf", "rental_uris": {"ios": "https://dc.lft.to/lastmile_qr_scan", "android": "https://dc.lft.to/lastmile_qr_scan"}, "fusion_lon": 0.0, "lat": 38.92219866666667, "is_disabled": 0, "bike_id": "b570500695e2e14dd1dbd747d0da0adf", "fusion_lat": 0.0, "is_reserved": 0, "lon": -77.201366}, {"type": "electric_scooter", "name": "9df6cac029a73ca79c6e2159ed424512", "rental_uris": {"ios": "https://dc.lft.to/lastmile_qr_scan", "android": "https://dc.lft.to/lastmile_qr_scan"}, "fusion_lon": 0.0, "lat": 38.906667166666665, "is_disabled": 0, "bike_id": "9df6cac029a73ca79c6e2159ed424512", "fusion_lat": 0.0, "is_reserved": 0, "lon": -77.02707333333333}, {"type": "electric_scooter", "name": "d401e4954d3c3d0e020cdfc3227effa1", "rental_uris": {"ios": "https://dc.lft.to/lastmile_qr_scan", "android": "https://dc.lft.to/lastmile_qr_scan"}, "fusion_lon": 0.0, "lat": 38.9209805, "is_disabled": 0, "bike_id": "d401e4954d3c3d0e020cdfc3227effa1", "fusion_lat": 0.0, "is_reserved": 0, "lon": -77.0438995}, {"type": "electric_bike", "name": "5d1388511283360a1e51beb9e6a6435b", "rental_uris": {"ios": "https://dc.lft.to/lastmile_qr_scan", "android": "https://dc.lft.to/lastmile_qr_scan"}, "fusion_lon": 0.0, "lat": 38.8842365, "is_disabled": 0, "bike_id": "5d1388511283360a1e51beb9e6a6435b", "fusion_lat": 0.0, "is_reserved": 0, "lon": -76.95422366666666}, {"type": "electric_scooter", "name": "6864b42dc2aa553004d6479add2fef86", "rental_uris": {"ios": "https://dc.lft.to/lastmile_qr_scan", "android": "https://dc.lft.to/lastmile_qr_scan"}, "fusion_lon": 0.0, "lat": 38.9014225, "is_disabled": 0, "bike_id": "6864b42dc2aa553004d6479add2fef86", "fusion_lat": 0.0, "is_reserved": 0, "lon": -77.06075866666667}, {"type": "electric_scooter", "name": "1d110a8ae53d695494d397c30c2727b8", "rental_uris": {"ios": "https://dc.lft.to/lastmile_qr_scan", "android": "https://dc.lft.to/lastmile_qr_scan"}, "fusion_lon": 0.0, "lat": 38.90370733333334, "is_disabled": 0, "bike_id": "1d110a8ae53d695494d397c30c2727b8", "fusion_lat": 0.0, "is_reserved": 0, "lon": -77.03181333333333}, {"type": "electric_scooter", "name": "3d2626d3a4c22c3390e7621d91258245", "rental_uris": {"ios": "https://dc.lft.to/lastmile_qr_scan", "android": "https://dc.lft.to/lastmile_qr_scan"}, "fusion_lon": 0.0, "lat": 38.905524, "is_disabled": 0, "bike_id": "3d2626d3a4c22c3390e7621d91258245", "fusion_lat": 0.0, "is_reserved": 0, "lon": -77.00424483333333}, {"type": "electric_scooter", "name": "c825288f22d2827d8f5c66bae31065ba", "rental_uris": {"ios": "https://dc.lft.to/lastmile_qr_scan", "android": "https://dc.lft.to/lastmile_qr_scan"}, "fusion_lon": 0.0, "lat": 38.919241166666666, "is_disabled": 0, "bike_id": "c825288f22d2827d8f5c66bae31065ba", "fusion_lat": 0.0, "is_reserved": 0, "lon": -77.031889}, {"type": "electric_scooter", "name": "b0115fe6577417669c2226994b250281", "rental_uris": {"ios": "https://dc.lft.to/lastmile_qr_scan", "android": "https://dc.lft.to/lastmile_qr_scan"}, "fusion_lon": 0.0, "lat": 38.877954333333335, "is_disabled": 0, "bike_id": "b0115fe6577417669c2226994b250281", "fusion_lat": 0.0, "is_reserved": 0, "lon": -77.001209}, {"type": "electric_scooter", "name": "38f3575687a995daf4df591b5777352c", "rental_uris": {"ios": "https://dc.lft.to/lastmile_qr_scan", "android": "https://dc.lft.to/lastmile_qr_scan"}, "fusion_lon": 0.0, "lat": 38.914564166666665, "is_disabled": 0, "bike_id": "38f3575687a995daf4df591b5777352c", "fusion_lat": 0.0, "is_reserved": 0, "lon": -77.04602566666667}, {"type": "electric_scooter", "name": "76c0a5c14b4d331d46cfec3f99787498", "rental_uris": {"ios": "https://dc.lft.to/lastmile_qr_scan", "android": "https://dc.lft.to/lastmile_qr_scan"}, "fusion_lon": 0.0, "lat": 38.9067385, "is_disabled": 0, "bike_id": "76c0a5c14b4d331d46cfec3f99787498", "fusion_lat": 0.0, "is_reserved": 0, "lon": -77.07186733333333}, {"type": "electric_scooter", "name": "63a645b16c81539d3edad4057ad3a9e0", "rental_uris": {"ios": "https://dc.lft.to/lastmile_qr_scan", "android": "https://dc.lft.to/lastmile_qr_scan"}, "fusion_lon": 0.0, "lat": 38.90848616666667, "is_disabled": 0, "bike_id": "63a645b16c81539d3edad4057ad3a9e0", "fusion_lat": 0.0, "is_reserved": 0, "lon": -76.99803416666667}, {"type": "electric_bike", "name": "a21417ea7ffcecbf4dae6df5058d98d5", "rental_uris": {"ios": "https://dc.lft.to/lastmile_qr_scan", "android": "https://dc.lft.to/lastmile_qr_scan"}, "fusion_lon": 0.0, "lat": 38.956314666666664, "is_disabled": 0, "bike_id": "a21417ea7ffcecbf4dae6df5058d98d5", "fusion_lat": 0.0, "is_reserved": 0, "lon": -77.02317883333333}, {"type": "electric_scooter", "name": "d047a38f1270fc84ea901597ef5d9b93", "rental_uris": {"ios": "https://dc.lft.to/lastmile_qr_scan", "android": "https://dc.lft.to/lastmile_qr_scan"}, "fusion_lon": 0.0, "lat": 38.913153666666666, "is_disabled": 0, "bike_id": "d047a38f1270fc84ea901597ef5d9b93", "fusion_lat": 0.0, "is_reserved": 0, "lon": -77.03197983333334}, {"type": "electric_scooter", "name": "b79db1c96efeac03261b8c6b30211b87", "rental_uris": {"ios": "https://dc.lft.to/lastmile_qr_scan", "android": "https://dc.lft.to/lastmile_qr_scan"}, "fusion_lon": 0.0, "lat": 38.88741233333333, "is_disabled": 0, "bike_id": "b79db1c96efeac03261b8c6b30211b87", "fusion_lat": 0.0, "is_reserved": 0, "lon": -77.02122166666666}, {"type": "electric_scooter", "name": "58f18ecc982accad6a839ae899acba72", "rental_uris": {"ios": "https://dc.lft.to/lastmile_qr_scan", "android": "https://dc.lft.to/lastmile_qr_scan"}, "fusion_lon": 0.0, "lat": 38.917168833333335, "is_disabled": 0, "bike_id": "58f18ecc982accad6a839ae899acba72", "fusion_lat": 0.0, "is_reserved": 0, "lon": -77.00884266666667}, {"type": "electric_scooter", "name": "08e6562e08ad53e86bb43b9090fd48c7", "rental_uris": {"ios": "https://dc.lft.to/lastmile_qr_scan", "android": "https://dc.lft.to/lastmile_qr_scan"}, "fusion_lon": 0.0, "lat": 38.92077316666666, "is_disabled": 0, "bike_id": "08e6562e08ad53e86bb43b9090fd48c7", "fusion_lat": 0.0, "is_reserved": 0, "lon": -77.02467466666667}, {"type": "electric_scooter", "name": "ebc41178badd4fd39bd285138c3eb2b5", "rental_uris": {"ios": "https://dc.lft.to/lastmile_qr_scan", "android": "https://dc.lft.to/lastmile_qr_scan"}, "fusion_lon": 0.0, "lat": 38.932813, "is_disabled": 0, "bike_id": "ebc41178badd4fd39bd285138c3eb2b5", "fusion_lat": 0.0, "is_reserved": 0, "lon": -77.02542366666667}, {"type": "electric_bike", "name": "a696267903128e37b9da2009c2f2b4bb", "rental_uris": {"ios": "https://dc.lft.to/lastmile_qr_scan", "android": "https://dc.lft.to/lastmile_qr_scan"}, "fusion_lon": 0.0, "lat": 38.877787166666664, "is_disabled": 0, "bike_id": "a696267903128e37b9da2009c2f2b4bb", "fusion_lat": 0.0, "is_reserved": 0, "lon": -77.007312}, {"type": "electric_scooter", "name": "575018ab1422d3753b009a583253034f", "rental_uris": {"ios": "https://dc.lft.to/lastmile_qr_scan", "android": "https://dc.lft.to/lastmile_qr_scan"}, "fusion_lon": 0.0, "lat": 38.936673166666665, "is_disabled": 0, "bike_id": "575018ab1422d3753b009a583253034f", "fusion_lat": 0.0, "is_reserved": 0, "lon": -77.03637016666667}, {"type": "electric_bike", "name": "b8294549de38e11327c9ad64100c7032", "rental_uris": {"ios": "https://dc.lft.to/lastmile_qr_scan", "android": "https://dc.lft.to/lastmile_qr_scan"}, "fusion_lon": 0.0, "lat": 38.97071833333333, "is_disabled": 0, "bike_id": "b8294549de38e11327c9ad64100c7032", "fusion_lat": 0.0, "is_reserved": 0, "lon": -76.936162}, {"type": "electric_scooter", "name": "0bbf894b945d8982dbcf4f8aa65f0b85", "rental_uris": {"ios": "https://dc.lft.to/lastmile_qr_scan", "android": "https://dc.lft.to/lastmile_qr_scan"}, "fusion_lon": 0.0, "lat": 38.92364416666667, "is_disabled": 0, "bike_id": "0bbf894b945d8982dbcf4f8aa65f0b85", "fusion_lat": 0.0, "is_reserved": 0, "lon": -77.01956383333334}, {"type": "electric_scooter", "name": "b454f4b119ca72548b646e19059fa95c", "rental_uris": {"ios": "https://dc.lft.to/lastmile_qr_scan", "android": "https://dc.lft.to/lastmile_qr_scan"}, "fusion_lon": 0.0, "lat": 38.93535816666667, "is_disabled": 0, "bike_id": "b454f4b119ca72548b646e19059fa95c", "fusion_lat": 0.0, "is_reserved": 0, "lon": -77.0235325}, {"type": "electric_scooter", "name": "8f81acedddfcbd64913feb7104c393f6", "rental_uris": {"ios": "https://dc.lft.to/lastmile_qr_scan", "android": "https://dc.lft.to/lastmile_qr_scan"}, "fusion_lon": 0.0, "lat": 38.897354166666666, "is_disabled": 0, "bike_id": "8f81acedddfcbd64913feb7104c393f6", "fusion_lat": 0.0, "is_reserved": 0, "lon": -77.055189}, {"type": "electric_scooter", "name": "5de6942b03d7fd9d575bff669671b94d", "rental_uris": {"ios": "https://dc.lft.to/lastmile_qr_scan", "android": "https://dc.lft.to/lastmile_qr_scan"}, "fusion_lon": 0.0, "lat": 38.925806666666666, "is_disabled": 0, "bike_id": "5de6942b03d7fd9d575bff669671b94d", "fusion_lat": 0.0, "is_reserved": 0, "lon": -77.03791066666666}, {"type": "electric_scooter", "name": "e6cbf29b9864abac179a7a725c7ad287", "rental_uris": {"ios": "https://dc.lft.to/lastmile_qr_scan", "android": "https://dc.lft.to/lastmile_qr_scan"}, "fusion_lon": 0.0, "lat": 38.929591333333335, "is_disabled": 0, "bike_id": "e6cbf29b9864abac179a7a725c7ad287", "fusion_lat": 0.0, "is_reserved": 0, "lon": -77.018522}, {"type": "electric_scooter", "name": "8525ee2de1296a1e599b0c6a5a9b024d", "rental_uris": {"ios": "https://dc.lft.to/lastmile_qr_scan", "android": "https://dc.lft.to/lastmile_qr_scan"}, "fusion_lon": 0.0, "lat": 38.902717833333334, "is_disabled": 0, "bike_id": "8525ee2de1296a1e599b0c6a5a9b024d", "fusion_lat": 0.0, "is_reserved": 0, "lon": -77.03035133333333}, {"type": "electric_scooter", "name": "3cd1647658402102a0fc74b69317de10", "rental_uris": {"ios": "https://dc.lft.to/lastmile_qr_scan", "android": "https://dc.lft.to/lastmile_qr_scan"}, "fusion_lon": 0.0, "lat": 38.879679833333334, "is_disabled": 0, "bike_id": "3cd1647658402102a0fc74b69317de10", "fusion_lat": 0.0, "is_reserved": 0, "lon": -77.0238035}, {"type": "electric_scooter", "name": "fa963d46d3b709443c5e2d8e19bf8653", "rental_uris": {"ios": "https://dc.lft.to/lastmile_qr_scan", "android": "https://dc.lft.to/lastmile_qr_scan"}, "fusion_lon": 0.0, "lat": 38.918923, "is_disabled": 0, "bike_id": "fa963d46d3b709443c5e2d8e19bf8653", "fusion_lat": 0.0, "is_reserved": 0, "lon": -77.00345616666667}, {"type": "electric_scooter", "name": "c9b93a1198dcbfdd8df5db86d9facb1f", "rental_uris": {"ios": "https://dc.lft.to/lastmile_qr_scan", "android": "https://dc.lft.to/lastmile_qr_scan"}, "fusion_lon": 0.0, "lat": 38.923678333333335, "is_disabled": 0, "bike_id": "c9b93a1198dcbfdd8df5db86d9facb1f", "fusion_lat": 0.0, "is_reserved": 0, "lon": -77.02126483333333}, {"type": "electric_bike", "name": "b2f23a4e9367d69b24eea78de6c58533", "rental_uris": {"ios": "https://dc.lft.to/lastmile_qr_scan", "android": "https://dc.lft.to/lastmile_qr_scan"}, "fusion_lon": 0.0, "lat": 38.937811333333336, "is_disabled": 0, "bike_id": "b2f23a4e9367d69b24eea78de6c58533", "fusion_lat": 0.0, "is_reserved": 0, "lon": -77.019128}, {"type": "electric_scooter", "name": "4105feff4f0b8a0fcdee31f9b7c63b52", "rental_uris": {"ios": "https://dc.lft.to/lastmile_qr_scan", "android": "https://dc.lft.to/lastmile_qr_scan"}, "fusion_lon": 0.0, "lat": 38.8976435, "is_disabled": 0, "bike_id": "4105feff4f0b8a0fcdee31f9b7c63b52", "fusion_lat": 0.0, "is_reserved": 0, "lon": -77.01010833333333}, {"type": "electric_scooter", "name": "06855cc6c0d3cb3f0fe8dde394b276e5", "rental_uris": {"ios": "https://dc.lft.to/lastmile_qr_scan", "android": "https://dc.lft.to/lastmile_qr_scan"}, "fusion_lon": 0.0, "lat": 38.89830033333333, "is_disabled": 0, "bike_id": "06855cc6c0d3cb3f0fe8dde394b276e5", "fusion_lat": 0.0, "is_reserved": 0, "lon": -76.931831}, {"type": "electric_scooter", "name": "f8edc3b7bdc228cc8afc575f8c1c43d6", "rental_uris": {"ios": "https://dc.lft.to/lastmile_qr_scan", "android": "https://dc.lft.to/lastmile_qr_scan"}, "fusion_lon": 0.0, "lat": 38.91820216666667, "is_disabled": 0, "bike_id": "f8edc3b7bdc228cc8afc575f8c1c43d6", "fusion_lat": 0.0, "is_reserved": 0, "lon": -77.03167283333333}, {"type": "electric_scooter", "name": "c43f432d1afc43700180e50ad5c044c0", "rental_uris": {"ios": "https://dc.lft.to/lastmile_qr_scan", "android": "https://dc.lft.to/lastmile_qr_scan"}, "fusion_lon": 0.0, "lat": 38.913027666666665, "is_disabled": 0, "bike_id": "c43f432d1afc43700180e50ad5c044c0", "fusion_lat": 0.0, "is_reserved": 0, "lon": -77.04541633333334}, {"type": "electric_scooter", "name": "b3693ee625ba9d867c9a2ed06d91e239", "rental_uris": {"ios": "https://dc.lft.to/lastmile_qr_scan", "android": "https://dc.lft.to/lastmile_qr_scan"}, "fusion_lon": 0.0, "lat": 38.9420355, "is_disabled": 0, "bike_id": "b3693ee625ba9d867c9a2ed06d91e239", "fusion_lat": 0.0, "is_reserved": 0, "lon": -77.0259285}, {"type": "electric_scooter", "name": "f688305b06de82c43d8e76a7125a9938", "rental_uris": {"ios": "https://dc.lft.to/lastmile_qr_scan", "android": "https://dc.lft.to/lastmile_qr_scan"}, "fusion_lon": 0.0, "lat": 38.896703333333335, "is_disabled": 0, "bike_id": "f688305b06de82c43d8e76a7125a9938", "fusion_lat": 0.0, "is_reserved": 0, "lon": -76.988386}, {"type": "electric_scooter", "name": "dce738d1aba512785ad99bca29882b98", "rental_uris": {"ios": "https://dc.lft.to/lastmile_qr_scan", "android": "https://dc.lft.to/lastmile_qr_scan"}, "fusion_lon": 0.0, "lat": 38.93700316666666, "is_disabled": 0, "bike_id": "dce738d1aba512785ad99bca29882b98", "fusion_lat": 0.0, "is_reserved": 0, "lon": -77.0559835}, {"type": "electric_scooter", "name": "6d09031cf9c9ed9ccd71bb972b4bda63", "rental_uris": {"ios": "https://dc.lft.to/lastmile_qr_scan", "android": "https://dc.lft.to/lastmile_qr_scan"}, "fusion_lon": 0.0, "lat": 38.8989885, "is_disabled": 0, "bike_id": "6d09031cf9c9ed9ccd71bb972b4bda63", "fusion_lat": 0.0, "is_reserved": 0, "lon": -77.00364133333333}, {"type": "electric_scooter", "name": "92815e4e47c9a31b2507bed74103cdd0", "rental_uris": {"ios": "https://dc.lft.to/lastmile_qr_scan", "android": "https://dc.lft.to/lastmile_qr_scan"}, "fusion_lon": 0.0, "lat": 38.840550666666665, "is_disabled": 0, "bike_id": "92815e4e47c9a31b2507bed74103cdd0", "fusion_lat": 0.0, "is_reserved": 0, "lon": -76.9766645}, {"type": "electric_scooter", "name": "43ee8ab25483a111842318d3ae9823c8", "rental_uris": {"ios": "https://dc.lft.to/lastmile_qr_scan", "android": "https://dc.lft.to/lastmile_qr_scan"}, "fusion_lon": 0.0, "lat": 38.91405866666667, "is_disabled": 0, "bike_id": "43ee8ab25483a111842318d3ae9823c8", "fusion_lat": 0.0, "is_reserved": 0, "lon": -77.02665033333334}, {"type": "electric_scooter", "name": "9534c67fb761713643577efbadcdd296", "rental_uris": {"ios": "https://dc.lft.to/lastmile_qr_scan", "android": "https://dc.lft.to/lastmile_qr_scan"}, "fusion_lon": 0.0, "lat": 38.923793, "is_disabled": 0, "bike_id": "9534c67fb761713643577efbadcdd296", "fusion_lat": 0.0, "is_reserved": 0, "lon": -77.01952033333333}, {"type": "electric_scooter", "name": "2835f8140db4b00b08c8f0cc59ab6969", "rental_uris": {"ios": "https://dc.lft.to/lastmile_qr_scan", "android": "https://dc.lft.to/lastmile_qr_scan"}, "fusion_lon": 0.0, "lat": 38.897650166666665, "is_disabled": 0, "bike_id": "2835f8140db4b00b08c8f0cc59ab6969", "fusion_lat": 0.0, "is_reserved": 0, "lon": -76.98553516666666}, {"type": "electric_scooter", "name": "072a6862a6e0bf697d19c4fd9eaed23e", "rental_uris": {"ios": "https://dc.lft.to/lastmile_qr_scan", "android": "https://dc.lft.to/lastmile_qr_scan"}, "fusion_lon": 0.0, "lat": 38.920327666666665, "is_disabled": 0, "bike_id": "072a6862a6e0bf697d19c4fd9eaed23e", "fusion_lat": 0.0, "is_reserved": 0, "lon": -77.02178866666667}, {"type": "electric_bike", "name": "4046a680ba3b8c8e86b4d4dab1b2f982", "rental_uris": {"ios": "https://dc.lft.to/lastmile_qr_scan", "android": "https://dc.lft.to/lastmile_qr_scan"}, "fusion_lon": 0.0, "lat": 38.9597475, "is_disabled": 0, "bike_id": "4046a680ba3b8c8e86b4d4dab1b2f982", "fusion_lat": 0.0, "is_reserved": 0, "lon": -76.98157133333333}, {"type": "electric_scooter", "name": "8375a4605df68cf5049160fa3c3b2c80", "rental_uris": {"ios": "https://dc.lft.to/lastmile_qr_scan", "android": "https://dc.lft.to/lastmile_qr_scan"}, "fusion_lon": 0.0, "lat": 38.91192816666667, "is_disabled": 0, "bike_id": "8375a4605df68cf5049160fa3c3b2c80", "fusion_lat": 0.0, "is_reserved": 0, "lon": -77.032557}, {"type": "electric_scooter", "name": "19d2ee79f8a8ae967f9117c7957ca917", "rental_uris": {"ios": "https://dc.lft.to/lastmile_qr_scan", "android": "https://dc.lft.to/lastmile_qr_scan"}, "fusion_lon": 0.0, "lat": 38.92480583333333, "is_disabled": 0, "bike_id": "19d2ee79f8a8ae967f9117c7957ca917", "fusion_lat": 0.0, "is_reserved": 0, "lon": -77.02755733333333}, {"type": "electric_scooter", "name": "4a1fa3ecb183939b6daa71fe108dfee3", "rental_uris": {"ios": "https://dc.lft.to/lastmile_qr_scan", "android": "https://dc.lft.to/lastmile_qr_scan"}, "fusion_lon": 0.0, "lat": 38.9073775, "is_disabled": 0, "bike_id": "4a1fa3ecb183939b6daa71fe108dfee3", "fusion_lat": 0.0, "is_reserved": 0, "lon": -77.02692583333334}, {"type": "electric_bike", "name": "0e1833780194102b5165205cc362fcaa", "rental_uris": {"ios": "https://dc.lft.to/lastmile_qr_scan", "android": "https://dc.lft.to/lastmile_qr_scan"}, "fusion_lon": 0.0, "lat": 38.95760083333333, "is_disabled": 0, "bike_id": "0e1833780194102b5165205cc362fcaa", "fusion_lat": 0.0, "is_reserved": 0, "lon": -76.98091033333333}, {"type": "electric_scooter", "name": "3610b3abd7e9750237cbf1e97874cf2c", "rental_uris": {"ios": "https://dc.lft.to/lastmile_qr_scan", "android": "https://dc.lft.to/lastmile_qr_scan"}, "fusion_lon": 0.0, "lat": 38.892232666666665, "is_disabled": 0, "bike_id": "3610b3abd7e9750237cbf1e97874cf2c", "fusion_lat": 0.0, "is_reserved": 0, "lon": -77.04865716666667}, {"type": "electric_scooter", "name": "f90fe354eec8d5ec1d8513d9e5f3cf87", "rental_uris": {"ios": "https://dc.lft.to/lastmile_qr_scan", "android": "https://dc.lft.to/lastmile_qr_scan"}, "fusion_lon": 0.0, "lat": 38.89837683333333, "is_disabled": 0, "bike_id": "f90fe354eec8d5ec1d8513d9e5f3cf87", "fusion_lat": 0.0, "is_reserved": 0, "lon": -77.03290183333333}, {"type": "electric_scooter", "name": "5be25a84d15d15af0347bae63c17a3c7", "rental_uris": {"ios": "https://dc.lft.to/lastmile_qr_scan", "android": "https://dc.lft.to/lastmile_qr_scan"}, "fusion_lon": 0.0, "lat": 38.932370166666665, "is_disabled": 0, "bike_id": "5be25a84d15d15af0347bae63c17a3c7", "fusion_lat": 0.0, "is_reserved": 0, "lon": -76.9953935}, {"type": "electric_scooter", "name": "70386740b61b9c2aed7b7abe1480571e", "rental_uris": {"ios": "https://dc.lft.to/lastmile_qr_scan", "android": "https://dc.lft.to/lastmile_qr_scan"}, "fusion_lon": 0.0, "lat": 38.919337666666664, "is_disabled": 0, "bike_id": "70386740b61b9c2aed7b7abe1480571e", "fusion_lat": 0.0, "is_reserved": 0, "lon": -77.045011}, {"type": "electric_bike", "name": "7f22c2b4a2b10035d64ba388ee57db05", "rental_uris": {"ios": "https://dc.lft.to/lastmile_qr_scan", "android": "https://dc.lft.to/lastmile_qr_scan"}, "fusion_lon": 0.0, "lat": 38.7985755, "is_disabled": 0, "bike_id": "7f22c2b4a2b10035d64ba388ee57db05", "fusion_lat": 0.0, "is_reserved": 0, "lon": -77.06306666666667}, {"type": "electric_scooter", "name": "a47dad7310bfbee19d1b7030fdb83661", "rental_uris": {"ios": "https://dc.lft.to/lastmile_qr_scan", "android": "https://dc.lft.to/lastmile_qr_scan"}, "fusion_lon": 0.0, "lat": 38.87991016666667, "is_disabled": 0, "bike_id": "a47dad7310bfbee19d1b7030fdb83661", "fusion_lat": 0.0, "is_reserved": 0, "lon": -77.02410883333333}, {"type": "electric_scooter", "name": "9de1b5e59e04c9ae7a80596846d46b59", "rental_uris": {"ios": "https://dc.lft.to/lastmile_qr_scan", "android": "https://dc.lft.to/lastmile_qr_scan"}, "fusion_lon": 0.0, "lat": 38.85796333333333, "is_disabled": 0, "bike_id": "9de1b5e59e04c9ae7a80596846d46b59", "fusion_lat": 0.0, "is_reserved": 0, "lon": -76.98912516666667}, {"type": "electric_scooter", "name": "98f9e1b88c61d42eff01dac0cf9bf3d8", "rental_uris": {"ios": "https://dc.lft.to/lastmile_qr_scan", "android": "https://dc.lft.to/lastmile_qr_scan"}, "fusion_lon": 0.0, "lat": 38.917085166666666, "is_disabled": 0, "bike_id": "98f9e1b88c61d42eff01dac0cf9bf3d8", "fusion_lat": 0.0, "is_reserved": 0, "lon": -77.03148}, {"type": "electric_scooter", "name": "7b0571f215b308bd66cf9e879b98747f", "rental_uris": {"ios": "https://dc.lft.to/lastmile_qr_scan", "android": "https://dc.lft.to/lastmile_qr_scan"}, "fusion_lon": 0.0, "lat": 38.9111795, "is_disabled": 0, "bike_id": "7b0571f215b308bd66cf9e879b98747f", "fusion_lat": 0.0, "is_reserved": 0, "lon": -77.02234583333333}, {"type": "electric_bike", "name": "5f569fb62a0e8adb765bfc7ca5a8fb3c", "rental_uris": {"ios": "https://dc.lft.to/lastmile_qr_scan", "android": "https://dc.lft.to/lastmile_qr_scan"}, "fusion_lon": 0.0, "lat": 38.857696, "is_disabled": 0, "bike_id": "5f569fb62a0e8adb765bfc7ca5a8fb3c", "fusion_lat": 0.0, "is_reserved": 0, "lon": -76.98755116666666}, {"type": "electric_scooter", "name": "37923f70ecc749f5956b0823b9c6974d", "rental_uris": {"ios": "https://dc.lft.to/lastmile_qr_scan", "android": "https://dc.lft.to/lastmile_qr_scan"}, "fusion_lon": 0.0, "lat": 38.915287666666664, "is_disabled": 0, "bike_id": "37923f70ecc749f5956b0823b9c6974d", "fusion_lat": 0.0, "is_reserved": 0, "lon": -77.01223183333333}, {"type": "electric_bike", "name": "18b0715f412e32248329288e1516d5ce", "rental_uris": {"ios": "https://dc.lft.to/lastmile_qr_scan", "android": "https://dc.lft.to/lastmile_qr_scan"}, "fusion_lon": 0.0, "lat": 38.944312333333336, "is_disabled": 0, "bike_id": "18b0715f412e32248329288e1516d5ce", "fusion_lat": 0.0, "is_reserved": 0, "lon": -77.02601216666666}, {"type": "electric_scooter", "name": "1726c2abca3ca0482c92ac436ea5e034", "rental_uris": {"ios": "https://dc.lft.to/lastmile_qr_scan", "android": "https://dc.lft.to/lastmile_qr_scan"}, "fusion_lon": 0.0, "lat": 38.905033, "is_disabled": 0, "bike_id": "1726c2abca3ca0482c92ac436ea5e034", "fusion_lat": 0.0, "is_reserved": 0, "lon": -77.00106933333333}, {"type": "electric_scooter", "name": "24fd9c7fcead6834cb5c27fbfc9e8d72", "rental_uris": {"ios": "https://dc.lft.to/lastmile_qr_scan", "android": "https://dc.lft.to/lastmile_qr_scan"}, "fusion_lon": 0.0, "lat": 38.9475015, "is_disabled": 0, "bike_id": "24fd9c7fcead6834cb5c27fbfc9e8d72", "fusion_lat": 0.0, "is_reserved": 0, "lon": -77.00716883333334}, {"type": "electric_scooter", "name": "f3f7d4c2509f0efd3f227c844a0ca56d", "rental_uris": {"ios": "https://dc.lft.to/lastmile_qr_scan", "android": "https://dc.lft.to/lastmile_qr_scan"}, "fusion_lon": 0.0, "lat": 38.939519, "is_disabled": 0, "bike_id": "f3f7d4c2509f0efd3f227c844a0ca56d", "fusion_lat": 0.0, "is_reserved": 0, "lon": -77.08596633333333}, {"type": "electric_scooter", "name": "37dd971568e0cd3ee3472061fe09d356", "rental_uris": {"ios": "https://dc.lft.to/lastmile_qr_scan", "android": "https://dc.lft.to/lastmile_qr_scan"}, "fusion_lon": 0.0, "lat": 38.93590966666667, "is_disabled": 0, "bike_id": "37dd971568e0cd3ee3472061fe09d356", "fusion_lat": 0.0, "is_reserved": 0, "lon": -77.0285415}, {"type": "electric_scooter", "name": "ee1990d7b8caeedb2ef4752eb5c8b727", "rental_uris": {"ios": "https://dc.lft.to/lastmile_qr_scan", "android": "https://dc.lft.to/lastmile_qr_scan"}, "fusion_lon": 0.0, "lat": 38.922173, "is_disabled": 0, "bike_id": "ee1990d7b8caeedb2ef4752eb5c8b727", "fusion_lat": 0.0, "is_reserved": 0, "lon": -77.02417716666666}, {"type": "electric_scooter", "name": "10473244ea238e5e51cd491e141fa2c7", "rental_uris": {"ios": "https://dc.lft.to/lastmile_qr_scan", "android": "https://dc.lft.to/lastmile_qr_scan"}, "fusion_lon": 0.0, "lat": 38.92552516666667, "is_disabled": 0, "bike_id": "10473244ea238e5e51cd491e141fa2c7", "fusion_lat": 0.0, "is_reserved": 0, "lon": -77.04061983333334}, {"type": "electric_scooter", "name": "643860d94d32d35cb7332c40fa0a1c24", "rental_uris": {"ios": "https://dc.lft.to/lastmile_qr_scan", "android": "https://dc.lft.to/lastmile_qr_scan"}, "fusion_lon": 0.0, "lat": 38.92347433333333, "is_disabled": 0, "bike_id": "643860d94d32d35cb7332c40fa0a1c24", "fusion_lat": 0.0, "is_reserved": 0, "lon": -77.05116883333334}, {"type": "electric_scooter", "name": "48f5bfb845f4c2c80a38ff2c75edb390", "rental_uris": {"ios": "https://dc.lft.to/lastmile_qr_scan", "android": "https://dc.lft.to/lastmile_qr_scan"}, "fusion_lon": 0.0, "lat": 38.9470365, "is_disabled": 0, "bike_id": "48f5bfb845f4c2c80a38ff2c75edb390", "fusion_lat": 0.0, "is_reserved": 0, "lon": -77.01942666666666}, {"type": "electric_scooter", "name": "17c5e5d73f023956708e34d0b6bb7d8d", "rental_uris": {"ios": "https://dc.lft.to/lastmile_qr_scan", "android": "https://dc.lft.to/lastmile_qr_scan"}, "fusion_lon": 0.0, "lat": 38.906895166666665, "is_disabled": 0, "bike_id": "17c5e5d73f023956708e34d0b6bb7d8d", "fusion_lat": 0.0, "is_reserved": 0, "lon": -77.03603016666666}, {"type": "electric_scooter", "name": "b57c18f1cdb186e639d7fc6182531a3c", "rental_uris": {"ios": "https://dc.lft.to/lastmile_qr_scan", "android": "https://dc.lft.to/lastmile_qr_scan"}, "fusion_lon": 0.0, "lat": 38.887334333333335, "is_disabled": 0, "bike_id": "b57c18f1cdb186e639d7fc6182531a3c", "fusion_lat": 0.0, "is_reserved": 0, "lon": -77.02834616666667}, {"type": "electric_scooter", "name": "2c38883fdf2adb25ce19745594ad4c61", "rental_uris": {"ios": "https://dc.lft.to/lastmile_qr_scan", "android": "https://dc.lft.to/lastmile_qr_scan"}, "fusion_lon": 0.0, "lat": 38.90134616666667, "is_disabled": 0, "bike_id": "2c38883fdf2adb25ce19745594ad4c61", "fusion_lat": 0.0, "is_reserved": 0, "lon": -77.0445455}, {"type": "electric_scooter", "name": "6145c576d32da4fae218cd187ff01241", "rental_uris": {"ios": "https://dc.lft.to/lastmile_qr_scan", "android": "https://dc.lft.to/lastmile_qr_scan"}, "fusion_lon": 0.0, "lat": 38.91074916666667, "is_disabled": 0, "bike_id": "6145c576d32da4fae218cd187ff01241", "fusion_lat": 0.0, "is_reserved": 0, "lon": -77.030322}, {"type": "electric_scooter", "name": "7d8b62be618b66907fc15ba03a464cfe", "rental_uris": {"ios": "https://dc.lft.to/lastmile_qr_scan", "android": "https://dc.lft.to/lastmile_qr_scan"}, "fusion_lon": 0.0, "lat": 38.8953025, "is_disabled": 0, "bike_id": "7d8b62be618b66907fc15ba03a464cfe", "fusion_lat": 0.0, "is_reserved": 0, "lon": -76.94892583333333}, {"type": "electric_scooter", "name": "646d1b6aba2a9c99a49027153230d100", "rental_uris": {"ios": "https://dc.lft.to/lastmile_qr_scan", "android": "https://dc.lft.to/lastmile_qr_scan"}, "fusion_lon": 0.0, "lat": 38.910992, "is_disabled": 0, "bike_id": "646d1b6aba2a9c99a49027153230d100", "fusion_lat": 0.0, "is_reserved": 0, "lon": -77.02804116666667}, {"type": "electric_scooter", "name": "bc5ac9f0e18f0cb685282c9c9a55f142", "rental_uris": {"ios": "https://dc.lft.to/lastmile_qr_scan", "android": "https://dc.lft.to/lastmile_qr_scan"}, "fusion_lon": 0.0, "lat": 38.927333, "is_disabled": 0, "bike_id": "bc5ac9f0e18f0cb685282c9c9a55f142", "fusion_lat": 0.0, "is_reserved": 0, "lon": -77.03688783333334}, {"type": "electric_scooter", "name": "0f5557e7aa727cb988b6424d2aa89510", "rental_uris": {"ios": "https://dc.lft.to/lastmile_qr_scan", "android": "https://dc.lft.to/lastmile_qr_scan"}, "fusion_lon": 0.0, "lat": 38.90663083333333, "is_disabled": 0, "bike_id": "0f5557e7aa727cb988b6424d2aa89510", "fusion_lat": 0.0, "is_reserved": 0, "lon": -77.027112}, {"type": "electric_scooter", "name": "a501982ce47eca16f87b4ae547eba1c0", "rental_uris": {"ios": "https://dc.lft.to/lastmile_qr_scan", "android": "https://dc.lft.to/lastmile_qr_scan"}, "fusion_lon": 0.0, "lat": 38.928295166666665, "is_disabled": 0, "bike_id": "a501982ce47eca16f87b4ae547eba1c0", "fusion_lat": 0.0, "is_reserved": 0, "lon": -77.054417}, {"type": "electric_scooter", "name": "6e00cc9d1411f228867e710517270579", "rental_uris": {"ios": "https://dc.lft.to/lastmile_qr_scan", "android": "https://dc.lft.to/lastmile_qr_scan"}, "fusion_lon": 0.0, "lat": 38.90578, "is_disabled": 0, "bike_id": "6e00cc9d1411f228867e710517270579", "fusion_lat": 0.0, "is_reserved": 0, "lon": -76.9843545}, {"type": "electric_scooter", "name": "550d68c23f0e4ed8b754f50b80667535", "rental_uris": {"ios": "https://dc.lft.to/lastmile_qr_scan", "android": "https://dc.lft.to/lastmile_qr_scan"}, "fusion_lon": 0.0, "lat": 38.912546666666664, "is_disabled": 0, "bike_id": "550d68c23f0e4ed8b754f50b80667535", "fusion_lat": 0.0, "is_reserved": 0, "lon": -77.038356}, {"type": "electric_scooter", "name": "17f70b0cf2432066eb4cd819b10fae14", "rental_uris": {"ios": "https://dc.lft.to/lastmile_qr_scan", "android": "https://dc.lft.to/lastmile_qr_scan"}, "fusion_lon": 0.0, "lat": 38.898261166666664, "is_disabled": 0, "bike_id": "17f70b0cf2432066eb4cd819b10fae14", "fusion_lat": 0.0, "is_reserved": 0, "lon": -77.0315095}, {"type": "electric_scooter", "name": "5731c48953dd942a82a385be749a512d", "rental_uris": {"ios": "https://dc.lft.to/lastmile_qr_scan", "android": "https://dc.lft.to/lastmile_qr_scan"}, "fusion_lon": 0.0, "lat": 38.91774516666667, "is_disabled": 0, "bike_id": "5731c48953dd942a82a385be749a512d", "fusion_lat": 0.0, "is_reserved": 0, "lon": -77.041019}, {"type": "electric_bike", "name": "d2cf0b1b72fbc427e3f1fcc007559a8f", "rental_uris": {"ios": "https://dc.lft.to/lastmile_qr_scan", "android": "https://dc.lft.to/lastmile_qr_scan"}, "fusion_lon": 0.0, "lat": 38.8799555, "is_disabled": 0, "bike_id": "d2cf0b1b72fbc427e3f1fcc007559a8f", "fusion_lat": 0.0, "is_reserved": 0, "lon": -77.1076135}, {"type": "electric_scooter", "name": "67e2c193cb7cb726e150c1d92d243690", "rental_uris": {"ios": "https://dc.lft.to/lastmile_qr_scan", "android": "https://dc.lft.to/lastmile_qr_scan"}, "fusion_lon": 0.0, "lat": 38.876581333333334, "is_disabled": 0, "bike_id": "67e2c193cb7cb726e150c1d92d243690", "fusion_lat": 0.0, "is_reserved": 0, "lon": -77.01713316666667}, {"type": "electric_bike", "name": "dc876c773aceeee0a60d0a2b4e9a3e2f", "rental_uris": {"ios": "https://dc.lft.to/lastmile_qr_scan", "android": "https://dc.lft.to/lastmile_qr_scan"}, "fusion_lon": 0.0, "lat": 38.92458716666667, "is_disabled": 0, "bike_id": "dc876c773aceeee0a60d0a2b4e9a3e2f", "fusion_lat": 0.0, "is_reserved": 0, "lon": -77.06731733333334}, {"type": "electric_scooter", "name": "770f5eae6daf97342b15c2988648e2d5", "rental_uris": {"ios": "https://dc.lft.to/lastmile_qr_scan", "android": "https://dc.lft.to/lastmile_qr_scan"}, "fusion_lon": 0.0, "lat": 38.887414166666666, "is_disabled": 0, "bike_id": "770f5eae6daf97342b15c2988648e2d5", "fusion_lat": 0.0, "is_reserved": 0, "lon": -77.02581283333333}, {"type": "electric_scooter", "name": "f3c22bae7f79ac132534960fb9dcfe22", "rental_uris": {"ios": "https://dc.lft.to/lastmile_qr_scan", "android": "https://dc.lft.to/lastmile_qr_scan"}, "fusion_lon": 0.0, "lat": 38.88329733333333, "is_disabled": 0, "bike_id": "f3c22bae7f79ac132534960fb9dcfe22", "fusion_lat": 0.0, "is_reserved": 0, "lon": -77.01774033333334}, {"type": "electric_scooter", "name": "943f9e89a9d2050688c29ec5b7c2a9a0", "rental_uris": {"ios": "https://dc.lft.to/lastmile_qr_scan", "android": "https://dc.lft.to/lastmile_qr_scan"}, "fusion_lon": 0.0, "lat": 38.918069, "is_disabled": 0, "bike_id": "943f9e89a9d2050688c29ec5b7c2a9a0", "fusion_lat": 0.0, "is_reserved": 0, "lon": -77.02817383333333}, {"type": "electric_scooter", "name": "d97605eb5791cde9a316c1f6cd3069af", "rental_uris": {"ios": "https://dc.lft.to/lastmile_qr_scan", "android": "https://dc.lft.to/lastmile_qr_scan"}, "fusion_lon": 0.0, "lat": 38.901318333333336, "is_disabled": 0, "bike_id": "d97605eb5791cde9a316c1f6cd3069af", "fusion_lat": 0.0, "is_reserved": 0, "lon": -77.0462175}, {"type": "electric_scooter", "name": "34a87c3544f9146f9cdd6b6d0014a781", "rental_uris": {"ios": "https://dc.lft.to/lastmile_qr_scan", "android": "https://dc.lft.to/lastmile_qr_scan"}, "fusion_lon": 0.0, "lat": 38.91427216666666, "is_disabled": 0, "bike_id": "34a87c3544f9146f9cdd6b6d0014a781", "fusion_lat": 0.0, "is_reserved": 0, "lon": -77.064193}, {"type": "electric_scooter", "name": "e07282a598fdedf6438094137b1d6479", "rental_uris": {"ios": "https://dc.lft.to/lastmile_qr_scan", "android": "https://dc.lft.to/lastmile_qr_scan"}, "fusion_lon": 0.0, "lat": 38.8849415, "is_disabled": 0, "bike_id": "e07282a598fdedf6438094137b1d6479", "fusion_lat": 0.0, "is_reserved": 0, "lon": -77.0072825}, {"type": "electric_scooter", "name": "b838a19022aff581bcc1697efe1e66e4", "rental_uris": {"ios": "https://dc.lft.to/lastmile_qr_scan", "android": "https://dc.lft.to/lastmile_qr_scan"}, "fusion_lon": 0.0, "lat": 38.885198333333335, "is_disabled": 0, "bike_id": "b838a19022aff581bcc1697efe1e66e4", "fusion_lat": 0.0, "is_reserved": 0, "lon": -77.01532183333333}, {"type": "electric_scooter", "name": "1258aaad9e92326b668c1ac110a0c356", "rental_uris": {"ios": "https://dc.lft.to/lastmile_qr_scan", "android": "https://dc.lft.to/lastmile_qr_scan"}, "fusion_lon": 0.0, "lat": 38.874614333333334, "is_disabled": 0, "bike_id": "1258aaad9e92326b668c1ac110a0c356", "fusion_lat": 0.0, "is_reserved": 0, "lon": -77.00964766666667}, {"type": "electric_scooter", "name": "9b45d31f7670cdd9a82ce6704b5a2660", "rental_uris": {"ios": "https://dc.lft.to/lastmile_qr_scan", "android": "https://dc.lft.to/lastmile_qr_scan"}, "fusion_lon": 0.0, "lat": 38.9148045, "is_disabled": 0, "bike_id": "9b45d31f7670cdd9a82ce6704b5a2660", "fusion_lat": 0.0, "is_reserved": 0, "lon": -77.02963466666667}, {"type": "electric_scooter", "name": "6e6fc96c1ed8462355533493ed50adc0", "rental_uris": {"ios": "https://dc.lft.to/lastmile_qr_scan", "android": "https://dc.lft.to/lastmile_qr_scan"}, "fusion_lon": 0.0, "lat": 38.903208666666664, "is_disabled": 0, "bike_id": "6e6fc96c1ed8462355533493ed50adc0", "fusion_lat": 0.0, "is_reserved": 0, "lon": -77.0246755}, {"type": "electric_scooter", "name": "e603b640bb2c552f3e24a72830fd9204", "rental_uris": {"ios": "https://dc.lft.to/lastmile_qr_scan", "android": "https://dc.lft.to/lastmile_qr_scan"}, "fusion_lon": 0.0, "lat": 38.93842433333333, "is_disabled": 0, "bike_id": "e603b640bb2c552f3e24a72830fd9204", "fusion_lat": 0.0, "is_reserved": 0, "lon": -77.03379133333334}, {"type": "electric_scooter", "name": "6530a27a61dda0c72e02ca525baf6434", "rental_uris": {"ios": "https://dc.lft.to/lastmile_qr_scan", "android": "https://dc.lft.to/lastmile_qr_scan"}, "fusion_lon": 0.0, "lat": 38.86062166666667, "is_disabled": 0, "bike_id": "6530a27a61dda0c72e02ca525baf6434", "fusion_lat": 0.0, "is_reserved": 0, "lon": -76.985051}, {"type": "electric_scooter", "name": "a68f389fe3c7c684de0671f2682a360d", "rental_uris": {"ios": "https://dc.lft.to/lastmile_qr_scan", "android": "https://dc.lft.to/lastmile_qr_scan"}, "fusion_lon": 0.0, "lat": 38.92871183333333, "is_disabled": 0, "bike_id": "a68f389fe3c7c684de0671f2682a360d", "fusion_lat": 0.0, "is_reserved": 0, "lon": -77.03305283333333}, {"type": "electric_bike", "name": "1d2839ba457245ba6c0da7dc973c8617", "rental_uris": {"ios": "https://dc.lft.to/lastmile_qr_scan", "android": "https://dc.lft.to/lastmile_qr_scan"}, "fusion_lon": 0.0, "lat": 38.985028, "is_disabled": 0, "bike_id": "1d2839ba457245ba6c0da7dc973c8617", "fusion_lat": 0.0, "is_reserved": 0, "lon": -76.98203816666667}, {"type": "electric_scooter", "name": "f5c1e693a6000befe3332c570352da60", "rental_uris": {"ios": "https://dc.lft.to/lastmile_qr_scan", "android": "https://dc.lft.to/lastmile_qr_scan"}, "fusion_lon": 0.0, "lat": 38.904471, "is_disabled": 0, "bike_id": "f5c1e693a6000befe3332c570352da60", "fusion_lat": 0.0, "is_reserved": 0, "lon": -76.99626383333333}, {"type": "electric_scooter", "name": "090bc33fcb7027454452be73faae75d4", "rental_uris": {"ios": "https://dc.lft.to/lastmile_qr_scan", "android": "https://dc.lft.to/lastmile_qr_scan"}, "fusion_lon": 0.0, "lat": 38.90205133333333, "is_disabled": 0, "bike_id": "090bc33fcb7027454452be73faae75d4", "fusion_lat": 0.0, "is_reserved": 0, "lon": -77.02370783333333}, {"type": "electric_scooter", "name": "4ad120818c929aaaaeb425033a09be4b", "rental_uris": {"ios": "https://dc.lft.to/lastmile_qr_scan", "android": "https://dc.lft.to/lastmile_qr_scan"}, "fusion_lon": 0.0, "lat": 38.8848915, "is_disabled": 0, "bike_id": "4ad120818c929aaaaeb425033a09be4b", "fusion_lat": 0.0, "is_reserved": 0, "lon": -77.00711366666667}, {"type": "electric_scooter", "name": "215fe025e3106c51d0be4a78201aaad4", "rental_uris": {"ios": "https://dc.lft.to/lastmile_qr_scan", "android": "https://dc.lft.to/lastmile_qr_scan"}, "fusion_lon": 0.0, "lat": 38.887427, "is_disabled": 0, "bike_id": "215fe025e3106c51d0be4a78201aaad4", "fusion_lat": 0.0, "is_reserved": 0, "lon": -77.01728316666667}, {"type": "electric_scooter", "name": "c412cea08f903b5ea787d9a9efe34dd2", "rental_uris": {"ios": "https://dc.lft.to/lastmile_qr_scan", "android": "https://dc.lft.to/lastmile_qr_scan"}, "fusion_lon": 0.0, "lat": 38.917636, "is_disabled": 0, "bike_id": "c412cea08f903b5ea787d9a9efe34dd2", "fusion_lat": 0.0, "is_reserved": 0, "lon": -77.01219166666667}, {"type": "electric_scooter", "name": "6c9289d6847352f9f82eab8abb7111f9", "rental_uris": {"ios": "https://dc.lft.to/lastmile_qr_scan", "android": "https://dc.lft.to/lastmile_qr_scan"}, "fusion_lon": 0.0, "lat": 38.92416633333333, "is_disabled": 0, "bike_id": "6c9289d6847352f9f82eab8abb7111f9", "fusion_lat": 0.0, "is_reserved": 0, "lon": -77.0517375}, {"type": "electric_scooter", "name": "a130a1e2c0654b6abc995a3e6cb85699", "rental_uris": {"ios": "https://dc.lft.to/lastmile_qr_scan", "android": "https://dc.lft.to/lastmile_qr_scan"}, "fusion_lon": 0.0, "lat": 38.91712616666667, "is_disabled": 0, "bike_id": "a130a1e2c0654b6abc995a3e6cb85699", "fusion_lat": 0.0, "is_reserved": 0, "lon": -77.041606}, {"type": "electric_scooter", "name": "7ed5bee8e9cca7db4bcbc119b5b8f2cc", "rental_uris": {"ios": "https://dc.lft.to/lastmile_qr_scan", "android": "https://dc.lft.to/lastmile_qr_scan"}, "fusion_lon": 0.0, "lat": 38.88406966666667, "is_disabled": 0, "bike_id": "7ed5bee8e9cca7db4bcbc119b5b8f2cc", "fusion_lat": 0.0, "is_reserved": 0, "lon": -76.9859185}, {"type": "electric_scooter", "name": "0df2bc4f46d7c09b73de46c1d6e7b8f6", "rental_uris": {"ios": "https://dc.lft.to/lastmile_qr_scan", "android": "https://dc.lft.to/lastmile_qr_scan"}, "fusion_lon": 0.0, "lat": 38.913202, "is_disabled": 0, "bike_id": "0df2bc4f46d7c09b73de46c1d6e7b8f6", "fusion_lat": 0.0, "is_reserved": 0, "lon": -77.01752133333333}, {"type": "electric_scooter", "name": "ae68933447f8917196996a5326fd6ae6", "rental_uris": {"ios": "https://dc.lft.to/lastmile_qr_scan", "android": "https://dc.lft.to/lastmile_qr_scan"}, "fusion_lon": 0.0, "lat": 38.895549833333334, "is_disabled": 0, "bike_id": "ae68933447f8917196996a5326fd6ae6", "fusion_lat": 0.0, "is_reserved": 0, "lon": -76.99840283333333}, {"type": "electric_scooter", "name": "85f5fd39f53820674c32af11252e7303", "rental_uris": {"ios": "https://dc.lft.to/lastmile_qr_scan", "android": "https://dc.lft.to/lastmile_qr_scan"},