{"data": {"bikes": [{"rental_uris": {"ios": "https://dc.lft.to/lastmile_qr_scan", "android": "https://dc.lft.to/lastmile_qr_scan"}, "lon": -77.05138183333334, "type": "electric_scooter", "fusion_lat": 0.0, "lat": 38.901271666666666, "name": "98284dc2cda08a089c06b9a1c30a6084", "fusion_lon": 0.0, "bike_id": "98284dc2cda08a089c06b9a1c30a6084", "is_disabled": 0, "is_reserved": 0}, {"rental_uris": {"ios": "https://dc.lft.to/lastmile_qr_scan", "android": "https://dc.lft.to/lastmile_qr_scan"}, "lon": -77.0050965, "type": "electric_scooter", "fusion_lat": 0.0, "lat": 38.9170925, "name": "daa2fa684d5f733748a23fe3423351bc", "fusion_lon": 0.0, "bike_id": "daa2fa684d5f733748a23fe3423351bc", "is_disabled": 0, "is_reserved": 0}, {"rental_uris": {"ios": "https://dc.lft.to/lastmile_qr_scan", "android": "https://dc.lft.to/lastmile_qr_scan"}, "lon": -76.9997595, "type": "electric_scooter", "fusion_lat": 0.0, "lat": 38.838380666666666, "name": "4f6fc309c9ae45df677fca4194101d4f", "fusion_lon": 0.0, "bike_id": "4f6fc309c9ae45df677fca4194101d4f", "is_disabled": 0, "is_reserved": 0}, {"rental_uris": {"ios": "https://dc.lft.to/lastmile_qr_scan", "android": "https://dc.lft.to/lastmile_qr_scan"}, "lon": -77.04004733333333, "type": "electric_scooter", "fusion_lat": 0.0, "lat": 38.901321833333334, "name": "65e33d6dc120402c9423fe252e40be05", "fusion_lon": 0.0, "bike_id": "65e33d6dc120402c9423fe252e40be05", "is_disabled": 0, "is_reserved": 0}, {"rental_uris": {"ios": "https://dc.lft.to/lastmile_qr_scan", "android": "https://dc.lft.to/lastmile_qr_scan"}, "lon": -77.026179, "type": "electric_scooter", "fusion_lat": 0.0, "lat": 38.93395233333333, "name": "2bff91587ae6d5f8b59da93ec0040a56", "fusion_lon": 0.0, "bike_id": "2bff91587ae6d5f8b59da93ec0040a56", "is_disabled": 0, "is_reserved": 0}, {"rental_uris": {"ios": "https://dc.lft.to/lastmile_qr_scan", "android": "https://dc.lft.to/lastmile_qr_scan"}, "lon": -77.06986, "type": "electric_scooter", "fusion_lat": 0.0, "lat": 38.954843833333335, "name": "0902aca893a5734c8a4ba511e23ddfc2", "fusion_lon": 0.0, "bike_id": "0902aca893a5734c8a4ba511e23ddfc2", "is_disabled": 0, "is_reserved": 0}, {"rental_uris": {"ios": "https://dc.lft.to/lastmile_qr_scan", "android": "https://dc.lft.to/lastmile_qr_scan"}, "lon": -77.06328933333333, "type": "electric_scooter", "fusion_lat": 0.0, "lat": 38.907704833333334, "name": "daa43dfa9b47527ea831cc85a0b2edf8", "fusion_lon": 0.0, "bike_id": "daa43dfa9b47527ea831cc85a0b2edf8", "is_disabled": 0, "is_reserved": 0}, {"rental_uris": {"ios": "https://dc.lft.to/lastmile_qr_scan", "android": "https://dc.lft.to/lastmile_qr_scan"}, "lon": -76.99501033333334, "type": "electric_bike", "fusion_lat": 0.0, "lat": 39.00007316666667, "name": "087fb540579e96cfaf721a3728dda976", "fusion_lon": 0.0, "bike_id": "087fb540579e96cfaf721a3728dda976", "is_disabled": 0, "is_reserved": 0}, {"rental_uris": {"ios": "https://dc.lft.to/lastmile_qr_scan", "android": "https://dc.lft.to/lastmile_qr_scan"}, "lon": -76.99790566666667, "type": "electric_scooter", "fusion_lat": 0.0, "lat": 38.921832, "name": "0405661d25585a9cb97e2d4b3caa11b2", "fusion_lon": 0.0, "bike_id": "0405661d25585a9cb97e2d4b3caa11b2", "is_disabled": 0, "is_reserved": 0}, {"rental_uris": {"ios": "https://dc.lft.to/lastmile_qr_scan", "android": "https://dc.lft.to/lastmile_qr_scan"}, "lon": -76.9994535, "type": "electric_scooter", "fusion_lat": 0.0, "lat": 38.906988, "name": "bec68fbf0081000b1d0a09c7f057a8ae", "fusion_lon": 0.0, "bike_id": "bec68fbf0081000b1d0a09c7f057a8ae", "is_disabled": 0, "is_reserved": 0}, {"rental_uris": {"ios": "https://dc.lft.to/lastmile_qr_scan", "android": "https://dc.lft.to/lastmile_qr_scan"}, "lon": -77.04487383333333, "type": "electric_scooter", "fusion_lat": 0.0, "lat": 38.908599, "name": "fe7cc267b4b9ef243f130fcb849a2f8f", "fusion_lon": 0.0, "bike_id": "fe7cc267b4b9ef243f130fcb849a2f8f", "is_disabled": 0, "is_reserved": 0}, {"rental_uris": {"ios": "https://dc.lft.to/lastmile_qr_scan", "android": "https://dc.lft.to/lastmile_qr_scan"}, "lon": -77.05498816666666, "type": "electric_scooter", "fusion_lat": 0.0, "lat": 38.929765833333335, "name": "26b9cb362eb1311b6a98f56ccc971a0b", "fusion_lon": 0.0, "bike_id": "26b9cb362eb1311b6a98f56ccc971a0b", "is_disabled": 0, "is_reserved": 0}, {"rental_uris": {"ios": "https://dc.lft.to/lastmile_qr_scan", "android": "https://dc.lft.to/lastmile_qr_scan"}, "lon": -77.0412395, "type": "electric_scooter", "fusion_lat": 0.0, "lat": 38.9001, "name": "9421c4296bca8694704dfcfb0e161f71", "fusion_lon": 0.0, "bike_id": "9421c4296bca8694704dfcfb0e161f71", "is_disabled": 0, "is_reserved": 0}, {"rental_uris": {"ios": "https://dc.lft.to/lastmile_qr_scan", "android": "https://dc.lft.to/lastmile_qr_scan"}, "lon": -76.95755683333333, "type": "electric_scooter", "fusion_lat": 0.0, "lat": 38.8843955, "name": "e8a6ffda7fabf564e9384b98cdb2bde9", "fusion_lon": 0.0, "bike_id": "e8a6ffda7fabf564e9384b98cdb2bde9", "is_disabled": 0, "is_reserved": 0}, {"rental_uris": {"ios": "https://dc.lft.to/lastmile_qr_scan", "android": "https://dc.lft.to/lastmile_qr_scan"}, "lon": -77.12508583333333, "type": "electric_bike", "fusion_lat": 0.0, "lat": 39.0242545, "name": "d76ee471718d4ba444e57d2b33499480", "fusion_lon": 0.0, "bike_id": "d76ee471718d4ba444e57d2b33499480", "is_disabled": 0, "is_reserved": 0}, {"rental_uris": {"ios": "https://dc.lft.to/lastmile_qr_scan", "android": "https://dc.lft.to/lastmile_qr_scan"}, "lon": -77.03285816666667, "type": "electric_scooter", "fusion_lat": 0.0, "lat": 38.93490283333333, "name": "8e757b6846b1ad1b09e08bbd49effff5", "fusion_lon": 0.0, "bike_id": "8e757b6846b1ad1b09e08bbd49effff5", "is_disabled": 0, "is_reserved": 0}, {"rental_uris": {"ios": "https://dc.lft.to/lastmile_qr_scan", "android": "https://dc.lft.to/lastmile_qr_scan"}, "lon": -77.05209483333333, "type": "electric_scooter", "fusion_lat": 0.0, "lat": 38.925899, "name": "c262eee37873122b7d2017f81bdc5c07", "fusion_lon": 0.0, "bike_id": "c262eee37873122b7d2017f81bdc5c07", "is_disabled": 0, "is_reserved": 0}, {"rental_uris": {"ios": "https://dc.lft.to/lastmile_qr_scan", "android": "https://dc.lft.to/lastmile_qr_scan"}, "lon": -77.01965283333334, "type": "electric_bike", "fusion_lat": 0.0, "lat": 38.878424333333335, "name": "90589bb82811461931e2ffa493239633", "fusion_lon": 0.0, "bike_id": "90589bb82811461931e2ffa493239633", "is_disabled": 0, "is_reserved": 0}, {"rental_uris": {"ios": "https://dc.lft.to/lastmile_qr_scan", "android": "https://dc.lft.to/lastmile_qr_scan"}, "lon": -77.03405383333333, "type": "electric_scooter", "fusion_lat": 0.0, "lat": 38.922718833333334, "name": "908397f4593ed6bfeca2fb13941b228f", "fusion_lon": 0.0, "bike_id": "908397f4593ed6bfeca2fb13941b228f", "is_disabled": 0, "is_reserved": 0}, {"rental_uris": {"ios": "https://dc.lft.to/lastmile_qr_scan", "android": "https://dc.lft.to/lastmile_qr_scan"}, "lon": -77.04331883333333, "type": "electric_scooter", "fusion_lat": 0.0, "lat": 38.89584633333333, "name": "af4c8b1bc7c68fadd4ca39f08370ded1", "fusion_lon": 0.0, "bike_id": "af4c8b1bc7c68fadd4ca39f08370ded1", "is_disabled": 0, "is_reserved": 0}, {"rental_uris": {"ios": "https://dc.lft.to/lastmile_qr_scan", "android": "https://dc.lft.to/lastmile_qr_scan"}, "lon": -77.03265783333333, "type": "electric_scooter", "fusion_lat": 0.0, "lat": 38.92546216666667, "name": "8073aaadbb70f06d9733aebf52133cf1", "fusion_lon": 0.0, "bike_id": "8073aaadbb70f06d9733aebf52133cf1", "is_disabled": 0, "is_reserved": 0}, {"rental_uris": {"ios": "https://dc.lft.to/lastmile_qr_scan", "android": "https://dc.lft.to/lastmile_qr_scan"}, "lon": -77.09190733333334, "type": "electric_scooter", "fusion_lat": 0.0, "lat": 38.913662333333335, "name": "09d6c119ea0364dabfe10242f9dda297", "fusion_lon": 0.0, "bike_id": "09d6c119ea0364dabfe10242f9dda297", "is_disabled": 0, "is_reserved": 0}, {"rental_uris": {"ios": "https://dc.lft.to/lastmile_qr_scan", "android": "https://dc.lft.to/lastmile_qr_scan"}, "lon": -77.04660316666667, "type": "electric_scooter", "fusion_lat": 0.0, "lat": 38.9148405, "name": "3b4bbb74e3b87812e4d9bdcca43d926b", "fusion_lon": 0.0, "bike_id": "3b4bbb74e3b87812e4d9bdcca43d926b", "is_disabled": 0, "is_reserved": 0}, {"rental_uris": {"ios": "https://dc.lft.to/lastmile_qr_scan", "android": "https://dc.lft.to/lastmile_qr_scan"}, "lon": -77.0344575, "type": "electric_scooter", "fusion_lat": 0.0, "lat": 38.916862333333334, "name": "912f275a2c01928c2cb7a87605d25bd0", "fusion_lon": 0.0, "bike_id": "912f275a2c01928c2cb7a87605d25bd0", "is_disabled": 0, "is_reserved": 0}, {"rental_uris": {"ios": "https://dc.lft.to/lastmile_qr_scan", "android": "https://dc.lft.to/lastmile_qr_scan"}, "lon": -77.10683933333334, "type": "electric_bike", "fusion_lat": 0.0, "lat": 38.935862666666665, "name": "4db28c517eb190af9d8d1893e7f459d3", "fusion_lon": 0.0, "bike_id": "4db28c517eb190af9d8d1893e7f459d3", "is_disabled": 0, "is_reserved": 0}, {"rental_uris": {"ios": "https://dc.lft.to/lastmile_qr_scan", "android": "https://dc.lft.to/lastmile_qr_scan"}, "lon": -76.94882033333333, "type": "electric_scooter", "fusion_lat": 0.0, "lat": 38.895032666666665, "name": "c34cedd107a9e810cb4ab67ea02bef6b", "fusion_lon": 0.0, "bike_id": "c34cedd107a9e810cb4ab67ea02bef6b", "is_disabled": 0, "is_reserved": 0}, {"rental_uris": {"ios": "https://dc.lft.to/lastmile_qr_scan", "android": "https://dc.lft.to/lastmile_qr_scan"}, "lon": -77.0351215, "type": "electric_scooter", "fusion_lat": 0.0, "lat": 38.92150066666667, "name": "5f6fa8b2717bdcf0d2e390164de1a552", "fusion_lon": 0.0, "bike_id": "5f6fa8b2717bdcf0d2e390164de1a552", "is_disabled": 0, "is_reserved": 0}, {"rental_uris": {"ios": "https://dc.lft.to/lastmile_qr_scan", "android": "https://dc.lft.to/lastmile_qr_scan"}, "lon": -77.04257766666667, "type": "electric_scooter", "fusion_lat": 0.0, "lat": 38.902769166666666, "name": "8be299795cf142016e7008684bae9d9c", "fusion_lon": 0.0, "bike_id": "8be299795cf142016e7008684bae9d9c", "is_disabled": 0, "is_reserved": 0}, {"rental_uris": {"ios": "https://dc.lft.to/lastmile_qr_scan", "android": "https://dc.lft.to/lastmile_qr_scan"}, "lon": -77.029698, "type": "electric_scooter", "fusion_lat": 0.0, "lat": 38.905255, "name": "b6da6d5a048d8a16ac08cfa32a7e4730", "fusion_lon": 0.0, "bike_id": "b6da6d5a048d8a16ac08cfa32a7e4730", "is_disabled": 0, "is_reserved": 0}, {"rental_uris": {"ios": "https://dc.lft.to/lastmile_qr_scan", "android": "https://dc.lft.to/lastmile_qr_scan"}, "lon": -77.0065755, "type": "electric_scooter", "fusion_lat": 0.0, "lat": 38.9446485, "name": "82ac2cc35760ece64b6b42372768ce9d", "fusion_lon": 0.0, "bike_id": "82ac2cc35760ece64b6b42372768ce9d", "is_disabled": 0, "is_reserved": 0}, {"rental_uris": {"ios": "https://dc.lft.to/lastmile_qr_scan", "android": "https://dc.lft.to/lastmile_qr_scan"}, "lon": -77.0384735, "type": "electric_scooter", "fusion_lat": 0.0, "lat": 38.90798733333333, "name": "4b01e21f4cb7be972e6805ebf0cab7d8", "fusion_lon": 0.0, "bike_id": "4b01e21f4cb7be972e6805ebf0cab7d8", "is_disabled": 0, "is_reserved": 0}, {"rental_uris": {"ios": "https://dc.lft.to/lastmile_qr_scan", "android": "https://dc.lft.to/lastmile_qr_scan"}, "lon": -77.03175216666666, "type": "electric_scooter", "fusion_lat": 0.0, "lat": 38.919313333333335, "name": "d08e73aa594a1e3040a9291ea76906e3", "fusion_lon": 0.0, "bike_id": "d08e73aa594a1e3040a9291ea76906e3", "is_disabled": 0, "is_reserved": 0}, {"rental_uris": {"ios": "https://dc.lft.to/lastmile_qr_scan", "android": "https://dc.lft.to/lastmile_qr_scan"}, "lon": -77.02721516666666, "type": "electric_scooter", "fusion_lat": 0.0, "lat": 38.906837333333335, "name": "e9f2e1c8bbcca018f32f2dd8d0033f9a", "fusion_lon": 0.0, "bike_id": "e9f2e1c8bbcca018f32f2dd8d0033f9a", "is_disabled": 0, "is_reserved": 0}, {"rental_uris": {"ios": "https://dc.lft.to/lastmile_qr_scan", "android": "https://dc.lft.to/lastmile_qr_scan"}, "lon": -77.1273155, "type": "electric_bike", "fusion_lat": 0.0, "lat": 38.895614333333334, "name": "8f73ec0355592eb77b30b62af6d3494d", "fusion_lon": 0.0, "bike_id": "8f73ec0355592eb77b30b62af6d3494d", "is_disabled": 0, "is_reserved": 0}, {"rental_uris": {"ios": "https://dc.lft.to/lastmile_qr_scan", "android": "https://dc.lft.to/lastmile_qr_scan"}, "lon": -77.0271165, "type": "electric_scooter", "fusion_lat": 0.0, "lat": 38.90912616666667, "name": "23d304fcbf66f7f7dbcf1e2864114c91", "fusion_lon": 0.0, "bike_id": "23d304fcbf66f7f7dbcf1e2864114c91", "is_disabled": 0, "is_reserved": 0}, {"rental_uris": {"ios": "https://dc.lft.to/lastmile_qr_scan", "android": "https://dc.lft.to/lastmile_qr_scan"}, "lon": -77.01067716666667, "type": "electric_bike", "fusion_lat": 0.0, "lat": 38.91922666666667, "name": "866753b2dcfc625c2ef26670ba65e3bd", "fusion_lon": 0.0, "bike_id": "866753b2dcfc625c2ef26670ba65e3bd", "is_disabled": 0, "is_reserved": 0}, {"rental_uris": {"ios": "https://dc.lft.to/lastmile_qr_scan", "android": "https://dc.lft.to/lastmile_qr_scan"}, "lon": -76.91650666666666, "type": "electric_bike", "fusion_lat": 0.0, "lat": 38.868574833333334, "name": "aa6c72790482e02a4564532e3265f743", "fusion_lon": 0.0, "bike_id": "aa6c72790482e02a4564532e3265f743", "is_disabled": 0, "is_reserved": 0}, {"rental_uris": {"ios": "https://dc.lft.to/lastmile_qr_scan", "android": "https://dc.lft.to/lastmile_qr_scan"}, "lon": -77.01070816666666, "type": "electric_scooter", "fusion_lat": 0.0, "lat": 38.87477, "name": "9632971eb95d2fc0385992bed7681089", "fusion_lon": 0.0, "bike_id": "9632971eb95d2fc0385992bed7681089", "is_disabled": 0, "is_reserved": 0}, {"rental_uris": {"ios": "https://dc.lft.to/lastmile_qr_scan", "android": "https://dc.lft.to/lastmile_qr_scan"}, "lon": -76.99002066666667, "type": "electric_scooter", "fusion_lat": 0.0, "lat": 38.903979166666666, "name": "5efbe4807c4341f675e8c2dc96931d79", "fusion_lon": 0.0, "bike_id": "5efbe4807c4341f675e8c2dc96931d79", "is_disabled": 0, "is_reserved": 0}, {"rental_uris": {"ios": "https://dc.lft.to/lastmile_qr_scan", "android": "https://dc.lft.to/lastmile_qr_scan"}, "lon": -77.0097145, "type": "electric_scooter", "fusion_lat": 0.0, "lat": 38.914239333333335, "name": "a663af05f954d3dd40fcea39a3528033", "fusion_lon": 0.0, "bike_id": "a663af05f954d3dd40fcea39a3528033", "is_disabled": 0, "is_reserved": 0}, {"rental_uris": {"ios": "https://dc.lft.to/lastmile_qr_scan", "android": "https://dc.lft.to/lastmile_qr_scan"}, "lon": -76.948617, "type": "electric_scooter", "fusion_lat": 0.0, "lat": 38.89595683333334, "name": "38fb7ae1e4e6e28cb2d5465699d6f6e4", "fusion_lon": 0.0, "bike_id": "38fb7ae1e4e6e28cb2d5465699d6f6e4", "is_disabled": 0, "is_reserved": 0}, {"rental_uris": {"ios": "https://dc.lft.to/lastmile_qr_scan", "android": "https://dc.lft.to/lastmile_qr_scan"}, "lon": -77.0280465, "type": "electric_scooter", "fusion_lat": 0.0, "lat": 38.91073333333333, "name": "8314ff894f3c1ebe18b8d9db2dd50df5", "fusion_lon": 0.0, "bike_id": "8314ff894f3c1ebe18b8d9db2dd50df5", "is_disabled": 0, "is_reserved": 0}, {"rental_uris": {"ios": "https://dc.lft.to/lastmile_qr_scan", "android": "https://dc.lft.to/lastmile_qr_scan"}, "lon": -77.02213466666667, "type": "electric_scooter", "fusion_lat": 0.0, "lat": 38.912676, "name": "d277393a26033f19767457cefef25d3c", "fusion_lon": 0.0, "bike_id": "d277393a26033f19767457cefef25d3c", "is_disabled": 0, "is_reserved": 0}, {"rental_uris": {"ios": "https://dc.lft.to/lastmile_qr_scan", "android": "https://dc.lft.to/lastmile_qr_scan"}, "lon": -77.07063533333333, "type": "electric_scooter", "fusion_lat": 0.0, "lat": 38.9011195, "name": "193f27266e9f1bbdfa9180f24e2b141e", "fusion_lon": 0.0, "bike_id": "193f27266e9f1bbdfa9180f24e2b141e", "is_disabled": 0, "is_reserved": 0}, {"rental_uris": {"ios": "https://dc.lft.to/lastmile_qr_scan", "android": "https://dc.lft.to/lastmile_qr_scan"}, "lon": -77.123754, "type": "electric_bike", "fusion_lat": 0.0, "lat": 38.847404166666664, "name": "0a137a81f05d7838a536d5f08de708ab", "fusion_lon": 0.0, "bike_id": "0a137a81f05d7838a536d5f08de708ab", "is_disabled": 0, "is_reserved": 0}, {"rental_uris": {"ios": "https://dc.lft.to/lastmile_qr_scan", "android": "https://dc.lft.to/lastmile_qr_scan"}, "lon": -77.04364933333333, "type": "electric_scooter", "fusion_lat": 0.0, "lat": 38.93156666666667, "name": "2fce928c8ced3e59bd7d259e21fc4319", "fusion_lon": 0.0, "bike_id": "2fce928c8ced3e59bd7d259e21fc4319", "is_disabled": 0, "is_reserved": 0}, {"rental_uris": {"ios": "https://dc.lft.to/lastmile_qr_scan", "android": "https://dc.lft.to/lastmile_qr_scan"}, "lon": -77.03219583333333, "type": "electric_scooter", "fusion_lat": 0.0, "lat": 38.91811366666667, "name": "730171b317085e018c69bbf033d0193a", "fusion_lon": 0.0, "bike_id": "730171b317085e018c69bbf033d0193a", "is_disabled": 0, "is_reserved": 0}, {"rental_uris": {"ios": "https://dc.lft.to/lastmile_qr_scan", "android": "https://dc.lft.to/lastmile_qr_scan"}, "lon": -77.008772, "type": "electric_scooter", "fusion_lat": 0.0, "lat": 38.87916216666667, "name": "21aabe98bd61853345d681a910824446", "fusion_lon": 0.0, "bike_id": "21aabe98bd61853345d681a910824446", "is_disabled": 0, "is_reserved": 0}, {"rental_uris": {"ios": "https://dc.lft.to/lastmile_qr_scan", "android": "https://dc.lft.to/lastmile_qr_scan"}, "lon": -76.98826583333333, "type": "electric_scooter", "fusion_lat": 0.0, "lat": 38.880283166666665, "name": "584dee94e059dd20ca7b961e05b79a9a", "fusion_lon": 0.0, "bike_id": "584dee94e059dd20ca7b961e05b79a9a", "is_disabled": 0, "is_reserved": 0}, {"rental_uris": {"ios": "https://dc.lft.to/lastmile_qr_scan", "android": "https://dc.lft.to/lastmile_qr_scan"}, "lon": -77.024624, "type": "electric_scooter", "fusion_lat": 0.0, "lat": 38.9386345, "name": "69cf557d8efeeb5388949d61f6b25578", "fusion_lon": 0.0, "bike_id": "69cf557d8efeeb5388949d61f6b25578", "is_disabled": 0, "is_reserved": 0}, {"rental_uris": {"ios": "https://dc.lft.to/lastmile_qr_scan", "android": "https://dc.lft.to/lastmile_qr_scan"}, "lon": -77.04841883333333, "type": "electric_scooter", "fusion_lat": 0.0, "lat": 38.911062333333334, "name": "80732adba86c096a09417a777666ed4a", "fusion_lon": 0.0, "bike_id": "80732adba86c096a09417a777666ed4a", "is_disabled": 0, "is_reserved": 0}, {"rental_uris": {"ios": "https://dc.lft.to/lastmile_qr_scan", "android": "https://dc.lft.to/lastmile_qr_scan"}, "lon": -77.03566066666667, "type": "electric_scooter", "fusion_lat": 0.0, "lat": 38.927423166666664, "name": "c59ae1df2738bfad007030bb83b0a13f", "fusion_lon": 0.0, "bike_id": "c59ae1df2738bfad007030bb83b0a13f", "is_disabled": 0, "is_reserved": 0}, {"rental_uris": {"ios": "https://dc.lft.to/lastmile_qr_scan", "android": "https://dc.lft.to/lastmile_qr_scan"}, "lon": -77.03589166666667, "type": "electric_scooter", "fusion_lat": 0.0, "lat": 38.9314285, "name": "fba594ee2eb8e2ee5bef431385c6f05e", "fusion_lon": 0.0, "bike_id": "fba594ee2eb8e2ee5bef431385c6f05e", "is_disabled": 0, "is_reserved": 0}, {"rental_uris": {"ios": "https://dc.lft.to/lastmile_qr_scan", "android": "https://dc.lft.to/lastmile_qr_scan"}, "lon": -77.02953383333333, "type": "electric_scooter", "fusion_lat": 0.0, "lat": 38.916358833333334, "name": "56cf034b298cb14f8a8fe381d191308d", "fusion_lon": 0.0, "bike_id": "56cf034b298cb14f8a8fe381d191308d", "is_disabled": 0, "is_reserved": 0}, {"rental_uris": {"ios": "https://dc.lft.to/lastmile_qr_scan", "android": "https://dc.lft.to/lastmile_qr_scan"}, "lon": -77.06881483333333, "type": "electric_scooter", "fusion_lat": 0.0, "lat": 38.90516683333333, "name": "bca2b2be639e1f4de95038b1e2d3aab5", "fusion_lon": 0.0, "bike_id": "bca2b2be639e1f4de95038b1e2d3aab5", "is_disabled": 0, "is_reserved": 0}, {"rental_uris": {"ios": "https://dc.lft.to/lastmile_qr_scan", "android": "https://dc.lft.to/lastmile_qr_scan"}, "lon": -76.99635016666667, "type": "electric_bike", "fusion_lat": 0.0, "lat": 38.846653, "name": "ad5774db3c2e13a6d34ea084c6eb6808", "fusion_lon": 0.0, "bike_id": "ad5774db3c2e13a6d34ea084c6eb6808", "is_disabled": 0, "is_reserved": 0}, {"rental_uris": {"ios": "https://dc.lft.to/lastmile_qr_scan", "android": "https://dc.lft.to/lastmile_qr_scan"}, "lon": -77.024612, "type": "electric_scooter", "fusion_lat": 0.0, "lat": 38.90850316666667, "name": "ef8970b525784bb1e5a0fc4c7db4bbc8", "fusion_lon": 0.0, "bike_id": "ef8970b525784bb1e5a0fc4c7db4bbc8", "is_disabled": 0, "is_reserved": 0}, {"rental_uris": {"ios": "https://dc.lft.to/lastmile_qr_scan", "android": "https://dc.lft.to/lastmile_qr_scan"}, "lon": -76.99370033333334, "type": "electric_scooter", "fusion_lat": 0.0, "lat": 38.879736, "name": "9bed5069289d6c0ccab2377a2264998b", "fusion_lon": 0.0, "bike_id": "9bed5069289d6c0ccab2377a2264998b", "is_disabled": 0, "is_reserved": 0}, {"rental_uris": {"ios": "https://dc.lft.to/lastmile_qr_scan", "android": "https://dc.lft.to/lastmile_qr_scan"}, "lon": -77.07718716666666, "type": "electric_scooter", "fusion_lat": 0.0, "lat": 38.9470725, "name": "65d29a374d9406c80902af319daaa434", "fusion_lon": 0.0, "bike_id": "65d29a374d9406c80902af319daaa434", "is_disabled": 0, "is_reserved": 0}, {"rental_uris": {"ios": "https://dc.lft.to/lastmile_qr_scan", "android": "https://dc.lft.to/lastmile_qr_scan"}, "lon": -77.05508566666667, "type": "electric_scooter", "fusion_lat": 0.0, "lat": 38.8993255, "name": "c41ed983b9dc2607c23ea98157eaa94a", "fusion_lon": 0.0, "bike_id": "c41ed983b9dc2607c23ea98157eaa94a", "is_disabled": 0, "is_reserved": 0}, {"rental_uris": {"ios": "https://dc.lft.to/lastmile_qr_scan", "android": "https://dc.lft.to/lastmile_qr_scan"}, "lon": -76.98090883333333, "type": "electric_bike", "fusion_lat": 0.0, "lat": 38.88136333333333, "name": "8098e0eb677d27cd7b5537c60c5fd06c", "fusion_lon": 0.0, "bike_id": "8098e0eb677d27cd7b5537c60c5fd06c", "is_disabled": 0, "is_reserved": 0}, {"rental_uris": {"ios": "https://dc.lft.to/lastmile_qr_scan", "android": "https://dc.lft.to/lastmile_qr_scan"}, "lon": -77.03317316666667, "type": "electric_scooter", "fusion_lat": 0.0, "lat": 38.9126105, "name": "dca4759dbd82db58e4f467cfe0f13831", "fusion_lon": 0.0, "bike_id": "dca4759dbd82db58e4f467cfe0f13831", "is_disabled": 0, "is_reserved": 0}, {"rental_uris": {"ios": "https://dc.lft.to/lastmile_qr_scan", "android": "https://dc.lft.to/lastmile_qr_scan"}, "lon": -77.00218533333333, "type": "electric_scooter", "fusion_lat": 0.0, "lat": 38.900177666666664, "name": "fb3e44642b4874a1e74758c30dff6997", "fusion_lon": 0.0, "bike_id": "fb3e44642b4874a1e74758c30dff6997", "is_disabled": 0, "is_reserved": 0}, {"rental_uris": {"ios": "https://dc.lft.to/lastmile_qr_scan", "android": "https://dc.lft.to/lastmile_qr_scan"}, "lon": -77.022249, "type": "electric_scooter", "fusion_lat": 0.0, "lat": 38.91274266666667, "name": "3fb68e40516dec12dd1127aa2a54ddca", "fusion_lon": 0.0, "bike_id": "3fb68e40516dec12dd1127aa2a54ddca", "is_disabled": 0, "is_reserved": 0}, {"rental_uris": {"ios": "https://dc.lft.to/lastmile_qr_scan", "android": "https://dc.lft.to/lastmile_qr_scan"}, "lon": -77.0417465, "type": "electric_scooter", "fusion_lat": 0.0, "lat": 38.89953283333333, "name": "41c15c00b9b674505c3ac23410812e52", "fusion_lon": 0.0, "bike_id": "41c15c00b9b674505c3ac23410812e52", "is_disabled": 0, "is_reserved": 0}, {"rental_uris": {"ios": "https://dc.lft.to/lastmile_qr_scan", "android": "https://dc.lft.to/lastmile_qr_scan"}, "lon": -77.03955566666667, "type": "electric_scooter", "fusion_lat": 0.0, "lat": 38.923138, "name": "444b97b4f9c356d1b4fac31fc7ed46c4", "fusion_lon": 0.0, "bike_id": "444b97b4f9c356d1b4fac31fc7ed46c4", "is_disabled": 0, "is_reserved": 0}, {"rental_uris": {"ios": "https://dc.lft.to/lastmile_qr_scan", "android": "https://dc.lft.to/lastmile_qr_scan"}, "lon": -77.02316016666667, "type": "electric_scooter", "fusion_lat": 0.0, "lat": 38.88199133333333, "name": "99d1649f0f9230e3dc5c5ce204a46174", "fusion_lon": 0.0, "bike_id": "99d1649f0f9230e3dc5c5ce204a46174", "is_disabled": 0, "is_reserved": 0}, {"rental_uris": {"ios": "https://dc.lft.to/lastmile_qr_scan", "android": "https://dc.lft.to/lastmile_qr_scan"}, "lon": -76.94892266666666, "type": "electric_scooter", "fusion_lat": 0.0, "lat": 38.895301, "name": "3ac76716780b30d6a3b765c194083dc5", "fusion_lon": 0.0, "bike_id": "3ac76716780b30d6a3b765c194083dc5", "is_disabled": 0, "is_reserved": 0}, {"rental_uris": {"ios": "https://dc.lft.to/lastmile_qr_scan", "android": "https://dc.lft.to/lastmile_qr_scan"}, "lon": -76.90961766666666, "type": "electric_bike", "fusion_lat": 0.0, "lat": 38.854173, "name": "b8eca529359bf89e5f631656766e0be4", "fusion_lon": 0.0, "bike_id": "b8eca529359bf89e5f631656766e0be4", "is_disabled": 0, "is_reserved": 0}, {"rental_uris": {"ios": "https://dc.lft.to/lastmile_qr_scan", "android": "https://dc.lft.to/lastmile_qr_scan"}, "lon": -77.036823, "type": "electric_scooter", "fusion_lat": 0.0, "lat": 38.9392835, "name": "c4634ea3fbd4f864c7e231c4c4fb68a6", "fusion_lon": 0.0, "bike_id": "c4634ea3fbd4f864c7e231c4c4fb68a6", "is_disabled": 0, "is_reserved": 0}, {"rental_uris": {"ios": "https://dc.lft.to/lastmile_qr_scan", "android": "https://dc.lft.to/lastmile_qr_scan"}, "lon": -77.03298666666667, "type": "electric_scooter", "fusion_lat": 0.0, "lat": 38.9181655, "name": "154a5d95f97c702e488a42c6e256da55", "fusion_lon": 0.0, "bike_id": "154a5d95f97c702e488a42c6e256da55", "is_disabled": 0, "is_reserved": 0}, {"rental_uris": {"ios": "https://dc.lft.to/lastmile_qr_scan", "android": "https://dc.lft.to/lastmile_qr_scan"}, "lon": -77.02731683333333, "type": "electric_scooter", "fusion_lat": 0.0, "lat": 38.916943333333336, "name": "7136da3c7c191fc8c66355bdc39bd5c9", "fusion_lon": 0.0, "bike_id": "7136da3c7c191fc8c66355bdc39bd5c9", "is_disabled": 0, "is_reserved": 0}, {"rental_uris": {"ios": "https://dc.lft.to/lastmile_qr_scan", "android": "https://dc.lft.to/lastmile_qr_scan"}, "lon": -77.03505283333334, "type": "electric_scooter", "fusion_lat": 0.0, "lat": 38.91878716666667, "name": "c3470daa3bafd5e4cf5d72be53f57980", "fusion_lon": 0.0, "bike_id": "c3470daa3bafd5e4cf5d72be53f57980", "is_disabled": 0, "is_reserved": 0}, {"rental_uris": {"ios": "https://dc.lft.to/lastmile_qr_scan", "android": "https://dc.lft.to/lastmile_qr_scan"}, "lon": -77.02408566666666, "type": "electric_scooter", "fusion_lat": 0.0, "lat": 38.9350895, "name": "e9a26850b6138ee626eef95a257ebddc", "fusion_lon": 0.0, "bike_id": "e9a26850b6138ee626eef95a257ebddc", "is_disabled": 0, "is_reserved": 0}, {"rental_uris": {"ios": "https://dc.lft.to/lastmile_qr_scan", "android": "https://dc.lft.to/lastmile_qr_scan"}, "lon": -77.005535, "type": "electric_scooter", "fusion_lat": 0.0, "lat": 38.90563183333333, "name": "c6faa6caea58e064dec342d695452441", "fusion_lon": 0.0, "bike_id": "c6faa6caea58e064dec342d695452441", "is_disabled": 0, "is_reserved": 0}, {"rental_uris": {"ios": "https://dc.lft.to/lastmile_qr_scan", "android": "https://dc.lft.to/lastmile_qr_scan"}, "lon": -77.04401283333333, "type": "electric_scooter", "fusion_lat": 0.0, "lat": 38.9201665, "name": "8ea1c6badae97b7338dccbe41953828c", "fusion_lon": 0.0, "bike_id": "8ea1c6badae97b7338dccbe41953828c", "is_disabled": 0, "is_reserved": 0}, {"rental_uris": {"ios": "https://dc.lft.to/lastmile_qr_scan", "android": "https://dc.lft.to/lastmile_qr_scan"}, "lon": -77.03493016666667, "type": "electric_scooter", "fusion_lat": 0.0, "lat": 38.917035, "name": "42c3d4bc7fd1bab8fe0678526e500f36", "fusion_lon": 0.0, "bike_id": "42c3d4bc7fd1bab8fe0678526e500f36", "is_disabled": 0, "is_reserved": 0}, {"rental_uris": {"ios": "https://dc.lft.to/lastmile_qr_scan", "android": "https://dc.lft.to/lastmile_qr_scan"}, "lon": -76.98187866666666, "type": "electric_scooter", "fusion_lat": 0.0, "lat": 38.895766333333334, "name": "6d0877529a61aea75cec3d82456ed847", "fusion_lon": 0.0, "bike_id": "6d0877529a61aea75cec3d82456ed847", "is_disabled": 0, "is_reserved": 0}, {"rental_uris": {"ios": "https://dc.lft.to/lastmile_qr_scan", "android": "https://dc.lft.to/lastmile_qr_scan"}, "lon": -77.01308716666666, "type": "electric_scooter", "fusion_lat": 0.0, "lat": 38.921259666666664, "name": "bb09f43812791b49d74ff25f9142811b", "fusion_lon": 0.0, "bike_id": "bb09f43812791b49d74ff25f9142811b", "is_disabled": 0, "is_reserved": 0}, {"rental_uris": {"ios": "https://dc.lft.to/lastmile_qr_scan", "android": "https://dc.lft.to/lastmile_qr_scan"}, "lon": -77.0235515, "type": "electric_scooter", "fusion_lat": 0.0, "lat": 38.92501333333333, "name": "ca4d57f2c95c88b7ce4c1846053755bb", "fusion_lon": 0.0, "bike_id": "ca4d57f2c95c88b7ce4c1846053755bb", "is_disabled": 0, "is_reserved": 0}, {"rental_uris": {"ios": "https://dc.lft.to/lastmile_qr_scan", "android": "https://dc.lft.to/lastmile_qr_scan"}, "lon": -77.0234635, "type": "electric_scooter", "fusion_lat": 0.0, "lat": 38.93388683333333, "name": "2406d55ec35427a2ff6f4fc4f159d827", "fusion_lon": 0.0, "bike_id": "2406d55ec35427a2ff6f4fc4f159d827", "is_disabled": 0, "is_reserved": 0}, {"rental_uris": {"ios": "https://dc.lft.to/lastmile_qr_scan", "android": "https://dc.lft.to/lastmile_qr_scan"}, "lon": -76.93618916666667, "type": "electric_bike", "fusion_lat": 0.0, "lat": 38.97060883333333, "name": "33337f17293fe471446380a340bd91fa", "fusion_lon": 0.0, "bike_id": "33337f17293fe471446380a340bd91fa", "is_disabled": 0, "is_reserved": 0}, {"rental_uris": {"ios": "https://dc.lft.to/lastmile_qr_scan", "android": "https://dc.lft.to/lastmile_qr_scan"}, "lon": -77.006469, "type": "electric_scooter", "fusion_lat": 0.0, "lat": 38.876413166666666, "name": "0bda577cda9171f64d4a41eea33ddebb", "fusion_lon": 0.0, "bike_id": "0bda577cda9171f64d4a41eea33ddebb", "is_disabled": 0, "is_reserved": 0}, {"rental_uris": {"ios": "https://dc.lft.to/lastmile_qr_scan", "android": "https://dc.lft.to/lastmile_qr_scan"}, "lon": -77.00222633333334, "type": "electric_scooter", "fusion_lat": 0.0, "lat": 38.91186483333333, "name": "5af4a91a4fdb28433d41ad4e0b20ceaf", "fusion_lon": 0.0, "bike_id": "5af4a91a4fdb28433d41ad4e0b20ceaf", "is_disabled": 0, "is_reserved": 0}, {"rental_uris": {"ios": "https://dc.lft.to/lastmile_qr_scan", "android": "https://dc.lft.to/lastmile_qr_scan"}, "lon": -77.024694, "type": "electric_scooter", "fusion_lat": 0.0, "lat": 38.93860933333333, "name": "ce39dadb5ac0973066e28bb6435685d2", "fusion_lon": 0.0, "bike_id": "ce39dadb5ac0973066e28bb6435685d2", "is_disabled": 0, "is_reserved": 0}, {"rental_uris": {"ios": "https://dc.lft.to/lastmile_qr_scan", "android": "https://dc.lft.to/lastmile_qr_scan"}, "lon": -76.98090733333333, "type": "electric_bike", "fusion_lat": 0.0, "lat": 38.9028835, "name": "c7a896aa4aa93cce99d7ce8b7bb637fe", "fusion_lon": 0.0, "bike_id": "c7a896aa4aa93cce99d7ce8b7bb637fe", "is_disabled": 0, "is_reserved": 0}, {"rental_uris": {"ios": "https://dc.lft.to/lastmile_qr_scan", "android": "https://dc.lft.to/lastmile_qr_scan"}, "lon": -76.99871183333333, "type": "electric_scooter", "fusion_lat": 0.0, "lat": 38.90041433333333, "name": "3020e23fec40d67e68930b92c5949c64", "fusion_lon": 0.0, "bike_id": "3020e23fec40d67e68930b92c5949c64", "is_disabled": 0, "is_reserved": 0}, {"rental_uris": {"ios": "https://dc.lft.to/lastmile_qr_scan", "android": "https://dc.lft.to/lastmile_qr_scan"}, "lon": -77.00339133333334, "type": "electric_scooter", "fusion_lat": 0.0, "lat": 38.91343783333333, "name": "e7fdeb386a7ca653106edc0dc467238c", "fusion_lon": 0.0, "bike_id": "e7fdeb386a7ca653106edc0dc467238c", "is_disabled": 0, "is_reserved": 0}, {"rental_uris": {"ios": "https://dc.lft.to/lastmile_qr_scan", "android": "https://dc.lft.to/lastmile_qr_scan"}, "lon": -77.07903033333334, "type": "electric_bike", "fusion_lat": 0.0, "lat": 38.839362, "name": "4264a13c3a141c32039ee6cd74ba8fb2", "fusion_lon": 0.0, "bike_id": "4264a13c3a141c32039ee6cd74ba8fb2", "is_disabled": 0, "is_reserved": 0}, {"rental_uris": {"ios": "https://dc.lft.to/lastmile_qr_scan", "android": "https://dc.lft.to/lastmile_qr_scan"}, "lon": -77.032693, "type": "electric_scooter", "fusion_lat": 0.0, "lat": 38.938107333333335, "name": "d809f5cca422907d442f98b8efeb3cc2", "fusion_lon": 0.0, "bike_id": "d809f5cca422907d442f98b8efeb3cc2", "is_disabled": 0, "is_reserved": 0}, {"rental_uris": {"ios": "https://dc.lft.to/lastmile_qr_scan", "android": "https://dc.lft.to/lastmile_qr_scan"}, "lon": -77.013528, "type": "electric_scooter", "fusion_lat": 0.0, "lat": 38.87119766666667, "name": "ae1fedce1dc1beb5ea5a8798fba0f051", "fusion_lon": 0.0, "bike_id": "ae1fedce1dc1beb5ea5a8798fba0f051", "is_disabled": 0, "is_reserved": 0}, {"rental_uris": {"ios": "https://dc.lft.to/lastmile_qr_scan", "android": "https://dc.lft.to/lastmile_qr_scan"}, "lon": -77.0297745, "type": "electric_scooter", "fusion_lat": 0.0, "lat": 38.9623405, "name": "11e4fc92c2af0ea1eb716d37d79903d5", "fusion_lon": 0.0, "bike_id": "11e4fc92c2af0ea1eb716d37d79903d5", "is_disabled": 0, "is_reserved": 0}, {"rental_uris": {"ios": "https://dc.lft.to/lastmile_qr_scan", "android": "https://dc.lft.to/lastmile_qr_scan"}, "lon": -77.0314845, "type": "electric_scooter", "fusion_lat": 0.0, "lat": 38.8830095, "name": "99a2f7b7ad4a90506700e338bddd6934", "fusion_lon": 0.0, "bike_id": "99a2f7b7ad4a90506700e338bddd6934", "is_disabled": 0, "is_reserved": 0}, {"rental_uris": {"ios": "https://dc.lft.to/lastmile_qr_scan", "android": "https://dc.lft.to/lastmile_qr_scan"}, "lon": -77.02460583333334, "type": "electric_scooter", "fusion_lat": 0.0, "lat": 38.9386105, "name": "d15fec5873fedbd91cfdf4cd5eb3e010", "fusion_lon": 0.0, "bike_id": "d15fec5873fedbd91cfdf4cd5eb3e010", "is_disabled": 0, "is_reserved": 0}, {"rental_uris": {"ios": "https://dc.lft.to/lastmile_qr_scan", "android": "https://dc.lft.to/lastmile_qr_scan"}, "lon": -77.02316983333333, "type": "electric_scooter", "fusion_lat": 0.0, "lat": 38.927608666666664, "name": "6b55bcef82fa65159f02277c65d17a0d", "fusion_lon": 0.0, "bike_id": "6b55bcef82fa65159f02277c65d17a0d", "is_disabled": 0, "is_reserved": 0}, {"rental_uris": {"ios": "https://dc.lft.to/lastmile_qr_scan", "android": "https://dc.lft.to/lastmile_qr_scan"}, "lon": -77.0040955, "type": "electric_scooter", "fusion_lat": 0.0, "lat": 38.879315166666665, "name": "75296b3fa14b3f85ff277b1a6409fe3c", "fusion_lon": 0.0, "bike_id": "75296b3fa14b3f85ff277b1a6409fe3c", "is_disabled": 0, "is_reserved": 0}, {"rental_uris": {"ios": "https://dc.lft.to/lastmile_qr_scan", "android": "https://dc.lft.to/lastmile_qr_scan"}, "lon": -77.008412, "type": "electric_bike", "fusion_lat": 0.0, "lat": 38.949155833333336, "name": "e62d97a33ed716b41c8d15de6dc0711c", "fusion_lon": 0.0, "bike_id": "e62d97a33ed716b41c8d15de6dc0711c", "is_disabled": 0, "is_reserved": 0}, {"rental_uris": {"ios": "https://dc.lft.to/lastmile_qr_scan", "android": "https://dc.lft.to/lastmile_qr_scan"}, "lon": -77.01774383333333, "type": "electric_bike", "fusion_lat": 0.0, "lat": 38.914903, "name": "ac9c329e2ad311c306830bceb64186a9", "fusion_lon": 0.0, "bike_id": "ac9c329e2ad311c306830bceb64186a9", "is_disabled": 0, "is_reserved": 0}, {"rental_uris": {"ios": "https://dc.lft.to/lastmile_qr_scan", "android": "https://dc.lft.to/lastmile_qr_scan"}, "lon": -77.04173233333333, "type": "electric_scooter", "fusion_lat": 0.0, "lat": 38.91708416666667, "name": "7c9a852706f5f907bbeb23de269b2744", "fusion_lon": 0.0, "bike_id": "7c9a852706f5f907bbeb23de269b2744", "is_disabled": 0, "is_reserved": 0}, {"rental_uris": {"ios": "https://dc.lft.to/lastmile_qr_scan", "android": "https://dc.lft.to/lastmile_qr_scan"}, "lon": -76.99524216666667, "type": "electric_scooter", "fusion_lat": 0.0, "lat": 38.862634166666666, "name": "d925cb3d7f74095386586e60923e5c5c", "fusion_lon": 0.0, "bike_id": "d925cb3d7f74095386586e60923e5c5c", "is_disabled": 0, "is_reserved": 0}, {"rental_uris": {"ios": "https://dc.lft.to/lastmile_qr_scan", "android": "https://dc.lft.to/lastmile_qr_scan"}, "lon": -77.03642283333333, "type": "electric_scooter", "fusion_lat": 0.0, "lat": 38.91736316666667, "name": "8920771a6e47cb40dc723184a6502419", "fusion_lon": 0.0, "bike_id": "8920771a6e47cb40dc723184a6502419", "is_disabled": 0, "is_reserved": 0}, {"rental_uris": {"ios": "https://dc.lft.to/lastmile_qr_scan", "android": "https://dc.lft.to/lastmile_qr_scan"}, "lon": -77.01090216666667, "type": "electric_scooter", "fusion_lat": 0.0, "lat": 38.91630833333333, "name": "92108b77511dd98f8e2dbdcdc893b8ce", "fusion_lon": 0.0, "bike_id": "92108b77511dd98f8e2dbdcdc893b8ce", "is_disabled": 0, "is_reserved": 0}, {"rental_uris": {"ios": "https://dc.lft.to/lastmile_qr_scan", "android": "https://dc.lft.to/lastmile_qr_scan"}, "lon": -77.02853666666667, "type": "electric_scooter", "fusion_lat": 0.0, "lat": 38.934752, "name": "afce5da2aa8a49e54f5c3ab36233f422", "fusion_lon": 0.0, "bike_id": "afce5da2aa8a49e54f5c3ab36233f422", "is_disabled": 0, "is_reserved": 0}, {"rental_uris": {"ios": "https://dc.lft.to/lastmile_qr_scan", "android": "https://dc.lft.to/lastmile_qr_scan"}, "lon": -77.14122066666667, "type": "electric_bike", "fusion_lat": 0.0, "lat": 38.816028, "name": "bff95b279a61a0ad533dfea2221470b5", "fusion_lon": 0.0, "bike_id": "bff95b279a61a0ad533dfea2221470b5", "is_disabled": 0, "is_reserved": 0}, {"rental_uris": {"ios": "https://dc.lft.to/lastmile_qr_scan", "android": "https://dc.lft.to/lastmile_qr_scan"}, "lon": -77.000551, "type": "electric_scooter", "fusion_lat": 0.0, "lat": 38.90729833333333, "name": "070692a5c9ce1239d01679ff10800b79", "fusion_lon": 0.0, "bike_id": "070692a5c9ce1239d01679ff10800b79", "is_disabled": 0, "is_reserved": 0}, {"rental_uris": {"ios": "https://dc.lft.to/lastmile_qr_scan", "android": "https://dc.lft.to/lastmile_qr_scan"}, "lon": -77.01090933333333, "type": "electric_scooter", "fusion_lat": 0.0, "lat": 38.89495683333333, "name": "61cc0a6438d602b185c3f00b0f17f457", "fusion_lon": 0.0, "bike_id": "61cc0a6438d602b185c3f00b0f17f457", "is_disabled": 0, "is_reserved": 0}, {"rental_uris": {"ios": "https://dc.lft.to/lastmile_qr_scan", "android": "https://dc.lft.to/lastmile_qr_scan"}, "lon": -77.04053, "type": "electric_scooter", "fusion_lat": 0.0, "lat": 38.902700833333334, "name": "dc9f5746863c6cb98735a371f5aafef1", "fusion_lon": 0.0, "bike_id": "dc9f5746863c6cb98735a371f5aafef1", "is_disabled": 0, "is_reserved": 0}, {"rental_uris": {"ios": "https://dc.lft.to/lastmile_qr_scan", "android": "https://dc.lft.to/lastmile_qr_scan"}, "lon": -77.0350715, "type": "electric_scooter", "fusion_lat": 0.0, "lat": 38.921515166666666, "name": "72080d190e5ff8b698410b43be2f76e3", "fusion_lon": 0.0, "bike_id": "72080d190e5ff8b698410b43be2f76e3", "is_disabled": 0, "is_reserved": 0}, {"rental_uris": {"ios": "https://dc.lft.to/lastmile_qr_scan", "android": "https://dc.lft.to/lastmile_qr_scan"}, "lon": -77.02474666666667, "type": "electric_scooter", "fusion_lat": 0.0, "lat": 38.918201, "name": "f4212d404a901a9fe62c7fe1bc5683a9", "fusion_lon": 0.0, "bike_id": "f4212d404a901a9fe62c7fe1bc5683a9", "is_disabled": 0, "is_reserved": 0}, {"rental_uris": {"ios": "https://dc.lft.to/lastmile_qr_scan", "android": "https://dc.lft.to/lastmile_qr_scan"}, "lon": -77.035114, "type": "electric_bike", "fusion_lat": 0.0, "lat": 38.96526033333333, "name": "f4bfc2bf5f46e37a77aac342bfd28a2e", "fusion_lon": 0.0, "bike_id": "f4bfc2bf5f46e37a77aac342bfd28a2e", "is_disabled": 0, "is_reserved": 0}, {"rental_uris": {"ios": "https://dc.lft.to/lastmile_qr_scan", "android": "https://dc.lft.to/lastmile_qr_scan"}, "lon": -77.03869033333334, "type": "electric_scooter", "fusion_lat": 0.0, "lat": 38.920305, "name": "bf7e7ef23b59c95a581259ff45b5d788", "fusion_lon": 0.0, "bike_id": "bf7e7ef23b59c95a581259ff45b5d788", "is_disabled": 0, "is_reserved": 0}, {"rental_uris": {"ios": "https://dc.lft.to/lastmile_qr_scan", "android": "https://dc.lft.to/lastmile_qr_scan"}, "lon": -77.0361085, "type": "electric_scooter", "fusion_lat": 0.0, "lat": 38.92338566666667, "name": "dd6d65bd1d1ea1790153afa23d3678b9", "fusion_lon": 0.0, "bike_id": "dd6d65bd1d1ea1790153afa23d3678b9", "is_disabled": 0, "is_reserved": 0}, {"rental_uris": {"ios": "https://dc.lft.to/lastmile_qr_scan", "android": "https://dc.lft.to/lastmile_qr_scan"}, "lon": -76.97880216666667, "type": "electric_scooter", "fusion_lat": 0.0, "lat": 38.88508066666667, "name": "8155efd16a20802bc1a04719002a6d3d", "fusion_lon": 0.0, "bike_id": "8155efd16a20802bc1a04719002a6d3d", "is_disabled": 0, "is_reserved": 0}, {"rental_uris": {"ios": "https://dc.lft.to/lastmile_qr_scan", "android": "https://dc.lft.to/lastmile_qr_scan"}, "lon": -76.98698383333333, "type": "electric_scooter", "fusion_lat": 0.0, "lat": 38.907067833333336, "name": "985d761193d30b12013019135c61e600", "fusion_lon": 0.0, "bike_id": "985d761193d30b12013019135c61e600", "is_disabled": 0, "is_reserved": 0}, {"rental_uris": {"ios": "https://dc.lft.to/lastmile_qr_scan", "android": "https://dc.lft.to/lastmile_qr_scan"}, "lon": -77.01480333333333, "type": "electric_scooter", "fusion_lat": 0.0, "lat": 38.881243833333336, "name": "3a5ea0328f4c264297304775a3fbb16d", "fusion_lon": 0.0, "bike_id": "3a5ea0328f4c264297304775a3fbb16d", "is_disabled": 0, "is_reserved": 0}, {"rental_uris": {"ios": "https://dc.lft.to/lastmile_qr_scan", "android": "https://dc.lft.to/lastmile_qr_scan"}, "lon": -77.02615966666667, "type": "electric_scooter", "fusion_lat": 0.0, "lat": 38.90562933333333, "name": "4b724dd05097cf90b4a9793ced4b0539", "fusion_lon": 0.0, "bike_id": "4b724dd05097cf90b4a9793ced4b0539", "is_disabled": 0, "is_reserved": 0}, {"rental_uris": {"ios": "https://dc.lft.to/lastmile_qr_scan", "android": "https://dc.lft.to/lastmile_qr_scan"}, "lon": -76.99665283333333, "type": "electric_scooter", "fusion_lat": 0.0, "lat": 38.90023216666667, "name": "11add44e7d164e506839c1179c901a22", "fusion_lon": 0.0, "bike_id": "11add44e7d164e506839c1179c901a22", "is_disabled": 0, "is_reserved": 0}, {"rental_uris": {"ios": "https://dc.lft.to/lastmile_qr_scan", "android": "https://dc.lft.to/lastmile_qr_scan"}, "lon": -76.985845, "type": "electric_scooter", "fusion_lat": 0.0, "lat": 38.899266, "name": "8dd5137125f5e926495a00eb60e3c591", "fusion_lon": 0.0, "bike_id": "8dd5137125f5e926495a00eb60e3c591", "is_disabled": 0, "is_reserved": 0}, {"rental_uris": {"ios": "https://dc.lft.to/lastmile_qr_scan", "android": "https://dc.lft.to/lastmile_qr_scan"}, "lon": -77.04817116666666, "type": "electric_scooter", "fusion_lat": 0.0, "lat": 38.92045666666667, "name": "1d3b2f878953bc2b7b8fbcf3d857c14e", "fusion_lon": 0.0, "bike_id": "1d3b2f878953bc2b7b8fbcf3d857c14e", "is_disabled": 0, "is_reserved": 0}, {"rental_uris": {"ios": "https://dc.lft.to/lastmile_qr_scan", "android": "https://dc.lft.to/lastmile_qr_scan"}, "lon": -76.99819283333333, "type": "electric_bike", "fusion_lat": 0.0, "lat": 38.84432866666667, "name": "d18f3930de4990cef1af32ef94ec7283", "fusion_lon": 0.0, "bike_id": "d18f3930de4990cef1af32ef94ec7283", "is_disabled": 0, "is_reserved": 0}, {"rental_uris": {"ios": "https://dc.lft.to/lastmile_qr_scan", "android": "https://dc.lft.to/lastmile_qr_scan"}, "lon": -77.02971816666667, "type": "electric_scooter", "fusion_lat": 0.0, "lat": 38.90731016666667, "name": "cf440e32b263de5ea83e514f017af71e", "fusion_lon": 0.0, "bike_id": "cf440e32b263de5ea83e514f017af71e", "is_disabled": 0, "is_reserved": 0}, {"rental_uris": {"ios": "https://dc.lft.to/lastmile_qr_scan", "android": "https://dc.lft.to/lastmile_qr_scan"}, "lon": -77.02331866666667, "type": "electric_scooter", "fusion_lat": 0.0, "lat": 38.930541, "name": "d84209a0cdc368f86ac71a7c72ad361d", "fusion_lon": 0.0, "bike_id": "d84209a0cdc368f86ac71a7c72ad361d", "is_disabled": 0, "is_reserved": 0}, {"rental_uris": {"ios": "https://dc.lft.to/lastmile_qr_scan", "android": "https://dc.lft.to/lastmile_qr_scan"}, "lon": -77.000719, "type": "electric_scooter", "fusion_lat": 0.0, "lat": 38.925525, "name": "b31be897e490517f24c2c8a0aa70fe00", "fusion_lon": 0.0, "bike_id": "b31be897e490517f24c2c8a0aa70fe00", "is_disabled": 0, "is_reserved": 0}, {"rental_uris": {"ios": "https://dc.lft.to/lastmile_qr_scan", "android": "https://dc.lft.to/lastmile_qr_scan"}, "lon": -77.040149, "type": "electric_scooter", "fusion_lat": 0.0, "lat": 38.93251866666667, "name": "1609dca968801a6c4966e29c6fb2e125", "fusion_lon": 0.0, "bike_id": "1609dca968801a6c4966e29c6fb2e125", "is_disabled": 0, "is_reserved": 0}, {"rental_uris": {"ios": "https://dc.lft.to/lastmile_qr_scan", "android": "https://dc.lft.to/lastmile_qr_scan"}, "lon": -77.0371565, "type": "electric_scooter", "fusion_lat": 0.0, "lat": 38.910411833333335, "name": "44cd09bb4ca5564363dc5fcb0689e2e7", "fusion_lon": 0.0, "bike_id": "44cd09bb4ca5564363dc5fcb0689e2e7", "is_disabled": 0, "is_reserved": 0}, {"rental_uris": {"ios": "https://dc.lft.to/lastmile_qr_scan", "android": "https://dc.lft.to/lastmile_qr_scan"}, "lon": -77.00547116666667, "type": "electric_scooter", "fusion_lat": 0.0, "lat": 38.90562166666667, "name": "6d1777a6234b440f171ac60575afd02a", "fusion_lon": 0.0, "bike_id": "6d1777a6234b440f171ac60575afd02a", "is_disabled": 0, "is_reserved": 0}, {"rental_uris": {"ios": "https://dc.lft.to/lastmile_qr_scan", "android": "https://dc.lft.to/lastmile_qr_scan"}, "lon": -77.0019075, "type": "electric_bike", "fusion_lat": 0.0, "lat": 38.94153433333334, "name": "44cc59b9a8aded00197007b5992e1e3c", "fusion_lon": 0.0, "bike_id": "44cc59b9a8aded00197007b5992e1e3c", "is_disabled": 0, "is_reserved": 0}, {"rental_uris": {"ios": "https://dc.lft.to/lastmile_qr_scan", "android": "https://dc.lft.to/lastmile_qr_scan"}, "lon": -77.027216, "type": "electric_scooter", "fusion_lat": 0.0, "lat": 38.90962783333333, "name": "48bbd172cf2a83069a62b242b6998b92", "fusion_lon": 0.0, "bike_id": "48bbd172cf2a83069a62b242b6998b92", "is_disabled": 0, "is_reserved": 0}, {"rental_uris": {"ios": "https://dc.lft.to/lastmile_qr_scan", "android": "https://dc.lft.to/lastmile_qr_scan"}, "lon": -77.03295783333333, "type": "electric_scooter", "fusion_lat": 0.0, "lat": 38.922147, "name": "fe9fd8e18a51ec3da852463dd01da67f", "fusion_lon": 0.0, "bike_id": "fe9fd8e18a51ec3da852463dd01da67f", "is_disabled": 0, "is_reserved": 0}, {"rental_uris": {"ios": "https://dc.lft.to/lastmile_qr_scan", "android": "https://dc.lft.to/lastmile_qr_scan"}, "lon": -77.04104583333333, "type": "electric_scooter", "fusion_lat": 0.0, "lat": 38.91774066666667, "name": "a629ed6c00afa7bd2e953a96be1c97b4", "fusion_lon": 0.0, "bike_id": "a629ed6c00afa7bd2e953a96be1c97b4", "is_disabled": 0, "is_reserved": 0}, {"rental_uris": {"ios": "https://dc.lft.to/lastmile_qr_scan", "android": "https://dc.lft.to/lastmile_qr_scan"}, "lon": -77.053281, "type": "electric_scooter", "fusion_lat": 0.0, "lat": 38.90019733333333, "name": "8dcd85fbf2632c7c4c7395dc3ed30bb8", "fusion_lon": 0.0, "bike_id": "8dcd85fbf2632c7c4c7395dc3ed30bb8", "is_disabled": 0, "is_reserved": 0}, {"rental_uris": {"ios": "https://dc.lft.to/lastmile_qr_scan", "android": "https://dc.lft.to/lastmile_qr_scan"}, "lon": -77.020931, "type": "electric_scooter", "fusion_lat": 0.0, "lat": 38.91009533333333, "name": "580fa12c8208c57b35f53a3369fe53a8", "fusion_lon": 0.0, "bike_id": "580fa12c8208c57b35f53a3369fe53a8", "is_disabled": 0, "is_reserved": 0}, {"rental_uris": {"ios": "https://dc.lft.to/lastmile_qr_scan", "android": "https://dc.lft.to/lastmile_qr_scan"}, "lon": -77.0339275, "type": "electric_scooter", "fusion_lat": 0.0, "lat": 38.89961533333334, "name": "a09f1e233d4cda36f6c7c77ab41a0f06", "fusion_lon": 0.0, "bike_id": "a09f1e233d4cda36f6c7c77ab41a0f06", "is_disabled": 0, "is_reserved": 0}, {"rental_uris": {"ios": "https://dc.lft.to/lastmile_qr_scan", "android": "https://dc.lft.to/lastmile_qr_scan"}, "lon": -77.015073, "type": "electric_scooter", "fusion_lat": 0.0, "lat": 38.9019335, "name": "c6e0c510e273dc0b87b821af7ca8428c", "fusion_lon": 0.0, "bike_id": "c6e0c510e273dc0b87b821af7ca8428c", "is_disabled": 0, "is_reserved": 0}, {"rental_uris": {"ios": "https://dc.lft.to/lastmile_qr_scan", "android": "https://dc.lft.to/lastmile_qr_scan"}, "lon": -77.040078, "type": "electric_scooter", "fusion_lat": 0.0, "lat": 38.9001375, "name": "afe9fc9b2ca07bcd0eff74fd69370c0c", "fusion_lon": 0.0, "bike_id": "afe9fc9b2ca07bcd0eff74fd69370c0c", "is_disabled": 0, "is_reserved": 0}, {"rental_uris": {"ios": "https://dc.lft.to/lastmile_qr_scan", "android": "https://dc.lft.to/lastmile_qr_scan"}, "lon": -76.97987966666666, "type": "electric_bike", "fusion_lat": 0.0, "lat": 38.877550666666664, "name": "e942b1cefa3037ba6d142d89a7623de2", "fusion_lon": 0.0, "bike_id": "e942b1cefa3037ba6d142d89a7623de2", "is_disabled": 0, "is_reserved": 0}, {"rental_uris": {"ios": "https://dc.lft.to/lastmile_qr_scan", "android": "https://dc.lft.to/lastmile_qr_scan"}, "lon": -77.360912, "type": "electric_bike", "fusion_lat": 0.0, "lat": 38.93963466666666, "name": "35b084344977946d062058037a0b7aab", "fusion_lon": 0.0, "bike_id": "35b084344977946d062058037a0b7aab", "is_disabled": 0, "is_reserved": 0}, {"rental_uris": {"ios": "https://dc.lft.to/lastmile_qr_scan", "android": "https://dc.lft.to/lastmile_qr_scan"}, "lon": -77.03842, "type": "electric_scooter", "fusion_lat": 0.0, "lat": 38.93112133333333, "name": "ec063df082c8502ea1473180f9cf0af5", "fusion_lon": 0.0, "bike_id": "ec063df082c8502ea1473180f9cf0af5", "is_disabled": 0, "is_reserved": 0}, {"rental_uris": {"ios": "https://dc.lft.to/lastmile_qr_scan", "android": "https://dc.lft.to/lastmile_qr_scan"}, "lon": -76.98883866666667, "type": "electric_scooter", "fusion_lat": 0.0, "lat": 38.86660283333333, "name": "ef5b5ab1d666d6eb42adead5e452bdbd", "fusion_lon": 0.0, "bike_id": "ef5b5ab1d666d6eb42adead5e452bdbd", "is_disabled": 0, "is_reserved": 0}, {"rental_uris": {"ios": "https://dc.lft.to/lastmile_qr_scan", "android": "https://dc.lft.to/lastmile_qr_scan"}, "lon": -77.04504066666667, "type": "electric_scooter", "fusion_lat": 0.0, "lat": 38.919442333333336, "name": "3c489f3e717bd801821e4d204b445541", "fusion_lon": 0.0, "bike_id": "3c489f3e717bd801821e4d204b445541", "is_disabled": 0, "is_reserved": 0}, {"rental_uris": {"ios": "https://dc.lft.to/lastmile_qr_scan", "android": "https://dc.lft.to/lastmile_qr_scan"}, "lon": -77.048418, "type": "electric_scooter", "fusion_lat": 0.0, "lat": 38.9097435, "name": "41406754e0737f306710324280ff4b0d", "fusion_lon": 0.0, "bike_id": "41406754e0737f306710324280ff4b0d", "is_disabled": 0, "is_reserved": 0}, {"rental_uris": {"ios": "https://dc.lft.to/lastmile_qr_scan", "android": "https://dc.lft.to/lastmile_qr_scan"}, "lon": -77.01114983333333, "type": "electric_scooter", "fusion_lat": 0.0, "lat": 38.89501766666667, "name": "30c094c6463652ed9158481ddb22279f", "fusion_lon": 0.0, "bike_id": "30c094c6463652ed9158481ddb22279f", "is_disabled": 0, "is_reserved": 0}, {"rental_uris": {"ios": "https://dc.lft.to/lastmile_qr_scan", "android": "https://dc.lft.to/lastmile_qr_scan"}, "lon": -76.97552433333334, "type": "electric_scooter", "fusion_lat": 0.0, "lat": 38.90443333333333, "name": "5dc0337a4a42c1290043ca38ecc1bfb4", "fusion_lon": 0.0, "bike_id": "5dc0337a4a42c1290043ca38ecc1bfb4", "is_disabled": 0, "is_reserved": 0}, {"rental_uris": {"ios": "https://dc.lft.to/lastmile_qr_scan", "android": "https://dc.lft.to/lastmile_qr_scan"}, "lon": -77.04914466666666, "type": "electric_scooter", "fusion_lat": 0.0, "lat": 38.918911, "name": "c13aab86ccb07bf645c8d6eba5b0771b", "fusion_lon": 0.0, "bike_id": "c13aab86ccb07bf645c8d6eba5b0771b", "is_disabled": 0, "is_reserved": 0}, {"rental_uris": {"ios": "https://dc.lft.to/lastmile_qr_scan", "android": "https://dc.lft.to/lastmile_qr_scan"}, "lon": -76.98573316666666, "type": "electric_scooter", "fusion_lat": 0.0, "lat": 38.861449, "name": "abeac2bcb9ecbab068f5e5371b2d1de4", "fusion_lon": 0.0, "bike_id": "abeac2bcb9ecbab068f5e5371b2d1de4", "is_disabled": 0, "is_reserved": 0}, {"rental_uris": {"ios": "https://dc.lft.to/lastmile_qr_scan", "android": "https://dc.lft.to/lastmile_qr_scan"}, "lon": -76.99608616666667, "type": "electric_scooter", "fusion_lat": 0.0, "lat": 38.88625783333333, "name": "a6a629a276e85e01eb11dc8444a8b2f6", "fusion_lon": 0.0, "bike_id": "a6a629a276e85e01eb11dc8444a8b2f6", "is_disabled": 0, "is_reserved": 0}, {"rental_uris": {"ios": "https://dc.lft.to/lastmile_qr_scan", "android": "https://dc.lft.to/lastmile_qr_scan"}, "lon": -77.0423275, "type": "electric_scooter", "fusion_lat": 0.0, "lat": 38.92130516666667, "name": "53d036f742ee273ff36c35b69ace1049", "fusion_lon": 0.0, "bike_id": "53d036f742ee273ff36c35b69ace1049", "is_disabled": 0, "is_reserved": 0}, {"rental_uris": {"ios": "https://dc.lft.to/lastmile_qr_scan", "android": "https://dc.lft.to/lastmile_qr_scan"}, "lon": -77.00349483333333, "type": "electric_scooter", "fusion_lat": 0.0, "lat": 38.9072635, "name": "92e5db51743826575df01f010ece4889", "fusion_lon": 0.0, "bike_id": "92e5db51743826575df01f010ece4889", "is_disabled": 0, "is_reserved": 0}, {"rental_uris": {"ios": "https://dc.lft.to/lastmile_qr_scan", "android": "https://dc.lft.to/lastmile_qr_scan"}, "lon": -76.99781733333333, "type": "electric_bike", "fusion_lat": 0.0, "lat": 38.909308, "name": "59278d4489dfd31e8537b53bdafbd3cd", "fusion_lon": 0.0, "bike_id": "59278d4489dfd31e8537b53bdafbd3cd", "is_disabled": 0, "is_reserved": 0}, {"rental_uris": {"ios": "https://dc.lft.to/lastmile_qr_scan", "android": "https://dc.lft.to/lastmile_qr_scan"}, "lon": -77.00279866666666, "type": "electric_scooter", "fusion_lat": 0.0, "lat": 38.901318, "name": "822c364190950a11e2140e0297df50b2", "fusion_lon": 0.0, "bike_id": "822c364190950a11e2140e0297df50b2", "is_disabled": 0, "is_reserved": 0}, {"rental_uris": {"ios": "https://dc.lft.to/lastmile_qr_scan", "android": "https://dc.lft.to/lastmile_qr_scan"}, "lon": -77.05018283333334, "type": "electric_scooter", "fusion_lat": 0.0, "lat": 38.900193333333334, "name": "8f6103fa85d40886c49045bbe9fb51d5", "fusion_lon": 0.0, "bike_id": "8f6103fa85d40886c49045bbe9fb51d5", "is_disabled": 0, "is_reserved": 0}, {"rental_uris": {"ios": "https://dc.lft.to/lastmile_qr_scan", "android": "https://dc.lft.to/lastmile_qr_scan"}, "lon": -77.0366825, "type": "electric_scooter", "fusion_lat": 0.0, "lat": 38.92998033333333, "name": "f36661f7439f187ff68e48a49265aa49", "fusion_lon": 0.0, "bike_id": "f36661f7439f187ff68e48a49265aa49", "is_disabled": 0, "is_reserved": 0}, {"rental_uris": {"ios": "https://dc.lft.to/lastmile_qr_scan", "android": "https://dc.lft.to/lastmile_qr_scan"}, "lon": -77.024557, "type": "electric_scooter", "fusion_lat": 0.0, "lat": 38.97939383333333, "name": "b60a9944338f3953505b19310a44b1a6", "fusion_lon": 0.0, "bike_id": "b60a9944338f3953505b19310a44b1a6", "is_disabled": 0, "is_reserved": 0}, {"rental_uris": {"ios": "https://dc.lft.to/lastmile_qr_scan", "android": "https://dc.lft.to/lastmile_qr_scan"}, "lon": -77.030854, "type": "electric_scooter", "fusion_lat": 0.0, "lat": 38.90458916666667, "name": "a3c11b96c1c0f91c16845e87873e1f67", "fusion_lon": 0.0, "bike_id": "a3c11b96c1c0f91c16845e87873e1f67", "is_disabled": 0, "is_reserved": 0}, {"rental_uris": {"ios": "https://dc.lft.to/lastmile_qr_scan", "android": "https://dc.lft.to/lastmile_qr_scan"}, "lon": -77.0242, "type": "electric_scooter", "fusion_lat": 0.0, "lat": 38.91821433333333, "name": "c362a11a4ceb7479ed285366a6f8f856", "fusion_lon": 0.0, "bike_id": "c362a11a4ceb7479ed285366a6f8f856", "is_disabled": 0, "is_reserved": 0}, {"rental_uris": {"ios": "https://dc.lft.to/lastmile_qr_scan", "android": "https://dc.lft.to/lastmile_qr_scan"}, "lon": -77.0413205, "type": "electric_scooter", "fusion_lat": 0.0, "lat": 38.9235005, "name": "8e53138fbc170a86e0f9bd1194da6f6d", "fusion_lon": 0.0, "bike_id": "8e53138fbc170a86e0f9bd1194da6f6d", "is_disabled": 0, "is_reserved": 0}, {"rental_uris": {"ios": "https://dc.lft.to/lastmile_qr_scan", "android": "https://dc.lft.to/lastmile_qr_scan"}, "lon": -77.04796233333333, "type": "electric_scooter", "fusion_lat": 0.0, "lat": 38.9072765, "name": "da255f14d10bf14dd7cb83478b751f0c", "fusion_lon": 0.0, "bike_id": "da255f14d10bf14dd7cb83478b751f0c", "is_disabled": 0, "is_reserved": 0}, {"rental_uris": {"ios": "https://dc.lft.to/lastmile_qr_scan", "android": "https://dc.lft.to/lastmile_qr_scan"}, "lon": -77.0233455, "type": "electric_scooter", "fusion_lat": 0.0, "lat": 38.930511833333334, "name": "13f963e3ed1362b7651b7f2ecdb7e607", "fusion_lon": 0.0, "bike_id": "13f963e3ed1362b7651b7f2ecdb7e607", "is_disabled": 0, "is_reserved": 0}, {"rental_uris": {"ios": "https://dc.lft.to/lastmile_qr_scan", "android": "https://dc.lft.to/lastmile_qr_scan"}, "lon": -76.97333666666667, "type": "electric_bike", "fusion_lat": 0.0, "lat": 38.8506325, "name": "84bcd19f28546d63682facf39230f4e8", "fusion_lon": 0.0, "bike_id": "84bcd19f28546d63682facf39230f4e8", "is_disabled": 0, "is_reserved": 0}, {"rental_uris": {"ios": "https://dc.lft.to/lastmile_qr_scan", "android": "https://dc.lft.to/lastmile_qr_scan"}, "lon": -77.05027916666667, "type": "electric_scooter", "fusion_lat": 0.0, "lat": 38.896594666666665, "name": "64843efaa1fa7f133c76d31f15a71643", "fusion_lon": 0.0, "bike_id": "64843efaa1fa7f133c76d31f15a71643", "is_disabled": 0, "is_reserved": 0}, {"rental_uris": {"ios": "https://dc.lft.to/lastmile_qr_scan", "android": "https://dc.lft.to/lastmile_qr_scan"}, "lon": -77.04584383333334, "type": "electric_scooter", "fusion_lat": 0.0, "lat": 38.902362333333336, "name": "bc3d1340e76a879577f8167f213419b9", "fusion_lon": 0.0, "bike_id": "bc3d1340e76a879577f8167f213419b9", "is_disabled": 0, "is_reserved": 0}, {"rental_uris": {"ios": "https://dc.lft.to/lastmile_qr_scan", "android": "https://dc.lft.to/lastmile_qr_scan"}, "lon": -77.05277533333333, "type": "electric_scooter", "fusion_lat": 0.0, "lat": 38.9102925, "name": "2556429a9615e330cf5a04c0713d1899", "fusion_lon": 0.0, "bike_id": "2556429a9615e330cf5a04c0713d1899", "is_disabled": 0, "is_reserved": 0}, {"rental_uris": {"ios": "https://dc.lft.to/lastmile_qr_scan", "android": "https://dc.lft.to/lastmile_qr_scan"}, "lon": -77.037991, "type": "electric_scooter", "fusion_lat": 0.0, "lat": 38.92191833333333, "name": "33b27eaefda907c626c701f812458582", "fusion_lon": 0.0, "bike_id": "33b27eaefda907c626c701f812458582", "is_disabled": 0, "is_reserved": 0}, {"rental_uris": {"ios": "https://dc.lft.to/lastmile_qr_scan", "android": "https://dc.lft.to/lastmile_qr_scan"}, "lon": -77.03965266666667, "type": "electric_scooter", "fusion_lat": 0.0, "lat": 38.90261316666667, "name": "d7ed05a485289e0abb70c243ee3fdc65", "fusion_lon": 0.0, "bike_id": "d7ed05a485289e0abb70c243ee3fdc65", "is_disabled": 0, "is_reserved": 0}, {"rental_uris": {"ios": "https://dc.lft.to/lastmile_qr_scan", "android": "https://dc.lft.to/lastmile_qr_scan"}, "lon": -77.04523483333334, "type": "electric_scooter", "fusion_lat": 0.0, "lat": 38.912874333333335, "name": "18241ce91c3a8e5c80fa97cc0660ab4a", "fusion_lon": 0.0, "bike_id": "18241ce91c3a8e5c80fa97cc0660ab4a", "is_disabled": 0, "is_reserved": 0}, {"rental_uris": {"ios": "https://dc.lft.to/lastmile_qr_scan", "android": "https://dc.lft.to/lastmile_qr_scan"}, "lon": -77.0319885, "type": "electric_scooter", "fusion_lat": 0.0, "lat": 38.92283066666667, "name": "af66f2e636a4413bc77ad1e138873068", "fusion_lon": 0.0, "bike_id": "af66f2e636a4413bc77ad1e138873068", "is_disabled": 0, "is_reserved": 0}, {"rental_uris": {"ios": "https://dc.lft.to/lastmile_qr_scan", "android": "https://dc.lft.to/lastmile_qr_scan"}, "lon": -77.0371115, "type": "electric_scooter", "fusion_lat": 0.0, "lat": 38.9262655, "name": "36abb7054ad2cd9016d94c85fdbbfd8b", "fusion_lon": 0.0, "bike_id": "36abb7054ad2cd9016d94c85fdbbfd8b", "is_disabled": 0, "is_reserved": 0}, {"rental_uris": {"ios": "https://dc.lft.to/lastmile_qr_scan", "android": "https://dc.lft.to/lastmile_qr_scan"}, "lon": -77.005929, "type": "electric_scooter", "fusion_lat": 0.0, "lat": 38.91567416666667, "name": "ff33b346321dec255fc872767887fd00", "fusion_lon": 0.0, "bike_id": "ff33b346321dec255fc872767887fd00", "is_disabled": 0, "is_reserved": 0}, {"rental_uris": {"ios": "https://dc.lft.to/lastmile_qr_scan", "android": "https://dc.lft.to/lastmile_qr_scan"}, "lon": -77.02400916666667, "type": "electric_scooter", "fusion_lat": 0.0, "lat": 38.931138833333335, "name": "8eeabeb7203f859d21047ab1cf8dc593", "fusion_lon": 0.0, "bike_id": "8eeabeb7203f859d21047ab1cf8dc593", "is_disabled": 0, "is_reserved": 0}, {"rental_uris": {"ios": "https://dc.lft.to/lastmile_qr_scan", "android": "https://dc.lft.to/lastmile_qr_scan"}, "lon": -77.0153585, "type": "electric_scooter", "fusion_lat": 0.0, "lat": 38.89208716666667, "name": "3bd27ad0d43ad420593882970e0ca301", "fusion_lon": 0.0, "bike_id": "3bd27ad0d43ad420593882970e0ca301", "is_disabled": 0, "is_reserved": 0}, {"rental_uris": {"ios": "https://dc.lft.to/lastmile_qr_scan", "android": "https://dc.lft.to/lastmile_qr_scan"}, "lon": -77.12500816666666, "type": "electric_bike", "fusion_lat": 0.0, "lat": 39.024205333333335, "name": "4e8a300c90d175a824b45a5087f91ff6", "fusion_lon": 0.0, "bike_id": "4e8a300c90d175a824b45a5087f91ff6", "is_disabled": 0, "is_reserved": 0}, {"rental_uris": {"ios": "https://dc.lft.to/lastmile_qr_scan", "android": "https://dc.lft.to/lastmile_qr_scan"}, "lon": -77.046633, "type": "electric_scooter", "fusion_lat": 0.0, "lat": 38.9056485, "name": "0ca40558d139b71bdc91086687db37d5", "fusion_lon": 0.0, "bike_id": "0ca40558d139b71bdc91086687db37d5", "is_disabled": 0, "is_reserved": 0}, {"rental_uris": {"ios": "https://dc.lft.to/lastmile_qr_scan", "android": "https://dc.lft.to/lastmile_qr_scan"}, "lon": -77.02141283333333, "type": "electric_scooter", "fusion_lat": 0.0, "lat": 38.933071166666664, "name": "05dd2a07114e6070f5a09f99694c88cc", "fusion_lon": 0.0, "bike_id": "05dd2a07114e6070f5a09f99694c88cc", "is_disabled": 0, "is_reserved": 0}, {"rental_uris": {"ios": "https://dc.lft.to/lastmile_qr_scan", "android": "https://dc.lft.to/lastmile_qr_scan"}, "lon": -77.02474933333333, "type": "electric_scooter", "fusion_lat": 0.0, "lat": 38.930928333333334, "name": "e2b01315b973d9345ae43c11195e78a0", "fusion_lon": 0.0, "bike_id": "e2b01315b973d9345ae43c11195e78a0", "is_disabled": 0, "is_reserved": 0}, {"rental_uris": {"ios": "https://dc.lft.to/lastmile_qr_scan", "android": "https://dc.lft.to/lastmile_qr_scan"}, "lon": -77.042432, "type": "electric_scooter", "fusion_lat": 0.0, "lat": 38.908169666666666, "name": "4a2c5f920f867195f34d921c553bfb63", "fusion_lon": 0.0, "bike_id": "4a2c5f920f867195f34d921c553bfb63", "is_disabled": 0, "is_reserved": 0}, {"rental_uris": {"ios": "https://dc.lft.to/lastmile_qr_scan", "android": "https://dc.lft.to/lastmile_qr_scan"}, "lon": -77.032768, "type": "electric_scooter", "fusion_lat": 0.0, "lat": 38.937339, "name": "01242b38b3aed31b8558bbaad73a9d68", "fusion_lon": 0.0, "bike_id": "01242b38b3aed31b8558bbaad73a9d68", "is_disabled": 0, "is_reserved": 0}, {"rental_uris": {"ios": "https://dc.lft.to/lastmile_qr_scan", "android": "https://dc.lft.to/lastmile_qr_scan"}, "lon": -77.02612816666667, "type": "electric_scooter", "fusion_lat": 0.0, "lat": 38.91693383333333, "name": "f539a2fd3048f0891f42865c770a60e2", "fusion_lon": 0.0, "bike_id": "f539a2fd3048f0891f42865c770a60e2", "is_disabled": 0, "is_reserved": 0}, {"rental_uris": {"ios": "https://dc.lft.to/lastmile_qr_scan", "android": "https://dc.lft.to/lastmile_qr_scan"}, "lon": -76.99538066666666, "type": "electric_scooter", "fusion_lat": 0.0, "lat": 38.9267255, "name": "848f7f3cb6c673be81eae5af80445969", "fusion_lon": 0.0, "bike_id": "848f7f3cb6c673be81eae5af80445969", "is_disabled": 0, "is_reserved": 0}, {"rental_uris": {"ios": "https://dc.lft.to/lastmile_qr_scan", "android": "https://dc.lft.to/lastmile_qr_scan"}, "lon": -77.083607, "type": "electric_scooter", "fusion_lat": 0.0, "lat": 38.9303195, "name": "031fd5192c616576a9710a49aaca0ce3", "fusion_lon": 0.0, "bike_id": "031fd5192c616576a9710a49aaca0ce3", "is_disabled": 0, "is_reserved": 0}, {"rental_uris": {"ios": "https://dc.lft.to/lastmile_qr_scan", "android": "https://dc.lft.to/lastmile_qr_scan"}, "lon": -76.98768966666667, "type": "electric_scooter", "fusion_lat": 0.0, "lat": 38.9117445, "name": "3dac06af8d9c5a3cc893f29004bc5456", "fusion_lon": 0.0, "bike_id": "3dac06af8d9c5a3cc893f29004bc5456", "is_disabled": 0, "is_reserved": 0}, {"rental_uris": {"ios": "https://dc.lft.to/lastmile_qr_scan", "android": "https://dc.lft.to/lastmile_qr_scan"}, "lon": -77.0482475, "type": "electric_scooter", "fusion_lat": 0.0, "lat": 38.896218833333336, "name": "849f6353e50d2bc85be180f5d703cde3", "fusion_lon": 0.0, "bike_id": "849f6353e50d2bc85be180f5d703cde3", "is_disabled": 0, "is_reserved": 0}, {"rental_uris": {"ios": "https://dc.lft.to/lastmile_qr_scan", "android": "https://dc.lft.to/lastmile_qr_scan"}, "lon": -77.028921, "type": "electric_scooter", "fusion_lat": 0.0, "lat": 38.9036825, "name": "19118bd486aa00bc007dad8af1b7c306", "fusion_lon": 0.0, "bike_id": "19118bd486aa00bc007dad8af1b7c306", "is_disabled": 0, "is_reserved": 0}, {"rental_uris": {"ios": "https://dc.lft.to/lastmile_qr_scan", "android": "https://dc.lft.to/lastmile_qr_scan"}, "lon": -77.03085216666666, "type": "electric_scooter", "fusion_lat": 0.0, "lat": 38.93473616666667, "name": "2607fb981b667a0f71be39cc9a22e899", "fusion_lon": 0.0, "bike_id": "2607fb981b667a0f71be39cc9a22e899", "is_disabled": 0, "is_reserved": 0}, {"rental_uris": {"ios": "https://dc.lft.to/lastmile_qr_scan", "android": "https://dc.lft.to/lastmile_qr_scan"}, "lon": -77.01755933333334, "type": "electric_scooter", "fusion_lat": 0.0, "lat": 38.93897116666667, "name": "c6850ad7ad1c5452567759d84e30e753", "fusion_lon": 0.0, "bike_id": "c6850ad7ad1c5452567759d84e30e753", "is_disabled": 0, "is_reserved": 0}, {"rental_uris": {"ios": "https://dc.lft.to/lastmile_qr_scan", "android": "https://dc.lft.to/lastmile_qr_scan"}, "lon": -76.97888483333334, "type": "electric_scooter", "fusion_lat": 0.0, "lat": 38.916747666666666, "name": "f47cd8298b285ceff07223e517ebbc80", "fusion_lon": 0.0, "bike_id": "f47cd8298b285ceff07223e517ebbc80", "is_disabled": 0, "is_reserved": 0}, {"rental_uris": {"ios": "https://dc.lft.to/lastmile_qr_scan", "android": "https://dc.lft.to/lastmile_qr_scan"}, "lon": -77.1274395, "type": "electric_bike", "fusion_lat": 0.0, "lat": 38.888191, "name": "9f391f57aec04d6c70550780568cd849", "fusion_lon": 0.0, "bike_id": "9f391f57aec04d6c70550780568cd849", "is_disabled": 0, "is_reserved": 0}, {"rental_uris": {"ios": "https://dc.lft.to/lastmile_qr_scan", "android": "https://dc.lft.to/lastmile_qr_scan"}, "lon": -76.9379495, "type": "electric_scooter", "fusion_lat": 0.0, "lat": 38.912910333333336, "name": "dca328ff5312884bfea3182930070a10", "fusion_lon": 0.0, "bike_id": "dca328ff5312884bfea3182930070a10", "is_disabled": 0, "is_reserved": 0}, {"rental_uris": {"ios": "https://dc.lft.to/lastmile_qr_scan", "android": "https://dc.lft.to/lastmile_qr_scan"}, "lon": -77.00852466666667, "type": "electric_scooter", "fusion_lat": 0.0, "lat": 38.92593183333334, "name": "4a2dd2e5473918b431764272da3c5d39", "fusion_lon": 0.0, "bike_id": "4a2dd2e5473918b431764272da3c5d39", "is_disabled": 0, "is_reserved": 0}, {"rental_uris": {"ios": "https://dc.lft.to/lastmile_qr_scan", "android": "https://dc.lft.to/lastmile_qr_scan"}, "lon": -77.04960033333333, "type": "electric_scooter", "fusion_lat": 0.0, "lat": 38.89647933333333, "name": "a91dbd2b456fd80bc1a25e9594c5aec5", "fusion_lon": 0.0, "bike_id": "a91dbd2b456fd80bc1a25e9594c5aec5", "is_disabled": 0, "is_reserved": 0}, {"rental_uris": {"ios": "https://dc.lft.to/lastmile_qr_scan", "android": "https://dc.lft.to/lastmile_qr_scan"}, "lon": -76.98509966666667, "type": "electric_scooter", "fusion_lat": 0.0, "lat": 38.90086616666667, "name": "e75e47e86b7d6842abbd458dfe20966f", "fusion_lon": 0.0, "bike_id": "e75e47e86b7d6842abbd458dfe20966f", "is_disabled": 0, "is_reserved": 0}, {"rental_uris": {"ios": "https://dc.lft.to/lastmile_qr_scan", "android": "https://dc.lft.to/lastmile_qr_scan"}, "lon": -77.00761466666667, "type": "electric_scooter", "fusion_lat": 0.0, "lat": 38.910317666666664, "name": "402f57b3085f986f0a59e6c5571f7b34", "fusion_lon": 0.0, "bike_id": "402f57b3085f986f0a59e6c5571f7b34", "is_disabled": 0, "is_reserved": 0}, {"rental_uris": {"ios": "https://dc.lft.to/lastmile_qr_scan", "android": "https://dc.lft.to/lastmile_qr_scan"}, "lon": -77.05403466666667, "type": "electric_scooter", "fusion_lat": 0.0, "lat": 38.904038, "name": "29c3b4951b5b4e96c09452c793faa8bb", "fusion_lon": 0.0, "bike_id": "29c3b4951b5b4e96c09452c793faa8bb", "is_disabled": 0, "is_reserved": 0}, {"rental_uris": {"ios": "https://dc.lft.to/lastmile_qr_scan", "android": "https://dc.lft.to/lastmile_qr_scan"}, "lon": -77.041986, "type": "electric_scooter", "fusion_lat": 0.0, "lat": 38.91110416666667, "name": "2177e033e8ad5de694745ad9f9d5bd7a", "fusion_lon": 0.0, "bike_id": "2177e033e8ad5de694745ad9f9d5bd7a", "is_disabled": 0, "is_reserved": 0}, {"rental_uris": {"ios": "https://dc.lft.to/lastmile_qr_scan", "android": "https://dc.lft.to/lastmile_qr_scan"}, "lon": -76.9907025, "type": "electric_scooter", "fusion_lat": 0.0, "lat": 38.90422183333333, "name": "67b39d8235185eefbcc88355eb05dc64", "fusion_lon": 0.0, "bike_id": "67b39d8235185eefbcc88355eb05dc64", "is_disabled": 0, "is_reserved": 0}, {"rental_uris": {"ios": "https://dc.lft.to/lastmile_qr_scan", "android": "https://dc.lft.to/lastmile_qr_scan"}, "lon": -77.0398, "type": "electric_scooter", "fusion_lat": 0.0, "lat": 38.901348, "name": "b560528df6420f40ed819f2dc94c56d2", "fusion_lon": 0.0, "bike_id": "b560528df6420f40ed819f2dc94c56d2", "is_disabled": 0, "is_reserved": 0}, {"rental_uris": {"ios": "https://dc.lft.to/lastmile_qr_scan", "android": "https://dc.lft.to/lastmile_qr_scan"}, "lon": -77.02591716666667, "type": "electric_scooter", "fusion_lat": 0.0, "lat": 38.91554983333333, "name": "c6ff6acea4c00470b730c7855b45bcc6", "fusion_lon": 0.0, "bike_id": "c6ff6acea4c00470b730c7855b45bcc6", "is_disabled": 0, "is_reserved": 0}, {"rental_uris": {"ios": "https://dc.lft.to/lastmile_qr_scan", "android": "https://dc.lft.to/lastmile_qr_scan"}, "lon": -77.09164583333333, "type": "electric_bike", "fusion_lat": 0.0, "lat": 38.967609833333334, "name": "88be27e096156e11c68e485898f4751b", "fusion_lon": 0.0, "bike_id": "88be27e096156e11c68e485898f4751b", "is_disabled": 0, "is_reserved": 0}, {"rental_uris": {"ios": "https://dc.lft.to/lastmile_qr_scan", "android": "https://dc.lft.to/lastmile_qr_scan"}, "lon": -77.04376866666667, "type": "electric_scooter", "fusion_lat": 0.0, "lat": 38.920663166666664, "name": "f99b6ed8bfebbeac795e0f063de7b982", "fusion_lon": 0.0, "bike_id": "f99b6ed8bfebbeac795e0f063de7b982", "is_disabled": 0, "is_reserved": 0}, {"rental_uris": {"ios": "https://dc.lft.to/lastmile_qr_scan", "android": "https://dc.lft.to/lastmile_qr_scan"}, "lon": -77.0197845, "type": "electric_bike", "fusion_lat": 0.0, "lat": 38.95665433333333, "name": "81e0294622be2a83274989562d187990", "fusion_lon": 0.0, "bike_id": "81e0294622be2a83274989562d187990", "is_disabled": 0, "is_reserved": 0}, {"rental_uris": {"ios": "https://dc.lft.to/lastmile_qr_scan", "android": "https://dc.lft.to/lastmile_qr_scan"}, "lon": -77.02329083333333, "type": "electric_scooter", "fusion_lat": 0.0, "lat": 38.883598166666665, "name": "e984a7f89fe88e664e2bae30e4538da5", "fusion_lon": 0.0, "bike_id": "e984a7f89fe88e664e2bae30e4538da5", "is_disabled": 0, "is_reserved": 0}, {"rental_uris": {"ios": "https://dc.lft.to/lastmile_qr_scan", "android": "https://dc.lft.to/lastmile_qr_scan"}, "lon": -77.13094266666667, "type": "electric_bike", "fusion_lat": 0.0, "lat": 38.8616525, "name": "c66d96d31516925458c8a06e26b8b74f", "fusion_lon": 0.0, "bike_id": "c66d96d31516925458c8a06e26b8b74f", "is_disabled": 0, "is_reserved": 0}, {"rental_uris": {"ios": "https://dc.lft.to/lastmile_qr_scan", "android": "https://dc.lft.to/lastmile_qr_scan"}, "lon": -77.02506833333334, "type": "electric_bike", "fusion_lat": 0.0, "lat": 38.934166833333336, "name": "31ffcc874e9c809164f5a11ad0d4a4de", "fusion_lon": 0.0, "bike_id": "31ffcc874e9c809164f5a11ad0d4a4de", "is_disabled": 0, "is_reserved": 0}, {"rental_uris": {"ios": "https://dc.lft.to/lastmile_qr_scan", "android": "https://dc.lft.to/lastmile_qr_scan"}, "lon": -77.0653895, "type": "electric_scooter", "fusion_lat": 0.0, "lat": 38.90481333333334, "name": "309cf2991a636e5443105667cdad785a", "fusion_lon": 0.0, "bike_id": "309cf2991a636e5443105667cdad785a", "is_disabled": 0, "is_reserved": 0}, {"rental_uris": {"ios": "https://dc.lft.to/lastmile_qr_scan", "android": "https://dc.lft.to/lastmile_qr_scan"}, "lon": -76.95882566666667, "type": "electric_scooter", "fusion_lat": 0.0, "lat": 38.85850666666666, "name": "24915a6ca7c10efcca03ed96db3de4df", "fusion_lon": 0.0, "bike_id": "24915a6ca7c10efcca03ed96db3de4df", "is_disabled": 0, "is_reserved": 0}, {"rental_uris": {"ios": "https://dc.lft.to/lastmile_qr_scan", "android": "https://dc.lft.to/lastmile_qr_scan"}, "lon": -76.99681683333333, "type": "electric_scooter", "fusion_lat": 0.0, "lat": 38.88683183333333, "name": "5c3aa114ff3efdacd1d3d3e32c14889f", "fusion_lon": 0.0, "bike_id": "5c3aa114ff3efdacd1d3d3e32c14889f", "is_disabled": 0, "is_reserved": 0}, {"rental_uris": {"ios": "https://dc.lft.to/lastmile_qr_scan", "android": "https://dc.lft.to/lastmile_qr_scan"}, "lon": -77.02473033333334, "type": "electric_scooter", "fusion_lat": 0.0, "lat": 38.918193, "name": "865ddb8240e283e0515408d13b63b55b", "fusion_lon": 0.0, "bike_id": "865ddb8240e283e0515408d13b63b55b", "is_disabled": 0, "is_reserved": 0}, {"rental_uris": {"ios": "https://dc.lft.to/lastmile_qr_scan", "android": "https://dc.lft.to/lastmile_qr_scan"}, "lon": -77.0433545, "type": "electric_scooter", "fusion_lat": 0.0, "lat": 38.92792433333334, "name": "83b35fac8fe3ec1a44196f16bdbb98ef", "fusion_lon": 0.0, "bike_id": "83b35fac8fe3ec1a44196f16bdbb98ef", "is_disabled": 0, "is_reserved": 0}, {"rental_uris": {"ios": "https://dc.lft.to/lastmile_qr_scan", "android": "https://dc.lft.to/lastmile_qr_scan"}, "lon": -76.95765966666667, "type": "electric_scooter", "fusion_lat": 0.0, "lat": 38.88687766666666, "name": "a65aaf1d256fc4d9b8c8b3621ad92f27", "fusion_lon": 0.0, "bike_id": "a65aaf1d256fc4d9b8c8b3621ad92f27", "is_disabled": 0, "is_reserved": 0}, {"rental_uris": {"ios": "https://dc.lft.to/lastmile_qr_scan", "android": "https://dc.lft.to/lastmile_qr_scan"}, "lon": -77.00729366666667, "type": "electric_scooter", "fusion_lat": 0.0, "lat": 38.896176833333335, "name": "eeb1bef71ae27cb5b75f71dd04b2a565", "fusion_lon": 0.0, "bike_id": "eeb1bef71ae27cb5b75f71dd04b2a565", "is_disabled": 0, "is_reserved": 0}, {"rental_uris": {"ios": "https://dc.lft.to/lastmile_qr_scan", "android": "https://dc.lft.to/lastmile_qr_scan"}, "lon": -77.02119183333333, "type": "electric_scooter", "fusion_lat": 0.0, "lat": 38.93700966666667, "name": "d49a879b96763733ca1c4a5cdfa194d5", "fusion_lon": 0.0, "bike_id": "d49a879b96763733ca1c4a5cdfa194d5", "is_disabled": 0, "is_reserved": 0}, {"rental_uris": {"ios": "https://dc.lft.to/lastmile_qr_scan", "android": "https://dc.lft.to/lastmile_qr_scan"}, "lon": -77.02787716666667, "type": "electric_scooter", "fusion_lat": 0.0, "lat": 38.91817616666667, "name": "53ccd0076580444a8e9f5783eac71100", "fusion_lon": 0.0, "bike_id": "53ccd0076580444a8e9f5783eac71100", "is_disabled": 0, "is_reserved": 0}, {"rental_uris": {"ios": "https://dc.lft.to/lastmile_qr_scan", "android": "https://dc.lft.to/lastmile_qr_scan"}, "lon": -77.03228416666667, "type": "electric_scooter", "fusion_lat": 0.0, "lat": 38.925817, "name": "38ca6d2c0165fa0d0d0715f5a19f471a", "fusion_lon": 0.0, "bike_id": "38ca6d2c0165fa0d0d0715f5a19f471a", "is_disabled": 0, "is_reserved": 0}, {"rental_uris": {"ios": "https://dc.lft.to/lastmile_qr_scan", "android": "https://dc.lft.to/lastmile_qr_scan"}, "lon": -77.01113833333334, "type": "electric_scooter", "fusion_lat": 0.0, "lat": 38.90364566666667, "name": "63a29c77df9b3c549638f562cec2ca5b", "fusion_lon": 0.0, "bike_id": "63a29c77df9b3c549638f562cec2ca5b", "is_disabled": 0, "is_reserved": 0}, {"rental_uris": {"ios": "https://dc.lft.to/lastmile_qr_scan", "android": "https://dc.lft.to/lastmile_qr_scan"}, "lon": -77.03642866666667, "type": "electric_scooter", "fusion_lat": 0.0, "lat": 38.91733933333333, "name": "5681032c3755381c7ed282ed365c18e7", "fusion_lon": 0.0, "bike_id": "5681032c3755381c7ed282ed365c18e7", "is_disabled": 0, "is_reserved": 0}, {"rental_uris": {"ios": "https://dc.lft.to/lastmile_qr_scan", "android": "https://dc.lft.to/lastmile_qr_scan"}, "lon": -77.04483966666666, "type": "electric_bike", "fusion_lat": 0.0, "lat": 38.912917166666666, "name": "7f493acffbc5b5a1cada40b4c3a2930f", "fusion_lon": 0.0, "bike_id": "7f493acffbc5b5a1cada40b4c3a2930f", "is_disabled": 0, "is_reserved": 0}, {"rental_uris": {"ios": "https://dc.lft.to/lastmile_qr_scan", "android": "https://dc.lft.to/lastmile_qr_scan"}, "lon": -77.0244205, "type": "electric_scooter", "fusion_lat": 0.0, "lat": 38.93832533333333, "name": "c46e999422b62f6062402897b0372343", "fusion_lon": 0.0, "bike_id": "c46e999422b62f6062402897b0372343", "is_disabled": 0, "is_reserved": 0}, {"rental_uris": {"ios": "https://dc.lft.to/lastmile_qr_scan", "android": "https://dc.lft.to/lastmile_qr_scan"}, "lon": -76.96526766666666, "type": "electric_scooter", "fusion_lat": 0.0, "lat": 38.87630133333333, "name": "4fccfe718eaa53101297d2ebac58558a", "fusion_lon": 0.0, "bike_id": "4fccfe718eaa53101297d2ebac58558a", "is_disabled": 0, "is_reserved": 0}, {"rental_uris": {"ios": "https://dc.lft.to/lastmile_qr_scan", "android": "https://dc.lft.to/lastmile_qr_scan"}, "lon": -76.94759433333333, "type": "electric_scooter", "fusion_lat": 0.0, "lat": 38.900542, "name": "8868eb271e9712d578300bfc59f17f88", "fusion_lon": 0.0, "bike_id": "8868eb271e9712d578300bfc59f17f88", "is_disabled": 0, "is_reserved": 0}, {"rental_uris": {"ios": "https://dc.lft.to/lastmile_qr_scan", "android": "https://dc.lft.to/lastmile_qr_scan"}, "lon": -76.995083, "type": "electric_bike", "fusion_lat": 0.0, "lat": 38.899878333333334, "name": "b08700ad2151e8f47d87a6972ac2f267", "fusion_lon": 0.0, "bike_id": "b08700ad2151e8f47d87a6972ac2f267", "is_disabled": 0, "is_reserved": 0}, {"rental_uris": {"ios": "https://dc.lft.to/lastmile_qr_scan", "android": "https://dc.lft.to/lastmile_qr_scan"}, "lon": -76.98681416666666, "type": "electric_scooter", "fusion_lat": 0.0, "lat": 38.8821485, "name": "4a43de01a9bd2f7197ace5a78046627f", "fusion_lon": 0.0, "bike_id": "4a43de01a9bd2f7197ace5a78046627f", "is_disabled": 0, "is_reserved": 0}, {"rental_uris": {"ios": "https://dc.lft.to/lastmile_qr_scan", "android": "https://dc.lft.to/lastmile_qr_scan"}, "lon": -77.03124433333333, "type": "electric_scooter", "fusion_lat": 0.0, "lat": 38.91340016666667, "name": "661644aeee7a14397158de5607fceb5c", "fusion_lon": 0.0, "bike_id": "661644aeee7a14397158de5607fceb5c", "is_disabled": 0, "is_reserved": 0}, {"rental_uris": {"ios": "https://dc.lft.to/lastmile_qr_scan", "android": "https://dc.lft.to/lastmile_qr_scan"}, "lon": -76.97626333333334, "type": "electric_scooter", "fusion_lat": 0.0, "lat": 38.90573233333333, "name": "a5e4ec925bc9f644fbd03c83c86cd3a0", "fusion_lon": 0.0, "bike_id": "a5e4ec925bc9f644fbd03c83c86cd3a0", "is_disabled": 0, "is_reserved": 0}, {"rental_uris": {"ios": "https://dc.lft.to/lastmile_qr_scan", "android": "https://dc.lft.to/lastmile_qr_scan"}, "lon": -77.05208366666666, "type": "electric_scooter", "fusion_lat": 0.0, "lat": 38.92437066666667, "name": "df54d9b343c602d307efb4c2e837352b", "fusion_lon": 0.0, "bike_id": "df54d9b343c602d307efb4c2e837352b", "is_disabled": 0, "is_reserved": 0}, {"rental_uris": {"ios": "https://dc.lft.to/lastmile_qr_scan", "android": "https://dc.lft.to/lastmile_qr_scan"}, "lon": -77.0588655, "type": "electric_scooter", "fusion_lat": 0.0, "lat": 38.9363625, "name": "dc012c1680148eb3601fb099841d4e48", "fusion_lon": 0.0, "bike_id": "dc012c1680148eb3601fb099841d4e48", "is_disabled": 0, "is_reserved": 0}, {"rental_uris": {"ios": "https://dc.lft.to/lastmile_qr_scan", "android": "https://dc.lft.to/lastmile_qr_scan"}, "lon": -77.0022105, "type": "electric_scooter", "fusion_lat": 0.0, "lat": 38.911900333333335, "name": "a2638db1ca8f924f0a99d6480d2a2308", "fusion_lon": 0.0, "bike_id": "a2638db1ca8f924f0a99d6480d2a2308", "is_disabled": 0, "is_reserved": 0}, {"rental_uris": {"ios": "https://dc.lft.to/lastmile_qr_scan", "android": "https://dc.lft.to/lastmile_qr_scan"}, "lon": -76.98311633333333, "type": "electric_scooter", "fusion_lat": 0.0, "lat": 38.86891166666667, "name": "162d483d6876108f30cf49a81a56a1a1", "fusion_lon": 0.0, "bike_id": "162d483d6876108f30cf49a81a56a1a1", "is_disabled": 0, "is_reserved": 0}, {"rental_uris": {"ios": "https://dc.lft.to/lastmile_qr_scan", "android": "https://dc.lft.to/lastmile_qr_scan"}, "lon": -77.02889566666667, "type": "electric_scooter", "fusion_lat": 0.0, "lat": 38.92575766666667, "name": "28541cf2ef4d6f995bf1a5031a1fcc40", "fusion_lon": 0.0, "bike_id": "28541cf2ef4d6f995bf1a5031a1fcc40", "is_disabled": 0, "is_reserved": 0}, {"rental_uris": {"ios": "https://dc.lft.to/lastmile_qr_scan", "android": "https://dc.lft.to/lastmile_qr_scan"}, "lon": -77.0019905, "type": "electric_bike", "fusion_lat": 0.0, "lat": 38.883085666666666, "name": "615ca6de6c6e3120b0bcc1bc41f946d9", "fusion_lon": 0.0, "bike_id": "615ca6de6c6e3120b0bcc1bc41f946d9", "is_disabled": 0, "is_reserved": 0}, {"rental_uris": {"ios": "https://dc.lft.to/lastmile_qr_scan", "android": "https://dc.lft.to/lastmile_qr_scan"}, "lon": -77.0478635, "type": "electric_scooter", "fusion_lat": 0.0, "lat": 38.90856083333333, "name": "35249a3b4f2977f32850fe92aadb2b2d", "fusion_lon": 0.0, "bike_id": "35249a3b4f2977f32850fe92aadb2b2d", "is_disabled": 0, "is_reserved": 0}, {"rental_uris": {"ios": "https://dc.lft.to/lastmile_qr_scan", "android": "https://dc.lft.to/lastmile_qr_scan"}, "lon": -77.0022225, "type": "electric_bike", "fusion_lat": 0.0, "lat": 38.82378383333333, "name": "eb77e8515316deccf001a6c920aefe21", "fusion_lon": 0.0, "bike_id": "eb77e8515316deccf001a6c920aefe21", "is_disabled": 0, "is_reserved": 0}, {"rental_uris": {"ios": "https://dc.lft.to/lastmile_qr_scan", "android": "https://dc.lft.to/lastmile_qr_scan"}, "lon": -77.0807245, "type": "electric_scooter", "fusion_lat": 0.0, "lat": 38.959095, "name": "4b9a99efe8e61249b5147480d1b13ead", "fusion_lon": 0.0, "bike_id": "4b9a99efe8e61249b5147480d1b13ead", "is_disabled": 0, "is_reserved": 0}, {"rental_uris": {"ios": "https://dc.lft.to/lastmile_qr_scan", "android": "https://dc.lft.to/lastmile_qr_scan"}, "lon": -76.97673216666666, "type": "electric_bike", "fusion_lat": 0.0, "lat": 38.9662655, "name": "4ffb084ff45c878513170aa00e4ba2a3", "fusion_lon": 0.0, "bike_id": "4ffb084ff45c878513170aa00e4ba2a3", "is_disabled": 0, "is_reserved": 0}, {"rental_uris": {"ios": "https://dc.lft.to/lastmile_qr_scan", "android": "https://dc.lft.to/lastmile_qr_scan"}, "lon": -77.0199415, "type": "electric_scooter", "fusion_lat": 0.0, "lat": 38.905555, "name": "d2d08f92ab3e737f86f9ce46494696ee", "fusion_lon": 0.0, "bike_id": "d2d08f92ab3e737f86f9ce46494696ee", "is_disabled": 0, "is_reserved": 0}, {"rental_uris": {"ios": "https://dc.lft.to/lastmile_qr_scan", "android": "https://dc.lft.to/lastmile_qr_scan"}, "lon": -77.0110815, "type": "electric_scooter", "fusion_lat": 0.0, "lat": 38.895367666666665, "name": "deb0f30fd338e6e793874d1ed891ebfc", "fusion_lon": 0.0, "bike_id": "deb0f30fd338e6e793874d1ed891ebfc", "is_disabled": 0, "is_reserved": 0}, {"rental_uris": {"ios": "https://dc.lft.to/lastmile_qr_scan", "android": "https://dc.lft.to/lastmile_qr_scan"}, "lon": -77.01783816666666, "type": "electric_scooter", "fusion_lat": 0.0, "lat": 38.90824216666667, "name": "3b85fbed76f7abc59eb12b4aa5b8742c", "fusion_lon": 0.0, "bike_id": "3b85fbed76f7abc59eb12b4aa5b8742c", "is_disabled": 0, "is_reserved": 0}, {"rental_uris": {"ios": "https://dc.lft.to/lastmile_qr_scan", "android": "https://dc.lft.to/lastmile_qr_scan"}, "lon": -76.94652816666667, "type": "electric_scooter", "fusion_lat": 0.0, "lat": 38.8982655, "name": "6ac8117665504e39e41081866c5a701b", "fusion_lon": 0.0, "bike_id": "6ac8117665504e39e41081866c5a701b", "is_disabled": 0, "is_reserved": 0}, {"rental_uris": {"ios": "https://dc.lft.to/lastmile_qr_scan", "android": "https://dc.lft.to/lastmile_qr_scan"}, "lon": -77.02993533333333, "type": "electric_scooter", "fusion_lat": 0.0, "lat": 38.9003695, "name": "460e07d59d73f4345794fb6e4f6926c0", "fusion_lon": 0.0, "bike_id": "460e07d59d73f4345794fb6e4f6926c0", "is_disabled": 0, "is_reserved": 0}, {"rental_uris": {"ios": "https://dc.lft.to/lastmile_qr_scan", "android": "https://dc.lft.to/lastmile_qr_scan"}, "lon": -77.03353966666667, "type": "electric_scooter", "fusion_lat": 0.0, "lat": 38.906348666666666, "name": "51e08a71cbf572d5ac14b040456fc070", "fusion_lon": 0.0, "bike_id": "51e08a71cbf572d5ac14b040456fc070", "is_disabled": 0, "is_reserved": 0}, {"rental_uris": {"ios": "https://dc.lft.to/lastmile_qr_scan", "android": "https://dc.lft.to/lastmile_qr_scan"}, "lon": -77.02719833333333, "type": "electric_scooter", "fusion_lat": 0.0, "lat": 38.8992785, "name": "e06ab4bcf346c621ea3084858874a74b", "fusion_lon": 0.0, "bike_id": "e06ab4bcf346c621ea3084858874a74b", "is_disabled": 0, "is_reserved": 0}, {"rental_uris": {"ios": "https://dc.lft.to/lastmile_qr_scan", "android": "https://dc.lft.to/lastmile_qr_scan"}, "lon": -77.03405333333333, "type": "electric_scooter", "fusion_lat": 0.0, "lat": 38.923221, "name": "0d046d7278132329e5371db9a3963aea", "fusion_lon": 0.0, "bike_id": "0d046d7278132329e5371db9a3963aea", "is_disabled": 0, "is_reserved": 0}, {"rental_uris": {"ios": "https://dc.lft.to/lastmile_qr_scan", "android": "https://dc.lft.to/lastmile_qr_scan"}, "lon": -77.044517, "type": "electric_scooter", "fusion_lat": 0.0, "lat": 38.9187255, "name": "f7686af3f25ff27aa351dd6557bc08a2", "fusion_lon": 0.0, "bike_id": "f7686af3f25ff27aa351dd6557bc08a2", "is_disabled": 0, "is_reserved": 0}, {"rental_uris": {"ios": "https://dc.lft.to/lastmile_qr_scan", "android": "https://dc.lft.to/lastmile_qr_scan"}, "lon": -77.021765, "type": "electric_scooter", "fusion_lat": 0.0, "lat": 38.94290916666667, "name": "01f877cfe19058553c7dab1c76165665", "fusion_lon": 0.0, "bike_id": "01f877cfe19058553c7dab1c76165665", "is_disabled": 0, "is_reserved": 0}, {"rental_uris": {"ios": "https://dc.lft.to/lastmile_qr_scan", "android": "https://dc.lft.to/lastmile_qr_scan"}, "lon": -77.048241, "type": "electric_scooter", "fusion_lat": 0.0, "lat": 38.90797216666667, "name": "f835f146069cfe579358b7dc28cb3b4b", "fusion_lon": 0.0, "bike_id": "f835f146069cfe579358b7dc28cb3b4b", "is_disabled": 0, "is_reserved": 0}, {"rental_uris": {"ios": "https://dc.lft.to/lastmile_qr_scan", "android": "https://dc.lft.to/lastmile_qr_scan"}, "lon": -77.013674, "type": "electric_scooter", "fusion_lat": 0.0, "lat": 38.8637385, "name": "942f8dfacb86b1070b41e7ef61bdf3bf", "fusion_lon": 0.0, "bike_id": "942f8dfacb86b1070b41e7ef61bdf3bf", "is_disabled": 0, "is_reserved": 0}, {"rental_uris": {"ios": "https://dc.lft.to/lastmile_qr_scan", "android": "https://dc.lft.to/lastmile_qr_scan"}, "lon": -77.06044533333333, "type": "electric_scooter", "fusion_lat": 0.0, "lat": 38.93911283333333, "name": "2777a9ef7b933ded9d840d5b5d0abb18", "fusion_lon": 0.0, "bike_id": "2777a9ef7b933ded9d840d5b5d0abb18", "is_disabled": 0, "is_reserved": 0}, {"rental_uris": {"ios": "https://dc.lft.to/lastmile_qr_scan", "android": "https://dc.lft.to/lastmile_qr_scan"}, "lon": -77.05865133333333, "type": "electric_scooter", "fusion_lat": 0.0, "lat": 38.936072333333335, "name": "c642f6a90d3a4b3c4530077ad7515af7", "fusion_lon": 0.0, "bike_id": "c642f6a90d3a4b3c4530077ad7515af7", "is_disabled": 0, "is_reserved": 0}, {"rental_uris": {"ios": "https://dc.lft.to/lastmile_qr_scan", "android": "https://dc.lft.to/lastmile_qr_scan"}, "lon": -77.0358505, "type": "electric_scooter", "fusion_lat": 0.0, "lat": 38.9323905, "name": "bb5cc507e7121bddf0daf9b101105b6d", "fusion_lon": 0.0, "bike_id": "bb5cc507e7121bddf0daf9b101105b6d", "is_disabled": 0, "is_reserved": 0}, {"rental_uris": {"ios": "https://dc.lft.to/lastmile_qr_scan", "android": "https://dc.lft.to/lastmile_qr_scan"}, "lon": -77.06333216666667, "type": "electric_bike", "fusion_lat": 0.0, "lat": 38.921136833333335, "name": "37772d851939437d9ede9f7d45f9587e", "fusion_lon": 0.0, "bike_id": "37772d851939437d9ede9f7d45f9587e", "is_disabled": 0, "is_reserved": 0}, {"rental_uris": {"ios": "https://dc.lft.to/lastmile_qr_scan", "android": "https://dc.lft.to/lastmile_qr_scan"}, "lon": -76.94630816666667, "type": "electric_scooter", "fusion_lat": 0.0, "lat": 38.89845366666667, "name": "60335b67fa7ad2a17465d15cb7b8aacb", "fusion_lon": 0.0, "bike_id": "60335b67fa7ad2a17465d15cb7b8aacb", "is_disabled": 0, "is_reserved": 0}, {"rental_uris": {"ios": "https://dc.lft.to/lastmile_qr_scan", "android": "https://dc.lft.to/lastmile_qr_scan"}, "lon": -77.03218533333333, "type": "electric_scooter", "fusion_lat": 0.0, "lat": 38.916918, "name": "fe2f6825803b4a53915586d10b6e7dbb", "fusion_lon": 0.0, "bike_id": "fe2f6825803b4a53915586d10b6e7dbb", "is_disabled": 0, "is_reserved": 0}, {"rental_uris": {"ios": "https://dc.lft.to/lastmile_qr_scan", "android": "https://dc.lft.to/lastmile_qr_scan"}, "lon": -77.01573083333334, "type": "electric_scooter", "fusion_lat": 0.0, "lat": 38.89975066666667, "name": "fa43c74986190c2820786bbb5e51c533", "fusion_lon": 0.0, "bike_id": "fa43c74986190c2820786bbb5e51c533", "is_disabled": 0, "is_reserved": 0}, {"rental_uris": {"ios": "https://dc.lft.to/lastmile_qr_scan", "android": "https://dc.lft.to/lastmile_qr_scan"}, "lon": -77.00267716666667, "type": "electric_scooter", "fusion_lat": 0.0, "lat": 38.8989205, "name": "d23f51cff6c02e42257e54780db5589e", "fusion_lon": 0.0, "bike_id": "d23f51cff6c02e42257e54780db5589e", "is_disabled": 0, "is_reserved": 0}, {"rental_uris": {"ios": "https://dc.lft.to/lastmile_qr_scan", "android": "https://dc.lft.to/lastmile_qr_scan"}, "lon": -77.01078716666666, "type": "electric_bike", "fusion_lat": 0.0, "lat": 38.95654566666666, "name": "d43a4c170bbb40180594136c60442d87", "fusion_lon": 0.0, "bike_id": "d43a4c170bbb40180594136c60442d87", "is_disabled": 0, "is_reserved": 0}, {"rental_uris": {"ios": "https://dc.lft.to/lastmile_qr_scan", "android": "https://dc.lft.to/lastmile_qr_scan"}, "lon": -76.99620883333333, "type": "electric_scooter", "fusion_lat": 0.0, "lat": 38.877340833333335, "name": "489525834f3e60381b308e9d9c149459", "fusion_lon": 0.0, "bike_id": "489525834f3e60381b308e9d9c149459", "is_disabled": 0, "is_reserved": 0}, {"rental_uris": {"ios": "https://dc.lft.to/lastmile_qr_scan", "android": "https://dc.lft.to/lastmile_qr_scan"}, "lon": -77.03403716666666, "type": "electric_scooter", "fusion_lat": 0.0, "lat": 38.90598933333333, "name": "f747647136675fc30e4512759dbfac05", "fusion_lon": 0.0, "bike_id": "f747647136675fc30e4512759dbfac05", "is_disabled": 0, "is_reserved": 0}, {"rental_uris": {"ios": "https://dc.lft.to/lastmile_qr_scan", "android": "https://dc.lft.to/lastmile_qr_scan"}, "lon": -76.98955666666667, "type": "electric_scooter", "fusion_lat": 0.0, "lat": 38.901366, "name": "c7cfda476d1d92a499b8a70f1e4acf63", "fusion_lon": 0.0, "bike_id": "c7cfda476d1d92a499b8a70f1e4acf63", "is_disabled": 0, "is_reserved": 0}, {"rental_uris": {"ios": "https://dc.lft.to/lastmile_qr_scan", "android": "https://dc.lft.to/lastmile_qr_scan"}, "lon": -76.988458, "type": "electric_bike", "fusion_lat": 0.0, "lat": 38.84273866666667, "name": "b447335593aceed244be46d6629fe812", "fusion_lon": 0.0, "bike_id": "b447335593aceed244be46d6629fe812", "is_disabled": 0, "is_reserved": 0}, {"rental_uris": {"ios": "https://dc.lft.to/lastmile_qr_scan", "android": "https://dc.lft.to/lastmile_qr_scan"}, "lon": -77.04249283333333, "type": "electric_scooter", "fusion_lat": 0.0, "lat": 38.92205233333333, "name": "23c38ce6838536fe8527548ec60d8ce0", "fusion_lon": 0.0, "bike_id": "23c38ce6838536fe8527548ec60d8ce0", "is_disabled": 0, "is_reserved": 0}, {"rental_uris": {"ios": "https://dc.lft.to/lastmile_qr_scan", "android": "https://dc.lft.to/lastmile_qr_scan"}, "lon": -77.03232016666666, "type": "electric_scooter", "fusion_lat": 0.0, "lat": 38.9076585, "name": "bce78faca98974b2c6d1650e0d448491", "fusion_lon": 0.0, "bike_id": "bce78faca98974b2c6d1650e0d448491", "is_disabled": 0, "is_reserved": 0}, {"rental_uris": {"ios": "https://dc.lft.to/lastmile_qr_scan", "android": "https://dc.lft.to/lastmile_qr_scan"}, "lon": -77.01285316666667, "type": "electric_scooter", "fusion_lat": 0.0, "lat": 38.906130833333336, "name": "b19a6d70197bee36629fa6e589b7149a", "fusion_lon": 0.0, "bike_id": "b19a6d70197bee36629fa6e589b7149a", "is_disabled": 0, "is_reserved": 0}, {"rental_uris": {"ios": "https://dc.lft.to/lastmile_qr_scan", "android": "https://dc.lft.to/lastmile_qr_scan"}, "lon": -77.01881816666666, "type": "electric_scooter", "fusion_lat": 0.0, "lat": 38.91744466666667, "name": "7eba6bbd2af8b6408e73952e606451d8", "fusion_lon": 0.0, "bike_id": "7eba6bbd2af8b6408e73952e606451d8", "is_disabled": 0, "is_reserved": 0}, {"rental_uris": {"ios": "https://dc.lft.to/lastmile_qr_scan", "android": "https://dc.lft.to/lastmile_qr_scan"}, "lon": -77.07775966666667, "type": "electric_scooter", "fusion_lat": 0.0, "lat": 38.9456015, "name": "f070b6b9c0a217c8f86c12287ec7d28c", "fusion_lon": 0.0, "bike_id": "f070b6b9c0a217c8f86c12287ec7d28c", "is_disabled": 0, "is_reserved": 0}, {"rental_uris": {"ios": "https://dc.lft.to/lastmile_qr_scan", "android": "https://dc.lft.to/lastmile_qr_scan"}, "lon": -77.04826866666667, "type": "electric_scooter", "fusion_lat": 0.0, "lat": 38.90968633333333, "name": "bdcf24f1d8f44362289459da5f9ef6ee", "fusion_lon": 0.0, "bike_id": "bdcf24f1d8f44362289459da5f9ef6ee", "is_disabled": 0, "is_reserved": 0}, {"rental_uris": {"ios": "https://dc.lft.to/lastmile_qr_scan", "android": "https://dc.lft.to/lastmile_qr_scan"}, "lon": -77.037886, "type": "electric_scooter", "fusion_lat": 0.0, "lat": 38.92627983333333, "name": "098324d7344927f90bebd051785b19fa", "fusion_lon": 0.0, "bike_id": "098324d7344927f90bebd051785b19fa", "is_disabled": 0, "is_reserved": 0}, {"rental_uris": {"ios": "https://dc.lft.to/lastmile_qr_scan", "android": "https://dc.lft.to/lastmile_qr_scan"}, "lon": -77.00543866666666, "type": "electric_scooter", "fusion_lat": 0.0, "lat": 38.8792275, "name": "5ee0b3dd496a95db769def7cabf98ec8", "fusion_lon": 0.0, "bike_id": "5ee0b3dd496a95db769def7cabf98ec8", "is_disabled": 0, "is_reserved": 0}, {"rental_uris": {"ios": "https://dc.lft.to/lastmile_qr_scan", "android": "https://dc.lft.to/lastmile_qr_scan"}, "lon": -77.03292266666666, "type": "electric_scooter", "fusion_lat": 0.0, "lat": 38.93486216666667, "name": "260ab76ef0f27604f58e5c691bc8e376", "fusion_lon": 0.0, "bike_id": "260ab76ef0f27604f58e5c691bc8e376", "is_disabled": 0, "is_reserved": 0}, {"rental_uris": {"ios": "https://dc.lft.to/lastmile_qr_scan", "android": "https://dc.lft.to/lastmile_qr_scan"}, "lon": -77.0378565, "type": "electric_scooter", "fusion_lat": 0.0, "lat": 38.9263355, "name": "1031696ef3c071f9758571a5e8308fee", "fusion_lon": 0.0, "bike_id": "1031696ef3c071f9758571a5e8308fee", "is_disabled": 0, "is_reserved": 0}, {"rental_uris": {"ios": "https://dc.lft.to/lastmile_qr_scan", "android": "https://dc.lft.to/lastmile_qr_scan"}, "lon": -76.95762883333333, "type": "electric_bike", "fusion_lat": 0.0, "lat": 38.8841925, "name": "1582aa166a752189bcc1320151e45304", "fusion_lon": 0.0, "bike_id": "1582aa166a752189bcc1320151e45304", "is_disabled": 0, "is_reserved": 0}, {"rental_uris": {"ios": "https://dc.lft.to/lastmile_qr_scan", "android": "https://dc.lft.to/lastmile_qr_scan"}, "lon": -77.03467366666666, "type": "electric_scooter", "fusion_lat": 0.0, "lat": 38.905378, "name": "194c1c00e1abe54818a9d3d79189aeae", "fusion_lon": 0.0, "bike_id": "194c1c00e1abe54818a9d3d79189aeae", "is_disabled": 0, "is_reserved": 0}, {"rental_uris": {"ios": "https://dc.lft.to/lastmile_qr_scan", "android": "https://dc.lft.to/lastmile_qr_scan"}, "lon": -76.995168, "type": "electric_scooter", "fusion_lat": 0.0, "lat": 38.8948635, "name": "106dd4a82e9e43e1294eadc56b258dfb", "fusion_lon": 0.0, "bike_id": "106dd4a82e9e43e1294eadc56b258dfb", "is_disabled": 0, "is_reserved": 0}, {"rental_uris": {"ios": "https://dc.lft.to/lastmile_qr_scan", "android": "https://dc.lft.to/lastmile_qr_scan"}, "lon": -76.99360266666666, "type": "electric_scooter", "fusion_lat": 0.0, "lat": 38.9004055, "name": "9128e782b8191d2ed3965949156ea98a", "fusion_lon": 0.0, "bike_id": "9128e782b8191d2ed3965949156ea98a", "is_disabled": 0, "is_reserved": 0}, {"rental_uris": {"ios": "https://dc.lft.to/lastmile_qr_scan", "android": "https://dc.lft.to/lastmile_qr_scan"}, "lon": -76.878179, "type": "electric_bike", "fusion_lat": 0.0, "lat": 38.9922875, "name": "15cde5ded729f3b9d9298fee114fcc78", "fusion_lon": 0.0, "bike_id": "15cde5ded729f3b9d9298fee114fcc78", "is_disabled": 0, "is_reserved": 0}, {"rental_uris": {"ios": "https://dc.lft.to/lastmile_qr_scan", "android": "https://dc.lft.to/lastmile_qr_scan"}, "lon": -77.0029405, "type": "electric_bike", "fusion_lat": 0.0, "lat": 38.91612083333333, "name": "4eb88ac483a0c2e64c1ca18b7cd4278d", "fusion_lon": 0.0, "bike_id": "4eb88ac483a0c2e64c1ca18b7cd4278d", "is_disabled": 0, "is_reserved": 0}, {"rental_uris": {"ios": "https://dc.lft.to/lastmile_qr_scan", "android": "https://dc.lft.to/lastmile_qr_scan"}, "lon": -76.97742183333334, "type": "electric_scooter", "fusion_lat": 0.0, "lat": 38.9001345, "name": "37b5378b094b7f6124a1bac02e43c22d", "fusion_lon": 0.0, "bike_id": "37b5378b094b7f6124a1bac02e43c22d", "is_disabled": 0, "is_reserved": 0}, {"rental_uris": {"ios": "https://dc.lft.to/lastmile_qr_scan", "android": "https://dc.lft.to/lastmile_qr_scan"}, "lon": -76.9761335, "type": "electric_scooter", "fusion_lat": 0.0, "lat": 38.90386866666667, "name": "139d0e42b00b3bcb138b51fb53ada6c3", "fusion_lon": 0.0, "bike_id": "139d0e42b00b3bcb138b51fb53ada6c3", "is_disabled": 0, "is_reserved": 0}, {"rental_uris": {"ios": "https://dc.lft.to/lastmile_qr_scan", "android": "https://dc.lft.to/lastmile_qr_scan"}, "lon": -76.94634433333333, "type": "electric_scooter", "fusion_lat": 0.0, "lat": 38.89836283333333, "name": "e45d351163963f8160d8db96c1871ac3", "fusion_lon": 0.0, "bike_id": "e45d351163963f8160d8db96c1871ac3", "is_disabled": 0, "is_reserved": 0}, {"rental_uris": {"ios": "https://dc.lft.to/lastmile_qr_scan", "android": "https://dc.lft.to/lastmile_qr_scan"}, "lon": -77.02885816666667, "type": "electric_scooter", "fusion_lat": 0.0, "lat": 38.9043035, "name": "345bd262d6e271d067af2934d9dfc5be", "fusion_lon": 0.0, "bike_id": "345bd262d6e271d067af2934d9dfc5be", "is_disabled": 0, "is_reserved": 0}, {"rental_uris": {"ios": "https://dc.lft.to/lastmile_qr_scan", "android": "https://dc.lft.to/lastmile_qr_scan"}, "lon": -77.0129605, "type": "electric_bike", "fusion_lat": 0.0, "lat": 38.8812805, "name": "bac7d24d7376d1c47472da0a4617893b", "fusion_lon": 0.0, "bike_id": "bac7d24d7376d1c47472da0a4617893b", "is_disabled": 0, "is_reserved": 0}, {"rental_uris": {"ios": "https://dc.lft.to/lastmile_qr_scan", "android": "https://dc.lft.to/lastmile_qr_scan"}, "lon": -77.0243995, "type": "electric_scooter", "fusion_lat": 0.0, "lat": 38.920475, "name": "d49058b8bbc07b1dbc663f92b8b6ef76", "fusion_lon": 0.0, "bike_id": "d49058b8bbc07b1dbc663f92b8b6ef76", "is_disabled": 0, "is_reserved": 0}, {"rental_uris": {"ios": "https://dc.lft.to/lastmile_qr_scan", "android": "https://dc.lft.to/lastmile_qr_scan"}, "lon": -76.97328716666667, "type": "electric_scooter", "fusion_lat": 0.0, "lat": 38.917740333333334, "name": "0c0ff8f018b13d10d64973647482dc71", "fusion_lon": 0.0, "bike_id": "0c0ff8f018b13d10d64973647482dc71", "is_disabled": 0, "is_reserved": 0}, {"rental_uris": {"ios": "https://dc.lft.to/lastmile_qr_scan", "android": "https://dc.lft.to/lastmile_qr_scan"}, "lon": -77.00578833333333, "type": "electric_scooter", "fusion_lat": 0.0, "lat": 38.8449515, "name": "8c352222378e3d2099b89c5a46ce75ac", "fusion_lon": 0.0, "bike_id": "8c352222378e3d2099b89c5a46ce75ac", "is_disabled": 0, "is_reserved": 0}, {"rental_uris": {"ios": "https://dc.lft.to/lastmile_qr_scan", "android": "https://dc.lft.to/lastmile_qr_scan"}, "lon": -77.01528816666666, "type": "electric_scooter", "fusion_lat": 0.0, "lat": 38.887341166666666, "name": "7d286bef102e1c6053a33232fc6dc60a", "fusion_lon": 0.0, "bike_id": "7d286bef102e1c6053a33232fc6dc60a", "is_disabled": 0, "is_reserved": 0}, {"rental_uris": {"ios": "https://dc.lft.to/lastmile_qr_scan", "android": "https://dc.lft.to/lastmile_qr_scan"},