{"data": {"bikes": [{"bike_id": "6e97aeb7c2e6a45f655807523f114491", "type": "electric_scooter", "is_disabled": 0, "lat": 38.905310666666665, "rental_uris": {"ios": "https://dc.lft.to/lastmile_qr_scan", "android": "https://dc.lft.to/lastmile_qr_scan"}, "is_reserved": 0, "fusion_lon": 0.0, "fusion_lat": 0.0, "lon": -77.06378666666667, "name": "6e97aeb7c2e6a45f655807523f114491"}, {"bike_id": "6daa64bb485e501bfab6dff7a2f7885a", "type": "electric_scooter", "is_disabled": 0, "lat": 38.927746666666664, "rental_uris": {"ios": "https://dc.lft.to/lastmile_qr_scan", "android": "https://dc.lft.to/lastmile_qr_scan"}, "is_reserved": 0, "fusion_lon": 0.0, "fusion_lat": 0.0, "lon": -77.02920333333333, "name": "6daa64bb485e501bfab6dff7a2f7885a"}, {"bike_id": "48cb8fa64c0bc469ceb64791208e4a6b", "type": "electric_scooter", "is_disabled": 0, "lat": 38.907748, "rental_uris": {"ios": "https://dc.lft.to/lastmile_qr_scan", "android": "https://dc.lft.to/lastmile_qr_scan"}, "is_reserved": 0, "fusion_lon": 0.0, "fusion_lat": 0.0, "lon": -77.07169933333333, "name": "48cb8fa64c0bc469ceb64791208e4a6b"}, {"bike_id": "2a11bca6e74bb8b14f4c8ea1f7fe0eef", "type": "electric_scooter", "is_disabled": 0, "lat": 38.905330166666666, "rental_uris": {"ios": "https://dc.lft.to/lastmile_qr_scan", "android": "https://dc.lft.to/lastmile_qr_scan"}, "is_reserved": 0, "fusion_lon": 0.0, "fusion_lat": 0.0, "lon": -77.05904783333334, "name": "2a11bca6e74bb8b14f4c8ea1f7fe0eef"}, {"bike_id": "66d0f54eaeab30a6cb2f944aadf6b6fb", "type": "electric_scooter", "is_disabled": 0, "lat": 38.909545333333334, "rental_uris": {"ios": "https://dc.lft.to/lastmile_qr_scan", "android": "https://dc.lft.to/lastmile_qr_scan"}, "is_reserved": 0, "fusion_lon": 0.0, "fusion_lat": 0.0, "lon": -77.02598316666666, "name": "66d0f54eaeab30a6cb2f944aadf6b6fb"}, {"bike_id": "aea54ae1ff2e7a75705358c4c0262579", "type": "electric_scooter", "is_disabled": 0, "lat": 38.90807866666667, "rental_uris": {"ios": "https://dc.lft.to/lastmile_qr_scan", "android": "https://dc.lft.to/lastmile_qr_scan"}, "is_reserved": 0, "fusion_lon": 0.0, "fusion_lat": 0.0, "lon": -77.02950133333333, "name": "aea54ae1ff2e7a75705358c4c0262579"}, {"bike_id": "c96296e06a6baccc815acbaabb0509ff", "type": "electric_scooter", "is_disabled": 0, "lat": 38.89886466666667, "rental_uris": {"ios": "https://dc.lft.to/lastmile_qr_scan", "android": "https://dc.lft.to/lastmile_qr_scan"}, "is_reserved": 0, "fusion_lon": 0.0, "fusion_lat": 0.0, "lon": -76.9317525, "name": "c96296e06a6baccc815acbaabb0509ff"}, {"bike_id": "d219a46ffe14897a51549130786159ef", "type": "electric_scooter", "is_disabled": 0, "lat": 38.927610666666666, "rental_uris": {"ios": "https://dc.lft.to/lastmile_qr_scan", "android": "https://dc.lft.to/lastmile_qr_scan"}, "is_reserved": 0, "fusion_lon": 0.0, "fusion_lat": 0.0, "lon": -77.02846083333333, "name": "d219a46ffe14897a51549130786159ef"}, {"bike_id": "9e0c0d7c6564edb2870782f8752a9f08", "type": "electric_scooter", "is_disabled": 0, "lat": 38.898018666666665, "rental_uris": {"ios": "https://dc.lft.to/lastmile_qr_scan", "android": "https://dc.lft.to/lastmile_qr_scan"}, "is_reserved": 0, "fusion_lon": 0.0, "fusion_lat": 0.0, "lon": -77.02200616666667, "name": "9e0c0d7c6564edb2870782f8752a9f08"}, {"bike_id": "b5313492b75546b9152b2e04b584a203", "type": "electric_bike", "is_disabled": 0, "lat": 38.866161, "rental_uris": {"ios": "https://dc.lft.to/lastmile_qr_scan", "android": "https://dc.lft.to/lastmile_qr_scan"}, "is_reserved": 0, "fusion_lon": 0.0, "fusion_lat": 0.0, "lon": -76.94565516666667, "name": "b5313492b75546b9152b2e04b584a203"}, {"bike_id": "66d194e5d950908affe838be1bf8603d", "type": "electric_scooter", "is_disabled": 0, "lat": 38.898480166666666, "rental_uris": {"ios": "https://dc.lft.to/lastmile_qr_scan", "android": "https://dc.lft.to/lastmile_qr_scan"}, "is_reserved": 0, "fusion_lon": 0.0, "fusion_lat": 0.0, "lon": -76.990268, "name": "66d194e5d950908affe838be1bf8603d"}, {"bike_id": "b09c714b87b74c745a5a270b867ee000", "type": "electric_scooter", "is_disabled": 0, "lat": 38.92047266666667, "rental_uris": {"ios": "https://dc.lft.to/lastmile_qr_scan", "android": "https://dc.lft.to/lastmile_qr_scan"}, "is_reserved": 0, "fusion_lon": 0.0, "fusion_lat": 0.0, "lon": -77.02424333333333, "name": "b09c714b87b74c745a5a270b867ee000"}, {"bike_id": "b996184ffdc109450a29a84f12087850", "type": "electric_scooter", "is_disabled": 0, "lat": 38.92918783333333, "rental_uris": {"ios": "https://dc.lft.to/lastmile_qr_scan", "android": "https://dc.lft.to/lastmile_qr_scan"}, "is_reserved": 0, "fusion_lon": 0.0, "fusion_lat": 0.0, "lon": -77.02086233333333, "name": "b996184ffdc109450a29a84f12087850"}, {"bike_id": "b37425409e1a4e9365d3b3c453bec797", "type": "electric_bike", "is_disabled": 0, "lat": 38.936912, "rental_uris": {"ios": "https://dc.lft.to/lastmile_qr_scan", "android": "https://dc.lft.to/lastmile_qr_scan"}, "is_reserved": 0, "fusion_lon": 0.0, "fusion_lat": 0.0, "lon": -77.05641933333334, "name": "b37425409e1a4e9365d3b3c453bec797"}, {"bike_id": "1bb83ef6cbbf8728a1786f935e7b7b12", "type": "electric_scooter", "is_disabled": 0, "lat": 38.88065733333333, "rental_uris": {"ios": "https://dc.lft.to/lastmile_qr_scan", "android": "https://dc.lft.to/lastmile_qr_scan"}, "is_reserved": 0, "fusion_lon": 0.0, "fusion_lat": 0.0, "lon": -77.025472, "name": "1bb83ef6cbbf8728a1786f935e7b7b12"}, {"bike_id": "821d8d130dfe28b42e553f51e3ae7002", "type": "electric_scooter", "is_disabled": 0, "lat": 38.91691766666667, "rental_uris": {"ios": "https://dc.lft.to/lastmile_qr_scan", "android": "https://dc.lft.to/lastmile_qr_scan"}, "is_reserved": 0, "fusion_lon": 0.0, "fusion_lat": 0.0, "lon": -77.03132383333333, "name": "821d8d130dfe28b42e553f51e3ae7002"}, {"bike_id": "2db34f1a2d8fb55b6f5cffb304c0cb86", "type": "electric_scooter", "is_disabled": 0, "lat": 38.93460183333333, "rental_uris": {"ios": "https://dc.lft.to/lastmile_qr_scan", "android": "https://dc.lft.to/lastmile_qr_scan"}, "is_reserved": 0, "fusion_lon": 0.0, "fusion_lat": 0.0, "lon": -77.0453285, "name": "2db34f1a2d8fb55b6f5cffb304c0cb86"}, {"bike_id": "a4606ef7d6ce37378f8b0f2b33f1e979", "type": "electric_scooter", "is_disabled": 0, "lat": 38.899215, "rental_uris": {"ios": "https://dc.lft.to/lastmile_qr_scan", "android": "https://dc.lft.to/lastmile_qr_scan"}, "is_reserved": 0, "fusion_lon": 0.0, "fusion_lat": 0.0, "lon": -76.93356683333333, "name": "a4606ef7d6ce37378f8b0f2b33f1e979"}, {"bike_id": "389cba4160489078b180495f9dbd28e4", "type": "electric_scooter", "is_disabled": 0, "lat": 38.91987066666667, "rental_uris": {"ios": "https://dc.lft.to/lastmile_qr_scan", "android": "https://dc.lft.to/lastmile_qr_scan"}, "is_reserved": 0, "fusion_lon": 0.0, "fusion_lat": 0.0, "lon": -77.01772116666666, "name": "389cba4160489078b180495f9dbd28e4"}, {"bike_id": "f0ded84517aaca8e061c69900004c408", "type": "electric_scooter", "is_disabled": 0, "lat": 38.90213683333333, "rental_uris": {"ios": "https://dc.lft.to/lastmile_qr_scan", "android": "https://dc.lft.to/lastmile_qr_scan"}, "is_reserved": 0, "fusion_lon": 0.0, "fusion_lat": 0.0, "lon": -77.041033, "name": "f0ded84517aaca8e061c69900004c408"}, {"bike_id": "1c660e1a30abb95150412b4412666455", "type": "electric_scooter", "is_disabled": 0, "lat": 38.908772666666664, "rental_uris": {"ios": "https://dc.lft.to/lastmile_qr_scan", "android": "https://dc.lft.to/lastmile_qr_scan"}, "is_reserved": 0, "fusion_lon": 0.0, "fusion_lat": 0.0, "lon": -77.0221035, "name": "1c660e1a30abb95150412b4412666455"}, {"bike_id": "f739f1c5605a153c26d8f9a56a1620ad", "type": "electric_scooter", "is_disabled": 0, "lat": 38.90246283333333, "rental_uris": {"ios": "https://dc.lft.to/lastmile_qr_scan", "android": "https://dc.lft.to/lastmile_qr_scan"}, "is_reserved": 0, "fusion_lon": 0.0, "fusion_lat": 0.0, "lon": -77.00197266666666, "name": "f739f1c5605a153c26d8f9a56a1620ad"}, {"bike_id": "21202c041b1a8a92854dd950c053d645", "type": "electric_scooter", "is_disabled": 0, "lat": 38.906260333333336, "rental_uris": {"ios": "https://dc.lft.to/lastmile_qr_scan", "android": "https://dc.lft.to/lastmile_qr_scan"}, "is_reserved": 0, "fusion_lon": 0.0, "fusion_lat": 0.0, "lon": -77.05557083333333, "name": "21202c041b1a8a92854dd950c053d645"}, {"bike_id": "23f8b21755f8d6a01895912bf8328650", "type": "electric_scooter", "is_disabled": 0, "lat": 38.876960833333335, "rental_uris": {"ios": "https://dc.lft.to/lastmile_qr_scan", "android": "https://dc.lft.to/lastmile_qr_scan"}, "is_reserved": 0, "fusion_lon": 0.0, "fusion_lat": 0.0, "lon": -77.01660516666666, "name": "23f8b21755f8d6a01895912bf8328650"}, {"bike_id": "26fea471917d18aeecd4a98bdcd8231a", "type": "electric_scooter", "is_disabled": 0, "lat": 38.92889683333333, "rental_uris": {"ios": "https://dc.lft.to/lastmile_qr_scan", "android": "https://dc.lft.to/lastmile_qr_scan"}, "is_reserved": 0, "fusion_lon": 0.0, "fusion_lat": 0.0, "lon": -77.033531, "name": "26fea471917d18aeecd4a98bdcd8231a"}, {"bike_id": "72a3c885fbda0b612523936ba4e06da5", "type": "electric_bike", "is_disabled": 0, "lat": 38.85723466666666, "rental_uris": {"ios": "https://dc.lft.to/lastmile_qr_scan", "android": "https://dc.lft.to/lastmile_qr_scan"}, "is_reserved": 0, "fusion_lon": 0.0, "fusion_lat": 0.0, "lon": -77.07963116666667, "name": "72a3c885fbda0b612523936ba4e06da5"}, {"bike_id": "54b6fbe1dd2a962dcf8fea11a32291c0", "type": "electric_scooter", "is_disabled": 0, "lat": 38.924510166666664, "rental_uris": {"ios": "https://dc.lft.to/lastmile_qr_scan", "android": "https://dc.lft.to/lastmile_qr_scan"}, "is_reserved": 0, "fusion_lon": 0.0, "fusion_lat": 0.0, "lon": -77.03342833333333, "name": "54b6fbe1dd2a962dcf8fea11a32291c0"}, {"bike_id": "0270ba2626028e8c0208b04bbd6a2777", "type": "electric_scooter", "is_disabled": 0, "lat": 38.92335766666667, "rental_uris": {"ios": "https://dc.lft.to/lastmile_qr_scan", "android": "https://dc.lft.to/lastmile_qr_scan"}, "is_reserved": 0, "fusion_lon": 0.0, "fusion_lat": 0.0, "lon": -77.054163, "name": "0270ba2626028e8c0208b04bbd6a2777"}, {"bike_id": "dc105f4a240f531f518d9341ca0bbc2f", "type": "electric_scooter", "is_disabled": 0, "lat": 38.922354, "rental_uris": {"ios": "https://dc.lft.to/lastmile_qr_scan", "android": "https://dc.lft.to/lastmile_qr_scan"}, "is_reserved": 0, "fusion_lon": 0.0, "fusion_lat": 0.0, "lon": -76.973406, "name": "dc105f4a240f531f518d9341ca0bbc2f"}, {"bike_id": "29b5aca36ab1a50f150486542b7d47f6", "type": "electric_bike", "is_disabled": 0, "lat": 38.81505666666666, "rental_uris": {"ios": "https://dc.lft.to/lastmile_qr_scan", "android": "https://dc.lft.to/lastmile_qr_scan"}, "is_reserved": 0, "fusion_lon": 0.0, "fusion_lat": 0.0, "lon": -77.1265205, "name": "29b5aca36ab1a50f150486542b7d47f6"}, {"bike_id": "54e48ba261fd79f02ce0400aec3227ea", "type": "electric_bike", "is_disabled": 0, "lat": 38.79609116666666, "rental_uris": {"ios": "https://dc.lft.to/lastmile_qr_scan", "android": "https://dc.lft.to/lastmile_qr_scan"}, "is_reserved": 0, "fusion_lon": 0.0, "fusion_lat": 0.0, "lon": -76.99737616666667, "name": "54e48ba261fd79f02ce0400aec3227ea"}, {"bike_id": "b316d86da62aa156c1eae1c85977bcb9", "type": "electric_scooter", "is_disabled": 0, "lat": 38.904745, "rental_uris": {"ios": "https://dc.lft.to/lastmile_qr_scan", "android": "https://dc.lft.to/lastmile_qr_scan"}, "is_reserved": 0, "fusion_lon": 0.0, "fusion_lat": 0.0, "lon": -77.0611015, "name": "b316d86da62aa156c1eae1c85977bcb9"}, {"bike_id": "93d8ff1cbbd6b5150782fef15eae5bb1", "type": "electric_scooter", "is_disabled": 0, "lat": 38.89744866666667, "rental_uris": {"ios": "https://dc.lft.to/lastmile_qr_scan", "android": "https://dc.lft.to/lastmile_qr_scan"}, "is_reserved": 0, "fusion_lon": 0.0, "fusion_lat": 0.0, "lon": -76.9937645, "name": "93d8ff1cbbd6b5150782fef15eae5bb1"}, {"bike_id": "465cc8d30d0caa04ea0ea240a4250fd1", "type": "electric_scooter", "is_disabled": 0, "lat": 38.902724166666665, "rental_uris": {"ios": "https://dc.lft.to/lastmile_qr_scan", "android": "https://dc.lft.to/lastmile_qr_scan"}, "is_reserved": 0, "fusion_lon": 0.0, "fusion_lat": 0.0, "lon": -77.03379333333334, "name": "465cc8d30d0caa04ea0ea240a4250fd1"}, {"bike_id": "c842b51e6afed257b66a57b15968dd6c", "type": "electric_scooter", "is_disabled": 0, "lat": 38.898453833333335, "rental_uris": {"ios": "https://dc.lft.to/lastmile_qr_scan", "android": "https://dc.lft.to/lastmile_qr_scan"}, "is_reserved": 0, "fusion_lon": 0.0, "fusion_lat": 0.0, "lon": -76.9463245, "name": "c842b51e6afed257b66a57b15968dd6c"}, {"bike_id": "a6f5748ff156097b52a5a20f5e791f50", "type": "electric_scooter", "is_disabled": 0, "lat": 38.976781, "rental_uris": {"ios": "https://dc.lft.to/lastmile_qr_scan", "android": "https://dc.lft.to/lastmile_qr_scan"}, "is_reserved": 0, "fusion_lon": 0.0, "fusion_lat": 0.0, "lon": -77.01648833333333, "name": "a6f5748ff156097b52a5a20f5e791f50"}, {"bike_id": "114f903ff58c546bd50b09499261d391", "type": "electric_scooter", "is_disabled": 0, "lat": 38.866264666666666, "rental_uris": {"ios": "https://dc.lft.to/lastmile_qr_scan", "android": "https://dc.lft.to/lastmile_qr_scan"}, "is_reserved": 0, "fusion_lon": 0.0, "fusion_lat": 0.0, "lon": -76.9871155, "name": "114f903ff58c546bd50b09499261d391"}, {"bike_id": "7e2b2fe6920f1affc874fee3d445bb03", "type": "electric_scooter", "is_disabled": 0, "lat": 38.88641883333333, "rental_uris": {"ios": "https://dc.lft.to/lastmile_qr_scan", "android": "https://dc.lft.to/lastmile_qr_scan"}, "is_reserved": 0, "fusion_lon": 0.0, "fusion_lat": 0.0, "lon": -77.0213715, "name": "7e2b2fe6920f1affc874fee3d445bb03"}, {"bike_id": "cade4173b8903e7b527f4a74e2742c12", "type": "electric_scooter", "is_disabled": 0, "lat": 38.97200566666667, "rental_uris": {"ios": "https://dc.lft.to/lastmile_qr_scan", "android": "https://dc.lft.to/lastmile_qr_scan"}, "is_reserved": 0, "fusion_lon": 0.0, "fusion_lat": 0.0, "lon": -77.02656033333334, "name": "cade4173b8903e7b527f4a74e2742c12"}, {"bike_id": "14b1fe207d494ca67b01510798479723", "type": "electric_scooter", "is_disabled": 0, "lat": 38.87176383333333, "rental_uris": {"ios": "https://dc.lft.to/lastmile_qr_scan", "android": "https://dc.lft.to/lastmile_qr_scan"}, "is_reserved": 0, "fusion_lon": 0.0, "fusion_lat": 0.0, "lon": -77.0060945, "name": "14b1fe207d494ca67b01510798479723"}, {"bike_id": "adf26c4db152fbe019af36040b3c60e7", "type": "electric_scooter", "is_disabled": 0, "lat": 38.905608, "rental_uris": {"ios": "https://dc.lft.to/lastmile_qr_scan", "android": "https://dc.lft.to/lastmile_qr_scan"}, "is_reserved": 0, "fusion_lon": 0.0, "fusion_lat": 0.0, "lon": -77.01631483333334, "name": "adf26c4db152fbe019af36040b3c60e7"}, {"bike_id": "7d0c0b0674fed0e266acc18ae9ed4e6c", "type": "electric_scooter", "is_disabled": 0, "lat": 38.9336155, "rental_uris": {"ios": "https://dc.lft.to/lastmile_qr_scan", "android": "https://dc.lft.to/lastmile_qr_scan"}, "is_reserved": 0, "fusion_lon": 0.0, "fusion_lat": 0.0, "lon": -77.0885445, "name": "7d0c0b0674fed0e266acc18ae9ed4e6c"}, {"bike_id": "4a2c9c9ac8acac395ec91b0752e3a155", "type": "electric_scooter", "is_disabled": 0, "lat": 38.920222333333335, "rental_uris": {"ios": "https://dc.lft.to/lastmile_qr_scan", "android": "https://dc.lft.to/lastmile_qr_scan"}, "is_reserved": 0, "fusion_lon": 0.0, "fusion_lat": 0.0, "lon": -77.03165783333333, "name": "4a2c9c9ac8acac395ec91b0752e3a155"}, {"bike_id": "eac3cd3401a9002a2e030d8aec089ec2", "type": "electric_scooter", "is_disabled": 0, "lat": 38.8976445, "rental_uris": {"ios": "https://dc.lft.to/lastmile_qr_scan", "android": "https://dc.lft.to/lastmile_qr_scan"}, "is_reserved": 0, "fusion_lon": 0.0, "fusion_lat": 0.0, "lon": -77.02698966666667, "name": "eac3cd3401a9002a2e030d8aec089ec2"}, {"bike_id": "744961997040d162ba3a77bab6fb54bb", "type": "electric_scooter", "is_disabled": 0, "lat": 38.9053575, "rental_uris": {"ios": "https://dc.lft.to/lastmile_qr_scan", "android": "https://dc.lft.to/lastmile_qr_scan"}, "is_reserved": 0, "fusion_lon": 0.0, "fusion_lat": 0.0, "lon": -77.04428733333333, "name": "744961997040d162ba3a77bab6fb54bb"}, {"bike_id": "2612b4ac37a68cf7dc86d4e121dc8ee2", "type": "electric_scooter", "is_disabled": 0, "lat": 38.9090875, "rental_uris": {"ios": "https://dc.lft.to/lastmile_qr_scan", "android": "https://dc.lft.to/lastmile_qr_scan"}, "is_reserved": 0, "fusion_lon": 0.0, "fusion_lat": 0.0, "lon": -77.01886083333333, "name": "2612b4ac37a68cf7dc86d4e121dc8ee2"}, {"bike_id": "ec45945995a4aba3dd27b03a6b4ad800", "type": "electric_scooter", "is_disabled": 0, "lat": 38.830999166666665, "rental_uris": {"ios": "https://dc.lft.to/lastmile_qr_scan", "android": "https://dc.lft.to/lastmile_qr_scan"}, "is_reserved": 0, "fusion_lon": 0.0, "fusion_lat": 0.0, "lon": -77.05161066666666, "name": "ec45945995a4aba3dd27b03a6b4ad800"}, {"bike_id": "b46d5ed9251973f039e91fbef3c17101", "type": "electric_scooter", "is_disabled": 0, "lat": 38.9230785, "rental_uris": {"ios": "https://dc.lft.to/lastmile_qr_scan", "android": "https://dc.lft.to/lastmile_qr_scan"}, "is_reserved": 0, "fusion_lon": 0.0, "fusion_lat": 0.0, "lon": -77.0379845, "name": "b46d5ed9251973f039e91fbef3c17101"}, {"bike_id": "51cf51176fff14f8ce43d196c5244f7d", "type": "electric_bike", "is_disabled": 0, "lat": 38.92057716666667, "rental_uris": {"ios": "https://dc.lft.to/lastmile_qr_scan", "android": "https://dc.lft.to/lastmile_qr_scan"}, "is_reserved": 0, "fusion_lon": 0.0, "fusion_lat": 0.0, "lon": -77.07446766666666, "name": "51cf51176fff14f8ce43d196c5244f7d"}, {"bike_id": "ebb00e0653019ab7a5b55415de6b841e", "type": "electric_scooter", "is_disabled": 0, "lat": 38.91417116666667, "rental_uris": {"ios": "https://dc.lft.to/lastmile_qr_scan", "android": "https://dc.lft.to/lastmile_qr_scan"}, "is_reserved": 0, "fusion_lon": 0.0, "fusion_lat": 0.0, "lon": -77.02213866666666, "name": "ebb00e0653019ab7a5b55415de6b841e"}, {"bike_id": "15111036bdc0e6a5cd04ca3b0e80e319", "type": "electric_scooter", "is_disabled": 0, "lat": 38.92766133333333, "rental_uris": {"ios": "https://dc.lft.to/lastmile_qr_scan", "android": "https://dc.lft.to/lastmile_qr_scan"}, "is_reserved": 0, "fusion_lon": 0.0, "fusion_lat": 0.0, "lon": -76.96093633333334, "name": "15111036bdc0e6a5cd04ca3b0e80e319"}, {"bike_id": "e26a88bd7b16ea21543d0b85dbfa0ea5", "type": "electric_scooter", "is_disabled": 0, "lat": 38.88725066666667, "rental_uris": {"ios": "https://dc.lft.to/lastmile_qr_scan", "android": "https://dc.lft.to/lastmile_qr_scan"}, "is_reserved": 0, "fusion_lon": 0.0, "fusion_lat": 0.0, "lon": -77.02790516666667, "name": "e26a88bd7b16ea21543d0b85dbfa0ea5"}, {"bike_id": "14cc2d8c2025ef746d765c37fab6551f", "type": "electric_scooter", "is_disabled": 0, "lat": 38.867341833333334, "rental_uris": {"ios": "https://dc.lft.to/lastmile_qr_scan", "android": "https://dc.lft.to/lastmile_qr_scan"}, "is_reserved": 0, "fusion_lon": 0.0, "fusion_lat": 0.0, "lon": -76.9786055, "name": "14cc2d8c2025ef746d765c37fab6551f"}, {"bike_id": "7abedeebc4ac20c8b27d1c516e8b06a1", "type": "electric_scooter", "is_disabled": 0, "lat": 38.900493166666664, "rental_uris": {"ios": "https://dc.lft.to/lastmile_qr_scan", "android": "https://dc.lft.to/lastmile_qr_scan"}, "is_reserved": 0, "fusion_lon": 0.0, "fusion_lat": 0.0, "lon": -77.01715116666666, "name": "7abedeebc4ac20c8b27d1c516e8b06a1"}, {"bike_id": "f0508916eaefcd1e5bda2ef08a3f269b", "type": "electric_scooter", "is_disabled": 0, "lat": 38.9141715, "rental_uris": {"ios": "https://dc.lft.to/lastmile_qr_scan", "android": "https://dc.lft.to/lastmile_qr_scan"}, "is_reserved": 0, "fusion_lon": 0.0, "fusion_lat": 0.0, "lon": -77.021015, "name": "f0508916eaefcd1e5bda2ef08a3f269b"}, {"bike_id": "770e8c35e3727ec2eeb2d1bdd0c9e757", "type": "electric_scooter", "is_disabled": 0, "lat": 38.92598383333333, "rental_uris": {"ios": "https://dc.lft.to/lastmile_qr_scan", "android": "https://dc.lft.to/lastmile_qr_scan"}, "is_reserved": 0, "fusion_lon": 0.0, "fusion_lat": 0.0, "lon": -77.02386433333334, "name": "770e8c35e3727ec2eeb2d1bdd0c9e757"}, {"bike_id": "706994749465292aa94904fe74d8e624", "type": "electric_scooter", "is_disabled": 0, "lat": 38.909334, "rental_uris": {"ios": "https://dc.lft.to/lastmile_qr_scan", "android": "https://dc.lft.to/lastmile_qr_scan"}, "is_reserved": 0, "fusion_lon": 0.0, "fusion_lat": 0.0, "lon": -77.05564916666667, "name": "706994749465292aa94904fe74d8e624"}, {"bike_id": "c78acd53839d19565751de2df412aa5c", "type": "electric_scooter", "is_disabled": 0, "lat": 38.9107165, "rental_uris": {"ios": "https://dc.lft.to/lastmile_qr_scan", "android": "https://dc.lft.to/lastmile_qr_scan"}, "is_reserved": 0, "fusion_lon": 0.0, "fusion_lat": 0.0, "lon": -77.027195, "name": "c78acd53839d19565751de2df412aa5c"}, {"bike_id": "874d8cb9109ac143d68b8914055eb608", "type": "electric_scooter", "is_disabled": 0, "lat": 38.86376716666667, "rental_uris": {"ios": "https://dc.lft.to/lastmile_qr_scan", "android": "https://dc.lft.to/lastmile_qr_scan"}, "is_reserved": 0, "fusion_lon": 0.0, "fusion_lat": 0.0, "lon": -76.99061866666666, "name": "874d8cb9109ac143d68b8914055eb608"}, {"bike_id": "edaa9a896acabeca86937d427d7b0b99", "type": "electric_scooter", "is_disabled": 0, "lat": 38.866815833333334, "rental_uris": {"ios": "https://dc.lft.to/lastmile_qr_scan", "android": "https://dc.lft.to/lastmile_qr_scan"}, "is_reserved": 0, "fusion_lon": 0.0, "fusion_lat": 0.0, "lon": -76.98556316666667, "name": "edaa9a896acabeca86937d427d7b0b99"}, {"bike_id": "93ed7dd329001be312fb8b244f1524f4", "type": "electric_scooter", "is_disabled": 0, "lat": 38.92189783333333, "rental_uris": {"ios": "https://dc.lft.to/lastmile_qr_scan", "android": "https://dc.lft.to/lastmile_qr_scan"}, "is_reserved": 0, "fusion_lon": 0.0, "fusion_lat": 0.0, "lon": -77.04684616666667, "name": "93ed7dd329001be312fb8b244f1524f4"}, {"bike_id": "6febebc7f40801756f5d87bdf92143a2", "type": "electric_scooter", "is_disabled": 0, "lat": 38.92331983333333, "rental_uris": {"ios": "https://dc.lft.to/lastmile_qr_scan", "android": "https://dc.lft.to/lastmile_qr_scan"}, "is_reserved": 0, "fusion_lon": 0.0, "fusion_lat": 0.0, "lon": -77.03618566666667, "name": "6febebc7f40801756f5d87bdf92143a2"}, {"bike_id": "2b24c12cca7406e16bfc42a528b2aefa", "type": "electric_scooter", "is_disabled": 0, "lat": 38.90592, "rental_uris": {"ios": "https://dc.lft.to/lastmile_qr_scan", "android": "https://dc.lft.to/lastmile_qr_scan"}, "is_reserved": 0, "fusion_lon": 0.0, "fusion_lat": 0.0, "lon": -77.07357916666666, "name": "2b24c12cca7406e16bfc42a528b2aefa"}, {"bike_id": "7a0c42968b873ece99ab9a69087f52ad", "type": "electric_scooter", "is_disabled": 0, "lat": 38.90487683333333, "rental_uris": {"ios": "https://dc.lft.to/lastmile_qr_scan", "android": "https://dc.lft.to/lastmile_qr_scan"}, "is_reserved": 0, "fusion_lon": 0.0, "fusion_lat": 0.0, "lon": -76.9495145, "name": "7a0c42968b873ece99ab9a69087f52ad"}, {"bike_id": "db098767555a5d232ad9de587d1bf259", "type": "electric_scooter", "is_disabled": 0, "lat": 38.92206616666667, "rental_uris": {"ios": "https://dc.lft.to/lastmile_qr_scan", "android": "https://dc.lft.to/lastmile_qr_scan"}, "is_reserved": 0, "fusion_lon": 0.0, "fusion_lat": 0.0, "lon": -77.0365275, "name": "db098767555a5d232ad9de587d1bf259"}, {"bike_id": "9aec3668ab690794f265dcc25957b670", "type": "electric_scooter", "is_disabled": 0, "lat": 38.92471966666667, "rental_uris": {"ios": "https://dc.lft.to/lastmile_qr_scan", "android": "https://dc.lft.to/lastmile_qr_scan"}, "is_reserved": 0, "fusion_lon": 0.0, "fusion_lat": 0.0, "lon": -77.02832166666667, "name": "9aec3668ab690794f265dcc25957b670"}, {"bike_id": "1af68ca364d4b5a2f4957d406fed34ac", "type": "electric_scooter", "is_disabled": 0, "lat": 38.91417233333333, "rental_uris": {"ios": "https://dc.lft.to/lastmile_qr_scan", "android": "https://dc.lft.to/lastmile_qr_scan"}, "is_reserved": 0, "fusion_lon": 0.0, "fusion_lat": 0.0, "lon": -77.031751, "name": "1af68ca364d4b5a2f4957d406fed34ac"}, {"bike_id": "702aa6a4d30ab5fe90c193d3f039a9aa", "type": "electric_scooter", "is_disabled": 0, "lat": 38.91173033333333, "rental_uris": {"ios": "https://dc.lft.to/lastmile_qr_scan", "android": "https://dc.lft.to/lastmile_qr_scan"}, "is_reserved": 0, "fusion_lon": 0.0, "fusion_lat": 0.0, "lon": -77.0686225, "name": "702aa6a4d30ab5fe90c193d3f039a9aa"}, {"bike_id": "c868549a6f55589a0deb39eed804bfbc", "type": "electric_bike", "is_disabled": 0, "lat": 38.8895465, "rental_uris": {"ios": "https://dc.lft.to/lastmile_qr_scan", "android": "https://dc.lft.to/lastmile_qr_scan"}, "is_reserved": 0, "fusion_lon": 0.0, "fusion_lat": 0.0, "lon": -77.09129633333333, "name": "c868549a6f55589a0deb39eed804bfbc"}, {"bike_id": "1fc046970261d9cea025ccf328683b34", "type": "electric_scooter", "is_disabled": 0, "lat": 38.921637, "rental_uris": {"ios": "https://dc.lft.to/lastmile_qr_scan", "android": "https://dc.lft.to/lastmile_qr_scan"}, "is_reserved": 0, "fusion_lon": 0.0, "fusion_lat": 0.0, "lon": -77.0384465, "name": "1fc046970261d9cea025ccf328683b34"}, {"bike_id": "289e16016d1bfeaca3538492ab2cc723", "type": "electric_scooter", "is_disabled": 0, "lat": 38.906092666666666, "rental_uris": {"ios": "https://dc.lft.to/lastmile_qr_scan", "android": "https://dc.lft.to/lastmile_qr_scan"}, "is_reserved": 0, "fusion_lon": 0.0, "fusion_lat": 0.0, "lon": -77.0629305, "name": "289e16016d1bfeaca3538492ab2cc723"}, {"bike_id": "90b6993f8bb72f024d64b325c11f515a", "type": "electric_scooter", "is_disabled": 0, "lat": 38.90039183333333, "rental_uris": {"ios": "https://dc.lft.to/lastmile_qr_scan", "android": "https://dc.lft.to/lastmile_qr_scan"}, "is_reserved": 0, "fusion_lon": 0.0, "fusion_lat": 0.0, "lon": -77.01571316666667, "name": "90b6993f8bb72f024d64b325c11f515a"}, {"bike_id": "2ff8fe398e532df192a5816afae44a7e", "type": "electric_scooter", "is_disabled": 0, "lat": 38.89697016666667, "rental_uris": {"ios": "https://dc.lft.to/lastmile_qr_scan", "android": "https://dc.lft.to/lastmile_qr_scan"}, "is_reserved": 0, "fusion_lon": 0.0, "fusion_lat": 0.0, "lon": -76.99959166666666, "name": "2ff8fe398e532df192a5816afae44a7e"}, {"bike_id": "743e45bb4e365c3aee6bf2523d8762b3", "type": "electric_scooter", "is_disabled": 0, "lat": 38.927949166666664, "rental_uris": {"ios": "https://dc.lft.to/lastmile_qr_scan", "android": "https://dc.lft.to/lastmile_qr_scan"}, "is_reserved": 0, "fusion_lon": 0.0, "fusion_lat": 0.0, "lon": -77.02200966666666, "name": "743e45bb4e365c3aee6bf2523d8762b3"}, {"bike_id": "930fafd6428666fe1e63f07218bdf469", "type": "electric_scooter", "is_disabled": 0, "lat": 38.93082, "rental_uris": {"ios": "https://dc.lft.to/lastmile_qr_scan", "android": "https://dc.lft.to/lastmile_qr_scan"}, "is_reserved": 0, "fusion_lon": 0.0, "fusion_lat": 0.0, "lon": -77.03651983333333, "name": "930fafd6428666fe1e63f07218bdf469"}, {"bike_id": "876fc419e18397c827374b6601513178", "type": "electric_bike", "is_disabled": 0, "lat": 38.832433333333334, "rental_uris": {"ios": "https://dc.lft.to/lastmile_qr_scan", "android": "https://dc.lft.to/lastmile_qr_scan"}, "is_reserved": 0, "fusion_lon": 0.0, "fusion_lat": 0.0, "lon": -76.94633433333334, "name": "876fc419e18397c827374b6601513178"}, {"bike_id": "a40a9506d550a16eec4f1d2c35a63d6f", "type": "electric_scooter", "is_disabled": 0, "lat": 38.91099366666667, "rental_uris": {"ios": "https://dc.lft.to/lastmile_qr_scan", "android": "https://dc.lft.to/lastmile_qr_scan"}, "is_reserved": 0, "fusion_lon": 0.0, "fusion_lat": 0.0, "lon": -77.03234483333334, "name": "a40a9506d550a16eec4f1d2c35a63d6f"}, {"bike_id": "2afa494ef5f3ddfe9c233d53b1f3a510", "type": "electric_scooter", "is_disabled": 0, "lat": 38.9211725, "rental_uris": {"ios": "https://dc.lft.to/lastmile_qr_scan", "android": "https://dc.lft.to/lastmile_qr_scan"}, "is_reserved": 0, "fusion_lon": 0.0, "fusion_lat": 0.0, "lon": -77.01201783333333, "name": "2afa494ef5f3ddfe9c233d53b1f3a510"}, {"bike_id": "cd11ec7a8681a6133e63857e42b3eb5f", "type": "electric_scooter", "is_disabled": 0, "lat": 38.91561816666667, "rental_uris": {"ios": "https://dc.lft.to/lastmile_qr_scan", "android": "https://dc.lft.to/lastmile_qr_scan"}, "is_reserved": 0, "fusion_lon": 0.0, "fusion_lat": 0.0, "lon": -77.00975883333334, "name": "cd11ec7a8681a6133e63857e42b3eb5f"}, {"bike_id": "63a3ec68406cde05addf29bbb14713b6", "type": "electric_scooter", "is_disabled": 0, "lat": 38.877576833333336, "rental_uris": {"ios": "https://dc.lft.to/lastmile_qr_scan", "android": "https://dc.lft.to/lastmile_qr_scan"}, "is_reserved": 0, "fusion_lon": 0.0, "fusion_lat": 0.0, "lon": -76.98679333333334, "name": "63a3ec68406cde05addf29bbb14713b6"}, {"bike_id": "25d653e7dbe1153ed1465516729b6c11", "type": "electric_scooter", "is_disabled": 0, "lat": 38.916776, "rental_uris": {"ios": "https://dc.lft.to/lastmile_qr_scan", "android": "https://dc.lft.to/lastmile_qr_scan"}, "is_reserved": 0, "fusion_lon": 0.0, "fusion_lat": 0.0, "lon": -77.03681633333333, "name": "25d653e7dbe1153ed1465516729b6c11"}, {"bike_id": "264e1eef8f35f46c1753d3ce295cec2d", "type": "electric_scooter", "is_disabled": 0, "lat": 38.905704, "rental_uris": {"ios": "https://dc.lft.to/lastmile_qr_scan", "android": "https://dc.lft.to/lastmile_qr_scan"}, "is_reserved": 0, "fusion_lon": 0.0, "fusion_lat": 0.0, "lon": -76.9777255, "name": "264e1eef8f35f46c1753d3ce295cec2d"}, {"bike_id": "9b7462ba782599b75550b2417e021a02", "type": "electric_scooter", "is_disabled": 0, "lat": 38.9399485, "rental_uris": {"ios": "https://dc.lft.to/lastmile_qr_scan", "android": "https://dc.lft.to/lastmile_qr_scan"}, "is_reserved": 0, "fusion_lon": 0.0, "fusion_lat": 0.0, "lon": -77.01688, "name": "9b7462ba782599b75550b2417e021a02"}, {"bike_id": "6f864a2068717f0536bfa768796ed7ec", "type": "electric_scooter", "is_disabled": 0, "lat": 38.90259783333333, "rental_uris": {"ios": "https://dc.lft.to/lastmile_qr_scan", "android": "https://dc.lft.to/lastmile_qr_scan"}, "is_reserved": 0, "fusion_lon": 0.0, "fusion_lat": 0.0, "lon": -77.017607, "name": "6f864a2068717f0536bfa768796ed7ec"}, {"bike_id": "6b24ca5855e2b1230466706085c95d3c", "type": "electric_bike", "is_disabled": 0, "lat": 39.05059516666667, "rental_uris": {"ios": "https://dc.lft.to/lastmile_qr_scan", "android": "https://dc.lft.to/lastmile_qr_scan"}, "is_reserved": 0, "fusion_lon": 0.0, "fusion_lat": 0.0, "lon": -77.05150816666666, "name": "6b24ca5855e2b1230466706085c95d3c"}, {"bike_id": "6f4089fb6e1834957e372340d3996e88", "type": "electric_scooter", "is_disabled": 0, "lat": 38.9190505, "rental_uris": {"ios": "https://dc.lft.to/lastmile_qr_scan", "android": "https://dc.lft.to/lastmile_qr_scan"}, "is_reserved": 0, "fusion_lon": 0.0, "fusion_lat": 0.0, "lon": -77.0318825, "name": "6f4089fb6e1834957e372340d3996e88"}, {"bike_id": "37d16c1e8e864dfc6459c171eeea331e", "type": "electric_scooter", "is_disabled": 0, "lat": 38.91657816666667, "rental_uris": {"ios": "https://dc.lft.to/lastmile_qr_scan", "android": "https://dc.lft.to/lastmile_qr_scan"}, "is_reserved": 0, "fusion_lon": 0.0, "fusion_lat": 0.0, "lon": -77.03850616666666, "name": "37d16c1e8e864dfc6459c171eeea331e"}, {"bike_id": "0216b11ea66fdd14e8710f94de94c6e8", "type": "electric_scooter", "is_disabled": 0, "lat": 38.895644, "rental_uris": {"ios": "https://dc.lft.to/lastmile_qr_scan", "android": "https://dc.lft.to/lastmile_qr_scan"}, "is_reserved": 0, "fusion_lon": 0.0, "fusion_lat": 0.0, "lon": -76.93019633333333, "name": "0216b11ea66fdd14e8710f94de94c6e8"}, {"bike_id": "a82d648671d31fe06d75a57d56bd0be9", "type": "electric_scooter", "is_disabled": 0, "lat": 38.904094666666666, "rental_uris": {"ios": "https://dc.lft.to/lastmile_qr_scan", "android": "https://dc.lft.to/lastmile_qr_scan"}, "is_reserved": 0, "fusion_lon": 0.0, "fusion_lat": 0.0, "lon": -76.973318, "name": "a82d648671d31fe06d75a57d56bd0be9"}, {"bike_id": "fe33c3448d2e194ad7a2a2ef9e77babf", "type": "electric_scooter", "is_disabled": 0, "lat": 38.916088333333335, "rental_uris": {"ios": "https://dc.lft.to/lastmile_qr_scan", "android": "https://dc.lft.to/lastmile_qr_scan"}, "is_reserved": 0, "fusion_lon": 0.0, "fusion_lat": 0.0, "lon": -77.02391516666667, "name": "fe33c3448d2e194ad7a2a2ef9e77babf"}, {"bike_id": "bc9f44626f4f33ae56013cf91aeba371", "type": "electric_scooter", "is_disabled": 0, "lat": 38.90335133333333, "rental_uris": {"ios": "https://dc.lft.to/lastmile_qr_scan", "android": "https://dc.lft.to/lastmile_qr_scan"}, "is_reserved": 0, "fusion_lon": 0.0, "fusion_lat": 0.0, "lon": -77.00725633333333, "name": "bc9f44626f4f33ae56013cf91aeba371"}, {"bike_id": "021e659a387b03c2526b55db05802723", "type": "electric_scooter", "is_disabled": 0, "lat": 38.902795166666664, "rental_uris": {"ios": "https://dc.lft.to/lastmile_qr_scan", "android": "https://dc.lft.to/lastmile_qr_scan"}, "is_reserved": 0, "fusion_lon": 0.0, "fusion_lat": 0.0, "lon": -77.01610416666666, "name": "021e659a387b03c2526b55db05802723"}, {"bike_id": "a42a9fbde4e77bda6ffb6e138daee231", "type": "electric_scooter", "is_disabled": 0, "lat": 38.93187783333333, "rental_uris": {"ios": "https://dc.lft.to/lastmile_qr_scan", "android": "https://dc.lft.to/lastmile_qr_scan"}, "is_reserved": 0, "fusion_lon": 0.0, "fusion_lat": 0.0, "lon": -77.0254185, "name": "a42a9fbde4e77bda6ffb6e138daee231"}, {"bike_id": "a5288a0ea6a65ec3fbd53a7bd5b24fb8", "type": "electric_scooter", "is_disabled": 0, "lat": 38.8947615, "rental_uris": {"ios": "https://dc.lft.to/lastmile_qr_scan", "android": "https://dc.lft.to/lastmile_qr_scan"}, "is_reserved": 0, "fusion_lon": 0.0, "fusion_lat": 0.0, "lon": -76.94862383333333, "name": "a5288a0ea6a65ec3fbd53a7bd5b24fb8"}, {"bike_id": "e490db5cec2a64417ba4b23db56d3ad0", "type": "electric_scooter", "is_disabled": 0, "lat": 38.909532166666665, "rental_uris": {"ios": "https://dc.lft.to/lastmile_qr_scan", "android": "https://dc.lft.to/lastmile_qr_scan"}, "is_reserved": 0, "fusion_lon": 0.0, "fusion_lat": 0.0, "lon": -77.02710033333334, "name": "e490db5cec2a64417ba4b23db56d3ad0"}, {"bike_id": "d0384e2c9a609325941c8811b65de6a4", "type": "electric_scooter", "is_disabled": 0, "lat": 38.90772833333333, "rental_uris": {"ios": "https://dc.lft.to/lastmile_qr_scan", "android": "https://dc.lft.to/lastmile_qr_scan"}, "is_reserved": 0, "fusion_lon": 0.0, "fusion_lat": 0.0, "lon": -77.07148116666667, "name": "d0384e2c9a609325941c8811b65de6a4"}, {"bike_id": "19f3db998c7f2b49d4e9f2978d3c602d", "type": "electric_scooter", "is_disabled": 0, "lat": 38.896178666666664, "rental_uris": {"ios": "https://dc.lft.to/lastmile_qr_scan", "android": "https://dc.lft.to/lastmile_qr_scan"}, "is_reserved": 0, "fusion_lon": 0.0, "fusion_lat": 0.0, "lon": -76.98569366666666, "name": "19f3db998c7f2b49d4e9f2978d3c602d"}, {"bike_id": "761295b5df0c7afd4ca0cea8255e86f8", "type": "electric_scooter", "is_disabled": 0, "lat": 38.9072775, "rental_uris": {"ios": "https://dc.lft.to/lastmile_qr_scan", "android": "https://dc.lft.to/lastmile_qr_scan"}, "is_reserved": 0, "fusion_lon": 0.0, "fusion_lat": 0.0, "lon": -77.00938516666666, "name": "761295b5df0c7afd4ca0cea8255e86f8"}, {"bike_id": "5ccb19d1122726ff9fd51dda046120c4", "type": "electric_scooter", "is_disabled": 0, "lat": 38.9091835, "rental_uris": {"ios": "https://dc.lft.to/lastmile_qr_scan", "android": "https://dc.lft.to/lastmile_qr_scan"}, "is_reserved": 0, "fusion_lon": 0.0, "fusion_lat": 0.0, "lon": -77.01524683333334, "name": "5ccb19d1122726ff9fd51dda046120c4"}, {"bike_id": "aee4fd7204b3f677e35cdaae6fce6ea0", "type": "electric_scooter", "is_disabled": 0, "lat": 38.911838, "rental_uris": {"ios": "https://dc.lft.to/lastmile_qr_scan", "android": "https://dc.lft.to/lastmile_qr_scan"}, "is_reserved": 0, "fusion_lon": 0.0, "fusion_lat": 0.0, "lon": -77.04026816666666, "name": "aee4fd7204b3f677e35cdaae6fce6ea0"}, {"bike_id": "753a813a8b0188bdf6db397cbf97a711", "type": "electric_scooter", "is_disabled": 0, "lat": 38.925356666666666, "rental_uris": {"ios": "https://dc.lft.to/lastmile_qr_scan", "android": "https://dc.lft.to/lastmile_qr_scan"}, "is_reserved": 0, "fusion_lon": 0.0, "fusion_lat": 0.0, "lon": -77.04261583333333, "name": "753a813a8b0188bdf6db397cbf97a711"}, {"bike_id": "c712486feedc240430e1073e421fde19", "type": "electric_scooter", "is_disabled": 0, "lat": 38.90734616666667, "rental_uris": {"ios": "https://dc.lft.to/lastmile_qr_scan", "android": "https://dc.lft.to/lastmile_qr_scan"}, "is_reserved": 0, "fusion_lon": 0.0, "fusion_lat": 0.0, "lon": -77.03196583333333, "name": "c712486feedc240430e1073e421fde19"}, {"bike_id": "6267bcf16908795781e00429b560dd8d", "type": "electric_scooter", "is_disabled": 0, "lat": 38.9193295, "rental_uris": {"ios": "https://dc.lft.to/lastmile_qr_scan", "android": "https://dc.lft.to/lastmile_qr_scan"}, "is_reserved": 0, "fusion_lon": 0.0, "fusion_lat": 0.0, "lon": -77.04494283333334, "name": "6267bcf16908795781e00429b560dd8d"}, {"bike_id": "7ef89c623a61e02e6e8ce753f76c5d7f", "type": "electric_bike", "is_disabled": 0, "lat": 38.87557066666667, "rental_uris": {"ios": "https://dc.lft.to/lastmile_qr_scan", "android": "https://dc.lft.to/lastmile_qr_scan"}, "is_reserved": 0, "fusion_lon": 0.0, "fusion_lat": 0.0, "lon": -76.96497333333333, "name": "7ef89c623a61e02e6e8ce753f76c5d7f"}, {"bike_id": "2c2550fbcf94b1fa225b7d35f518334f", "type": "electric_scooter", "is_disabled": 0, "lat": 38.89845483333333, "rental_uris": {"ios": "https://dc.lft.to/lastmile_qr_scan", "android": "https://dc.lft.to/lastmile_qr_scan"}, "is_reserved": 0, "fusion_lon": 0.0, "fusion_lat": 0.0, "lon": -76.94629783333333, "name": "2c2550fbcf94b1fa225b7d35f518334f"}, {"bike_id": "d9d13924d686877257eb172a828c74af", "type": "electric_scooter", "is_disabled": 0, "lat": 38.9027025, "rental_uris": {"ios": "https://dc.lft.to/lastmile_qr_scan", "android": "https://dc.lft.to/lastmile_qr_scan"}, "is_reserved": 0, "fusion_lon": 0.0, "fusion_lat": 0.0, "lon": -77.054772, "name": "d9d13924d686877257eb172a828c74af"}, {"bike_id": "4739d49a673abc82db4817dce8703d24", "type": "electric_scooter", "is_disabled": 0, "lat": 38.923433, "rental_uris": {"ios": "https://dc.lft.to/lastmile_qr_scan", "android": "https://dc.lft.to/lastmile_qr_scan"}, "is_reserved": 0, "fusion_lon": 0.0, "fusion_lat": 0.0, "lon": -77.03350466666667, "name": "4739d49a673abc82db4817dce8703d24"}, {"bike_id": "a70c590bb766afc924e0a1e29201b023", "type": "electric_scooter", "is_disabled": 0, "lat": 38.918002333333334, "rental_uris": {"ios": "https://dc.lft.to/lastmile_qr_scan", "android": "https://dc.lft.to/lastmile_qr_scan"}, "is_reserved": 0, "fusion_lon": 0.0, "fusion_lat": 0.0, "lon": -77.0343205, "name": "a70c590bb766afc924e0a1e29201b023"}, {"bike_id": "c90ad45d1c62a5b0f41c2253f2f4265c", "type": "electric_scooter", "is_disabled": 0, "lat": 38.9039995, "rental_uris": {"ios": "https://dc.lft.to/lastmile_qr_scan", "android": "https://dc.lft.to/lastmile_qr_scan"}, "is_reserved": 0, "fusion_lon": 0.0, "fusion_lat": 0.0, "lon": -77.00870366666666, "name": "c90ad45d1c62a5b0f41c2253f2f4265c"}, {"bike_id": "4efd731057d129f7d0549741fa9efee9", "type": "electric_scooter", "is_disabled": 0, "lat": 38.91424666666666, "rental_uris": {"ios": "https://dc.lft.to/lastmile_qr_scan", "android": "https://dc.lft.to/lastmile_qr_scan"}, "is_reserved": 0, "fusion_lon": 0.0, "fusion_lat": 0.0, "lon": -77.03239616666667, "name": "4efd731057d129f7d0549741fa9efee9"}, {"bike_id": "ca76d1f7db655a4656b1c2096a7b9449", "type": "electric_scooter", "is_disabled": 0, "lat": 38.918953333333334, "rental_uris": {"ios": "https://dc.lft.to/lastmile_qr_scan", "android": "https://dc.lft.to/lastmile_qr_scan"}, "is_reserved": 0, "fusion_lon": 0.0, "fusion_lat": 0.0, "lon": -77.0445205, "name": "ca76d1f7db655a4656b1c2096a7b9449"}, {"bike_id": "9141c4197d471681c647fb16758220e8", "type": "electric_scooter", "is_disabled": 0, "lat": 38.880932, "rental_uris": {"ios": "https://dc.lft.to/lastmile_qr_scan", "android": "https://dc.lft.to/lastmile_qr_scan"}, "is_reserved": 0, "fusion_lon": 0.0, "fusion_lat": 0.0, "lon": -77.01768516666667, "name": "9141c4197d471681c647fb16758220e8"}, {"bike_id": "0797a779423aa66cad6cd8ffa0fc8207", "type": "electric_scooter", "is_disabled": 0, "lat": 38.924093166666665, "rental_uris": {"ios": "https://dc.lft.to/lastmile_qr_scan", "android": "https://dc.lft.to/lastmile_qr_scan"}, "is_reserved": 0, "fusion_lon": 0.0, "fusion_lat": 0.0, "lon": -77.03650783333333, "name": "0797a779423aa66cad6cd8ffa0fc8207"}, {"bike_id": "de46cfc029421eb329757d5ef6a2e6e6", "type": "electric_scooter", "is_disabled": 0, "lat": 38.92316916666667, "rental_uris": {"ios": "https://dc.lft.to/lastmile_qr_scan", "android": "https://dc.lft.to/lastmile_qr_scan"}, "is_reserved": 0, "fusion_lon": 0.0, "fusion_lat": 0.0, "lon": -77.03618966666667, "name": "de46cfc029421eb329757d5ef6a2e6e6"}, {"bike_id": "6a772782a389adb968bcf14b6ceb1e4f", "type": "electric_scooter", "is_disabled": 0, "lat": 38.92186, "rental_uris": {"ios": "https://dc.lft.to/lastmile_qr_scan", "android": "https://dc.lft.to/lastmile_qr_scan"}, "is_reserved": 0, "fusion_lon": 0.0, "fusion_lat": 0.0, "lon": -77.0211815, "name": "6a772782a389adb968bcf14b6ceb1e4f"}, {"bike_id": "600c4a44d282b010cf51eedfa556aa36", "type": "electric_scooter", "is_disabled": 0, "lat": 38.90725, "rental_uris": {"ios": "https://dc.lft.to/lastmile_qr_scan", "android": "https://dc.lft.to/lastmile_qr_scan"}, "is_reserved": 0, "fusion_lon": 0.0, "fusion_lat": 0.0, "lon": -77.03204816666667, "name": "600c4a44d282b010cf51eedfa556aa36"}, {"bike_id": "09af1759280013cbe97f50f5a2033a65", "type": "electric_scooter", "is_disabled": 0, "lat": 38.92221466666667, "rental_uris": {"ios": "https://dc.lft.to/lastmile_qr_scan", "android": "https://dc.lft.to/lastmile_qr_scan"}, "is_reserved": 0, "fusion_lon": 0.0, "fusion_lat": 0.0, "lon": -77.02669683333333, "name": "09af1759280013cbe97f50f5a2033a65"}, {"bike_id": "0747c582ce8a74e025a870c55c5ed7e6", "type": "electric_scooter", "is_disabled": 0, "lat": 38.90933316666667, "rental_uris": {"ios": "https://dc.lft.to/lastmile_qr_scan", "android": "https://dc.lft.to/lastmile_qr_scan"}, "is_reserved": 0, "fusion_lon": 0.0, "fusion_lat": 0.0, "lon": -77.049289, "name": "0747c582ce8a74e025a870c55c5ed7e6"}, {"bike_id": "e1b864ee5f107b25b1003b346f288015", "type": "electric_scooter", "is_disabled": 0, "lat": 38.91132366666667, "rental_uris": {"ios": "https://dc.lft.to/lastmile_qr_scan", "android": "https://dc.lft.to/lastmile_qr_scan"}, "is_reserved": 0, "fusion_lon": 0.0, "fusion_lat": 0.0, "lon": -77.02198783333333, "name": "e1b864ee5f107b25b1003b346f288015"}, {"bike_id": "a3d27cb9a2ffe81833759e8298297cf2", "type": "electric_scooter", "is_disabled": 0, "lat": 38.905612166666664, "rental_uris": {"ios": "https://dc.lft.to/lastmile_qr_scan", "android": "https://dc.lft.to/lastmile_qr_scan"}, "is_reserved": 0, "fusion_lon": 0.0, "fusion_lat": 0.0, "lon": -77.051444, "name": "a3d27cb9a2ffe81833759e8298297cf2"}, {"bike_id": "ce7ec7c88f8289a31b32ce08046f90c3", "type": "electric_scooter", "is_disabled": 0, "lat": 38.915463, "rental_uris": {"ios": "https://dc.lft.to/lastmile_qr_scan", "android": "https://dc.lft.to/lastmile_qr_scan"}, "is_reserved": 0, "fusion_lon": 0.0, "fusion_lat": 0.0, "lon": -77.01222016666667, "name": "ce7ec7c88f8289a31b32ce08046f90c3"}, {"bike_id": "b9884e724f2ea9a2633384140a252f99", "type": "electric_scooter", "is_disabled": 0, "lat": 38.921584833333334, "rental_uris": {"ios": "https://dc.lft.to/lastmile_qr_scan", "android": "https://dc.lft.to/lastmile_qr_scan"}, "is_reserved": 0, "fusion_lon": 0.0, "fusion_lat": 0.0, "lon": -77.04018216666667, "name": "b9884e724f2ea9a2633384140a252f99"}, {"bike_id": "8de776a8b7c48e69058d07dd6c0ef1fb", "type": "electric_scooter", "is_disabled": 0, "lat": 38.88446716666667, "rental_uris": {"ios": "https://dc.lft.to/lastmile_qr_scan", "android": "https://dc.lft.to/lastmile_qr_scan"}, "is_reserved": 0, "fusion_lon": 0.0, "fusion_lat": 0.0, "lon": -77.02544866666666, "name": "8de776a8b7c48e69058d07dd6c0ef1fb"}, {"bike_id": "4763984dd6dd652430024dec5bfe4675", "type": "electric_bike", "is_disabled": 0, "lat": 38.974575, "rental_uris": {"ios": "https://dc.lft.to/lastmile_qr_scan", "android": "https://dc.lft.to/lastmile_qr_scan"}, "is_reserved": 0, "fusion_lon": 0.0, "fusion_lat": 0.0, "lon": -77.0122205, "name": "4763984dd6dd652430024dec5bfe4675"}, {"bike_id": "9401c28555f03f61c4772c3275ae20d1", "type": "electric_scooter", "is_disabled": 0, "lat": 38.907732333333335, "rental_uris": {"ios": "https://dc.lft.to/lastmile_qr_scan", "android": "https://dc.lft.to/lastmile_qr_scan"}, "is_reserved": 0, "fusion_lon": 0.0, "fusion_lat": 0.0, "lon": -77.00238783333333, "name": "9401c28555f03f61c4772c3275ae20d1"}, {"bike_id": "fc343abd2f2b7e7ac1f330c59f94f5c2", "type": "electric_bike", "is_disabled": 0, "lat": 38.85545533333333, "rental_uris": {"ios": "https://dc.lft.to/lastmile_qr_scan", "android": "https://dc.lft.to/lastmile_qr_scan"}, "is_reserved": 0, "fusion_lon": 0.0, "fusion_lat": 0.0, "lon": -77.120022, "name": "fc343abd2f2b7e7ac1f330c59f94f5c2"}, {"bike_id": "f333146fa410dd63fa00b30cbf85e464", "type": "electric_scooter", "is_disabled": 0, "lat": 38.903026, "rental_uris": {"ios": "https://dc.lft.to/lastmile_qr_scan", "android": "https://dc.lft.to/lastmile_qr_scan"}, "is_reserved": 0, "fusion_lon": 0.0, "fusion_lat": 0.0, "lon": -77.049482, "name": "f333146fa410dd63fa00b30cbf85e464"}, {"bike_id": "a9e9cb61434f71f17a1fc446f65aed0e", "type": "electric_scooter", "is_disabled": 0, "lat": 38.93600416666666, "rental_uris": {"ios": "https://dc.lft.to/lastmile_qr_scan", "android": "https://dc.lft.to/lastmile_qr_scan"}, "is_reserved": 0, "fusion_lon": 0.0, "fusion_lat": 0.0, "lon": -77.0365075, "name": "a9e9cb61434f71f17a1fc446f65aed0e"}, {"bike_id": "45f68ffa26169bc0a1e63b301573af73", "type": "electric_scooter", "is_disabled": 0, "lat": 38.90213633333333, "rental_uris": {"ios": "https://dc.lft.to/lastmile_qr_scan", "android": "https://dc.lft.to/lastmile_qr_scan"}, "is_reserved": 0, "fusion_lon": 0.0, "fusion_lat": 0.0, "lon": -77.04033533333333, "name": "45f68ffa26169bc0a1e63b301573af73"}, {"bike_id": "86d6658f80c8b62372fa070402f918d7", "type": "electric_scooter", "is_disabled": 0, "lat": 38.915982166666666, "rental_uris": {"ios": "https://dc.lft.to/lastmile_qr_scan", "android": "https://dc.lft.to/lastmile_qr_scan"}, "is_reserved": 0, "fusion_lon": 0.0, "fusion_lat": 0.0, "lon": -77.03200816666667, "name": "86d6658f80c8b62372fa070402f918d7"}, {"bike_id": "b931397d74f7552091225783ceda87a0", "type": "electric_scooter", "is_disabled": 0, "lat": 38.914022833333334, "rental_uris": {"ios": "https://dc.lft.to/lastmile_qr_scan", "android": "https://dc.lft.to/lastmile_qr_scan"}, "is_reserved": 0, "fusion_lon": 0.0, "fusion_lat": 0.0, "lon": -76.98186433333333, "name": "b931397d74f7552091225783ceda87a0"}, {"bike_id": "e2358199712c719d5da892582cbf7cac", "type": "electric_scooter", "is_disabled": 0, "lat": 38.919193666666665, "rental_uris": {"ios": "https://dc.lft.to/lastmile_qr_scan", "android": "https://dc.lft.to/lastmile_qr_scan"}, "is_reserved": 0, "fusion_lon": 0.0, "fusion_lat": 0.0, "lon": -77.0319845, "name": "e2358199712c719d5da892582cbf7cac"}, {"bike_id": "8749fa22e8486a2f4ca727a9d340f50d", "type": "electric_scooter", "is_disabled": 0, "lat": 38.9221005, "rental_uris": {"ios": "https://dc.lft.to/lastmile_qr_scan", "android": "https://dc.lft.to/lastmile_qr_scan"}, "is_reserved": 0, "fusion_lon": 0.0, "fusion_lat": 0.0, "lon": -77.03661383333333, "name": "8749fa22e8486a2f4ca727a9d340f50d"}, {"bike_id": "618c0ac02ed03f28bfe4f204a494ec33", "type": "electric_scooter", "is_disabled": 0, "lat": 38.933556, "rental_uris": {"ios": "https://dc.lft.to/lastmile_qr_scan", "android": "https://dc.lft.to/lastmile_qr_scan"}, "is_reserved": 0, "fusion_lon": 0.0, "fusion_lat": 0.0, "lon": -77.07356116666666, "name": "618c0ac02ed03f28bfe4f204a494ec33"}, {"bike_id": "11377d3e96382a18df0fe7d6fff42f94", "type": "electric_bike", "is_disabled": 0, "lat": 38.993280166666665, "rental_uris": {"ios": "https://dc.lft.to/lastmile_qr_scan", "android": "https://dc.lft.to/lastmile_qr_scan"}, "is_reserved": 0, "fusion_lon": 0.0, "fusion_lat": 0.0, "lon": -76.94613483333333, "name": "11377d3e96382a18df0fe7d6fff42f94"}, {"bike_id": "2dd777b1736062ae5d0bfcc4f507c192", "type": "electric_bike", "is_disabled": 0, "lat": 38.983706833333336, "rental_uris": {"ios": "https://dc.lft.to/lastmile_qr_scan", "android": "https://dc.lft.to/lastmile_qr_scan"}, "is_reserved": 0, "fusion_lon": 0.0, "fusion_lat": 0.0, "lon": -76.97210983333333, "name": "2dd777b1736062ae5d0bfcc4f507c192"}, {"bike_id": "b201ac75cc7385227589fa271ed49063", "type": "electric_scooter", "is_disabled": 0, "lat": 38.92746283333334, "rental_uris": {"ios": "https://dc.lft.to/lastmile_qr_scan", "android": "https://dc.lft.to/lastmile_qr_scan"}, "is_reserved": 0, "fusion_lon": 0.0, "fusion_lat": 0.0, "lon": -77.025416, "name": "b201ac75cc7385227589fa271ed49063"}, {"bike_id": "9c2aa1b1199ae2beb2b25d6e919223c1", "type": "electric_scooter", "is_disabled": 0, "lat": 38.866425666666665, "rental_uris": {"ios": "https://dc.lft.to/lastmile_qr_scan", "android": "https://dc.lft.to/lastmile_qr_scan"}, "is_reserved": 0, "fusion_lon": 0.0, "fusion_lat": 0.0, "lon": -76.9881845, "name": "9c2aa1b1199ae2beb2b25d6e919223c1"}, {"bike_id": "9865c535c79eda313d1ab21adb25eddd", "type": "electric_scooter", "is_disabled": 0, "lat": 38.866843, "rental_uris": {"ios": "https://dc.lft.to/lastmile_qr_scan", "android": "https://dc.lft.to/lastmile_qr_scan"}, "is_reserved": 0, "fusion_lon": 0.0, "fusion_lat": 0.0, "lon": -76.98572216666666, "name": "9865c535c79eda313d1ab21adb25eddd"}, {"bike_id": "a2bc6444cb82b8ab099939e1bba0342c", "type": "electric_bike", "is_disabled": 0, "lat": 38.93773866666667, "rental_uris": {"ios": "https://dc.lft.to/lastmile_qr_scan", "android": "https://dc.lft.to/lastmile_qr_scan"}, "is_reserved": 0, "fusion_lon": 0.0, "fusion_lat": 0.0, "lon": -77.01880266666667, "name": "a2bc6444cb82b8ab099939e1bba0342c"}, {"bike_id": "6245dbe8f476267eef3598de16d80c3f", "type": "electric_scooter", "is_disabled": 0, "lat": 38.89742283333333, "rental_uris": {"ios": "https://dc.lft.to/lastmile_qr_scan", "android": "https://dc.lft.to/lastmile_qr_scan"}, "is_reserved": 0, "fusion_lon": 0.0, "fusion_lat": 0.0, "lon": -77.046061, "name": "6245dbe8f476267eef3598de16d80c3f"}, {"bike_id": "ef03e7dc4178795c3ff255d353649653", "type": "electric_scooter", "is_disabled": 0, "lat": 38.94420916666667, "rental_uris": {"ios": "https://dc.lft.to/lastmile_qr_scan", "android": "https://dc.lft.to/lastmile_qr_scan"}, "is_reserved": 0, "fusion_lon": 0.0, "fusion_lat": 0.0, "lon": -77.01775383333333, "name": "ef03e7dc4178795c3ff255d353649653"}, {"bike_id": "4c9b3a52424c7c18607c081b1f03f180", "type": "electric_scooter", "is_disabled": 0, "lat": 38.934504, "rental_uris": {"ios": "https://dc.lft.to/lastmile_qr_scan", "android": "https://dc.lft.to/lastmile_qr_scan"}, "is_reserved": 0, "fusion_lon": 0.0, "fusion_lat": 0.0, "lon": -77.02772266666666, "name": "4c9b3a52424c7c18607c081b1f03f180"}, {"bike_id": "771434d85dcd9c628f08589bf8f6bf67", "type": "electric_scooter", "is_disabled": 0, "lat": 38.831030166666665, "rental_uris": {"ios": "https://dc.lft.to/lastmile_qr_scan", "android": "https://dc.lft.to/lastmile_qr_scan"}, "is_reserved": 0, "fusion_lon": 0.0, "fusion_lat": 0.0, "lon": -77.05160616666667, "name": "771434d85dcd9c628f08589bf8f6bf67"}, {"bike_id": "7dab34a7a6319a3326e8285f4a75a395", "type": "electric_scooter", "is_disabled": 0, "lat": 38.916746, "rental_uris": {"ios": "https://dc.lft.to/lastmile_qr_scan", "android": "https://dc.lft.to/lastmile_qr_scan"}, "is_reserved": 0, "fusion_lon": 0.0, "fusion_lat": 0.0, "lon": -77.04680783333333, "name": "7dab34a7a6319a3326e8285f4a75a395"}, {"bike_id": "59892396229336d018d610558862d8e5", "type": "electric_scooter", "is_disabled": 0, "lat": 38.8933885, "rental_uris": {"ios": "https://dc.lft.to/lastmile_qr_scan", "android": "https://dc.lft.to/lastmile_qr_scan"}, "is_reserved": 0, "fusion_lon": 0.0, "fusion_lat": 0.0, "lon": -76.9505295, "name": "59892396229336d018d610558862d8e5"}, {"bike_id": "aedc813a936d0be738633ccfa1ba5211", "type": "electric_scooter", "is_disabled": 0, "lat": 38.935256833333334, "rental_uris": {"ios": "https://dc.lft.to/lastmile_qr_scan", "android": "https://dc.lft.to/lastmile_qr_scan"}, "is_reserved": 0, "fusion_lon": 0.0, "fusion_lat": 0.0, "lon": -77.03344116666666, "name": "aedc813a936d0be738633ccfa1ba5211"}, {"bike_id": "f16365f422ddc4e28124b88450276ab6", "type": "electric_scooter", "is_disabled": 0, "lat": 38.902669333333336, "rental_uris": {"ios": "https://dc.lft.to/lastmile_qr_scan", "android": "https://dc.lft.to/lastmile_qr_scan"}, "is_reserved": 0, "fusion_lon": 0.0, "fusion_lat": 0.0, "lon": -77.03366583333333, "name": "f16365f422ddc4e28124b88450276ab6"}, {"bike_id": "5f41a4de6821ce7e2349f437d2e9f870", "type": "electric_scooter", "is_disabled": 0, "lat": 38.924655666666666, "rental_uris": {"ios": "https://dc.lft.to/lastmile_qr_scan", "android": "https://dc.lft.to/lastmile_qr_scan"}, "is_reserved": 0, "fusion_lon": 0.0, "fusion_lat": 0.0, "lon": -77.05203916666666, "name": "5f41a4de6821ce7e2349f437d2e9f870"}, {"bike_id": "bd469ae4b22dbd3edbf59f5e75ee78e8", "type": "electric_scooter", "is_disabled": 0, "lat": 38.9009385, "rental_uris": {"ios": "https://dc.lft.to/lastmile_qr_scan", "android": "https://dc.lft.to/lastmile_qr_scan"}, "is_reserved": 0, "fusion_lon": 0.0, "fusion_lat": 0.0, "lon": -76.98330183333333, "name": "bd469ae4b22dbd3edbf59f5e75ee78e8"}, {"bike_id": "c81332e908a7f743e7badac3ddd4c08d", "type": "electric_scooter", "is_disabled": 0, "lat": 38.91404033333333, "rental_uris": {"ios": "https://dc.lft.to/lastmile_qr_scan", "android": "https://dc.lft.to/lastmile_qr_scan"}, "is_reserved": 0, "fusion_lon": 0.0, "fusion_lat": 0.0, "lon": -77.03224166666666, "name": "c81332e908a7f743e7badac3ddd4c08d"}, {"bike_id": "350207050fb3bee074fdd54428afbcc2", "type": "electric_scooter", "is_disabled": 0, "lat": 38.918162, "rental_uris": {"ios": "https://dc.lft.to/lastmile_qr_scan", "android": "https://dc.lft.to/lastmile_qr_scan"}, "is_reserved": 0, "fusion_lon": 0.0, "fusion_lat": 0.0, "lon": -77.02716633333333, "name": "350207050fb3bee074fdd54428afbcc2"}, {"bike_id": "4e68a06e726d68d0fc84fde61ddc8d54", "type": "electric_scooter", "is_disabled": 0, "lat": 38.900384833333334, "rental_uris": {"ios": "https://dc.lft.to/lastmile_qr_scan", "android": "https://dc.lft.to/lastmile_qr_scan"}, "is_reserved": 0, "fusion_lon": 0.0, "fusion_lat": 0.0, "lon": -77.0366395, "name": "4e68a06e726d68d0fc84fde61ddc8d54"}, {"bike_id": "79e3c4e7bfe0a55d7a0d0890df33e3bd", "type": "electric_scooter", "is_disabled": 0, "lat": 38.90980966666667, "rental_uris": {"ios": "https://dc.lft.to/lastmile_qr_scan", "android": "https://dc.lft.to/lastmile_qr_scan"}, "is_reserved": 0, "fusion_lon": 0.0, "fusion_lat": 0.0, "lon": -77.03438683333333, "name": "79e3c4e7bfe0a55d7a0d0890df33e3bd"}, {"bike_id": "218c12ca34f95f2f96a6492c47ee10c2", "type": "electric_scooter", "is_disabled": 0, "lat": 38.87386933333333, "rental_uris": {"ios": "https://dc.lft.to/lastmile_qr_scan", "android": "https://dc.lft.to/lastmile_qr_scan"}, "is_reserved": 0, "fusion_lon": 0.0, "fusion_lat": 0.0, "lon": -77.04349383333333, "name": "218c12ca34f95f2f96a6492c47ee10c2"}, {"bike_id": "ca7fe2c6b0468604353866ac1542a08a", "type": "electric_scooter", "is_disabled": 0, "lat": 38.936698166666666, "rental_uris": {"ios": "https://dc.lft.to/lastmile_qr_scan", "android": "https://dc.lft.to/lastmile_qr_scan"}, "is_reserved": 0, "fusion_lon": 0.0, "fusion_lat": 0.0, "lon": -77.02407966666667, "name": "ca7fe2c6b0468604353866ac1542a08a"}, {"bike_id": "4998f6469fff78c0fd190f18c3617bfc", "type": "electric_scooter", "is_disabled": 0, "lat": 38.8900165, "rental_uris": {"ios": "https://dc.lft.to/lastmile_qr_scan", "android": "https://dc.lft.to/lastmile_qr_scan"}, "is_reserved": 0, "fusion_lon": 0.0, "fusion_lat": 0.0, "lon": -77.04901066666666, "name": "4998f6469fff78c0fd190f18c3617bfc"}, {"bike_id": "0f45d5a018cd8a90a1eda5be721b5efc", "type": "electric_scooter", "is_disabled": 0, "lat": 38.94902666666667, "rental_uris": {"ios": "https://dc.lft.to/lastmile_qr_scan", "android": "https://dc.lft.to/lastmile_qr_scan"}, "is_reserved": 0, "fusion_lon": 0.0, "fusion_lat": 0.0, "lon": -77.02072733333334, "name": "0f45d5a018cd8a90a1eda5be721b5efc"}, {"bike_id": "0acb91e6e259d78d6d2bb31480b31b07", "type": "electric_scooter", "is_disabled": 0, "lat": 38.922442833333335, "rental_uris": {"ios": "https://dc.lft.to/lastmile_qr_scan", "android": "https://dc.lft.to/lastmile_qr_scan"}, "is_reserved": 0, "fusion_lon": 0.0, "fusion_lat": 0.0, "lon": -77.03523416666667, "name": "0acb91e6e259d78d6d2bb31480b31b07"}, {"bike_id": "ed27889abd90cd338e2b24737e265b36", "type": "electric_scooter", "is_disabled": 0, "lat": 38.91555366666667, "rental_uris": {"ios": "https://dc.lft.to/lastmile_qr_scan", "android": "https://dc.lft.to/lastmile_qr_scan"}, "is_reserved": 0, "fusion_lon": 0.0, "fusion_lat": 0.0, "lon": -77.02637166666666, "name": "ed27889abd90cd338e2b24737e265b36"}, {"bike_id": "3cbfbfffab6aa72995cd2d77f2846ffa", "type": "electric_scooter", "is_disabled": 0, "lat": 38.844333666666664, "rental_uris": {"ios": "https://dc.lft.to/lastmile_qr_scan", "android": "https://dc.lft.to/lastmile_qr_scan"}, "is_reserved": 0, "fusion_lon": 0.0, "fusion_lat": 0.0, "lon": -76.99873466666666, "name": "3cbfbfffab6aa72995cd2d77f2846ffa"}, {"bike_id": "fff18070ec3b00f46de36fc6cf288453", "type": "electric_scooter", "is_disabled": 0, "lat": 38.912646333333335, "rental_uris": {"ios": "https://dc.lft.to/lastmile_qr_scan", "android": "https://dc.lft.to/lastmile_qr_scan"}, "is_reserved": 0, "fusion_lon": 0.0, "fusion_lat": 0.0, "lon": -77.03020033333334, "name": "fff18070ec3b00f46de36fc6cf288453"}, {"bike_id": "223e4035ca71500014a07aea77627266", "type": "electric_scooter", "is_disabled": 0, "lat": 38.9178535, "rental_uris": {"ios": "https://dc.lft.to/lastmile_qr_scan", "android": "https://dc.lft.to/lastmile_qr_scan"}, "is_reserved": 0, "fusion_lon": 0.0, "fusion_lat": 0.0, "lon": -77.03640033333333, "name": "223e4035ca71500014a07aea77627266"}, {"bike_id": "b9bf329991e3e79160990cdc311192e4", "type": "electric_scooter", "is_disabled": 0, "lat": 38.917313166666666, "rental_uris": {"ios": "https://dc.lft.to/lastmile_qr_scan", "android": "https://dc.lft.to/lastmile_qr_scan"}, "is_reserved": 0, "fusion_lon": 0.0, "fusion_lat": 0.0, "lon": -77.02605683333333, "name": "b9bf329991e3e79160990cdc311192e4"}, {"bike_id": "246251ae358ae4a8cdc59bd20abe81b3", "type": "electric_scooter", "is_disabled": 0, "lat": 38.8925935, "rental_uris": {"ios": "https://dc.lft.to/lastmile_qr_scan", "android": "https://dc.lft.to/lastmile_qr_scan"}, "is_reserved": 0, "fusion_lon": 0.0, "fusion_lat": 0.0, "lon": -76.92559533333333, "name": "246251ae358ae4a8cdc59bd20abe81b3"}, {"bike_id": "050a8a05b80b0676f79a3d4b8705b7dc", "type": "electric_scooter", "is_disabled": 0, "lat": 38.86441266666667, "rental_uris": {"ios": "https://dc.lft.to/lastmile_qr_scan", "android": "https://dc.lft.to/lastmile_qr_scan"}, "is_reserved": 0, "fusion_lon": 0.0, "fusion_lat": 0.0, "lon": -76.9798745, "name": "050a8a05b80b0676f79a3d4b8705b7dc"}, {"bike_id": "a501788df510e22f4d4445dd8f75f2bb", "type": "electric_scooter", "is_disabled": 0, "lat": 38.907247, "rental_uris": {"ios": "https://dc.lft.to/lastmile_qr_scan", "android": "https://dc.lft.to/lastmile_qr_scan"}, "is_reserved": 0, "fusion_lon": 0.0, "fusion_lat": 0.0, "lon": -77.03433633333333, "name": "a501788df510e22f4d4445dd8f75f2bb"}, {"bike_id": "857e48452ac4ef2bc8501af49be53a6e", "type": "electric_scooter", "is_disabled": 0, "lat": 38.902086, "rental_uris": {"ios": "https://dc.lft.to/lastmile_qr_scan", "android": "https://dc.lft.to/lastmile_qr_scan"}, "is_reserved": 0, "fusion_lon": 0.0, "fusion_lat": 0.0, "lon": -77.04151066666667, "name": "857e48452ac4ef2bc8501af49be53a6e"}, {"bike_id": "f33ce41d66e3f2409401f3e7b0517e90", "type": "electric_scooter", "is_disabled": 0, "lat": 38.92161016666667, "rental_uris": {"ios": "https://dc.lft.to/lastmile_qr_scan", "android": "https://dc.lft.to/lastmile_qr_scan"}, "is_reserved": 0, "fusion_lon": 0.0, "fusion_lat": 0.0, "lon": -77.03379883333334, "name": "f33ce41d66e3f2409401f3e7b0517e90"}, {"bike_id": "4db4dc66fd03c0e0060e18a8774d97d0", "type": "electric_scooter", "is_disabled": 0, "lat": 38.923219, "rental_uris": {"ios": "https://dc.lft.to/lastmile_qr_scan", "android": "https://dc.lft.to/lastmile_qr_scan"}, "is_reserved": 0, "fusion_lon": 0.0, "fusion_lat": 0.0, "lon": -77.03894983333333, "name": "4db4dc66fd03c0e0060e18a8774d97d0"}, {"bike_id": "5151481a1ad1253e9c597142a9029e9b", "type": "electric_bike", "is_disabled": 0, "lat": 38.9930725, "rental_uris": {"ios": "https://dc.lft.to/lastmile_qr_scan", "android": "https://dc.lft.to/lastmile_qr_scan"}, "is_reserved": 0, "fusion_lon": 0.0, "fusion_lat": 0.0, "lon": -77.0251035, "name": "5151481a1ad1253e9c597142a9029e9b"}, {"bike_id": "31b1496f9a8cf34827bf1967691b112b", "type": "electric_scooter", "is_disabled": 0, "lat": 38.956606666666666, "rental_uris": {"ios": "https://dc.lft.to/lastmile_qr_scan", "android": "https://dc.lft.to/lastmile_qr_scan"}, "is_reserved": 0, "fusion_lon": 0.0, "fusion_lat": 0.0, "lon": -77.024017, "name": "31b1496f9a8cf34827bf1967691b112b"}, {"bike_id": "9afc277e2ddf2c4fd4298b253e87a9f9", "type": "electric_scooter", "is_disabled": 0, "lat": 38.924270166666666, "rental_uris": {"ios": "https://dc.lft.to/lastmile_qr_scan", "android": "https://dc.lft.to/lastmile_qr_scan"}, "is_reserved": 0, "fusion_lon": 0.0, "fusion_lat": 0.0, "lon": -77.022618, "name": "9afc277e2ddf2c4fd4298b253e87a9f9"}, {"bike_id": "c877a862c57562f992c9529f26e40744", "type": "electric_scooter", "is_disabled": 0, "lat": 38.919235, "rental_uris": {"ios": "https://dc.lft.to/lastmile_qr_scan", "android": "https://dc.lft.to/lastmile_qr_scan"}, "is_reserved": 0, "fusion_lon": 0.0, "fusion_lat": 0.0, "lon": -77.02572116666667, "name": "c877a862c57562f992c9529f26e40744"}, {"bike_id": "9250cae12253d68a19abb66fdb9637ca", "type": "electric_scooter", "is_disabled": 0, "lat": 38.92095483333333, "rental_uris": {"ios": "https://dc.lft.to/lastmile_qr_scan", "android": "https://dc.lft.to/lastmile_qr_scan"}, "is_reserved": 0, "fusion_lon": 0.0, "fusion_lat": 0.0, "lon": -77.03161483333334, "name": "9250cae12253d68a19abb66fdb9637ca"}, {"bike_id": "76ffcd28cefc1c7c53c5b9c6a40862a3", "type": "electric_scooter", "is_disabled": 0, "lat": 38.8805165, "rental_uris": {"ios": "https://dc.lft.to/lastmile_qr_scan", "android": "https://dc.lft.to/lastmile_qr_scan"}, "is_reserved": 0, "fusion_lon": 0.0, "fusion_lat": 0.0, "lon": -77.00540416666666, "name": "76ffcd28cefc1c7c53c5b9c6a40862a3"}, {"bike_id": "212c2363294258685ae6001bfb5054d4", "type": "electric_scooter", "is_disabled": 0, "lat": 38.9067135, "rental_uris": {"ios": "https://dc.lft.to/lastmile_qr_scan", "android": "https://dc.lft.to/lastmile_qr_scan"}, "is_reserved": 0, "fusion_lon": 0.0, "fusion_lat": 0.0, "lon": -77.0611305, "name": "212c2363294258685ae6001bfb5054d4"}, {"bike_id": "237e97bfdd7e7dabb671113c2d012c4b", "type": "electric_bike", "is_disabled": 0, "lat": 38.85769783333333, "rental_uris": {"ios": "https://dc.lft.to/lastmile_qr_scan", "android": "https://dc.lft.to/lastmile_qr_scan"}, "is_reserved": 0, "fusion_lon": 0.0, "fusion_lat": 0.0, "lon": -76.987682, "name": "237e97bfdd7e7dabb671113c2d012c4b"}, {"bike_id": "dbfb402ba8ba16a9ea24b66380dd3830", "type": "electric_scooter", "is_disabled": 0, "lat": 38.92179016666667, "rental_uris": {"ios": "https://dc.lft.to/lastmile_qr_scan", "android": "https://dc.lft.to/lastmile_qr_scan"}, "is_reserved": 0, "fusion_lon": 0.0, "fusion_lat": 0.0, "lon": -76.99792383333333, "name": "dbfb402ba8ba16a9ea24b66380dd3830"}, {"bike_id": "c12dcd2dc3a3a2b1e7bbaf9be06e5c28", "type": "electric_scooter", "is_disabled": 0, "lat": 38.909531333333334, "rental_uris": {"ios": "https://dc.lft.to/lastmile_qr_scan", "android": "https://dc.lft.to/lastmile_qr_scan"}, "is_reserved": 0, "fusion_lon": 0.0, "fusion_lat": 0.0, "lon": -77.014234, "name": "c12dcd2dc3a3a2b1e7bbaf9be06e5c28"}, {"bike_id": "a1990e6ac93977ddb0af8f3f01d074fa", "type": "electric_scooter", "is_disabled": 0, "lat": 38.85891683333333, "rental_uris": {"ios": "https://dc.lft.to/lastmile_qr_scan", "android": "https://dc.lft.to/lastmile_qr_scan"}, "is_reserved": 0, "fusion_lon": 0.0, "fusion_lat": 0.0, "lon": -76.99727083333333, "name": "a1990e6ac93977ddb0af8f3f01d074fa"}, {"bike_id": "ee06b7d2bb84a18360b0c862b0a6c102", "type": "electric_scooter", "is_disabled": 0, "lat": 38.8781585, "rental_uris": {"ios": "https://dc.lft.to/lastmile_qr_scan", "android": "https://dc.lft.to/lastmile_qr_scan"}, "is_reserved": 0, "fusion_lon": 0.0, "fusion_lat": 0.0, "lon": -76.97170816666667, "name": "ee06b7d2bb84a18360b0c862b0a6c102"}, {"bike_id": "6550f36f024395186e4a763f01f207a7", "type": "electric_scooter", "is_disabled": 0, "lat": 38.92055833333333, "rental_uris": {"ios": "https://dc.lft.to/lastmile_qr_scan", "android": "https://dc.lft.to/lastmile_qr_scan"}, "is_reserved": 0, "fusion_lon": 0.0, "fusion_lat": 0.0, "lon": -77.02436583333333, "name": "6550f36f024395186e4a763f01f207a7"}, {"bike_id": "512f8a5ea78f71856fc0d44624d63008", "type": "electric_scooter", "is_disabled": 0, "lat": 38.88149116666666, "rental_uris": {"ios": "https://dc.lft.to/lastmile_qr_scan", "android": "https://dc.lft.to/lastmile_qr_scan"}, "is_reserved": 0, "fusion_lon": 0.0, "fusion_lat": 0.0, "lon": -77.02735083333333, "name": "512f8a5ea78f71856fc0d44624d63008"}, {"bike_id": "3d3d8be883100e2da16bfa0471710010", "type": "electric_scooter", "is_disabled": 0, "lat": 38.899834166666665, "rental_uris": {"ios": "https://dc.lft.to/lastmile_qr_scan", "android": "https://dc.lft.to/lastmile_qr_scan"}, "is_reserved": 0, "fusion_lon": 0.0, "fusion_lat": 0.0, "lon": -76.94998716666667, "name": "3d3d8be883100e2da16bfa0471710010"}, {"bike_id": "ac4274482df303e4824d07e23c4d70cd", "type": "electric_scooter", "is_disabled": 0, "lat": 38.937689166666665, "rental_uris": {"ios": "https://dc.lft.to/lastmile_qr_scan", "android": "https://dc.lft.to/lastmile_qr_scan"}, "is_reserved": 0, "fusion_lon": 0.0, "fusion_lat": 0.0, "lon": -77.01967633333334, "name": "ac4274482df303e4824d07e23c4d70cd"}, {"bike_id": "b65136406954a0b41a67d3f403404afc", "type": "electric_bike", "is_disabled": 0, "lat": 38.86367216666667, "rental_uris": {"ios": "https://dc.lft.to/lastmile_qr_scan", "android": "https://dc.lft.to/lastmile_qr_scan"}, "is_reserved": 0, "fusion_lon": 0.0, "fusion_lat": 0.0, "lon": -76.9700595, "name": "b65136406954a0b41a67d3f403404afc"}, {"bike_id": "d05dfa04563a1b89d5c1f6025c628a8a", "type": "electric_bike", "is_disabled": 0, "lat": 38.807521666666666, "rental_uris": {"ios": "https://dc.lft.to/lastmile_qr_scan", "android": "https://dc.lft.to/lastmile_qr_scan"}, "is_reserved": 0, "fusion_lon": 0.0, "fusion_lat": 0.0, "lon": -77.09450233333334, "name": "d05dfa04563a1b89d5c1f6025c628a8a"}, {"bike_id": "d3575379035a3ca893526f23f36e7158", "type": "electric_scooter", "is_disabled": 0, "lat": 38.892679666666666, "rental_uris": {"ios": "https://dc.lft.to/lastmile_qr_scan", "android": "https://dc.lft.to/lastmile_qr_scan"}, "is_reserved": 0, "fusion_lon": 0.0, "fusion_lat": 0.0, "lon": -77.02041066666666, "name": "d3575379035a3ca893526f23f36e7158"}, {"bike_id": "52b91983e7b211b319e1d8e758f4cf57", "type": "electric_bike", "is_disabled": 0, "lat": 38.86475016666667, "rental_uris": {"ios": "https://dc.lft.to/lastmile_qr_scan", "android": "https://dc.lft.to/lastmile_qr_scan"}, "is_reserved": 0, "fusion_lon": 0.0, "fusion_lat": 0.0, "lon": -76.97732283333333, "name": "52b91983e7b211b319e1d8e758f4cf57"}, {"bike_id": "586471bd67df84073e71775558d20673", "type": "electric_scooter", "is_disabled": 0, "lat": 38.917217666666666, "rental_uris": {"ios": "https://dc.lft.to/lastmile_qr_scan", "android": "https://dc.lft.to/lastmile_qr_scan"}, "is_reserved": 0, "fusion_lon": 0.0, "fusion_lat": 0.0, "lon": -77.00807666666667, "name": "586471bd67df84073e71775558d20673"}, {"bike_id": "d635b068886c8c5c03f337e53964a411", "type": "electric_scooter", "is_disabled": 0, "lat": 38.93903183333333, "rental_uris": {"ios": "https://dc.lft.to/lastmile_qr_scan", "android": "https://dc.lft.to/lastmile_qr_scan"}, "is_reserved": 0, "fusion_lon": 0.0, "fusion_lat": 0.0, "lon": -77.03325966666667, "name": "d635b068886c8c5c03f337e53964a411"}, {"bike_id": "31ed7b5e08a1209f544a9b14c973b863", "type": "electric_scooter", "is_disabled": 0, "lat": 38.9141535, "rental_uris": {"ios": "https://dc.lft.to/lastmile_qr_scan", "android": "https://dc.lft.to/lastmile_qr_scan"}, "is_reserved": 0, "fusion_lon": 0.0, "fusion_lat": 0.0, "lon": -77.039548, "name": "31ed7b5e08a1209f544a9b14c973b863"}, {"bike_id": "262ea402ec43803ce9320e0dc0a22187", "type": "electric_scooter", "is_disabled": 0, "lat": 38.9232805, "rental_uris": {"ios": "https://dc.lft.to/lastmile_qr_scan", "android": "https://dc.lft.to/lastmile_qr_scan"}, "is_reserved": 0, "fusion_lon": 0.0, "fusion_lat": 0.0, "lon": -77.00050333333333, "name": "262ea402ec43803ce9320e0dc0a22187"}, {"bike_id": "961ddcd58c075a6d969dff585aef8250", "type": "electric_scooter", "is_disabled": 0, "lat": 38.9248555, "rental_uris": {"ios": "https://dc.lft.to/lastmile_qr_scan", "android": "https://dc.lft.to/lastmile_qr_scan"}, "is_reserved": 0, "fusion_lon": 0.0, "fusion_lat": 0.0, "lon": -77.0295555, "name": "961ddcd58c075a6d969dff585aef8250"}, {"bike_id": "19a085bd41600cc5299671ef22d56131", "type": "electric_scooter", "is_disabled": 0, "lat": 38.858092, "rental_uris": {"ios": "https://dc.lft.to/lastmile_qr_scan", "android": "https://dc.lft.to/lastmile_qr_scan"}, "is_reserved": 0, "fusion_lon": 0.0, "fusion_lat": 0.0, "lon": -76.98920016666666, "name": "19a085bd41600cc5299671ef22d56131"}, {"bike_id": "4a510d8fb2cb4303c26cba3a0baceb0a", "type": "electric_scooter", "is_disabled": 0, "lat": 38.91681083333334, "rental_uris": {"ios": "https://dc.lft.to/lastmile_qr_scan", "android": "https://dc.lft.to/lastmile_qr_scan"}, "is_reserved": 0, "fusion_lon": 0.0, "fusion_lat": 0.0, "lon": -77.028819, "name": "4a510d8fb2cb4303c26cba3a0baceb0a"}, {"bike_id": "7737ef0403c46a113c70f1df8049a11f", "type": "electric_scooter", "is_disabled": 0, "lat": 38.94191266666667, "rental_uris": {"ios": "https://dc.lft.to/lastmile_qr_scan", "android": "https://dc.lft.to/lastmile_qr_scan"}, "is_reserved": 0, "fusion_lon": 0.0, "fusion_lat": 0.0, "lon": -77.0255235, "name": "7737ef0403c46a113c70f1df8049a11f"}, {"bike_id": "33188ea3207b07ef26a26c849806b69f", "type": "electric_bike", "is_disabled": 0, "lat": 38.9596325, "rental_uris": {"ios": "https://dc.lft.to/lastmile_qr_scan", "android": "https://dc.lft.to/lastmile_qr_scan"}, "is_reserved": 0, "fusion_lon": 0.0, "fusion_lat": 0.0, "lon": -76.98157016666667, "name": "33188ea3207b07ef26a26c849806b69f"}, {"bike_id": "31e3d2c888c42ebf39800d8915e4fb5f", "type": "electric_scooter", "is_disabled": 0, "lat": 38.899632, "rental_uris": {"ios": "https://dc.lft.to/lastmile_qr_scan", "android": "https://dc.lft.to/lastmile_qr_scan"}, "is_reserved": 0, "fusion_lon": 0.0, "fusion_lat": 0.0, "lon": -76.9830345, "name": "31e3d2c888c42ebf39800d8915e4fb5f"}, {"bike_id": "b608444d315b8b2b1e060c89a9087126", "type": "electric_scooter", "is_disabled": 0, "lat": 38.907802833333335, "rental_uris": {"ios": "https://dc.lft.to/lastmile_qr_scan", "android": "https://dc.lft.to/lastmile_qr_scan"}, "is_reserved": 0, "fusion_lon": 0.0, "fusion_lat": 0.0, "lon": -76.99412016666666, "name": "b608444d315b8b2b1e060c89a9087126"}, {"bike_id": "ce77a04abec0a4d430a3a4aac6581e26", "type": "electric_bike", "is_disabled": 0, "lat": 38.94363833333333, "rental_uris": {"ios": "https://dc.lft.to/lastmile_qr_scan", "android": "https://dc.lft.to/lastmile_qr_scan"}, "is_reserved": 0, "fusion_lon": 0.0, "fusion_lat": 0.0, "lon": -77.00355033333334, "name": "ce77a04abec0a4d430a3a4aac6581e26"}, {"bike_id": "8b79d4e0d0d652071cc49023838c80bf", "type": "electric_scooter", "is_disabled": 0, "lat": 38.8662745, "rental_uris": {"ios": "https://dc.lft.to/lastmile_qr_scan", "android": "https://dc.lft.to/lastmile_qr_scan"}, "is_reserved": 0, "fusion_lon": 0.0, "fusion_lat": 0.0, "lon": -76.98709133333334, "name": "8b79d4e0d0d652071cc49023838c80bf"}, {"bike_id": "230dab8f2eb9d783a9954febb985a73c", "type": "electric_scooter", "is_disabled": 0, "lat": 38.87074616666666, "rental_uris": {"ios": "https://dc.lft.to/lastmile_qr_scan", "android": "https://dc.lft.to/lastmile_qr_scan"}, "is_reserved": 0, "fusion_lon": 0.0, "fusion_lat": 0.0, "lon": -76.98127233333334, "name": "230dab8f2eb9d783a9954febb985a73c"}, {"bike_id": "72aa6b99a8892dac1ad5e8ec876d1ce9", "type": "electric_scooter", "is_disabled": 0, "lat": 38.8948415, "rental_uris": {"ios": "https://dc.lft.to/lastmile_qr_scan", "android": "https://dc.lft.to/lastmile_qr_scan"}, "is_reserved": 0, "fusion_lon": 0.0, "fusion_lat": 0.0, "lon": -76.987743, "name": "72aa6b99a8892dac1ad5e8ec876d1ce9"}, {"bike_id": "4611dd1a06120ce5428ab77f6c76fe02", "type": "electric_scooter", "is_disabled": 0, "lat": 38.93976166666667, "rental_uris": {"ios": "https://dc.lft.to/lastmile_qr_scan", "android": "https://dc.lft.to/lastmile_qr_scan"}, "is_reserved": 0, "fusion_lon": 0.0, "fusion_lat": 0.0, "lon": -77.02874183333333, "name": "4611dd1a06120ce5428ab77f6c76fe02"}, {"bike_id": "17d6e45367018e671a51464eb29fa429", "type": "electric_scooter", "is_disabled": 0, "lat": 38.901321, "rental_uris": {"ios": "https://dc.lft.to/lastmile_qr_scan", "android": "https://dc.lft.to/lastmile_qr_scan"}, "is_reserved": 0, "fusion_lon": 0.0, "fusion_lat": 0.0, "lon": -77.03841116666666, "name": "17d6e45367018e671a51464eb29fa429"}, {"bike_id": "8b877ef0b1bb303312a8ae7645884a9c", "type": "electric_scooter", "is_disabled": 0, "lat": 38.93175566666667, "rental_uris": {"ios": "https://dc.lft.to/lastmile_qr_scan", "android": "https://dc.lft.to/lastmile_qr_scan"}, "is_reserved": 0, "fusion_lon": 0.0, "fusion_lat": 0.0, "lon": -77.02834366666667, "name": "8b877ef0b1bb303312a8ae7645884a9c"}, {"bike_id": "32a586ef8bb77bafcf549185954ec057", "type": "electric_scooter", "is_disabled": 0, "lat": 38.92387266666667, "rental_uris": {"ios": "https://dc.lft.to/lastmile_qr_scan", "android": "https://dc.lft.to/lastmile_qr_scan"}, "is_reserved": 0, "fusion_lon": 0.0, "fusion_lat": 0.0, "lon": -77.03063783333333, "name": "32a586ef8bb77bafcf549185954ec057"}, {"bike_id": "a67efdc27640eb9c3eda82910c421bd6", "type": "electric_scooter", "is_disabled": 0, "lat": 38.956056833333335, "rental_uris": {"ios": "https://dc.lft.to/lastmile_qr_scan", "android": "https://dc.lft.to/lastmile_qr_scan"}, "is_reserved": 0, "fusion_lon": 0.0, "fusion_lat": 0.0, "lon": -77.00089583333333, "name": "a67efdc27640eb9c3eda82910c421bd6"}, {"bike_id": "84d66adb411d953b2c084e3584283d4f", "type": "electric_scooter", "is_disabled": 0, "lat": 38.880486833333336, "rental_uris": {"ios": "https://dc.lft.to/lastmile_qr_scan", "android": "https://dc.lft.to/lastmile_qr_scan"}, "is_reserved": 0, "fusion_lon": 0.0, "fusion_lat": 0.0, "lon": -76.93221916666667, "name": "84d66adb411d953b2c084e3584283d4f"}, {"bike_id": "d78715ffefdd561ab66c25cf562d9db4", "type": "electric_scooter", "is_disabled": 0, "lat": 38.916016166666665, "rental_uris": {"ios": "https://dc.lft.to/lastmile_qr_scan", "android": "https://dc.lft.to/lastmile_qr_scan"}, "is_reserved": 0, "fusion_lon": 0.0, "fusion_lat": 0.0, "lon": -77.00193416666667, "name": "d78715ffefdd561ab66c25cf562d9db4"}, {"bike_id": "98b85bb2e6e3dc878ddd16a797408de6", "type": "electric_scooter", "is_disabled": 0, "lat": 38.90127866666667, "rental_uris": {"ios": "https://dc.lft.to/lastmile_qr_scan", "android": "https://dc.lft.to/lastmile_qr_scan"}, "is_reserved": 0, "fusion_lon": 0.0, "fusion_lat": 0.0, "lon": -77.01889516666667, "name": "98b85bb2e6e3dc878ddd16a797408de6"}, {"bike_id": "9472bb12b775f97b5d03270625f0b08e", "type": "electric_scooter", "is_disabled": 0, "lat": 38.90072933333333, "rental_uris": {"ios": "https://dc.lft.to/lastmile_qr_scan", "android": "https://dc.lft.to/lastmile_qr_scan"}, "is_reserved": 0, "fusion_lon": 0.0, "fusion_lat": 0.0, "lon": -77.05313283333334, "name": "9472bb12b775f97b5d03270625f0b08e"}, {"bike_id": "7daf39757cfa1e743cdedee7466842a7", "type": "electric_scooter", "is_disabled": 0, "lat": 38.9266275, "rental_uris": {"ios": "https://dc.lft.to/lastmile_qr_scan", "android": "https://dc.lft.to/lastmile_qr_scan"}, "is_reserved": 0, "fusion_lon": 0.0, "fusion_lat": 0.0, "lon": -76.995332, "name": "7daf39757cfa1e743cdedee7466842a7"}, {"bike_id": "5074f2062739c9b3cdcb849b64682b30", "type": "electric_scooter", "is_disabled": 0, "lat": 38.9115465, "rental_uris": {"ios": "https://dc.lft.to/lastmile_qr_scan", "android": "https://dc.lft.to/lastmile_qr_scan"}, "is_reserved": 0, "fusion_lon": 0.0, "fusion_lat": 0.0, "lon": -77.01988716666666, "name": "5074f2062739c9b3cdcb849b64682b30"}, {"bike_id": "311f16985becaa4e32e7b0a10e38f56d", "type": "electric_bike", "is_disabled": 0, "lat": 38.859343833333334, "rental_uris": {"ios": "https://dc.lft.to/lastmile_qr_scan", "android": "https://dc.lft.to/lastmile_qr_scan"}, "is_reserved": 0, "fusion_lon": 0.0, "fusion_lat": 0.0, "lon": -77.11821033333334, "name": "311f16985becaa4e32e7b0a10e38f56d"}, {"bike_id": "415ef10497f1dafd12d69c013b934f67", "type": "electric_scooter", "is_disabled": 0, "lat": 38.91543683333333, "rental_uris": {"ios": "https://dc.lft.to/lastmile_qr_scan", "android": "https://dc.lft.to/lastmile_qr_scan"}, "is_reserved": 0, "fusion_lon": 0.0, "fusion_lat": 0.0, "lon": -77.01216816666667, "name": "415ef10497f1dafd12d69c013b934f67"}, {"bike_id": "38c2854c9cf461ce579f63e5b7e54576", "type": "electric_bike", "is_disabled": 0, "lat": 38.823671833333336, "rental_uris": {"ios": "https://dc.lft.to/lastmile_qr_scan", "android": "https://dc.lft.to/lastmile_qr_scan"}, "is_reserved": 0, "fusion_lon": 0.0, "fusion_lat": 0.0, "lon": -77.002184, "name": "38c2854c9cf461ce579f63e5b7e54576"}, {"bike_id": "67cdd6f490bed8076de8361b0e040d0d", "type": "electric_scooter", "is_disabled": 0, "lat": 38.905635333333336, "rental_uris": {"ios": "https://dc.lft.to/lastmile_qr_scan", "android": "https://dc.lft.to/lastmile_qr_scan"}, "is_reserved": 0, "fusion_lon": 0.0, "fusion_lat": 0.0, "lon": -77.03206033333333, "name": "67cdd6f490bed8076de8361b0e040d0d"}, {"bike_id": "3ae965be22c7f7e9a545f3e68353a605", "type": "electric_scooter", "is_disabled": 0, "lat": 38.920073333333335, "rental_uris": {"ios": "https://dc.lft.to/lastmile_qr_scan", "android": "https://dc.lft.to/lastmile_qr_scan"}, "is_reserved": 0, "fusion_lon": 0.0, "fusion_lat": 0.0, "lon": -76.984941, "name": "3ae965be22c7f7e9a545f3e68353a605"}, {"bike_id": "1b824c316b2543526dc64aa32853fda6", "type": "electric_scooter", "is_disabled": 0, "lat": 38.90769483333333, "rental_uris": {"ios": "https://dc.lft.to/lastmile_qr_scan", "android": "https://dc.lft.to/lastmile_qr_scan"}, "is_reserved": 0, "fusion_lon": 0.0, "fusion_lat": 0.0, "lon": -77.04341766666667, "name": "1b824c316b2543526dc64aa32853fda6"}, {"bike_id": "85e1ca5542cabc007b661844f668b22d", "type": "electric_scooter", "is_disabled": 0, "lat": 38.91709, "rental_uris": {"ios": "https://dc.lft.to/lastmile_qr_scan", "android": "https://dc.lft.to/lastmile_qr_scan"}, "is_reserved": 0, "fusion_lon": 0.0, "fusion_lat": 0.0, "lon": -77.03475316666666, "name": "85e1ca5542cabc007b661844f668b22d"}, {"bike_id": "daf7e7aeb87f26b664cb88c46ce3d9be", "type": "electric_scooter", "is_disabled": 0, "lat": 38.917057, "rental_uris": {"ios": "https://dc.lft.to/lastmile_qr_scan", "android": "https://dc.lft.to/lastmile_qr_scan"}, "is_reserved": 0, "fusion_lon": 0.0, "fusion_lat": 0.0, "lon": -77.0957645, "name": "daf7e7aeb87f26b664cb88c46ce3d9be"}, {"bike_id": "cd87d1e8164b7cc5ab85c6380d7daf0a", "type": "electric_scooter", "is_disabled": 0, "lat": 38.928066333333334, "rental_uris": {"ios": "https://dc.lft.to/lastmile_qr_scan", "android": "https://dc.lft.to/lastmile_qr_scan"}, "is_reserved": 0, "fusion_lon": 0.0, "fusion_lat": 0.0, "lon": -77.03589, "name": "cd87d1e8164b7cc5ab85c6380d7daf0a"}, {"bike_id": "178df028304bee34dd9e543ea710eb3a", "type": "electric_scooter", "is_disabled": 0, "lat": 38.925960833333335, "rental_uris": {"ios": "https://dc.lft.to/lastmile_qr_scan", "android": "https://dc.lft.to/lastmile_qr_scan"}, "is_reserved": 0, "fusion_lon": 0.0, "fusion_lat": 0.0, "lon": -77.03762916666666, "name": "178df028304bee34dd9e543ea710eb3a"}, {"bike_id": "3f3f4488d208b7681e3d365fd46e31da", "type": "electric_scooter", "is_disabled": 0, "lat": 38.915532, "rental_uris": {"ios": "https://dc.lft.to/lastmile_qr_scan", "android": "https://dc.lft.to/lastmile_qr_scan"}, "is_reserved": 0, "fusion_lon": 0.0, "fusion_lat": 0.0, "lon": -77.038188, "name": "3f3f4488d208b7681e3d365fd46e31da"}, {"bike_id": "146e52b728ae7d2aed2479f5076e627f", "type": "electric_scooter", "is_disabled": 0, "lat": 38.92771333333334, "rental_uris": {"ios": "https://dc.lft.to/lastmile_qr_scan", "android": "https://dc.lft.to/lastmile_qr_scan"}, "is_reserved": 0, "fusion_lon": 0.0, "fusion_lat": 0.0, "lon": -76.98755183333333, "name": "146e52b728ae7d2aed2479f5076e627f"}, {"bike_id": "4d41311cffa421c7f3bc640643805d3c", "type": "electric_scooter", "is_disabled": 0, "lat": 38.9573395, "rental_uris": {"ios": "https://dc.lft.to/lastmile_qr_scan", "android": "https://dc.lft.to/lastmile_qr_scan"}, "is_reserved": 0, "fusion_lon": 0.0, "fusion_lat": 0.0, "lon": -77.023933, "name": "4d41311cffa421c7f3bc640643805d3c"}, {"bike_id": "af7a5fc356c7e675b72d331834083aac", "type": "electric_scooter", "is_disabled": 0, "lat": 38.922767666666665, "rental_uris": {"ios": "https://dc.lft.to/lastmile_qr_scan", "android": "https://dc.lft.to/lastmile_qr_scan"}, "is_reserved": 0, "fusion_lon": 0.0, "fusion_lat": 0.0, "lon": -76.99458416666667, "name": "af7a5fc356c7e675b72d331834083aac"}, {"bike_id": "64565cda914db71c83abd861d8dde172", "type": "electric_bike", "is_disabled": 0, "lat": 38.91248183333333, "rental_uris": {"ios": "https://dc.lft.to/lastmile_qr_scan", "android": "https://dc.lft.to/lastmile_qr_scan"}, "is_reserved": 0, "fusion_lon": 0.0, "fusion_lat": 0.0, "lon": -77.08733883333333, "name": "64565cda914db71c83abd861d8dde172"}, {"bike_id": "8ee68a2c3fc88e68a0dabf456e83e9b2", "type": "electric_bike", "is_disabled": 0, "lat": 38.93774583333333, "rental_uris": {"ios": "https://dc.lft.to/lastmile_qr_scan", "android": "https://dc.lft.to/lastmile_qr_scan"}, "is_reserved": 0, "fusion_lon": 0.0, "fusion_lat": 0.0, "lon": -77.0190875, "name": "8ee68a2c3fc88e68a0dabf456e83e9b2"}, {"bike_id": "af5036c7d1b68e9f117a2b0e2f96fc8a", "type": "electric_scooter", "is_disabled": 0, "lat": 38.866854833333335, "rental_uris": {"ios": "https://dc.lft.to/lastmile_qr_scan", "android": "https://dc.lft.to/lastmile_qr_scan"}, "is_reserved": 0, "fusion_lon": 0.0, "fusion_lat": 0.0, "lon": -76.985746, "name": "af5036c7d1b68e9f117a2b0e2f96fc8a"}, {"bike_id": "45c688182b8f619e918b5f1767843fbb", "type": "electric_scooter", "is_disabled": 0, "lat": 38.8961355, "rental_uris": {"ios": "https://dc.lft.to/lastmile_qr_scan", "android": "https://dc.lft.to/lastmile_qr_scan"}, "is_reserved": 0, "fusion_lon": 0.0, "fusion_lat": 0.0, "lon": -77.01078616666666, "name": "45c688182b8f619e918b5f1767843fbb"}, {"bike_id": "f793591f8ebbf3caf628759c065a2e65", "type": "electric_scooter", "is_disabled": 0, "lat": 38.90405666666667, "rental_uris": {"ios": "https://dc.lft.to/lastmile_qr_scan", "android": "https://dc.lft.to/lastmile_qr_scan"}, "is_reserved": 0, "fusion_lon": 0.0, "fusion_lat": 0.0, "lon": -76.97328033333334, "name": "f793591f8ebbf3caf628759c065a2e65"}, {"bike_id": "05b4b9deb26800fe5888faadf4426b3c", "type": "electric_scooter", "is_disabled": 0, "lat": 38.898322666666665, "rental_uris": {"ios": "https://dc.lft.to/lastmile_qr_scan", "android": "https://dc.lft.to/lastmile_qr_scan"}, "is_reserved": 0, "fusion_lon": 0.0, "fusion_lat": 0.0, "lon": -76.91947283333333, "name": "05b4b9deb26800fe5888faadf4426b3c"}, {"bike_id": "cc71ac87183821bdf7e87c5697a35f53", "type": "electric_scooter", "is_disabled": 0, "lat": 38.88373383333333, "rental_uris": {"ios": "https://dc.lft.to/lastmile_qr_scan", "android": "https://dc.lft.to/lastmile_qr_scan"}, "is_reserved": 0, "fusion_lon": 0.0, "fusion_lat": 0.0, "lon": -77.0174875, "name": "cc71ac87183821bdf7e87c5697a35f53"}, {"bike_id": "66d09299da665fc3fd10ec5978c01895", "type": "electric_scooter", "is_disabled": 0, "lat": 38.9232435, "rental_uris": {"ios": "https://dc.lft.to/lastmile_qr_scan", "android": "https://dc.lft.to/lastmile_qr_scan"}, "is_reserved": 0, "fusion_lon": 0.0, "fusion_lat": 0.0, "lon": -77.02120566666666, "name": "66d09299da665fc3fd10ec5978c01895"}, {"bike_id": "b653dec2fbda5573a8f3e014e30917bc", "type": "electric_scooter", "is_disabled": 0, "lat": 38.915623333333336, "rental_uris": {"ios": "https://dc.lft.to/lastmile_qr_scan", "android": "https://dc.lft.to/lastmile_qr_scan"}, "is_reserved": 0, "fusion_lon": 0.0, "fusion_lat": 0.0, "lon": -77.020212, "name": "b653dec2fbda5573a8f3e014e30917bc"}, {"bike_id": "82266d491c34d12e07cc42259c764bac", "type": "electric_scooter", "is_disabled": 0, "lat": 38.915547333333336, "rental_uris": {"ios": "https://dc.lft.to/lastmile_qr_scan", "android": "https://dc.lft.to/lastmile_qr_scan"}, "is_reserved": 0, "fusion_lon": 0.0, "fusion_lat": 0.0, "lon": -77.03113366666666, "name": "82266d491c34d12e07cc42259c764bac"}, {"bike_id": "51c53fcae7b0aa6d132aa39d60541288", "type": "electric_scooter", "is_disabled": 0, "lat": 38.91986516666667, "rental_uris": {"ios": "https://dc.lft.to/lastmile_qr_scan", "android": "https://dc.lft.to/lastmile_qr_scan"}, "is_reserved": 0, "fusion_lon": 0.0, "fusion_lat": 0.0, "lon": -76.97301883333333, "name": "51c53fcae7b0aa6d132aa39d60541288"}, {"bike_id": "a43d4ca1821b0ad5babe12459876ab1a", "type": "electric_scooter", "is_disabled": 0, "lat": 38.907573666666664, "rental_uris": {"ios": "https://dc.lft.to/lastmile_qr_scan", "android": "https://dc.lft.to/lastmile_qr_scan"}, "is_reserved": 0, "fusion_lon": 0.0, "fusion_lat": 0.0, "lon": -77.02805283333333, "name": "a43d4ca1821b0ad5babe12459876ab1a"}, {"bike_id": "0cd1d858210b714d4c36fabca0db8c8d", "type": "electric_scooter", "is_disabled": 0, "lat": 38.904131, "rental_uris": {"ios": "https://dc.lft.to/lastmile_qr_scan", "android": "https://dc.lft.to/lastmile_qr_scan"}, "is_reserved": 0, "fusion_lon": 0.0, "fusion_lat": 0.0, "lon": -76.97328433333334, "name": "0cd1d858210b714d4c36fabca0db8c8d"}, {"bike_id": "48374ae0b6888ec87e9689785e503837", "type": "electric_scooter", "is_disabled": 0, "lat": 38.902818833333335, "rental_uris": {"ios": "https://dc.lft.to/lastmile_qr_scan", "android": "https://dc.lft.to/lastmile_qr_scan"}, "is_reserved": 0, "fusion_lon": 0.0, "fusion_lat": 0.0, "lon": -77.00329316666667, "name": "48374ae0b6888ec87e9689785e503837"}, {"bike_id": "f44955df43ac776f24c3793c9fa3daed", "type": "electric_scooter", "is_disabled": 0, "lat": 38.90949066666667, "rental_uris": {"ios": "https://dc.lft.to/lastmile_qr_scan", "android": "https://dc.lft.to/lastmile_qr_scan"}, "is_reserved": 0, "fusion_lon": 0.0, "fusion_lat": 0.0, "lon": -77.0446455, "name": "f44955df43ac776f24c3793c9fa3daed"}, {"bike_id": "dd0898ffe89790b357146660f49f2a15", "type": "electric_bike", "is_disabled": 0, "lat": 38.996751833333335, "rental_uris": {"ios": "https://dc.lft.to/lastmile_qr_scan", "android": "https://dc.lft.to/lastmile_qr_scan"}, "is_reserved": 0, "fusion_lon": 0.0, "fusion_lat": 0.0, "lon": -77.038154, "name": "dd0898ffe89790b357146660f49f2a15"}, {"bike_id": "bb21585374cfd3aa589309af76db0cd7", "type": "electric_bike", "is_disabled": 0, "lat": 38.89612833333333, "rental_uris": {"ios": "https://dc.lft.to/lastmile_qr_scan", "android": "https://dc.lft.to/lastmile_qr_scan"}, "is_reserved": 0, "fusion_lon": 0.0, "fusion_lat": 0.0, "lon": -76.90736816666667, "name": "bb21585374cfd3aa589309af76db0cd7"}, {"bike_id": "b75f0a52623e3ed4f87521e1553133b7", "type": "electric_scooter", "is_disabled": 0, "lat": 38.929025833333334, "rental_uris": {"ios": "https://dc.lft.to/lastmile_qr_scan", "android": "https://dc.lft.to/lastmile_qr_scan"}, "is_reserved": 0, "fusion_lon": 0.0, "fusion_lat": 0.0, "lon": -77.033008, "name": "b75f0a52623e3ed4f87521e1553133b7"}, {"bike_id": "60e525f55734647ac7d95b810baed258", "type": "electric_scooter", "is_disabled": 0, "lat": 38.912470666666664, "rental_uris": {"ios": "https://dc.lft.to/lastmile_qr_scan", "android": "https://dc.lft.to/lastmile_qr_scan"}, "is_reserved": 0, "fusion_lon": 0.0, "fusion_lat": 0.0, "lon": -77.0197735, "name": "60e525f55734647ac7d95b810baed258"}, {"bike_id": "650e1358bec28f2401fa4d5d1578aacc", "type": "electric_scooter", "is_disabled": 0, "lat": 38.94736433333333, "rental_uris": {"ios": "https://dc.lft.to/lastmile_qr_scan", "android": "https://dc.lft.to/lastmile_qr_scan"}, "is_reserved": 0, "fusion_lon": 0.0, "fusion_lat": 0.0, "lon": -77.0786585, "name": "650e1358bec28f2401fa4d5d1578aacc"}, {"bike_id": "af1c5861fd8fb05205deb0e5c4719dc5", "type": "electric_scooter", "is_disabled": 0, "lat": 38.920184, "rental_uris": {"ios": "https://dc.lft.to/lastmile_qr_scan", "android": "https://dc.lft.to/lastmile_qr_scan"}, "is_reserved": 0, "fusion_lon": 0.0, "fusion_lat": 0.0, "lon": -77.01284983333333, "name": "af1c5861fd8fb05205deb0e5c4719dc5"}, {"bike_id": "dcb2ecef3a3922f2e96eae5296f2f377", "type": "electric_scooter", "is_disabled": 0, "lat": 38.9148205, "rental_uris": {"ios": "https://dc.lft.to/lastmile_qr_scan", "android": "https://dc.lft.to/lastmile_qr_scan"}, "is_reserved": 0, "fusion_lon": 0.0, "fusion_lat": 0.0, "lon": -77.00279816666666, "name": "dcb2ecef3a3922f2e96eae5296f2f377"}, {"bike_id": "783f6e3d410757180b00144f457e3273", "type": "electric_bike", "is_disabled": 0, "lat": 38.873082333333336, "rental_uris": {"ios": "https://dc.lft.to/lastmile_qr_scan", "android": "https://dc.lft.to/lastmile_qr_scan"}, "is_reserved": 0, "fusion_lon": 0.0, "fusion_lat": 0.0, "lon": -77.01096383333334, "name": "783f6e3d410757180b00144f457e3273"}, {"bike_id": "fe2a627ead61ae32b040a85f854ec8ed", "type": "electric_scooter", "is_disabled": 0, "lat": 38.8986965, "rental_uris": {"ios": "https://dc.lft.to/lastmile_qr_scan", "android": "https://dc.lft.to/lastmile_qr_scan"}, "is_reserved": 0, "fusion_lon": 0.0, "fusion_lat": 0.0, "lon": -76.94663466666667, "name": "fe2a627ead61ae32b040a85f854ec8ed"}, {"bike_id": "b5e55f696a13baa366c666602fd19ccb", "type": "electric_bike", "is_disabled": 0, "lat": 38.8535345, "rental_uris": {"ios": "https://dc.lft.to/lastmile_qr_scan", "android": "https://dc.lft.to/lastmile_qr_scan"}, "is_reserved": 0, "fusion_lon": 0.0, "fusion_lat": 0.0, "lon": -77.08683966666666, "name": "b5e55f696a13baa366c666602fd19ccb"}, {"bike_id": "0f50fd7f59b42c61b0a33c71298d264e", "type": "electric_scooter", "is_disabled": 0, "lat": 38.865051666666666, "rental_uris": {"ios": "https://dc.lft.to/lastmile_qr_scan", "android": "https://dc.lft.to/lastmile_qr_scan"}, "is_reserved": 0, "fusion_lon": 0.0, "fusion_lat": 0.0, "lon": -76.98999333333333, "name": "0f50fd7f59b42c61b0a33c71298d264e"}, {"bike_id": "3c1b4dd4fe757d6bb4f9af127953dabc", "type": "electric_scooter", "is_disabled": 0, "lat": 38.91715633333333, "rental_uris": {"ios": "https://dc.lft.to/lastmile_qr_scan", "android": "https://dc.lft.to/lastmile_qr_scan"}, "is_reserved": 0, "fusion_lon": 0.0, "fusion_lat": 0.0, "lon": -77.026023, "name": "3c1b4dd4fe757d6bb4f9af127953dabc"}, {"bike_id": "048f9fee8776e5b0a990663e56923c2d", "type": "electric_scooter", "is_disabled": 0, "lat": 38.91554033333333, "rental_uris": {"ios": "https://dc.lft.to/lastmile_qr_scan", "android": "https://dc.lft.to/lastmile_qr_scan"}, "is_reserved": 0, "fusion_lon": 0.0, "fusion_lat": 0.0, "lon": -77.02562983333333, "name": "048f9fee8776e5b0a990663e56923c2d"}, {"bike_id": "ffa7b341f99ea9c2a648cf85874792c9", "type": "electric_scooter", "is_disabled": 0, "lat": 38.88082633333333, "rental_uris": {"ios": "https://dc.lft.to/lastmile_qr_scan", "android": "https://dc.lft.to/lastmile_qr_scan"}, "is_reserved": 0, "fusion_lon": 0.0, "fusion_lat": 0.0, "lon": -76.99501516666666, "name": "ffa7b341f99ea9c2a648cf85874792c9"}, {"bike_id": "2cf1b7dd4ad3c60056ffb0559263633f", "type": "electric_scooter", "is_disabled": 0, "lat": 38.939986833333336, "rental_uris": {"ios": "https://dc.lft.to/lastmile_qr_scan", "android": "https://dc.lft.to/lastmile_qr_scan"}, "is_reserved": 0, "fusion_lon": 0.0, "fusion_lat": 0.0, "lon": -77.017, "name": "2cf1b7dd4ad3c60056ffb0559263633f"}, {"bike_id": "1e4cd04688f0e799bec02a1b594dccd2", "type": "electric_scooter", "is_disabled": 0, "lat": 38.89842616666667, "rental_uris": {"ios": "https://dc.lft.to/lastmile_qr_scan", "android": "https://dc.lft.to/lastmile_qr_scan"}, "is_reserved": 0, "fusion_lon": 0.0, "fusion_lat": 0.0, "lon": -76.9463245, "name": "1e4cd04688f0e799bec02a1b594dccd2"}, {"bike_id": "61099907ebccb76470b8e2bf4675397d", "type": "electric_bike", "is_disabled": 0, "lat": 38.86157216666667, "rental_uris": {"ios": "https://dc.lft.to/lastmile_qr_scan", "android": "https://dc.lft.to/lastmile_qr_scan"}, "is_reserved": 0, "fusion_lon": 0.0, "fusion_lat": 0.0, "lon": -77.091459, "name": "61099907ebccb76470b8e2bf4675397d"}, {"bike_id": "ed31d500f4963123219655747f85ce88", "type": "electric_scooter", "is_disabled": 0, "lat": 38.912118166666666, "rental_uris": {"ios": "https://dc.lft.to/lastmile_qr_scan", "android": "https://dc.lft.to/lastmile_qr_scan"}, "is_reserved": 0, "fusion_lon": 0.0, "fusion_lat": 0.0, "lon": -77.03181266666667, "name": "ed31d500f4963123219655747f85ce88"}, {"bike_id": "4594bca3c2490a686962e0dd34e2a074", "type": "electric_scooter", "is_disabled": 0, "lat": 38.936354666666666, "rental_uris": {"ios": "https://dc.lft.to/lastmile_qr_scan", "android": "https://dc.lft.to/lastmile_qr_scan"}, "is_reserved": 0, "fusion_lon": 0.0, "fusion_lat": 0.0, "lon": -77.05878716666666, "name": "4594bca3c2490a686962e0dd34e2a074"}, {"bike_id": "0cd1dc7df76e26b625c2a5c4e2b3bca3", "type": "electric_bike", "is_disabled": 0, "lat": 38.92967733333333, "rental_uris": {"ios": "https://dc.lft.to/lastmile_qr_scan", "android": "https://dc.lft.to/lastmile_qr_scan"}, "is_reserved": 0, "fusion_lon": 0.0, "fusion_lat": 0.0, "lon": -77.18565583333333, "name": "0cd1dc7df76e26b625c2a5c4e2b3bca3"}, {"bike_id": "c9f9715e2f50176b6ad2a0ad64e2291d", "type": "electric_scooter", "is_disabled": 0, "lat": 38.9280145, "rental_uris": {"ios": "https://dc.lft.to/lastmile_qr_scan", "android": "https://dc.lft.to/lastmile_qr_scan"}, "is_reserved": 0, "fusion_lon": 0.0, "fusion_lat": 0.0, "lon": -77.02120333333333, "name": "c9f9715e2f50176b6ad2a0ad64e2291d"}, {"bike_id": "2120ec673ce69da8b511e5bb58674358", "type": "electric_scooter", "is_disabled": 0, "lat": 38.90289966666667, "rental_uris": {"ios": "https://dc.lft.to/lastmile_qr_scan", "android": "https://dc.lft.to/lastmile_qr_scan"}, "is_reserved": 0, "fusion_lon": 0.0, "fusion_lat": 0.0, "lon": -77.058005, "name": "2120ec673ce69da8b511e5bb58674358"}, {"bike_id": "43eef0bab657ed3ee99cad8f4c2d696e", "type": "electric_scooter", "is_disabled": 0, "lat": 38.9111025, "rental_uris": {"ios": "https://dc.lft.to/lastmile_qr_scan", "android": "https://dc.lft.to/lastmile_qr_scan"}, "is_reserved": 0, "fusion_lon": 0.0, "fusion_lat": 0.0, "lon": -77.0115165, "name": "43eef0bab657ed3ee99cad8f4c2d696e"}, {"bike_id": "1129efac8fc7f2891bc8eac6bf3ca148", "type": "electric_scooter", "is_disabled": 0, "lat": 38.9325235, "rental_uris": {"ios": "https://dc.lft.to/lastmile_qr_scan", "android": "https://dc.lft.to/lastmile_qr_scan"}, "is_reserved": 0, "fusion_lon": 0.0, "fusion_lat": 0.0, "lon": -77.01998283333333, "name": "1129efac8fc7f2891bc8eac6bf3ca148"}, {"bike_id": "9d8aa0bd73c45dde21e3ddc8902885fb", "type": "electric_scooter", "is_disabled": 0, "lat": 38.870703166666665, "rental_uris": {"ios": "https://dc.lft.to/lastmile_qr_scan", "android": "https://dc.lft.to/lastmile_qr_scan"}, "is_reserved": 0, "fusion_lon": 0.0, "fusion_lat": 0.0, "lon": -76.98130916666666, "name": "9d8aa0bd73c45dde21e3ddc8902885fb"}, {"bike_id": "ae33b2875deed4f65d51559089eecd9a", "type": "electric_scooter", "is_disabled": 0, "lat": 38.91630683333333, "rental_uris": {"ios": "https://dc.lft.to/lastmile_qr_scan", "android": "https://dc.lft.to/lastmile_qr_scan"}, "is_reserved": 0, "fusion_lon": 0.0, "fusion_lat": 0.0, "lon": -77.01437016666667, "name": "ae33b2875deed4f65d51559089eecd9a"}, {"bike_id": "19d611ecf62bd3c145275fc663b55998", "type": "electric_bike", "is_disabled": 0, "lat": 38.90537, "rental_uris": {"ios": "https://dc.lft.to/lastmile_qr_scan", "android": "https://dc.lft.to/lastmile_qr_scan"}, "is_reserved": 0, "fusion_lon": 0.0, "fusion_lat": 0.0, "lon": -77.059093, "name": "19d611ecf62bd3c145275fc663b55998"}, {"bike_id": "f21910f608e4e479feba518ef58345f9", "type": "electric_scooter", "is_disabled": 0, "lat": 38.9081335, "rental_uris": {"ios": "https://dc.lft.to/lastmile_qr_scan", "android": "https://dc.lft.to/lastmile_qr_scan"}, "is_reserved": 0, "fusion_lon": 0.0, "fusion_lat": 0.0, "lon": -77.031957, "name": "f21910f608e4e479feba518ef58345f9"}, {"bike_id": "47775152e945561570d3ecae75ea1cc6", "type": "electric_scooter", "is_disabled": 0, "lat": 38.96608533333333, "rental_uris": {"ios": "https://dc.lft.to/lastmile_qr_scan", "android": "https://dc.lft.to/lastmile_qr_scan"}, "is_reserved": 0, "fusion_lon": 0.0, "fusion_lat": 0.0, "lon": -77.01978116666666, "name": "47775152e945561570d3ecae75ea1cc6"}, {"bike_id": "06124967eb08efebbfcda03075f3042b", "type": "electric_scooter", "is_disabled": 0, "lat": 38.914229, "rental_uris": {"ios": "https://dc.lft.to/lastmile_qr_scan", "android": "https://dc.lft.to/lastmile_qr_scan"}, "is_reserved": 0, "fusion_lon": 0.0, "fusion_lat": 0.0, "lon": -77.02200066666667, "name": "06124967eb08efebbfcda03075f3042b"}, {"bike_id": "de9c022616ea0683cfcf71b2ad2b5e18", "type": "electric_scooter", "is_disabled": 0, "lat": 38.92047816666667, "rental_uris": {"ios": "https://dc.lft.to/lastmile_qr_scan", "android": "https://dc.lft.to/lastmile_qr_scan"}, "is_reserved": 0, "fusion_lon": 0.0, "fusion_lat": 0.0, "lon": -77.03469066666666, "name": "de9c022616ea0683cfcf71b2ad2b5e18"}, {"bike_id": "a6195d5f7c420c787c79e797797488b6", "type": "electric_scooter", "is_disabled": 0, "lat": 38.89667716666666, "rental_uris": {"ios": "https://dc.lft.to/lastmile_qr_scan", "android": "https://dc.lft.to/lastmile_qr_scan"}, "is_reserved": 0, "fusion_lon": 0.0, "fusion_lat": 0.0, "lon": -76.98810266666666, "name": "a6195d5f7c420c787c79e797797488b6"}, {"bike_id": "d0f78a8c0bed5b8fc2dfa87c7c1df797", "type": "electric_scooter", "is_disabled": 0, "lat": 38.919117666666665, "rental_uris": {"ios": "https://dc.lft.to/lastmile_qr_scan", "android": "https://dc.lft.to/lastmile_qr_scan"}, "is_reserved": 0, "fusion_lon": 0.0, "fusion_lat": 0.0, "lon": -77.04441583333333, "name": "d0f78a8c0bed5b8fc2dfa87c7c1df797"}, {"bike_id": "553dd004c59b07112322ccf22f3011b2", "type": "electric_scooter", "is_disabled": 0, "lat": 38.90836483333333, "rental_uris": {"ios": "https://dc.lft.to/lastmile_qr_scan", "android": "https://dc.lft.to/lastmile_qr_scan"}, "is_reserved": 0, "fusion_lon": 0.0, "fusion_lat": 0.0, "lon": -77.036539, "name": "553dd004c59b07112322ccf22f3011b2"}, {"bike_id": "60f4485805d4c0ed1bcf058354267ace", "type": "electric_scooter", "is_disabled": 0, "lat": 38.909712666666664, "rental_uris": {"ios": "https://dc.lft.to/lastmile_qr_scan", "android": "https://dc.lft.to/lastmile_qr_scan"}, "is_reserved": 0, "fusion_lon": 0.0, "fusion_lat": 0.0, "lon": -77.03865716666667, "name": "60f4485805d4c0ed1bcf058354267ace"}, {"bike_id": "548a87f38ebc2db428b745774e834f2e", "type": "electric_scooter", "is_disabled": 0, "lat": 38.91064266666667, "rental_uris": {"ios": "https://dc.lft.to/lastmile_qr_scan", "android": "https://dc.lft.to/lastmile_qr_scan"}, "is_reserved": 0, "fusion_lon": 0.0, "fusion_lat": 0.0, "lon": -77.05285283333333, "name": "548a87f38ebc2db428b745774e834f2e"}, {"bike_id": "f8fb5095175a77c0f4d78594d78e91a3", "type": "electric_scooter", "is_disabled": 0, "lat": 38.891974, "rental_uris": {"ios": "https://dc.lft.to/lastmile_qr_scan", "android": "https://dc.lft.to/lastmile_qr_scan"}, "is_reserved": 0, "fusion_lon": 0.0, "fusion_lat": 0.0, "lon": -77.00233283333333, "name": "f8fb5095175a77c0f4d78594d78e91a3"},