{"data": {"bikes": [{"bike_id": "c6020c8bb67a39202facb73394a9497c", "type": "electric_scooter", "is_disabled": 0, "lat": 38.91563466666667, "rental_uris": {"ios": "https://dc.lft.to/lastmile_qr_scan", "android": "https://dc.lft.to/lastmile_qr_scan"}, "is_reserved": 0, "fusion_lon": 0.0, "fusion_lat": 0.0, "lon": -77.019853, "name": "c6020c8bb67a39202facb73394a9497c"}, {"bike_id": "7b6793de61bb6de799c951eddad0a671", "type": "electric_scooter", "is_disabled": 0, "lat": 38.918119, "rental_uris": {"ios": "https://dc.lft.to/lastmile_qr_scan", "android": "https://dc.lft.to/lastmile_qr_scan"}, "is_reserved": 0, "fusion_lon": 0.0, "fusion_lat": 0.0, "lon": -77.0454125, "name": "7b6793de61bb6de799c951eddad0a671"}, {"bike_id": "83773a2df4e6082baa1cd8ce3ca0e295", "type": "electric_scooter", "is_disabled": 0, "lat": 38.91623083333333, "rental_uris": {"ios": "https://dc.lft.to/lastmile_qr_scan", "android": "https://dc.lft.to/lastmile_qr_scan"}, "is_reserved": 0, "fusion_lon": 0.0, "fusion_lat": 0.0, "lon": -77.03747383333334, "name": "83773a2df4e6082baa1cd8ce3ca0e295"}, {"bike_id": "43fa977e8fa45cc00d2175915bb0d528", "type": "electric_scooter", "is_disabled": 0, "lat": 38.9083425, "rental_uris": {"ios": "https://dc.lft.to/lastmile_qr_scan", "android": "https://dc.lft.to/lastmile_qr_scan"}, "is_reserved": 0, "fusion_lon": 0.0, "fusion_lat": 0.0, "lon": -77.00933516666667, "name": "43fa977e8fa45cc00d2175915bb0d528"}, {"bike_id": "6f1e699dc33934d87407bd55ec92eb02", "type": "electric_scooter", "is_disabled": 0, "lat": 38.86469316666667, "rental_uris": {"ios": "https://dc.lft.to/lastmile_qr_scan", "android": "https://dc.lft.to/lastmile_qr_scan"}, "is_reserved": 0, "fusion_lon": 0.0, "fusion_lat": 0.0, "lon": -76.97453, "name": "6f1e699dc33934d87407bd55ec92eb02"}, {"bike_id": "50a0f054895bc2254ed86f83aeb4eeac", "type": "electric_scooter", "is_disabled": 0, "lat": 38.920676, "rental_uris": {"ios": "https://dc.lft.to/lastmile_qr_scan", "android": "https://dc.lft.to/lastmile_qr_scan"}, "is_reserved": 0, "fusion_lon": 0.0, "fusion_lat": 0.0, "lon": -77.02399316666667, "name": "50a0f054895bc2254ed86f83aeb4eeac"}, {"bike_id": "b05ec38839a394232e1d669a4deed1b9", "type": "electric_scooter", "is_disabled": 0, "lat": 38.90726183333334, "rental_uris": {"ios": "https://dc.lft.to/lastmile_qr_scan", "android": "https://dc.lft.to/lastmile_qr_scan"}, "is_reserved": 0, "fusion_lon": 0.0, "fusion_lat": 0.0, "lon": -77.042371, "name": "b05ec38839a394232e1d669a4deed1b9"}, {"bike_id": "6543a8ba00542d1573aa219f76bbfffe", "type": "electric_scooter", "is_disabled": 0, "lat": 38.920087333333335, "rental_uris": {"ios": "https://dc.lft.to/lastmile_qr_scan", "android": "https://dc.lft.to/lastmile_qr_scan"}, "is_reserved": 0, "fusion_lon": 0.0, "fusion_lat": 0.0, "lon": -77.0204315, "name": "6543a8ba00542d1573aa219f76bbfffe"}, {"bike_id": "9ff61d923f4e2ba8cf8029c4b2822c3e", "type": "electric_scooter", "is_disabled": 0, "lat": 38.95684933333333, "rental_uris": {"ios": "https://dc.lft.to/lastmile_qr_scan", "android": "https://dc.lft.to/lastmile_qr_scan"}, "is_reserved": 0, "fusion_lon": 0.0, "fusion_lat": 0.0, "lon": -77.024018, "name": "9ff61d923f4e2ba8cf8029c4b2822c3e"}, {"bike_id": "d96f9986e95b66288eaf611a85ba0183", "type": "electric_scooter", "is_disabled": 0, "lat": 38.885011666666664, "rental_uris": {"ios": "https://dc.lft.to/lastmile_qr_scan", "android": "https://dc.lft.to/lastmile_qr_scan"}, "is_reserved": 0, "fusion_lon": 0.0, "fusion_lat": 0.0, "lon": -77.01515583333334, "name": "d96f9986e95b66288eaf611a85ba0183"}, {"bike_id": "d7e435e048c708339263a06b7aed5cb8", "type": "electric_scooter", "is_disabled": 0, "lat": 38.9306995, "rental_uris": {"ios": "https://dc.lft.to/lastmile_qr_scan", "android": "https://dc.lft.to/lastmile_qr_scan"}, "is_reserved": 0, "fusion_lon": 0.0, "fusion_lat": 0.0, "lon": -77.02167433333334, "name": "d7e435e048c708339263a06b7aed5cb8"}, {"bike_id": "6656c69001c6d66c8691c373edc37495", "type": "electric_scooter", "is_disabled": 0, "lat": 38.92428533333333, "rental_uris": {"ios": "https://dc.lft.to/lastmile_qr_scan", "android": "https://dc.lft.to/lastmile_qr_scan"}, "is_reserved": 0, "fusion_lon": 0.0, "fusion_lat": 0.0, "lon": -77.0224375, "name": "6656c69001c6d66c8691c373edc37495"}, {"bike_id": "2e6e6eaa2b5357512408ae63a4db5957", "type": "electric_scooter", "is_disabled": 0, "lat": 38.917101, "rental_uris": {"ios": "https://dc.lft.to/lastmile_qr_scan", "android": "https://dc.lft.to/lastmile_qr_scan"}, "is_reserved": 0, "fusion_lon": 0.0, "fusion_lat": 0.0, "lon": -77.02463133333333, "name": "2e6e6eaa2b5357512408ae63a4db5957"}, {"bike_id": "a1ee3f6feda169457c31789a8c673cd0", "type": "electric_scooter", "is_disabled": 0, "lat": 38.874657166666665, "rental_uris": {"ios": "https://dc.lft.to/lastmile_qr_scan", "android": "https://dc.lft.to/lastmile_qr_scan"}, "is_reserved": 0, "fusion_lon": 0.0, "fusion_lat": 0.0, "lon": -77.01892083333334, "name": "a1ee3f6feda169457c31789a8c673cd0"}, {"bike_id": "9bc2a09fcaa353714023cbc441042ae8", "type": "electric_scooter", "is_disabled": 0, "lat": 38.91695466666667, "rental_uris": {"ios": "https://dc.lft.to/lastmile_qr_scan", "android": "https://dc.lft.to/lastmile_qr_scan"}, "is_reserved": 0, "fusion_lon": 0.0, "fusion_lat": 0.0, "lon": -77.00795016666666, "name": "9bc2a09fcaa353714023cbc441042ae8"}, {"bike_id": "7653899431e47b716115af0b266caed3", "type": "electric_scooter", "is_disabled": 0, "lat": 38.901171166666664, "rental_uris": {"ios": "https://dc.lft.to/lastmile_qr_scan", "android": "https://dc.lft.to/lastmile_qr_scan"}, "is_reserved": 0, "fusion_lon": 0.0, "fusion_lat": 0.0, "lon": -77.02013966666667, "name": "7653899431e47b716115af0b266caed3"}, {"bike_id": "b12fc8d751a86809de20e7ce9d2e3c82", "type": "electric_scooter", "is_disabled": 0, "lat": 38.907393666666664, "rental_uris": {"ios": "https://dc.lft.to/lastmile_qr_scan", "android": "https://dc.lft.to/lastmile_qr_scan"}, "is_reserved": 0, "fusion_lon": 0.0, "fusion_lat": 0.0, "lon": -77.02401933333333, "name": "b12fc8d751a86809de20e7ce9d2e3c82"}, {"bike_id": "c7f4cc628127b41d373f7dc033bc21eb", "type": "electric_scooter", "is_disabled": 0, "lat": 38.910523833333336, "rental_uris": {"ios": "https://dc.lft.to/lastmile_qr_scan", "android": "https://dc.lft.to/lastmile_qr_scan"}, "is_reserved": 0, "fusion_lon": 0.0, "fusion_lat": 0.0, "lon": -77.03085166666666, "name": "c7f4cc628127b41d373f7dc033bc21eb"}, {"bike_id": "c023b202eeb9d05510ffbea456b06c53", "type": "electric_scooter", "is_disabled": 0, "lat": 38.902657833333336, "rental_uris": {"ios": "https://dc.lft.to/lastmile_qr_scan", "android": "https://dc.lft.to/lastmile_qr_scan"}, "is_reserved": 0, "fusion_lon": 0.0, "fusion_lat": 0.0, "lon": -77.04805733333333, "name": "c023b202eeb9d05510ffbea456b06c53"}, {"bike_id": "08138f01ca0a61bd80fecd1b0d22c916", "type": "electric_scooter", "is_disabled": 0, "lat": 38.9233955, "rental_uris": {"ios": "https://dc.lft.to/lastmile_qr_scan", "android": "https://dc.lft.to/lastmile_qr_scan"}, "is_reserved": 0, "fusion_lon": 0.0, "fusion_lat": 0.0, "lon": -77.05072283333334, "name": "08138f01ca0a61bd80fecd1b0d22c916"}, {"bike_id": "1ae4f5cda836400b5301f7117068d57a", "type": "electric_scooter", "is_disabled": 0, "lat": 38.919124333333336, "rental_uris": {"ios": "https://dc.lft.to/lastmile_qr_scan", "android": "https://dc.lft.to/lastmile_qr_scan"}, "is_reserved": 0, "fusion_lon": 0.0, "fusion_lat": 0.0, "lon": -77.032164, "name": "1ae4f5cda836400b5301f7117068d57a"}, {"bike_id": "10ead948fb2ea6ba8bb5fceadb5c89bd", "type": "electric_scooter", "is_disabled": 0, "lat": 38.95725683333333, "rental_uris": {"ios": "https://dc.lft.to/lastmile_qr_scan", "android": "https://dc.lft.to/lastmile_qr_scan"}, "is_reserved": 0, "fusion_lon": 0.0, "fusion_lat": 0.0, "lon": -77.0240555, "name": "10ead948fb2ea6ba8bb5fceadb5c89bd"}, {"bike_id": "c4a6dbc64518de3e576ff61390315d06", "type": "electric_scooter", "is_disabled": 0, "lat": 38.88241433333334, "rental_uris": {"ios": "https://dc.lft.to/lastmile_qr_scan", "android": "https://dc.lft.to/lastmile_qr_scan"}, "is_reserved": 0, "fusion_lon": 0.0, "fusion_lat": 0.0, "lon": -76.99120516666666, "name": "c4a6dbc64518de3e576ff61390315d06"}, {"bike_id": "f49a7dd2a9a6416f9fe11ff6b093f858", "type": "electric_scooter", "is_disabled": 0, "lat": 38.902512333333334, "rental_uris": {"ios": "https://dc.lft.to/lastmile_qr_scan", "android": "https://dc.lft.to/lastmile_qr_scan"}, "is_reserved": 0, "fusion_lon": 0.0, "fusion_lat": 0.0, "lon": -77.03947783333334, "name": "f49a7dd2a9a6416f9fe11ff6b093f858"}, {"bike_id": "cd93303383ce867d419273236550ef43", "type": "electric_scooter", "is_disabled": 0, "lat": 38.916101166666664, "rental_uris": {"ios": "https://dc.lft.to/lastmile_qr_scan", "android": "https://dc.lft.to/lastmile_qr_scan"}, "is_reserved": 0, "fusion_lon": 0.0, "fusion_lat": 0.0, "lon": -77.0460775, "name": "cd93303383ce867d419273236550ef43"}, {"bike_id": "0d194b444fbf05f473e6d808c8ca7142", "type": "electric_scooter", "is_disabled": 0, "lat": 38.912633, "rental_uris": {"ios": "https://dc.lft.to/lastmile_qr_scan", "android": "https://dc.lft.to/lastmile_qr_scan"}, "is_reserved": 0, "fusion_lon": 0.0, "fusion_lat": 0.0, "lon": -77.07341233333334, "name": "0d194b444fbf05f473e6d808c8ca7142"}, {"bike_id": "42969c9fcc3d445052d791592bc29d78", "type": "electric_scooter", "is_disabled": 0, "lat": 38.9095215, "rental_uris": {"ios": "https://dc.lft.to/lastmile_qr_scan", "android": "https://dc.lft.to/lastmile_qr_scan"}, "is_reserved": 0, "fusion_lon": 0.0, "fusion_lat": 0.0, "lon": -77.04458133333333, "name": "42969c9fcc3d445052d791592bc29d78"}, {"bike_id": "6547dc851dc4e507b1e8b350bb066879", "type": "electric_scooter", "is_disabled": 0, "lat": 38.917053333333335, "rental_uris": {"ios": "https://dc.lft.to/lastmile_qr_scan", "android": "https://dc.lft.to/lastmile_qr_scan"}, "is_reserved": 0, "fusion_lon": 0.0, "fusion_lat": 0.0, "lon": -77.02972116666666, "name": "6547dc851dc4e507b1e8b350bb066879"}, {"bike_id": "56d971bbf17638de98d673f4754dcccc", "type": "electric_scooter", "is_disabled": 0, "lat": 38.913728666666664, "rental_uris": {"ios": "https://dc.lft.to/lastmile_qr_scan", "android": "https://dc.lft.to/lastmile_qr_scan"}, "is_reserved": 0, "fusion_lon": 0.0, "fusion_lat": 0.0, "lon": -77.04136733333333, "name": "56d971bbf17638de98d673f4754dcccc"}, {"bike_id": "442c94bbb0b66c3d2b6ab34d2070165c", "type": "electric_scooter", "is_disabled": 0, "lat": 38.929103833333336, "rental_uris": {"ios": "https://dc.lft.to/lastmile_qr_scan", "android": "https://dc.lft.to/lastmile_qr_scan"}, "is_reserved": 0, "fusion_lon": 0.0, "fusion_lat": 0.0, "lon": -77.01665233333334, "name": "442c94bbb0b66c3d2b6ab34d2070165c"}, {"bike_id": "b0cf5bb9de6bfffd21608fc00f5bccbc", "type": "electric_scooter", "is_disabled": 0, "lat": 38.900891666666666, "rental_uris": {"ios": "https://dc.lft.to/lastmile_qr_scan", "android": "https://dc.lft.to/lastmile_qr_scan"}, "is_reserved": 0, "fusion_lon": 0.0, "fusion_lat": 0.0, "lon": -77.04761316666666, "name": "b0cf5bb9de6bfffd21608fc00f5bccbc"}, {"bike_id": "44b7a38cd7f2a091830b84e734941a59", "type": "electric_scooter", "is_disabled": 0, "lat": 38.8999075, "rental_uris": {"ios": "https://dc.lft.to/lastmile_qr_scan", "android": "https://dc.lft.to/lastmile_qr_scan"}, "is_reserved": 0, "fusion_lon": 0.0, "fusion_lat": 0.0, "lon": -77.00648066666666, "name": "44b7a38cd7f2a091830b84e734941a59"}, {"bike_id": "1a8fafe74bf74ad4be721de92a4003c0", "type": "electric_scooter", "is_disabled": 0, "lat": 38.91088583333333, "rental_uris": {"ios": "https://dc.lft.to/lastmile_qr_scan", "android": "https://dc.lft.to/lastmile_qr_scan"}, "is_reserved": 0, "fusion_lon": 0.0, "fusion_lat": 0.0, "lon": -77.03840233333334, "name": "1a8fafe74bf74ad4be721de92a4003c0"}, {"bike_id": "eeda42b6f81269f44aaa4761090e8079", "type": "electric_scooter", "is_disabled": 0, "lat": 38.91042916666667, "rental_uris": {"ios": "https://dc.lft.to/lastmile_qr_scan", "android": "https://dc.lft.to/lastmile_qr_scan"}, "is_reserved": 0, "fusion_lon": 0.0, "fusion_lat": 0.0, "lon": -77.01323666666667, "name": "eeda42b6f81269f44aaa4761090e8079"}, {"bike_id": "afc2f29a407fefd8a55fd73bb46542fd", "type": "electric_scooter", "is_disabled": 0, "lat": 38.90821033333334, "rental_uris": {"ios": "https://dc.lft.to/lastmile_qr_scan", "android": "https://dc.lft.to/lastmile_qr_scan"}, "is_reserved": 0, "fusion_lon": 0.0, "fusion_lat": 0.0, "lon": -76.941585, "name": "afc2f29a407fefd8a55fd73bb46542fd"}, {"bike_id": "f0925eedd95f5ba40042579add5a5fbf", "type": "electric_scooter", "is_disabled": 0, "lat": 38.916764666666666, "rental_uris": {"ios": "https://dc.lft.to/lastmile_qr_scan", "android": "https://dc.lft.to/lastmile_qr_scan"}, "is_reserved": 0, "fusion_lon": 0.0, "fusion_lat": 0.0, "lon": -77.03195833333334, "name": "f0925eedd95f5ba40042579add5a5fbf"}, {"bike_id": "8b2e5d9422f6b20dca961755dc3d728b", "type": "electric_bike", "is_disabled": 0, "lat": 38.8727325, "rental_uris": {"ios": "https://dc.lft.to/lastmile_qr_scan", "android": "https://dc.lft.to/lastmile_qr_scan"}, "is_reserved": 0, "fusion_lon": 0.0, "fusion_lat": 0.0, "lon": -77.23330383333334, "name": "8b2e5d9422f6b20dca961755dc3d728b"}, {"bike_id": "52b30746322d20b623f6db8f3eff56cf", "type": "electric_scooter", "is_disabled": 0, "lat": 38.9271615, "rental_uris": {"ios": "https://dc.lft.to/lastmile_qr_scan", "android": "https://dc.lft.to/lastmile_qr_scan"}, "is_reserved": 0, "fusion_lon": 0.0, "fusion_lat": 0.0, "lon": -77.03987833333333, "name": "52b30746322d20b623f6db8f3eff56cf"}, {"bike_id": "93767e798c146b0f74bfeb4c56dec301", "type": "electric_scooter", "is_disabled": 0, "lat": 38.9066385, "rental_uris": {"ios": "https://dc.lft.to/lastmile_qr_scan", "android": "https://dc.lft.to/lastmile_qr_scan"}, "is_reserved": 0, "fusion_lon": 0.0, "fusion_lat": 0.0, "lon": -77.027086, "name": "93767e798c146b0f74bfeb4c56dec301"}, {"bike_id": "733c1d993595d985a5d9f9f314ee42e5", "type": "electric_scooter", "is_disabled": 0, "lat": 38.9428575, "rental_uris": {"ios": "https://dc.lft.to/lastmile_qr_scan", "android": "https://dc.lft.to/lastmile_qr_scan"}, "is_reserved": 0, "fusion_lon": 0.0, "fusion_lat": 0.0, "lon": -77.021685, "name": "733c1d993595d985a5d9f9f314ee42e5"}, {"bike_id": "eca5ec722993236c872049209f7fbd0d", "type": "electric_bike", "is_disabled": 0, "lat": 38.83423283333333, "rental_uris": {"ios": "https://dc.lft.to/lastmile_qr_scan", "android": "https://dc.lft.to/lastmile_qr_scan"}, "is_reserved": 0, "fusion_lon": 0.0, "fusion_lat": 0.0, "lon": -77.1035245, "name": "eca5ec722993236c872049209f7fbd0d"}, {"bike_id": "9c1c33f7981fe613a382eb2e81d5071a", "type": "electric_scooter", "is_disabled": 0, "lat": 38.905545833333335, "rental_uris": {"ios": "https://dc.lft.to/lastmile_qr_scan", "android": "https://dc.lft.to/lastmile_qr_scan"}, "is_reserved": 0, "fusion_lon": 0.0, "fusion_lat": 0.0, "lon": -76.98857266666667, "name": "9c1c33f7981fe613a382eb2e81d5071a"}, {"bike_id": "a22635b9c6f854e714d29733c2c0be56", "type": "electric_scooter", "is_disabled": 0, "lat": 38.95663966666667, "rental_uris": {"ios": "https://dc.lft.to/lastmile_qr_scan", "android": "https://dc.lft.to/lastmile_qr_scan"}, "is_reserved": 0, "fusion_lon": 0.0, "fusion_lat": 0.0, "lon": -77.0104055, "name": "a22635b9c6f854e714d29733c2c0be56"}, {"bike_id": "8217c0641b8b045ffaea176b83d9adcf", "type": "electric_scooter", "is_disabled": 0, "lat": 38.911140333333336, "rental_uris": {"ios": "https://dc.lft.to/lastmile_qr_scan", "android": "https://dc.lft.to/lastmile_qr_scan"}, "is_reserved": 0, "fusion_lon": 0.0, "fusion_lat": 0.0, "lon": -77.02237016666666, "name": "8217c0641b8b045ffaea176b83d9adcf"}, {"bike_id": "8a6ab7ff1ecd9ae2f387c9641be4d93b", "type": "electric_scooter", "is_disabled": 0, "lat": 38.901376666666664, "rental_uris": {"ios": "https://dc.lft.to/lastmile_qr_scan", "android": "https://dc.lft.to/lastmile_qr_scan"}, "is_reserved": 0, "fusion_lon": 0.0, "fusion_lat": 0.0, "lon": -77.0149565, "name": "8a6ab7ff1ecd9ae2f387c9641be4d93b"}, {"bike_id": "5e6352787aff0b11825da76ea1817c65", "type": "electric_scooter", "is_disabled": 0, "lat": 38.9136155, "rental_uris": {"ios": "https://dc.lft.to/lastmile_qr_scan", "android": "https://dc.lft.to/lastmile_qr_scan"}, "is_reserved": 0, "fusion_lon": 0.0, "fusion_lat": 0.0, "lon": -77.06933583333333, "name": "5e6352787aff0b11825da76ea1817c65"}, {"bike_id": "c8a04bc5e9332c2be3641d3bfb35b4a8", "type": "electric_scooter", "is_disabled": 0, "lat": 38.920706833333334, "rental_uris": {"ios": "https://dc.lft.to/lastmile_qr_scan", "android": "https://dc.lft.to/lastmile_qr_scan"}, "is_reserved": 0, "fusion_lon": 0.0, "fusion_lat": 0.0, "lon": -77.02400583333333, "name": "c8a04bc5e9332c2be3641d3bfb35b4a8"}, {"bike_id": "f11ada276a9bd1040ea02a6dcbc7a8c8", "type": "electric_scooter", "is_disabled": 0, "lat": 38.9227215, "rental_uris": {"ios": "https://dc.lft.to/lastmile_qr_scan", "android": "https://dc.lft.to/lastmile_qr_scan"}, "is_reserved": 0, "fusion_lon": 0.0, "fusion_lat": 0.0, "lon": -77.0219025, "name": "f11ada276a9bd1040ea02a6dcbc7a8c8"}, {"bike_id": "80fd7ae5a26fc33b660edbb325e8f52f", "type": "electric_bike", "is_disabled": 0, "lat": 38.900434833333335, "rental_uris": {"ios": "https://dc.lft.to/lastmile_qr_scan", "android": "https://dc.lft.to/lastmile_qr_scan"}, "is_reserved": 0, "fusion_lon": 0.0, "fusion_lat": 0.0, "lon": -76.99018583333333, "name": "80fd7ae5a26fc33b660edbb325e8f52f"}, {"bike_id": "b097f4189f5669f74bfb8bdb45e3847e", "type": "electric_scooter", "is_disabled": 0, "lat": 38.906848833333335, "rental_uris": {"ios": "https://dc.lft.to/lastmile_qr_scan", "android": "https://dc.lft.to/lastmile_qr_scan"}, "is_reserved": 0, "fusion_lon": 0.0, "fusion_lat": 0.0, "lon": -77.0532965, "name": "b097f4189f5669f74bfb8bdb45e3847e"}, {"bike_id": "d755086182a6bc98bf596a1b295986d5", "type": "electric_scooter", "is_disabled": 0, "lat": 38.9451995, "rental_uris": {"ios": "https://dc.lft.to/lastmile_qr_scan", "android": "https://dc.lft.to/lastmile_qr_scan"}, "is_reserved": 0, "fusion_lon": 0.0, "fusion_lat": 0.0, "lon": -77.02086883333334, "name": "d755086182a6bc98bf596a1b295986d5"}, {"bike_id": "6d4b6cd31904707e3780e5e7b1f98d3b", "type": "electric_scooter", "is_disabled": 0, "lat": 38.912623833333335, "rental_uris": {"ios": "https://dc.lft.to/lastmile_qr_scan", "android": "https://dc.lft.to/lastmile_qr_scan"}, "is_reserved": 0, "fusion_lon": 0.0, "fusion_lat": 0.0, "lon": -77.031415, "name": "6d4b6cd31904707e3780e5e7b1f98d3b"}, {"bike_id": "97ede9f87bfa40bbc2d9f633abeb95dd", "type": "electric_scooter", "is_disabled": 0, "lat": 38.918157, "rental_uris": {"ios": "https://dc.lft.to/lastmile_qr_scan", "android": "https://dc.lft.to/lastmile_qr_scan"}, "is_reserved": 0, "fusion_lon": 0.0, "fusion_lat": 0.0, "lon": -77.049526, "name": "97ede9f87bfa40bbc2d9f633abeb95dd"}, {"bike_id": "7b7437e80519c30b48b4adf6b4469e73", "type": "electric_scooter", "is_disabled": 0, "lat": 38.916899666666666, "rental_uris": {"ios": "https://dc.lft.to/lastmile_qr_scan", "android": "https://dc.lft.to/lastmile_qr_scan"}, "is_reserved": 0, "fusion_lon": 0.0, "fusion_lat": 0.0, "lon": -77.00489633333333, "name": "7b7437e80519c30b48b4adf6b4469e73"}, {"bike_id": "f9a8708907385a909f7368fbe633f25d", "type": "electric_scooter", "is_disabled": 0, "lat": 38.916673333333335, "rental_uris": {"ios": "https://dc.lft.to/lastmile_qr_scan", "android": "https://dc.lft.to/lastmile_qr_scan"}, "is_reserved": 0, "fusion_lon": 0.0, "fusion_lat": 0.0, "lon": -77.027125, "name": "f9a8708907385a909f7368fbe633f25d"}, {"bike_id": "5b185077b0962fb406b9ef0a3a178742", "type": "electric_scooter", "is_disabled": 0, "lat": 38.8760325, "rental_uris": {"ios": "https://dc.lft.to/lastmile_qr_scan", "android": "https://dc.lft.to/lastmile_qr_scan"}, "is_reserved": 0, "fusion_lon": 0.0, "fusion_lat": 0.0, "lon": -77.0161705, "name": "5b185077b0962fb406b9ef0a3a178742"}, {"bike_id": "2449c8f06820198296c7b2afff31129b", "type": "electric_scooter", "is_disabled": 0, "lat": 38.862412, "rental_uris": {"ios": "https://dc.lft.to/lastmile_qr_scan", "android": "https://dc.lft.to/lastmile_qr_scan"}, "is_reserved": 0, "fusion_lon": 0.0, "fusion_lat": 0.0, "lon": -76.994917, "name": "2449c8f06820198296c7b2afff31129b"}, {"bike_id": "7f8922d830b2ed3a17022c73d5b69185", "type": "electric_bike", "is_disabled": 0, "lat": 38.8973875, "rental_uris": {"ios": "https://dc.lft.to/lastmile_qr_scan", "android": "https://dc.lft.to/lastmile_qr_scan"}, "is_reserved": 0, "fusion_lon": 0.0, "fusion_lat": 0.0, "lon": -76.920475, "name": "7f8922d830b2ed3a17022c73d5b69185"}, {"bike_id": "a5ec0f9c81e5b49b1cc93a8a42dadd70", "type": "electric_scooter", "is_disabled": 0, "lat": 38.91748, "rental_uris": {"ios": "https://dc.lft.to/lastmile_qr_scan", "android": "https://dc.lft.to/lastmile_qr_scan"}, "is_reserved": 0, "fusion_lon": 0.0, "fusion_lat": 0.0, "lon": -77.04156483333334, "name": "a5ec0f9c81e5b49b1cc93a8a42dadd70"}, {"bike_id": "bf93b07b5ebebb72795832c7d380816a", "type": "electric_scooter", "is_disabled": 0, "lat": 38.892116666666666, "rental_uris": {"ios": "https://dc.lft.to/lastmile_qr_scan", "android": "https://dc.lft.to/lastmile_qr_scan"}, "is_reserved": 0, "fusion_lon": 0.0, "fusion_lat": 0.0, "lon": -77.02583433333334, "name": "bf93b07b5ebebb72795832c7d380816a"}, {"bike_id": "8492b58d22444753a56704e0c859bc4c", "type": "electric_scooter", "is_disabled": 0, "lat": 38.9220375, "rental_uris": {"ios": "https://dc.lft.to/lastmile_qr_scan", "android": "https://dc.lft.to/lastmile_qr_scan"}, "is_reserved": 0, "fusion_lon": 0.0, "fusion_lat": 0.0, "lon": -77.03286483333333, "name": "8492b58d22444753a56704e0c859bc4c"}, {"bike_id": "f16187c6b786bea5bb053b98bf9e43f3", "type": "electric_scooter", "is_disabled": 0, "lat": 38.905873666666665, "rental_uris": {"ios": "https://dc.lft.to/lastmile_qr_scan", "android": "https://dc.lft.to/lastmile_qr_scan"}, "is_reserved": 0, "fusion_lon": 0.0, "fusion_lat": 0.0, "lon": -77.06714266666667, "name": "f16187c6b786bea5bb053b98bf9e43f3"}, {"bike_id": "b64a6ed569d88fa4f3963d71dd077161", "type": "electric_scooter", "is_disabled": 0, "lat": 38.90629833333333, "rental_uris": {"ios": "https://dc.lft.to/lastmile_qr_scan", "android": "https://dc.lft.to/lastmile_qr_scan"}, "is_reserved": 0, "fusion_lon": 0.0, "fusion_lat": 0.0, "lon": -76.99309816666667, "name": "b64a6ed569d88fa4f3963d71dd077161"}, {"bike_id": "cba34d48ddc356286028ec5480a224cc", "type": "electric_scooter", "is_disabled": 0, "lat": 38.917029166666666, "rental_uris": {"ios": "https://dc.lft.to/lastmile_qr_scan", "android": "https://dc.lft.to/lastmile_qr_scan"}, "is_reserved": 0, "fusion_lon": 0.0, "fusion_lat": 0.0, "lon": -77.0246945, "name": "cba34d48ddc356286028ec5480a224cc"}, {"bike_id": "527d1ff842d1a0029ab5da52ef7e8757", "type": "electric_bike", "is_disabled": 0, "lat": 38.870279, "rental_uris": {"ios": "https://dc.lft.to/lastmile_qr_scan", "android": "https://dc.lft.to/lastmile_qr_scan"}, "is_reserved": 0, "fusion_lon": 0.0, "fusion_lat": 0.0, "lon": -77.13216533333333, "name": "527d1ff842d1a0029ab5da52ef7e8757"}, {"bike_id": "468db17af0e99c4168752677a30d15a0", "type": "electric_scooter", "is_disabled": 0, "lat": 38.9106355, "rental_uris": {"ios": "https://dc.lft.to/lastmile_qr_scan", "android": "https://dc.lft.to/lastmile_qr_scan"}, "is_reserved": 0, "fusion_lon": 0.0, "fusion_lat": 0.0, "lon": -77.00919183333333, "name": "468db17af0e99c4168752677a30d15a0"}, {"bike_id": "69a9023585c821f15e1098c81f3a3a43", "type": "electric_scooter", "is_disabled": 0, "lat": 38.91635683333333, "rental_uris": {"ios": "https://dc.lft.to/lastmile_qr_scan", "android": "https://dc.lft.to/lastmile_qr_scan"}, "is_reserved": 0, "fusion_lon": 0.0, "fusion_lat": 0.0, "lon": -77.03989116666666, "name": "69a9023585c821f15e1098c81f3a3a43"}, {"bike_id": "d7dc88da09ba880f1725b3371b9872d2", "type": "electric_scooter", "is_disabled": 0, "lat": 38.951682166666664, "rental_uris": {"ios": "https://dc.lft.to/lastmile_qr_scan", "android": "https://dc.lft.to/lastmile_qr_scan"}, "is_reserved": 0, "fusion_lon": 0.0, "fusion_lat": 0.0, "lon": -77.0254765, "name": "d7dc88da09ba880f1725b3371b9872d2"}, {"bike_id": "408c324e670b1de58a36490504840b48", "type": "electric_scooter", "is_disabled": 0, "lat": 38.925563333333336, "rental_uris": {"ios": "https://dc.lft.to/lastmile_qr_scan", "android": "https://dc.lft.to/lastmile_qr_scan"}, "is_reserved": 0, "fusion_lon": 0.0, "fusion_lat": 0.0, "lon": -77.05252733333333, "name": "408c324e670b1de58a36490504840b48"}, {"bike_id": "410225a4c4047297a0952b9fbb33c02e", "type": "electric_scooter", "is_disabled": 0, "lat": 38.882667166666664, "rental_uris": {"ios": "https://dc.lft.to/lastmile_qr_scan", "android": "https://dc.lft.to/lastmile_qr_scan"}, "is_reserved": 0, "fusion_lon": 0.0, "fusion_lat": 0.0, "lon": -76.99250783333333, "name": "410225a4c4047297a0952b9fbb33c02e"}, {"bike_id": "ee3b2e8848ed59d9ca2400e34ae5e6be", "type": "electric_scooter", "is_disabled": 0, "lat": 38.930076, "rental_uris": {"ios": "https://dc.lft.to/lastmile_qr_scan", "android": "https://dc.lft.to/lastmile_qr_scan"}, "is_reserved": 0, "fusion_lon": 0.0, "fusion_lat": 0.0, "lon": -77.02355783333333, "name": "ee3b2e8848ed59d9ca2400e34ae5e6be"}, {"bike_id": "fe64b011b685d996eff21c94b3ba32a7", "type": "electric_scooter", "is_disabled": 0, "lat": 38.906803833333335, "rental_uris": {"ios": "https://dc.lft.to/lastmile_qr_scan", "android": "https://dc.lft.to/lastmile_qr_scan"}, "is_reserved": 0, "fusion_lon": 0.0, "fusion_lat": 0.0, "lon": -77.063397, "name": "fe64b011b685d996eff21c94b3ba32a7"}, {"bike_id": "73f0f2b19a184b2dc8836d36bec3c2c0", "type": "electric_scooter", "is_disabled": 0, "lat": 38.90830616666667, "rental_uris": {"ios": "https://dc.lft.to/lastmile_qr_scan", "android": "https://dc.lft.to/lastmile_qr_scan"}, "is_reserved": 0, "fusion_lon": 0.0, "fusion_lat": 0.0, "lon": -77.023841, "name": "73f0f2b19a184b2dc8836d36bec3c2c0"}, {"bike_id": "1275070a754fbf346315b74ab12b6bdc", "type": "electric_scooter", "is_disabled": 0, "lat": 38.913787, "rental_uris": {"ios": "https://dc.lft.to/lastmile_qr_scan", "android": "https://dc.lft.to/lastmile_qr_scan"}, "is_reserved": 0, "fusion_lon": 0.0, "fusion_lat": 0.0, "lon": -77.0321195, "name": "1275070a754fbf346315b74ab12b6bdc"}, {"bike_id": "26ddc1a39ce88ba1f6b9413102272cd7", "type": "electric_scooter", "is_disabled": 0, "lat": 38.911910666666664, "rental_uris": {"ios": "https://dc.lft.to/lastmile_qr_scan", "android": "https://dc.lft.to/lastmile_qr_scan"}, "is_reserved": 0, "fusion_lon": 0.0, "fusion_lat": 0.0, "lon": -77.02337983333334, "name": "26ddc1a39ce88ba1f6b9413102272cd7"}, {"bike_id": "8ae2d64781c75dec764d31a3e432266a", "type": "electric_scooter", "is_disabled": 0, "lat": 38.9071115, "rental_uris": {"ios": "https://dc.lft.to/lastmile_qr_scan", "android": "https://dc.lft.to/lastmile_qr_scan"}, "is_reserved": 0, "fusion_lon": 0.0, "fusion_lat": 0.0, "lon": -77.0317955, "name": "8ae2d64781c75dec764d31a3e432266a"}, {"bike_id": "1f6d540223fa2e9cd5a96721366f9d22", "type": "electric_scooter", "is_disabled": 0, "lat": 38.902716833333336, "rental_uris": {"ios": "https://dc.lft.to/lastmile_qr_scan", "android": "https://dc.lft.to/lastmile_qr_scan"}, "is_reserved": 0, "fusion_lon": 0.0, "fusion_lat": 0.0, "lon": -77.03434666666666, "name": "1f6d540223fa2e9cd5a96721366f9d22"}, {"bike_id": "06a87c2dadcc7241cb7ab6c458dfa3b1", "type": "electric_scooter", "is_disabled": 0, "lat": 38.91858466666667, "rental_uris": {"ios": "https://dc.lft.to/lastmile_qr_scan", "android": "https://dc.lft.to/lastmile_qr_scan"}, "is_reserved": 0, "fusion_lon": 0.0, "fusion_lat": 0.0, "lon": -77.04154866666667, "name": "06a87c2dadcc7241cb7ab6c458dfa3b1"}, {"bike_id": "26b8c92bb6cee31bdf90d1552da580a7", "type": "electric_scooter", "is_disabled": 0, "lat": 38.88047383333333, "rental_uris": {"ios": "https://dc.lft.to/lastmile_qr_scan", "android": "https://dc.lft.to/lastmile_qr_scan"}, "is_reserved": 0, "fusion_lon": 0.0, "fusion_lat": 0.0, "lon": -77.00548883333333, "name": "26b8c92bb6cee31bdf90d1552da580a7"}, {"bike_id": "39a434d60addb6ee297b7bc7d0d4b233", "type": "electric_scooter", "is_disabled": 0, "lat": 38.90195166666667, "rental_uris": {"ios": "https://dc.lft.to/lastmile_qr_scan", "android": "https://dc.lft.to/lastmile_qr_scan"}, "is_reserved": 0, "fusion_lon": 0.0, "fusion_lat": 0.0, "lon": -77.01304966666666, "name": "39a434d60addb6ee297b7bc7d0d4b233"}, {"bike_id": "3e6370d7a887b90ebe82c77890208d8d", "type": "electric_scooter", "is_disabled": 0, "lat": 38.928713333333334, "rental_uris": {"ios": "https://dc.lft.to/lastmile_qr_scan", "android": "https://dc.lft.to/lastmile_qr_scan"}, "is_reserved": 0, "fusion_lon": 0.0, "fusion_lat": 0.0, "lon": -77.012302, "name": "3e6370d7a887b90ebe82c77890208d8d"}, {"bike_id": "3391cc03fb992ebaec379f205f75b4be", "type": "electric_bike", "is_disabled": 0, "lat": 39.01477216666667, "rental_uris": {"ios": "https://dc.lft.to/lastmile_qr_scan", "android": "https://dc.lft.to/lastmile_qr_scan"}, "is_reserved": 0, "fusion_lon": 0.0, "fusion_lat": 0.0, "lon": -77.05496716666667, "name": "3391cc03fb992ebaec379f205f75b4be"}, {"bike_id": "d179e9fe48206f3d3007b8cd8ee466c7", "type": "electric_scooter", "is_disabled": 0, "lat": 38.91769583333333, "rental_uris": {"ios": "https://dc.lft.to/lastmile_qr_scan", "android": "https://dc.lft.to/lastmile_qr_scan"}, "is_reserved": 0, "fusion_lon": 0.0, "fusion_lat": 0.0, "lon": -77.03570766666667, "name": "d179e9fe48206f3d3007b8cd8ee466c7"}, {"bike_id": "40a2ecd62851e116674b06c8e4e1c65c", "type": "electric_scooter", "is_disabled": 0, "lat": 38.92042933333333, "rental_uris": {"ios": "https://dc.lft.to/lastmile_qr_scan", "android": "https://dc.lft.to/lastmile_qr_scan"}, "is_reserved": 0, "fusion_lon": 0.0, "fusion_lat": 0.0, "lon": -77.02401433333333, "name": "40a2ecd62851e116674b06c8e4e1c65c"}, {"bike_id": "ae685ad9177d032a36ca48d8d5b2befd", "type": "electric_scooter", "is_disabled": 0, "lat": 38.901216, "rental_uris": {"ios": "https://dc.lft.to/lastmile_qr_scan", "android": "https://dc.lft.to/lastmile_qr_scan"}, "is_reserved": 0, "fusion_lon": 0.0, "fusion_lat": 0.0, "lon": -77.043287, "name": "ae685ad9177d032a36ca48d8d5b2befd"}, {"bike_id": "ae23f8edf41f29c502f9c670462626bc", "type": "electric_scooter", "is_disabled": 0, "lat": 38.912400166666664, "rental_uris": {"ios": "https://dc.lft.to/lastmile_qr_scan", "android": "https://dc.lft.to/lastmile_qr_scan"}, "is_reserved": 0, "fusion_lon": 0.0, "fusion_lat": 0.0, "lon": -77.03407716666666, "name": "ae23f8edf41f29c502f9c670462626bc"}, {"bike_id": "9f8d95cde03d4b6e8941c9729f435c66", "type": "electric_bike", "is_disabled": 0, "lat": 38.97874066666667, "rental_uris": {"ios": "https://dc.lft.to/lastmile_qr_scan", "android": "https://dc.lft.to/lastmile_qr_scan"}, "is_reserved": 0, "fusion_lon": 0.0, "fusion_lat": 0.0, "lon": -77.06026, "name": "9f8d95cde03d4b6e8941c9729f435c66"}, {"bike_id": "6cd3e21babed09832d9df00f18e203ce", "type": "electric_scooter", "is_disabled": 0, "lat": 38.904942166666665, "rental_uris": {"ios": "https://dc.lft.to/lastmile_qr_scan", "android": "https://dc.lft.to/lastmile_qr_scan"}, "is_reserved": 0, "fusion_lon": 0.0, "fusion_lat": 0.0, "lon": -77.06117583333334, "name": "6cd3e21babed09832d9df00f18e203ce"}, {"bike_id": "e5359a1a96e0796518947d4540dd20f0", "type": "electric_scooter", "is_disabled": 0, "lat": 38.90461883333333, "rental_uris": {"ios": "https://dc.lft.to/lastmile_qr_scan", "android": "https://dc.lft.to/lastmile_qr_scan"}, "is_reserved": 0, "fusion_lon": 0.0, "fusion_lat": 0.0, "lon": -77.0168945, "name": "e5359a1a96e0796518947d4540dd20f0"}, {"bike_id": "634d5fa7d8b8d809994d12f35e1261a3", "type": "electric_scooter", "is_disabled": 0, "lat": 38.944879666666665, "rental_uris": {"ios": "https://dc.lft.to/lastmile_qr_scan", "android": "https://dc.lft.to/lastmile_qr_scan"}, "is_reserved": 0, "fusion_lon": 0.0, "fusion_lat": 0.0, "lon": -77.026206, "name": "634d5fa7d8b8d809994d12f35e1261a3"}, {"bike_id": "e9e6d6c14bc5e10ac444f41533aecd75", "type": "electric_scooter", "is_disabled": 0, "lat": 38.916496, "rental_uris": {"ios": "https://dc.lft.to/lastmile_qr_scan", "android": "https://dc.lft.to/lastmile_qr_scan"}, "is_reserved": 0, "fusion_lon": 0.0, "fusion_lat": 0.0, "lon": -77.03439233333333, "name": "e9e6d6c14bc5e10ac444f41533aecd75"}, {"bike_id": "655173f33b564ac4188c0b766e21acea", "type": "electric_scooter", "is_disabled": 0, "lat": 38.92375783333333, "rental_uris": {"ios": "https://dc.lft.to/lastmile_qr_scan", "android": "https://dc.lft.to/lastmile_qr_scan"}, "is_reserved": 0, "fusion_lon": 0.0, "fusion_lat": 0.0, "lon": -77.02685516666666, "name": "655173f33b564ac4188c0b766e21acea"}, {"bike_id": "6150ac740e6ba3daa9a5d164dc1b03a3", "type": "electric_scooter", "is_disabled": 0, "lat": 38.93482, "rental_uris": {"ios": "https://dc.lft.to/lastmile_qr_scan", "android": "https://dc.lft.to/lastmile_qr_scan"}, "is_reserved": 0, "fusion_lon": 0.0, "fusion_lat": 0.0, "lon": -77.03283033333334, "name": "6150ac740e6ba3daa9a5d164dc1b03a3"}, {"bike_id": "c48dc312c1e5ce06cec7a82ee86183cc", "type": "electric_scooter", "is_disabled": 0, "lat": 38.91071916666667, "rental_uris": {"ios": "https://dc.lft.to/lastmile_qr_scan", "android": "https://dc.lft.to/lastmile_qr_scan"}, "is_reserved": 0, "fusion_lon": 0.0, "fusion_lat": 0.0, "lon": -77.00143916666667, "name": "c48dc312c1e5ce06cec7a82ee86183cc"}, {"bike_id": "dcf6f37f080b7a1c914fcb56c08f8bc0", "type": "electric_scooter", "is_disabled": 0, "lat": 38.917435166666664, "rental_uris": {"ios": "https://dc.lft.to/lastmile_qr_scan", "android": "https://dc.lft.to/lastmile_qr_scan"}, "is_reserved": 0, "fusion_lon": 0.0, "fusion_lat": 0.0, "lon": -77.04169916666666, "name": "dcf6f37f080b7a1c914fcb56c08f8bc0"}, {"bike_id": "c98db3a43e40412e9cb03c911eea6e1c", "type": "electric_scooter", "is_disabled": 0, "lat": 38.9259825, "rental_uris": {"ios": "https://dc.lft.to/lastmile_qr_scan", "android": "https://dc.lft.to/lastmile_qr_scan"}, "is_reserved": 0, "fusion_lon": 0.0, "fusion_lat": 0.0, "lon": -77.02160866666667, "name": "c98db3a43e40412e9cb03c911eea6e1c"}, {"bike_id": "8d2b3c9d0f300f338145139c4ee15971", "type": "electric_scooter", "is_disabled": 0, "lat": 38.92581633333333, "rental_uris": {"ios": "https://dc.lft.to/lastmile_qr_scan", "android": "https://dc.lft.to/lastmile_qr_scan"}, "is_reserved": 0, "fusion_lon": 0.0, "fusion_lat": 0.0, "lon": -77.027606, "name": "8d2b3c9d0f300f338145139c4ee15971"}, {"bike_id": "eec7eb7870ce4a98e2b8db24d574baab", "type": "electric_scooter", "is_disabled": 0, "lat": 38.93708, "rental_uris": {"ios": "https://dc.lft.to/lastmile_qr_scan", "android": "https://dc.lft.to/lastmile_qr_scan"}, "is_reserved": 0, "fusion_lon": 0.0, "fusion_lat": 0.0, "lon": -77.03632383333333, "name": "eec7eb7870ce4a98e2b8db24d574baab"}, {"bike_id": "b839f7e84ba58e6e1cefcc87f8ff0b2f", "type": "electric_scooter", "is_disabled": 0, "lat": 38.9232495, "rental_uris": {"ios": "https://dc.lft.to/lastmile_qr_scan", "android": "https://dc.lft.to/lastmile_qr_scan"}, "is_reserved": 0, "fusion_lon": 0.0, "fusion_lat": 0.0, "lon": -77.04621333333333, "name": "b839f7e84ba58e6e1cefcc87f8ff0b2f"}, {"bike_id": "bca53009777ff137831640f097f11ae1", "type": "electric_scooter", "is_disabled": 0, "lat": 38.926623, "rental_uris": {"ios": "https://dc.lft.to/lastmile_qr_scan", "android": "https://dc.lft.to/lastmile_qr_scan"}, "is_reserved": 0, "fusion_lon": 0.0, "fusion_lat": 0.0, "lon": -77.0532715, "name": "bca53009777ff137831640f097f11ae1"}, {"bike_id": "924eaa7470490964ed2286fa1de0935d", "type": "electric_scooter", "is_disabled": 0, "lat": 38.880122666666665, "rental_uris": {"ios": "https://dc.lft.to/lastmile_qr_scan", "android": "https://dc.lft.to/lastmile_qr_scan"}, "is_reserved": 0, "fusion_lon": 0.0, "fusion_lat": 0.0, "lon": -76.93108583333333, "name": "924eaa7470490964ed2286fa1de0935d"}, {"bike_id": "4da88a20d447ce36fd30336af2085f4e", "type": "electric_scooter", "is_disabled": 0, "lat": 38.8336625, "rental_uris": {"ios": "https://dc.lft.to/lastmile_qr_scan", "android": "https://dc.lft.to/lastmile_qr_scan"}, "is_reserved": 0, "fusion_lon": 0.0, "fusion_lat": 0.0, "lon": -76.9966025, "name": "4da88a20d447ce36fd30336af2085f4e"}, {"bike_id": "faed76d63931ef9c674d0291d04c1c58", "type": "electric_scooter", "is_disabled": 0, "lat": 38.91109066666667, "rental_uris": {"ios": "https://dc.lft.to/lastmile_qr_scan", "android": "https://dc.lft.to/lastmile_qr_scan"}, "is_reserved": 0, "fusion_lon": 0.0, "fusion_lat": 0.0, "lon": -77.03325216666667, "name": "faed76d63931ef9c674d0291d04c1c58"}, {"bike_id": "e15f16e82415e1e9b577a85fc33c7c55", "type": "electric_scooter", "is_disabled": 0, "lat": 38.914926, "rental_uris": {"ios": "https://dc.lft.to/lastmile_qr_scan", "android": "https://dc.lft.to/lastmile_qr_scan"}, "is_reserved": 0, "fusion_lon": 0.0, "fusion_lat": 0.0, "lon": -77.04547516666666, "name": "e15f16e82415e1e9b577a85fc33c7c55"}, {"bike_id": "35442e25a8d6c5aa1f142ba532a9dbaa", "type": "electric_scooter", "is_disabled": 0, "lat": 38.911356, "rental_uris": {"ios": "https://dc.lft.to/lastmile_qr_scan", "android": "https://dc.lft.to/lastmile_qr_scan"}, "is_reserved": 0, "fusion_lon": 0.0, "fusion_lat": 0.0, "lon": -77.0319945, "name": "35442e25a8d6c5aa1f142ba532a9dbaa"}, {"bike_id": "5e5eba5eb0ab03f9525dd9d69e3ae4c1", "type": "electric_scooter", "is_disabled": 0, "lat": 38.911172666666666, "rental_uris": {"ios": "https://dc.lft.to/lastmile_qr_scan", "android": "https://dc.lft.to/lastmile_qr_scan"}, "is_reserved": 0, "fusion_lon": 0.0, "fusion_lat": 0.0, "lon": -77.02718016666667, "name": "5e5eba5eb0ab03f9525dd9d69e3ae4c1"}, {"bike_id": "d9b31196f3d678a07acd68390988ad8f", "type": "electric_scooter", "is_disabled": 0, "lat": 38.915460833333334, "rental_uris": {"ios": "https://dc.lft.to/lastmile_qr_scan", "android": "https://dc.lft.to/lastmile_qr_scan"}, "is_reserved": 0, "fusion_lon": 0.0, "fusion_lat": 0.0, "lon": -77.03681016666667, "name": "d9b31196f3d678a07acd68390988ad8f"}, {"bike_id": "fd202ce109913535b913a90d49b9cf93", "type": "electric_scooter", "is_disabled": 0, "lat": 38.90729483333333, "rental_uris": {"ios": "https://dc.lft.to/lastmile_qr_scan", "android": "https://dc.lft.to/lastmile_qr_scan"}, "is_reserved": 0, "fusion_lon": 0.0, "fusion_lat": 0.0, "lon": -77.027994, "name": "fd202ce109913535b913a90d49b9cf93"}, {"bike_id": "4fcfbcac9c48ffdb4dd5cf4f751e076e", "type": "electric_scooter", "is_disabled": 0, "lat": 38.9125415, "rental_uris": {"ios": "https://dc.lft.to/lastmile_qr_scan", "android": "https://dc.lft.to/lastmile_qr_scan"}, "is_reserved": 0, "fusion_lon": 0.0, "fusion_lat": 0.0, "lon": -77.03861233333333, "name": "4fcfbcac9c48ffdb4dd5cf4f751e076e"}, {"bike_id": "0ec9e2babfc927d066910e4951a7187e", "type": "electric_scooter", "is_disabled": 0, "lat": 38.92825216666667, "rental_uris": {"ios": "https://dc.lft.to/lastmile_qr_scan", "android": "https://dc.lft.to/lastmile_qr_scan"}, "is_reserved": 0, "fusion_lon": 0.0, "fusion_lat": 0.0, "lon": -77.03720883333334, "name": "0ec9e2babfc927d066910e4951a7187e"}, {"bike_id": "774bb96720ee9869b8b7f6b9792ad377", "type": "electric_scooter", "is_disabled": 0, "lat": 38.911117833333336, "rental_uris": {"ios": "https://dc.lft.to/lastmile_qr_scan", "android": "https://dc.lft.to/lastmile_qr_scan"}, "is_reserved": 0, "fusion_lon": 0.0, "fusion_lat": 0.0, "lon": -77.04157916666666, "name": "774bb96720ee9869b8b7f6b9792ad377"}, {"bike_id": "fada570cadf067f825818b2aecbff951", "type": "electric_bike", "is_disabled": 0, "lat": 38.86515983333334, "rental_uris": {"ios": "https://dc.lft.to/lastmile_qr_scan", "android": "https://dc.lft.to/lastmile_qr_scan"}, "is_reserved": 0, "fusion_lon": 0.0, "fusion_lat": 0.0, "lon": -76.97342333333333, "name": "fada570cadf067f825818b2aecbff951"}, {"bike_id": "066dc1493a4197d56668fef379a4c756", "type": "electric_scooter", "is_disabled": 0, "lat": 38.89356, "rental_uris": {"ios": "https://dc.lft.to/lastmile_qr_scan", "android": "https://dc.lft.to/lastmile_qr_scan"}, "is_reserved": 0, "fusion_lon": 0.0, "fusion_lat": 0.0, "lon": -76.94933983333334, "name": "066dc1493a4197d56668fef379a4c756"}, {"bike_id": "912648d429e5eb2b90c09d77e1ad3d51", "type": "electric_scooter", "is_disabled": 0, "lat": 38.92170483333334, "rental_uris": {"ios": "https://dc.lft.to/lastmile_qr_scan", "android": "https://dc.lft.to/lastmile_qr_scan"}, "is_reserved": 0, "fusion_lon": 0.0, "fusion_lat": 0.0, "lon": -77.04001433333333, "name": "912648d429e5eb2b90c09d77e1ad3d51"}, {"bike_id": "db4e399c1d59f6d90f8086112b1cd69f", "type": "electric_scooter", "is_disabled": 0, "lat": 38.914125, "rental_uris": {"ios": "https://dc.lft.to/lastmile_qr_scan", "android": "https://dc.lft.to/lastmile_qr_scan"}, "is_reserved": 0, "fusion_lon": 0.0, "fusion_lat": 0.0, "lon": -77.039019, "name": "db4e399c1d59f6d90f8086112b1cd69f"}, {"bike_id": "928be781a45dc7cad5827a8918e108ad", "type": "electric_scooter", "is_disabled": 0, "lat": 38.879475, "rental_uris": {"ios": "https://dc.lft.to/lastmile_qr_scan", "android": "https://dc.lft.to/lastmile_qr_scan"}, "is_reserved": 0, "fusion_lon": 0.0, "fusion_lat": 0.0, "lon": -77.0236005, "name": "928be781a45dc7cad5827a8918e108ad"}, {"bike_id": "5eb602b79404852a20774166f7949db9", "type": "electric_scooter", "is_disabled": 0, "lat": 38.921187833333335, "rental_uris": {"ios": "https://dc.lft.to/lastmile_qr_scan", "android": "https://dc.lft.to/lastmile_qr_scan"}, "is_reserved": 0, "fusion_lon": 0.0, "fusion_lat": 0.0, "lon": -77.04425966666666, "name": "5eb602b79404852a20774166f7949db9"}, {"bike_id": "26e6055d38b21995cee69eddf1687b52", "type": "electric_scooter", "is_disabled": 0, "lat": 38.91566683333333, "rental_uris": {"ios": "https://dc.lft.to/lastmile_qr_scan", "android": "https://dc.lft.to/lastmile_qr_scan"}, "is_reserved": 0, "fusion_lon": 0.0, "fusion_lat": 0.0, "lon": -77.03197683333333, "name": "26e6055d38b21995cee69eddf1687b52"}, {"bike_id": "e71a0e684f600e6274ba348654642dd5", "type": "electric_bike", "is_disabled": 0, "lat": 38.82377483333333, "rental_uris": {"ios": "https://dc.lft.to/lastmile_qr_scan", "android": "https://dc.lft.to/lastmile_qr_scan"}, "is_reserved": 0, "fusion_lon": 0.0, "fusion_lat": 0.0, "lon": -77.00226666666667, "name": "e71a0e684f600e6274ba348654642dd5"}, {"bike_id": "1923595e602685479112350b788dc2ee", "type": "electric_scooter", "is_disabled": 0, "lat": 38.91537616666667, "rental_uris": {"ios": "https://dc.lft.to/lastmile_qr_scan", "android": "https://dc.lft.to/lastmile_qr_scan"}, "is_reserved": 0, "fusion_lon": 0.0, "fusion_lat": 0.0, "lon": -76.9700725, "name": "1923595e602685479112350b788dc2ee"}, {"bike_id": "52a0ff843c925700f255c317001737b9", "type": "electric_scooter", "is_disabled": 0, "lat": 38.92159566666667, "rental_uris": {"ios": "https://dc.lft.to/lastmile_qr_scan", "android": "https://dc.lft.to/lastmile_qr_scan"}, "is_reserved": 0, "fusion_lon": 0.0, "fusion_lat": 0.0, "lon": -77.03247666666667, "name": "52a0ff843c925700f255c317001737b9"}, {"bike_id": "07a6c571639efb14fc94eb5371c306a8", "type": "electric_bike", "is_disabled": 0, "lat": 38.882343666666664, "rental_uris": {"ios": "https://dc.lft.to/lastmile_qr_scan", "android": "https://dc.lft.to/lastmile_qr_scan"}, "is_reserved": 0, "fusion_lon": 0.0, "fusion_lat": 0.0, "lon": -76.96252416666667, "name": "07a6c571639efb14fc94eb5371c306a8"}, {"bike_id": "a9f89a6fead8d469407af147ea134291", "type": "electric_scooter", "is_disabled": 0, "lat": 38.90010183333333, "rental_uris": {"ios": "https://dc.lft.to/lastmile_qr_scan", "android": "https://dc.lft.to/lastmile_qr_scan"}, "is_reserved": 0, "fusion_lon": 0.0, "fusion_lat": 0.0, "lon": -76.99616333333333, "name": "a9f89a6fead8d469407af147ea134291"}, {"bike_id": "68b2109b27e96ebf31665b89ae4bc729", "type": "electric_scooter", "is_disabled": 0, "lat": 38.906445833333336, "rental_uris": {"ios": "https://dc.lft.to/lastmile_qr_scan", "android": "https://dc.lft.to/lastmile_qr_scan"}, "is_reserved": 0, "fusion_lon": 0.0, "fusion_lat": 0.0, "lon": -77.041681, "name": "68b2109b27e96ebf31665b89ae4bc729"}, {"bike_id": "e7f1c8c872f051a3cdf749038276b94a", "type": "electric_scooter", "is_disabled": 0, "lat": 38.917403, "rental_uris": {"ios": "https://dc.lft.to/lastmile_qr_scan", "android": "https://dc.lft.to/lastmile_qr_scan"}, "is_reserved": 0, "fusion_lon": 0.0, "fusion_lat": 0.0, "lon": -77.04173683333333, "name": "e7f1c8c872f051a3cdf749038276b94a"}, {"bike_id": "fdba1d743023570bb46f39f4af1010ab", "type": "electric_scooter", "is_disabled": 0, "lat": 38.90660333333334, "rental_uris": {"ios": "https://dc.lft.to/lastmile_qr_scan", "android": "https://dc.lft.to/lastmile_qr_scan"}, "is_reserved": 0, "fusion_lon": 0.0, "fusion_lat": 0.0, "lon": -77.0711375, "name": "fdba1d743023570bb46f39f4af1010ab"}, {"bike_id": "465512b510dc31804c675503b85e50a2", "type": "electric_bike", "is_disabled": 0, "lat": 39.04303266666667, "rental_uris": {"ios": "https://dc.lft.to/lastmile_qr_scan", "android": "https://dc.lft.to/lastmile_qr_scan"}, "is_reserved": 0, "fusion_lon": 0.0, "fusion_lat": 0.0, "lon": -77.051584, "name": "465512b510dc31804c675503b85e50a2"}, {"bike_id": "d11c3e29314146bfbed04f88121010b1", "type": "electric_scooter", "is_disabled": 0, "lat": 38.90089966666667, "rental_uris": {"ios": "https://dc.lft.to/lastmile_qr_scan", "android": "https://dc.lft.to/lastmile_qr_scan"}, "is_reserved": 0, "fusion_lon": 0.0, "fusion_lat": 0.0, "lon": -77.024009, "name": "d11c3e29314146bfbed04f88121010b1"}, {"bike_id": "5431f3aef9cb61320b1dd90c476d7c61", "type": "electric_scooter", "is_disabled": 0, "lat": 38.90815216666667, "rental_uris": {"ios": "https://dc.lft.to/lastmile_qr_scan", "android": "https://dc.lft.to/lastmile_qr_scan"}, "is_reserved": 0, "fusion_lon": 0.0, "fusion_lat": 0.0, "lon": -77.03941383333333, "name": "5431f3aef9cb61320b1dd90c476d7c61"}, {"bike_id": "773f3a0295b1fe8b5cdfc38eb4896c8e", "type": "electric_scooter", "is_disabled": 0, "lat": 38.914015666666664, "rental_uris": {"ios": "https://dc.lft.to/lastmile_qr_scan", "android": "https://dc.lft.to/lastmile_qr_scan"}, "is_reserved": 0, "fusion_lon": 0.0, "fusion_lat": 0.0, "lon": -77.02658916666667, "name": "773f3a0295b1fe8b5cdfc38eb4896c8e"}, {"bike_id": "7fae2e2e4d2464ea9162dc756c164997", "type": "electric_scooter", "is_disabled": 0, "lat": 38.91151133333334, "rental_uris": {"ios": "https://dc.lft.to/lastmile_qr_scan", "android": "https://dc.lft.to/lastmile_qr_scan"}, "is_reserved": 0, "fusion_lon": 0.0, "fusion_lat": 0.0, "lon": -77.0228565, "name": "7fae2e2e4d2464ea9162dc756c164997"}, {"bike_id": "f57fd62b43f95f9bf4f3a238cc29d9fe", "type": "electric_scooter", "is_disabled": 0, "lat": 38.90063033333333, "rental_uris": {"ios": "https://dc.lft.to/lastmile_qr_scan", "android": "https://dc.lft.to/lastmile_qr_scan"}, "is_reserved": 0, "fusion_lon": 0.0, "fusion_lat": 0.0, "lon": -76.9274405, "name": "f57fd62b43f95f9bf4f3a238cc29d9fe"}, {"bike_id": "0344f6ae9600ccfceb857871cc177973", "type": "electric_scooter", "is_disabled": 0, "lat": 38.9640145, "rental_uris": {"ios": "https://dc.lft.to/lastmile_qr_scan", "android": "https://dc.lft.to/lastmile_qr_scan"}, "is_reserved": 0, "fusion_lon": 0.0, "fusion_lat": 0.0, "lon": -77.02760816666667, "name": "0344f6ae9600ccfceb857871cc177973"}, {"bike_id": "e12145bbf024838d6efddc7c2a1d443a", "type": "electric_bike", "is_disabled": 0, "lat": 38.966112, "rental_uris": {"ios": "https://dc.lft.to/lastmile_qr_scan", "android": "https://dc.lft.to/lastmile_qr_scan"}, "is_reserved": 0, "fusion_lon": 0.0, "fusion_lat": 0.0, "lon": -77.03428833333334, "name": "e12145bbf024838d6efddc7c2a1d443a"}, {"bike_id": "5fbf389a6521030fd0ecd7ceafe4d35f", "type": "electric_scooter", "is_disabled": 0, "lat": 38.90241833333333, "rental_uris": {"ios": "https://dc.lft.to/lastmile_qr_scan", "android": "https://dc.lft.to/lastmile_qr_scan"}, "is_reserved": 0, "fusion_lon": 0.0, "fusion_lat": 0.0, "lon": -77.03966716666666, "name": "5fbf389a6521030fd0ecd7ceafe4d35f"}, {"bike_id": "3512eeb8680367be8a74224358a960af", "type": "electric_scooter", "is_disabled": 0, "lat": 38.90475466666667, "rental_uris": {"ios": "https://dc.lft.to/lastmile_qr_scan", "android": "https://dc.lft.to/lastmile_qr_scan"}, "is_reserved": 0, "fusion_lon": 0.0, "fusion_lat": 0.0, "lon": -77.05347133333333, "name": "3512eeb8680367be8a74224358a960af"}, {"bike_id": "d0035c7d851a28b8e1fbf9cb90a841e0", "type": "electric_scooter", "is_disabled": 0, "lat": 38.88700683333333, "rental_uris": {"ios": "https://dc.lft.to/lastmile_qr_scan", "android": "https://dc.lft.to/lastmile_qr_scan"}, "is_reserved": 0, "fusion_lon": 0.0, "fusion_lat": 0.0, "lon": -77.02208416666667, "name": "d0035c7d851a28b8e1fbf9cb90a841e0"}, {"bike_id": "704d75ef04c2dd5b1a5d0f41555af0fa", "type": "electric_scooter", "is_disabled": 0, "lat": 38.919138833333335, "rental_uris": {"ios": "https://dc.lft.to/lastmile_qr_scan", "android": "https://dc.lft.to/lastmile_qr_scan"}, "is_reserved": 0, "fusion_lon": 0.0, "fusion_lat": 0.0, "lon": -77.04245783333333, "name": "704d75ef04c2dd5b1a5d0f41555af0fa"}, {"bike_id": "4f882e25aaeeacf20d8283da91d3904f", "type": "electric_scooter", "is_disabled": 0, "lat": 38.863673666666664, "rental_uris": {"ios": "https://dc.lft.to/lastmile_qr_scan", "android": "https://dc.lft.to/lastmile_qr_scan"}, "is_reserved": 0, "fusion_lon": 0.0, "fusion_lat": 0.0, "lon": -76.9905945, "name": "4f882e25aaeeacf20d8283da91d3904f"}, {"bike_id": "9eb2acb2b9b2fb5a447624a39b0b5f72", "type": "electric_scooter", "is_disabled": 0, "lat": 38.9087095, "rental_uris": {"ios": "https://dc.lft.to/lastmile_qr_scan", "android": "https://dc.lft.to/lastmile_qr_scan"}, "is_reserved": 0, "fusion_lon": 0.0, "fusion_lat": 0.0, "lon": -77.01985583333334, "name": "9eb2acb2b9b2fb5a447624a39b0b5f72"}, {"bike_id": "f41921d039d39d3efba370ec2a4f6185", "type": "electric_bike", "is_disabled": 0, "lat": 38.913129833333336, "rental_uris": {"ios": "https://dc.lft.to/lastmile_qr_scan", "android": "https://dc.lft.to/lastmile_qr_scan"}, "is_reserved": 0, "fusion_lon": 0.0, "fusion_lat": 0.0, "lon": -77.22314133333333, "name": "f41921d039d39d3efba370ec2a4f6185"}, {"bike_id": "7ff09dd81bbcec9e25cbae29a98655c2", "type": "electric_scooter", "is_disabled": 0, "lat": 38.902444333333335, "rental_uris": {"ios": "https://dc.lft.to/lastmile_qr_scan", "android": "https://dc.lft.to/lastmile_qr_scan"}, "is_reserved": 0, "fusion_lon": 0.0, "fusion_lat": 0.0, "lon": -77.00586266666667, "name": "7ff09dd81bbcec9e25cbae29a98655c2"}, {"bike_id": "ba4082f0789b0488c8c6cc12e19cbfaa", "type": "electric_scooter", "is_disabled": 0, "lat": 38.92014916666667, "rental_uris": {"ios": "https://dc.lft.to/lastmile_qr_scan", "android": "https://dc.lft.to/lastmile_qr_scan"}, "is_reserved": 0, "fusion_lon": 0.0, "fusion_lat": 0.0, "lon": -77.03119116666667, "name": "ba4082f0789b0488c8c6cc12e19cbfaa"}, {"bike_id": "4dc71c09ab2acdc5cb887e8c85d8533e", "type": "electric_scooter", "is_disabled": 0, "lat": 38.883667333333335, "rental_uris": {"ios": "https://dc.lft.to/lastmile_qr_scan", "android": "https://dc.lft.to/lastmile_qr_scan"}, "is_reserved": 0, "fusion_lon": 0.0, "fusion_lat": 0.0, "lon": -76.99520916666667, "name": "4dc71c09ab2acdc5cb887e8c85d8533e"}, {"bike_id": "2fe1a440079d70b146f28f75e7f0869a", "type": "electric_scooter", "is_disabled": 0, "lat": 38.86680116666667, "rental_uris": {"ios": "https://dc.lft.to/lastmile_qr_scan", "android": "https://dc.lft.to/lastmile_qr_scan"}, "is_reserved": 0, "fusion_lon": 0.0, "fusion_lat": 0.0, "lon": -76.98556383333333, "name": "2fe1a440079d70b146f28f75e7f0869a"}, {"bike_id": "af48fbc19821cc1229f3f63333081ee7", "type": "electric_scooter", "is_disabled": 0, "lat": 38.9152375, "rental_uris": {"ios": "https://dc.lft.to/lastmile_qr_scan", "android": "https://dc.lft.to/lastmile_qr_scan"}, "is_reserved": 0, "fusion_lon": 0.0, "fusion_lat": 0.0, "lon": -77.03201733333333, "name": "af48fbc19821cc1229f3f63333081ee7"}, {"bike_id": "8c7027b1e332adff2f999515c86d90f5", "type": "electric_scooter", "is_disabled": 0, "lat": 38.90970016666667, "rental_uris": {"ios": "https://dc.lft.to/lastmile_qr_scan", "android": "https://dc.lft.to/lastmile_qr_scan"}, "is_reserved": 0, "fusion_lon": 0.0, "fusion_lat": 0.0, "lon": -77.03365033333333, "name": "8c7027b1e332adff2f999515c86d90f5"}, {"bike_id": "35e940d24be772886e6a1ce80c8094c3", "type": "electric_bike", "is_disabled": 0, "lat": 38.8010585, "rental_uris": {"ios": "https://dc.lft.to/lastmile_qr_scan", "android": "https://dc.lft.to/lastmile_qr_scan"}, "is_reserved": 0, "fusion_lon": 0.0, "fusion_lat": 0.0, "lon": -77.0703655, "name": "35e940d24be772886e6a1ce80c8094c3"}, {"bike_id": "0fa429451af9d3990479453ab84ec9df", "type": "electric_scooter", "is_disabled": 0, "lat": 38.831405333333336, "rental_uris": {"ios": "https://dc.lft.to/lastmile_qr_scan", "android": "https://dc.lft.to/lastmile_qr_scan"}, "is_reserved": 0, "fusion_lon": 0.0, "fusion_lat": 0.0, "lon": -77.05119483333333, "name": "0fa429451af9d3990479453ab84ec9df"}, {"bike_id": "5a5c0ba57eec94b51aab40256381ec45", "type": "electric_scooter", "is_disabled": 0, "lat": 38.87932083333333, "rental_uris": {"ios": "https://dc.lft.to/lastmile_qr_scan", "android": "https://dc.lft.to/lastmile_qr_scan"}, "is_reserved": 0, "fusion_lon": 0.0, "fusion_lat": 0.0, "lon": -77.00062483333333, "name": "5a5c0ba57eec94b51aab40256381ec45"}, {"bike_id": "d512a788b753dea04acbad324606746f", "type": "electric_scooter", "is_disabled": 0, "lat": 38.90731533333334, "rental_uris": {"ios": "https://dc.lft.to/lastmile_qr_scan", "android": "https://dc.lft.to/lastmile_qr_scan"}, "is_reserved": 0, "fusion_lon": 0.0, "fusion_lat": 0.0, "lon": -76.979703, "name": "d512a788b753dea04acbad324606746f"}, {"bike_id": "e30dcaa89d5e39f4ddeb825c7c7ced39", "type": "electric_bike", "is_disabled": 0, "lat": 38.8996565, "rental_uris": {"ios": "https://dc.lft.to/lastmile_qr_scan", "android": "https://dc.lft.to/lastmile_qr_scan"}, "is_reserved": 0, "fusion_lon": 0.0, "fusion_lat": 0.0, "lon": -76.98672166666667, "name": "e30dcaa89d5e39f4ddeb825c7c7ced39"}, {"bike_id": "9e1f6a84a5aafd15276dfbaf8308a317", "type": "electric_scooter", "is_disabled": 0, "lat": 38.8736875, "rental_uris": {"ios": "https://dc.lft.to/lastmile_qr_scan", "android": "https://dc.lft.to/lastmile_qr_scan"}, "is_reserved": 0, "fusion_lon": 0.0, "fusion_lat": 0.0, "lon": -77.00148216666666, "name": "9e1f6a84a5aafd15276dfbaf8308a317"}, {"bike_id": "04a00bba30d675b0d27a41f3ee62884a", "type": "electric_scooter", "is_disabled": 0, "lat": 38.905815833333335, "rental_uris": {"ios": "https://dc.lft.to/lastmile_qr_scan", "android": "https://dc.lft.to/lastmile_qr_scan"}, "is_reserved": 0, "fusion_lon": 0.0, "fusion_lat": 0.0, "lon": -77.0420005, "name": "04a00bba30d675b0d27a41f3ee62884a"}, {"bike_id": "790d0031a9b252bb31bacb06a2781c61", "type": "electric_scooter", "is_disabled": 0, "lat": 38.863857833333334, "rental_uris": {"ios": "https://dc.lft.to/lastmile_qr_scan", "android": "https://dc.lft.to/lastmile_qr_scan"}, "is_reserved": 0, "fusion_lon": 0.0, "fusion_lat": 0.0, "lon": -76.99043833333333, "name": "790d0031a9b252bb31bacb06a2781c61"}, {"bike_id": "6657d17b5848f7269cb357eb863ccbfd", "type": "electric_scooter", "is_disabled": 0, "lat": 38.89957533333333, "rental_uris": {"ios": "https://dc.lft.to/lastmile_qr_scan", "android": "https://dc.lft.to/lastmile_qr_scan"}, "is_reserved": 0, "fusion_lon": 0.0, "fusion_lat": 0.0, "lon": -77.0162905, "name": "6657d17b5848f7269cb357eb863ccbfd"}, {"bike_id": "d51742215116d7c722f069580b805486", "type": "electric_bike", "is_disabled": 0, "lat": 38.905856166666666, "rental_uris": {"ios": "https://dc.lft.to/lastmile_qr_scan", "android": "https://dc.lft.to/lastmile_qr_scan"}, "is_reserved": 0, "fusion_lon": 0.0, "fusion_lat": 0.0, "lon": -77.0626975, "name": "d51742215116d7c722f069580b805486"}, {"bike_id": "ee2665fe44c825f77e3a1e88a94edd52", "type": "electric_scooter", "is_disabled": 0, "lat": 38.90041933333333, "rental_uris": {"ios": "https://dc.lft.to/lastmile_qr_scan", "android": "https://dc.lft.to/lastmile_qr_scan"}, "is_reserved": 0, "fusion_lon": 0.0, "fusion_lat": 0.0, "lon": -76.91931233333334, "name": "ee2665fe44c825f77e3a1e88a94edd52"}, {"bike_id": "9fa9182630a46f04ddc4f8b744bbd485", "type": "electric_scooter", "is_disabled": 0, "lat": 38.92207783333333, "rental_uris": {"ios": "https://dc.lft.to/lastmile_qr_scan", "android": "https://dc.lft.to/lastmile_qr_scan"}, "is_reserved": 0, "fusion_lon": 0.0, "fusion_lat": 0.0, "lon": -76.98750816666667, "name": "9fa9182630a46f04ddc4f8b744bbd485"}, {"bike_id": "a857edcf977ae7d1edd7cdf818d55543", "type": "electric_scooter", "is_disabled": 0, "lat": 38.92320566666667, "rental_uris": {"ios": "https://dc.lft.to/lastmile_qr_scan", "android": "https://dc.lft.to/lastmile_qr_scan"}, "is_reserved": 0, "fusion_lon": 0.0, "fusion_lat": 0.0, "lon": -77.02135333333334, "name": "a857edcf977ae7d1edd7cdf818d55543"}, {"bike_id": "d83f3538c70839df0f4b748b803e2a41", "type": "electric_scooter", "is_disabled": 0, "lat": 38.898660666666665, "rental_uris": {"ios": "https://dc.lft.to/lastmile_qr_scan", "android": "https://dc.lft.to/lastmile_qr_scan"}, "is_reserved": 0, "fusion_lon": 0.0, "fusion_lat": 0.0, "lon": -76.94664966666667, "name": "d83f3538c70839df0f4b748b803e2a41"}, {"bike_id": "d7081502f4ee2d4c555f618062523809", "type": "electric_scooter", "is_disabled": 0, "lat": 38.8936945, "rental_uris": {"ios": "https://dc.lft.to/lastmile_qr_scan", "android": "https://dc.lft.to/lastmile_qr_scan"}, "is_reserved": 0, "fusion_lon": 0.0, "fusion_lat": 0.0, "lon": -77.020798, "name": "d7081502f4ee2d4c555f618062523809"}, {"bike_id": "3cce8491203906d47636dc62aed094a9", "type": "electric_scooter", "is_disabled": 0, "lat": 38.91629783333333, "rental_uris": {"ios": "https://dc.lft.to/lastmile_qr_scan", "android": "https://dc.lft.to/lastmile_qr_scan"}, "is_reserved": 0, "fusion_lon": 0.0, "fusion_lat": 0.0, "lon": -77.02691816666666, "name": "3cce8491203906d47636dc62aed094a9"}, {"bike_id": "e07471d85b245266b54c0530ce3edc10", "type": "electric_scooter", "is_disabled": 0, "lat": 38.87740933333333, "rental_uris": {"ios": "https://dc.lft.to/lastmile_qr_scan", "android": "https://dc.lft.to/lastmile_qr_scan"}, "is_reserved": 0, "fusion_lon": 0.0, "fusion_lat": 0.0, "lon": -77.00442216666667, "name": "e07471d85b245266b54c0530ce3edc10"}, {"bike_id": "a681cc0ef1f5a327a17ccefa2dc2b2b8", "type": "electric_scooter", "is_disabled": 0, "lat": 38.921713, "rental_uris": {"ios": "https://dc.lft.to/lastmile_qr_scan", "android": "https://dc.lft.to/lastmile_qr_scan"}, "is_reserved": 0, "fusion_lon": 0.0, "fusion_lat": 0.0, "lon": -77.04249116666666, "name": "a681cc0ef1f5a327a17ccefa2dc2b2b8"}, {"bike_id": "faf865466799871a2b0cc970ba4426db", "type": "electric_scooter", "is_disabled": 0, "lat": 38.907707333333335, "rental_uris": {"ios": "https://dc.lft.to/lastmile_qr_scan", "android": "https://dc.lft.to/lastmile_qr_scan"}, "is_reserved": 0, "fusion_lon": 0.0, "fusion_lat": 0.0, "lon": -76.97823816666667, "name": "faf865466799871a2b0cc970ba4426db"}, {"bike_id": "6d26f734b2c22124adc39b8e93824ffc", "type": "electric_scooter", "is_disabled": 0, "lat": 38.900772833333335, "rental_uris": {"ios": "https://dc.lft.to/lastmile_qr_scan", "android": "https://dc.lft.to/lastmile_qr_scan"}, "is_reserved": 0, "fusion_lon": 0.0, "fusion_lat": 0.0, "lon": -77.04688466666667, "name": "6d26f734b2c22124adc39b8e93824ffc"}, {"bike_id": "172909298044146c28dc7c7e68682016", "type": "electric_scooter", "is_disabled": 0, "lat": 38.906502, "rental_uris": {"ios": "https://dc.lft.to/lastmile_qr_scan", "android": "https://dc.lft.to/lastmile_qr_scan"}, "is_reserved": 0, "fusion_lon": 0.0, "fusion_lat": 0.0, "lon": -77.05316016666667, "name": "172909298044146c28dc7c7e68682016"}, {"bike_id": "f1ddfd9ec94712e96e19e52915718407", "type": "electric_scooter", "is_disabled": 0, "lat": 38.9374335, "rental_uris": {"ios": "https://dc.lft.to/lastmile_qr_scan", "android": "https://dc.lft.to/lastmile_qr_scan"}, "is_reserved": 0, "fusion_lon": 0.0, "fusion_lat": 0.0, "lon": -77.03430083333333, "name": "f1ddfd9ec94712e96e19e52915718407"}, {"bike_id": "454a0e1429fd2008135c741107e16942", "type": "electric_scooter", "is_disabled": 0, "lat": 38.946257833333334, "rental_uris": {"ios": "https://dc.lft.to/lastmile_qr_scan", "android": "https://dc.lft.to/lastmile_qr_scan"}, "is_reserved": 0, "fusion_lon": 0.0, "fusion_lat": 0.0, "lon": -77.0184165, "name": "454a0e1429fd2008135c741107e16942"}, {"bike_id": "886711933aa09ea856985eea8c6f49a4", "type": "electric_scooter", "is_disabled": 0, "lat": 38.92607983333333, "rental_uris": {"ios": "https://dc.lft.to/lastmile_qr_scan", "android": "https://dc.lft.to/lastmile_qr_scan"}, "is_reserved": 0, "fusion_lon": 0.0, "fusion_lat": 0.0, "lon": -77.02655066666667, "name": "886711933aa09ea856985eea8c6f49a4"}, {"bike_id": "e20f241c61cd82d26afa1c54cacb13ef", "type": "electric_scooter", "is_disabled": 0, "lat": 38.91690883333333, "rental_uris": {"ios": "https://dc.lft.to/lastmile_qr_scan", "android": "https://dc.lft.to/lastmile_qr_scan"}, "is_reserved": 0, "fusion_lon": 0.0, "fusion_lat": 0.0, "lon": -77.02284216666666, "name": "e20f241c61cd82d26afa1c54cacb13ef"}, {"bike_id": "41c43b0783c7dbfb0df216e64e98277a", "type": "electric_scooter", "is_disabled": 0, "lat": 38.87541816666667, "rental_uris": {"ios": "https://dc.lft.to/lastmile_qr_scan", "android": "https://dc.lft.to/lastmile_qr_scan"}, "is_reserved": 0, "fusion_lon": 0.0, "fusion_lat": 0.0, "lon": -77.0050415, "name": "41c43b0783c7dbfb0df216e64e98277a"}, {"bike_id": "610787ccbb72a4dc19e23e194747cf27", "type": "electric_scooter", "is_disabled": 0, "lat": 38.91558216666667, "rental_uris": {"ios": "https://dc.lft.to/lastmile_qr_scan", "android": "https://dc.lft.to/lastmile_qr_scan"}, "is_reserved": 0, "fusion_lon": 0.0, "fusion_lat": 0.0, "lon": -77.03868483333333, "name": "610787ccbb72a4dc19e23e194747cf27"}, {"bike_id": "b7e9684db9373c8ec292bf0b08b23de6", "type": "electric_scooter", "is_disabled": 0, "lat": 38.9207165, "rental_uris": {"ios": "https://dc.lft.to/lastmile_qr_scan", "android": "https://dc.lft.to/lastmile_qr_scan"}, "is_reserved": 0, "fusion_lon": 0.0, "fusion_lat": 0.0, "lon": -77.02388383333333, "name": "b7e9684db9373c8ec292bf0b08b23de6"}, {"bike_id": "843b885a8ab45b65bc325b645155c6f5", "type": "electric_scooter", "is_disabled": 0, "lat": 38.89770633333333, "rental_uris": {"ios": "https://dc.lft.to/lastmile_qr_scan", "android": "https://dc.lft.to/lastmile_qr_scan"}, "is_reserved": 0, "fusion_lon": 0.0, "fusion_lat": 0.0, "lon": -77.05470433333333, "name": "843b885a8ab45b65bc325b645155c6f5"}, {"bike_id": "316c393e2dda8ceccebfcf35fbc0cb20", "type": "electric_scooter", "is_disabled": 0, "lat": 38.89221783333333, "rental_uris": {"ios": "https://dc.lft.to/lastmile_qr_scan", "android": "https://dc.lft.to/lastmile_qr_scan"}, "is_reserved": 0, "fusion_lon": 0.0, "fusion_lat": 0.0, "lon": -77.04686966666667, "name": "316c393e2dda8ceccebfcf35fbc0cb20"}, {"bike_id": "9ee379f597732b594224995ac7301dd2", "type": "electric_scooter", "is_disabled": 0, "lat": 38.89718966666667, "rental_uris": {"ios": "https://dc.lft.to/lastmile_qr_scan", "android": "https://dc.lft.to/lastmile_qr_scan"}, "is_reserved": 0, "fusion_lon": 0.0, "fusion_lat": 0.0, "lon": -77.033025, "name": "9ee379f597732b594224995ac7301dd2"}, {"bike_id": "8a07d492e10ded8e9d0fec27012343cb", "type": "electric_scooter", "is_disabled": 0, "lat": 38.905209166666666, "rental_uris": {"ios": "https://dc.lft.to/lastmile_qr_scan", "android": "https://dc.lft.to/lastmile_qr_scan"}, "is_reserved": 0, "fusion_lon": 0.0, "fusion_lat": 0.0, "lon": -77.0660915, "name": "8a07d492e10ded8e9d0fec27012343cb"}, {"bike_id": "e04424025f9d18cd3628fdb15c85cc26", "type": "electric_scooter", "is_disabled": 0, "lat": 38.878300833333334, "rental_uris": {"ios": "https://dc.lft.to/lastmile_qr_scan", "android": "https://dc.lft.to/lastmile_qr_scan"}, "is_reserved": 0, "fusion_lon": 0.0, "fusion_lat": 0.0, "lon": -77.0081595, "name": "e04424025f9d18cd3628fdb15c85cc26"}, {"bike_id": "1c5ba38ba835b5625b473118d54a96f2", "type": "electric_bike", "is_disabled": 0, "lat": 39.03985466666666, "rental_uris": {"ios": "https://dc.lft.to/lastmile_qr_scan", "android": "https://dc.lft.to/lastmile_qr_scan"}, "is_reserved": 0, "fusion_lon": 0.0, "fusion_lat": 0.0, "lon": -76.99924866666667, "name": "1c5ba38ba835b5625b473118d54a96f2"}, {"bike_id": "1c7649f18c9fe42dddc140ed876fa4c6", "type": "electric_scooter", "is_disabled": 0, "lat": 38.935361666666665, "rental_uris": {"ios": "https://dc.lft.to/lastmile_qr_scan", "android": "https://dc.lft.to/lastmile_qr_scan"}, "is_reserved": 0, "fusion_lon": 0.0, "fusion_lat": 0.0, "lon": -77.02353716666667, "name": "1c7649f18c9fe42dddc140ed876fa4c6"}, {"bike_id": "7a43da190423347b2a35d439a9c1102a", "type": "electric_scooter", "is_disabled": 0, "lat": 38.885249333333334, "rental_uris": {"ios": "https://dc.lft.to/lastmile_qr_scan", "android": "https://dc.lft.to/lastmile_qr_scan"}, "is_reserved": 0, "fusion_lon": 0.0, "fusion_lat": 0.0, "lon": -77.01137666666666, "name": "7a43da190423347b2a35d439a9c1102a"}, {"bike_id": "efbc045d2c1b2ca1b82fb0a1f22c73b3", "type": "electric_scooter", "is_disabled": 0, "lat": 38.945919833333335, "rental_uris": {"ios": "https://dc.lft.to/lastmile_qr_scan", "android": "https://dc.lft.to/lastmile_qr_scan"}, "is_reserved": 0, "fusion_lon": 0.0, "fusion_lat": 0.0, "lon": -77.07032883333333, "name": "efbc045d2c1b2ca1b82fb0a1f22c73b3"}, {"bike_id": "ecc6f2be363340045d68797df8c32de9", "type": "electric_scooter", "is_disabled": 0, "lat": 38.90728083333333, "rental_uris": {"ios": "https://dc.lft.to/lastmile_qr_scan", "android": "https://dc.lft.to/lastmile_qr_scan"}, "is_reserved": 0, "fusion_lon": 0.0, "fusion_lat": 0.0, "lon": -76.986273, "name": "ecc6f2be363340045d68797df8c32de9"}, {"bike_id": "093248eade04d6a6c333e0f55d593056", "type": "electric_scooter", "is_disabled": 0, "lat": 38.90590016666667, "rental_uris": {"ios": "https://dc.lft.to/lastmile_qr_scan", "android": "https://dc.lft.to/lastmile_qr_scan"}, "is_reserved": 0, "fusion_lon": 0.0, "fusion_lat": 0.0, "lon": -77.07008616666667, "name": "093248eade04d6a6c333e0f55d593056"}, {"bike_id": "6f06c35dd5b34d4278be201ceded0111", "type": "electric_bike", "is_disabled": 0, "lat": 38.92430066666667, "rental_uris": {"ios": "https://dc.lft.to/lastmile_qr_scan", "android": "https://dc.lft.to/lastmile_qr_scan"}, "is_reserved": 0, "fusion_lon": 0.0, "fusion_lat": 0.0, "lon": -76.9964875, "name": "6f06c35dd5b34d4278be201ceded0111"}, {"bike_id": "0b2fffeafb54f76d5db27bfa6b98b623", "type": "electric_scooter", "is_disabled": 0, "lat": 38.9614605, "rental_uris": {"ios": "https://dc.lft.to/lastmile_qr_scan", "android": "https://dc.lft.to/lastmile_qr_scan"}, "is_reserved": 0, "fusion_lon": 0.0, "fusion_lat": 0.0, "lon": -77.03249183333334, "name": "0b2fffeafb54f76d5db27bfa6b98b623"}, {"bike_id": "e1b9606307faa5a066a877c7fda19b58", "type": "electric_scooter", "is_disabled": 0, "lat": 38.922088333333335, "rental_uris": {"ios": "https://dc.lft.to/lastmile_qr_scan", "android": "https://dc.lft.to/lastmile_qr_scan"}, "is_reserved": 0, "fusion_lon": 0.0, "fusion_lat": 0.0, "lon": -77.03456633333333, "name": "e1b9606307faa5a066a877c7fda19b58"}, {"bike_id": "1879147f64631cb6e6e641dadac00ffe", "type": "electric_scooter", "is_disabled": 0, "lat": 38.89741683333333, "rental_uris": {"ios": "https://dc.lft.to/lastmile_qr_scan", "android": "https://dc.lft.to/lastmile_qr_scan"}, "is_reserved": 0, "fusion_lon": 0.0, "fusion_lat": 0.0, "lon": -77.00771233333333, "name": "1879147f64631cb6e6e641dadac00ffe"}, {"bike_id": "41d4feff82ac4b281dd754ac6a4430e8", "type": "electric_scooter", "is_disabled": 0, "lat": 38.89723733333334, "rental_uris": {"ios": "https://dc.lft.to/lastmile_qr_scan", "android": "https://dc.lft.to/lastmile_qr_scan"}, "is_reserved": 0, "fusion_lon": 0.0, "fusion_lat": 0.0, "lon": -77.05474383333333, "name": "41d4feff82ac4b281dd754ac6a4430e8"}, {"bike_id": "9a602519d3496bd5c939557ce2ced349", "type": "electric_scooter", "is_disabled": 0, "lat": 38.87676316666666, "rental_uris": {"ios": "https://dc.lft.to/lastmile_qr_scan", "android": "https://dc.lft.to/lastmile_qr_scan"}, "is_reserved": 0, "fusion_lon": 0.0, "fusion_lat": 0.0, "lon": -76.9982425, "name": "9a602519d3496bd5c939557ce2ced349"}, {"bike_id": "b3e4f11bf6e1dd80050dd736159dcd36", "type": "electric_scooter", "is_disabled": 0, "lat": 38.9097745, "rental_uris": {"ios": "https://dc.lft.to/lastmile_qr_scan", "android": "https://dc.lft.to/lastmile_qr_scan"}, "is_reserved": 0, "fusion_lon": 0.0, "fusion_lat": 0.0, "lon": -77.03362633333333, "name": "b3e4f11bf6e1dd80050dd736159dcd36"}, {"bike_id": "cf35cf56d2b36a720de5bc0af0088626", "type": "electric_scooter", "is_disabled": 0, "lat": 38.902583166666666, "rental_uris": {"ios": "https://dc.lft.to/lastmile_qr_scan", "android": "https://dc.lft.to/lastmile_qr_scan"}, "is_reserved": 0, "fusion_lon": 0.0, "fusion_lat": 0.0, "lon": -76.9754685, "name": "cf35cf56d2b36a720de5bc0af0088626"}, {"bike_id": "fc9d96d1aa30df197bbb1b4741547a35", "type": "electric_scooter", "is_disabled": 0, "lat": 38.9125305, "rental_uris": {"ios": "https://dc.lft.to/lastmile_qr_scan", "android": "https://dc.lft.to/lastmile_qr_scan"}, "is_reserved": 0, "fusion_lon": 0.0, "fusion_lat": 0.0, "lon": -77.038263, "name": "fc9d96d1aa30df197bbb1b4741547a35"}, {"bike_id": "8839c4a804c92341211552b6e5fc30b1", "type": "electric_scooter", "is_disabled": 0, "lat": 38.90182, "rental_uris": {"ios": "https://dc.lft.to/lastmile_qr_scan", "android": "https://dc.lft.to/lastmile_qr_scan"}, "is_reserved": 0, "fusion_lon": 0.0, "fusion_lat": 0.0, "lon": -77.01609616666667, "name": "8839c4a804c92341211552b6e5fc30b1"}, {"bike_id": "05ab80e4a9670e541c3c3e55532531f3", "type": "electric_scooter", "is_disabled": 0, "lat": 38.86244216666667, "rental_uris": {"ios": "https://dc.lft.to/lastmile_qr_scan", "android": "https://dc.lft.to/lastmile_qr_scan"}, "is_reserved": 0, "fusion_lon": 0.0, "fusion_lat": 0.0, "lon": -76.9926225, "name": "05ab80e4a9670e541c3c3e55532531f3"}, {"bike_id": "244b1e58183c0109cae9f34d196c6f7d", "type": "electric_bike", "is_disabled": 0, "lat": 38.88655633333333, "rental_uris": {"ios": "https://dc.lft.to/lastmile_qr_scan", "android": "https://dc.lft.to/lastmile_qr_scan"}, "is_reserved": 0, "fusion_lon": 0.0, "fusion_lat": 0.0, "lon": -77.16230283333333, "name": "244b1e58183c0109cae9f34d196c6f7d"}, {"bike_id": "4ba604221feb65ef05ae24683a4bc51c", "type": "electric_scooter", "is_disabled": 0, "lat": 38.91138133333333, "rental_uris": {"ios": "https://dc.lft.to/lastmile_qr_scan", "android": "https://dc.lft.to/lastmile_qr_scan"}, "is_reserved": 0, "fusion_lon": 0.0, "fusion_lat": 0.0, "lon": -77.02692733333333, "name": "4ba604221feb65ef05ae24683a4bc51c"}, {"bike_id": "d0d006dcb9a707cab3b6fca9c0eeac27", "type": "electric_scooter", "is_disabled": 0, "lat": 38.907740833333335, "rental_uris": {"ios": "https://dc.lft.to/lastmile_qr_scan", "android": "https://dc.lft.to/lastmile_qr_scan"}, "is_reserved": 0, "fusion_lon": 0.0, "fusion_lat": 0.0, "lon": -77.018521, "name": "d0d006dcb9a707cab3b6fca9c0eeac27"}, {"bike_id": "ec168ccaf315152f2b3dd8c5db4ee3d1", "type": "electric_scooter", "is_disabled": 0, "lat": 38.906858666666665, "rental_uris": {"ios": "https://dc.lft.to/lastmile_qr_scan", "android": "https://dc.lft.to/lastmile_qr_scan"}, "is_reserved": 0, "fusion_lon": 0.0, "fusion_lat": 0.0, "lon": -77.053241, "name": "ec168ccaf315152f2b3dd8c5db4ee3d1"}, {"bike_id": "cd68d5ac3bff117af73bc5e9d813ee0d", "type": "electric_scooter", "is_disabled": 0, "lat": 38.887429833333336, "rental_uris": {"ios": "https://dc.lft.to/lastmile_qr_scan", "android": "https://dc.lft.to/lastmile_qr_scan"}, "is_reserved": 0, "fusion_lon": 0.0, "fusion_lat": 0.0, "lon": -76.983578, "name": "cd68d5ac3bff117af73bc5e9d813ee0d"}, {"bike_id": "fa740c772f7f8318b8052bd548f6fa9d", "type": "electric_scooter", "is_disabled": 0, "lat": 38.913087, "rental_uris": {"ios": "https://dc.lft.to/lastmile_qr_scan", "android": "https://dc.lft.to/lastmile_qr_scan"}, "is_reserved": 0, "fusion_lon": 0.0, "fusion_lat": 0.0, "lon": -77.04163733333333, "name": "fa740c772f7f8318b8052bd548f6fa9d"}, {"bike_id": "cf90d0a14171be2635d63742174336f5", "type": "electric_bike", "is_disabled": 0, "lat": 38.876379, "rental_uris": {"ios": "https://dc.lft.to/lastmile_qr_scan", "android": "https://dc.lft.to/lastmile_qr_scan"}, "is_reserved": 0, "fusion_lon": 0.0, "fusion_lat": 0.0, "lon": -77.006611, "name": "cf90d0a14171be2635d63742174336f5"}, {"bike_id": "318f43e5881aa0351feded02415690f7", "type": "electric_scooter", "is_disabled": 0, "lat": 38.93111, "rental_uris": {"ios": "https://dc.lft.to/lastmile_qr_scan", "android": "https://dc.lft.to/lastmile_qr_scan"}, "is_reserved": 0, "fusion_lon": 0.0, "fusion_lat": 0.0, "lon": -77.0209775, "name": "318f43e5881aa0351feded02415690f7"}, {"bike_id": "48fa3b6bbfc85deeaa1ff8bba6a6e3dc", "type": "electric_scooter", "is_disabled": 0, "lat": 38.912902833333334, "rental_uris": {"ios": "https://dc.lft.to/lastmile_qr_scan", "android": "https://dc.lft.to/lastmile_qr_scan"}, "is_reserved": 0, "fusion_lon": 0.0, "fusion_lat": 0.0, "lon": -77.01974816666667, "name": "48fa3b6bbfc85deeaa1ff8bba6a6e3dc"}, {"bike_id": "502f907259228c5c20b9b24aed984987", "type": "electric_scooter", "is_disabled": 0, "lat": 38.91720466666666, "rental_uris": {"ios": "https://dc.lft.to/lastmile_qr_scan", "android": "https://dc.lft.to/lastmile_qr_scan"}, "is_reserved": 0, "fusion_lon": 0.0, "fusion_lat": 0.0, "lon": -77.02503916666667, "name": "502f907259228c5c20b9b24aed984987"}, {"bike_id": "6dbe46ea12cb58337e25bcc68eff1cd6", "type": "electric_scooter", "is_disabled": 0, "lat": 38.910686166666665, "rental_uris": {"ios": "https://dc.lft.to/lastmile_qr_scan", "android": "https://dc.lft.to/lastmile_qr_scan"}, "is_reserved": 0, "fusion_lon": 0.0, "fusion_lat": 0.0, "lon": -77.0439785, "name": "6dbe46ea12cb58337e25bcc68eff1cd6"}, {"bike_id": "d2de0c09509865c38e492d47f041a4db", "type": "electric_scooter", "is_disabled": 0, "lat": 38.900475166666666, "rental_uris": {"ios": "https://dc.lft.to/lastmile_qr_scan", "android": "https://dc.lft.to/lastmile_qr_scan"}, "is_reserved": 0, "fusion_lon": 0.0, "fusion_lat": 0.0, "lon": -77.04831233333333, "name": "d2de0c09509865c38e492d47f041a4db"}, {"bike_id": "39d642f3f1a1c04cd7ea8a4b0edf4f19", "type": "electric_scooter", "is_disabled": 0, "lat": 38.9077315, "rental_uris": {"ios": "https://dc.lft.to/lastmile_qr_scan", "android": "https://dc.lft.to/lastmile_qr_scan"}, "is_reserved": 0, "fusion_lon": 0.0, "fusion_lat": 0.0, "lon": -77.020315, "name": "39d642f3f1a1c04cd7ea8a4b0edf4f19"}, {"bike_id": "6bd499efdcfecebc921c3dfcda777c35", "type": "electric_scooter", "is_disabled": 0, "lat": 38.871396, "rental_uris": {"ios": "https://dc.lft.to/lastmile_qr_scan", "android": "https://dc.lft.to/lastmile_qr_scan"}, "is_reserved": 0, "fusion_lon": 0.0, "fusion_lat": 0.0, "lon": -77.00754466666666, "name": "6bd499efdcfecebc921c3dfcda777c35"}, {"bike_id": "5cd9d5bda3aba93e9c4995cac4226a5e", "type": "electric_bike", "is_disabled": 0, "lat": 38.908240166666666, "rental_uris": {"ios": "https://dc.lft.to/lastmile_qr_scan", "android": "https://dc.lft.to/lastmile_qr_scan"}, "is_reserved": 0, "fusion_lon": 0.0, "fusion_lat": 0.0, "lon": -76.94155383333333, "name": "5cd9d5bda3aba93e9c4995cac4226a5e"}, {"bike_id": "989aea4cde584ac2b394a2ee93a3088a", "type": "electric_scooter", "is_disabled": 0, "lat": 38.885302833333334, "rental_uris": {"ios": "https://dc.lft.to/lastmile_qr_scan", "android": "https://dc.lft.to/lastmile_qr_scan"}, "is_reserved": 0, "fusion_lon": 0.0, "fusion_lat": 0.0, "lon": -76.99113916666667, "name": "989aea4cde584ac2b394a2ee93a3088a"}, {"bike_id": "ffe075148bc09ddeaa83afc046782566", "type": "electric_scooter", "is_disabled": 0, "lat": 38.90522033333333, "rental_uris": {"ios": "https://dc.lft.to/lastmile_qr_scan", "android": "https://dc.lft.to/lastmile_qr_scan"}, "is_reserved": 0, "fusion_lon": 0.0, "fusion_lat": 0.0, "lon": -77.06081633333334, "name": "ffe075148bc09ddeaa83afc046782566"}, {"bike_id": "1d220ca9076006d6888bf5e7ecf99fed", "type": "electric_scooter", "is_disabled": 0, "lat": 38.913363333333336, "rental_uris": {"ios": "https://dc.lft.to/lastmile_qr_scan", "android": "https://dc.lft.to/lastmile_qr_scan"}, "is_reserved": 0, "fusion_lon": 0.0, "fusion_lat": 0.0, "lon": -77.03996316666667, "name": "1d220ca9076006d6888bf5e7ecf99fed"}, {"bike_id": "7acb83615cdf3e51395dff4606c21498", "type": "electric_bike", "is_disabled": 0, "lat": 38.948898, "rental_uris": {"ios": "https://dc.lft.to/lastmile_qr_scan", "android": "https://dc.lft.to/lastmile_qr_scan"}, "is_reserved": 0, "fusion_lon": 0.0, "fusion_lat": 0.0, "lon": -76.96375216666667, "name": "7acb83615cdf3e51395dff4606c21498"}, {"bike_id": "124e5f9aaa54202b3d8cd4310f1edb54", "type": "electric_bike", "is_disabled": 0, "lat": 38.88396766666666, "rental_uris": {"ios": "https://dc.lft.to/lastmile_qr_scan", "android": "https://dc.lft.to/lastmile_qr_scan"}, "is_reserved": 0, "fusion_lon": 0.0, "fusion_lat": 0.0, "lon": -76.96060766666666, "name": "124e5f9aaa54202b3d8cd4310f1edb54"}, {"bike_id": "a62e1020a68392c6ae05be9f77f6ef86", "type": "electric_scooter", "is_disabled": 0, "lat": 38.904044999999996, "rental_uris": {"ios": "https://dc.lft.to/lastmile_qr_scan", "android": "https://dc.lft.to/lastmile_qr_scan"}, "is_reserved": 0, "fusion_lon": 0.0, "fusion_lat": 0.0, "lon": -77.032623, "name": "a62e1020a68392c6ae05be9f77f6ef86"}, {"bike_id": "388356152d81505363a59af43dcf437c", "type": "electric_scooter", "is_disabled": 0, "lat": 38.9168545, "rental_uris": {"ios": "https://dc.lft.to/lastmile_qr_scan", "android": "https://dc.lft.to/lastmile_qr_scan"}, "is_reserved": 0, "fusion_lon": 0.0, "fusion_lat": 0.0, "lon": -77.02695233333333, "name": "388356152d81505363a59af43dcf437c"}, {"bike_id": "4a29e1e788f43d00181e9db925a06b4f", "type": "electric_scooter", "is_disabled": 0, "lat": 38.91479533333333, "rental_uris": {"ios": "https://dc.lft.to/lastmile_qr_scan", "android": "https://dc.lft.to/lastmile_qr_scan"}, "is_reserved": 0, "fusion_lon": 0.0, "fusion_lat": 0.0, "lon": -77.032735, "name": "4a29e1e788f43d00181e9db925a06b4f"}, {"bike_id": "ccdb34de6033b63a1ecab792ae3f634c", "type": "electric_bike", "is_disabled": 0, "lat": 38.969581833333336, "rental_uris": {"ios": "https://dc.lft.to/lastmile_qr_scan", "android": "https://dc.lft.to/lastmile_qr_scan"}, "is_reserved": 0, "fusion_lon": 0.0, "fusion_lat": 0.0, "lon": -76.95744116666667, "name": "ccdb34de6033b63a1ecab792ae3f634c"}, {"bike_id": "35ee9340c28b19559d5e4975d15b161a", "type": "electric_bike", "is_disabled": 0, "lat": 38.91057133333333, "rental_uris": {"ios": "https://dc.lft.to/lastmile_qr_scan", "android": "https://dc.lft.to/lastmile_qr_scan"}, "is_reserved": 0, "fusion_lon": 0.0, "fusion_lat": 0.0, "lon": -77.02911033333334, "name": "35ee9340c28b19559d5e4975d15b161a"}, {"bike_id": "c731437089092ae056c4ea687d97fa73", "type": "electric_scooter", "is_disabled": 0, "lat": 38.91305083333334, "rental_uris": {"ios": "https://dc.lft.to/lastmile_qr_scan", "android": "https://dc.lft.to/lastmile_qr_scan"}, "is_reserved": 0, "fusion_lon": 0.0, "fusion_lat": 0.0, "lon": -77.04523866666666, "name": "c731437089092ae056c4ea687d97fa73"}, {"bike_id": "f2ec1a47c749a05e6cbb9bce5ebe82a9", "type": "electric_scooter", "is_disabled": 0, "lat": 38.92605533333333, "rental_uris": {"ios": "https://dc.lft.to/lastmile_qr_scan", "android": "https://dc.lft.to/lastmile_qr_scan"}, "is_reserved": 0, "fusion_lon": 0.0, "fusion_lat": 0.0, "lon": -77.02159533333334, "name": "f2ec1a47c749a05e6cbb9bce5ebe82a9"}, {"bike_id": "7acc6c95b6e5f8aa0b87334129e0b64a", "type": "electric_scooter", "is_disabled": 0, "lat": 38.902467666666666, "rental_uris": {"ios": "https://dc.lft.to/lastmile_qr_scan", "android": "https://dc.lft.to/lastmile_qr_scan"}, "is_reserved": 0, "fusion_lon": 0.0, "fusion_lat": 0.0, "lon": -77.03907716666667, "name": "7acc6c95b6e5f8aa0b87334129e0b64a"}, {"bike_id": "ad9c1d56e832c4896595bbc45cb9ae0d", "type": "electric_scooter", "is_disabled": 0, "lat": 38.915249, "rental_uris": {"ios": "https://dc.lft.to/lastmile_qr_scan", "android": "https://dc.lft.to/lastmile_qr_scan"}, "is_reserved": 0, "fusion_lon": 0.0, "fusion_lat": 0.0, "lon": -77.03652433333333, "name": "ad9c1d56e832c4896595bbc45cb9ae0d"}, {"bike_id": "f158588dd7d5d72be2190e501e916043", "type": "electric_scooter", "is_disabled": 0, "lat": 38.89215933333333, "rental_uris": {"ios": "https://dc.lft.to/lastmile_qr_scan", "android": "https://dc.lft.to/lastmile_qr_scan"}, "is_reserved": 0, "fusion_lon": 0.0, "fusion_lat": 0.0, "lon": -77.04193883333333, "name": "f158588dd7d5d72be2190e501e916043"}, {"bike_id": "68026a6397d1bbda6714b2c02dc28b9f", "type": "electric_scooter", "is_disabled": 0, "lat": 38.864689166666665, "rental_uris": {"ios": "https://dc.lft.to/lastmile_qr_scan", "android": "https://dc.lft.to/lastmile_qr_scan"}, "is_reserved": 0, "fusion_lon": 0.0, "fusion_lat": 0.0, "lon": -76.97739733333333, "name": "68026a6397d1bbda6714b2c02dc28b9f"}, {"bike_id": "2d162f4cd64745b4ab526ee0bc89a174", "type": "electric_scooter", "is_disabled": 0, "lat": 38.88297083333333, "rental_uris": {"ios": "https://dc.lft.to/lastmile_qr_scan", "android": "https://dc.lft.to/lastmile_qr_scan"}, "is_reserved": 0, "fusion_lon": 0.0, "fusion_lat": 0.0, "lon": -76.94854866666667, "name": "2d162f4cd64745b4ab526ee0bc89a174"}, {"bike_id": "38a33fd285ed7a65472092d563e71e3e", "type": "electric_scooter", "is_disabled": 0, "lat": 38.91573833333333, "rental_uris": {"ios": "https://dc.lft.to/lastmile_qr_scan", "android": "https://dc.lft.to/lastmile_qr_scan"}, "is_reserved": 0, "fusion_lon": 0.0, "fusion_lat": 0.0, "lon": -77.04485533333333, "name": "38a33fd285ed7a65472092d563e71e3e"}, {"bike_id": "f6cdd35ecbca379be015edd43a74172d", "type": "electric_scooter", "is_disabled": 0, "lat": 38.921524833333336, "rental_uris": {"ios": "https://dc.lft.to/lastmile_qr_scan", "android": "https://dc.lft.to/lastmile_qr_scan"}, "is_reserved": 0, "fusion_lon": 0.0, "fusion_lat": 0.0, "lon": -77.042215, "name": "f6cdd35ecbca379be015edd43a74172d"}, {"bike_id": "ae4f7a36c01c7db3f0d495c0509de697", "type": "electric_scooter", "is_disabled": 0, "lat": 38.93545533333333, "rental_uris": {"ios": "https://dc.lft.to/lastmile_qr_scan", "android": "https://dc.lft.to/lastmile_qr_scan"}, "is_reserved": 0, "fusion_lon": 0.0, "fusion_lat": 0.0, "lon": -77.05858, "name": "ae4f7a36c01c7db3f0d495c0509de697"}, {"bike_id": "38695749d5a4ec08ac4303f9924b8f83", "type": "electric_scooter", "is_disabled": 0, "lat": 38.94081, "rental_uris": {"ios": "https://dc.lft.to/lastmile_qr_scan", "android": "https://dc.lft.to/lastmile_qr_scan"}, "is_reserved": 0, "fusion_lon": 0.0, "fusion_lat": 0.0, "lon": -77.027223, "name": "38695749d5a4ec08ac4303f9924b8f83"}, {"bike_id": "6005a27b89afef6cf209c9de6da20acd", "type": "electric_scooter", "is_disabled": 0, "lat": 38.9478455, "rental_uris": {"ios": "https://dc.lft.to/lastmile_qr_scan", "android": "https://dc.lft.to/lastmile_qr_scan"}, "is_reserved": 0, "fusion_lon": 0.0, "fusion_lat": 0.0, "lon": -77.08014716666666, "name": "6005a27b89afef6cf209c9de6da20acd"}, {"bike_id": "76106c6f72052d8042aa1178e5f2e431", "type": "electric_scooter", "is_disabled": 0, "lat": 38.91814316666667, "rental_uris": {"ios": "https://dc.lft.to/lastmile_qr_scan", "android": "https://dc.lft.to/lastmile_qr_scan"}, "is_reserved": 0, "fusion_lon": 0.0, "fusion_lat": 0.0, "lon": -77.04940933333333, "name": "76106c6f72052d8042aa1178e5f2e431"}, {"bike_id": "ebfa8a0fcb1a3bd138f4980a2a734612", "type": "electric_scooter", "is_disabled": 0, "lat": 38.901332, "rental_uris": {"ios": "https://dc.lft.to/lastmile_qr_scan", "android": "https://dc.lft.to/lastmile_qr_scan"}, "is_reserved": 0, "fusion_lon": 0.0, "fusion_lat": 0.0, "lon": -77.04156466666667, "name": "ebfa8a0fcb1a3bd138f4980a2a734612"}, {"bike_id": "de8756917c57a3d169169fa91e1b5d84", "type": "electric_scooter", "is_disabled": 0, "lat": 38.914655833333335, "rental_uris": {"ios": "https://dc.lft.to/lastmile_qr_scan", "android": "https://dc.lft.to/lastmile_qr_scan"}, "is_reserved": 0, "fusion_lon": 0.0, "fusion_lat": 0.0, "lon": -76.98410283333334, "name": "de8756917c57a3d169169fa91e1b5d84"}, {"bike_id": "6bcee7a0c0117292ceb1aa23070c9199", "type": "electric_bike", "is_disabled": 0, "lat": 39.0527255, "rental_uris": {"ios": "https://dc.lft.to/lastmile_qr_scan", "android": "https://dc.lft.to/lastmile_qr_scan"}, "is_reserved": 0, "fusion_lon": 0.0, "fusion_lat": 0.0, "lon": -77.08069816666666, "name": "6bcee7a0c0117292ceb1aa23070c9199"}, {"bike_id": "6f3d9c3ee99a2b2ab63c24cb65f66397", "type": "electric_scooter", "is_disabled": 0, "lat": 38.90129116666667, "rental_uris": {"ios": "https://dc.lft.to/lastmile_qr_scan", "android": "https://dc.lft.to/lastmile_qr_scan"}, "is_reserved": 0, "fusion_lon": 0.0, "fusion_lat": 0.0, "lon": -77.012291, "name": "6f3d9c3ee99a2b2ab63c24cb65f66397"}, {"bike_id": "c64e4f65891d8267cd6daf7ad522d51b", "type": "electric_scooter", "is_disabled": 0, "lat": 38.871003, "rental_uris": {"ios": "https://dc.lft.to/lastmile_qr_scan", "android": "https://dc.lft.to/lastmile_qr_scan"}, "is_reserved": 0, "fusion_lon": 0.0, "fusion_lat": 0.0, "lon": -76.96571516666667, "name": "c64e4f65891d8267cd6daf7ad522d51b"}, {"bike_id": "b9e4cbfd393a75bd12f335e45e78e5bb", "type": "electric_scooter", "is_disabled": 0, "lat": 38.9154125, "rental_uris": {"ios": "https://dc.lft.to/lastmile_qr_scan", "android": "https://dc.lft.to/lastmile_qr_scan"}, "is_reserved": 0, "fusion_lon": 0.0, "fusion_lat": 0.0, "lon": -76.983432, "name": "b9e4cbfd393a75bd12f335e45e78e5bb"}, {"bike_id": "104bab07c23dd1a2bbb59c76d7447798", "type": "electric_scooter", "is_disabled": 0, "lat": 38.91697683333334, "rental_uris": {"ios": "https://dc.lft.to/lastmile_qr_scan", "android": "https://dc.lft.to/lastmile_qr_scan"}, "is_reserved": 0, "fusion_lon": 0.0, "fusion_lat": 0.0, "lon": -77.00649366666667, "name": "104bab07c23dd1a2bbb59c76d7447798"}, {"bike_id": "54314d9ede71444f6b6e2127411182b2", "type": "electric_scooter", "is_disabled": 0, "lat": 38.86692816666667, "rental_uris": {"ios": "https://dc.lft.to/lastmile_qr_scan", "android": "https://dc.lft.to/lastmile_qr_scan"}, "is_reserved": 0, "fusion_lon": 0.0, "fusion_lat": 0.0, "lon": -76.9871395, "name": "54314d9ede71444f6b6e2127411182b2"}, {"bike_id": "94941abf927d4d03bedaf6bee5e7d6d3", "type": "electric_scooter", "is_disabled": 0, "lat": 38.917147, "rental_uris": {"ios": "https://dc.lft.to/lastmile_qr_scan", "android": "https://dc.lft.to/lastmile_qr_scan"}, "is_reserved": 0, "fusion_lon": 0.0, "fusion_lat": 0.0, "lon": -77.036529, "name": "94941abf927d4d03bedaf6bee5e7d6d3"}, {"bike_id": "9c2258468887783c1cb7ec05e95a6d63", "type": "electric_scooter", "is_disabled": 0, "lat": 38.87445616666667, "rental_uris": {"ios": "https://dc.lft.to/lastmile_qr_scan", "android": "https://dc.lft.to/lastmile_qr_scan"}, "is_reserved": 0, "fusion_lon": 0.0, "fusion_lat": 0.0, "lon": -77.00037733333333, "name": "9c2258468887783c1cb7ec05e95a6d63"}, {"bike_id": "0b2f2f0f5aa8ca10d66c379216b66727", "type": "electric_scooter", "is_disabled": 0, "lat": 38.904394, "rental_uris": {"ios": "https://dc.lft.to/lastmile_qr_scan", "android": "https://dc.lft.to/lastmile_qr_scan"}, "is_reserved": 0, "fusion_lon": 0.0, "fusion_lat": 0.0, "lon": -77.017303, "name": "0b2f2f0f5aa8ca10d66c379216b66727"}, {"bike_id": "8d95c793f5ca8b3de461be63bc41de1e", "type": "electric_bike", "is_disabled": 0, "lat": 39.054913166666665, "rental_uris": {"ios": "https://dc.lft.to/lastmile_qr_scan", "android": "https://dc.lft.to/lastmile_qr_scan"}, "is_reserved": 0, "fusion_lon": 0.0, "fusion_lat": 0.0, "lon": -77.11787866666667, "name": "8d95c793f5ca8b3de461be63bc41de1e"}, {"bike_id": "4094c68a67cca71c8e7f0fed58138658", "type": "electric_scooter", "is_disabled": 0, "lat": 38.91379933333333, "rental_uris": {"ios": "https://dc.lft.to/lastmile_qr_scan", "android": "https://dc.lft.to/lastmile_qr_scan"}, "is_reserved": 0, "fusion_lon": 0.0, "fusion_lat": 0.0, "lon": -77.04599583333334, "name": "4094c68a67cca71c8e7f0fed58138658"}, {"bike_id": "177233bf415d3b19b5ce9e1884a013d3", "type": "electric_scooter", "is_disabled": 0, "lat": 38.90247983333333, "rental_uris": {"ios": "https://dc.lft.to/lastmile_qr_scan", "android": "https://dc.lft.to/lastmile_qr_scan"}, "is_reserved": 0, "fusion_lon": 0.0, "fusion_lat": 0.0, "lon": -77.01757716666667, "name": "177233bf415d3b19b5ce9e1884a013d3"}, {"bike_id": "0e85599d48148c71b6b9b6b843db141c", "type": "electric_scooter", "is_disabled": 0, "lat": 38.9065855, "rental_uris": {"ios": "https://dc.lft.to/lastmile_qr_scan", "android": "https://dc.lft.to/lastmile_qr_scan"}, "is_reserved": 0, "fusion_lon": 0.0, "fusion_lat": 0.0, "lon": -77.00906583333334, "name": "0e85599d48148c71b6b9b6b843db141c"}, {"bike_id": "ce0e24182432874cdc5d12947e4db0a7", "type": "electric_scooter", "is_disabled": 0, "lat": 38.928827166666665, "rental_uris": {"ios": "https://dc.lft.to/lastmile_qr_scan", "android": "https://dc.lft.to/lastmile_qr_scan"}, "is_reserved": 0, "fusion_lon": 0.0, "fusion_lat": 0.0, "lon": -77.01371916666666, "name": "ce0e24182432874cdc5d12947e4db0a7"}, {"bike_id": "11bd7e09565a1b74126582637f00a6d1", "type": "electric_scooter", "is_disabled": 0, "lat": 38.8859465, "rental_uris": {"ios": "https://dc.lft.to/lastmile_qr_scan", "android": "https://dc.lft.to/lastmile_qr_scan"}, "is_reserved": 0, "fusion_lon": 0.0, "fusion_lat": 0.0, "lon": -76.99600483333333, "name": "11bd7e09565a1b74126582637f00a6d1"}, {"bike_id": "b4e51d7f705931209e817979d9b7fa75", "type": "electric_bike", "is_disabled": 0, "lat": 39.03880983333333, "rental_uris": {"ios": "https://dc.lft.to/lastmile_qr_scan", "android": "https://dc.lft.to/lastmile_qr_scan"}, "is_reserved": 0, "fusion_lon": 0.0, "fusion_lat": 0.0, "lon": -77.05062033333333, "name": "b4e51d7f705931209e817979d9b7fa75"}, {"bike_id": "c169cd7f0ce7cf3baf3c97b4e55b3f16", "type": "electric_scooter", "is_disabled": 0, "lat": 38.90971733333333, "rental_uris": {"ios": "https://dc.lft.to/lastmile_qr_scan", "android": "https://dc.lft.to/lastmile_qr_scan"}, "is_reserved": 0, "fusion_lon": 0.0, "fusion_lat": 0.0, "lon": -77.03379583333333, "name": "c169cd7f0ce7cf3baf3c97b4e55b3f16"}, {"bike_id": "a4fd2371617be898294aab33d8a86571", "type": "electric_scooter", "is_disabled": 0, "lat": 38.92663133333333, "rental_uris": {"ios": "https://dc.lft.to/lastmile_qr_scan", "android": "https://dc.lft.to/lastmile_qr_scan"}, "is_reserved": 0, "fusion_lon": 0.0, "fusion_lat": 0.0, "lon": -76.99532466666666, "name": "a4fd2371617be898294aab33d8a86571"}, {"bike_id": "f16eb698136602313cde64864b83d258", "type": "electric_scooter", "is_disabled": 0, "lat": 38.89862333333333, "rental_uris": {"ios": "https://dc.lft.to/lastmile_qr_scan", "android": "https://dc.lft.to/lastmile_qr_scan"}, "is_reserved": 0, "fusion_lon": 0.0, "fusion_lat": 0.0, "lon": -76.9275265, "name": "f16eb698136602313cde64864b83d258"}, {"bike_id": "a980d853aabcebaac8f1fafee481fa59", "type": "electric_scooter", "is_disabled": 0, "lat": 38.90566666666667, "rental_uris": {"ios": "https://dc.lft.to/lastmile_qr_scan", "android": "https://dc.lft.to/lastmile_qr_scan"}, "is_reserved": 0, "fusion_lon": 0.0, "fusion_lat": 0.0, "lon": -77.03024733333334, "name": "a980d853aabcebaac8f1fafee481fa59"}, {"bike_id": "d85ddad05f06522aff965f8b22710b7d", "type": "electric_scooter", "is_disabled": 0, "lat": 38.929690666666666, "rental_uris": {"ios": "https://dc.lft.to/lastmile_qr_scan", "android": "https://dc.lft.to/lastmile_qr_scan"}, "is_reserved": 0, "fusion_lon": 0.0, "fusion_lat": 0.0, "lon": -77.01686966666666, "name": "d85ddad05f06522aff965f8b22710b7d"}, {"bike_id": "ae0aef00be3f3de2eb8639af4283d791", "type": "electric_scooter", "is_disabled": 0, "lat": 38.92961, "rental_uris": {"ios": "https://dc.lft.to/lastmile_qr_scan", "android": "https://dc.lft.to/lastmile_qr_scan"}, "is_reserved": 0, "fusion_lon": 0.0, "fusion_lat": 0.0, "lon": -77.0293515, "name": "ae0aef00be3f3de2eb8639af4283d791"}, {"bike_id": "235514415dd06fe74b54981621193b1c", "type": "electric_scooter", "is_disabled": 0, "lat": 38.959429, "rental_uris": {"ios": "https://dc.lft.to/lastmile_qr_scan", "android": "https://dc.lft.to/lastmile_qr_scan"}, "is_reserved": 0, "fusion_lon": 0.0, "fusion_lat": 0.0, "lon": -77.03048366666667, "name": "235514415dd06fe74b54981621193b1c"}, {"bike_id": "7a4bd104a7572d1b400e68c186b74016", "type": "electric_scooter", "is_disabled": 0, "lat": 38.90023016666667, "rental_uris": {"ios": "https://dc.lft.to/lastmile_qr_scan", "android": "https://dc.lft.to/lastmile_qr_scan"}, "is_reserved": 0, "fusion_lon": 0.0, "fusion_lat": 0.0, "lon": -76.9992535, "name": "7a4bd104a7572d1b400e68c186b74016"}, {"bike_id": "b2d9a3fe05677e90151c192cc34c20b6", "type": "electric_scooter", "is_disabled": 0, "lat": 38.902824333333335, "rental_uris": {"ios": "https://dc.lft.to/lastmile_qr_scan", "android": "https://dc.lft.to/lastmile_qr_scan"}, "is_reserved": 0, "fusion_lon": 0.0, "fusion_lat": 0.0, "lon": -77.03863183333333, "name": "b2d9a3fe05677e90151c192cc34c20b6"}, {"bike_id": "85692350cc42665115206a2c41a547f0", "type": "electric_scooter", "is_disabled": 0, "lat": 38.91965033333334, "rental_uris": {"ios": "https://dc.lft.to/lastmile_qr_scan", "android": "https://dc.lft.to/lastmile_qr_scan"}, "is_reserved": 0, "fusion_lon": 0.0, "fusion_lat": 0.0, "lon": -77.03218133333333, "name": "85692350cc42665115206a2c41a547f0"}, {"bike_id": "9eed3b263b6d772a4194c3369ae5854b", "type": "electric_scooter", "is_disabled": 0, "lat": 38.9155205, "rental_uris": {"ios": "https://dc.lft.to/lastmile_qr_scan", "android": "https://dc.lft.to/lastmile_qr_scan"}, "is_reserved": 0, "fusion_lon": 0.0, "fusion_lat": 0.0, "lon": -77.03868583333333, "name": "9eed3b263b6d772a4194c3369ae5854b"}, {"bike_id": "932c13d0d84329fe3d6cfc9ff0fbc5a6", "type": "electric_scooter", "is_disabled": 0, "lat": 38.90033533333333, "rental_uris": {"ios": "https://dc.lft.to/lastmile_qr_scan", "android": "https://dc.lft.to/lastmile_qr_scan"}, "is_reserved": 0, "fusion_lon": 0.0, "fusion_lat": 0.0, "lon": -77.00081233333333, "name": "932c13d0d84329fe3d6cfc9ff0fbc5a6"}, {"bike_id": "0ba8a21ece000d4b0b59dc93689b6d08", "type": "electric_scooter", "is_disabled": 0, "lat": 38.90332466666667, "rental_uris": {"ios": "https://dc.lft.to/lastmile_qr_scan", "android": "https://dc.lft.to/lastmile_qr_scan"}, "is_reserved": 0, "fusion_lon": 0.0, "fusion_lat": 0.0, "lon": -76.975893, "name": "0ba8a21ece000d4b0b59dc93689b6d08"}, {"bike_id": "46c54a2eee22780d6c401fcafbc862f8", "type": "electric_scooter", "is_disabled": 0, "lat": 38.911872, "rental_uris": {"ios": "https://dc.lft.to/lastmile_qr_scan", "android": "https://dc.lft.to/lastmile_qr_scan"}, "is_reserved": 0, "fusion_lon": 0.0, "fusion_lat": 0.0, "lon": -77.03288383333333, "name": "46c54a2eee22780d6c401fcafbc862f8"}, {"bike_id": "8baf3e70e78b0db435fdbba0617e7b95", "type": "electric_scooter", "is_disabled": 0, "lat": 38.91697333333333, "rental_uris": {"ios": "https://dc.lft.to/lastmile_qr_scan", "android": "https://dc.lft.to/lastmile_qr_scan"}, "is_reserved": 0, "fusion_lon": 0.0, "fusion_lat": 0.0, "lon": -77.04172166666666, "name": "8baf3e70e78b0db435fdbba0617e7b95"}, {"bike_id": "fc05cf6a32efc2fa4fd66a38a48abe47", "type": "electric_scooter", "is_disabled": 0, "lat": 38.896845166666665, "rental_uris": {"ios": "https://dc.lft.to/lastmile_qr_scan", "android": "https://dc.lft.to/lastmile_qr_scan"}, "is_reserved": 0, "fusion_lon": 0.0, "fusion_lat": 0.0, "lon": -77.03306033333334, "name": "fc05cf6a32efc2fa4fd66a38a48abe47"}, {"bike_id": "b251fccad0808bcf0415422178971fc7", "type": "electric_scooter", "is_disabled": 0, "lat": 38.8997265, "rental_uris": {"ios": "https://dc.lft.to/lastmile_qr_scan", "android": "https://dc.lft.to/lastmile_qr_scan"}, "is_reserved": 0, "fusion_lon": 0.0, "fusion_lat": 0.0, "lon": -77.0527505, "name": "b251fccad0808bcf0415422178971fc7"}, {"bike_id": "e13dc15e2df1bc4ce6e2a11aad11cc7f", "type": "electric_scooter", "is_disabled": 0, "lat": 38.870766333333336, "rental_uris": {"ios": "https://dc.lft.to/lastmile_qr_scan", "android": "https://dc.lft.to/lastmile_qr_scan"}, "is_reserved": 0, "fusion_lon": 0.0, "fusion_lat": 0.0, "lon": -76.98912816666666, "name": "e13dc15e2df1bc4ce6e2a11aad11cc7f"}, {"bike_id": "63e5d599120484d783a1b68ce5fe8744", "type": "electric_scooter", "is_disabled": 0, "lat": 38.923691833333336, "rental_uris": {"ios": "https://dc.lft.to/lastmile_qr_scan", "android": "https://dc.lft.to/lastmile_qr_scan"}, "is_reserved": 0, "fusion_lon": 0.0, "fusion_lat": 0.0, "lon": -77.04311683333333, "name": "63e5d599120484d783a1b68ce5fe8744"}, {"bike_id": "37caa85493e4f4dea658b6d2a0e1d163", "type": "electric_scooter", "is_disabled": 0, "lat": 38.91769016666667, "rental_uris": {"ios": "https://dc.lft.to/lastmile_qr_scan", "android": "https://dc.lft.to/lastmile_qr_scan"}, "is_reserved": 0, "fusion_lon": 0.0, "fusion_lat": 0.0, "lon": -77.02307533333334, "name": "37caa85493e4f4dea658b6d2a0e1d163"}, {"bike_id": "9f7cd5a7407c8013839985df381a7128", "type": "electric_scooter", "is_disabled": 0, "lat": 38.896676, "rental_uris": {"ios": "https://dc.lft.to/lastmile_qr_scan", "android": "https://dc.lft.to/lastmile_qr_scan"}, "is_reserved": 0, "fusion_lon": 0.0, "fusion_lat": 0.0, "lon": -76.98810733333333, "name": "9f7cd5a7407c8013839985df381a7128"}, {"bike_id": "30d2fa21f823b0b497bdcbe40008f9b2", "type": "electric_scooter", "is_disabled": 0, "lat": 38.92817316666667, "rental_uris": {"ios": "https://dc.lft.to/lastmile_qr_scan", "android": "https://dc.lft.to/lastmile_qr_scan"}, "is_reserved": 0, "fusion_lon": 0.0, "fusion_lat": 0.0, "lon": -77.02253516666667, "name": "30d2fa21f823b0b497bdcbe40008f9b2"}, {"bike_id": "024e216ad3eb82a5a497ce96ff9d21ff", "type": "electric_scooter", "is_disabled": 0, "lat": 38.906772333333336, "rental_uris": {"ios": "https://dc.lft.to/lastmile_qr_scan", "android": "https://dc.lft.to/lastmile_qr_scan"}, "is_reserved": 0, "fusion_lon": 0.0, "fusion_lat": 0.0, "lon": -77.0717565, "name": "024e216ad3eb82a5a497ce96ff9d21ff"}, {"bike_id": "ac0398ce6d720a206ffe49420bb55da7", "type": "electric_scooter", "is_disabled": 0, "lat": 38.9106935, "rental_uris": {"ios": "https://dc.lft.to/lastmile_qr_scan", "android": "https://dc.lft.to/lastmile_qr_scan"}, "is_reserved": 0, "fusion_lon": 0.0, "fusion_lat": 0.0, "lon": -77.03840833333334, "name": "ac0398ce6d720a206ffe49420bb55da7"}, {"bike_id": "572ae261333e9441fc94e222ab6abb5f", "type": "electric_scooter", "is_disabled": 0, "lat": 38.92098933333333, "rental_uris": {"ios": "https://dc.lft.to/lastmile_qr_scan", "android": "https://dc.lft.to/lastmile_qr_scan"}, "is_reserved": 0, "fusion_lon": 0.0, "fusion_lat": 0.0, "lon": -77.030505, "name": "572ae261333e9441fc94e222ab6abb5f"}, {"bike_id": "cc49753ccd78870a5e56c998c584820f", "type": "electric_scooter", "is_disabled": 0, "lat": 38.91364466666667, "rental_uris": {"ios": "https://dc.lft.to/lastmile_qr_scan", "android": "https://dc.lft.to/lastmile_qr_scan"}, "is_reserved": 0, "fusion_lon": 0.0, "fusion_lat": 0.0, "lon": -77.04492833333333, "name": "cc49753ccd78870a5e56c998c584820f"}, {"bike_id": "797dc5d74bbc779fcb07c404807ab164", "type": "electric_scooter", "is_disabled": 0, "lat": 38.871403, "rental_uris": {"ios": "https://dc.lft.to/lastmile_qr_scan", "android": "https://dc.lft.to/lastmile_qr_scan"}, "is_reserved": 0, "fusion_lon": 0.0, "fusion_lat": 0.0, "lon": -77.0075305, "name": "797dc5d74bbc779fcb07c404807ab164"}, {"bike_id": "052890cb8cbc7e04bb5e15e41fb7c873", "type": "electric_scooter", "is_disabled": 0, "lat": 38.90113983333333, "rental_uris": {"ios": "https://dc.lft.to/lastmile_qr_scan", "android": "https://dc.lft.to/lastmile_qr_scan"}, "is_reserved": 0, "fusion_lon": 0.0, "fusion_lat": 0.0, "lon": -76.9295295, "name": "052890cb8cbc7e04bb5e15e41fb7c873"}, {"bike_id": "18e32b6373a0a7fba6d39d37e70c9517", "type": "electric_bike", "is_disabled": 0, "lat": 38.935575666666665, "rental_uris": {"ios": "https://dc.lft.to/lastmile_qr_scan", "android": "https://dc.lft.to/lastmile_qr_scan"}, "is_reserved": 0, "fusion_lon": 0.0, "fusion_lat": 0.0, "lon": -77.02147366666667, "name": "18e32b6373a0a7fba6d39d37e70c9517"},