{"data": {"bikes": [{"lat": 38.918068833333336, "lon": -77.03182733333334, "is_disabled": 0, "fusion_lon": 0.0, "is_reserved": 0, "name": "850ce58efdb02493783ac283c7083153", "type": "electric_scooter", "bike_id": "850ce58efdb02493783ac283c7083153", "rental_uris": {"ios": "https://dc.lft.to/lastmile_qr_scan", "android": "https://dc.lft.to/lastmile_qr_scan"}, "fusion_lat": 0.0}, {"lat": 38.922938, "lon": -77.04270183333334, "is_disabled": 0, "fusion_lon": 0.0, "is_reserved": 0, "name": "d44980a687408a2866f188a336851a49", "type": "electric_scooter", "bike_id": "d44980a687408a2866f188a336851a49", "rental_uris": {"ios": "https://dc.lft.to/lastmile_qr_scan", "android": "https://dc.lft.to/lastmile_qr_scan"}, "fusion_lat": 0.0}, {"lat": 38.92364883333333, "lon": -77.04402083333333, "is_disabled": 0, "fusion_lon": 0.0, "is_reserved": 0, "name": "04938abafcb54ed4bf5d95ff713ba997", "type": "electric_scooter", "bike_id": "04938abafcb54ed4bf5d95ff713ba997", "rental_uris": {"ios": "https://dc.lft.to/lastmile_qr_scan", "android": "https://dc.lft.to/lastmile_qr_scan"}, "fusion_lat": 0.0}, {"lat": 38.91682333333333, "lon": -77.0368585, "is_disabled": 0, "fusion_lon": 0.0, "is_reserved": 0, "name": "141c1ccae7240a44412a961552db5923", "type": "electric_scooter", "bike_id": "141c1ccae7240a44412a961552db5923", "rental_uris": {"ios": "https://dc.lft.to/lastmile_qr_scan", "android": "https://dc.lft.to/lastmile_qr_scan"}, "fusion_lat": 0.0}, {"lat": 38.90961716666666, "lon": -77.02415116666667, "is_disabled": 0, "fusion_lon": 0.0, "is_reserved": 0, "name": "41255569b86d2599c41fa680b07177df", "type": "electric_scooter", "bike_id": "41255569b86d2599c41fa680b07177df", "rental_uris": {"ios": "https://dc.lft.to/lastmile_qr_scan", "android": "https://dc.lft.to/lastmile_qr_scan"}, "fusion_lat": 0.0}, {"lat": 38.89812366666666, "lon": -77.05032833333334, "is_disabled": 0, "fusion_lon": 0.0, "is_reserved": 0, "name": "e7cdc98709e46697a8552f3c2ee8706a", "type": "electric_scooter", "bike_id": "e7cdc98709e46697a8552f3c2ee8706a", "rental_uris": {"ios": "https://dc.lft.to/lastmile_qr_scan", "android": "https://dc.lft.to/lastmile_qr_scan"}, "fusion_lat": 0.0}, {"lat": 38.9018575, "lon": -77.02487916666666, "is_disabled": 0, "fusion_lon": 0.0, "is_reserved": 0, "name": "387bed1d3dad0bd1b755522a4bd5a4ef", "type": "electric_scooter", "bike_id": "387bed1d3dad0bd1b755522a4bd5a4ef", "rental_uris": {"ios": "https://dc.lft.to/lastmile_qr_scan", "android": "https://dc.lft.to/lastmile_qr_scan"}, "fusion_lat": 0.0}, {"lat": 38.92360133333333, "lon": -77.0320125, "is_disabled": 0, "fusion_lon": 0.0, "is_reserved": 0, "name": "30a0d21348cd7cdcc47d56b894c47c85", "type": "electric_scooter", "bike_id": "30a0d21348cd7cdcc47d56b894c47c85", "rental_uris": {"ios": "https://dc.lft.to/lastmile_qr_scan", "android": "https://dc.lft.to/lastmile_qr_scan"}, "fusion_lat": 0.0}, {"lat": 38.909925, "lon": -77.040044, "is_disabled": 0, "fusion_lon": 0.0, "is_reserved": 0, "name": "8284acd6e510018bfdb64f16091c7d45", "type": "electric_scooter", "bike_id": "8284acd6e510018bfdb64f16091c7d45", "rental_uris": {"ios": "https://dc.lft.to/lastmile_qr_scan", "android": "https://dc.lft.to/lastmile_qr_scan"}, "fusion_lat": 0.0}, {"lat": 38.91525983333333, "lon": -77.0142605, "is_disabled": 0, "fusion_lon": 0.0, "is_reserved": 0, "name": "09fef3009022fc97fecf7a4f0d29cd79", "type": "electric_scooter", "bike_id": "09fef3009022fc97fecf7a4f0d29cd79", "rental_uris": {"ios": "https://dc.lft.to/lastmile_qr_scan", "android": "https://dc.lft.to/lastmile_qr_scan"}, "fusion_lat": 0.0}, {"lat": 38.9139985, "lon": -77.0140555, "is_disabled": 0, "fusion_lon": 0.0, "is_reserved": 0, "name": "443aca2f10bb45c815123e5c49c49147", "type": "electric_scooter", "bike_id": "443aca2f10bb45c815123e5c49c49147", "rental_uris": {"ios": "https://dc.lft.to/lastmile_qr_scan", "android": "https://dc.lft.to/lastmile_qr_scan"}, "fusion_lat": 0.0}, {"lat": 38.91775466666667, "lon": -77.04337083333333, "is_disabled": 0, "fusion_lon": 0.0, "is_reserved": 0, "name": "867e7e2f6a9f53a7642da12b76c2b408", "type": "electric_scooter", "bike_id": "867e7e2f6a9f53a7642da12b76c2b408", "rental_uris": {"ios": "https://dc.lft.to/lastmile_qr_scan", "android": "https://dc.lft.to/lastmile_qr_scan"}, "fusion_lat": 0.0}, {"lat": 38.82036766666667, "lon": -77.0536135, "is_disabled": 0, "fusion_lon": 0.0, "is_reserved": 0, "name": "1e33f696cc6a79e2d180535a1b2b570f", "type": "electric_bike", "bike_id": "1e33f696cc6a79e2d180535a1b2b570f", "rental_uris": {"ios": "https://dc.lft.to/lastmile_qr_scan", "android": "https://dc.lft.to/lastmile_qr_scan"}, "fusion_lat": 0.0}, {"lat": 38.924642166666665, "lon": -77.0225, "is_disabled": 0, "fusion_lon": 0.0, "is_reserved": 0, "name": "97a19ff28d3aac70033b6be7e1611193", "type": "electric_scooter", "bike_id": "97a19ff28d3aac70033b6be7e1611193", "rental_uris": {"ios": "https://dc.lft.to/lastmile_qr_scan", "android": "https://dc.lft.to/lastmile_qr_scan"}, "fusion_lat": 0.0}, {"lat": 38.91677416666667, "lon": -77.02279316666667, "is_disabled": 0, "fusion_lon": 0.0, "is_reserved": 0, "name": "1fe4029272a438e677c8bbe14e796e65", "type": "electric_scooter", "bike_id": "1fe4029272a438e677c8bbe14e796e65", "rental_uris": {"ios": "https://dc.lft.to/lastmile_qr_scan", "android": "https://dc.lft.to/lastmile_qr_scan"}, "fusion_lat": 0.0}, {"lat": 38.900215833333334, "lon": -77.01766366666666, "is_disabled": 0, "fusion_lon": 0.0, "is_reserved": 0, "name": "8fad3c78e5388ef83e9a1e9c1af2b8ff", "type": "electric_scooter", "bike_id": "8fad3c78e5388ef83e9a1e9c1af2b8ff", "rental_uris": {"ios": "https://dc.lft.to/lastmile_qr_scan", "android": "https://dc.lft.to/lastmile_qr_scan"}, "fusion_lat": 0.0}, {"lat": 38.89003183333333, "lon": -76.93699166666667, "is_disabled": 0, "fusion_lon": 0.0, "is_reserved": 0, "name": "8e9814f134cef969145e13b34d6f5afd", "type": "electric_scooter", "bike_id": "8e9814f134cef969145e13b34d6f5afd", "rental_uris": {"ios": "https://dc.lft.to/lastmile_qr_scan", "android": "https://dc.lft.to/lastmile_qr_scan"}, "fusion_lat": 0.0}, {"lat": 38.91405183333333, "lon": -77.029877, "is_disabled": 0, "fusion_lon": 0.0, "is_reserved": 0, "name": "92c00ae918a920544279610feddc9275", "type": "electric_scooter", "bike_id": "92c00ae918a920544279610feddc9275", "rental_uris": {"ios": "https://dc.lft.to/lastmile_qr_scan", "android": "https://dc.lft.to/lastmile_qr_scan"}, "fusion_lat": 0.0}, {"lat": 38.8351445, "lon": -76.986766, "is_disabled": 0, "fusion_lon": 0.0, "is_reserved": 0, "name": "2593702aa5a8e295f5b1a3e481148781", "type": "electric_bike", "bike_id": "2593702aa5a8e295f5b1a3e481148781", "rental_uris": {"ios": "https://dc.lft.to/lastmile_qr_scan", "android": "https://dc.lft.to/lastmile_qr_scan"}, "fusion_lat": 0.0}, {"lat": 38.872145833333335, "lon": -77.01387883333334, "is_disabled": 0, "fusion_lon": 0.0, "is_reserved": 0, "name": "414ae3f9617f4019a7a6e127804dbbba", "type": "electric_scooter", "bike_id": "414ae3f9617f4019a7a6e127804dbbba", "rental_uris": {"ios": "https://dc.lft.to/lastmile_qr_scan", "android": "https://dc.lft.to/lastmile_qr_scan"}, "fusion_lat": 0.0}, {"lat": 38.9360725, "lon": -77.05856883333334, "is_disabled": 0, "fusion_lon": 0.0, "is_reserved": 0, "name": "8d7b126c7a09395f0c0a7da8eecfa579", "type": "electric_scooter", "bike_id": "8d7b126c7a09395f0c0a7da8eecfa579", "rental_uris": {"ios": "https://dc.lft.to/lastmile_qr_scan", "android": "https://dc.lft.to/lastmile_qr_scan"}, "fusion_lat": 0.0}, {"lat": 38.887467666666666, "lon": -77.01778416666667, "is_disabled": 0, "fusion_lon": 0.0, "is_reserved": 0, "name": "f055f2e32de57176f335ec32b6963452", "type": "electric_scooter", "bike_id": "f055f2e32de57176f335ec32b6963452", "rental_uris": {"ios": "https://dc.lft.to/lastmile_qr_scan", "android": "https://dc.lft.to/lastmile_qr_scan"}, "fusion_lat": 0.0}, {"lat": 38.88990616666667, "lon": -76.95431416666666, "is_disabled": 0, "fusion_lon": 0.0, "is_reserved": 0, "name": "57d3c5196c74cad6722d721949fcd5d1", "type": "electric_scooter", "bike_id": "57d3c5196c74cad6722d721949fcd5d1", "rental_uris": {"ios": "https://dc.lft.to/lastmile_qr_scan", "android": "https://dc.lft.to/lastmile_qr_scan"}, "fusion_lat": 0.0}, {"lat": 38.90077266666667, "lon": -77.04770683333334, "is_disabled": 0, "fusion_lon": 0.0, "is_reserved": 0, "name": "a0c18cff203114881838e23d87664f1e", "type": "electric_scooter", "bike_id": "a0c18cff203114881838e23d87664f1e", "rental_uris": {"ios": "https://dc.lft.to/lastmile_qr_scan", "android": "https://dc.lft.to/lastmile_qr_scan"}, "fusion_lat": 0.0}, {"lat": 38.91111466666667, "lon": -77.01156533333334, "is_disabled": 0, "fusion_lon": 0.0, "is_reserved": 0, "name": "241ec19eda147f42feaa21ac410480a0", "type": "electric_scooter", "bike_id": "241ec19eda147f42feaa21ac410480a0", "rental_uris": {"ios": "https://dc.lft.to/lastmile_qr_scan", "android": "https://dc.lft.to/lastmile_qr_scan"}, "fusion_lat": 0.0}, {"lat": 38.898411, "lon": -77.02787333333333, "is_disabled": 0, "fusion_lon": 0.0, "is_reserved": 0, "name": "59b694f77b4a49e7d1c5c54478c8bbad", "type": "electric_scooter", "bike_id": "59b694f77b4a49e7d1c5c54478c8bbad", "rental_uris": {"ios": "https://dc.lft.to/lastmile_qr_scan", "android": "https://dc.lft.to/lastmile_qr_scan"}, "fusion_lat": 0.0}, {"lat": 38.9234435, "lon": -77.0517265, "is_disabled": 0, "fusion_lon": 0.0, "is_reserved": 0, "name": "f168a89ea471ccc611ad5cb594b542c8", "type": "electric_scooter", "bike_id": "f168a89ea471ccc611ad5cb594b542c8", "rental_uris": {"ios": "https://dc.lft.to/lastmile_qr_scan", "android": "https://dc.lft.to/lastmile_qr_scan"}, "fusion_lat": 0.0}, {"lat": 38.90182216666667, "lon": -77.05056816666666, "is_disabled": 0, "fusion_lon": 0.0, "is_reserved": 0, "name": "eeefe6851ee13312813abe8fe5d1ba75", "type": "electric_scooter", "bike_id": "eeefe6851ee13312813abe8fe5d1ba75", "rental_uris": {"ios": "https://dc.lft.to/lastmile_qr_scan", "android": "https://dc.lft.to/lastmile_qr_scan"}, "fusion_lat": 0.0}, {"lat": 38.9191925, "lon": -77.03420416666667, "is_disabled": 0, "fusion_lon": 0.0, "is_reserved": 0, "name": "2e1c4d619539e5af4e0debc63debe88b", "type": "electric_scooter", "bike_id": "2e1c4d619539e5af4e0debc63debe88b", "rental_uris": {"ios": "https://dc.lft.to/lastmile_qr_scan", "android": "https://dc.lft.to/lastmile_qr_scan"}, "fusion_lat": 0.0}, {"lat": 38.93082483333333, "lon": -77.0279395, "is_disabled": 0, "fusion_lon": 0.0, "is_reserved": 0, "name": "87636b510e799689f62e651716d00a40", "type": "electric_scooter", "bike_id": "87636b510e799689f62e651716d00a40", "rental_uris": {"ios": "https://dc.lft.to/lastmile_qr_scan", "android": "https://dc.lft.to/lastmile_qr_scan"}, "fusion_lat": 0.0}, {"lat": 38.92045366666667, "lon": -77.0257655, "is_disabled": 0, "fusion_lon": 0.0, "is_reserved": 0, "name": "61ce8a1a67b51b01e82c61de08ffc248", "type": "electric_scooter", "bike_id": "61ce8a1a67b51b01e82c61de08ffc248", "rental_uris": {"ios": "https://dc.lft.to/lastmile_qr_scan", "android": "https://dc.lft.to/lastmile_qr_scan"}, "fusion_lat": 0.0}, {"lat": 38.91693583333333, "lon": -77.02870183333333, "is_disabled": 0, "fusion_lon": 0.0, "is_reserved": 0, "name": "a32b8063003201489846163ab5fdd870", "type": "electric_scooter", "bike_id": "a32b8063003201489846163ab5fdd870", "rental_uris": {"ios": "https://dc.lft.to/lastmile_qr_scan", "android": "https://dc.lft.to/lastmile_qr_scan"}, "fusion_lat": 0.0}, {"lat": 38.83755216666667, "lon": -77.09294433333334, "is_disabled": 0, "fusion_lon": 0.0, "is_reserved": 0, "name": "0e3c9e56b93257b5ac0ac430cbc89173", "type": "electric_bike", "bike_id": "0e3c9e56b93257b5ac0ac430cbc89173", "rental_uris": {"ios": "https://dc.lft.to/lastmile_qr_scan", "android": "https://dc.lft.to/lastmile_qr_scan"}, "fusion_lat": 0.0}, {"lat": 38.923878333333334, "lon": -77.02654283333334, "is_disabled": 0, "fusion_lon": 0.0, "is_reserved": 0, "name": "c38688a56595811f9d9f21e813ff1b2d", "type": "electric_scooter", "bike_id": "c38688a56595811f9d9f21e813ff1b2d", "rental_uris": {"ios": "https://dc.lft.to/lastmile_qr_scan", "android": "https://dc.lft.to/lastmile_qr_scan"}, "fusion_lat": 0.0}, {"lat": 38.91324783333334, "lon": -77.03980716666666, "is_disabled": 0, "fusion_lon": 0.0, "is_reserved": 0, "name": "adc2b746af869787f9db5b93f40d0063", "type": "electric_scooter", "bike_id": "adc2b746af869787f9db5b93f40d0063", "rental_uris": {"ios": "https://dc.lft.to/lastmile_qr_scan", "android": "https://dc.lft.to/lastmile_qr_scan"}, "fusion_lat": 0.0}, {"lat": 38.97880083333333, "lon": -77.0602705, "is_disabled": 0, "fusion_lon": 0.0, "is_reserved": 0, "name": "98b943385f2ea71b61575bebcbef9cc9", "type": "electric_bike", "bike_id": "98b943385f2ea71b61575bebcbef9cc9", "rental_uris": {"ios": "https://dc.lft.to/lastmile_qr_scan", "android": "https://dc.lft.to/lastmile_qr_scan"}, "fusion_lat": 0.0}, {"lat": 38.925887333333336, "lon": -77.03227466666667, "is_disabled": 0, "fusion_lon": 0.0, "is_reserved": 0, "name": "e501c4f6ae941e560cc183b6b86d764c", "type": "electric_scooter", "bike_id": "e501c4f6ae941e560cc183b6b86d764c", "rental_uris": {"ios": "https://dc.lft.to/lastmile_qr_scan", "android": "https://dc.lft.to/lastmile_qr_scan"}, "fusion_lat": 0.0}, {"lat": 38.912583166666664, "lon": -77.0470265, "is_disabled": 0, "fusion_lon": 0.0, "is_reserved": 0, "name": "dccc249b065770242dea610c5e8f9246", "type": "electric_scooter", "bike_id": "dccc249b065770242dea610c5e8f9246", "rental_uris": {"ios": "https://dc.lft.to/lastmile_qr_scan", "android": "https://dc.lft.to/lastmile_qr_scan"}, "fusion_lat": 0.0}, {"lat": 38.91227516666667, "lon": -77.038358, "is_disabled": 0, "fusion_lon": 0.0, "is_reserved": 0, "name": "6882198dcb6aba20cc38599566cc85a8", "type": "electric_scooter", "bike_id": "6882198dcb6aba20cc38599566cc85a8", "rental_uris": {"ios": "https://dc.lft.to/lastmile_qr_scan", "android": "https://dc.lft.to/lastmile_qr_scan"}, "fusion_lat": 0.0}, {"lat": 38.90475883333333, "lon": -77.0189465, "is_disabled": 0, "fusion_lon": 0.0, "is_reserved": 0, "name": "2abdf1a49969366bbbb1ecffb8223ed6", "type": "electric_scooter", "bike_id": "2abdf1a49969366bbbb1ecffb8223ed6", "rental_uris": {"ios": "https://dc.lft.to/lastmile_qr_scan", "android": "https://dc.lft.to/lastmile_qr_scan"}, "fusion_lat": 0.0}, {"lat": 38.9067685, "lon": -77.03647816666667, "is_disabled": 0, "fusion_lon": 0.0, "is_reserved": 0, "name": "8402ccfb84184d204a9ba2fbd47bb20f", "type": "electric_scooter", "bike_id": "8402ccfb84184d204a9ba2fbd47bb20f", "rental_uris": {"ios": "https://dc.lft.to/lastmile_qr_scan", "android": "https://dc.lft.to/lastmile_qr_scan"}, "fusion_lat": 0.0}, {"lat": 38.907732333333335, "lon": -77.04496466666667, "is_disabled": 0, "fusion_lon": 0.0, "is_reserved": 0, "name": "7537652a9ae29bd8a1d5c08570216b24", "type": "electric_scooter", "bike_id": "7537652a9ae29bd8a1d5c08570216b24", "rental_uris": {"ios": "https://dc.lft.to/lastmile_qr_scan", "android": "https://dc.lft.to/lastmile_qr_scan"}, "fusion_lat": 0.0}, {"lat": 38.88376566666667, "lon": -77.01960983333333, "is_disabled": 0, "fusion_lon": 0.0, "is_reserved": 0, "name": "49d2138d4000dd723b46841c95cc8ada", "type": "electric_scooter", "bike_id": "49d2138d4000dd723b46841c95cc8ada", "rental_uris": {"ios": "https://dc.lft.to/lastmile_qr_scan", "android": "https://dc.lft.to/lastmile_qr_scan"}, "fusion_lat": 0.0}, {"lat": 38.91700133333333, "lon": -77.04017383333333, "is_disabled": 0, "fusion_lon": 0.0, "is_reserved": 0, "name": "7c508441a50be9988d57e261b5630f26", "type": "electric_scooter", "bike_id": "7c508441a50be9988d57e261b5630f26", "rental_uris": {"ios": "https://dc.lft.to/lastmile_qr_scan", "android": "https://dc.lft.to/lastmile_qr_scan"}, "fusion_lat": 0.0}, {"lat": 38.901549, "lon": -77.02286983333333, "is_disabled": 0, "fusion_lon": 0.0, "is_reserved": 0, "name": "d277692da0ad83ca355c5a43474441ed", "type": "electric_bike", "bike_id": "d277692da0ad83ca355c5a43474441ed", "rental_uris": {"ios": "https://dc.lft.to/lastmile_qr_scan", "android": "https://dc.lft.to/lastmile_qr_scan"}, "fusion_lat": 0.0}, {"lat": 38.877931, "lon": -76.99939933333333, "is_disabled": 0, "fusion_lon": 0.0, "is_reserved": 0, "name": "5d9737c40dad9ab5b4d0db673e498e96", "type": "electric_scooter", "bike_id": "5d9737c40dad9ab5b4d0db673e498e96", "rental_uris": {"ios": "https://dc.lft.to/lastmile_qr_scan", "android": "https://dc.lft.to/lastmile_qr_scan"}, "fusion_lat": 0.0}, {"lat": 38.90556183333333, "lon": -77.00189216666666, "is_disabled": 0, "fusion_lon": 0.0, "is_reserved": 0, "name": "4a74961d65a5bdf02e92b44c6038a4d0", "type": "electric_scooter", "bike_id": "4a74961d65a5bdf02e92b44c6038a4d0", "rental_uris": {"ios": "https://dc.lft.to/lastmile_qr_scan", "android": "https://dc.lft.to/lastmile_qr_scan"}, "fusion_lat": 0.0}, {"lat": 38.907579166666665, "lon": -77.03581633333333, "is_disabled": 0, "fusion_lon": 0.0, "is_reserved": 0, "name": "464720f1b75aeb6ea811f61e34f056ad", "type": "electric_scooter", "bike_id": "464720f1b75aeb6ea811f61e34f056ad", "rental_uris": {"ios": "https://dc.lft.to/lastmile_qr_scan", "android": "https://dc.lft.to/lastmile_qr_scan"}, "fusion_lat": 0.0}, {"lat": 38.890697833333334, "lon": -76.9445505, "is_disabled": 0, "fusion_lon": 0.0, "is_reserved": 0, "name": "be6c9d0907dc536aa40b85b300f72c08", "type": "electric_scooter", "bike_id": "be6c9d0907dc536aa40b85b300f72c08", "rental_uris": {"ios": "https://dc.lft.to/lastmile_qr_scan", "android": "https://dc.lft.to/lastmile_qr_scan"}, "fusion_lat": 0.0}, {"lat": 38.9023385, "lon": -77.03791433333333, "is_disabled": 0, "fusion_lon": 0.0, "is_reserved": 0, "name": "c7053d2b7973316baf4220998ac36e39", "type": "electric_scooter", "bike_id": "c7053d2b7973316baf4220998ac36e39", "rental_uris": {"ios": "https://dc.lft.to/lastmile_qr_scan", "android": "https://dc.lft.to/lastmile_qr_scan"}, "fusion_lat": 0.0}, {"lat": 38.92738633333333, "lon": -77.02249733333333, "is_disabled": 0, "fusion_lon": 0.0, "is_reserved": 0, "name": "382fffd33ef8b361f1b9340c0496e05f", "type": "electric_scooter", "bike_id": "382fffd33ef8b361f1b9340c0496e05f", "rental_uris": {"ios": "https://dc.lft.to/lastmile_qr_scan", "android": "https://dc.lft.to/lastmile_qr_scan"}, "fusion_lat": 0.0}, {"lat": 38.940848333333335, "lon": -77.02642333333333, "is_disabled": 0, "fusion_lon": 0.0, "is_reserved": 0, "name": "6b391121e76e5f9423aa7d5e4f4a2971", "type": "electric_scooter", "bike_id": "6b391121e76e5f9423aa7d5e4f4a2971", "rental_uris": {"ios": "https://dc.lft.to/lastmile_qr_scan", "android": "https://dc.lft.to/lastmile_qr_scan"}, "fusion_lat": 0.0}, {"lat": 38.91691133333333, "lon": -77.03037966666666, "is_disabled": 0, "fusion_lon": 0.0, "is_reserved": 0, "name": "1f4928e3fd6b511603ef53eedc578bbc", "type": "electric_scooter", "bike_id": "1f4928e3fd6b511603ef53eedc578bbc", "rental_uris": {"ios": "https://dc.lft.to/lastmile_qr_scan", "android": "https://dc.lft.to/lastmile_qr_scan"}, "fusion_lat": 0.0}, {"lat": 38.915370333333335, "lon": -77.037927, "is_disabled": 0, "fusion_lon": 0.0, "is_reserved": 0, "name": "93304b0487af1aee447f16eda26a48c5", "type": "electric_scooter", "bike_id": "93304b0487af1aee447f16eda26a48c5", "rental_uris": {"ios": "https://dc.lft.to/lastmile_qr_scan", "android": "https://dc.lft.to/lastmile_qr_scan"}, "fusion_lat": 0.0}, {"lat": 38.92482433333333, "lon": -77.02207916666667, "is_disabled": 0, "fusion_lon": 0.0, "is_reserved": 0, "name": "1be2d4963f9a02bb70d028dd18c94fb8", "type": "electric_scooter", "bike_id": "1be2d4963f9a02bb70d028dd18c94fb8", "rental_uris": {"ios": "https://dc.lft.to/lastmile_qr_scan", "android": "https://dc.lft.to/lastmile_qr_scan"}, "fusion_lat": 0.0}, {"lat": 38.918065666666664, "lon": -77.03208366666667, "is_disabled": 0, "fusion_lon": 0.0, "is_reserved": 0, "name": "3033197d6cf5520b36acfd2adf7fbd8e", "type": "electric_scooter", "bike_id": "3033197d6cf5520b36acfd2adf7fbd8e", "rental_uris": {"ios": "https://dc.lft.to/lastmile_qr_scan", "android": "https://dc.lft.to/lastmile_qr_scan"}, "fusion_lat": 0.0}, {"lat": 38.91674783333333, "lon": -77.02277733333334, "is_disabled": 0, "fusion_lon": 0.0, "is_reserved": 0, "name": "4ff2ce8a9710d075579f4c218d3d7731", "type": "electric_scooter", "bike_id": "4ff2ce8a9710d075579f4c218d3d7731", "rental_uris": {"ios": "https://dc.lft.to/lastmile_qr_scan", "android": "https://dc.lft.to/lastmile_qr_scan"}, "fusion_lat": 0.0}, {"lat": 38.903818, "lon": -77.0513115, "is_disabled": 0, "fusion_lon": 0.0, "is_reserved": 0, "name": "9248d0be6c660ba26405c3a2de92f966", "type": "electric_scooter", "bike_id": "9248d0be6c660ba26405c3a2de92f966", "rental_uris": {"ios": "https://dc.lft.to/lastmile_qr_scan", "android": "https://dc.lft.to/lastmile_qr_scan"}, "fusion_lat": 0.0}, {"lat": 38.899802333333334, "lon": -77.01641566666666, "is_disabled": 0, "fusion_lon": 0.0, "is_reserved": 0, "name": "6b8b31cc7b84343eadeab3d6abecdce6", "type": "electric_scooter", "bike_id": "6b8b31cc7b84343eadeab3d6abecdce6", "rental_uris": {"ios": "https://dc.lft.to/lastmile_qr_scan", "android": "https://dc.lft.to/lastmile_qr_scan"}, "fusion_lat": 0.0}, {"lat": 38.909953, "lon": -77.03198716666667, "is_disabled": 0, "fusion_lon": 0.0, "is_reserved": 0, "name": "d6cf119f62d04e1e6ce21669e31e7f53", "type": "electric_scooter", "bike_id": "d6cf119f62d04e1e6ce21669e31e7f53", "rental_uris": {"ios": "https://dc.lft.to/lastmile_qr_scan", "android": "https://dc.lft.to/lastmile_qr_scan"}, "fusion_lat": 0.0}, {"lat": 38.931002166666666, "lon": -77.02473666666667, "is_disabled": 0, "fusion_lon": 0.0, "is_reserved": 0, "name": "f8c96f05af376ee8b0a4632c1ec8eee7", "type": "electric_scooter", "bike_id": "f8c96f05af376ee8b0a4632c1ec8eee7", "rental_uris": {"ios": "https://dc.lft.to/lastmile_qr_scan", "android": "https://dc.lft.to/lastmile_qr_scan"}, "fusion_lat": 0.0}, {"lat": 38.87628683333333, "lon": -77.016114, "is_disabled": 0, "fusion_lon": 0.0, "is_reserved": 0, "name": "66c50c8dade7b607fc31a32c09326bbf", "type": "electric_scooter", "bike_id": "66c50c8dade7b607fc31a32c09326bbf", "rental_uris": {"ios": "https://dc.lft.to/lastmile_qr_scan", "android": "https://dc.lft.to/lastmile_qr_scan"}, "fusion_lat": 0.0}, {"lat": 38.88018916666667, "lon": -76.9807215, "is_disabled": 0, "fusion_lon": 0.0, "is_reserved": 0, "name": "d0b8643b03d30f91cdd6ee704a0f33bf", "type": "electric_scooter", "bike_id": "d0b8643b03d30f91cdd6ee704a0f33bf", "rental_uris": {"ios": "https://dc.lft.to/lastmile_qr_scan", "android": "https://dc.lft.to/lastmile_qr_scan"}, "fusion_lat": 0.0}, {"lat": 38.962135, "lon": -77.02627133333333, "is_disabled": 0, "fusion_lon": 0.0, "is_reserved": 0, "name": "089621d6975fb5283306c7f06a6a8692", "type": "electric_bike", "bike_id": "089621d6975fb5283306c7f06a6a8692", "rental_uris": {"ios": "https://dc.lft.to/lastmile_qr_scan", "android": "https://dc.lft.to/lastmile_qr_scan"}, "fusion_lat": 0.0}, {"lat": 38.917995, "lon": -77.04014416666666, "is_disabled": 0, "fusion_lon": 0.0, "is_reserved": 0, "name": "999405b5886c0a2926e7bbed1835211d", "type": "electric_scooter", "bike_id": "999405b5886c0a2926e7bbed1835211d", "rental_uris": {"ios": "https://dc.lft.to/lastmile_qr_scan", "android": "https://dc.lft.to/lastmile_qr_scan"}, "fusion_lat": 0.0}, {"lat": 38.88736316666667, "lon": -77.03182066666666, "is_disabled": 0, "fusion_lon": 0.0, "is_reserved": 0, "name": "1175727f88f06121bfdbcc232a2a2e51", "type": "electric_scooter", "bike_id": "1175727f88f06121bfdbcc232a2a2e51", "rental_uris": {"ios": "https://dc.lft.to/lastmile_qr_scan", "android": "https://dc.lft.to/lastmile_qr_scan"}, "fusion_lat": 0.0}, {"lat": 38.9181065, "lon": -77.0363185, "is_disabled": 0, "fusion_lon": 0.0, "is_reserved": 0, "name": "c90cf7af6f888ef9da9f6188f09c2845", "type": "electric_scooter", "bike_id": "c90cf7af6f888ef9da9f6188f09c2845", "rental_uris": {"ios": "https://dc.lft.to/lastmile_qr_scan", "android": "https://dc.lft.to/lastmile_qr_scan"}, "fusion_lat": 0.0}, {"lat": 38.80861766666666, "lon": -77.09092233333334, "is_disabled": 0, "fusion_lon": 0.0, "is_reserved": 0, "name": "5ea270fbb482f699d066641ead2fad40", "type": "electric_bike", "bike_id": "5ea270fbb482f699d066641ead2fad40", "rental_uris": {"ios": "https://dc.lft.to/lastmile_qr_scan", "android": "https://dc.lft.to/lastmile_qr_scan"}, "fusion_lat": 0.0}, {"lat": 38.899825666666665, "lon": -77.01791133333333, "is_disabled": 0, "fusion_lon": 0.0, "is_reserved": 0, "name": "fce42ad61e7e68ab1ee052ac0a657c61", "type": "electric_scooter", "bike_id": "fce42ad61e7e68ab1ee052ac0a657c61", "rental_uris": {"ios": "https://dc.lft.to/lastmile_qr_scan", "android": "https://dc.lft.to/lastmile_qr_scan"}, "fusion_lat": 0.0}, {"lat": 38.887450333333334, "lon": -77.01402766666666, "is_disabled": 0, "fusion_lon": 0.0, "is_reserved": 0, "name": "44f2c8d7497899e670007342ad201ee5", "type": "electric_scooter", "bike_id": "44f2c8d7497899e670007342ad201ee5", "rental_uris": {"ios": "https://dc.lft.to/lastmile_qr_scan", "android": "https://dc.lft.to/lastmile_qr_scan"}, "fusion_lat": 0.0}, {"lat": 38.931407166666666, "lon": -77.038324, "is_disabled": 0, "fusion_lon": 0.0, "is_reserved": 0, "name": "e41ce529f079a38f0d6300273b2eb4ea", "type": "electric_scooter", "bike_id": "e41ce529f079a38f0d6300273b2eb4ea", "rental_uris": {"ios": "https://dc.lft.to/lastmile_qr_scan", "android": "https://dc.lft.to/lastmile_qr_scan"}, "fusion_lat": 0.0}, {"lat": 38.89584716666667, "lon": -76.983264, "is_disabled": 0, "fusion_lon": 0.0, "is_reserved": 0, "name": "4e08c48e5cec160ccf7157cf40e2e0ca", "type": "electric_scooter", "bike_id": "4e08c48e5cec160ccf7157cf40e2e0ca", "rental_uris": {"ios": "https://dc.lft.to/lastmile_qr_scan", "android": "https://dc.lft.to/lastmile_qr_scan"}, "fusion_lat": 0.0}, {"lat": 38.92041866666667, "lon": -77.041995, "is_disabled": 0, "fusion_lon": 0.0, "is_reserved": 0, "name": "d8af033c406071c4ff0f7139b2ae46ae", "type": "electric_scooter", "bike_id": "d8af033c406071c4ff0f7139b2ae46ae", "rental_uris": {"ios": "https://dc.lft.to/lastmile_qr_scan", "android": "https://dc.lft.to/lastmile_qr_scan"}, "fusion_lat": 0.0}, {"lat": 38.949202166666666, "lon": -77.0079855, "is_disabled": 0, "fusion_lon": 0.0, "is_reserved": 0, "name": "f4126903d32d778d761f60c586dea7d7", "type": "electric_bike", "bike_id": "f4126903d32d778d761f60c586dea7d7", "rental_uris": {"ios": "https://dc.lft.to/lastmile_qr_scan", "android": "https://dc.lft.to/lastmile_qr_scan"}, "fusion_lat": 0.0}, {"lat": 38.96609866666667, "lon": -77.02743633333333, "is_disabled": 0, "fusion_lon": 0.0, "is_reserved": 0, "name": "9775bace29cb23ef871032948ae7b7db", "type": "electric_scooter", "bike_id": "9775bace29cb23ef871032948ae7b7db", "rental_uris": {"ios": "https://dc.lft.to/lastmile_qr_scan", "android": "https://dc.lft.to/lastmile_qr_scan"}, "fusion_lat": 0.0}, {"lat": 38.9182825, "lon": -77.02289633333334, "is_disabled": 0, "fusion_lon": 0.0, "is_reserved": 0, "name": "d251d0ba0a7200ef2870ee698263b90b", "type": "electric_scooter", "bike_id": "d251d0ba0a7200ef2870ee698263b90b", "rental_uris": {"ios": "https://dc.lft.to/lastmile_qr_scan", "android": "https://dc.lft.to/lastmile_qr_scan"}, "fusion_lat": 0.0}, {"lat": 38.933493666666664, "lon": -77.02458733333333, "is_disabled": 0, "fusion_lon": 0.0, "is_reserved": 0, "name": "a7128dc96ed0dc344429c5cf6e01132f", "type": "electric_scooter", "bike_id": "a7128dc96ed0dc344429c5cf6e01132f", "rental_uris": {"ios": "https://dc.lft.to/lastmile_qr_scan", "android": "https://dc.lft.to/lastmile_qr_scan"}, "fusion_lat": 0.0}, {"lat": 38.90700283333334, "lon": -77.03200266666667, "is_disabled": 0, "fusion_lon": 0.0, "is_reserved": 0, "name": "ffd234afc07f0d9a4321364578af9477", "type": "electric_scooter", "bike_id": "ffd234afc07f0d9a4321364578af9477", "rental_uris": {"ios": "https://dc.lft.to/lastmile_qr_scan", "android": "https://dc.lft.to/lastmile_qr_scan"}, "fusion_lat": 0.0}, {"lat": 38.900519833333334, "lon": -77.0351685, "is_disabled": 0, "fusion_lon": 0.0, "is_reserved": 0, "name": "8b469fe3bcc799e1b969424694204a96", "type": "electric_scooter", "bike_id": "8b469fe3bcc799e1b969424694204a96", "rental_uris": {"ios": "https://dc.lft.to/lastmile_qr_scan", "android": "https://dc.lft.to/lastmile_qr_scan"}, "fusion_lat": 0.0}, {"lat": 38.92116866666667, "lon": -77.04123616666666, "is_disabled": 0, "fusion_lon": 0.0, "is_reserved": 0, "name": "4f731806245fa5ceade44749bcd45ba5", "type": "electric_scooter", "bike_id": "4f731806245fa5ceade44749bcd45ba5", "rental_uris": {"ios": "https://dc.lft.to/lastmile_qr_scan", "android": "https://dc.lft.to/lastmile_qr_scan"}, "fusion_lat": 0.0}, {"lat": 38.920134, "lon": -77.022088, "is_disabled": 0, "fusion_lon": 0.0, "is_reserved": 0, "name": "25e746405c97c92b4aa6352a45191149", "type": "electric_scooter", "bike_id": "25e746405c97c92b4aa6352a45191149", "rental_uris": {"ios": "https://dc.lft.to/lastmile_qr_scan", "android": "https://dc.lft.to/lastmile_qr_scan"}, "fusion_lat": 0.0}, {"lat": 38.8950795, "lon": -77.0110625, "is_disabled": 0, "fusion_lon": 0.0, "is_reserved": 0, "name": "233c83ba2d7ca239d2f2d62d2bb442b4", "type": "electric_scooter", "bike_id": "233c83ba2d7ca239d2f2d62d2bb442b4", "rental_uris": {"ios": "https://dc.lft.to/lastmile_qr_scan", "android": "https://dc.lft.to/lastmile_qr_scan"}, "fusion_lat": 0.0}, {"lat": 38.915961333333335, "lon": -77.01209233333333, "is_disabled": 0, "fusion_lon": 0.0, "is_reserved": 0, "name": "5a8fc9cdf1e746fd2be0a0f039c7ceb3", "type": "electric_scooter", "bike_id": "5a8fc9cdf1e746fd2be0a0f039c7ceb3", "rental_uris": {"ios": "https://dc.lft.to/lastmile_qr_scan", "android": "https://dc.lft.to/lastmile_qr_scan"}, "fusion_lat": 0.0}, {"lat": 38.9171055, "lon": -77.0387135, "is_disabled": 0, "fusion_lon": 0.0, "is_reserved": 0, "name": "14889366812a37aa5d91675303f21449", "type": "electric_scooter", "bike_id": "14889366812a37aa5d91675303f21449", "rental_uris": {"ios": "https://dc.lft.to/lastmile_qr_scan", "android": "https://dc.lft.to/lastmile_qr_scan"}, "fusion_lat": 0.0}, {"lat": 38.912554166666666, "lon": -77.037574, "is_disabled": 0, "fusion_lon": 0.0, "is_reserved": 0, "name": "f75923872e1177ac2fefcb9d21d38718", "type": "electric_scooter", "bike_id": "f75923872e1177ac2fefcb9d21d38718", "rental_uris": {"ios": "https://dc.lft.to/lastmile_qr_scan", "android": "https://dc.lft.to/lastmile_qr_scan"}, "fusion_lat": 0.0}, {"lat": 38.915754, "lon": -77.02186483333334, "is_disabled": 0, "fusion_lon": 0.0, "is_reserved": 0, "name": "6f8bad96f0cd6c0e2f000ab113951e2e", "type": "electric_scooter", "bike_id": "6f8bad96f0cd6c0e2f000ab113951e2e", "rental_uris": {"ios": "https://dc.lft.to/lastmile_qr_scan", "android": "https://dc.lft.to/lastmile_qr_scan"}, "fusion_lat": 0.0}, {"lat": 38.919538333333335, "lon": -77.041706, "is_disabled": 0, "fusion_lon": 0.0, "is_reserved": 0, "name": "696ff149f19d34c605f0c73dbaade79c", "type": "electric_scooter", "bike_id": "696ff149f19d34c605f0c73dbaade79c", "rental_uris": {"ios": "https://dc.lft.to/lastmile_qr_scan", "android": "https://dc.lft.to/lastmile_qr_scan"}, "fusion_lat": 0.0}, {"lat": 38.900511333333334, "lon": -77.00067783333333, "is_disabled": 0, "fusion_lon": 0.0, "is_reserved": 0, "name": "87379a81fda723ee0b622257dc521cad", "type": "electric_scooter", "bike_id": "87379a81fda723ee0b622257dc521cad", "rental_uris": {"ios": "https://dc.lft.to/lastmile_qr_scan", "android": "https://dc.lft.to/lastmile_qr_scan"}, "fusion_lat": 0.0}, {"lat": 38.898691, "lon": -77.02188033333333, "is_disabled": 0, "fusion_lon": 0.0, "is_reserved": 0, "name": "b35b158cb2cafa4b5e548a000728b4c3", "type": "electric_scooter", "bike_id": "b35b158cb2cafa4b5e548a000728b4c3", "rental_uris": {"ios": "https://dc.lft.to/lastmile_qr_scan", "android": "https://dc.lft.to/lastmile_qr_scan"}, "fusion_lat": 0.0}, {"lat": 38.91760633333333, "lon": -77.0321115, "is_disabled": 0, "fusion_lon": 0.0, "is_reserved": 0, "name": "a90827721b02e50db950d69ff7f3927e", "type": "electric_scooter", "bike_id": "a90827721b02e50db950d69ff7f3927e", "rental_uris": {"ios": "https://dc.lft.to/lastmile_qr_scan", "android": "https://dc.lft.to/lastmile_qr_scan"}, "fusion_lat": 0.0}, {"lat": 38.90026683333333, "lon": -76.99749683333333, "is_disabled": 0, "fusion_lon": 0.0, "is_reserved": 0, "name": "c878371a5631b818d8d30b9480a86b5d", "type": "electric_scooter", "bike_id": "c878371a5631b818d8d30b9480a86b5d", "rental_uris": {"ios": "https://dc.lft.to/lastmile_qr_scan", "android": "https://dc.lft.to/lastmile_qr_scan"}, "fusion_lat": 0.0}, {"lat": 38.91712483333333, "lon": -77.01219866666666, "is_disabled": 0, "fusion_lon": 0.0, "is_reserved": 0, "name": "77c1c400a3a086e7edbf5fadc0cc7bb1", "type": "electric_scooter", "bike_id": "77c1c400a3a086e7edbf5fadc0cc7bb1", "rental_uris": {"ios": "https://dc.lft.to/lastmile_qr_scan", "android": "https://dc.lft.to/lastmile_qr_scan"}, "fusion_lat": 0.0}, {"lat": 38.92600733333333, "lon": -77.03545283333334, "is_disabled": 0, "fusion_lon": 0.0, "is_reserved": 0, "name": "1c99baee5b4520951e686fde039079d2", "type": "electric_scooter", "bike_id": "1c99baee5b4520951e686fde039079d2", "rental_uris": {"ios": "https://dc.lft.to/lastmile_qr_scan", "android": "https://dc.lft.to/lastmile_qr_scan"}, "fusion_lat": 0.0}, {"lat": 38.9141205, "lon": -77.02095833333334, "is_disabled": 0, "fusion_lon": 0.0, "is_reserved": 0, "name": "724662aff36d4704723a26b434d322e4", "type": "electric_scooter", "bike_id": "724662aff36d4704723a26b434d322e4", "rental_uris": {"ios": "https://dc.lft.to/lastmile_qr_scan", "android": "https://dc.lft.to/lastmile_qr_scan"}, "fusion_lat": 0.0}, {"lat": 38.91480933333333, "lon": -77.0461095, "is_disabled": 0, "fusion_lon": 0.0, "is_reserved": 0, "name": "e1dd0c58eec3126290558cef36bbf347", "type": "electric_scooter", "bike_id": "e1dd0c58eec3126290558cef36bbf347", "rental_uris": {"ios": "https://dc.lft.to/lastmile_qr_scan", "android": "https://dc.lft.to/lastmile_qr_scan"}, "fusion_lat": 0.0}, {"lat": 38.926682, "lon": -77.02123266666666, "is_disabled": 0, "fusion_lon": 0.0, "is_reserved": 0, "name": "6dd05b212ee39768af3e396167c6187f", "type": "electric_scooter", "bike_id": "6dd05b212ee39768af3e396167c6187f", "rental_uris": {"ios": "https://dc.lft.to/lastmile_qr_scan", "android": "https://dc.lft.to/lastmile_qr_scan"}, "fusion_lat": 0.0}, {"lat": 38.91551183333333, "lon": -77.03182866666667, "is_disabled": 0, "fusion_lon": 0.0, "is_reserved": 0, "name": "18386406941cf0ce4409072650fba47b", "type": "electric_scooter", "bike_id": "18386406941cf0ce4409072650fba47b", "rental_uris": {"ios": "https://dc.lft.to/lastmile_qr_scan", "android": "https://dc.lft.to/lastmile_qr_scan"}, "fusion_lat": 0.0}, {"lat": 38.9308635, "lon": -77.02808433333334, "is_disabled": 0, "fusion_lon": 0.0, "is_reserved": 0, "name": "affa0e68f50149db298ce5cf80aae8f1", "type": "electric_scooter", "bike_id": "affa0e68f50149db298ce5cf80aae8f1", "rental_uris": {"ios": "https://dc.lft.to/lastmile_qr_scan", "android": "https://dc.lft.to/lastmile_qr_scan"}, "fusion_lat": 0.0}, {"lat": 38.9154465, "lon": -77.03851883333333, "is_disabled": 0, "fusion_lon": 0.0, "is_reserved": 0, "name": "d963abc2004ca635eed59adaf44740d7", "type": "electric_scooter", "bike_id": "d963abc2004ca635eed59adaf44740d7", "rental_uris": {"ios": "https://dc.lft.to/lastmile_qr_scan", "android": "https://dc.lft.to/lastmile_qr_scan"}, "fusion_lat": 0.0}, {"lat": 38.92202233333333, "lon": -77.04189433333333, "is_disabled": 0, "fusion_lon": 0.0, "is_reserved": 0, "name": "5e1cbc2954c7346be47b2b8891e6692b", "type": "electric_scooter", "bike_id": "5e1cbc2954c7346be47b2b8891e6692b", "rental_uris": {"ios": "https://dc.lft.to/lastmile_qr_scan", "android": "https://dc.lft.to/lastmile_qr_scan"}, "fusion_lat": 0.0}, {"lat": 38.87307633333333, "lon": -77.00143816666667, "is_disabled": 0, "fusion_lon": 0.0, "is_reserved": 0, "name": "db2093afad1f24a248da50b25e8184bc", "type": "electric_scooter", "bike_id": "db2093afad1f24a248da50b25e8184bc", "rental_uris": {"ios": "https://dc.lft.to/lastmile_qr_scan", "android": "https://dc.lft.to/lastmile_qr_scan"}, "fusion_lat": 0.0}, {"lat": 38.8915605, "lon": -76.99489133333333, "is_disabled": 0, "fusion_lon": 0.0, "is_reserved": 0, "name": "09e0ed06219aadb7bad8b16946c0476e", "type": "electric_scooter", "bike_id": "09e0ed06219aadb7bad8b16946c0476e", "rental_uris": {"ios": "https://dc.lft.to/lastmile_qr_scan", "android": "https://dc.lft.to/lastmile_qr_scan"}, "fusion_lat": 0.0}, {"lat": 38.9360805, "lon": -77.03538583333334, "is_disabled": 0, "fusion_lon": 0.0, "is_reserved": 0, "name": "139ec51cd1056f1490102697c1e125c1", "type": "electric_bike", "bike_id": "139ec51cd1056f1490102697c1e125c1", "rental_uris": {"ios": "https://dc.lft.to/lastmile_qr_scan", "android": "https://dc.lft.to/lastmile_qr_scan"}, "fusion_lat": 0.0}, {"lat": 38.9213455, "lon": -77.01810383333333, "is_disabled": 0, "fusion_lon": 0.0, "is_reserved": 0, "name": "ddf0e0f6fcc27c185b347194f168b797", "type": "electric_scooter", "bike_id": "ddf0e0f6fcc27c185b347194f168b797", "rental_uris": {"ios": "https://dc.lft.to/lastmile_qr_scan", "android": "https://dc.lft.to/lastmile_qr_scan"}, "fusion_lat": 0.0}, {"lat": 38.91039283333333, "lon": -77.0343455, "is_disabled": 0, "fusion_lon": 0.0, "is_reserved": 0, "name": "5c37dfd248ea93970ee840574b5c7b76", "type": "electric_scooter", "bike_id": "5c37dfd248ea93970ee840574b5c7b76", "rental_uris": {"ios": "https://dc.lft.to/lastmile_qr_scan", "android": "https://dc.lft.to/lastmile_qr_scan"}, "fusion_lat": 0.0}, {"lat": 38.916712, "lon": -77.0239025, "is_disabled": 0, "fusion_lon": 0.0, "is_reserved": 0, "name": "6c9efa24bcd1616ed9d7dfa2b544b3ce", "type": "electric_scooter", "bike_id": "6c9efa24bcd1616ed9d7dfa2b544b3ce", "rental_uris": {"ios": "https://dc.lft.to/lastmile_qr_scan", "android": "https://dc.lft.to/lastmile_qr_scan"}, "fusion_lat": 0.0}, {"lat": 38.93353066666667, "lon": -77.06200866666667, "is_disabled": 0, "fusion_lon": 0.0, "is_reserved": 0, "name": "6ac6ad9b65e0ed1d7d342cec069492f1", "type": "electric_scooter", "bike_id": "6ac6ad9b65e0ed1d7d342cec069492f1", "rental_uris": {"ios": "https://dc.lft.to/lastmile_qr_scan", "android": "https://dc.lft.to/lastmile_qr_scan"}, "fusion_lat": 0.0}, {"lat": 38.924713, "lon": -77.035585, "is_disabled": 0, "fusion_lon": 0.0, "is_reserved": 0, "name": "f8b63c706c8aabe15eec35598c46f614", "type": "electric_scooter", "bike_id": "f8b63c706c8aabe15eec35598c46f614", "rental_uris": {"ios": "https://dc.lft.to/lastmile_qr_scan", "android": "https://dc.lft.to/lastmile_qr_scan"}, "fusion_lat": 0.0}, {"lat": 38.930596333333334, "lon": -76.97325133333334, "is_disabled": 0, "fusion_lon": 0.0, "is_reserved": 0, "name": "e1c3c71c8d63bad640cdf48e0e0c4212", "type": "electric_bike", "bike_id": "e1c3c71c8d63bad640cdf48e0e0c4212", "rental_uris": {"ios": "https://dc.lft.to/lastmile_qr_scan", "android": "https://dc.lft.to/lastmile_qr_scan"}, "fusion_lat": 0.0}, {"lat": 38.9084755, "lon": -77.063459, "is_disabled": 0, "fusion_lon": 0.0, "is_reserved": 0, "name": "9fb8f00aac5b834c6bd670fe76d52d96", "type": "electric_scooter", "bike_id": "9fb8f00aac5b834c6bd670fe76d52d96", "rental_uris": {"ios": "https://dc.lft.to/lastmile_qr_scan", "android": "https://dc.lft.to/lastmile_qr_scan"}, "fusion_lat": 0.0}, {"lat": 38.9251685, "lon": -77.04459516666667, "is_disabled": 0, "fusion_lon": 0.0, "is_reserved": 0, "name": "d5e527519dfdb9197b4d95fc68756c8a", "type": "electric_scooter", "bike_id": "d5e527519dfdb9197b4d95fc68756c8a", "rental_uris": {"ios": "https://dc.lft.to/lastmile_qr_scan", "android": "https://dc.lft.to/lastmile_qr_scan"}, "fusion_lat": 0.0}, {"lat": 38.921417, "lon": -77.0388705, "is_disabled": 0, "fusion_lon": 0.0, "is_reserved": 0, "name": "4df0abfa65724b4991ad3169eaca52a0", "type": "electric_bike", "bike_id": "4df0abfa65724b4991ad3169eaca52a0", "rental_uris": {"ios": "https://dc.lft.to/lastmile_qr_scan", "android": "https://dc.lft.to/lastmile_qr_scan"}, "fusion_lat": 0.0}, {"lat": 38.93179883333333, "lon": -77.0366565, "is_disabled": 0, "fusion_lon": 0.0, "is_reserved": 0, "name": "45d6c6c477141abd94241603481b6cda", "type": "electric_scooter", "bike_id": "45d6c6c477141abd94241603481b6cda", "rental_uris": {"ios": "https://dc.lft.to/lastmile_qr_scan", "android": "https://dc.lft.to/lastmile_qr_scan"}, "fusion_lat": 0.0}, {"lat": 38.79986566666667, "lon": -77.1297755, "is_disabled": 0, "fusion_lon": 0.0, "is_reserved": 0, "name": "0dd92ebc228d394ecf6d507555ec5aac", "type": "electric_bike", "bike_id": "0dd92ebc228d394ecf6d507555ec5aac", "rental_uris": {"ios": "https://dc.lft.to/lastmile_qr_scan", "android": "https://dc.lft.to/lastmile_qr_scan"}, "fusion_lat": 0.0}, {"lat": 38.9173125, "lon": -77.0417735, "is_disabled": 0, "fusion_lon": 0.0, "is_reserved": 0, "name": "b8d207468f5ea323c6285752a19bdab4", "type": "electric_scooter", "bike_id": "b8d207468f5ea323c6285752a19bdab4", "rental_uris": {"ios": "https://dc.lft.to/lastmile_qr_scan", "android": "https://dc.lft.to/lastmile_qr_scan"}, "fusion_lat": 0.0}, {"lat": 38.921837333333336, "lon": -77.04193316666667, "is_disabled": 0, "fusion_lon": 0.0, "is_reserved": 0, "name": "c07748cb17641ba718863ee004e54127", "type": "electric_scooter", "bike_id": "c07748cb17641ba718863ee004e54127", "rental_uris": {"ios": "https://dc.lft.to/lastmile_qr_scan", "android": "https://dc.lft.to/lastmile_qr_scan"}, "fusion_lat": 0.0}, {"lat": 38.848605166666665, "lon": -77.09903683333333, "is_disabled": 0, "fusion_lon": 0.0, "is_reserved": 0, "name": "7988a8574c8310bf64a9dfd16b9fa3ca", "type": "electric_bike", "bike_id": "7988a8574c8310bf64a9dfd16b9fa3ca", "rental_uris": {"ios": "https://dc.lft.to/lastmile_qr_scan", "android": "https://dc.lft.to/lastmile_qr_scan"}, "fusion_lat": 0.0}, {"lat": 38.93203916666667, "lon": -77.03498266666666, "is_disabled": 0, "fusion_lon": 0.0, "is_reserved": 0, "name": "88667ff36e553b86ace1bf414dc78d25", "type": "electric_scooter", "bike_id": "88667ff36e553b86ace1bf414dc78d25", "rental_uris": {"ios": "https://dc.lft.to/lastmile_qr_scan", "android": "https://dc.lft.to/lastmile_qr_scan"}, "fusion_lat": 0.0}, {"lat": 38.93118366666667, "lon": -77.030452, "is_disabled": 0, "fusion_lon": 0.0, "is_reserved": 0, "name": "aab99541c7fb1edcd296a4c2201b2c93", "type": "electric_scooter", "bike_id": "aab99541c7fb1edcd296a4c2201b2c93", "rental_uris": {"ios": "https://dc.lft.to/lastmile_qr_scan", "android": "https://dc.lft.to/lastmile_qr_scan"}, "fusion_lat": 0.0}, {"lat": 38.9213465, "lon": -77.03507483333334, "is_disabled": 0, "fusion_lon": 0.0, "is_reserved": 0, "name": "4dc53616aa95f852617311311ff722d7", "type": "electric_scooter", "bike_id": "4dc53616aa95f852617311311ff722d7", "rental_uris": {"ios": "https://dc.lft.to/lastmile_qr_scan", "android": "https://dc.lft.to/lastmile_qr_scan"}, "fusion_lat": 0.0}, {"lat": 38.86329683333334, "lon": -76.9871815, "is_disabled": 0, "fusion_lon": 0.0, "is_reserved": 0, "name": "cb155cbac991a0a70e2f5539d4d060b0", "type": "electric_bike", "bike_id": "cb155cbac991a0a70e2f5539d4d060b0", "rental_uris": {"ios": "https://dc.lft.to/lastmile_qr_scan", "android": "https://dc.lft.to/lastmile_qr_scan"}, "fusion_lat": 0.0}, {"lat": 38.9177605, "lon": -77.0229915, "is_disabled": 0, "fusion_lon": 0.0, "is_reserved": 0, "name": "dd6478fc6f66d1fd5108e2188f10b96e", "type": "electric_scooter", "bike_id": "dd6478fc6f66d1fd5108e2188f10b96e", "rental_uris": {"ios": "https://dc.lft.to/lastmile_qr_scan", "android": "https://dc.lft.to/lastmile_qr_scan"}, "fusion_lat": 0.0}, {"lat": 38.912655, "lon": -77.03539416666666, "is_disabled": 0, "fusion_lon": 0.0, "is_reserved": 0, "name": "e8ed7d19f8bc505cabf5671721bcb354", "type": "electric_scooter", "bike_id": "e8ed7d19f8bc505cabf5671721bcb354", "rental_uris": {"ios": "https://dc.lft.to/lastmile_qr_scan", "android": "https://dc.lft.to/lastmile_qr_scan"}, "fusion_lat": 0.0}, {"lat": 38.886485666666665, "lon": -77.019901, "is_disabled": 0, "fusion_lon": 0.0, "is_reserved": 0, "name": "105984d185d8adc304b9e707f60469b6", "type": "electric_scooter", "bike_id": "105984d185d8adc304b9e707f60469b6", "rental_uris": {"ios": "https://dc.lft.to/lastmile_qr_scan", "android": "https://dc.lft.to/lastmile_qr_scan"}, "fusion_lat": 0.0}, {"lat": 38.91680683333333, "lon": -76.98026133333333, "is_disabled": 0, "fusion_lon": 0.0, "is_reserved": 0, "name": "b336c124aad8c902d4c309549119a80c", "type": "electric_scooter", "bike_id": "b336c124aad8c902d4c309549119a80c", "rental_uris": {"ios": "https://dc.lft.to/lastmile_qr_scan", "android": "https://dc.lft.to/lastmile_qr_scan"}, "fusion_lat": 0.0}, {"lat": 38.91402933333333, "lon": -77.029418, "is_disabled": 0, "fusion_lon": 0.0, "is_reserved": 0, "name": "f86406ff1f6243dcdd539d0f9f6bffdd", "type": "electric_scooter", "bike_id": "f86406ff1f6243dcdd539d0f9f6bffdd", "rental_uris": {"ios": "https://dc.lft.to/lastmile_qr_scan", "android": "https://dc.lft.to/lastmile_qr_scan"}, "fusion_lat": 0.0}, {"lat": 38.932604833333336, "lon": -76.98901216666667, "is_disabled": 0, "fusion_lon": 0.0, "is_reserved": 0, "name": "344a564609a7cf1dfab8cb67d3681a69", "type": "electric_scooter", "bike_id": "344a564609a7cf1dfab8cb67d3681a69", "rental_uris": {"ios": "https://dc.lft.to/lastmile_qr_scan", "android": "https://dc.lft.to/lastmile_qr_scan"}, "fusion_lat": 0.0}, {"lat": 38.9158655, "lon": -77.0172225, "is_disabled": 0, "fusion_lon": 0.0, "is_reserved": 0, "name": "1cbcff09598cefa49651ca99c60d6892", "type": "electric_scooter", "bike_id": "1cbcff09598cefa49651ca99c60d6892", "rental_uris": {"ios": "https://dc.lft.to/lastmile_qr_scan", "android": "https://dc.lft.to/lastmile_qr_scan"}, "fusion_lat": 0.0}, {"lat": 38.90851933333333, "lon": -77.0272485, "is_disabled": 0, "fusion_lon": 0.0, "is_reserved": 0, "name": "64edcfe7b408bee2cf179cf47b8ecd0d", "type": "electric_scooter", "bike_id": "64edcfe7b408bee2cf179cf47b8ecd0d", "rental_uris": {"ios": "https://dc.lft.to/lastmile_qr_scan", "android": "https://dc.lft.to/lastmile_qr_scan"}, "fusion_lat": 0.0}, {"lat": 38.9063145, "lon": -77.02495983333333, "is_disabled": 0, "fusion_lon": 0.0, "is_reserved": 0, "name": "f07fe5cbb1edc096fcfb2f6bb4703201", "type": "electric_scooter", "bike_id": "f07fe5cbb1edc096fcfb2f6bb4703201", "rental_uris": {"ios": "https://dc.lft.to/lastmile_qr_scan", "android": "https://dc.lft.to/lastmile_qr_scan"}, "fusion_lat": 0.0}, {"lat": 38.9259325, "lon": -77.21009116666667, "is_disabled": 0, "fusion_lon": 0.0, "is_reserved": 0, "name": "d8bca6c2aa4b58ed5e485b7294dc8c80", "type": "electric_bike", "bike_id": "d8bca6c2aa4b58ed5e485b7294dc8c80", "rental_uris": {"ios": "https://dc.lft.to/lastmile_qr_scan", "android": "https://dc.lft.to/lastmile_qr_scan"}, "fusion_lat": 0.0}, {"lat": 38.954202333333335, "lon": -77.02768483333334, "is_disabled": 0, "fusion_lon": 0.0, "is_reserved": 0, "name": "15a1e60205d8554cfce920f0f7ae5aca", "type": "electric_scooter", "bike_id": "15a1e60205d8554cfce920f0f7ae5aca", "rental_uris": {"ios": "https://dc.lft.to/lastmile_qr_scan", "android": "https://dc.lft.to/lastmile_qr_scan"}, "fusion_lat": 0.0}, {"lat": 38.827797833333335, "lon": -77.1248285, "is_disabled": 0, "fusion_lon": 0.0, "is_reserved": 0, "name": "d06c66260631a8d148d288dd402df691", "type": "electric_bike", "bike_id": "d06c66260631a8d148d288dd402df691", "rental_uris": {"ios": "https://dc.lft.to/lastmile_qr_scan", "android": "https://dc.lft.to/lastmile_qr_scan"}, "fusion_lat": 0.0}, {"lat": 38.90052716666667, "lon": -77.04169383333333, "is_disabled": 0, "fusion_lon": 0.0, "is_reserved": 0, "name": "5d48413d9a413ff4a74984fe5c69bfe2", "type": "electric_scooter", "bike_id": "5d48413d9a413ff4a74984fe5c69bfe2", "rental_uris": {"ios": "https://dc.lft.to/lastmile_qr_scan", "android": "https://dc.lft.to/lastmile_qr_scan"}, "fusion_lat": 0.0}, {"lat": 38.842971666666664, "lon": -76.99535016666667, "is_disabled": 0, "fusion_lon": 0.0, "is_reserved": 0, "name": "155ffd475ba4fa8b4a2cbfe2ae096392", "type": "electric_scooter", "bike_id": "155ffd475ba4fa8b4a2cbfe2ae096392", "rental_uris": {"ios": "https://dc.lft.to/lastmile_qr_scan", "android": "https://dc.lft.to/lastmile_qr_scan"}, "fusion_lat": 0.0}, {"lat": 38.892146333333336, "lon": -77.02655716666666, "is_disabled": 0, "fusion_lon": 0.0, "is_reserved": 0, "name": "e94c7b813ed1ae328b419381d1bf2347", "type": "electric_scooter", "bike_id": "e94c7b813ed1ae328b419381d1bf2347", "rental_uris": {"ios": "https://dc.lft.to/lastmile_qr_scan", "android": "https://dc.lft.to/lastmile_qr_scan"}, "fusion_lat": 0.0}, {"lat": 38.88521166666666, "lon": -76.98220866666666, "is_disabled": 0, "fusion_lon": 0.0, "is_reserved": 0, "name": "0435c03c254c97a8e1b87edc53d375ff", "type": "electric_scooter", "bike_id": "0435c03c254c97a8e1b87edc53d375ff", "rental_uris": {"ios": "https://dc.lft.to/lastmile_qr_scan", "android": "https://dc.lft.to/lastmile_qr_scan"}, "fusion_lat": 0.0}, {"lat": 38.916239166666664, "lon": -77.03205566666666, "is_disabled": 0, "fusion_lon": 0.0, "is_reserved": 0, "name": "4ed91e80d0e1b89b4b1ff9dfd8906c52", "type": "electric_scooter", "bike_id": "4ed91e80d0e1b89b4b1ff9dfd8906c52", "rental_uris": {"ios": "https://dc.lft.to/lastmile_qr_scan", "android": "https://dc.lft.to/lastmile_qr_scan"}, "fusion_lat": 0.0}, {"lat": 38.9072185, "lon": -77.04141033333333, "is_disabled": 0, "fusion_lon": 0.0, "is_reserved": 0, "name": "d211c77b7a9099f1ceaf538193c5a51c", "type": "electric_scooter", "bike_id": "d211c77b7a9099f1ceaf538193c5a51c", "rental_uris": {"ios": "https://dc.lft.to/lastmile_qr_scan", "android": "https://dc.lft.to/lastmile_qr_scan"}, "fusion_lat": 0.0}, {"lat": 38.90010766666666, "lon": -76.99977816666667, "is_disabled": 0, "fusion_lon": 0.0, "is_reserved": 0, "name": "dd3369e433f35533510b8612d7f5dc46", "type": "electric_scooter", "bike_id": "dd3369e433f35533510b8612d7f5dc46", "rental_uris": {"ios": "https://dc.lft.to/lastmile_qr_scan", "android": "https://dc.lft.to/lastmile_qr_scan"}, "fusion_lat": 0.0}, {"lat": 38.923305666666664, "lon": -77.0568015, "is_disabled": 0, "fusion_lon": 0.0, "is_reserved": 0, "name": "b388d27474eaa7923cd916d5ec1b9e3d", "type": "electric_scooter", "bike_id": "b388d27474eaa7923cd916d5ec1b9e3d", "rental_uris": {"ios": "https://dc.lft.to/lastmile_qr_scan", "android": "https://dc.lft.to/lastmile_qr_scan"}, "fusion_lat": 0.0}, {"lat": 38.915067666666666, "lon": -77.01560783333333, "is_disabled": 0, "fusion_lon": 0.0, "is_reserved": 0, "name": "ec1d26461c8619b955dac831b4a98198", "type": "electric_scooter", "bike_id": "ec1d26461c8619b955dac831b4a98198", "rental_uris": {"ios": "https://dc.lft.to/lastmile_qr_scan", "android": "https://dc.lft.to/lastmile_qr_scan"}, "fusion_lat": 0.0}, {"lat": 38.917539166666664, "lon": -77.02274766666666, "is_disabled": 0, "fusion_lon": 0.0, "is_reserved": 0, "name": "71e94dc30e56f4d8dfaeee33fa9970a8", "type": "electric_scooter", "bike_id": "71e94dc30e56f4d8dfaeee33fa9970a8", "rental_uris": {"ios": "https://dc.lft.to/lastmile_qr_scan", "android": "https://dc.lft.to/lastmile_qr_scan"}, "fusion_lat": 0.0}, {"lat": 38.93736833333333, "lon": -77.0361875, "is_disabled": 0, "fusion_lon": 0.0, "is_reserved": 0, "name": "59907dad854721e5fdeb5479c46e815d", "type": "electric_scooter", "bike_id": "59907dad854721e5fdeb5479c46e815d", "rental_uris": {"ios": "https://dc.lft.to/lastmile_qr_scan", "android": "https://dc.lft.to/lastmile_qr_scan"}, "fusion_lat": 0.0}, {"lat": 38.88765166666666, "lon": -77.013029, "is_disabled": 0, "fusion_lon": 0.0, "is_reserved": 0, "name": "629a2e2a22d8e088e0a91da4b5022381", "type": "electric_scooter", "bike_id": "629a2e2a22d8e088e0a91da4b5022381", "rental_uris": {"ios": "https://dc.lft.to/lastmile_qr_scan", "android": "https://dc.lft.to/lastmile_qr_scan"}, "fusion_lat": 0.0}, {"lat": 38.9318895, "lon": -77.0430195, "is_disabled": 0, "fusion_lon": 0.0, "is_reserved": 0, "name": "47eab1de763a034149f325bd32b5e682", "type": "electric_scooter", "bike_id": "47eab1de763a034149f325bd32b5e682", "rental_uris": {"ios": "https://dc.lft.to/lastmile_qr_scan", "android": "https://dc.lft.to/lastmile_qr_scan"}, "fusion_lat": 0.0}, {"lat": 38.91098916666667, "lon": -77.0453755, "is_disabled": 0, "fusion_lon": 0.0, "is_reserved": 0, "name": "a9638eca629dae23cf90be7f7088c4e7", "type": "electric_scooter", "bike_id": "a9638eca629dae23cf90be7f7088c4e7", "rental_uris": {"ios": "https://dc.lft.to/lastmile_qr_scan", "android": "https://dc.lft.to/lastmile_qr_scan"}, "fusion_lat": 0.0}, {"lat": 38.87466083333333, "lon": -77.014552, "is_disabled": 0, "fusion_lon": 0.0, "is_reserved": 0, "name": "61c27d3108744a77b0a79fa4d516f847", "type": "electric_scooter", "bike_id": "61c27d3108744a77b0a79fa4d516f847", "rental_uris": {"ios": "https://dc.lft.to/lastmile_qr_scan", "android": "https://dc.lft.to/lastmile_qr_scan"}, "fusion_lat": 0.0}, {"lat": 38.9170455, "lon": -77.04176383333333, "is_disabled": 0, "fusion_lon": 0.0, "is_reserved": 0, "name": "f1fbad673e3a8eef85aee78c46f22b49", "type": "electric_scooter", "bike_id": "f1fbad673e3a8eef85aee78c46f22b49", "rental_uris": {"ios": "https://dc.lft.to/lastmile_qr_scan", "android": "https://dc.lft.to/lastmile_qr_scan"}, "fusion_lat": 0.0}, {"lat": 38.919140666666664, "lon": -77.0320705, "is_disabled": 0, "fusion_lon": 0.0, "is_reserved": 0, "name": "dab4b41cee2ee9f99a5cc50f7e2aef99", "type": "electric_scooter", "bike_id": "dab4b41cee2ee9f99a5cc50f7e2aef99", "rental_uris": {"ios": "https://dc.lft.to/lastmile_qr_scan", "android": "https://dc.lft.to/lastmile_qr_scan"}, "fusion_lat": 0.0}, {"lat": 38.8782315, "lon": -77.02239616666667, "is_disabled": 0, "fusion_lon": 0.0, "is_reserved": 0, "name": "f1223cdbb622dc85833c18d2c8fa6f66", "type": "electric_scooter", "bike_id": "f1223cdbb622dc85833c18d2c8fa6f66", "rental_uris": {"ios": "https://dc.lft.to/lastmile_qr_scan", "android": "https://dc.lft.to/lastmile_qr_scan"}, "fusion_lat": 0.0}, {"lat": 38.91800033333333, "lon": -77.034534, "is_disabled": 0, "fusion_lon": 0.0, "is_reserved": 0, "name": "5bb4c9b8ff154886c6bebc97dafaf19d", "type": "electric_scooter", "bike_id": "5bb4c9b8ff154886c6bebc97dafaf19d", "rental_uris": {"ios": "https://dc.lft.to/lastmile_qr_scan", "android": "https://dc.lft.to/lastmile_qr_scan"}, "fusion_lat": 0.0}, {"lat": 38.91705666666667, "lon": -77.0247735, "is_disabled": 0, "fusion_lon": 0.0, "is_reserved": 0, "name": "b5c953698ee83e447e60ce53da08a388", "type": "electric_scooter", "bike_id": "b5c953698ee83e447e60ce53da08a388", "rental_uris": {"ios": "https://dc.lft.to/lastmile_qr_scan", "android": "https://dc.lft.to/lastmile_qr_scan"}, "fusion_lat": 0.0}, {"lat": 38.90242383333333, "lon": -77.04704583333333, "is_disabled": 0, "fusion_lon": 0.0, "is_reserved": 0, "name": "d12a5b9147657a5070489e69fec0bc3a", "type": "electric_scooter", "bike_id": "d12a5b9147657a5070489e69fec0bc3a", "rental_uris": {"ios": "https://dc.lft.to/lastmile_qr_scan", "android": "https://dc.lft.to/lastmile_qr_scan"}, "fusion_lat": 0.0}, {"lat": 38.92857566666667, "lon": -77.03445183333334, "is_disabled": 0, "fusion_lon": 0.0, "is_reserved": 0, "name": "e648f019eb5509e340654f5489ad0a98", "type": "electric_scooter", "bike_id": "e648f019eb5509e340654f5489ad0a98", "rental_uris": {"ios": "https://dc.lft.to/lastmile_qr_scan", "android": "https://dc.lft.to/lastmile_qr_scan"}, "fusion_lat": 0.0}, {"lat": 38.904186333333335, "lon": -77.01985983333333, "is_disabled": 0, "fusion_lon": 0.0, "is_reserved": 0, "name": "9495ad6ede1123cc64504f25156c6080", "type": "electric_scooter", "bike_id": "9495ad6ede1123cc64504f25156c6080", "rental_uris": {"ios": "https://dc.lft.to/lastmile_qr_scan", "android": "https://dc.lft.to/lastmile_qr_scan"}, "fusion_lat": 0.0}, {"lat": 38.9014285, "lon": -77.01907333333334, "is_disabled": 0, "fusion_lon": 0.0, "is_reserved": 0, "name": "1cdaf2e2d8c2bdcbde8795286f32f537", "type": "electric_scooter", "bike_id": "1cdaf2e2d8c2bdcbde8795286f32f537", "rental_uris": {"ios": "https://dc.lft.to/lastmile_qr_scan", "android": "https://dc.lft.to/lastmile_qr_scan"}, "fusion_lat": 0.0}, {"lat": 38.9110975, "lon": -77.04544883333334, "is_disabled": 0, "fusion_lon": 0.0, "is_reserved": 0, "name": "66896dc97628306c4f9b929a2a2cee6d", "type": "electric_scooter", "bike_id": "66896dc97628306c4f9b929a2a2cee6d", "rental_uris": {"ios": "https://dc.lft.to/lastmile_qr_scan", "android": "https://dc.lft.to/lastmile_qr_scan"}, "fusion_lat": 0.0}, {"lat": 38.897252333333334, "lon": -77.0232825, "is_disabled": 0, "fusion_lon": 0.0, "is_reserved": 0, "name": "c5f2f065a77fc0e54d171e6d030e5aaf", "type": "electric_scooter", "bike_id": "c5f2f065a77fc0e54d171e6d030e5aaf", "rental_uris": {"ios": "https://dc.lft.to/lastmile_qr_scan", "android": "https://dc.lft.to/lastmile_qr_scan"}, "fusion_lat": 0.0}, {"lat": 38.90062966666667, "lon": -76.92744216666667, "is_disabled": 0, "fusion_lon": 0.0, "is_reserved": 0, "name": "460e9ae922cd7c29ae7f7e6512015af3", "type": "electric_scooter", "bike_id": "460e9ae922cd7c29ae7f7e6512015af3", "rental_uris": {"ios": "https://dc.lft.to/lastmile_qr_scan", "android": "https://dc.lft.to/lastmile_qr_scan"}, "fusion_lat": 0.0}, {"lat": 38.90337566666667, "lon": -77.02378833333333, "is_disabled": 0, "fusion_lon": 0.0, "is_reserved": 0, "name": "c0a008f21a79db7c3a1f4d8063bbeae2", "type": "electric_scooter", "bike_id": "c0a008f21a79db7c3a1f4d8063bbeae2", "rental_uris": {"ios": "https://dc.lft.to/lastmile_qr_scan", "android": "https://dc.lft.to/lastmile_qr_scan"}, "fusion_lat": 0.0}, {"lat": 38.9257195, "lon": -77.04007033333333, "is_disabled": 0, "fusion_lon": 0.0, "is_reserved": 0, "name": "987db55c6c8d7d19926890f31f03b331", "type": "electric_scooter", "bike_id": "987db55c6c8d7d19926890f31f03b331", "rental_uris": {"ios": "https://dc.lft.to/lastmile_qr_scan", "android": "https://dc.lft.to/lastmile_qr_scan"}, "fusion_lat": 0.0}, {"lat": 38.9238735, "lon": -77.035271, "is_disabled": 0, "fusion_lon": 0.0, "is_reserved": 0, "name": "f4c8821a6a132a5d73678ccf51af8fff", "type": "electric_scooter", "bike_id": "f4c8821a6a132a5d73678ccf51af8fff", "rental_uris": {"ios": "https://dc.lft.to/lastmile_qr_scan", "android": "https://dc.lft.to/lastmile_qr_scan"}, "fusion_lat": 0.0}, {"lat": 38.8075925, "lon": -77.12985016666667, "is_disabled": 0, "fusion_lon": 0.0, "is_reserved": 0, "name": "e78e2c26dd28dad96706e5876f7fda01", "type": "electric_bike", "bike_id": "e78e2c26dd28dad96706e5876f7fda01", "rental_uris": {"ios": "https://dc.lft.to/lastmile_qr_scan", "android": "https://dc.lft.to/lastmile_qr_scan"}, "fusion_lat": 0.0}, {"lat": 38.92241966666667, "lon": -77.0352, "is_disabled": 0, "fusion_lon": 0.0, "is_reserved": 0, "name": "c1f0222041a8a9c62d0a5ba10a6fdf67", "type": "electric_scooter", "bike_id": "c1f0222041a8a9c62d0a5ba10a6fdf67", "rental_uris": {"ios": "https://dc.lft.to/lastmile_qr_scan", "android": "https://dc.lft.to/lastmile_qr_scan"}, "fusion_lat": 0.0}, {"lat": 38.8954255, "lon": -76.94953333333333, "is_disabled": 0, "fusion_lon": 0.0, "is_reserved": 0, "name": "f6665314054b25f24dd72048ca9f9aa9", "type": "electric_scooter", "bike_id": "f6665314054b25f24dd72048ca9f9aa9", "rental_uris": {"ios": "https://dc.lft.to/lastmile_qr_scan", "android": "https://dc.lft.to/lastmile_qr_scan"}, "fusion_lat": 0.0}, {"lat": 38.88180366666667, "lon": -76.99258866666666, "is_disabled": 0, "fusion_lon": 0.0, "is_reserved": 0, "name": "3ed60f2d5df07cd88be9f476bca30502", "type": "electric_scooter", "bike_id": "3ed60f2d5df07cd88be9f476bca30502", "rental_uris": {"ios": "https://dc.lft.to/lastmile_qr_scan", "android": "https://dc.lft.to/lastmile_qr_scan"}, "fusion_lat": 0.0}, {"lat": 38.905613333333335, "lon": -77.00708133333333, "is_disabled": 0, "fusion_lon": 0.0, "is_reserved": 0, "name": "8e35a4aa89cbe0b05bf87674ccb48da7", "type": "electric_scooter", "bike_id": "8e35a4aa89cbe0b05bf87674ccb48da7", "rental_uris": {"ios": "https://dc.lft.to/lastmile_qr_scan", "android": "https://dc.lft.to/lastmile_qr_scan"}, "fusion_lat": 0.0}, {"lat": 38.8955085, "lon": -76.9487115, "is_disabled": 0, "fusion_lon": 0.0, "is_reserved": 0, "name": "988e0decc0cf59206305c524dd4453c9", "type": "electric_scooter", "bike_id": "988e0decc0cf59206305c524dd4453c9", "rental_uris": {"ios": "https://dc.lft.to/lastmile_qr_scan", "android": "https://dc.lft.to/lastmile_qr_scan"}, "fusion_lat": 0.0}, {"lat": 38.87561633333333, "lon": -77.00561433333333, "is_disabled": 0, "fusion_lon": 0.0, "is_reserved": 0, "name": "43ee7dae47e9006c3ed85755a5a20dfb", "type": "electric_scooter", "bike_id": "43ee7dae47e9006c3ed85755a5a20dfb", "rental_uris": {"ios": "https://dc.lft.to/lastmile_qr_scan", "android": "https://dc.lft.to/lastmile_qr_scan"}, "fusion_lat": 0.0}, {"lat": 38.90404516666667, "lon": -76.97332066666667, "is_disabled": 0, "fusion_lon": 0.0, "is_reserved": 0, "name": "b61b7d01af1617ba5d7200db97685326", "type": "electric_scooter", "bike_id": "b61b7d01af1617ba5d7200db97685326", "rental_uris": {"ios": "https://dc.lft.to/lastmile_qr_scan", "android": "https://dc.lft.to/lastmile_qr_scan"}, "fusion_lat": 0.0}, {"lat": 38.926279666666666, "lon": -77.037117, "is_disabled": 0, "fusion_lon": 0.0, "is_reserved": 0, "name": "70df19e1ff8a079b7488c43e8661856f", "type": "electric_scooter", "bike_id": "70df19e1ff8a079b7488c43e8661856f", "rental_uris": {"ios": "https://dc.lft.to/lastmile_qr_scan", "android": "https://dc.lft.to/lastmile_qr_scan"}, "fusion_lat": 0.0}, {"lat": 38.950425333333335, "lon": -77.02712566666666, "is_disabled": 0, "fusion_lon": 0.0, "is_reserved": 0, "name": "e1470f163332e5e536ddaba929d037e5", "type": "electric_scooter", "bike_id": "e1470f163332e5e536ddaba929d037e5", "rental_uris": {"ios": "https://dc.lft.to/lastmile_qr_scan", "android": "https://dc.lft.to/lastmile_qr_scan"}, "fusion_lat": 0.0}, {"lat": 38.91105316666667, "lon": -77.04542016666667, "is_disabled": 0, "fusion_lon": 0.0, "is_reserved": 0, "name": "43d44d900561a16d7071428fbb032ee6", "type": "electric_scooter", "bike_id": "43d44d900561a16d7071428fbb032ee6", "rental_uris": {"ios": "https://dc.lft.to/lastmile_qr_scan", "android": "https://dc.lft.to/lastmile_qr_scan"}, "fusion_lat": 0.0}, {"lat": 38.91846983333333, "lon": -77.024523, "is_disabled": 0, "fusion_lon": 0.0, "is_reserved": 0, "name": "acc8356004ae32f83e6bd6a98c298ab2", "type": "electric_scooter", "bike_id": "acc8356004ae32f83e6bd6a98c298ab2", "rental_uris": {"ios": "https://dc.lft.to/lastmile_qr_scan", "android": "https://dc.lft.to/lastmile_qr_scan"}, "fusion_lat": 0.0}, {"lat": 38.89223033333333, "lon": -77.04504783333333, "is_disabled": 0, "fusion_lon": 0.0, "is_reserved": 0, "name": "5bc4d860759c0552959282258c6739fa", "type": "electric_scooter", "bike_id": "5bc4d860759c0552959282258c6739fa", "rental_uris": {"ios": "https://dc.lft.to/lastmile_qr_scan", "android": "https://dc.lft.to/lastmile_qr_scan"}, "fusion_lat": 0.0}, {"lat": 38.902349, "lon": -77.04230366666667, "is_disabled": 0, "fusion_lon": 0.0, "is_reserved": 0, "name": "98357bfb54a33382492b3d907ae4d353", "type": "electric_scooter", "bike_id": "98357bfb54a33382492b3d907ae4d353", "rental_uris": {"ios": "https://dc.lft.to/lastmile_qr_scan", "android": "https://dc.lft.to/lastmile_qr_scan"}, "fusion_lat": 0.0}, {"lat": 38.903372833333336, "lon": -77.01624483333333, "is_disabled": 0, "fusion_lon": 0.0, "is_reserved": 0, "name": "84844a75fb4260941db9e31317a822d8", "type": "electric_scooter", "bike_id": "84844a75fb4260941db9e31317a822d8", "rental_uris": {"ios": "https://dc.lft.to/lastmile_qr_scan", "android": "https://dc.lft.to/lastmile_qr_scan"}, "fusion_lat": 0.0}, {"lat": 38.916122666666666, "lon": -77.02304366666667, "is_disabled": 0, "fusion_lon": 0.0, "is_reserved": 0, "name": "1140461ff6a9cc89b461be027e63d09b", "type": "electric_scooter", "bike_id": "1140461ff6a9cc89b461be027e63d09b", "rental_uris": {"ios": "https://dc.lft.to/lastmile_qr_scan", "android": "https://dc.lft.to/lastmile_qr_scan"}, "fusion_lat": 0.0}, {"lat": 38.88721733333333, "lon": -77.025807, "is_disabled": 0, "fusion_lon": 0.0, "is_reserved": 0, "name": "d91d7f8e8bb3fd7ccbdca21c1dda320c", "type": "electric_scooter", "bike_id": "d91d7f8e8bb3fd7ccbdca21c1dda320c", "rental_uris": {"ios": "https://dc.lft.to/lastmile_qr_scan", "android": "https://dc.lft.to/lastmile_qr_scan"}, "fusion_lat": 0.0}, {"lat": 38.900262166666664, "lon": -77.00192716666666, "is_disabled": 0, "fusion_lon": 0.0, "is_reserved": 0, "name": "70e0d8e8c495cd66e7fed7d049ea6b89", "type": "electric_scooter", "bike_id": "70e0d8e8c495cd66e7fed7d049ea6b89", "rental_uris": {"ios": "https://dc.lft.to/lastmile_qr_scan", "android": "https://dc.lft.to/lastmile_qr_scan"}, "fusion_lat": 0.0}, {"lat": 38.93110333333333, "lon": -77.02092333333333, "is_disabled": 0, "fusion_lon": 0.0, "is_reserved": 0, "name": "e78dfea517bcac84c4a634ec2402b89f", "type": "electric_scooter", "bike_id": "e78dfea517bcac84c4a634ec2402b89f", "rental_uris": {"ios": "https://dc.lft.to/lastmile_qr_scan", "android": "https://dc.lft.to/lastmile_qr_scan"}, "fusion_lat": 0.0}, {"lat": 38.91587066666666, "lon": -77.04645433333333, "is_disabled": 0, "fusion_lon": 0.0, "is_reserved": 0, "name": "7274476d2fe7649e6cb2db2006daa19e", "type": "electric_scooter", "bike_id": "7274476d2fe7649e6cb2db2006daa19e", "rental_uris": {"ios": "https://dc.lft.to/lastmile_qr_scan", "android": "https://dc.lft.to/lastmile_qr_scan"}, "fusion_lat": 0.0}, {"lat": 38.915954666666664, "lon": -77.04851366666666, "is_disabled": 0, "fusion_lon": 0.0, "is_reserved": 0, "name": "748c34b9fcd3c69c91e345c95f15d123", "type": "electric_scooter", "bike_id": "748c34b9fcd3c69c91e345c95f15d123", "rental_uris": {"ios": "https://dc.lft.to/lastmile_qr_scan", "android": "https://dc.lft.to/lastmile_qr_scan"}, "fusion_lat": 0.0}, {"lat": 38.9044845, "lon": -77.0485755, "is_disabled": 0, "fusion_lon": 0.0, "is_reserved": 0, "name": "310850e4a1ce5a202a1e3b89e24234bd", "type": "electric_scooter", "bike_id": "310850e4a1ce5a202a1e3b89e24234bd", "rental_uris": {"ios": "https://dc.lft.to/lastmile_qr_scan", "android": "https://dc.lft.to/lastmile_qr_scan"}, "fusion_lat": 0.0}, {"lat": 38.90975183333333, "lon": -77.03218166666667, "is_disabled": 0, "fusion_lon": 0.0, "is_reserved": 0, "name": "5de0faf1d007d2c4dc62321105211f84", "type": "electric_scooter", "bike_id": "5de0faf1d007d2c4dc62321105211f84", "rental_uris": {"ios": "https://dc.lft.to/lastmile_qr_scan", "android": "https://dc.lft.to/lastmile_qr_scan"}, "fusion_lat": 0.0}, {"lat": 38.913988833333335, "lon": -77.03947516666666, "is_disabled": 0, "fusion_lon": 0.0, "is_reserved": 0, "name": "7c869f72d8e418d2528165d009770a83", "type": "electric_scooter", "bike_id": "7c869f72d8e418d2528165d009770a83", "rental_uris": {"ios": "https://dc.lft.to/lastmile_qr_scan", "android": "https://dc.lft.to/lastmile_qr_scan"}, "fusion_lat": 0.0}, {"lat": 38.9177165, "lon": -77.02290383333333, "is_disabled": 0, "fusion_lon": 0.0, "is_reserved": 0, "name": "11826e2a99cd381a4fe3d16a0841d006", "type": "electric_scooter", "bike_id": "11826e2a99cd381a4fe3d16a0841d006", "rental_uris": {"ios": "https://dc.lft.to/lastmile_qr_scan", "android": "https://dc.lft.to/lastmile_qr_scan"}, "fusion_lat": 0.0}, {"lat": 38.91897783333334, "lon": -77.0241975, "is_disabled": 0, "fusion_lon": 0.0, "is_reserved": 0, "name": "7a154faa78c9cf54fe53c40c7531fd85", "type": "electric_scooter", "bike_id": "7a154faa78c9cf54fe53c40c7531fd85", "rental_uris": {"ios": "https://dc.lft.to/lastmile_qr_scan", "android": "https://dc.lft.to/lastmile_qr_scan"}, "fusion_lat": 0.0}, {"lat": 38.887615833333335, "lon": -77.00036, "is_disabled": 0, "fusion_lon": 0.0, "is_reserved": 0, "name": "a7006bf6971c457af8e09e6835ad7e7d", "type": "electric_scooter", "bike_id": "a7006bf6971c457af8e09e6835ad7e7d", "rental_uris": {"ios": "https://dc.lft.to/lastmile_qr_scan", "android": "https://dc.lft.to/lastmile_qr_scan"}, "fusion_lat": 0.0}, {"lat": 38.9243515, "lon": -77.029752, "is_disabled": 0, "fusion_lon": 0.0, "is_reserved": 0, "name": "0d1d5fa78fd225d3beffe66f07809c9d", "type": "electric_scooter", "bike_id": "0d1d5fa78fd225d3beffe66f07809c9d", "rental_uris": {"ios": "https://dc.lft.to/lastmile_qr_scan", "android": "https://dc.lft.to/lastmile_qr_scan"}, "fusion_lat": 0.0}, {"lat": 38.90794733333333, "lon": -77.04979333333333, "is_disabled": 0, "fusion_lon": 0.0, "is_reserved": 0, "name": "5c8baa507d226758d72c9e47e5ce394c", "type": "electric_scooter", "bike_id": "5c8baa507d226758d72c9e47e5ce394c", "rental_uris": {"ios": "https://dc.lft.to/lastmile_qr_scan", "android": "https://dc.lft.to/lastmile_qr_scan"}, "fusion_lat": 0.0}, {"lat": 38.90313333333334, "lon": -76.97797716666666, "is_disabled": 0, "fusion_lon": 0.0, "is_reserved": 0, "name": "146b9b7bf57089f3e3582535c73e5cc7", "type": "electric_scooter", "bike_id": "146b9b7bf57089f3e3582535c73e5cc7", "rental_uris": {"ios": "https://dc.lft.to/lastmile_qr_scan", "android": "https://dc.lft.to/lastmile_qr_scan"}, "fusion_lat": 0.0}, {"lat": 38.92775366666667, "lon": -77.02968283333334, "is_disabled": 0, "fusion_lon": 0.0, "is_reserved": 0, "name": "674cd7db5d24a7f3e7feacbd92e8ef56", "type": "electric_scooter", "bike_id": "674cd7db5d24a7f3e7feacbd92e8ef56", "rental_uris": {"ios": "https://dc.lft.to/lastmile_qr_scan", "android": "https://dc.lft.to/lastmile_qr_scan"}, "fusion_lat": 0.0}, {"lat": 38.905432166666664, "lon": -77.00303933333333, "is_disabled": 0, "fusion_lon": 0.0, "is_reserved": 0, "name": "938973fda711944db44d0a0554135497", "type": "electric_scooter", "bike_id": "938973fda711944db44d0a0554135497", "rental_uris": {"ios": "https://dc.lft.to/lastmile_qr_scan", "android": "https://dc.lft.to/lastmile_qr_scan"}, "fusion_lat": 0.0}, {"lat": 38.91551666666667, "lon": -77.03181166666667, "is_disabled": 0, "fusion_lon": 0.0, "is_reserved": 0, "name": "57e8e7572ada1dbf7d462dc246cf34dc", "type": "electric_scooter", "bike_id": "57e8e7572ada1dbf7d462dc246cf34dc", "rental_uris": {"ios": "https://dc.lft.to/lastmile_qr_scan", "android": "https://dc.lft.to/lastmile_qr_scan"}, "fusion_lat": 0.0}, {"lat": 38.88742666666667, "lon": -77.0256825, "is_disabled": 0, "fusion_lon": 0.0, "is_reserved": 0, "name": "7c424df19794dce5ef896289b5ca6188", "type": "electric_scooter", "bike_id": "7c424df19794dce5ef896289b5ca6188", "rental_uris": {"ios": "https://dc.lft.to/lastmile_qr_scan", "android": "https://dc.lft.to/lastmile_qr_scan"}, "fusion_lat": 0.0}, {"lat": 38.923172, "lon": -77.04030966666667, "is_disabled": 0, "fusion_lon": 0.0, "is_reserved": 0, "name": "f0eae1821a94906af029ee6d99a4795d", "type": "electric_scooter", "bike_id": "f0eae1821a94906af029ee6d99a4795d", "rental_uris": {"ios": "https://dc.lft.to/lastmile_qr_scan", "android": "https://dc.lft.to/lastmile_qr_scan"}, "fusion_lat": 0.0}, {"lat": 38.94829133333333, "lon": -77.099986, "is_disabled": 0, "fusion_lon": 0.0, "is_reserved": 0, "name": "3f79cfa7027cf7162fbd29db3b10c7ab", "type": "electric_scooter", "bike_id": "3f79cfa7027cf7162fbd29db3b10c7ab", "rental_uris": {"ios": "https://dc.lft.to/lastmile_qr_scan", "android": "https://dc.lft.to/lastmile_qr_scan"}, "fusion_lat": 0.0}, {"lat": 38.91402766666667, "lon": -77.0298495, "is_disabled": 0, "fusion_lon": 0.0, "is_reserved": 0, "name": "62044b580394d582f2febbb69d827125", "type": "electric_scooter", "bike_id": "62044b580394d582f2febbb69d827125", "rental_uris": {"ios": "https://dc.lft.to/lastmile_qr_scan", "android": "https://dc.lft.to/lastmile_qr_scan"}, "fusion_lat": 0.0}, {"lat": 38.933539, "lon": -77.07349216666667, "is_disabled": 0, "fusion_lon": 0.0, "is_reserved": 0, "name": "7a8929f648c807f3350a071fc2e724e1", "type": "electric_scooter", "bike_id": "7a8929f648c807f3350a071fc2e724e1", "rental_uris": {"ios": "https://dc.lft.to/lastmile_qr_scan", "android": "https://dc.lft.to/lastmile_qr_scan"}, "fusion_lat": 0.0}, {"lat": 38.905726333333334, "lon": -76.97631433333333, "is_disabled": 0, "fusion_lon": 0.0, "is_reserved": 0, "name": "f6c8e06dc963136b092d8a307ac90b38", "type": "electric_scooter", "bike_id": "f6c8e06dc963136b092d8a307ac90b38", "rental_uris": {"ios": "https://dc.lft.to/lastmile_qr_scan", "android": "https://dc.lft.to/lastmile_qr_scan"}, "fusion_lat": 0.0}, {"lat": 38.927008, "lon": -77.0378265, "is_disabled": 0, "fusion_lon": 0.0, "is_reserved": 0, "name": "deedccbd89a473b8ec000da1f2cbbcc4", "type": "electric_scooter", "bike_id": "deedccbd89a473b8ec000da1f2cbbcc4", "rental_uris": {"ios": "https://dc.lft.to/lastmile_qr_scan", "android": "https://dc.lft.to/lastmile_qr_scan"}, "fusion_lat": 0.0}, {"lat": 38.91908883333333, "lon": -77.0014905, "is_disabled": 0, "fusion_lon": 0.0, "is_reserved": 0, "name": "55318e128fc9697e10c7cb54cb6e1a31", "type": "electric_scooter", "bike_id": "55318e128fc9697e10c7cb54cb6e1a31", "rental_uris": {"ios": "https://dc.lft.to/lastmile_qr_scan", "android": "https://dc.lft.to/lastmile_qr_scan"}, "fusion_lat": 0.0}, {"lat": 38.90303333333333, "lon": -77.058049, "is_disabled": 0, "fusion_lon": 0.0, "is_reserved": 0, "name": "2f15cfcb88eae1e77a689f65b81b931d", "type": "electric_scooter", "bike_id": "2f15cfcb88eae1e77a689f65b81b931d", "rental_uris": {"ios": "https://dc.lft.to/lastmile_qr_scan", "android": "https://dc.lft.to/lastmile_qr_scan"}, "fusion_lat": 0.0}, {"lat": 38.984775, "lon": -77.02630433333333, "is_disabled": 0, "fusion_lon": 0.0, "is_reserved": 0, "name": "0b8c0629aad7c35f53d26234afb56557", "type": "electric_scooter", "bike_id": "0b8c0629aad7c35f53d26234afb56557", "rental_uris": {"ios": "https://dc.lft.to/lastmile_qr_scan", "android": "https://dc.lft.to/lastmile_qr_scan"}, "fusion_lat": 0.0}, {"lat": 38.915790666666666, "lon": -77.01243583333333, "is_disabled": 0, "fusion_lon": 0.0, "is_reserved": 0, "name": "2486bc32b62a2a54195080ef8f1c5316", "type": "electric_scooter", "bike_id": "2486bc32b62a2a54195080ef8f1c5316", "rental_uris": {"ios": "https://dc.lft.to/lastmile_qr_scan", "android": "https://dc.lft.to/lastmile_qr_scan"}, "fusion_lat": 0.0}, {"lat": 38.90699933333333, "lon": -77.04354766666667, "is_disabled": 0, "fusion_lon": 0.0, "is_reserved": 0, "name": "cc7bc2965f9eae7b6459baf6efcbf55d", "type": "electric_scooter", "bike_id": "cc7bc2965f9eae7b6459baf6efcbf55d", "rental_uris": {"ios": "https://dc.lft.to/lastmile_qr_scan", "android": "https://dc.lft.to/lastmile_qr_scan"}, "fusion_lat": 0.0}, {"lat": 38.88501733333333, "lon": -76.99741816666666, "is_disabled": 0, "fusion_lon": 0.0, "is_reserved": 0, "name": "822fd47108151d5698f991fecb54f9f9", "type": "electric_scooter", "bike_id": "822fd47108151d5698f991fecb54f9f9", "rental_uris": {"ios": "https://dc.lft.to/lastmile_qr_scan", "android": "https://dc.lft.to/lastmile_qr_scan"}, "fusion_lat": 0.0}, {"lat": 38.897277333333335, "lon": -77.05520016666667, "is_disabled": 0, "fusion_lon": 0.0, "is_reserved": 0, "name": "fa436558a18701115610e734a8f7820a", "type": "electric_scooter", "bike_id": "fa436558a18701115610e734a8f7820a", "rental_uris": {"ios": "https://dc.lft.to/lastmile_qr_scan", "android": "https://dc.lft.to/lastmile_qr_scan"}, "fusion_lat": 0.0}, {"lat": 38.909986833333335, "lon": -77.03192333333334, "is_disabled": 0, "fusion_lon": 0.0, "is_reserved": 0, "name": "735f41143cedcf8a84d321b27dc45841", "type": "electric_scooter", "bike_id": "735f41143cedcf8a84d321b27dc45841", "rental_uris": {"ios": "https://dc.lft.to/lastmile_qr_scan", "android": "https://dc.lft.to/lastmile_qr_scan"}, "fusion_lat": 0.0}, {"lat": 38.907244166666665, "lon": -77.00100816666667, "is_disabled": 0, "fusion_lon": 0.0, "is_reserved": 0, "name": "5fddd4a3a1169955b1e79c61a7c30bb0", "type": "electric_scooter", "bike_id": "5fddd4a3a1169955b1e79c61a7c30bb0", "rental_uris": {"ios": "https://dc.lft.to/lastmile_qr_scan", "android": "https://dc.lft.to/lastmile_qr_scan"}, "fusion_lat": 0.0}, {"lat": 38.90150783333333, "lon": -76.99025533333334, "is_disabled": 0, "fusion_lon": 0.0, "is_reserved": 0, "name": "14af388f4a89a8dfaff49d2fd80f5261", "type": "electric_scooter", "bike_id": "14af388f4a89a8dfaff49d2fd80f5261", "rental_uris": {"ios": "https://dc.lft.to/lastmile_qr_scan", "android": "https://dc.lft.to/lastmile_qr_scan"}, "fusion_lat": 0.0}, {"lat": 38.895626, "lon": -77.07840566666667, "is_disabled": 0, "fusion_lon": 0.0, "is_reserved": 0, "name": "b812379f32ee4b6058d516b029981d26", "type": "electric_bike", "bike_id": "b812379f32ee4b6058d516b029981d26", "rental_uris": {"ios": "https://dc.lft.to/lastmile_qr_scan", "android": "https://dc.lft.to/lastmile_qr_scan"}, "fusion_lat": 0.0}, {"lat": 38.90421383333333, "lon": -77.048676, "is_disabled": 0, "fusion_lon": 0.0, "is_reserved": 0, "name": "23bc80916a3aca529c80ae22470be42c", "type": "electric_scooter", "bike_id": "23bc80916a3aca529c80ae22470be42c", "rental_uris": {"ios": "https://dc.lft.to/lastmile_qr_scan", "android": "https://dc.lft.to/lastmile_qr_scan"}, "fusion_lat": 0.0}, {"lat": 38.9132645, "lon": -77.0368, "is_disabled": 0, "fusion_lon": 0.0, "is_reserved": 0, "name": "1aed7ac6583004a5451199052b61123f", "type": "electric_scooter", "bike_id": "1aed7ac6583004a5451199052b61123f", "rental_uris": {"ios": "https://dc.lft.to/lastmile_qr_scan", "android": "https://dc.lft.to/lastmile_qr_scan"}, "fusion_lat": 0.0}, {"lat": 38.875255833333334, "lon": -77.00555516666667, "is_disabled": 0, "fusion_lon": 0.0, "is_reserved": 0, "name": "a552e85414fb35b80867f458e9571aea", "type": "electric_scooter", "bike_id": "a552e85414fb35b80867f458e9571aea", "rental_uris": {"ios": "https://dc.lft.to/lastmile_qr_scan", "android": "https://dc.lft.to/lastmile_qr_scan"}, "fusion_lat": 0.0}, {"lat": 38.905581833333336, "lon": -77.00412266666666, "is_disabled": 0, "fusion_lon": 0.0, "is_reserved": 0, "name": "e1d133793deb573b5ecdfa5f5963ff6a", "type": "electric_scooter", "bike_id": "e1d133793deb573b5ecdfa5f5963ff6a", "rental_uris": {"ios": "https://dc.lft.to/lastmile_qr_scan", "android": "https://dc.lft.to/lastmile_qr_scan"}, "fusion_lat": 0.0}, {"lat": 38.89731066666667, "lon": -77.02754316666666, "is_disabled": 0, "fusion_lon": 0.0, "is_reserved": 0, "name": "b079d201b4692d527f4fa2999c6f6f36", "type": "electric_scooter", "bike_id": "b079d201b4692d527f4fa2999c6f6f36", "rental_uris": {"ios": "https://dc.lft.to/lastmile_qr_scan", "android": "https://dc.lft.to/lastmile_qr_scan"}, "fusion_lat": 0.0}, {"lat": 38.9156365, "lon": -77.0252355, "is_disabled": 0, "fusion_lon": 0.0, "is_reserved": 0, "name": "e4e72374d2ecf0096ad1d596c59939af", "type": "electric_scooter", "bike_id": "e4e72374d2ecf0096ad1d596c59939af", "rental_uris": {"ios": "https://dc.lft.to/lastmile_qr_scan", "android": "https://dc.lft.to/lastmile_qr_scan"}, "fusion_lat": 0.0}, {"lat": 38.92671816666667, "lon": -77.0277495, "is_disabled": 0, "fusion_lon": 0.0, "is_reserved": 0, "name": "ec616637f1fc7225672d2b8776833af7", "type": "electric_scooter", "bike_id": "ec616637f1fc7225672d2b8776833af7", "rental_uris": {"ios": "https://dc.lft.to/lastmile_qr_scan", "android": "https://dc.lft.to/lastmile_qr_scan"}, "fusion_lat": 0.0}, {"lat": 38.9229085, "lon": -77.0270685, "is_disabled": 0, "fusion_lon": 0.0, "is_reserved": 0, "name": "444f9ae03de2c9bde03c7a20ae640f49", "type": "electric_scooter", "bike_id": "444f9ae03de2c9bde03c7a20ae640f49", "rental_uris": {"ios": "https://dc.lft.to/lastmile_qr_scan", "android": "https://dc.lft.to/lastmile_qr_scan"}, "fusion_lat": 0.0}, {"lat": 38.9166635, "lon": -77.03462866666666, "is_disabled": 0, "fusion_lon": 0.0, "is_reserved": 0, "name": "7c22f07aeb3fcbb42976d3c084f670cd", "type": "electric_scooter", "bike_id": "7c22f07aeb3fcbb42976d3c084f670cd", "rental_uris": {"ios": "https://dc.lft.to/lastmile_qr_scan", "android": "https://dc.lft.to/lastmile_qr_scan"}, "fusion_lat": 0.0}, {"lat": 38.92134583333333, "lon": -77.01802566666667, "is_disabled": 0, "fusion_lon": 0.0, "is_reserved": 0, "name": "13f592c8fbf459ec52fbfa902d8719f0", "type": "electric_scooter", "bike_id": "13f592c8fbf459ec52fbfa902d8719f0", "rental_uris": {"ios": "https://dc.lft.to/lastmile_qr_scan", "android": "https://dc.lft.to/lastmile_qr_scan"}, "fusion_lat": 0.0}, {"lat": 38.8770955, "lon": -77.01839316666667, "is_disabled": 0, "fusion_lon": 0.0, "is_reserved": 0, "name": "3f0495807482c416d294a3a8f712e512", "type": "electric_scooter", "bike_id": "3f0495807482c416d294a3a8f712e512", "rental_uris": {"ios": "https://dc.lft.to/lastmile_qr_scan", "android": "https://dc.lft.to/lastmile_qr_scan"}, "fusion_lat": 0.0}, {"lat": 38.9112215, "lon": -77.02197433333333, "is_disabled": 0, "fusion_lon": 0.0, "is_reserved": 0, "name": "ea493a6102634a0e6f9c86e486d703e8", "type": "electric_scooter", "bike_id": "ea493a6102634a0e6f9c86e486d703e8", "rental_uris": {"ios": "https://dc.lft.to/lastmile_qr_scan", "android": "https://dc.lft.to/lastmile_qr_scan"}, "fusion_lat": 0.0}, {"lat": 38.89220783333333, "lon": -77.04330466666667, "is_disabled": 0, "fusion_lon": 0.0, "is_reserved": 0, "name": "0c28a2f8cfe700a28fea2efa42ec842c", "type": "electric_scooter", "bike_id": "0c28a2f8cfe700a28fea2efa42ec842c", "rental_uris": {"ios": "https://dc.lft.to/lastmile_qr_scan", "android": "https://dc.lft.to/lastmile_qr_scan"}, "fusion_lat": 0.0}, {"lat": 38.92947, "lon": -77.02755016666667, "is_disabled": 0, "fusion_lon": 0.0, "is_reserved": 0, "name": "3a85cf942159fcff10f90d244ee0f411", "type": "electric_scooter", "bike_id": "3a85cf942159fcff10f90d244ee0f411", "rental_uris": {"ios": "https://dc.lft.to/lastmile_qr_scan", "android": "https://dc.lft.to/lastmile_qr_scan"}, "fusion_lat": 0.0}, {"lat": 38.8768075, "lon": -77.003289, "is_disabled": 0, "fusion_lon": 0.0, "is_reserved": 0, "name": "a0efac1649fe8ae4425c8afc42212804", "type": "electric_scooter", "bike_id": "a0efac1649fe8ae4425c8afc42212804", "rental_uris": {"ios": "https://dc.lft.to/lastmile_qr_scan", "android": "https://dc.lft.to/lastmile_qr_scan"}, "fusion_lat": 0.0}, {"lat": 38.91415533333333, "lon": -77.02189516666667, "is_disabled": 0, "fusion_lon": 0.0, "is_reserved": 0, "name": "1ba6d80a7dcb8198cb775110c07afa72", "type": "electric_scooter", "bike_id": "1ba6d80a7dcb8198cb775110c07afa72", "rental_uris": {"ios": "https://dc.lft.to/lastmile_qr_scan", "android": "https://dc.lft.to/lastmile_qr_scan"}, "fusion_lat": 0.0}, {"lat": 38.908832333333336, "lon": -77.03255516666667, "is_disabled": 0, "fusion_lon": 0.0, "is_reserved": 0, "name": "6b326618f41d211fffaaec0e90436bc4", "type": "electric_scooter", "bike_id": "6b326618f41d211fffaaec0e90436bc4", "rental_uris": {"ios": "https://dc.lft.to/lastmile_qr_scan", "android": "https://dc.lft.to/lastmile_qr_scan"}, "fusion_lat": 0.0}, {"lat": 38.918167, "lon": -77.0253275, "is_disabled": 0, "fusion_lon": 0.0, "is_reserved": 0, "name": "4a45db73c0c9c4482e8db59208599578", "type": "electric_scooter", "bike_id": "4a45db73c0c9c4482e8db59208599578", "rental_uris": {"ios": "https://dc.lft.to/lastmile_qr_scan", "android": "https://dc.lft.to/lastmile_qr_scan"}, "fusion_lat": 0.0}, {"lat": 38.904957833333334, "lon": -77.06608116666666, "is_disabled": 0, "fusion_lon": 0.0, "is_reserved": 0, "name": "8677e0d7076a9fa34ff5374e839a0f7d", "type": "electric_scooter", "bike_id": "8677e0d7076a9fa34ff5374e839a0f7d", "rental_uris": {"ios": "https://dc.lft.to/lastmile_qr_scan", "android": "https://dc.lft.to/lastmile_qr_scan"}, "fusion_lat": 0.0}, {"lat": 38.90091183333333, "lon": -77.0132905, "is_disabled": 0, "fusion_lon": 0.0, "is_reserved": 0, "name": "5cbe8e08b2e288019ad21f9d4255eadd", "type": "electric_scooter", "bike_id": "5cbe8e08b2e288019ad21f9d4255eadd", "rental_uris": {"ios": "https://dc.lft.to/lastmile_qr_scan", "android": "https://dc.lft.to/lastmile_qr_scan"}, "fusion_lat": 0.0}, {"lat": 38.902175, "lon": -77.01743183333333, "is_disabled": 0, "fusion_lon": 0.0, "is_reserved": 0, "name": "7f6c151018f3026e4bb91ca434b9efb0", "type": "electric_scooter", "bike_id": "7f6c151018f3026e4bb91ca434b9efb0", "rental_uris": {"ios": "https://dc.lft.to/lastmile_qr_scan", "android": "https://dc.lft.to/lastmile_qr_scan"}, "fusion_lat": 0.0}, {"lat": 38.872307, "lon": -77.00607833333333, "is_disabled": 0, "fusion_lon": 0.0, "is_reserved": 0, "name": "25b967a8002f5cd33bf19e9891c07aa2", "type": "electric_scooter", "bike_id": "25b967a8002f5cd33bf19e9891c07aa2", "rental_uris": {"ios": "https://dc.lft.to/lastmile_qr_scan", "android": "https://dc.lft.to/lastmile_qr_scan"}, "fusion_lat": 0.0}, {"lat": 38.9126415, "lon": -77.03542983333334, "is_disabled": 0, "fusion_lon": 0.0, "is_reserved": 0, "name": "09e94ba7b4e12ce59d521afc27653912", "type": "electric_scooter", "bike_id": "09e94ba7b4e12ce59d521afc27653912", "rental_uris": {"ios": "https://dc.lft.to/lastmile_qr_scan", "android": "https://dc.lft.to/lastmile_qr_scan"}, "fusion_lat": 0.0}, {"lat": 38.887349666666665, "lon": -77.02384333333333, "is_disabled": 0, "fusion_lon": 0.0, "is_reserved": 0, "name": "b82cca7543a3b3cbe443667acde73f4b", "type": "electric_scooter", "bike_id": "b82cca7543a3b3cbe443667acde73f4b", "rental_uris": {"ios": "https://dc.lft.to/lastmile_qr_scan", "android": "https://dc.lft.to/lastmile_qr_scan"}, "fusion_lat": 0.0}, {"lat": 38.84610383333333, "lon": -76.96910333333334, "is_disabled": 0, "fusion_lon": 0.0, "is_reserved": 0, "name": "d5a00969afeef4c4db27dd11b7ff45f0", "type": "electric_bike", "bike_id": "d5a00969afeef4c4db27dd11b7ff45f0", "rental_uris": {"ios": "https://dc.lft.to/lastmile_qr_scan", "android": "https://dc.lft.to/lastmile_qr_scan"}, "fusion_lat": 0.0}, {"lat": 38.905238, "lon": -77.04769183333333, "is_disabled": 0, "fusion_lon": 0.0, "is_reserved": 0, "name": "86883f8df4d2f44df9aa8b870a17010a", "type": "electric_scooter", "bike_id": "86883f8df4d2f44df9aa8b870a17010a", "rental_uris": {"ios": "https://dc.lft.to/lastmile_qr_scan", "android": "https://dc.lft.to/lastmile_qr_scan"}, "fusion_lat": 0.0}, {"lat": 38.91604366666667, "lon": -77.04179116666667, "is_disabled": 0, "fusion_lon": 0.0, "is_reserved": 0, "name": "f20dc977688ad554b8c10789591a2390", "type": "electric_scooter", "bike_id": "f20dc977688ad554b8c10789591a2390", "rental_uris": {"ios": "https://dc.lft.to/lastmile_qr_scan", "android": "https://dc.lft.to/lastmile_qr_scan"}, "fusion_lat": 0.0}, {"lat": 38.89473983333333, "lon": -76.98595416666667, "is_disabled": 0, "fusion_lon": 0.0, "is_reserved": 0, "name": "9e42b384948c2b66dd3ea292369a6d4e", "type": "electric_scooter", "bike_id": "9e42b384948c2b66dd3ea292369a6d4e", "rental_uris": {"ios": "https://dc.lft.to/lastmile_qr_scan", "android": "https://dc.lft.to/lastmile_qr_scan"}, "fusion_lat": 0.0}, {"lat": 38.9230825, "lon": -77.0366005, "is_disabled": 0, "fusion_lon": 0.0, "is_reserved": 0, "name": "69fae24809d4b664a2892df80fe89faa", "type": "electric_scooter", "bike_id": "69fae24809d4b664a2892df80fe89faa", "rental_uris": {"ios": "https://dc.lft.to/lastmile_qr_scan", "android": "https://dc.lft.to/lastmile_qr_scan"}, "fusion_lat": 0.0}, {"lat": 38.994929666666664, "lon": -77.0778955, "is_disabled": 0, "fusion_lon": 0.0, "is_reserved": 0, "name": "1bb2895c4c1c5f00672303ed71ef94b5", "type": "electric_bike", "bike_id": "1bb2895c4c1c5f00672303ed71ef94b5", "rental_uris": {"ios": "https://dc.lft.to/lastmile_qr_scan", "android": "https://dc.lft.to/lastmile_qr_scan"}, "fusion_lat": 0.0}, {"lat": 38.954316666666664, "lon": -77.01850866666666, "is_disabled": 0, "fusion_lon": 0.0, "is_reserved": 0, "name": "963db5175321a1fdc459ec75c1eb7ea5", "type": "electric_scooter", "bike_id": "963db5175321a1fdc459ec75c1eb7ea5", "rental_uris": {"ios": "https://dc.lft.to/lastmile_qr_scan", "android": "https://dc.lft.to/lastmile_qr_scan"}, "fusion_lat": 0.0}, {"lat": 38.91903716666667, "lon": -77.03152966666667, "is_disabled": 0, "fusion_lon": 0.0, "is_reserved": 0, "name": "004f1d4f5dea0e2e5fa2733edb1426c6", "type": "electric_scooter", "bike_id": "004f1d4f5dea0e2e5fa2733edb1426c6", "rental_uris": {"ios": "https://dc.lft.to/lastmile_qr_scan", "android": "https://dc.lft.to/lastmile_qr_scan"}, "fusion_lat": 0.0}, {"lat": 38.91989183333333, "lon": -77.01787483333334, "is_disabled": 0, "fusion_lon": 0.0, "is_reserved": 0, "name": "8f419c95f4b70713b41ba2b5f6ec9a8e", "type": "electric_scooter", "bike_id": "8f419c95f4b70713b41ba2b5f6ec9a8e", "rental_uris": {"ios": "https://dc.lft.to/lastmile_qr_scan", "android": "https://dc.lft.to/lastmile_qr_scan"}, "fusion_lat": 0.0}, {"lat": 38.907197333333336, "lon": -77.07598033333333, "is_disabled": 0, "fusion_lon": 0.0, "is_reserved": 0, "name": "d4b7cdc72c4454be3e38f1fe6cfe562c", "type": "electric_scooter", "bike_id": "d4b7cdc72c4454be3e38f1fe6cfe562c", "rental_uris": {"ios": "https://dc.lft.to/lastmile_qr_scan", "android": "https://dc.lft.to/lastmile_qr_scan"}, "fusion_lat": 0.0}, {"lat": 38.907266166666666, "lon": -77.03308916666667, "is_disabled": 0, "fusion_lon": 0.0, "is_reserved": 0, "name": "05e6f8073ac1ce613d8c3785f1a1ddbf", "type": "electric_scooter", "bike_id": "05e6f8073ac1ce613d8c3785f1a1ddbf", "rental_uris": {"ios": "https://dc.lft.to/lastmile_qr_scan", "android": "https://dc.lft.to/lastmile_qr_scan"}, "fusion_lat": 0.0}, {"lat": 38.897400166666664, "lon": -77.03299666666666, "is_disabled": 0, "fusion_lon": 0.0, "is_reserved": 0, "name": "f99f322e21212c8cf9f8c30603535aa4", "type": "electric_scooter", "bike_id": "f99f322e21212c8cf9f8c30603535aa4", "rental_uris": {"ios": "https://dc.lft.to/lastmile_qr_scan", "android": "https://dc.lft.to/lastmile_qr_scan"}, "fusion_lat": 0.0}, {"lat": 38.887436, "lon": -77.02566483333334, "is_disabled": 0, "fusion_lon": 0.0, "is_reserved": 0, "name": "e0a64a5900ab8d4fd8cd2948e3efb8fa", "type": "electric_scooter", "bike_id": "e0a64a5900ab8d4fd8cd2948e3efb8fa", "rental_uris": {"ios": "https://dc.lft.to/lastmile_qr_scan", "android": "https://dc.lft.to/lastmile_qr_scan"}, "fusion_lat": 0.0}, {"lat": 38.93714083333333, "lon": -77.03263383333334, "is_disabled": 0, "fusion_lon": 0.0, "is_reserved": 0, "name": "b1639e9b360d25029cdcc101d45bc641", "type": "electric_scooter", "bike_id": "b1639e9b360d25029cdcc101d45bc641", "rental_uris": {"ios": "https://dc.lft.to/lastmile_qr_scan", "android": "https://dc.lft.to/lastmile_qr_scan"}, "fusion_lat": 0.0}, {"lat": 38.94972416666667, "lon": -77.02447366666667, "is_disabled": 0, "fusion_lon": 0.0, "is_reserved": 0, "name": "a6fb2e763b92498c343afacae15829ad", "type": "electric_scooter", "bike_id": "a6fb2e763b92498c343afacae15829ad", "rental_uris": {"ios": "https://dc.lft.to/lastmile_qr_scan", "android": "https://dc.lft.to/lastmile_qr_scan"}, "fusion_lat": 0.0}, {"lat": 38.912777166666665, "lon": -77.045093, "is_disabled": 0, "fusion_lon": 0.0, "is_reserved": 0, "name": "d764e2a9129afa718bcdf3aea68cfdfd", "type": "electric_scooter", "bike_id": "d764e2a9129afa718bcdf3aea68cfdfd", "rental_uris": {"ios": "https://dc.lft.to/lastmile_qr_scan", "android": "https://dc.lft.to/lastmile_qr_scan"}, "fusion_lat": 0.0}, {"lat": 38.89067133333333, "lon": -76.98835316666667, "is_disabled": 0, "fusion_lon": 0.0, "is_reserved": 0, "name": "c0f286da147643a1039b0d723d491c1b", "type": "electric_scooter", "bike_id": "c0f286da147643a1039b0d723d491c1b", "rental_uris": {"ios": "https://dc.lft.to/lastmile_qr_scan", "android": "https://dc.lft.to/lastmile_qr_scan"}, "fusion_lat": 0.0}, {"lat": 38.96159566666667, "lon": -77.02782116666667, "is_disabled": 0, "fusion_lon": 0.0, "is_reserved": 0, "name": "17d9e759fa0f439e1c245f4af09ecbcb", "type": "electric_scooter", "bike_id": "17d9e759fa0f439e1c245f4af09ecbcb", "rental_uris": {"ios": "https://dc.lft.to/lastmile_qr_scan", "android": "https://dc.lft.to/lastmile_qr_scan"}, "fusion_lat": 0.0}, {"lat": 38.9157485, "lon": -77.03190983333333, "is_disabled": 0, "fusion_lon": 0.0, "is_reserved": 0, "name": "8700dc08b02bca8efe560bd207aa7867", "type": "electric_scooter", "bike_id": "8700dc08b02bca8efe560bd207aa7867", "rental_uris": {"ios": "https://dc.lft.to/lastmile_qr_scan", "android": "https://dc.lft.to/lastmile_qr_scan"}, "fusion_lat": 0.0}, {"lat": 38.899274166666665, "lon": -77.01273, "is_disabled": 0, "fusion_lon": 0.0, "is_reserved": 0, "name": "5aad8dd445353a29f11aed59158771e5", "type": "electric_scooter", "bike_id": "5aad8dd445353a29f11aed59158771e5", "rental_uris": {"ios": "https://dc.lft.to/lastmile_qr_scan", "android": "https://dc.lft.to/lastmile_qr_scan"}, "fusion_lat": 0.0}, {"lat": 38.876272666666665, "lon": -77.014786, "is_disabled": 0, "fusion_lon": 0.0, "is_reserved": 0, "name": "9cda5a5be4e5deb4b92239c859edc196", "type": "electric_scooter", "bike_id": "9cda5a5be4e5deb4b92239c859edc196", "rental_uris": {"ios": "https://dc.lft.to/lastmile_qr_scan", "android": "https://dc.lft.to/lastmile_qr_scan"}, "fusion_lat": 0.0}, {"lat": 38.9185215, "lon": -76.9608795, "is_disabled": 0, "fusion_lon": 0.0, "is_reserved": 0, "name": "0c8e966122c01bc6cdbb46983c463b82", "type": "electric_bike", "bike_id": "0c8e966122c01bc6cdbb46983c463b82", "rental_uris": {"ios": "https://dc.lft.to/lastmile_qr_scan", "android": "https://dc.lft.to/lastmile_qr_scan"}, "fusion_lat": 0.0}, {"lat": 38.90825383333333, "lon": -76.93433733333333, "is_disabled": 0, "fusion_lon": 0.0, "is_reserved": 0, "name": "fb36e89b22165003125d10493ac9cd8b", "type": "electric_scooter", "bike_id": "fb36e89b22165003125d10493ac9cd8b", "rental_uris": {"ios": "https://dc.lft.to/lastmile_qr_scan", "android": "https://dc.lft.to/lastmile_qr_scan"}, "fusion_lat": 0.0}, {"lat": 38.836256166666665, "lon": -77.06949783333333, "is_disabled": 0, "fusion_lon": 0.0, "is_reserved": 0, "name": "057d0d9d37ca15584990f52d62220f6e", "type": "electric_bike", "bike_id": "057d0d9d37ca15584990f52d62220f6e", "rental_uris": {"ios": "https://dc.lft.to/lastmile_qr_scan", "android": "https://dc.lft.to/lastmile_qr_scan"}, "fusion_lat": 0.0}, {"lat": 38.9082155, "lon": -77.06377866666666, "is_disabled": 0, "fusion_lon": 0.0, "is_reserved": 0, "name": "9959df624d43a64e8892a9fb0a962bf0", "type": "electric_scooter", "bike_id": "9959df624d43a64e8892a9fb0a962bf0", "rental_uris": {"ios": "https://dc.lft.to/lastmile_qr_scan", "android": "https://dc.lft.to/lastmile_qr_scan"}, "fusion_lat": 0.0}, {"lat": 38.906451833333335, "lon": -77.00964916666666, "is_disabled": 0, "fusion_lon": 0.0, "is_reserved": 0, "name": "2ec658473869bd249439738e6cd87a88", "type": "electric_scooter", "bike_id": "2ec658473869bd249439738e6cd87a88", "rental_uris": {"ios": "https://dc.lft.to/lastmile_qr_scan", "android": "https://dc.lft.to/lastmile_qr_scan"}, "fusion_lat": 0.0}, {"lat": 38.92143633333333, "lon": -77.04361033333333, "is_disabled": 0, "fusion_lon": 0.0, "is_reserved": 0, "name": "ba9eaa1298e7fa5b67e835c6aa7596c6", "type": "electric_scooter", "bike_id": "ba9eaa1298e7fa5b67e835c6aa7596c6", "rental_uris": {"ios": "https://dc.lft.to/lastmile_qr_scan", "android": "https://dc.lft.to/lastmile_qr_scan"}, "fusion_lat": 0.0}, {"lat": 38.90013, "lon": -77.03737016666666, "is_disabled": 0, "fusion_lon": 0.0, "is_reserved": 0, "name": "c3d63cda9d998c7b7845e1ddf2d4e46d", "type": "electric_scooter", "bike_id": "c3d63cda9d998c7b7845e1ddf2d4e46d", "rental_uris": {"ios": "https://dc.lft.to/lastmile_qr_scan", "android": "https://dc.lft.to/lastmile_qr_scan"}, "fusion_lat": 0.0}, {"lat": 38.90712666666667, "lon": -77.0166205, "is_disabled": 0, "fusion_lon": 0.0, "is_reserved": 0, "name": "25a06c425d49ee94c87ebadfef4918bd", "type": "electric_scooter", "bike_id": "25a06c425d49ee94c87ebadfef4918bd", "rental_uris": {"ios": "https://dc.lft.to/lastmile_qr_scan", "android": "https://dc.lft.to/lastmile_qr_scan"}, "fusion_lat": 0.0}, {"lat": 38.9110925, "lon": -77.03769416666667, "is_disabled": 0, "fusion_lon": 0.0, "is_reserved": 0, "name": "7df38289cec42b0066d9972473251dc4", "type": "electric_scooter", "bike_id": "7df38289cec42b0066d9972473251dc4", "rental_uris": {"ios": "https://dc.lft.to/lastmile_qr_scan", "android": "https://dc.lft.to/lastmile_qr_scan"}, "fusion_lat": 0.0}, {"lat": 38.922994, "lon": -77.02329833333333, "is_disabled": 0, "fusion_lon": 0.0, "is_reserved": 0, "name": "aea892fc8144173a79934f1f9011c6b8", "type": "electric_scooter", "bike_id": "aea892fc8144173a79934f1f9011c6b8", "rental_uris": {"ios": "https://dc.lft.to/lastmile_qr_scan", "android": "https://dc.lft.to/lastmile_qr_scan"}, "fusion_lat": 0.0}, {"lat": 38.90277716666667, "lon": -77.03427266666667, "is_disabled": 0, "fusion_lon": 0.0, "is_reserved": 0, "name": "c53fa87156f3f6b98a7d888f8611edd3", "type": "electric_scooter", "bike_id": "c53fa87156f3f6b98a7d888f8611edd3", "rental_uris": {"ios": "https://dc.lft.to/lastmile_qr_scan", "android": "https://dc.lft.to/lastmile_qr_scan"}, "fusion_lat": 0.0}, {"lat": 38.91624, "lon": -77.03219566666667, "is_disabled": 0, "fusion_lon": 0.0, "is_reserved": 0, "name": "59d24172cce817cfa74252b6ced9fc98", "type": "electric_scooter", "bike_id": "59d24172cce817cfa74252b6ced9fc98", "rental_uris": {"ios": "https://dc.lft.to/lastmile_qr_scan", "android": "https://dc.lft.to/lastmile_qr_scan"}, "fusion_lat": 0.0}, {"lat": 38.89915416666667, "lon": -77.02375383333333, "is_disabled": 0, "fusion_lon": 0.0, "is_reserved": 0, "name": "5711f899efe61aa56940f8ac8e01a4ae", "type": "electric_scooter", "bike_id": "5711f899efe61aa56940f8ac8e01a4ae", "rental_uris": {"ios": "https://dc.lft.to/lastmile_qr_scan", "android": "https://dc.lft.to/lastmile_qr_scan"}, "fusion_lat": 0.0}, {"lat": 38.9267905, "lon": -77.02266916666666, "is_disabled": 0, "fusion_lon": 0.0, "is_reserved": 0, "name": "c69a6ea2b31ce04989b97a9d77ff32d5", "type": "electric_scooter", "bike_id": "c69a6ea2b31ce04989b97a9d77ff32d5", "rental_uris": {"ios": "https://dc.lft.to/lastmile_qr_scan", "android": "https://dc.lft.to/lastmile_qr_scan"}, "fusion_lat": 0.0}, {"lat": 38.90808166666667, "lon": -77.034442, "is_disabled": 0, "fusion_lon": 0.0, "is_reserved": 0, "name": "b9682135d2bcaa40ec6142a5564df50a", "type": "electric_scooter", "bike_id": "b9682135d2bcaa40ec6142a5564df50a", "rental_uris": {"ios": "https://dc.lft.to/lastmile_qr_scan", "android": "https://dc.lft.to/lastmile_qr_scan"}, "fusion_lat": 0.0}, {"lat": 38.903607, "lon": -77.0291425, "is_disabled": 0, "fusion_lon": 0.0, "is_reserved": 0, "name": "5e4a2026e41c4b2283cc2ed6e2f385df", "type": "electric_scooter", "bike_id": "5e4a2026e41c4b2283cc2ed6e2f385df", "rental_uris": {"ios": "https://dc.lft.to/lastmile_qr_scan", "android": "https://dc.lft.to/lastmile_qr_scan"}, "fusion_lat": 0.0}, {"lat": 38.89682966666667, "lon": -77.0253755, "is_disabled": 0, "fusion_lon": 0.0, "is_reserved": 0, "name": "69a14e44c48df209ee22ed2968f5f365", "type": "electric_scooter", "bike_id": "69a14e44c48df209ee22ed2968f5f365", "rental_uris": {"ios": "https://dc.lft.to/lastmile_qr_scan", "android": "https://dc.lft.to/lastmile_qr_scan"}, "fusion_lat": 0.0}, {"lat": 38.9178675, "lon": -77.02302733333333, "is_disabled": 0, "fusion_lon": 0.0, "is_reserved": 0, "name": "c1ed6c400493747f426be3434d691011", "type": "electric_scooter", "bike_id": "c1ed6c400493747f426be3434d691011", "rental_uris": {"ios": "https://dc.lft.to/lastmile_qr_scan", "android": "https://dc.lft.to/lastmile_qr_scan"}, "fusion_lat": 0.0}, {"lat": 38.900256, "lon": -76.9740345, "is_disabled": 0, "fusion_lon": 0.0, "is_reserved": 0, "name": "e1c86982a7650488788d172041cedb2a", "type": "electric_scooter", "bike_id": "e1c86982a7650488788d172041cedb2a", "rental_uris": {"ios": "https://dc.lft.to/lastmile_qr_scan", "android": "https://dc.lft.to/lastmile_qr_scan"}, "fusion_lat": 0.0}, {"lat": 38.92297683333334, "lon": -77.04295066666667, "is_disabled": 0, "fusion_lon": 0.0, "is_reserved": 0, "name": "e916772172cdbcd6871fb45695a887e4", "type": "electric_scooter", "bike_id": "e916772172cdbcd6871fb45695a887e4", "rental_uris": {"ios": "https://dc.lft.to/lastmile_qr_scan", "android": "https://dc.lft.to/lastmile_qr_scan"}, "fusion_lat": 0.0}, {"lat": 38.916941666666666, "lon": -77.03627433333334, "is_disabled": 0, "fusion_lon": 0.0, "is_reserved": 0, "name": "35b90f728e5b3f6408e99c5ec9654685", "type": "electric_scooter", "bike_id": "35b90f728e5b3f6408e99c5ec9654685", "rental_uris": {"ios": "https://dc.lft.to/lastmile_qr_scan", "android": "https://dc.lft.to/lastmile_qr_scan"}, "fusion_lat": 0.0}, {"lat": 38.881160333333334, "lon": -77.01679366666667, "is_disabled": 0, "fusion_lon": 0.0, "is_reserved": 0, "name": "5a4326af1586525d9b6176dff94574ce", "type": "electric_scooter", "bike_id": "5a4326af1586525d9b6176dff94574ce", "rental_uris": {"ios": "https://dc.lft.to/lastmile_qr_scan", "android": "https://dc.lft.to/lastmile_qr_scan"}, "fusion_lat": 0.0}, {"lat": 38.9261445, "lon": -77.03222366666667, "is_disabled": 0, "fusion_lon": 0.0, "is_reserved": 0, "name": "a8828139ca60dc581aae1efb0b85b3c5", "type": "electric_scooter", "bike_id": "a8828139ca60dc581aae1efb0b85b3c5", "rental_uris": {"ios": "https://dc.lft.to/lastmile_qr_scan", "android": "https://dc.lft.to/lastmile_qr_scan"}, "fusion_lat": 0.0},