{"data": {"bikes": [{"is_reserved": 0, "bike_id": "5380648084053b4873dd3daacd512586", "type": "electric_bike", "name": "5380648084053b4873dd3daacd512586", "is_disabled": 0, "fusion_lon": 0.0, "rental_uris": {"android": "https://dc.lft.to/lastmile_qr_scan", "ios": "https://dc.lft.to/lastmile_qr_scan"}, "lat": 38.921133833333336, "lon": -76.98882866666666, "fusion_lat": 0.0}, {"is_reserved": 0, "bike_id": "f84a0b646fcd1e115f2ef3180f2d1eed", "type": "electric_scooter", "name": "f84a0b646fcd1e115f2ef3180f2d1eed", "is_disabled": 0, "fusion_lon": 0.0, "rental_uris": {"android": "https://dc.lft.to/lastmile_qr_scan", "ios": "https://dc.lft.to/lastmile_qr_scan"}, "lat": 38.919310833333334, "lon": -77.04509866666666, "fusion_lat": 0.0}, {"is_reserved": 0, "bike_id": "c43f088af85760b4da8117352f8aa597", "type": "electric_scooter", "name": "c43f088af85760b4da8117352f8aa597", "is_disabled": 0, "fusion_lon": 0.0, "rental_uris": {"android": "https://dc.lft.to/lastmile_qr_scan", "ios": "https://dc.lft.to/lastmile_qr_scan"}, "lat": 38.90382816666666, "lon": -77.03113366666666, "fusion_lat": 0.0}, {"is_reserved": 0, "bike_id": "302fc3e95b5604285b3c24ba54a6eba7", "type": "electric_scooter", "name": "302fc3e95b5604285b3c24ba54a6eba7", "is_disabled": 0, "fusion_lon": 0.0, "rental_uris": {"android": "https://dc.lft.to/lastmile_qr_scan", "ios": "https://dc.lft.to/lastmile_qr_scan"}, "lat": 38.96763333333333, "lon": -77.030299, "fusion_lat": 0.0}, {"is_reserved": 0, "bike_id": "bd37d9fef9d4b0442a36886d5ae000f4", "type": "electric_scooter", "name": "bd37d9fef9d4b0442a36886d5ae000f4", "is_disabled": 0, "fusion_lon": 0.0, "rental_uris": {"android": "https://dc.lft.to/lastmile_qr_scan", "ios": "https://dc.lft.to/lastmile_qr_scan"}, "lat": 38.92331716666666, "lon": -77.04636766666667, "fusion_lat": 0.0}, {"is_reserved": 0, "bike_id": "a953d32dc61d64e210db0413a570b096", "type": "electric_scooter", "name": "a953d32dc61d64e210db0413a570b096", "is_disabled": 0, "fusion_lon": 0.0, "rental_uris": {"android": "https://dc.lft.to/lastmile_qr_scan", "ios": "https://dc.lft.to/lastmile_qr_scan"}, "lat": 38.887341, "lon": -77.02584366666666, "fusion_lat": 0.0}, {"is_reserved": 0, "bike_id": "10fcd2ae192fbfecf9cdc57f64bcbb19", "type": "electric_scooter", "name": "10fcd2ae192fbfecf9cdc57f64bcbb19", "is_disabled": 0, "fusion_lon": 0.0, "rental_uris": {"android": "https://dc.lft.to/lastmile_qr_scan", "ios": "https://dc.lft.to/lastmile_qr_scan"}, "lat": 38.90367883333333, "lon": -76.9871355, "fusion_lat": 0.0}, {"is_reserved": 0, "bike_id": "8d465acbbdc2ce6486292793170b6a1f", "type": "electric_scooter", "name": "8d465acbbdc2ce6486292793170b6a1f", "is_disabled": 0, "fusion_lon": 0.0, "rental_uris": {"android": "https://dc.lft.to/lastmile_qr_scan", "ios": "https://dc.lft.to/lastmile_qr_scan"}, "lat": 38.918461, "lon": -77.03883183333333, "fusion_lat": 0.0}, {"is_reserved": 0, "bike_id": "72dcf7dc66e43a0a6535c91ed19bc698", "type": "electric_scooter", "name": "72dcf7dc66e43a0a6535c91ed19bc698", "is_disabled": 0, "fusion_lon": 0.0, "rental_uris": {"android": "https://dc.lft.to/lastmile_qr_scan", "ios": "https://dc.lft.to/lastmile_qr_scan"}, "lat": 38.919060333333334, "lon": -77.031309, "fusion_lat": 0.0}, {"is_reserved": 0, "bike_id": "9b9177e24ba4b5693f2d837292e56b62", "type": "electric_scooter", "name": "9b9177e24ba4b5693f2d837292e56b62", "is_disabled": 0, "fusion_lon": 0.0, "rental_uris": {"android": "https://dc.lft.to/lastmile_qr_scan", "ios": "https://dc.lft.to/lastmile_qr_scan"}, "lat": 38.931005, "lon": -77.02664716666666, "fusion_lat": 0.0}, {"is_reserved": 0, "bike_id": "6353e0d3051b010e03be44cde37c6829", "type": "electric_scooter", "name": "6353e0d3051b010e03be44cde37c6829", "is_disabled": 0, "fusion_lon": 0.0, "rental_uris": {"android": "https://dc.lft.to/lastmile_qr_scan", "ios": "https://dc.lft.to/lastmile_qr_scan"}, "lat": 38.90308366666667, "lon": -77.036677, "fusion_lat": 0.0}, {"is_reserved": 0, "bike_id": "64475be1133f12e00d910fda694ab814", "type": "electric_scooter", "name": "64475be1133f12e00d910fda694ab814", "is_disabled": 0, "fusion_lon": 0.0, "rental_uris": {"android": "https://dc.lft.to/lastmile_qr_scan", "ios": "https://dc.lft.to/lastmile_qr_scan"}, "lat": 38.94005416666667, "lon": -77.02736933333334, "fusion_lat": 0.0}, {"is_reserved": 0, "bike_id": "ac78d547671a79caad7ca93dcd845ed6", "type": "electric_scooter", "name": "ac78d547671a79caad7ca93dcd845ed6", "is_disabled": 0, "fusion_lon": 0.0, "rental_uris": {"android": "https://dc.lft.to/lastmile_qr_scan", "ios": "https://dc.lft.to/lastmile_qr_scan"}, "lat": 38.90125966666667, "lon": -77.0385585, "fusion_lat": 0.0}, {"is_reserved": 0, "bike_id": "3482f1559c3c78b21b0d3321548b8a0a", "type": "electric_bike", "name": "3482f1559c3c78b21b0d3321548b8a0a", "is_disabled": 0, "fusion_lon": 0.0, "rental_uris": {"android": "https://dc.lft.to/lastmile_qr_scan", "ios": "https://dc.lft.to/lastmile_qr_scan"}, "lat": 38.83065066666666, "lon": -77.040804, "fusion_lat": 0.0}, {"is_reserved": 0, "bike_id": "e9f0452e1e7a2ecdb2b65e22b625ae6b", "type": "electric_scooter", "name": "e9f0452e1e7a2ecdb2b65e22b625ae6b", "is_disabled": 0, "fusion_lon": 0.0, "rental_uris": {"android": "https://dc.lft.to/lastmile_qr_scan", "ios": "https://dc.lft.to/lastmile_qr_scan"}, "lat": 38.9083185, "lon": -77.04350683333334, "fusion_lat": 0.0}, {"is_reserved": 0, "bike_id": "ab9a91c96189292589eaf41e6507a941", "type": "electric_scooter", "name": "ab9a91c96189292589eaf41e6507a941", "is_disabled": 0, "fusion_lon": 0.0, "rental_uris": {"android": "https://dc.lft.to/lastmile_qr_scan", "ios": "https://dc.lft.to/lastmile_qr_scan"}, "lat": 38.9040395, "lon": -77.00768, "fusion_lat": 0.0}, {"is_reserved": 0, "bike_id": "07efb52255ce9924d05dab0705ddded6", "type": "electric_scooter", "name": "07efb52255ce9924d05dab0705ddded6", "is_disabled": 0, "fusion_lon": 0.0, "rental_uris": {"android": "https://dc.lft.to/lastmile_qr_scan", "ios": "https://dc.lft.to/lastmile_qr_scan"}, "lat": 38.886008833333335, "lon": -77.03106016666666, "fusion_lat": 0.0}, {"is_reserved": 0, "bike_id": "575139f2c3098fa5878a61f39bc0ddb8", "type": "electric_scooter", "name": "575139f2c3098fa5878a61f39bc0ddb8", "is_disabled": 0, "fusion_lon": 0.0, "rental_uris": {"android": "https://dc.lft.to/lastmile_qr_scan", "ios": "https://dc.lft.to/lastmile_qr_scan"}, "lat": 38.916889166666664, "lon": -77.03869866666666, "fusion_lat": 0.0}, {"is_reserved": 0, "bike_id": "687a1e909ddad2663dcc9f1cbe1cb89f", "type": "electric_scooter", "name": "687a1e909ddad2663dcc9f1cbe1cb89f", "is_disabled": 0, "fusion_lon": 0.0, "rental_uris": {"android": "https://dc.lft.to/lastmile_qr_scan", "ios": "https://dc.lft.to/lastmile_qr_scan"}, "lat": 38.90439216666667, "lon": -77.02888733333333, "fusion_lat": 0.0}, {"is_reserved": 0, "bike_id": "a75c671fff4e82342efced7c7e3d9204", "type": "electric_scooter", "name": "a75c671fff4e82342efced7c7e3d9204", "is_disabled": 0, "fusion_lon": 0.0, "rental_uris": {"android": "https://dc.lft.to/lastmile_qr_scan", "ios": "https://dc.lft.to/lastmile_qr_scan"}, "lat": 38.922454333333334, "lon": -77.02915466666667, "fusion_lat": 0.0}, {"is_reserved": 0, "bike_id": "fa81d608edb1bf9ad97999b0a67aa423", "type": "electric_scooter", "name": "fa81d608edb1bf9ad97999b0a67aa423", "is_disabled": 0, "fusion_lon": 0.0, "rental_uris": {"android": "https://dc.lft.to/lastmile_qr_scan", "ios": "https://dc.lft.to/lastmile_qr_scan"}, "lat": 38.907243333333334, "lon": -77.00703983333334, "fusion_lat": 0.0}, {"is_reserved": 0, "bike_id": "8bd5c7c384e98bbaa5eba53431ea9e1b", "type": "electric_scooter", "name": "8bd5c7c384e98bbaa5eba53431ea9e1b", "is_disabled": 0, "fusion_lon": 0.0, "rental_uris": {"android": "https://dc.lft.to/lastmile_qr_scan", "ios": "https://dc.lft.to/lastmile_qr_scan"}, "lat": 38.898494666666664, "lon": -77.0425135, "fusion_lat": 0.0}, {"is_reserved": 0, "bike_id": "996e7899d8a3b00a88fc3d8cd5340419", "type": "electric_scooter", "name": "996e7899d8a3b00a88fc3d8cd5340419", "is_disabled": 0, "fusion_lon": 0.0, "rental_uris": {"android": "https://dc.lft.to/lastmile_qr_scan", "ios": "https://dc.lft.to/lastmile_qr_scan"}, "lat": 38.86516366666667, "lon": -76.97346666666667, "fusion_lat": 0.0}, {"is_reserved": 0, "bike_id": "9aa465898c1c90fed3f525cb0766df53", "type": "electric_scooter", "name": "9aa465898c1c90fed3f525cb0766df53", "is_disabled": 0, "fusion_lon": 0.0, "rental_uris": {"android": "https://dc.lft.to/lastmile_qr_scan", "ios": "https://dc.lft.to/lastmile_qr_scan"}, "lat": 38.91048133333334, "lon": -76.99741683333333, "fusion_lat": 0.0}, {"is_reserved": 0, "bike_id": "f179d53a8357e23d88b657a40781bd39", "type": "electric_scooter", "name": "f179d53a8357e23d88b657a40781bd39", "is_disabled": 0, "fusion_lon": 0.0, "rental_uris": {"android": "https://dc.lft.to/lastmile_qr_scan", "ios": "https://dc.lft.to/lastmile_qr_scan"}, "lat": 38.902560333333334, "lon": -76.99517433333334, "fusion_lat": 0.0}, {"is_reserved": 0, "bike_id": "a08b0b82244ab65f913699a0033d9594", "type": "electric_scooter", "name": "a08b0b82244ab65f913699a0033d9594", "is_disabled": 0, "fusion_lon": 0.0, "rental_uris": {"android": "https://dc.lft.to/lastmile_qr_scan", "ios": "https://dc.lft.to/lastmile_qr_scan"}, "lat": 38.90975866666667, "lon": -77.03839433333333, "fusion_lat": 0.0}, {"is_reserved": 0, "bike_id": "c202273d14183762f2ab3a7c241855af", "type": "electric_scooter", "name": "c202273d14183762f2ab3a7c241855af", "is_disabled": 0, "fusion_lon": 0.0, "rental_uris": {"android": "https://dc.lft.to/lastmile_qr_scan", "ios": "https://dc.lft.to/lastmile_qr_scan"}, "lat": 38.911343333333335, "lon": -77.02186066666667, "fusion_lat": 0.0}, {"is_reserved": 0, "bike_id": "139e28d28a684ac19df1d3f3c26df16f", "type": "electric_scooter", "name": "139e28d28a684ac19df1d3f3c26df16f", "is_disabled": 0, "fusion_lon": 0.0, "rental_uris": {"android": "https://dc.lft.to/lastmile_qr_scan", "ios": "https://dc.lft.to/lastmile_qr_scan"}, "lat": 38.87704766666667, "lon": -77.00669, "fusion_lat": 0.0}, {"is_reserved": 0, "bike_id": "58058984554b9e700fcd294a82fc15ae", "type": "electric_scooter", "name": "58058984554b9e700fcd294a82fc15ae", "is_disabled": 0, "fusion_lon": 0.0, "rental_uris": {"android": "https://dc.lft.to/lastmile_qr_scan", "ios": "https://dc.lft.to/lastmile_qr_scan"}, "lat": 38.926070333333335, "lon": -77.02286433333333, "fusion_lat": 0.0}, {"is_reserved": 0, "bike_id": "e63693d39eb4174f1d3043e3cba2cc1b", "type": "electric_scooter", "name": "e63693d39eb4174f1d3043e3cba2cc1b", "is_disabled": 0, "fusion_lon": 0.0, "rental_uris": {"android": "https://dc.lft.to/lastmile_qr_scan", "ios": "https://dc.lft.to/lastmile_qr_scan"}, "lat": 38.938972, "lon": -77.033349, "fusion_lat": 0.0}, {"is_reserved": 0, "bike_id": "fceb1234abda46e0ceedaa8f7c13ee95", "type": "electric_scooter", "name": "fceb1234abda46e0ceedaa8f7c13ee95", "is_disabled": 0, "fusion_lon": 0.0, "rental_uris": {"android": "https://dc.lft.to/lastmile_qr_scan", "ios": "https://dc.lft.to/lastmile_qr_scan"}, "lat": 38.93072433333333, "lon": -77.038247, "fusion_lat": 0.0}, {"is_reserved": 0, "bike_id": "31bd3ae64ed0ade4497ba5b896732f10", "type": "electric_scooter", "name": "31bd3ae64ed0ade4497ba5b896732f10", "is_disabled": 0, "fusion_lon": 0.0, "rental_uris": {"android": "https://dc.lft.to/lastmile_qr_scan", "ios": "https://dc.lft.to/lastmile_qr_scan"}, "lat": 38.923287, "lon": -77.0195685, "fusion_lat": 0.0}, {"is_reserved": 0, "bike_id": "af767c779fa77af572bbbedb650ba497", "type": "electric_scooter", "name": "af767c779fa77af572bbbedb650ba497", "is_disabled": 0, "fusion_lon": 0.0, "rental_uris": {"android": "https://dc.lft.to/lastmile_qr_scan", "ios": "https://dc.lft.to/lastmile_qr_scan"}, "lat": 38.92980266666667, "lon": -77.0318915, "fusion_lat": 0.0}, {"is_reserved": 0, "bike_id": "c92cbf508e4dcc4ee22327e4ab3ae7a7", "type": "electric_scooter", "name": "c92cbf508e4dcc4ee22327e4ab3ae7a7", "is_disabled": 0, "fusion_lon": 0.0, "rental_uris": {"android": "https://dc.lft.to/lastmile_qr_scan", "ios": "https://dc.lft.to/lastmile_qr_scan"}, "lat": 38.9201315, "lon": -77.06362833333333, "fusion_lat": 0.0}, {"is_reserved": 0, "bike_id": "9da569fd48d65102b2046bba4a984026", "type": "electric_scooter", "name": "9da569fd48d65102b2046bba4a984026", "is_disabled": 0, "fusion_lon": 0.0, "rental_uris": {"android": "https://dc.lft.to/lastmile_qr_scan", "ios": "https://dc.lft.to/lastmile_qr_scan"}, "lat": 38.94079416666667, "lon": -77.0614815, "fusion_lat": 0.0}, {"is_reserved": 0, "bike_id": "84b0dc41688e0c4d563fbdd0f76535df", "type": "electric_scooter", "name": "84b0dc41688e0c4d563fbdd0f76535df", "is_disabled": 0, "fusion_lon": 0.0, "rental_uris": {"android": "https://dc.lft.to/lastmile_qr_scan", "ios": "https://dc.lft.to/lastmile_qr_scan"}, "lat": 38.899732666666665, "lon": -77.027477, "fusion_lat": 0.0}, {"is_reserved": 0, "bike_id": "f8e1846859d9a37ac407c98f8e31f936", "type": "electric_scooter", "name": "f8e1846859d9a37ac407c98f8e31f936", "is_disabled": 0, "fusion_lon": 0.0, "rental_uris": {"android": "https://dc.lft.to/lastmile_qr_scan", "ios": "https://dc.lft.to/lastmile_qr_scan"}, "lat": 38.941954833333334, "lon": -77.02350533333333, "fusion_lat": 0.0}, {"is_reserved": 0, "bike_id": "26b270a38841bf736cc40555a7f27353", "type": "electric_scooter", "name": "26b270a38841bf736cc40555a7f27353", "is_disabled": 0, "fusion_lon": 0.0, "rental_uris": {"android": "https://dc.lft.to/lastmile_qr_scan", "ios": "https://dc.lft.to/lastmile_qr_scan"}, "lat": 38.93103266666667, "lon": -77.0349135, "fusion_lat": 0.0}, {"is_reserved": 0, "bike_id": "5b6e3031ce6bc1f346d44ecb0f510358", "type": "electric_scooter", "name": "5b6e3031ce6bc1f346d44ecb0f510358", "is_disabled": 0, "fusion_lon": 0.0, "rental_uris": {"android": "https://dc.lft.to/lastmile_qr_scan", "ios": "https://dc.lft.to/lastmile_qr_scan"}, "lat": 38.91414483333333, "lon": -77.02590133333334, "fusion_lat": 0.0}, {"is_reserved": 0, "bike_id": "e071a6541377cfb1bfe141ea3ca7f2a1", "type": "electric_scooter", "name": "e071a6541377cfb1bfe141ea3ca7f2a1", "is_disabled": 0, "fusion_lon": 0.0, "rental_uris": {"android": "https://dc.lft.to/lastmile_qr_scan", "ios": "https://dc.lft.to/lastmile_qr_scan"}, "lat": 38.87724516666667, "lon": -77.00599216666667, "fusion_lat": 0.0}, {"is_reserved": 0, "bike_id": "1bec1a7bec11f55e8026c8260ecf5b82", "type": "electric_scooter", "name": "1bec1a7bec11f55e8026c8260ecf5b82", "is_disabled": 0, "fusion_lon": 0.0, "rental_uris": {"android": "https://dc.lft.to/lastmile_qr_scan", "ios": "https://dc.lft.to/lastmile_qr_scan"}, "lat": 38.92059016666666, "lon": -77.02589116666667, "fusion_lat": 0.0}, {"is_reserved": 0, "bike_id": "4f400d42ccc71bae16faf06231f1f595", "type": "electric_bike", "name": "4f400d42ccc71bae16faf06231f1f595", "is_disabled": 0, "fusion_lon": 0.0, "rental_uris": {"android": "https://dc.lft.to/lastmile_qr_scan", "ios": "https://dc.lft.to/lastmile_qr_scan"}, "lat": 38.9305435, "lon": -77.07356116666666, "fusion_lat": 0.0}, {"is_reserved": 0, "bike_id": "b9fb6ef1e98c630aa60ed67d7918eac7", "type": "electric_scooter", "name": "b9fb6ef1e98c630aa60ed67d7918eac7", "is_disabled": 0, "fusion_lon": 0.0, "rental_uris": {"android": "https://dc.lft.to/lastmile_qr_scan", "ios": "https://dc.lft.to/lastmile_qr_scan"}, "lat": 38.94930566666667, "lon": -77.01852116666667, "fusion_lat": 0.0}, {"is_reserved": 0, "bike_id": "8121d660648b1494a19afc6920036064", "type": "electric_scooter", "name": "8121d660648b1494a19afc6920036064", "is_disabled": 0, "fusion_lon": 0.0, "rental_uris": {"android": "https://dc.lft.to/lastmile_qr_scan", "ios": "https://dc.lft.to/lastmile_qr_scan"}, "lat": 38.900304, "lon": -76.99523133333334, "fusion_lat": 0.0}, {"is_reserved": 0, "bike_id": "ae403f5d42381e11a99e8ff4042e9f2b", "type": "electric_scooter", "name": "ae403f5d42381e11a99e8ff4042e9f2b", "is_disabled": 0, "fusion_lon": 0.0, "rental_uris": {"android": "https://dc.lft.to/lastmile_qr_scan", "ios": "https://dc.lft.to/lastmile_qr_scan"}, "lat": 38.9212875, "lon": -77.01800283333333, "fusion_lat": 0.0}, {"is_reserved": 0, "bike_id": "a170930be5de834a75859f58c2536991", "type": "electric_scooter", "name": "a170930be5de834a75859f58c2536991", "is_disabled": 0, "fusion_lon": 0.0, "rental_uris": {"android": "https://dc.lft.to/lastmile_qr_scan", "ios": "https://dc.lft.to/lastmile_qr_scan"}, "lat": 38.9289885, "lon": -77.05456966666667, "fusion_lat": 0.0}, {"is_reserved": 0, "bike_id": "aeb2189d878ec1765504908b0581d66b", "type": "electric_scooter", "name": "aeb2189d878ec1765504908b0581d66b", "is_disabled": 0, "fusion_lon": 0.0, "rental_uris": {"android": "https://dc.lft.to/lastmile_qr_scan", "ios": "https://dc.lft.to/lastmile_qr_scan"}, "lat": 38.921309666666666, "lon": -77.02532316666667, "fusion_lat": 0.0}, {"is_reserved": 0, "bike_id": "4527caf8a4763f3ae36ca06b82e7ed8e", "type": "electric_bike", "name": "4527caf8a4763f3ae36ca06b82e7ed8e", "is_disabled": 0, "fusion_lon": 0.0, "rental_uris": {"android": "https://dc.lft.to/lastmile_qr_scan", "ios": "https://dc.lft.to/lastmile_qr_scan"}, "lat": 39.034230666666666, "lon": -77.04300616666667, "fusion_lat": 0.0}, {"is_reserved": 0, "bike_id": "903638d0ada779a112198fc4ad6922af", "type": "electric_scooter", "name": "903638d0ada779a112198fc4ad6922af", "is_disabled": 0, "fusion_lon": 0.0, "rental_uris": {"android": "https://dc.lft.to/lastmile_qr_scan", "ios": "https://dc.lft.to/lastmile_qr_scan"}, "lat": 38.902686833333334, "lon": -77.02842766666667, "fusion_lat": 0.0}, {"is_reserved": 0, "bike_id": "71e78b29078cb2ccfc32f0ed8c922f9d", "type": "electric_scooter", "name": "71e78b29078cb2ccfc32f0ed8c922f9d", "is_disabled": 0, "fusion_lon": 0.0, "rental_uris": {"android": "https://dc.lft.to/lastmile_qr_scan", "ios": "https://dc.lft.to/lastmile_qr_scan"}, "lat": 38.903695666666664, "lon": -77.043117, "fusion_lat": 0.0}, {"is_reserved": 0, "bike_id": "28e51d1a41dd1d3386d119bea4188ace", "type": "electric_scooter", "name": "28e51d1a41dd1d3386d119bea4188ace", "is_disabled": 0, "fusion_lon": 0.0, "rental_uris": {"android": "https://dc.lft.to/lastmile_qr_scan", "ios": "https://dc.lft.to/lastmile_qr_scan"}, "lat": 38.9049075, "lon": -77.051481, "fusion_lat": 0.0}, {"is_reserved": 0, "bike_id": "db8d826b1a7b9e1f0abca078f47f7261", "type": "electric_scooter", "name": "db8d826b1a7b9e1f0abca078f47f7261", "is_disabled": 0, "fusion_lon": 0.0, "rental_uris": {"android": "https://dc.lft.to/lastmile_qr_scan", "ios": "https://dc.lft.to/lastmile_qr_scan"}, "lat": 38.9292275, "lon": -77.01866966666667, "fusion_lat": 0.0}, {"is_reserved": 0, "bike_id": "6caaf3d3d0cdfd52a3f936be50ded6d7", "type": "electric_bike", "name": "6caaf3d3d0cdfd52a3f936be50ded6d7", "is_disabled": 0, "fusion_lon": 0.0, "rental_uris": {"android": "https://dc.lft.to/lastmile_qr_scan", "ios": "https://dc.lft.to/lastmile_qr_scan"}, "lat": 38.922498833333336, "lon": -76.98318216666667, "fusion_lat": 0.0}, {"is_reserved": 0, "bike_id": "8c89d50b7ee8d7f88833023d0bc814d7", "type": "electric_scooter", "name": "8c89d50b7ee8d7f88833023d0bc814d7", "is_disabled": 0, "fusion_lon": 0.0, "rental_uris": {"android": "https://dc.lft.to/lastmile_qr_scan", "ios": "https://dc.lft.to/lastmile_qr_scan"}, "lat": 38.89959483333333, "lon": -77.01605083333334, "fusion_lat": 0.0}, {"is_reserved": 0, "bike_id": "ab93e9b5beb402a0967aecfb730eb00e", "type": "electric_scooter", "name": "ab93e9b5beb402a0967aecfb730eb00e", "is_disabled": 0, "fusion_lon": 0.0, "rental_uris": {"android": "https://dc.lft.to/lastmile_qr_scan", "ios": "https://dc.lft.to/lastmile_qr_scan"}, "lat": 38.91482833333333, "lon": -77.02189766666666, "fusion_lat": 0.0}, {"is_reserved": 0, "bike_id": "dd427c6339243437914d0f4a57f3ed87", "type": "electric_scooter", "name": "dd427c6339243437914d0f4a57f3ed87", "is_disabled": 0, "fusion_lon": 0.0, "rental_uris": {"android": "https://dc.lft.to/lastmile_qr_scan", "ios": "https://dc.lft.to/lastmile_qr_scan"}, "lat": 38.911950833333336, "lon": -77.031796, "fusion_lat": 0.0}, {"is_reserved": 0, "bike_id": "99972c08cee416f32cbbfdc9e63c3f49", "type": "electric_scooter", "name": "99972c08cee416f32cbbfdc9e63c3f49", "is_disabled": 0, "fusion_lon": 0.0, "rental_uris": {"android": "https://dc.lft.to/lastmile_qr_scan", "ios": "https://dc.lft.to/lastmile_qr_scan"}, "lat": 38.888744, "lon": -76.99034466666667, "fusion_lat": 0.0}, {"is_reserved": 0, "bike_id": "3f488b32a57c2596b8cffbc7f5550572", "type": "electric_scooter", "name": "3f488b32a57c2596b8cffbc7f5550572", "is_disabled": 0, "fusion_lon": 0.0, "rental_uris": {"android": "https://dc.lft.to/lastmile_qr_scan", "ios": "https://dc.lft.to/lastmile_qr_scan"}, "lat": 38.91545083333333, "lon": -77.02203016666667, "fusion_lat": 0.0}, {"is_reserved": 0, "bike_id": "308279202d65add5d9616d93ee2836ec", "type": "electric_scooter", "name": "308279202d65add5d9616d93ee2836ec", "is_disabled": 0, "fusion_lon": 0.0, "rental_uris": {"android": "https://dc.lft.to/lastmile_qr_scan", "ios": "https://dc.lft.to/lastmile_qr_scan"}, "lat": 38.89474633333333, "lon": -76.95835533333333, "fusion_lat": 0.0}, {"is_reserved": 0, "bike_id": "1e36243897cf0f848a39b4e42b192e22", "type": "electric_scooter", "name": "1e36243897cf0f848a39b4e42b192e22", "is_disabled": 0, "fusion_lon": 0.0, "rental_uris": {"android": "https://dc.lft.to/lastmile_qr_scan", "ios": "https://dc.lft.to/lastmile_qr_scan"}, "lat": 38.928460666666666, "lon": -77.02011233333333, "fusion_lat": 0.0}, {"is_reserved": 0, "bike_id": "f0c7093831687e1210a6156187dab478", "type": "electric_scooter", "name": "f0c7093831687e1210a6156187dab478", "is_disabled": 0, "fusion_lon": 0.0, "rental_uris": {"android": "https://dc.lft.to/lastmile_qr_scan", "ios": "https://dc.lft.to/lastmile_qr_scan"}, "lat": 38.89736166666667, "lon": -77.02706166666667, "fusion_lat": 0.0}, {"is_reserved": 0, "bike_id": "bf73f6186b5ea73ef76debfbf4eb98af", "type": "electric_scooter", "name": "bf73f6186b5ea73ef76debfbf4eb98af", "is_disabled": 0, "fusion_lon": 0.0, "rental_uris": {"android": "https://dc.lft.to/lastmile_qr_scan", "ios": "https://dc.lft.to/lastmile_qr_scan"}, "lat": 38.915970333333334, "lon": -77.03168266666667, "fusion_lat": 0.0}, {"is_reserved": 0, "bike_id": "24c53448ebdcfd9680ebf2aea8ae44e4", "type": "electric_scooter", "name": "24c53448ebdcfd9680ebf2aea8ae44e4", "is_disabled": 0, "fusion_lon": 0.0, "rental_uris": {"android": "https://dc.lft.to/lastmile_qr_scan", "ios": "https://dc.lft.to/lastmile_qr_scan"}, "lat": 38.900322, "lon": -77.00193183333333, "fusion_lat": 0.0}, {"is_reserved": 0, "bike_id": "1e0944d4c5e4b9b0e76216f00ca3adad", "type": "electric_scooter", "name": "1e0944d4c5e4b9b0e76216f00ca3adad", "is_disabled": 0, "fusion_lon": 0.0, "rental_uris": {"android": "https://dc.lft.to/lastmile_qr_scan", "ios": "https://dc.lft.to/lastmile_qr_scan"}, "lat": 38.90753683333333, "lon": -77.00018966666667, "fusion_lat": 0.0}, {"is_reserved": 0, "bike_id": "08add28b7a175a0be0ff6281db6cffd5", "type": "electric_scooter", "name": "08add28b7a175a0be0ff6281db6cffd5", "is_disabled": 0, "fusion_lon": 0.0, "rental_uris": {"android": "https://dc.lft.to/lastmile_qr_scan", "ios": "https://dc.lft.to/lastmile_qr_scan"}, "lat": 38.8737505, "lon": -77.001289, "fusion_lat": 0.0}, {"is_reserved": 0, "bike_id": "536d54f59c0ca1b7b9d5ebf357467b70", "type": "electric_bike", "name": "536d54f59c0ca1b7b9d5ebf357467b70", "is_disabled": 0, "fusion_lon": 0.0, "rental_uris": {"android": "https://dc.lft.to/lastmile_qr_scan", "ios": "https://dc.lft.to/lastmile_qr_scan"}, "lat": 38.922374833333336, "lon": -77.030766, "fusion_lat": 0.0}, {"is_reserved": 0, "bike_id": "26ec205e1edb4a57edcc458aa8b2ecd4", "type": "electric_scooter", "name": "26ec205e1edb4a57edcc458aa8b2ecd4", "is_disabled": 0, "fusion_lon": 0.0, "rental_uris": {"android": "https://dc.lft.to/lastmile_qr_scan", "ios": "https://dc.lft.to/lastmile_qr_scan"}, "lat": 38.9127545, "lon": -76.985676, "fusion_lat": 0.0}, {"is_reserved": 0, "bike_id": "d643e2bb892e4c2c686df98599120159", "type": "electric_scooter", "name": "d643e2bb892e4c2c686df98599120159", "is_disabled": 0, "fusion_lon": 0.0, "rental_uris": {"android": "https://dc.lft.to/lastmile_qr_scan", "ios": "https://dc.lft.to/lastmile_qr_scan"}, "lat": 38.92307316666667, "lon": -77.036611, "fusion_lat": 0.0}, {"is_reserved": 0, "bike_id": "332361e56436472edf906a8b884e73b1", "type": "electric_scooter", "name": "332361e56436472edf906a8b884e73b1", "is_disabled": 0, "fusion_lon": 0.0, "rental_uris": {"android": "https://dc.lft.to/lastmile_qr_scan", "ios": "https://dc.lft.to/lastmile_qr_scan"}, "lat": 38.93216116666667, "lon": -77.02285516666667, "fusion_lat": 0.0}, {"is_reserved": 0, "bike_id": "2d70a56a71ea44e6c88f494e528cb683", "type": "electric_scooter", "name": "2d70a56a71ea44e6c88f494e528cb683", "is_disabled": 0, "fusion_lon": 0.0, "rental_uris": {"android": "https://dc.lft.to/lastmile_qr_scan", "ios": "https://dc.lft.to/lastmile_qr_scan"}, "lat": 38.900172833333336, "lon": -77.03334483333333, "fusion_lat": 0.0}, {"is_reserved": 0, "bike_id": "021b0d615d9edc493cc086d74162b99c", "type": "electric_bike", "name": "021b0d615d9edc493cc086d74162b99c", "is_disabled": 0, "fusion_lon": 0.0, "rental_uris": {"android": "https://dc.lft.to/lastmile_qr_scan", "ios": "https://dc.lft.to/lastmile_qr_scan"}, "lat": 38.832985666666666, "lon": -77.08406316666667, "fusion_lat": 0.0}, {"is_reserved": 0, "bike_id": "205f761018b66bb879eb55bb7073c3ba", "type": "electric_bike", "name": "205f761018b66bb879eb55bb7073c3ba", "is_disabled": 0, "fusion_lon": 0.0, "rental_uris": {"android": "https://dc.lft.to/lastmile_qr_scan", "ios": "https://dc.lft.to/lastmile_qr_scan"}, "lat": 38.9535405, "lon": -76.980946, "fusion_lat": 0.0}, {"is_reserved": 0, "bike_id": "6e8930be24cd30dde7c215a5323667dc", "type": "electric_scooter", "name": "6e8930be24cd30dde7c215a5323667dc", "is_disabled": 0, "fusion_lon": 0.0, "rental_uris": {"android": "https://dc.lft.to/lastmile_qr_scan", "ios": "https://dc.lft.to/lastmile_qr_scan"}, "lat": 38.928667833333336, "lon": -77.033103, "fusion_lat": 0.0}, {"is_reserved": 0, "bike_id": "aa8322326823471494689aba387496c2", "type": "electric_scooter", "name": "aa8322326823471494689aba387496c2", "is_disabled": 0, "fusion_lon": 0.0, "rental_uris": {"android": "https://dc.lft.to/lastmile_qr_scan", "ios": "https://dc.lft.to/lastmile_qr_scan"}, "lat": 38.9388515, "lon": -77.03331783333333, "fusion_lat": 0.0}, {"is_reserved": 0, "bike_id": "007159e69c5539fc8df5b278deff5cd5", "type": "electric_scooter", "name": "007159e69c5539fc8df5b278deff5cd5", "is_disabled": 0, "fusion_lon": 0.0, "rental_uris": {"android": "https://dc.lft.to/lastmile_qr_scan", "ios": "https://dc.lft.to/lastmile_qr_scan"}, "lat": 38.93605816666667, "lon": -77.05885916666666, "fusion_lat": 0.0}, {"is_reserved": 0, "bike_id": "75c04dedd86b8a8c0de05b1f7d630f59", "type": "electric_scooter", "name": "75c04dedd86b8a8c0de05b1f7d630f59", "is_disabled": 0, "fusion_lon": 0.0, "rental_uris": {"android": "https://dc.lft.to/lastmile_qr_scan", "ios": "https://dc.lft.to/lastmile_qr_scan"}, "lat": 38.922733, "lon": -77.02134116666667, "fusion_lat": 0.0}, {"is_reserved": 0, "bike_id": "dd78f2e77f39a94268147f421ad1221e", "type": "electric_scooter", "name": "dd78f2e77f39a94268147f421ad1221e", "is_disabled": 0, "fusion_lon": 0.0, "rental_uris": {"android": "https://dc.lft.to/lastmile_qr_scan", "ios": "https://dc.lft.to/lastmile_qr_scan"}, "lat": 38.9356275, "lon": -77.05879333333333, "fusion_lat": 0.0}, {"is_reserved": 0, "bike_id": "dabe6705882b2a3601724edb0fd0a4c1", "type": "electric_scooter", "name": "dabe6705882b2a3601724edb0fd0a4c1", "is_disabled": 0, "fusion_lon": 0.0, "rental_uris": {"android": "https://dc.lft.to/lastmile_qr_scan", "ios": "https://dc.lft.to/lastmile_qr_scan"}, "lat": 38.899883, "lon": -76.97745483333334, "fusion_lat": 0.0}, {"is_reserved": 0, "bike_id": "64507bc6df72cf307915ca18d25daa40", "type": "electric_scooter", "name": "64507bc6df72cf307915ca18d25daa40", "is_disabled": 0, "fusion_lon": 0.0, "rental_uris": {"android": "https://dc.lft.to/lastmile_qr_scan", "ios": "https://dc.lft.to/lastmile_qr_scan"}, "lat": 38.908944, "lon": -76.98241233333333, "fusion_lat": 0.0}, {"is_reserved": 0, "bike_id": "dda347bd215410d1e8c89ac44a401c0d", "type": "electric_scooter", "name": "dda347bd215410d1e8c89ac44a401c0d", "is_disabled": 0, "fusion_lon": 0.0, "rental_uris": {"android": "https://dc.lft.to/lastmile_qr_scan", "ios": "https://dc.lft.to/lastmile_qr_scan"}, "lat": 38.91921383333333, "lon": -77.02999383333334, "fusion_lat": 0.0}, {"is_reserved": 0, "bike_id": "5309029cbcf3800bff1f2d5bd0597258", "type": "electric_scooter", "name": "5309029cbcf3800bff1f2d5bd0597258", "is_disabled": 0, "fusion_lon": 0.0, "rental_uris": {"android": "https://dc.lft.to/lastmile_qr_scan", "ios": "https://dc.lft.to/lastmile_qr_scan"}, "lat": 38.880629166666665, "lon": -76.93219216666667, "fusion_lat": 0.0}, {"is_reserved": 0, "bike_id": "b471d41590825b82e7ea5d332f8079d0", "type": "electric_scooter", "name": "b471d41590825b82e7ea5d332f8079d0", "is_disabled": 0, "fusion_lon": 0.0, "rental_uris": {"android": "https://dc.lft.to/lastmile_qr_scan", "ios": "https://dc.lft.to/lastmile_qr_scan"}, "lat": 38.9254895, "lon": -77.05298266666667, "fusion_lat": 0.0}, {"is_reserved": 0, "bike_id": "8a6d57db8a50a722ebc0150b7a3bdec7", "type": "electric_scooter", "name": "8a6d57db8a50a722ebc0150b7a3bdec7", "is_disabled": 0, "fusion_lon": 0.0, "rental_uris": {"android": "https://dc.lft.to/lastmile_qr_scan", "ios": "https://dc.lft.to/lastmile_qr_scan"}, "lat": 38.918063, "lon": -77.027248, "fusion_lat": 0.0}, {"is_reserved": 0, "bike_id": "2a22e2f90dd3b0ff3aeb2c106b61bdb7", "type": "electric_scooter", "name": "2a22e2f90dd3b0ff3aeb2c106b61bdb7", "is_disabled": 0, "fusion_lon": 0.0, "rental_uris": {"android": "https://dc.lft.to/lastmile_qr_scan", "ios": "https://dc.lft.to/lastmile_qr_scan"}, "lat": 38.892035666666665, "lon": -76.990171, "fusion_lat": 0.0}, {"is_reserved": 0, "bike_id": "829c641a53599d21f3703bbb540c270e", "type": "electric_bike", "name": "829c641a53599d21f3703bbb540c270e", "is_disabled": 0, "fusion_lon": 0.0, "rental_uris": {"android": "https://dc.lft.to/lastmile_qr_scan", "ios": "https://dc.lft.to/lastmile_qr_scan"}, "lat": 38.96674466666666, "lon": -77.02292516666667, "fusion_lat": 0.0}, {"is_reserved": 0, "bike_id": "ebded853f4f612594cb996a76fb769d3", "type": "electric_scooter", "name": "ebded853f4f612594cb996a76fb769d3", "is_disabled": 0, "fusion_lon": 0.0, "rental_uris": {"android": "https://dc.lft.to/lastmile_qr_scan", "ios": "https://dc.lft.to/lastmile_qr_scan"}, "lat": 38.912031166666665, "lon": -77.032016, "fusion_lat": 0.0}, {"is_reserved": 0, "bike_id": "d9c04e35ff3514595b37db091a0797be", "type": "electric_scooter", "name": "d9c04e35ff3514595b37db091a0797be", "is_disabled": 0, "fusion_lon": 0.0, "rental_uris": {"android": "https://dc.lft.to/lastmile_qr_scan", "ios": "https://dc.lft.to/lastmile_qr_scan"}, "lat": 38.92703183333333, "lon": -77.02083433333334, "fusion_lat": 0.0}, {"is_reserved": 0, "bike_id": "436dac5d32464b4006776f372e257e23", "type": "electric_scooter", "name": "436dac5d32464b4006776f372e257e23", "is_disabled": 0, "fusion_lon": 0.0, "rental_uris": {"android": "https://dc.lft.to/lastmile_qr_scan", "ios": "https://dc.lft.to/lastmile_qr_scan"}, "lat": 38.922917, "lon": -77.02249166666667, "fusion_lat": 0.0}, {"is_reserved": 0, "bike_id": "da71efaf6f3092cb48a938dc08fd37c8", "type": "electric_scooter", "name": "da71efaf6f3092cb48a938dc08fd37c8", "is_disabled": 0, "fusion_lon": 0.0, "rental_uris": {"android": "https://dc.lft.to/lastmile_qr_scan", "ios": "https://dc.lft.to/lastmile_qr_scan"}, "lat": 38.920687, "lon": -77.07173083333333, "fusion_lat": 0.0}, {"is_reserved": 0, "bike_id": "613b206d57fddab78c8177262a43664d", "type": "electric_scooter", "name": "613b206d57fddab78c8177262a43664d", "is_disabled": 0, "fusion_lon": 0.0, "rental_uris": {"android": "https://dc.lft.to/lastmile_qr_scan", "ios": "https://dc.lft.to/lastmile_qr_scan"}, "lat": 38.91411816666667, "lon": -77.02231783333333, "fusion_lat": 0.0}, {"is_reserved": 0, "bike_id": "9cb7be459a0efbf151489e7340691644", "type": "electric_scooter", "name": "9cb7be459a0efbf151489e7340691644", "is_disabled": 0, "fusion_lon": 0.0, "rental_uris": {"android": "https://dc.lft.to/lastmile_qr_scan", "ios": "https://dc.lft.to/lastmile_qr_scan"}, "lat": 38.974913666666666, "lon": -77.01716616666667, "fusion_lat": 0.0}, {"is_reserved": 0, "bike_id": "f70daa6c97d42943b9364936e4c63cba", "type": "electric_scooter", "name": "f70daa6c97d42943b9364936e4c63cba", "is_disabled": 0, "fusion_lon": 0.0, "rental_uris": {"android": "https://dc.lft.to/lastmile_qr_scan", "ios": "https://dc.lft.to/lastmile_qr_scan"}, "lat": 38.916395333333334, "lon": -77.028743, "fusion_lat": 0.0}, {"is_reserved": 0, "bike_id": "74b9870a47fa1b5423d90d7930a97638", "type": "electric_scooter", "name": "74b9870a47fa1b5423d90d7930a97638", "is_disabled": 0, "fusion_lon": 0.0, "rental_uris": {"android": "https://dc.lft.to/lastmile_qr_scan", "ios": "https://dc.lft.to/lastmile_qr_scan"}, "lat": 38.90049066666667, "lon": -77.02605316666667, "fusion_lat": 0.0}, {"is_reserved": 0, "bike_id": "b199acf1cb91cebf83165b21ce7f31f9", "type": "electric_scooter", "name": "b199acf1cb91cebf83165b21ce7f31f9", "is_disabled": 0, "fusion_lon": 0.0, "rental_uris": {"android": "https://dc.lft.to/lastmile_qr_scan", "ios": "https://dc.lft.to/lastmile_qr_scan"}, "lat": 38.90952816666667, "lon": -77.0127555, "fusion_lat": 0.0}, {"is_reserved": 0, "bike_id": "67c5fb0ce6a4832de021294839872765", "type": "electric_scooter", "name": "67c5fb0ce6a4832de021294839872765", "is_disabled": 0, "fusion_lon": 0.0, "rental_uris": {"android": "https://dc.lft.to/lastmile_qr_scan", "ios": "https://dc.lft.to/lastmile_qr_scan"}, "lat": 38.9207625, "lon": -77.023162, "fusion_lat": 0.0}, {"is_reserved": 0, "bike_id": "1b667635581dbf1a154f5700512272ff", "type": "electric_scooter", "name": "1b667635581dbf1a154f5700512272ff", "is_disabled": 0, "fusion_lon": 0.0, "rental_uris": {"android": "https://dc.lft.to/lastmile_qr_scan", "ios": "https://dc.lft.to/lastmile_qr_scan"}, "lat": 38.898308166666666, "lon": -77.04477316666667, "fusion_lat": 0.0}, {"is_reserved": 0, "bike_id": "a1eae0acdcb1a90401d5f3af182fb8dc", "type": "electric_scooter", "name": "a1eae0acdcb1a90401d5f3af182fb8dc", "is_disabled": 0, "fusion_lon": 0.0, "rental_uris": {"android": "https://dc.lft.to/lastmile_qr_scan", "ios": "https://dc.lft.to/lastmile_qr_scan"}, "lat": 38.91718216666666, "lon": -77.041524, "fusion_lat": 0.0}, {"is_reserved": 0, "bike_id": "d1474eb110a402e457a7e27af500d05d", "type": "electric_scooter", "name": "d1474eb110a402e457a7e27af500d05d", "is_disabled": 0, "fusion_lon": 0.0, "rental_uris": {"android": "https://dc.lft.to/lastmile_qr_scan", "ios": "https://dc.lft.to/lastmile_qr_scan"}, "lat": 38.938041, "lon": -76.9922635, "fusion_lat": 0.0}, {"is_reserved": 0, "bike_id": "ad0fb4623f96cd7c14a4856fcd898f0b", "type": "electric_bike", "name": "ad0fb4623f96cd7c14a4856fcd898f0b", "is_disabled": 0, "fusion_lon": 0.0, "rental_uris": {"android": "https://dc.lft.to/lastmile_qr_scan", "ios": "https://dc.lft.to/lastmile_qr_scan"}, "lat": 38.924685333333336, "lon": -77.03758233333333, "fusion_lat": 0.0}, {"is_reserved": 0, "bike_id": "6bcce4ca52711c3f5634910cd3854f37", "type": "electric_scooter", "name": "6bcce4ca52711c3f5634910cd3854f37", "is_disabled": 0, "fusion_lon": 0.0, "rental_uris": {"android": "https://dc.lft.to/lastmile_qr_scan", "ios": "https://dc.lft.to/lastmile_qr_scan"}, "lat": 38.917085, "lon": -77.03124333333334, "fusion_lat": 0.0}, {"is_reserved": 0, "bike_id": "4285750a1563b9c8ecc4e95d20fff54f", "type": "electric_scooter", "name": "4285750a1563b9c8ecc4e95d20fff54f", "is_disabled": 0, "fusion_lon": 0.0, "rental_uris": {"android": "https://dc.lft.to/lastmile_qr_scan", "ios": "https://dc.lft.to/lastmile_qr_scan"}, "lat": 38.918349, "lon": -77.02327566666666, "fusion_lat": 0.0}, {"is_reserved": 0, "bike_id": "4a280c839bcce8b916e537ebac870d5c", "type": "electric_scooter", "name": "4a280c839bcce8b916e537ebac870d5c", "is_disabled": 0, "fusion_lon": 0.0, "rental_uris": {"android": "https://dc.lft.to/lastmile_qr_scan", "ios": "https://dc.lft.to/lastmile_qr_scan"}, "lat": 38.912597, "lon": -77.00768683333334, "fusion_lat": 0.0}, {"is_reserved": 0, "bike_id": "093b25087b27a215e26a2bdaf94c1e49", "type": "electric_scooter", "name": "093b25087b27a215e26a2bdaf94c1e49", "is_disabled": 0, "fusion_lon": 0.0, "rental_uris": {"android": "https://dc.lft.to/lastmile_qr_scan", "ios": "https://dc.lft.to/lastmile_qr_scan"}, "lat": 38.9212965, "lon": -77.01795733333333, "fusion_lat": 0.0}, {"is_reserved": 0, "bike_id": "15baa3c452f34608e517165eabc30297", "type": "electric_scooter", "name": "15baa3c452f34608e517165eabc30297", "is_disabled": 0, "fusion_lon": 0.0, "rental_uris": {"android": "https://dc.lft.to/lastmile_qr_scan", "ios": "https://dc.lft.to/lastmile_qr_scan"}, "lat": 38.86750166666667, "lon": -77.00148683333333, "fusion_lat": 0.0}, {"is_reserved": 0, "bike_id": "c6cea0371181cc906ceec3d544cd223d", "type": "electric_scooter", "name": "c6cea0371181cc906ceec3d544cd223d", "is_disabled": 0, "fusion_lon": 0.0, "rental_uris": {"android": "https://dc.lft.to/lastmile_qr_scan", "ios": "https://dc.lft.to/lastmile_qr_scan"}, "lat": 38.89905266666667, "lon": -77.0393285, "fusion_lat": 0.0}, {"is_reserved": 0, "bike_id": "d8f0c1900c2e8182759eeb33485c2271", "type": "electric_scooter", "name": "d8f0c1900c2e8182759eeb33485c2271", "is_disabled": 0, "fusion_lon": 0.0, "rental_uris": {"android": "https://dc.lft.to/lastmile_qr_scan", "ios": "https://dc.lft.to/lastmile_qr_scan"}, "lat": 38.96829366666667, "lon": -77.03299, "fusion_lat": 0.0}, {"is_reserved": 0, "bike_id": "7c073647846d08a3024b1c957d95c922", "type": "electric_scooter", "name": "7c073647846d08a3024b1c957d95c922", "is_disabled": 0, "fusion_lon": 0.0, "rental_uris": {"android": "https://dc.lft.to/lastmile_qr_scan", "ios": "https://dc.lft.to/lastmile_qr_scan"}, "lat": 38.94281866666667, "lon": -77.02929966666666, "fusion_lat": 0.0}, {"is_reserved": 0, "bike_id": "143768a86d4d73a269785ffb510acc6c", "type": "electric_bike", "name": "143768a86d4d73a269785ffb510acc6c", "is_disabled": 0, "fusion_lon": 0.0, "rental_uris": {"android": "https://dc.lft.to/lastmile_qr_scan", "ios": "https://dc.lft.to/lastmile_qr_scan"}, "lat": 38.88771933333334, "lon": -77.07595883333333, "fusion_lat": 0.0}, {"is_reserved": 0, "bike_id": "1215c67ae27c6a89f3708172fa8837b3", "type": "electric_scooter", "name": "1215c67ae27c6a89f3708172fa8837b3", "is_disabled": 0, "fusion_lon": 0.0, "rental_uris": {"android": "https://dc.lft.to/lastmile_qr_scan", "ios": "https://dc.lft.to/lastmile_qr_scan"}, "lat": 38.8849145, "lon": -77.007265, "fusion_lat": 0.0}, {"is_reserved": 0, "bike_id": "0273b75af1962df1da511615e13bbaae", "type": "electric_scooter", "name": "0273b75af1962df1da511615e13bbaae", "is_disabled": 0, "fusion_lon": 0.0, "rental_uris": {"android": "https://dc.lft.to/lastmile_qr_scan", "ios": "https://dc.lft.to/lastmile_qr_scan"}, "lat": 38.9011545, "lon": -77.04480533333333, "fusion_lat": 0.0}, {"is_reserved": 0, "bike_id": "2515be53d0c78bd9895342d790cbd985", "type": "electric_scooter", "name": "2515be53d0c78bd9895342d790cbd985", "is_disabled": 0, "fusion_lon": 0.0, "rental_uris": {"android": "https://dc.lft.to/lastmile_qr_scan", "ios": "https://dc.lft.to/lastmile_qr_scan"}, "lat": 38.930946, "lon": -77.02475116666666, "fusion_lat": 0.0}, {"is_reserved": 0, "bike_id": "c085233ea80655aa123026b488c404dc", "type": "electric_scooter", "name": "c085233ea80655aa123026b488c404dc", "is_disabled": 0, "fusion_lon": 0.0, "rental_uris": {"android": "https://dc.lft.to/lastmile_qr_scan", "ios": "https://dc.lft.to/lastmile_qr_scan"}, "lat": 38.928757833333336, "lon": -77.0330875, "fusion_lat": 0.0}, {"is_reserved": 0, "bike_id": "62e674e06f2245af236c09c1d473cbd9", "type": "electric_scooter", "name": "62e674e06f2245af236c09c1d473cbd9", "is_disabled": 0, "fusion_lon": 0.0, "rental_uris": {"android": "https://dc.lft.to/lastmile_qr_scan", "ios": "https://dc.lft.to/lastmile_qr_scan"}, "lat": 38.917295833333334, "lon": -77.06844033333333, "fusion_lat": 0.0}, {"is_reserved": 0, "bike_id": "7cc87d22066b40b82de9c65950305b81", "type": "electric_scooter", "name": "7cc87d22066b40b82de9c65950305b81", "is_disabled": 0, "fusion_lon": 0.0, "rental_uris": {"android": "https://dc.lft.to/lastmile_qr_scan", "ios": "https://dc.lft.to/lastmile_qr_scan"}, "lat": 38.913169333333336, "lon": -77.01442733333333, "fusion_lat": 0.0}, {"is_reserved": 0, "bike_id": "792ad776c61e8dcb5dfbcd9ed8f838d1", "type": "electric_bike", "name": "792ad776c61e8dcb5dfbcd9ed8f838d1", "is_disabled": 0, "fusion_lon": 0.0, "rental_uris": {"android": "https://dc.lft.to/lastmile_qr_scan", "ios": "https://dc.lft.to/lastmile_qr_scan"}, "lat": 39.085102666666664, "lon": -76.95064483333333, "fusion_lat": 0.0}, {"is_reserved": 0, "bike_id": "08975cc4d8814919eef60764ee9669d5", "type": "electric_scooter", "name": "08975cc4d8814919eef60764ee9669d5", "is_disabled": 0, "fusion_lon": 0.0, "rental_uris": {"android": "https://dc.lft.to/lastmile_qr_scan", "ios": "https://dc.lft.to/lastmile_qr_scan"}, "lat": 38.905765833333334, "lon": -77.00581783333334, "fusion_lat": 0.0}, {"is_reserved": 0, "bike_id": "3f91511b8af365ffccc4f7210ba62352", "type": "electric_scooter", "name": "3f91511b8af365ffccc4f7210ba62352", "is_disabled": 0, "fusion_lon": 0.0, "rental_uris": {"android": "https://dc.lft.to/lastmile_qr_scan", "ios": "https://dc.lft.to/lastmile_qr_scan"}, "lat": 38.891896333333335, "lon": -77.01537766666667, "fusion_lat": 0.0}, {"is_reserved": 0, "bike_id": "830e098c5020bd780280bffe7084dcd3", "type": "electric_scooter", "name": "830e098c5020bd780280bffe7084dcd3", "is_disabled": 0, "fusion_lon": 0.0, "rental_uris": {"android": "https://dc.lft.to/lastmile_qr_scan", "ios": "https://dc.lft.to/lastmile_qr_scan"}, "lat": 38.89487616666667, "lon": -77.02017483333333, "fusion_lat": 0.0}, {"is_reserved": 0, "bike_id": "cbbd4dd481e556657142d99dc85a39a6", "type": "electric_scooter", "name": "cbbd4dd481e556657142d99dc85a39a6", "is_disabled": 0, "fusion_lon": 0.0, "rental_uris": {"android": "https://dc.lft.to/lastmile_qr_scan", "ios": "https://dc.lft.to/lastmile_qr_scan"}, "lat": 38.901311, "lon": -77.04484833333333, "fusion_lat": 0.0}, {"is_reserved": 0, "bike_id": "40981336bba4852e42ae9c777f23facd", "type": "electric_scooter", "name": "40981336bba4852e42ae9c777f23facd", "is_disabled": 0, "fusion_lon": 0.0, "rental_uris": {"android": "https://dc.lft.to/lastmile_qr_scan", "ios": "https://dc.lft.to/lastmile_qr_scan"}, "lat": 38.92093883333333, "lon": -77.03165383333334, "fusion_lat": 0.0}, {"is_reserved": 0, "bike_id": "0a41c685e6561752d5bb36316cb1d1ba", "type": "electric_scooter", "name": "0a41c685e6561752d5bb36316cb1d1ba", "is_disabled": 0, "fusion_lon": 0.0, "rental_uris": {"android": "https://dc.lft.to/lastmile_qr_scan", "ios": "https://dc.lft.to/lastmile_qr_scan"}, "lat": 38.93527483333333, "lon": -77.036877, "fusion_lat": 0.0}, {"is_reserved": 0, "bike_id": "16b55bf23004a82f4cb58bc9e577d625", "type": "electric_scooter", "name": "16b55bf23004a82f4cb58bc9e577d625", "is_disabled": 0, "fusion_lon": 0.0, "rental_uris": {"android": "https://dc.lft.to/lastmile_qr_scan", "ios": "https://dc.lft.to/lastmile_qr_scan"}, "lat": 38.922874166666666, "lon": -77.04292666666667, "fusion_lat": 0.0}, {"is_reserved": 0, "bike_id": "3948b6158fc4569a9f57a0898de46b49", "type": "electric_scooter", "name": "3948b6158fc4569a9f57a0898de46b49", "is_disabled": 0, "fusion_lon": 0.0, "rental_uris": {"android": "https://dc.lft.to/lastmile_qr_scan", "ios": "https://dc.lft.to/lastmile_qr_scan"}, "lat": 38.902962333333335, "lon": -77.03074416666666, "fusion_lat": 0.0}, {"is_reserved": 0, "bike_id": "2ea8bb7401f8e7f3b6ad9c10500b6c95", "type": "electric_scooter", "name": "2ea8bb7401f8e7f3b6ad9c10500b6c95", "is_disabled": 0, "fusion_lon": 0.0, "rental_uris": {"android": "https://dc.lft.to/lastmile_qr_scan", "ios": "https://dc.lft.to/lastmile_qr_scan"}, "lat": 38.937259833333336, "lon": -77.0191065, "fusion_lat": 0.0}, {"is_reserved": 0, "bike_id": "3874860248c65773794505b6142d1031", "type": "electric_scooter", "name": "3874860248c65773794505b6142d1031", "is_disabled": 0, "fusion_lon": 0.0, "rental_uris": {"android": "https://dc.lft.to/lastmile_qr_scan", "ios": "https://dc.lft.to/lastmile_qr_scan"}, "lat": 38.8952985, "lon": -77.03349933333334, "fusion_lat": 0.0}, {"is_reserved": 0, "bike_id": "ac161ec46c683f0de34585effd1936ea", "type": "electric_scooter", "name": "ac161ec46c683f0de34585effd1936ea", "is_disabled": 0, "fusion_lon": 0.0, "rental_uris": {"android": "https://dc.lft.to/lastmile_qr_scan", "ios": "https://dc.lft.to/lastmile_qr_scan"}, "lat": 38.918129666666665, "lon": -77.02473766666667, "fusion_lat": 0.0}, {"is_reserved": 0, "bike_id": "3459f34f75436dd00d86275d9198e249", "type": "electric_scooter", "name": "3459f34f75436dd00d86275d9198e249", "is_disabled": 0, "fusion_lon": 0.0, "rental_uris": {"android": "https://dc.lft.to/lastmile_qr_scan", "ios": "https://dc.lft.to/lastmile_qr_scan"}, "lat": 38.916330333333335, "lon": -77.0223715, "fusion_lat": 0.0}, {"is_reserved": 0, "bike_id": "2d8d5c459361739afac16761f8782c98", "type": "electric_scooter", "name": "2d8d5c459361739afac16761f8782c98", "is_disabled": 0, "fusion_lon": 0.0, "rental_uris": {"android": "https://dc.lft.to/lastmile_qr_scan", "ios": "https://dc.lft.to/lastmile_qr_scan"}, "lat": 38.902598166666664, "lon": -77.06173883333334, "fusion_lat": 0.0}, {"is_reserved": 0, "bike_id": "17e5e75e353b97e388006d95cb3690d4", "type": "electric_scooter", "name": "17e5e75e353b97e388006d95cb3690d4", "is_disabled": 0, "fusion_lon": 0.0, "rental_uris": {"android": "https://dc.lft.to/lastmile_qr_scan", "ios": "https://dc.lft.to/lastmile_qr_scan"}, "lat": 38.917666, "lon": -77.04760583333334, "fusion_lat": 0.0}, {"is_reserved": 0, "bike_id": "6e1c6c6d73516b651b4690ad327ff6ae", "type": "electric_scooter", "name": "6e1c6c6d73516b651b4690ad327ff6ae", "is_disabled": 0, "fusion_lon": 0.0, "rental_uris": {"android": "https://dc.lft.to/lastmile_qr_scan", "ios": "https://dc.lft.to/lastmile_qr_scan"}, "lat": 38.903663333333334, "lon": -77.01881033333333, "fusion_lat": 0.0}, {"is_reserved": 0, "bike_id": "be4effb415d474ac42eff6335ec343c9", "type": "electric_scooter", "name": "be4effb415d474ac42eff6335ec343c9", "is_disabled": 0, "fusion_lon": 0.0, "rental_uris": {"android": "https://dc.lft.to/lastmile_qr_scan", "ios": "https://dc.lft.to/lastmile_qr_scan"}, "lat": 38.9043425, "lon": -77.02839866666666, "fusion_lat": 0.0}, {"is_reserved": 0, "bike_id": "ab23ddbbcbc8a8a53fb1f6c914dc6fab", "type": "electric_scooter", "name": "ab23ddbbcbc8a8a53fb1f6c914dc6fab", "is_disabled": 0, "fusion_lon": 0.0, "rental_uris": {"android": "https://dc.lft.to/lastmile_qr_scan", "ios": "https://dc.lft.to/lastmile_qr_scan"}, "lat": 38.93432816666667, "lon": -77.03442, "fusion_lat": 0.0}, {"is_reserved": 0, "bike_id": "ac2e7ecd1897d8bd58c5ba31de850023", "type": "electric_scooter", "name": "ac2e7ecd1897d8bd58c5ba31de850023", "is_disabled": 0, "fusion_lon": 0.0, "rental_uris": {"android": "https://dc.lft.to/lastmile_qr_scan", "ios": "https://dc.lft.to/lastmile_qr_scan"}, "lat": 38.92703916666667, "lon": -77.02094566666666, "fusion_lat": 0.0}, {"is_reserved": 0, "bike_id": "d9dfcab3b4631c8afe19dd697a2dad7e", "type": "electric_scooter", "name": "d9dfcab3b4631c8afe19dd697a2dad7e", "is_disabled": 0, "fusion_lon": 0.0, "rental_uris": {"android": "https://dc.lft.to/lastmile_qr_scan", "ios": "https://dc.lft.to/lastmile_qr_scan"}, "lat": 38.93574066666667, "lon": -77.03350216666666, "fusion_lat": 0.0}, {"is_reserved": 0, "bike_id": "56b3dc4383c831ded54d326ce73cd5ed", "type": "electric_scooter", "name": "56b3dc4383c831ded54d326ce73cd5ed", "is_disabled": 0, "fusion_lon": 0.0, "rental_uris": {"android": "https://dc.lft.to/lastmile_qr_scan", "ios": "https://dc.lft.to/lastmile_qr_scan"}, "lat": 38.913281, "lon": -77.04532683333333, "fusion_lat": 0.0}, {"is_reserved": 0, "bike_id": "65db4911412f8908e13d0ea088493309", "type": "electric_scooter", "name": "65db4911412f8908e13d0ea088493309", "is_disabled": 0, "fusion_lon": 0.0, "rental_uris": {"android": "https://dc.lft.to/lastmile_qr_scan", "ios": "https://dc.lft.to/lastmile_qr_scan"}, "lat": 38.91574633333333, "lon": -77.04629716666666, "fusion_lat": 0.0}, {"is_reserved": 0, "bike_id": "065ee73ee98b47042d4cf7b851c0b9db", "type": "electric_scooter", "name": "065ee73ee98b47042d4cf7b851c0b9db", "is_disabled": 0, "fusion_lon": 0.0, "rental_uris": {"android": "https://dc.lft.to/lastmile_qr_scan", "ios": "https://dc.lft.to/lastmile_qr_scan"}, "lat": 38.90892983333333, "lon": -77.00295666666666, "fusion_lat": 0.0}, {"is_reserved": 0, "bike_id": "d6f0ac2c428a1717150bd325fb2d3554", "type": "electric_scooter", "name": "d6f0ac2c428a1717150bd325fb2d3554", "is_disabled": 0, "fusion_lon": 0.0, "rental_uris": {"android": "https://dc.lft.to/lastmile_qr_scan", "ios": "https://dc.lft.to/lastmile_qr_scan"}, "lat": 38.91562783333333, "lon": -77.0680465, "fusion_lat": 0.0}, {"is_reserved": 0, "bike_id": "a3089e89c1bf369509420fc8cf2b6f3c", "type": "electric_scooter", "name": "a3089e89c1bf369509420fc8cf2b6f3c", "is_disabled": 0, "fusion_lon": 0.0, "rental_uris": {"android": "https://dc.lft.to/lastmile_qr_scan", "ios": "https://dc.lft.to/lastmile_qr_scan"}, "lat": 38.91655466666667, "lon": -77.03850366666667, "fusion_lat": 0.0}, {"is_reserved": 0, "bike_id": "f30071203afdfad2faeceeb9fcdcdaad", "type": "electric_scooter", "name": "f30071203afdfad2faeceeb9fcdcdaad", "is_disabled": 0, "fusion_lon": 0.0, "rental_uris": {"android": "https://dc.lft.to/lastmile_qr_scan", "ios": "https://dc.lft.to/lastmile_qr_scan"}, "lat": 38.911895333333334, "lon": -77.060857, "fusion_lat": 0.0}, {"is_reserved": 0, "bike_id": "affefdc3d3418faded28ca19158e537c", "type": "electric_scooter", "name": "affefdc3d3418faded28ca19158e537c", "is_disabled": 0, "fusion_lon": 0.0, "rental_uris": {"android": "https://dc.lft.to/lastmile_qr_scan", "ios": "https://dc.lft.to/lastmile_qr_scan"}, "lat": 38.94182466666667, "lon": -77.03657216666667, "fusion_lat": 0.0}, {"is_reserved": 0, "bike_id": "4c54671d5421d51bc6ad74b4dfc166f7", "type": "electric_scooter", "name": "4c54671d5421d51bc6ad74b4dfc166f7", "is_disabled": 0, "fusion_lon": 0.0, "rental_uris": {"android": "https://dc.lft.to/lastmile_qr_scan", "ios": "https://dc.lft.to/lastmile_qr_scan"}, "lat": 38.91853833333333, "lon": -77.03191866666667, "fusion_lat": 0.0}, {"is_reserved": 0, "bike_id": "9a524407c8848c73056471b4f400e46d", "type": "electric_bike", "name": "9a524407c8848c73056471b4f400e46d", "is_disabled": 0, "fusion_lon": 0.0, "rental_uris": {"android": "https://dc.lft.to/lastmile_qr_scan", "ios": "https://dc.lft.to/lastmile_qr_scan"}, "lat": 38.90362733333333, "lon": -76.98118416666667, "fusion_lat": 0.0}, {"is_reserved": 0, "bike_id": "ef139633bdfead2705b82d170da8046c", "type": "electric_scooter", "name": "ef139633bdfead2705b82d170da8046c", "is_disabled": 0, "fusion_lon": 0.0, "rental_uris": {"android": "https://dc.lft.to/lastmile_qr_scan", "ios": "https://dc.lft.to/lastmile_qr_scan"}, "lat": 38.94419883333333, "lon": -77.0178255, "fusion_lat": 0.0}, {"is_reserved": 0, "bike_id": "51cc1fcefe523806371f6833b2d1d077", "type": "electric_scooter", "name": "51cc1fcefe523806371f6833b2d1d077", "is_disabled": 0, "fusion_lon": 0.0, "rental_uris": {"android": "https://dc.lft.to/lastmile_qr_scan", "ios": "https://dc.lft.to/lastmile_qr_scan"}, "lat": 38.901581166666666, "lon": -77.00896116666667, "fusion_lat": 0.0}, {"is_reserved": 0, "bike_id": "6f77bf7d81a8dd4b12c1a555211438e5", "type": "electric_scooter", "name": "6f77bf7d81a8dd4b12c1a555211438e5", "is_disabled": 0, "fusion_lon": 0.0, "rental_uris": {"android": "https://dc.lft.to/lastmile_qr_scan", "ios": "https://dc.lft.to/lastmile_qr_scan"}, "lat": 38.90782166666666, "lon": -77.01086633333334, "fusion_lat": 0.0}, {"is_reserved": 0, "bike_id": "1814e1ee4faa11abc231a850220e6a59", "type": "electric_scooter", "name": "1814e1ee4faa11abc231a850220e6a59", "is_disabled": 0, "fusion_lon": 0.0, "rental_uris": {"android": "https://dc.lft.to/lastmile_qr_scan", "ios": "https://dc.lft.to/lastmile_qr_scan"}, "lat": 38.892405, "lon": -77.04366783333333, "fusion_lat": 0.0}, {"is_reserved": 0, "bike_id": "3f8ed382d9f11ea793fa1d002e687d1d", "type": "electric_scooter", "name": "3f8ed382d9f11ea793fa1d002e687d1d", "is_disabled": 0, "fusion_lon": 0.0, "rental_uris": {"android": "https://dc.lft.to/lastmile_qr_scan", "ios": "https://dc.lft.to/lastmile_qr_scan"}, "lat": 38.922082833333334, "lon": -77.0202065, "fusion_lat": 0.0}, {"is_reserved": 0, "bike_id": "2b4d74797f545f73e6016e7bede7ac96", "type": "electric_scooter", "name": "2b4d74797f545f73e6016e7bede7ac96", "is_disabled": 0, "fusion_lon": 0.0, "rental_uris": {"android": "https://dc.lft.to/lastmile_qr_scan", "ios": "https://dc.lft.to/lastmile_qr_scan"}, "lat": 38.90573033333333, "lon": -77.00583983333334, "fusion_lat": 0.0}, {"is_reserved": 0, "bike_id": "7ec6c9449cc77db8424f4288a56bea8a", "type": "electric_scooter", "name": "7ec6c9449cc77db8424f4288a56bea8a", "is_disabled": 0, "fusion_lon": 0.0, "rental_uris": {"android": "https://dc.lft.to/lastmile_qr_scan", "ios": "https://dc.lft.to/lastmile_qr_scan"}, "lat": 38.93595783333333, "lon": -77.03517883333333, "fusion_lat": 0.0}, {"is_reserved": 0, "bike_id": "289dfd88455afba271563ed3f93d193f", "type": "electric_bike", "name": "289dfd88455afba271563ed3f93d193f", "is_disabled": 0, "fusion_lon": 0.0, "rental_uris": {"android": "https://dc.lft.to/lastmile_qr_scan", "ios": "https://dc.lft.to/lastmile_qr_scan"}, "lat": 38.941719666666664, "lon": -76.95353066666667, "fusion_lat": 0.0}, {"is_reserved": 0, "bike_id": "7b340d3e26d227635a0f8b83ac299a6e", "type": "electric_scooter", "name": "7b340d3e26d227635a0f8b83ac299a6e", "is_disabled": 0, "fusion_lon": 0.0, "rental_uris": {"android": "https://dc.lft.to/lastmile_qr_scan", "ios": "https://dc.lft.to/lastmile_qr_scan"}, "lat": 38.9187935, "lon": -77.009252, "fusion_lat": 0.0}, {"is_reserved": 0, "bike_id": "765c7bc86473a1916d5033bda130eb74", "type": "electric_scooter", "name": "765c7bc86473a1916d5033bda130eb74", "is_disabled": 0, "fusion_lon": 0.0, "rental_uris": {"android": "https://dc.lft.to/lastmile_qr_scan", "ios": "https://dc.lft.to/lastmile_qr_scan"}, "lat": 38.92375883333333, "lon": -77.02541033333334, "fusion_lat": 0.0}, {"is_reserved": 0, "bike_id": "850ab124de4b6de8f6d16c08f23bf073", "type": "electric_scooter", "name": "850ab124de4b6de8f6d16c08f23bf073", "is_disabled": 0, "fusion_lon": 0.0, "rental_uris": {"android": "https://dc.lft.to/lastmile_qr_scan", "ios": "https://dc.lft.to/lastmile_qr_scan"}, "lat": 38.91576166666667, "lon": -77.0366065, "fusion_lat": 0.0}, {"is_reserved": 0, "bike_id": "90e5385036c829cd5f5ef4011ae612ed", "type": "electric_scooter", "name": "90e5385036c829cd5f5ef4011ae612ed", "is_disabled": 0, "fusion_lon": 0.0, "rental_uris": {"android": "https://dc.lft.to/lastmile_qr_scan", "ios": "https://dc.lft.to/lastmile_qr_scan"}, "lat": 38.917546, "lon": -77.027007, "fusion_lat": 0.0}, {"is_reserved": 0, "bike_id": "61afa6a06c641da3a86e9201138ec829", "type": "electric_scooter", "name": "61afa6a06c641da3a86e9201138ec829", "is_disabled": 0, "fusion_lon": 0.0, "rental_uris": {"android": "https://dc.lft.to/lastmile_qr_scan", "ios": "https://dc.lft.to/lastmile_qr_scan"}, "lat": 38.92957166666667, "lon": -77.03289966666667, "fusion_lat": 0.0}, {"is_reserved": 0, "bike_id": "c3e12730f9a5146816a12181d8357b27", "type": "electric_scooter", "name": "c3e12730f9a5146816a12181d8357b27", "is_disabled": 0, "fusion_lon": 0.0, "rental_uris": {"android": "https://dc.lft.to/lastmile_qr_scan", "ios": "https://dc.lft.to/lastmile_qr_scan"}, "lat": 38.926224833333336, "lon": -77.0227175, "fusion_lat": 0.0}, {"is_reserved": 0, "bike_id": "1e75effb618353e884876c55a4d8eb8a", "type": "electric_scooter", "name": "1e75effb618353e884876c55a4d8eb8a", "is_disabled": 0, "fusion_lon": 0.0, "rental_uris": {"android": "https://dc.lft.to/lastmile_qr_scan", "ios": "https://dc.lft.to/lastmile_qr_scan"}, "lat": 38.9303825, "lon": -77.05745133333333, "fusion_lat": 0.0}, {"is_reserved": 0, "bike_id": "9abd49827a2e20a169a8615150ceec90", "type": "electric_bike", "name": "9abd49827a2e20a169a8615150ceec90", "is_disabled": 0, "fusion_lon": 0.0, "rental_uris": {"android": "https://dc.lft.to/lastmile_qr_scan", "ios": "https://dc.lft.to/lastmile_qr_scan"}, "lat": 38.97442566666667, "lon": -77.09622466666667, "fusion_lat": 0.0}, {"is_reserved": 0, "bike_id": "cd84732fda83e330f26348f47cd5a7ea", "type": "electric_scooter", "name": "cd84732fda83e330f26348f47cd5a7ea", "is_disabled": 0, "fusion_lon": 0.0, "rental_uris": {"android": "https://dc.lft.to/lastmile_qr_scan", "ios": "https://dc.lft.to/lastmile_qr_scan"}, "lat": 38.90836516666667, "lon": -77.04348733333333, "fusion_lat": 0.0}, {"is_reserved": 0, "bike_id": "2b86a24728ef242c90abee96ca082ffe", "type": "electric_scooter", "name": "2b86a24728ef242c90abee96ca082ffe", "is_disabled": 0, "fusion_lon": 0.0, "rental_uris": {"android": "https://dc.lft.to/lastmile_qr_scan", "ios": "https://dc.lft.to/lastmile_qr_scan"}, "lat": 38.9215175, "lon": -77.03390016666667, "fusion_lat": 0.0}, {"is_reserved": 0, "bike_id": "b2d3ffc64726afa5d8e3f9754d9769d0", "type": "electric_bike", "name": "b2d3ffc64726afa5d8e3f9754d9769d0", "is_disabled": 0, "fusion_lon": 0.0, "rental_uris": {"android": "https://dc.lft.to/lastmile_qr_scan", "ios": "https://dc.lft.to/lastmile_qr_scan"}, "lat": 38.8383285, "lon": -77.07915566666667, "fusion_lat": 0.0}, {"is_reserved": 0, "bike_id": "233f66b4b81c5349cbae42821de87381", "type": "electric_scooter", "name": "233f66b4b81c5349cbae42821de87381", "is_disabled": 0, "fusion_lon": 0.0, "rental_uris": {"android": "https://dc.lft.to/lastmile_qr_scan", "ios": "https://dc.lft.to/lastmile_qr_scan"}, "lat": 38.88643666666667, "lon": -77.00103833333333, "fusion_lat": 0.0}, {"is_reserved": 0, "bike_id": "8e183aae9eae8873b4abd5075745ae08", "type": "electric_scooter", "name": "8e183aae9eae8873b4abd5075745ae08", "is_disabled": 0, "fusion_lon": 0.0, "rental_uris": {"android": "https://dc.lft.to/lastmile_qr_scan", "ios": "https://dc.lft.to/lastmile_qr_scan"}, "lat": 38.921989833333335, "lon": -77.03511033333334, "fusion_lat": 0.0}, {"is_reserved": 0, "bike_id": "21e159ed283127bc2d68bab64eaf43f9", "type": "electric_scooter", "name": "21e159ed283127bc2d68bab64eaf43f9", "is_disabled": 0, "fusion_lon": 0.0, "rental_uris": {"android": "https://dc.lft.to/lastmile_qr_scan", "ios": "https://dc.lft.to/lastmile_qr_scan"}, "lat": 38.958117333333334, "lon": -77.0145365, "fusion_lat": 0.0}, {"is_reserved": 0, "bike_id": "ba6fb841298109687f9a2bf58e6003fa", "type": "electric_bike", "name": "ba6fb841298109687f9a2bf58e6003fa", "is_disabled": 0, "fusion_lon": 0.0, "rental_uris": {"android": "https://dc.lft.to/lastmile_qr_scan", "ios": "https://dc.lft.to/lastmile_qr_scan"}, "lat": 38.83140816666667, "lon": -77.11318316666667, "fusion_lat": 0.0}, {"is_reserved": 0, "bike_id": "d97967b2d5dd47721422956f4dcb0349", "type": "electric_scooter", "name": "d97967b2d5dd47721422956f4dcb0349", "is_disabled": 0, "fusion_lon": 0.0, "rental_uris": {"android": "https://dc.lft.to/lastmile_qr_scan", "ios": "https://dc.lft.to/lastmile_qr_scan"}, "lat": 38.90112833333333, "lon": -77.04332316666667, "fusion_lat": 0.0}, {"is_reserved": 0, "bike_id": "f20a5e62e22c22d71e69b8b418bf4999", "type": "electric_scooter", "name": "f20a5e62e22c22d71e69b8b418bf4999", "is_disabled": 0, "fusion_lon": 0.0, "rental_uris": {"android": "https://dc.lft.to/lastmile_qr_scan", "ios": "https://dc.lft.to/lastmile_qr_scan"}, "lat": 38.920914333333336, "lon": -77.02239666666667, "fusion_lat": 0.0}, {"is_reserved": 0, "bike_id": "c422fe4eeb18668a5195105ea65a7c68", "type": "electric_scooter", "name": "c422fe4eeb18668a5195105ea65a7c68", "is_disabled": 0, "fusion_lon": 0.0, "rental_uris": {"android": "https://dc.lft.to/lastmile_qr_scan", "ios": "https://dc.lft.to/lastmile_qr_scan"}, "lat": 38.900163, "lon": -77.02279966666667, "fusion_lat": 0.0}, {"is_reserved": 0, "bike_id": "d8c41872a17c6b3960e86ff1ef760258", "type": "electric_scooter", "name": "d8c41872a17c6b3960e86ff1ef760258", "is_disabled": 0, "fusion_lon": 0.0, "rental_uris": {"android": "https://dc.lft.to/lastmile_qr_scan", "ios": "https://dc.lft.to/lastmile_qr_scan"}, "lat": 38.93537116666667, "lon": -77.02350883333334, "fusion_lat": 0.0}, {"is_reserved": 0, "bike_id": "2f58490d7b5facc48a633b2db9c6151b", "type": "electric_scooter", "name": "2f58490d7b5facc48a633b2db9c6151b", "is_disabled": 0, "fusion_lon": 0.0, "rental_uris": {"android": "https://dc.lft.to/lastmile_qr_scan", "ios": "https://dc.lft.to/lastmile_qr_scan"}, "lat": 38.909804, "lon": -77.0090695, "fusion_lat": 0.0}, {"is_reserved": 0, "bike_id": "02d19b3b1e0c439b8c8bd80296d7bb03", "type": "electric_bike", "name": "02d19b3b1e0c439b8c8bd80296d7bb03", "is_disabled": 0, "fusion_lon": 0.0, "rental_uris": {"android": "https://dc.lft.to/lastmile_qr_scan", "ios": "https://dc.lft.to/lastmile_qr_scan"}, "lat": 38.928953166666666, "lon": -77.23177666666666, "fusion_lat": 0.0}, {"is_reserved": 0, "bike_id": "cb6d19048e2acb2c50182498a72d8f6c", "type": "electric_scooter", "name": "cb6d19048e2acb2c50182498a72d8f6c", "is_disabled": 0, "fusion_lon": 0.0, "rental_uris": {"android": "https://dc.lft.to/lastmile_qr_scan", "ios": "https://dc.lft.to/lastmile_qr_scan"}, "lat": 38.91814016666667, "lon": -77.041724, "fusion_lat": 0.0}, {"is_reserved": 0, "bike_id": "970a603afc3aa7aff9820fb7233d7f1e", "type": "electric_scooter", "name": "970a603afc3aa7aff9820fb7233d7f1e", "is_disabled": 0, "fusion_lon": 0.0, "rental_uris": {"android": "https://dc.lft.to/lastmile_qr_scan", "ios": "https://dc.lft.to/lastmile_qr_scan"}, "lat": 38.926507666666666, "lon": -77.03711633333333, "fusion_lat": 0.0}, {"is_reserved": 0, "bike_id": "8b1d738b15e0f2d4cd16b6af74a1008e", "type": "electric_scooter", "name": "8b1d738b15e0f2d4cd16b6af74a1008e", "is_disabled": 0, "fusion_lon": 0.0, "rental_uris": {"android": "https://dc.lft.to/lastmile_qr_scan", "ios": "https://dc.lft.to/lastmile_qr_scan"}, "lat": 38.922549, "lon": -77.03068616666667, "fusion_lat": 0.0}, {"is_reserved": 0, "bike_id": "05862cfe0f96592324e65eb9aa13d508", "type": "electric_scooter", "name": "05862cfe0f96592324e65eb9aa13d508", "is_disabled": 0, "fusion_lon": 0.0, "rental_uris": {"android": "https://dc.lft.to/lastmile_qr_scan", "ios": "https://dc.lft.to/lastmile_qr_scan"}, "lat": 38.89903133333333, "lon": -77.03939633333333, "fusion_lat": 0.0}, {"is_reserved": 0, "bike_id": "6067f94c52c09c97f963196b8b8f584b", "type": "electric_scooter", "name": "6067f94c52c09c97f963196b8b8f584b", "is_disabled": 0, "fusion_lon": 0.0, "rental_uris": {"android": "https://dc.lft.to/lastmile_qr_scan", "ios": "https://dc.lft.to/lastmile_qr_scan"}, "lat": 38.935139166666666, "lon": -77.0329, "fusion_lat": 0.0}, {"is_reserved": 0, "bike_id": "d95cfb78749b2c9131aac0af055a34fc", "type": "electric_bike", "name": "d95cfb78749b2c9131aac0af055a34fc", "is_disabled": 0, "fusion_lon": 0.0, "rental_uris": {"android": "https://dc.lft.to/lastmile_qr_scan", "ios": "https://dc.lft.to/lastmile_qr_scan"}, "lat": 38.9097415, "lon": -77.088216, "fusion_lat": 0.0}, {"is_reserved": 0, "bike_id": "1f50f01db9d8849084a95da4ec3cec15", "type": "electric_bike", "name": "1f50f01db9d8849084a95da4ec3cec15", "is_disabled": 0, "fusion_lon": 0.0, "rental_uris": {"android": "https://dc.lft.to/lastmile_qr_scan", "ios": "https://dc.lft.to/lastmile_qr_scan"}, "lat": 38.96471583333334, "lon": -77.03566783333333, "fusion_lat": 0.0}, {"is_reserved": 0, "bike_id": "79a22859279658d9785f2756252f75a8", "type": "electric_bike", "name": "79a22859279658d9785f2756252f75a8", "is_disabled": 0, "fusion_lon": 0.0, "rental_uris": {"android": "https://dc.lft.to/lastmile_qr_scan", "ios": "https://dc.lft.to/lastmile_qr_scan"}, "lat": 38.997845833333336, "lon": -77.0075425, "fusion_lat": 0.0}, {"is_reserved": 0, "bike_id": "ff1e1cccb0f31671bae898f30320f943", "type": "electric_scooter", "name": "ff1e1cccb0f31671bae898f30320f943", "is_disabled": 0, "fusion_lon": 0.0, "rental_uris": {"android": "https://dc.lft.to/lastmile_qr_scan", "ios": "https://dc.lft.to/lastmile_qr_scan"}, "lat": 38.8949935, "lon": -76.992502, "fusion_lat": 0.0}, {"is_reserved": 0, "bike_id": "fc65cbed44d1f967f388edeb8e305d54", "type": "electric_bike", "name": "fc65cbed44d1f967f388edeb8e305d54", "is_disabled": 0, "fusion_lon": 0.0, "rental_uris": {"android": "https://dc.lft.to/lastmile_qr_scan", "ios": "https://dc.lft.to/lastmile_qr_scan"}, "lat": 38.952466333333334, "lon": -77.0962, "fusion_lat": 0.0}, {"is_reserved": 0, "bike_id": "cccb699a31dcbeb7ce2c2f8bb60933b4", "type": "electric_scooter", "name": "cccb699a31dcbeb7ce2c2f8bb60933b4", "is_disabled": 0, "fusion_lon": 0.0, "rental_uris": {"android": "https://dc.lft.to/lastmile_qr_scan", "ios": "https://dc.lft.to/lastmile_qr_scan"}, "lat": 38.92071816666667, "lon": -77.02384383333333, "fusion_lat": 0.0}, {"is_reserved": 0, "bike_id": "ff94e22747a3d65c0cc6fec610dab7b4", "type": "electric_scooter", "name": "ff94e22747a3d65c0cc6fec610dab7b4", "is_disabled": 0, "fusion_lon": 0.0, "rental_uris": {"android": "https://dc.lft.to/lastmile_qr_scan", "ios": "https://dc.lft.to/lastmile_qr_scan"}, "lat": 38.9140345, "lon": -77.022076, "fusion_lat": 0.0}, {"is_reserved": 0, "bike_id": "866221ab35d0665ae57e3c1307a0d122", "type": "electric_scooter", "name": "866221ab35d0665ae57e3c1307a0d122", "is_disabled": 0, "fusion_lon": 0.0, "rental_uris": {"android": "https://dc.lft.to/lastmile_qr_scan", "ios": "https://dc.lft.to/lastmile_qr_scan"}, "lat": 38.91363483333333, "lon": -77.0205115, "fusion_lat": 0.0}, {"is_reserved": 0, "bike_id": "cd196516f860fb955f1a0361ae232f2e", "type": "electric_scooter", "name": "cd196516f860fb955f1a0361ae232f2e", "is_disabled": 0, "fusion_lon": 0.0, "rental_uris": {"android": "https://dc.lft.to/lastmile_qr_scan", "ios": "https://dc.lft.to/lastmile_qr_scan"}, "lat": 38.90481, "lon": -77.03551683333333, "fusion_lat": 0.0}, {"is_reserved": 0, "bike_id": "b2a66502fb25a9242ac45620ecfa4d79", "type": "electric_scooter", "name": "b2a66502fb25a9242ac45620ecfa4d79", "is_disabled": 0, "fusion_lon": 0.0, "rental_uris": {"android": "https://dc.lft.to/lastmile_qr_scan", "ios": "https://dc.lft.to/lastmile_qr_scan"}, "lat": 38.9074695, "lon": -77.00763033333334, "fusion_lat": 0.0}, {"is_reserved": 0, "bike_id": "179bc47fd6a71aaca531b3844241a572", "type": "electric_scooter", "name": "179bc47fd6a71aaca531b3844241a572", "is_disabled": 0, "fusion_lon": 0.0, "rental_uris": {"android": "https://dc.lft.to/lastmile_qr_scan", "ios": "https://dc.lft.to/lastmile_qr_scan"}, "lat": 38.9001325, "lon": -77.04655066666666, "fusion_lat": 0.0}, {"is_reserved": 0, "bike_id": "eea76bfc166f76e16617c75a129d9821", "type": "electric_scooter", "name": "eea76bfc166f76e16617c75a129d9821", "is_disabled": 0, "fusion_lon": 0.0, "rental_uris": {"android": "https://dc.lft.to/lastmile_qr_scan", "ios": "https://dc.lft.to/lastmile_qr_scan"}, "lat": 38.898821, "lon": -77.04551716666667, "fusion_lat": 0.0}, {"is_reserved": 0, "bike_id": "44dd3ceb4b41279f2d99741561599217", "type": "electric_bike", "name": "44dd3ceb4b41279f2d99741561599217", "is_disabled": 0, "fusion_lon": 0.0, "rental_uris": {"android": "https://dc.lft.to/lastmile_qr_scan", "ios": "https://dc.lft.to/lastmile_qr_scan"}, "lat": 38.95291, "lon": -77.06877233333333, "fusion_lat": 0.0}, {"is_reserved": 0, "bike_id": "41a2d3e0a15b6a03401f317e05223572", "type": "electric_scooter", "name": "41a2d3e0a15b6a03401f317e05223572", "is_disabled": 0, "fusion_lon": 0.0, "rental_uris": {"android": "https://dc.lft.to/lastmile_qr_scan", "ios": "https://dc.lft.to/lastmile_qr_scan"}, "lat": 38.899951333333334, "lon": -76.990159, "fusion_lat": 0.0}, {"is_reserved": 0, "bike_id": "785c2300133f2f9100b508cb1302738f", "type": "electric_scooter", "name": "785c2300133f2f9100b508cb1302738f", "is_disabled": 0, "fusion_lon": 0.0, "rental_uris": {"android": "https://dc.lft.to/lastmile_qr_scan", "ios": "https://dc.lft.to/lastmile_qr_scan"}, "lat": 38.89743816666667, "lon": -77.027058, "fusion_lat": 0.0}, {"is_reserved": 0, "bike_id": "930234db7bac881f3bd65b4e2d95a4fe", "type": "electric_scooter", "name": "930234db7bac881f3bd65b4e2d95a4fe", "is_disabled": 0, "fusion_lon": 0.0, "rental_uris": {"android": "https://dc.lft.to/lastmile_qr_scan", "ios": "https://dc.lft.to/lastmile_qr_scan"}, "lat": 38.892208833333335, "lon": -77.0241705, "fusion_lat": 0.0}, {"is_reserved": 0, "bike_id": "f33909adf1f12eb2c7118985ad9de92e", "type": "electric_scooter", "name": "f33909adf1f12eb2c7118985ad9de92e", "is_disabled": 0, "fusion_lon": 0.0, "rental_uris": {"android": "https://dc.lft.to/lastmile_qr_scan", "ios": "https://dc.lft.to/lastmile_qr_scan"}, "lat": 38.925952833333334, "lon": -77.0439785, "fusion_lat": 0.0}, {"is_reserved": 0, "bike_id": "405234cd0c69da3ea3b3830a9f091e6f", "type": "electric_bike", "name": "405234cd0c69da3ea3b3830a9f091e6f", "is_disabled": 0, "fusion_lon": 0.0, "rental_uris": {"android": "https://dc.lft.to/lastmile_qr_scan", "ios": "https://dc.lft.to/lastmile_qr_scan"}, "lat": 38.888670166666664, "lon": -77.08179583333333, "fusion_lat": 0.0}, {"is_reserved": 0, "bike_id": "3c45bb18cce1aed8a0d147c66eab5574", "type": "electric_scooter", "name": "3c45bb18cce1aed8a0d147c66eab5574", "is_disabled": 0, "fusion_lon": 0.0, "rental_uris": {"android": "https://dc.lft.to/lastmile_qr_scan", "ios": "https://dc.lft.to/lastmile_qr_scan"}, "lat": 38.924964, "lon": -77.052521, "fusion_lat": 0.0}, {"is_reserved": 0, "bike_id": "cbc07b63f4cf1aadf549aa0e298a7558", "type": "electric_scooter", "name": "cbc07b63f4cf1aadf549aa0e298a7558", "is_disabled": 0, "fusion_lon": 0.0, "rental_uris": {"android": "https://dc.lft.to/lastmile_qr_scan", "ios": "https://dc.lft.to/lastmile_qr_scan"}, "lat": 38.88322083333333, "lon": -77.02994283333334, "fusion_lat": 0.0}, {"is_reserved": 0, "bike_id": "9a2f00100b3ebb6752e4e53ba472c262", "type": "electric_scooter", "name": "9a2f00100b3ebb6752e4e53ba472c262", "is_disabled": 0, "fusion_lon": 0.0, "rental_uris": {"android": "https://dc.lft.to/lastmile_qr_scan", "ios": "https://dc.lft.to/lastmile_qr_scan"}, "lat": 38.9192435, "lon": -77.032484, "fusion_lat": 0.0}, {"is_reserved": 0, "bike_id": "621dcae81f8f2a1b79cb0528fa2fa009", "type": "electric_scooter", "name": "621dcae81f8f2a1b79cb0528fa2fa009", "is_disabled": 0, "fusion_lon": 0.0, "rental_uris": {"android": "https://dc.lft.to/lastmile_qr_scan", "ios": "https://dc.lft.to/lastmile_qr_scan"}, "lat": 38.903595, "lon": -77.0110775, "fusion_lat": 0.0}, {"is_reserved": 0, "bike_id": "6f73bedb5ec817bfe9269c19f93dce78", "type": "electric_bike", "name": "6f73bedb5ec817bfe9269c19f93dce78", "is_disabled": 0, "fusion_lon": 0.0, "rental_uris": {"android": "https://dc.lft.to/lastmile_qr_scan", "ios": "https://dc.lft.to/lastmile_qr_scan"}, "lat": 38.92043283333334, "lon": -77.03468366666667, "fusion_lat": 0.0}, {"is_reserved": 0, "bike_id": "42efe357492644dc3c9259cb0ba078a8", "type": "electric_scooter", "name": "42efe357492644dc3c9259cb0ba078a8", "is_disabled": 0, "fusion_lon": 0.0, "rental_uris": {"android": "https://dc.lft.to/lastmile_qr_scan", "ios": "https://dc.lft.to/lastmile_qr_scan"}, "lat": 38.924261, "lon": -77.0195025, "fusion_lat": 0.0}, {"is_reserved": 0, "bike_id": "da4dfc5f89685e4b5075295e1d496504", "type": "electric_scooter", "name": "da4dfc5f89685e4b5075295e1d496504", "is_disabled": 0, "fusion_lon": 0.0, "rental_uris": {"android": "https://dc.lft.to/lastmile_qr_scan", "ios": "https://dc.lft.to/lastmile_qr_scan"}, "lat": 38.915386833333336, "lon": -77.01223516666667, "fusion_lat": 0.0}, {"is_reserved": 0, "bike_id": "5be63d9f4b0cba83c7cbe9f3f4110b2b", "type": "electric_scooter", "name": "5be63d9f4b0cba83c7cbe9f3f4110b2b", "is_disabled": 0, "fusion_lon": 0.0, "rental_uris": {"android": "https://dc.lft.to/lastmile_qr_scan", "ios": "https://dc.lft.to/lastmile_qr_scan"}, "lat": 38.91795966666667, "lon": -77.02381783333334, "fusion_lat": 0.0}, {"is_reserved": 0, "bike_id": "027589d4926c4329aaed6ef38cc981b6", "type": "electric_scooter", "name": "027589d4926c4329aaed6ef38cc981b6", "is_disabled": 0, "fusion_lon": 0.0, "rental_uris": {"android": "https://dc.lft.to/lastmile_qr_scan", "ios": "https://dc.lft.to/lastmile_qr_scan"}, "lat": 38.9210485, "lon": -77.03171333333333, "fusion_lat": 0.0}, {"is_reserved": 0, "bike_id": "5cfd2851d183b2a6ab8438114684e67b", "type": "electric_scooter", "name": "5cfd2851d183b2a6ab8438114684e67b", "is_disabled": 0, "fusion_lon": 0.0, "rental_uris": {"android": "https://dc.lft.to/lastmile_qr_scan", "ios": "https://dc.lft.to/lastmile_qr_scan"}, "lat": 38.89093966666667, "lon": -76.9882985, "fusion_lat": 0.0}, {"is_reserved": 0, "bike_id": "c1c70bd668629794f360ff52f54fd2f7", "type": "electric_scooter", "name": "c1c70bd668629794f360ff52f54fd2f7", "is_disabled": 0, "fusion_lon": 0.0, "rental_uris": {"android": "https://dc.lft.to/lastmile_qr_scan", "ios": "https://dc.lft.to/lastmile_qr_scan"}, "lat": 38.89375616666667, "lon": -77.01551933333333, "fusion_lat": 0.0}, {"is_reserved": 0, "bike_id": "9ca0276e31531342d2a784a64928b6c5", "type": "electric_scooter", "name": "9ca0276e31531342d2a784a64928b6c5", "is_disabled": 0, "fusion_lon": 0.0, "rental_uris": {"android": "https://dc.lft.to/lastmile_qr_scan", "ios": "https://dc.lft.to/lastmile_qr_scan"}, "lat": 38.90825933333333, "lon": -76.99672566666666, "fusion_lat": 0.0}, {"is_reserved": 0, "bike_id": "977b07fd6bd0845e81e45f2ba736eb7d", "type": "electric_scooter", "name": "977b07fd6bd0845e81e45f2ba736eb7d", "is_disabled": 0, "fusion_lon": 0.0, "rental_uris": {"android": "https://dc.lft.to/lastmile_qr_scan", "ios": "https://dc.lft.to/lastmile_qr_scan"}, "lat": 38.90688183333333, "lon": -77.06141366666667, "fusion_lat": 0.0}, {"is_reserved": 0, "bike_id": "2680f5b518210f16d46d4db822f07964", "type": "electric_scooter", "name": "2680f5b518210f16d46d4db822f07964", "is_disabled": 0, "fusion_lon": 0.0, "rental_uris": {"android": "https://dc.lft.to/lastmile_qr_scan", "ios": "https://dc.lft.to/lastmile_qr_scan"}, "lat": 38.919404, "lon": -77.01803016666666, "fusion_lat": 0.0}, {"is_reserved": 0, "bike_id": "458ae99e62ee3dbf07203c7408d61299", "type": "electric_scooter", "name": "458ae99e62ee3dbf07203c7408d61299", "is_disabled": 0, "fusion_lon": 0.0, "rental_uris": {"android": "https://dc.lft.to/lastmile_qr_scan", "ios": "https://dc.lft.to/lastmile_qr_scan"}, "lat": 38.902573833333335, "lon": -77.032204, "fusion_lat": 0.0}, {"is_reserved": 0, "bike_id": "6b11bc96d01480c4ff9d8443bbfebbf3", "type": "electric_scooter", "name": "6b11bc96d01480c4ff9d8443bbfebbf3", "is_disabled": 0, "fusion_lon": 0.0, "rental_uris": {"android": "https://dc.lft.to/lastmile_qr_scan", "ios": "https://dc.lft.to/lastmile_qr_scan"}, "lat": 38.87397266666667, "lon": -77.000304, "fusion_lat": 0.0}, {"is_reserved": 0, "bike_id": "37131d7c63119991588711394741c012", "type": "electric_scooter", "name": "37131d7c63119991588711394741c012", "is_disabled": 0, "fusion_lon": 0.0, "rental_uris": {"android": "https://dc.lft.to/lastmile_qr_scan", "ios": "https://dc.lft.to/lastmile_qr_scan"}, "lat": 38.91185733333333, "lon": -77.00728366666667, "fusion_lat": 0.0}, {"is_reserved": 0, "bike_id": "c8d9f28676b87a82ad49f452212ff3f9", "type": "electric_scooter", "name": "c8d9f28676b87a82ad49f452212ff3f9", "is_disabled": 0, "fusion_lon": 0.0, "rental_uris": {"android": "https://dc.lft.to/lastmile_qr_scan", "ios": "https://dc.lft.to/lastmile_qr_scan"}, "lat": 38.919799833333336, "lon": -77.03351, "fusion_lat": 0.0}, {"is_reserved": 0, "bike_id": "011a9fc9f9447a208151ea5573a46625", "type": "electric_scooter", "name": "011a9fc9f9447a208151ea5573a46625", "is_disabled": 0, "fusion_lon": 0.0, "rental_uris": {"android": "https://dc.lft.to/lastmile_qr_scan", "ios": "https://dc.lft.to/lastmile_qr_scan"}, "lat": 38.9194545, "lon": -77.031201, "fusion_lat": 0.0}, {"is_reserved": 0, "bike_id": "1e76848901047c855f4d14168eb239a2", "type": "electric_scooter", "name": "1e76848901047c855f4d14168eb239a2", "is_disabled": 0, "fusion_lon": 0.0, "rental_uris": {"android": "https://dc.lft.to/lastmile_qr_scan", "ios": "https://dc.lft.to/lastmile_qr_scan"}, "lat": 38.917009666666665, "lon": -77.02314433333333, "fusion_lat": 0.0}, {"is_reserved": 0, "bike_id": "7133370574f76c4434308f97a21e4e1b", "type": "electric_scooter", "name": "7133370574f76c4434308f97a21e4e1b", "is_disabled": 0, "fusion_lon": 0.0, "rental_uris": {"android": "https://dc.lft.to/lastmile_qr_scan", "ios": "https://dc.lft.to/lastmile_qr_scan"}, "lat": 38.8850585, "lon": -77.01961166666666, "fusion_lat": 0.0}, {"is_reserved": 0, "bike_id": "78fdec284e299f669830c843d6260277", "type": "electric_scooter", "name": "78fdec284e299f669830c843d6260277", "is_disabled": 0, "fusion_lon": 0.0, "rental_uris": {"android": "https://dc.lft.to/lastmile_qr_scan", "ios": "https://dc.lft.to/lastmile_qr_scan"}, "lat": 38.915726666666664, "lon": -77.01991516666666, "fusion_lat": 0.0}, {"is_reserved": 0, "bike_id": "839ad6a534080c1f7a42f821cf163f54", "type": "electric_scooter", "name": "839ad6a534080c1f7a42f821cf163f54", "is_disabled": 0, "fusion_lon": 0.0, "rental_uris": {"android": "https://dc.lft.to/lastmile_qr_scan", "ios": "https://dc.lft.to/lastmile_qr_scan"}, "lat": 38.90960233333333, "lon": -77.03426633333333, "fusion_lat": 0.0}, {"is_reserved": 0, "bike_id": "77de1da2d0bce299bd6d192f4a64d9a2", "type": "electric_scooter", "name": "77de1da2d0bce299bd6d192f4a64d9a2", "is_disabled": 0, "fusion_lon": 0.0, "rental_uris": {"android": "https://dc.lft.to/lastmile_qr_scan", "ios": "https://dc.lft.to/lastmile_qr_scan"}, "lat": 38.877964, "lon": -76.994175, "fusion_lat": 0.0}, {"is_reserved": 0, "bike_id": "02a87a3f655191583c60627c61808619", "type": "electric_scooter", "name": "02a87a3f655191583c60627c61808619", "is_disabled": 0, "fusion_lon": 0.0, "rental_uris": {"android": "https://dc.lft.to/lastmile_qr_scan", "ios": "https://dc.lft.to/lastmile_qr_scan"}, "lat": 38.90371116666667, "lon": -77.03116216666666, "fusion_lat": 0.0}, {"is_reserved": 0, "bike_id": "cb5e12ec5b0bdd7edce8f80cdb866102", "type": "electric_scooter", "name": "cb5e12ec5b0bdd7edce8f80cdb866102", "is_disabled": 0, "fusion_lon": 0.0, "rental_uris": {"android": "https://dc.lft.to/lastmile_qr_scan", "ios": "https://dc.lft.to/lastmile_qr_scan"}, "lat": 38.9170715, "lon": -77.02394233333334, "fusion_lat": 0.0}, {"is_reserved": 0, "bike_id": "e50eead19e7829a2323ae10fd05f03fb", "type": "electric_scooter", "name": "e50eead19e7829a2323ae10fd05f03fb", "is_disabled": 0, "fusion_lon": 0.0, "rental_uris": {"android": "https://dc.lft.to/lastmile_qr_scan", "ios": "https://dc.lft.to/lastmile_qr_scan"}, "lat": 38.91922566666667, "lon": -77.03422166666667, "fusion_lat": 0.0}, {"is_reserved": 0, "bike_id": "a9a474b581fa1311f43d8e56db9cbb6f", "type": "electric_scooter", "name": "a9a474b581fa1311f43d8e56db9cbb6f", "is_disabled": 0, "fusion_lon": 0.0, "rental_uris": {"android": "https://dc.lft.to/lastmile_qr_scan", "ios": "https://dc.lft.to/lastmile_qr_scan"}, "lat": 38.896873166666666, "lon": -77.04326983333333, "fusion_lat": 0.0}, {"is_reserved": 0, "bike_id": "d3a55fdc12b3925ef89edff5a715e15c", "type": "electric_scooter", "name": "d3a55fdc12b3925ef89edff5a715e15c", "is_disabled": 0, "fusion_lon": 0.0, "rental_uris": {"android": "https://dc.lft.to/lastmile_qr_scan", "ios": "https://dc.lft.to/lastmile_qr_scan"}, "lat": 38.9193145, "lon": -77.0450315, "fusion_lat": 0.0}, {"is_reserved": 0, "bike_id": "e2c50b587d0320868c8121e095c01650", "type": "electric_scooter", "name": "e2c50b587d0320868c8121e095c01650", "is_disabled": 0, "fusion_lon": 0.0, "rental_uris": {"android": "https://dc.lft.to/lastmile_qr_scan", "ios": "https://dc.lft.to/lastmile_qr_scan"}, "lat": 38.876641166666666, "lon": -77.00296733333333, "fusion_lat": 0.0}, {"is_reserved": 0, "bike_id": "598b7ada0116212141575fb1dbc56b16", "type": "electric_scooter", "name": "598b7ada0116212141575fb1dbc56b16", "is_disabled": 0, "fusion_lon": 0.0, "rental_uris": {"android": "https://dc.lft.to/lastmile_qr_scan", "ios": "https://dc.lft.to/lastmile_qr_scan"}, "lat": 38.92061316666667, "lon": -77.042416, "fusion_lat": 0.0}, {"is_reserved": 0, "bike_id": "050b1b2da2a7620f150f354afeef2c66", "type": "electric_scooter", "name": "050b1b2da2a7620f150f354afeef2c66", "is_disabled": 0, "fusion_lon": 0.0, "rental_uris": {"android": "https://dc.lft.to/lastmile_qr_scan", "ios": "https://dc.lft.to/lastmile_qr_scan"}, "lat": 38.944171, "lon": -77.0190705, "fusion_lat": 0.0}, {"is_reserved": 0, "bike_id": "54c346fc2dc56d06d714642ecdbfe8b3", "type": "electric_scooter", "name": "54c346fc2dc56d06d714642ecdbfe8b3", "is_disabled": 0, "fusion_lon": 0.0, "rental_uris": {"android": "https://dc.lft.to/lastmile_qr_scan", "ios": "https://dc.lft.to/lastmile_qr_scan"}, "lat": 38.875264, "lon": -77.00423533333333, "fusion_lat": 0.0}, {"is_reserved": 0, "bike_id": "ff28168da793c27aa110e104a1ca6b77", "type": "electric_scooter", "name": "ff28168da793c27aa110e104a1ca6b77", "is_disabled": 0, "fusion_lon": 0.0, "rental_uris": {"android": "https://dc.lft.to/lastmile_qr_scan", "ios": "https://dc.lft.to/lastmile_qr_scan"}, "lat": 38.925361333333335, "lon": -77.0339785, "fusion_lat": 0.0}, {"is_reserved": 0, "bike_id": "1542820562980eb702edf773548d3447", "type": "electric_scooter", "name": "1542820562980eb702edf773548d3447", "is_disabled": 0, "fusion_lon": 0.0, "rental_uris": {"android": "https://dc.lft.to/lastmile_qr_scan", "ios": "https://dc.lft.to/lastmile_qr_scan"}, "lat": 38.944505666666664, "lon": -77.06353783333333, "fusion_lat": 0.0}, {"is_reserved": 0, "bike_id": "a3ea4126bbec8bb325cd1c6a9314367b", "type": "electric_scooter", "name": "a3ea4126bbec8bb325cd1c6a9314367b", "is_disabled": 0, "fusion_lon": 0.0, "rental_uris": {"android": "https://dc.lft.to/lastmile_qr_scan", "ios": "https://dc.lft.to/lastmile_qr_scan"}, "lat": 38.902662166666666, "lon": -77.03865516666667, "fusion_lat": 0.0}, {"is_reserved": 0, "bike_id": "71d703b84e76ee4be6b8adeca230e1d3", "type": "electric_bike", "name": "71d703b84e76ee4be6b8adeca230e1d3", "is_disabled": 0, "fusion_lon": 0.0, "rental_uris": {"android": "https://dc.lft.to/lastmile_qr_scan", "ios": "https://dc.lft.to/lastmile_qr_scan"}, "lat": 38.80739233333333, "lon": -77.09688083333333, "fusion_lat": 0.0}, {"is_reserved": 0, "bike_id": "5e4a778e732562fd73f3daef888cbdbc", "type": "electric_scooter", "name": "5e4a778e732562fd73f3daef888cbdbc", "is_disabled": 0, "fusion_lon": 0.0, "rental_uris": {"android": "https://dc.lft.to/lastmile_qr_scan", "ios": "https://dc.lft.to/lastmile_qr_scan"}, "lat": 38.89501666666666, "lon": -76.94874266666666, "fusion_lat": 0.0}, {"is_reserved": 0, "bike_id": "6dff02ee56fb92d1abf08d8cb2a4de6f", "type": "electric_scooter", "name": "6dff02ee56fb92d1abf08d8cb2a4de6f", "is_disabled": 0, "fusion_lon": 0.0, "rental_uris": {"android": "https://dc.lft.to/lastmile_qr_scan", "ios": "https://dc.lft.to/lastmile_qr_scan"}, "lat": 38.931356666666666, "lon": -77.03258766666667, "fusion_lat": 0.0}, {"is_reserved": 0, "bike_id": "e1729f29f65fb05c8432486582c9863d", "type": "electric_scooter", "name": "e1729f29f65fb05c8432486582c9863d", "is_disabled": 0, "fusion_lon": 0.0, "rental_uris": {"android": "https://dc.lft.to/lastmile_qr_scan", "ios": "https://dc.lft.to/lastmile_qr_scan"}, "lat": 38.924406, "lon": -77.01950566666666, "fusion_lat": 0.0}, {"is_reserved": 0, "bike_id": "87fbc47b080bd59fecaa80a52ffb1b62", "type": "electric_scooter", "name": "87fbc47b080bd59fecaa80a52ffb1b62", "is_disabled": 0, "fusion_lon": 0.0, "rental_uris": {"android": "https://dc.lft.to/lastmile_qr_scan", "ios": "https://dc.lft.to/lastmile_qr_scan"}, "lat": 38.906303, "lon": -77.0153125, "fusion_lat": 0.0}, {"is_reserved": 0, "bike_id": "5773bb8ea2fe261f39eddd903ffd4c67", "type": "electric_scooter", "name": "5773bb8ea2fe261f39eddd903ffd4c67", "is_disabled": 0, "fusion_lon": 0.0, "rental_uris": {"android": "https://dc.lft.to/lastmile_qr_scan", "ios": "https://dc.lft.to/lastmile_qr_scan"}, "lat": 38.930680333333335, "lon": -77.02341483333333, "fusion_lat": 0.0}, {"is_reserved": 0, "bike_id": "af732d5c59d2eebb175d600b77cd01cb", "type": "electric_scooter", "name": "af732d5c59d2eebb175d600b77cd01cb", "is_disabled": 0, "fusion_lon": 0.0, "rental_uris": {"android": "https://dc.lft.to/lastmile_qr_scan", "ios": "https://dc.lft.to/lastmile_qr_scan"}, "lat": 38.903210666666666, "lon": -76.99254733333333, "fusion_lat": 0.0}, {"is_reserved": 0, "bike_id": "beb436e727aa67cf24ac76634f694335", "type": "electric_scooter", "name": "beb436e727aa67cf24ac76634f694335", "is_disabled": 0, "fusion_lon": 0.0, "rental_uris": {"android": "https://dc.lft.to/lastmile_qr_scan", "ios": "https://dc.lft.to/lastmile_qr_scan"}, "lat": 38.91708216666667, "lon": -77.03869066666667, "fusion_lat": 0.0}, {"is_reserved": 0, "bike_id": "9210a9a28221802c5df687d352a64b14", "type": "electric_bike", "name": "9210a9a28221802c5df687d352a64b14", "is_disabled": 0, "fusion_lon": 0.0, "rental_uris": {"android": "https://dc.lft.to/lastmile_qr_scan", "ios": "https://dc.lft.to/lastmile_qr_scan"}, "lat": 38.871748, "lon": -77.23393366666667, "fusion_lat": 0.0}, {"is_reserved": 0, "bike_id": "b14480c43eca6fcc997776c9afc5a3b1", "type": "electric_scooter", "name": "b14480c43eca6fcc997776c9afc5a3b1", "is_disabled": 0, "fusion_lon": 0.0, "rental_uris": {"android": "https://dc.lft.to/lastmile_qr_scan", "ios": "https://dc.lft.to/lastmile_qr_scan"}, "lat": 38.8727745, "lon": -77.0151265, "fusion_lat": 0.0}, {"is_reserved": 0, "bike_id": "d539dd6428fe4ed4a2f66410ed160857", "type": "electric_scooter", "name": "d539dd6428fe4ed4a2f66410ed160857", "is_disabled": 0, "fusion_lon": 0.0, "rental_uris": {"android": "https://dc.lft.to/lastmile_qr_scan", "ios": "https://dc.lft.to/lastmile_qr_scan"}, "lat": 38.923647833333334, "lon": -77.03402966666667, "fusion_lat": 0.0}, {"is_reserved": 0, "bike_id": "1b94de70b758ed74a7ea0a938583a967", "type": "electric_scooter", "name": "1b94de70b758ed74a7ea0a938583a967", "is_disabled": 0, "fusion_lon": 0.0, "rental_uris": {"android": "https://dc.lft.to/lastmile_qr_scan", "ios": "https://dc.lft.to/lastmile_qr_scan"}, "lat": 38.9020925, "lon": -76.992389, "fusion_lat": 0.0}, {"is_reserved": 0, "bike_id": "ce483be6d5d224ff07ea0cedcd869e4e", "type": "electric_scooter", "name": "ce483be6d5d224ff07ea0cedcd869e4e", "is_disabled": 0, "fusion_lon": 0.0, "rental_uris": {"android": "https://dc.lft.to/lastmile_qr_scan", "ios": "https://dc.lft.to/lastmile_qr_scan"}, "lat": 38.9212465, "lon": -77.0212985, "fusion_lat": 0.0}, {"is_reserved": 0, "bike_id": "fd3725ed23c550cfd00124c02f28eb31", "type": "electric_scooter", "name": "fd3725ed23c550cfd00124c02f28eb31", "is_disabled": 0, "fusion_lon": 0.0, "rental_uris": {"android": "https://dc.lft.to/lastmile_qr_scan", "ios": "https://dc.lft.to/lastmile_qr_scan"}, "lat": 38.8979735, "lon": -77.04615283333334, "fusion_lat": 0.0}, {"is_reserved": 0, "bike_id": "481ad907e822feebf6df95b8416fbc2a", "type": "electric_scooter", "name": "481ad907e822feebf6df95b8416fbc2a", "is_disabled": 0, "fusion_lon": 0.0, "rental_uris": {"android": "https://dc.lft.to/lastmile_qr_scan", "ios": "https://dc.lft.to/lastmile_qr_scan"}, "lat": 38.92069, "lon": -77.04380633333334, "fusion_lat": 0.0}, {"is_reserved": 0, "bike_id": "848408e3f00124cb0ba453701e657c34", "type": "electric_scooter", "name": "848408e3f00124cb0ba453701e657c34", "is_disabled": 0, "fusion_lon": 0.0, "rental_uris": {"android": "https://dc.lft.to/lastmile_qr_scan", "ios": "https://dc.lft.to/lastmile_qr_scan"}, "lat": 38.906044, "lon": -77.0637665, "fusion_lat": 0.0}, {"is_reserved": 0, "bike_id": "11b73a23d0954f219acdaefbbd3ae243", "type": "electric_scooter", "name": "11b73a23d0954f219acdaefbbd3ae243", "is_disabled": 0, "fusion_lon": 0.0, "rental_uris": {"android": "https://dc.lft.to/lastmile_qr_scan", "ios": "https://dc.lft.to/lastmile_qr_scan"}, "lat": 38.920360333333335, "lon": -77.04177316666667, "fusion_lat": 0.0}, {"is_reserved": 0, "bike_id": "f7c7b1c18e5195100861284407883545", "type": "electric_scooter", "name": "f7c7b1c18e5195100861284407883545", "is_disabled": 0, "fusion_lon": 0.0, "rental_uris": {"android": "https://dc.lft.to/lastmile_qr_scan", "ios": "https://dc.lft.to/lastmile_qr_scan"}, "lat": 38.902601, "lon": -77.0182575, "fusion_lat": 0.0}, {"is_reserved": 0, "bike_id": "73b44e81087c8824012928f2d7acf9df", "type": "electric_scooter", "name": "73b44e81087c8824012928f2d7acf9df", "is_disabled": 0, "fusion_lon": 0.0, "rental_uris": {"android": "https://dc.lft.to/lastmile_qr_scan", "ios": "https://dc.lft.to/lastmile_qr_scan"}, "lat": 38.917216, "lon": -77.06842433333334, "fusion_lat": 0.0}, {"is_reserved": 0, "bike_id": "501dc06ce2da6fdf55afebe5e3a4bf49", "type": "electric_bike", "name": "501dc06ce2da6fdf55afebe5e3a4bf49", "is_disabled": 0, "fusion_lon": 0.0, "rental_uris": {"android": "https://dc.lft.to/lastmile_qr_scan", "ios": "https://dc.lft.to/lastmile_qr_scan"}, "lat": 38.94571233333333, "lon": -76.9811495, "fusion_lat": 0.0}, {"is_reserved": 0, "bike_id": "ccaad26a574468dba758acda323b756b", "type": "electric_scooter", "name": "ccaad26a574468dba758acda323b756b", "is_disabled": 0, "fusion_lon": 0.0, "rental_uris": {"android": "https://dc.lft.to/lastmile_qr_scan", "ios": "https://dc.lft.to/lastmile_qr_scan"}, "lat": 38.962749, "lon": -77.030235, "fusion_lat": 0.0}, {"is_reserved": 0, "bike_id": "df5ac13060557c5f729f8e4fa7dfe122", "type": "electric_scooter", "name": "df5ac13060557c5f729f8e4fa7dfe122", "is_disabled": 0, "fusion_lon": 0.0, "rental_uris": {"android": "https://dc.lft.to/lastmile_qr_scan", "ios": "https://dc.lft.to/lastmile_qr_scan"}, "lat": 38.920399, "lon": -77.0388505, "fusion_lat": 0.0}, {"is_reserved": 0, "bike_id": "5a0c07f6a0ccf6a74821a49bbe0bdcb1", "type": "electric_scooter", "name": "5a0c07f6a0ccf6a74821a49bbe0bdcb1", "is_disabled": 0, "fusion_lon": 0.0, "rental_uris": {"android": "https://dc.lft.to/lastmile_qr_scan", "ios": "https://dc.lft.to/lastmile_qr_scan"}, "lat": 38.93949216666667, "lon": -77.07247066666666, "fusion_lat": 0.0}, {"is_reserved": 0, "bike_id": "a8c1b615b08481bb2d141821dcd17866", "type": "electric_scooter", "name": "a8c1b615b08481bb2d141821dcd17866", "is_disabled": 0, "fusion_lon": 0.0, "rental_uris": {"android": "https://dc.lft.to/lastmile_qr_scan", "ios": "https://dc.lft.to/lastmile_qr_scan"}, "lat": 38.904237333333334, "lon": -77.0184385, "fusion_lat": 0.0}, {"is_reserved": 0, "bike_id": "d29f1005a9a485d8adc4973288cc325d", "type": "electric_scooter", "name": "d29f1005a9a485d8adc4973288cc325d", "is_disabled": 0, "fusion_lon": 0.0, "rental_uris": {"android": "https://dc.lft.to/lastmile_qr_scan", "ios": "https://dc.lft.to/lastmile_qr_scan"}, "lat": 38.919781666666665, "lon": -77.0178735, "fusion_lat": 0.0}, {"is_reserved": 0, "bike_id": "1ed73966bae457aaf76ae0d0c55b4337", "type": "electric_scooter", "name": "1ed73966bae457aaf76ae0d0c55b4337", "is_disabled": 0, "fusion_lon": 0.0, "rental_uris": {"android": "https://dc.lft.to/lastmile_qr_scan", "ios": "https://dc.lft.to/lastmile_qr_scan"}, "lat": 38.912794833333336, "lon": -77.02299783333333, "fusion_lat": 0.0}, {"is_reserved": 0, "bike_id": "2f7741e81d22248c1320b9daa5e2b95d", "type": "electric_scooter", "name": "2f7741e81d22248c1320b9daa5e2b95d", "is_disabled": 0, "fusion_lon": 0.0, "rental_uris": {"android": "https://dc.lft.to/lastmile_qr_scan", "ios": "https://dc.lft.to/lastmile_qr_scan"}, "lat": 38.90420016666667, "lon": -77.02721883333334, "fusion_lat": 0.0}, {"is_reserved": 0, "bike_id": "14c4226810931f766037d4cf46b7a816", "type": "electric_scooter", "name": "14c4226810931f766037d4cf46b7a816", "is_disabled": 0, "fusion_lon": 0.0, "rental_uris": {"android": "https://dc.lft.to/lastmile_qr_scan", "ios": "https://dc.lft.to/lastmile_qr_scan"}, "lat": 38.898386, "lon": -77.04042, "fusion_lat": 0.0}, {"is_reserved": 0, "bike_id": "0cc90ec05bb7f56fa536818908acc756", "type": "electric_scooter", "name": "0cc90ec05bb7f56fa536818908acc756", "is_disabled": 0, "fusion_lon": 0.0, "rental_uris": {"android": "https://dc.lft.to/lastmile_qr_scan", "ios": "https://dc.lft.to/lastmile_qr_scan"}, "lat": 38.9040915, "lon": -77.06834266666667, "fusion_lat": 0.0}, {"is_reserved": 0, "bike_id": "b6b18205124df50eae020e58e41f5c08", "type": "electric_scooter", "name": "b6b18205124df50eae020e58e41f5c08", "is_disabled": 0, "fusion_lon": 0.0, "rental_uris": {"android": "https://dc.lft.to/lastmile_qr_scan", "ios": "https://dc.lft.to/lastmile_qr_scan"}, "lat": 38.90654516666667, "lon": -77.01111966666667, "fusion_lat": 0.0}, {"is_reserved": 0, "bike_id": "6550d8c01027c39fbc0a0578526be81f", "type": "electric_scooter", "name": "6550d8c01027c39fbc0a0578526be81f", "is_disabled": 0, "fusion_lon": 0.0, "rental_uris": {"android": "https://dc.lft.to/lastmile_qr_scan", "ios": "https://dc.lft.to/lastmile_qr_scan"}, "lat": 38.91646216666667, "lon": -77.02881833333333, "fusion_lat": 0.0}, {"is_reserved": 0, "bike_id": "1a8a227bd011f6cf0374cde731f040cb", "type": "electric_scooter", "name": "1a8a227bd011f6cf0374cde731f040cb", "is_disabled": 0, "fusion_lon": 0.0, "rental_uris": {"android": "https://dc.lft.to/lastmile_qr_scan", "ios": "https://dc.lft.to/lastmile_qr_scan"}, "lat": 38.924448, "lon": -77.03319666666667, "fusion_lat": 0.0}, {"is_reserved": 0, "bike_id": "fda210afd763eeead15282f9219411b2", "type": "electric_scooter", "name": "fda210afd763eeead15282f9219411b2", "is_disabled": 0, "fusion_lon": 0.0, "rental_uris": {"android": "https://dc.lft.to/lastmile_qr_scan", "ios": "https://dc.lft.to/lastmile_qr_scan"}, "lat": 38.908292333333335, "lon": -76.99451566666667, "fusion_lat": 0.0}, {"is_reserved": 0, "bike_id": "c72597a5998d9d3cd74f25cfc435020d", "type": "electric_scooter", "name": "c72597a5998d9d3cd74f25cfc435020d", "is_disabled": 0, "fusion_lon": 0.0, "rental_uris": {"android": "https://dc.lft.to/lastmile_qr_scan", "ios": "https://dc.lft.to/lastmile_qr_scan"}, "lat": 38.906377, "lon": -77.0059315, "fusion_lat": 0.0}, {"is_reserved": 0, "bike_id": "af21775237f44a9e9555ce27938a0a21", "type": "electric_scooter", "name": "af21775237f44a9e9555ce27938a0a21", "is_disabled": 0, "fusion_lon": 0.0, "rental_uris": {"android": "https://dc.lft.to/lastmile_qr_scan", "ios": "https://dc.lft.to/lastmile_qr_scan"}, "lat": 38.9127735, "lon": -77.023877, "fusion_lat": 0.0}, {"is_reserved": 0, "bike_id": "f05b0fcbbcde3e0317a410d19f7082bd", "type": "electric_scooter", "name": "f05b0fcbbcde3e0317a410d19f7082bd", "is_disabled": 0, "fusion_lon": 0.0, "rental_uris": {"android": "https://dc.lft.to/lastmile_qr_scan", "ios": "https://dc.lft.to/lastmile_qr_scan"}, "lat": 38.92338383333333, "lon": -77.03615383333333, "fusion_lat": 0.0}, {"is_reserved": 0, "bike_id": "0ef0146c1c123c57b12f2b7a083b0f27", "type": "electric_scooter", "name": "0ef0146c1c123c57b12f2b7a083b0f27", "is_disabled": 0, "fusion_lon": 0.0, "rental_uris": {"android": "https://dc.lft.to/lastmile_qr_scan", "ios": "https://dc.lft.to/lastmile_qr_scan"}, "lat": 38.90413483333333, "lon": -77.0628735, "fusion_lat": 0.0}, {"is_reserved": 0, "bike_id": "c986d26b3f496718c9727a7b884b513e", "type": "electric_scooter", "name": "c986d26b3f496718c9727a7b884b513e", "is_disabled": 0, "fusion_lon": 0.0, "rental_uris": {"android": "https://dc.lft.to/lastmile_qr_scan", "ios": "https://dc.lft.to/lastmile_qr_scan"}, "lat": 38.88752383333333, "lon": -77.03151033333333, "fusion_lat": 0.0}, {"is_reserved": 0, "bike_id": "bbd0993b53fc0746dbc2c7e7fc8d6bb8", "type": "electric_bike", "name": "bbd0993b53fc0746dbc2c7e7fc8d6bb8", "is_disabled": 0, "fusion_lon": 0.0, "rental_uris": {"android": "https://dc.lft.to/lastmile_qr_scan", "ios": "https://dc.lft.to/lastmile_qr_scan"}, "lat": 38.950700499999996, "lon": -76.99599083333334, "fusion_lat": 0.0}, {"is_reserved": 0, "bike_id": "7295fcd627868f3f3aed243ed36b63fe", "type": "electric_scooter", "name": "7295fcd627868f3f3aed243ed36b63fe", "is_disabled": 0, "fusion_lon": 0.0, "rental_uris": {"android": "https://dc.lft.to/lastmile_qr_scan", "ios": "https://dc.lft.to/lastmile_qr_scan"}, "lat": 38.92477366666667, "lon": -77.02988333333333, "fusion_lat": 0.0}, {"is_reserved": 0, "bike_id": "8a68c965e081ad462085c9ca9a13ce8f", "type": "electric_scooter", "name": "8a68c965e081ad462085c9ca9a13ce8f", "is_disabled": 0, "fusion_lon": 0.0, "rental_uris": {"android": "https://dc.lft.to/lastmile_qr_scan", "ios": "https://dc.lft.to/lastmile_qr_scan"}, "lat": 38.916370666666666, "lon": -77.03207316666666, "fusion_lat": 0.0}, {"is_reserved": 0, "bike_id": "3b86f05e8e017661240090a6f922dc6a", "type": "electric_scooter", "name": "3b86f05e8e017661240090a6f922dc6a", "is_disabled": 0, "fusion_lon": 0.0, "rental_uris": {"android": "https://dc.lft.to/lastmile_qr_scan", "ios": "https://dc.lft.to/lastmile_qr_scan"}, "lat": 38.92656933333333, "lon": -77.0372795, "fusion_lat": 0.0}, {"is_reserved": 0, "bike_id": "489036284cf9e54b9e1a938e9ed3981e", "type": "electric_scooter", "name": "489036284cf9e54b9e1a938e9ed3981e", "is_disabled": 0, "fusion_lon": 0.0, "rental_uris": {"android": "https://dc.lft.to/lastmile_qr_scan", "ios": "https://dc.lft.to/lastmile_qr_scan"}, "lat": 38.9192275, "lon": -77.03423233333334, "fusion_lat": 0.0}, {"is_reserved": 0, "bike_id": "4354ae59402757875fbdb4488f7d2b13", "type": "electric_scooter", "name": "4354ae59402757875fbdb4488f7d2b13", "is_disabled": 0, "fusion_lon": 0.0, "rental_uris": {"android": "https://dc.lft.to/lastmile_qr_scan", "ios": "https://dc.lft.to/lastmile_qr_scan"}, "lat": 38.88972033333334, "lon": -77.04020633333333, "fusion_lat": 0.0}, {"is_reserved": 0, "bike_id": "82a1a0fe0b5860d292e53a4730d7cc8a", "type": "electric_scooter", "name": "82a1a0fe0b5860d292e53a4730d7cc8a", "is_disabled": 0, "fusion_lon": 0.0, "rental_uris": {"android": "https://dc.lft.to/lastmile_qr_scan", "ios": "https://dc.lft.to/lastmile_qr_scan"}, "lat": 38.9140595, "lon": -77.01019066666667, "fusion_lat": 0.0}, {"is_reserved": 0, "bike_id": "2535bafbbd64cf7f002a4bdeacc012f2", "type": "electric_scooter", "name": "2535bafbbd64cf7f002a4bdeacc012f2", "is_disabled": 0, "fusion_lon": 0.0, "rental_uris": {"android": "https://dc.lft.to/lastmile_qr_scan", "ios": "https://dc.lft.to/lastmile_qr_scan"}, "lat": 38.885288, "lon": -76.99712716666667, "fusion_lat": 0.0}, {"is_reserved": 0, "bike_id": "83a3866037112dba888fe97eba3f9b7b", "type": "electric_scooter", "name": "83a3866037112dba888fe97eba3f9b7b", "is_disabled": 0, "fusion_lon": 0.0, "rental_uris": {"android": "https://dc.lft.to/lastmile_qr_scan", "ios": "https://dc.lft.to/lastmile_qr_scan"}, "lat": 38.903486, "lon": -76.92944566666667, "fusion_lat": 0.0}, {"is_reserved": 0, "bike_id": "8d0e56dc15014f325bb38f018c8fe070", "type": "electric_scooter", "name": "8d0e56dc15014f325bb38f018c8fe070", "is_disabled": 0, "fusion_lon": 0.0, "rental_uris": {"android": "https://dc.lft.to/lastmile_qr_scan", "ios": "https://dc.lft.to/lastmile_qr_scan"}, "lat": 38.909831833333335, "lon": -77.0660275, "fusion_lat": 0.0}, {"is_reserved": 0, "bike_id": "7b917ef15d393fe32947efa23a7efa82", "type": "electric_scooter", "name": "7b917ef15d393fe32947efa23a7efa82", "is_disabled": 0, "fusion_lon": 0.0, "rental_uris": {"android": "https://dc.lft.to/lastmile_qr_scan", "ios": "https://dc.lft.to/lastmile_qr_scan"}, "lat": 38.91055716666666, "lon": -77.05291233333334, "fusion_lat": 0.0}, {"is_reserved": 0, "bike_id": "ccfc196aa3dc6cada5a2c190dd6c8227", "type": "electric_scooter", "name": "ccfc196aa3dc6cada5a2c190dd6c8227", "is_disabled": 0, "fusion_lon": 0.0, "rental_uris": {"android": "https://dc.lft.to/lastmile_qr_scan", "ios": "https://dc.lft.to/lastmile_qr_scan"}, "lat": 38.90184816666667, "lon": -77.043334, "fusion_lat": 0.0}, {"is_reserved": 0, "bike_id": "f2c6d4a05a2759d0ecf2ca4c5765e248", "type": "electric_scooter", "name": "f2c6d4a05a2759d0ecf2ca4c5765e248", "is_disabled": 0, "fusion_lon": 0.0, "rental_uris": {"android": "https://dc.lft.to/lastmile_qr_scan", "ios": "https://dc.lft.to/lastmile_qr_scan"}, "lat": 38.911195166666666, "lon": -77.0503715, "fusion_lat": 0.0},