{"data": {"bikes": [{"fusion_lat": 0.0, "name": "fdf9a2fa343905e5750609093a1a3107", "is_disabled": 0, "rental_uris": {"android": "https://dc.lft.to/lastmile_qr_scan", "ios": "https://dc.lft.to/lastmile_qr_scan"}, "fusion_lon": 0.0, "lat": 38.9385115, "bike_id": "fdf9a2fa343905e5750609093a1a3107", "type": "electric_scooter", "is_reserved": 0, "lon": -77.03397733333334}, {"fusion_lat": 0.0, "name": "252341fe123c607deb5cee126dd7e088", "is_disabled": 0, "rental_uris": {"android": "https://dc.lft.to/lastmile_qr_scan", "ios": "https://dc.lft.to/lastmile_qr_scan"}, "fusion_lon": 0.0, "lat": 38.93424733333333, "bike_id": "252341fe123c607deb5cee126dd7e088", "type": "electric_scooter", "is_reserved": 0, "lon": -77.04000766666667}, {"fusion_lat": 0.0, "name": "864833f46fc5c5cab2641d97ddae1291", "is_disabled": 0, "rental_uris": {"android": "https://dc.lft.to/lastmile_qr_scan", "ios": "https://dc.lft.to/lastmile_qr_scan"}, "fusion_lon": 0.0, "lat": 38.92791716666667, "bike_id": "864833f46fc5c5cab2641d97ddae1291", "type": "electric_scooter", "is_reserved": 0, "lon": -77.03146766666667}, {"fusion_lat": 0.0, "name": "1488834425e033fba42578ac63de8b66", "is_disabled": 0, "rental_uris": {"android": "https://dc.lft.to/lastmile_qr_scan", "ios": "https://dc.lft.to/lastmile_qr_scan"}, "fusion_lon": 0.0, "lat": 38.91987366666667, "bike_id": "1488834425e033fba42578ac63de8b66", "type": "electric_scooter", "is_reserved": 0, "lon": -77.02395516666667}, {"fusion_lat": 0.0, "name": "c5cffb24c6cd68558243c1956651f175", "is_disabled": 0, "rental_uris": {"android": "https://dc.lft.to/lastmile_qr_scan", "ios": "https://dc.lft.to/lastmile_qr_scan"}, "fusion_lon": 0.0, "lat": 38.93114216666667, "bike_id": "c5cffb24c6cd68558243c1956651f175", "type": "electric_scooter", "is_reserved": 0, "lon": -77.02137333333333}, {"fusion_lat": 0.0, "name": "0f0fe9cf7808575f3083e050d073e8b7", "is_disabled": 0, "rental_uris": {"android": "https://dc.lft.to/lastmile_qr_scan", "ios": "https://dc.lft.to/lastmile_qr_scan"}, "fusion_lon": 0.0, "lat": 38.93280033333333, "bike_id": "0f0fe9cf7808575f3083e050d073e8b7", "type": "electric_scooter", "is_reserved": 0, "lon": -77.03262}, {"fusion_lat": 0.0, "name": "df3522473dca49cd0270a777428a1efc", "is_disabled": 0, "rental_uris": {"android": "https://dc.lft.to/lastmile_qr_scan", "ios": "https://dc.lft.to/lastmile_qr_scan"}, "fusion_lon": 0.0, "lat": 38.90256216666667, "bike_id": "df3522473dca49cd0270a777428a1efc", "type": "electric_scooter", "is_reserved": 0, "lon": -77.019981}, {"fusion_lat": 0.0, "name": "4aba75e1341764289180dd31c7020b8d", "is_disabled": 0, "rental_uris": {"android": "https://dc.lft.to/lastmile_qr_scan", "ios": "https://dc.lft.to/lastmile_qr_scan"}, "fusion_lon": 0.0, "lat": 38.9734065, "bike_id": "4aba75e1341764289180dd31c7020b8d", "type": "electric_bike", "is_reserved": 0, "lon": -77.01796433333334}, {"fusion_lat": 0.0, "name": "03d13b164943c93167f48b7c5c3203d6", "is_disabled": 0, "rental_uris": {"android": "https://dc.lft.to/lastmile_qr_scan", "ios": "https://dc.lft.to/lastmile_qr_scan"}, "fusion_lon": 0.0, "lat": 38.9229765, "bike_id": "03d13b164943c93167f48b7c5c3203d6", "type": "electric_scooter", "is_reserved": 0, "lon": -77.04204216666666}, {"fusion_lat": 0.0, "name": "11964dec737beeda5974821360f74b63", "is_disabled": 0, "rental_uris": {"android": "https://dc.lft.to/lastmile_qr_scan", "ios": "https://dc.lft.to/lastmile_qr_scan"}, "fusion_lon": 0.0, "lat": 38.92053416666667, "bike_id": "11964dec737beeda5974821360f74b63", "type": "electric_scooter", "is_reserved": 0, "lon": -77.02371933333333}, {"fusion_lat": 0.0, "name": "9c500b5e73dd042329a5e854d4e460ff", "is_disabled": 0, "rental_uris": {"android": "https://dc.lft.to/lastmile_qr_scan", "ios": "https://dc.lft.to/lastmile_qr_scan"}, "fusion_lon": 0.0, "lat": 38.88990916666667, "bike_id": "9c500b5e73dd042329a5e854d4e460ff", "type": "electric_scooter", "is_reserved": 0, "lon": -76.9823085}, {"fusion_lat": 0.0, "name": "fe380f0dd7d4d9cd300a6eca2f4d5b47", "is_disabled": 0, "rental_uris": {"android": "https://dc.lft.to/lastmile_qr_scan", "ios": "https://dc.lft.to/lastmile_qr_scan"}, "fusion_lon": 0.0, "lat": 38.91131716666666, "bike_id": "fe380f0dd7d4d9cd300a6eca2f4d5b47", "type": "electric_scooter", "is_reserved": 0, "lon": -77.02084383333333}, {"fusion_lat": 0.0, "name": "54825ef7b3650b1bf63b643ce9783b31", "is_disabled": 0, "rental_uris": {"android": "https://dc.lft.to/lastmile_qr_scan", "ios": "https://dc.lft.to/lastmile_qr_scan"}, "fusion_lon": 0.0, "lat": 38.91118316666667, "bike_id": "54825ef7b3650b1bf63b643ce9783b31", "type": "electric_scooter", "is_reserved": 0, "lon": -77.02763516666667}, {"fusion_lat": 0.0, "name": "b19ac7cdcd589cb7e0124ae6502884d1", "is_disabled": 0, "rental_uris": {"android": "https://dc.lft.to/lastmile_qr_scan", "ios": "https://dc.lft.to/lastmile_qr_scan"}, "fusion_lon": 0.0, "lat": 38.909715, "bike_id": "b19ac7cdcd589cb7e0124ae6502884d1", "type": "electric_scooter", "is_reserved": 0, "lon": -77.04469266666666}, {"fusion_lat": 0.0, "name": "88585569ca06de7b529c0046df25af7f", "is_disabled": 0, "rental_uris": {"android": "https://dc.lft.to/lastmile_qr_scan", "ios": "https://dc.lft.to/lastmile_qr_scan"}, "fusion_lon": 0.0, "lat": 38.904152, "bike_id": "88585569ca06de7b529c0046df25af7f", "type": "electric_scooter", "is_reserved": 0, "lon": -77.02515366666667}, {"fusion_lat": 0.0, "name": "f8cf4b02f85d2d33f9aa70cf46ef189d", "is_disabled": 0, "rental_uris": {"android": "https://dc.lft.to/lastmile_qr_scan", "ios": "https://dc.lft.to/lastmile_qr_scan"}, "fusion_lon": 0.0, "lat": 38.96181283333333, "bike_id": "f8cf4b02f85d2d33f9aa70cf46ef189d", "type": "electric_bike", "is_reserved": 0, "lon": -77.05267183333333}, {"fusion_lat": 0.0, "name": "f69dad65ae8fc79281475366ab5979bd", "is_disabled": 0, "rental_uris": {"android": "https://dc.lft.to/lastmile_qr_scan", "ios": "https://dc.lft.to/lastmile_qr_scan"}, "fusion_lon": 0.0, "lat": 38.891160166666666, "bike_id": "f69dad65ae8fc79281475366ab5979bd", "type": "electric_scooter", "is_reserved": 0, "lon": -76.9438095}, {"fusion_lat": 0.0, "name": "616ebf9b99248f7b1b4e96247a8d2961", "is_disabled": 0, "rental_uris": {"android": "https://dc.lft.to/lastmile_qr_scan", "ios": "https://dc.lft.to/lastmile_qr_scan"}, "fusion_lon": 0.0, "lat": 38.96987933333333, "bike_id": "616ebf9b99248f7b1b4e96247a8d2961", "type": "electric_scooter", "is_reserved": 0, "lon": -77.01163666666666}, {"fusion_lat": 0.0, "name": "84c879d72e8bd5b63f94d19923f04631", "is_disabled": 0, "rental_uris": {"android": "https://dc.lft.to/lastmile_qr_scan", "ios": "https://dc.lft.to/lastmile_qr_scan"}, "fusion_lon": 0.0, "lat": 38.9038775, "bike_id": "84c879d72e8bd5b63f94d19923f04631", "type": "electric_scooter", "is_reserved": 0, "lon": -77.018638}, {"fusion_lat": 0.0, "name": "79b99fe41f43bd679446a0b792d45a47", "is_disabled": 0, "rental_uris": {"android": "https://dc.lft.to/lastmile_qr_scan", "ios": "https://dc.lft.to/lastmile_qr_scan"}, "fusion_lon": 0.0, "lat": 38.973764333333335, "bike_id": "79b99fe41f43bd679446a0b792d45a47", "type": "electric_scooter", "is_reserved": 0, "lon": -77.01285116666666}, {"fusion_lat": 0.0, "name": "6acdee358c69bb3c4f5cf182fdbad5e8", "is_disabled": 0, "rental_uris": {"android": "https://dc.lft.to/lastmile_qr_scan", "ios": "https://dc.lft.to/lastmile_qr_scan"}, "fusion_lon": 0.0, "lat": 38.90865316666667, "bike_id": "6acdee358c69bb3c4f5cf182fdbad5e8", "type": "electric_scooter", "is_reserved": 0, "lon": -77.04282416666666}, {"fusion_lat": 0.0, "name": "4c1203b82117ed311127b14cb1cac84f", "is_disabled": 0, "rental_uris": {"android": "https://dc.lft.to/lastmile_qr_scan", "ios": "https://dc.lft.to/lastmile_qr_scan"}, "fusion_lon": 0.0, "lat": 38.93058416666667, "bike_id": "4c1203b82117ed311127b14cb1cac84f", "type": "electric_scooter", "is_reserved": 0, "lon": -77.040551}, {"fusion_lat": 0.0, "name": "a36181adb197eeb3a10f7f3cf5091d38", "is_disabled": 0, "rental_uris": {"android": "https://dc.lft.to/lastmile_qr_scan", "ios": "https://dc.lft.to/lastmile_qr_scan"}, "fusion_lon": 0.0, "lat": 38.90044133333333, "bike_id": "a36181adb197eeb3a10f7f3cf5091d38", "type": "electric_scooter", "is_reserved": 0, "lon": -77.03664933333333}, {"fusion_lat": 0.0, "name": "f37f3bf895038531e593e37056246e4b", "is_disabled": 0, "rental_uris": {"android": "https://dc.lft.to/lastmile_qr_scan", "ios": "https://dc.lft.to/lastmile_qr_scan"}, "fusion_lon": 0.0, "lat": 38.90743616666666, "bike_id": "f37f3bf895038531e593e37056246e4b", "type": "electric_scooter", "is_reserved": 0, "lon": -77.03765433333334}, {"fusion_lat": 0.0, "name": "824a64d6e67a0ed65d3e47f54f91d8a3", "is_disabled": 0, "rental_uris": {"android": "https://dc.lft.to/lastmile_qr_scan", "ios": "https://dc.lft.to/lastmile_qr_scan"}, "fusion_lon": 0.0, "lat": 38.89752416666666, "bike_id": "824a64d6e67a0ed65d3e47f54f91d8a3", "type": "electric_scooter", "is_reserved": 0, "lon": -77.04370166666666}, {"fusion_lat": 0.0, "name": "3f65866f561469a2a7489e353e7f3b33", "is_disabled": 0, "rental_uris": {"android": "https://dc.lft.to/lastmile_qr_scan", "ios": "https://dc.lft.to/lastmile_qr_scan"}, "fusion_lon": 0.0, "lat": 38.904523833333336, "bike_id": "3f65866f561469a2a7489e353e7f3b33", "type": "electric_bike", "is_reserved": 0, "lon": -76.97427016666667}, {"fusion_lat": 0.0, "name": "94a989fb21e6e3fb6ceb3d2b8a6296db", "is_disabled": 0, "rental_uris": {"android": "https://dc.lft.to/lastmile_qr_scan", "ios": "https://dc.lft.to/lastmile_qr_scan"}, "fusion_lon": 0.0, "lat": 38.902181666666664, "bike_id": "94a989fb21e6e3fb6ceb3d2b8a6296db", "type": "electric_scooter", "is_reserved": 0, "lon": -77.02363483333333}, {"fusion_lat": 0.0, "name": "026a03199c0ae7c136b7379407708728", "is_disabled": 0, "rental_uris": {"android": "https://dc.lft.to/lastmile_qr_scan", "ios": "https://dc.lft.to/lastmile_qr_scan"}, "fusion_lon": 0.0, "lat": 38.855631333333335, "bike_id": "026a03199c0ae7c136b7379407708728", "type": "electric_bike", "is_reserved": 0, "lon": -77.11317666666666}, {"fusion_lat": 0.0, "name": "47712cb311fdf85adaac0d8907da1c52", "is_disabled": 0, "rental_uris": {"android": "https://dc.lft.to/lastmile_qr_scan", "ios": "https://dc.lft.to/lastmile_qr_scan"}, "fusion_lon": 0.0, "lat": 38.9055915, "bike_id": "47712cb311fdf85adaac0d8907da1c52", "type": "electric_scooter", "is_reserved": 0, "lon": -77.04362083333334}, {"fusion_lat": 0.0, "name": "c59a12c586720a3fc6bf7643769a379f", "is_disabled": 0, "rental_uris": {"android": "https://dc.lft.to/lastmile_qr_scan", "ios": "https://dc.lft.to/lastmile_qr_scan"}, "fusion_lon": 0.0, "lat": 38.898476, "bike_id": "c59a12c586720a3fc6bf7643769a379f", "type": "electric_scooter", "is_reserved": 0, "lon": -76.93181216666666}, {"fusion_lat": 0.0, "name": "09817753a238722aa6f7e126a1dd178b", "is_disabled": 0, "rental_uris": {"android": "https://dc.lft.to/lastmile_qr_scan", "ios": "https://dc.lft.to/lastmile_qr_scan"}, "fusion_lon": 0.0, "lat": 38.9112525, "bike_id": "09817753a238722aa6f7e126a1dd178b", "type": "electric_scooter", "is_reserved": 0, "lon": -77.0219495}, {"fusion_lat": 0.0, "name": "2974ca21605ab47a4367cf29ec8f123f", "is_disabled": 0, "rental_uris": {"android": "https://dc.lft.to/lastmile_qr_scan", "ios": "https://dc.lft.to/lastmile_qr_scan"}, "fusion_lon": 0.0, "lat": 38.8405385, "bike_id": "2974ca21605ab47a4367cf29ec8f123f", "type": "electric_scooter", "is_reserved": 0, "lon": -76.97667566666667}, {"fusion_lat": 0.0, "name": "ada2ce30bdab3f6df961fe37426be68e", "is_disabled": 0, "rental_uris": {"android": "https://dc.lft.to/lastmile_qr_scan", "ios": "https://dc.lft.to/lastmile_qr_scan"}, "fusion_lon": 0.0, "lat": 38.8973055, "bike_id": "ada2ce30bdab3f6df961fe37426be68e", "type": "electric_scooter", "is_reserved": 0, "lon": -76.94702733333334}, {"fusion_lat": 0.0, "name": "d3b16aac848385f26aec38aafe08fe56", "is_disabled": 0, "rental_uris": {"android": "https://dc.lft.to/lastmile_qr_scan", "ios": "https://dc.lft.to/lastmile_qr_scan"}, "fusion_lon": 0.0, "lat": 38.903794, "bike_id": "d3b16aac848385f26aec38aafe08fe56", "type": "electric_scooter", "is_reserved": 0, "lon": -77.03440416666666}, {"fusion_lat": 0.0, "name": "73856318c4212b9f347691ca6462eb9c", "is_disabled": 0, "rental_uris": {"android": "https://dc.lft.to/lastmile_qr_scan", "ios": "https://dc.lft.to/lastmile_qr_scan"}, "fusion_lon": 0.0, "lat": 38.925033666666664, "bike_id": "73856318c4212b9f347691ca6462eb9c", "type": "electric_scooter", "is_reserved": 0, "lon": -77.02166116666666}, {"fusion_lat": 0.0, "name": "48464d047584608a33a22374769a7c64", "is_disabled": 0, "rental_uris": {"android": "https://dc.lft.to/lastmile_qr_scan", "ios": "https://dc.lft.to/lastmile_qr_scan"}, "fusion_lon": 0.0, "lat": 38.913201666666666, "bike_id": "48464d047584608a33a22374769a7c64", "type": "electric_scooter", "is_reserved": 0, "lon": -77.02148833333334}, {"fusion_lat": 0.0, "name": "02d8a365556ba43dfebbedd6d3c04956", "is_disabled": 0, "rental_uris": {"android": "https://dc.lft.to/lastmile_qr_scan", "ios": "https://dc.lft.to/lastmile_qr_scan"}, "fusion_lon": 0.0, "lat": 38.8972155, "bike_id": "02d8a365556ba43dfebbedd6d3c04956", "type": "electric_scooter", "is_reserved": 0, "lon": -77.02615833333333}, {"fusion_lat": 0.0, "name": "38eeb38ec9df71012122ce4596ee81a1", "is_disabled": 0, "rental_uris": {"android": "https://dc.lft.to/lastmile_qr_scan", "ios": "https://dc.lft.to/lastmile_qr_scan"}, "fusion_lon": 0.0, "lat": 38.883200333333335, "bike_id": "38eeb38ec9df71012122ce4596ee81a1", "type": "electric_scooter", "is_reserved": 0, "lon": -77.01676483333334}, {"fusion_lat": 0.0, "name": "11f1cc7b81586356fb26fff741a1fc46", "is_disabled": 0, "rental_uris": {"android": "https://dc.lft.to/lastmile_qr_scan", "ios": "https://dc.lft.to/lastmile_qr_scan"}, "fusion_lon": 0.0, "lat": 38.908600166666666, "bike_id": "11f1cc7b81586356fb26fff741a1fc46", "type": "electric_scooter", "is_reserved": 0, "lon": -76.9996795}, {"fusion_lat": 0.0, "name": "daa87325d1c542edc81b62ca35426c93", "is_disabled": 0, "rental_uris": {"android": "https://dc.lft.to/lastmile_qr_scan", "ios": "https://dc.lft.to/lastmile_qr_scan"}, "fusion_lon": 0.0, "lat": 38.92327916666667, "bike_id": "daa87325d1c542edc81b62ca35426c93", "type": "electric_scooter", "is_reserved": 0, "lon": -77.04302416666667}, {"fusion_lat": 0.0, "name": "f0f7d669b6fddbfb8ad14355c898d462", "is_disabled": 0, "rental_uris": {"android": "https://dc.lft.to/lastmile_qr_scan", "ios": "https://dc.lft.to/lastmile_qr_scan"}, "fusion_lon": 0.0, "lat": 38.89017066666667, "bike_id": "f0f7d669b6fddbfb8ad14355c898d462", "type": "electric_scooter", "is_reserved": 0, "lon": -76.93728683333333}, {"fusion_lat": 0.0, "name": "25c2d2d5a0b9359174ef47a4f93a1a09", "is_disabled": 0, "rental_uris": {"android": "https://dc.lft.to/lastmile_qr_scan", "ios": "https://dc.lft.to/lastmile_qr_scan"}, "fusion_lon": 0.0, "lat": 38.884925333333335, "bike_id": "25c2d2d5a0b9359174ef47a4f93a1a09", "type": "electric_scooter", "is_reserved": 0, "lon": -77.0108475}, {"fusion_lat": 0.0, "name": "8f91dc8eb2a532c0458e188bd3a5a0fe", "is_disabled": 0, "rental_uris": {"android": "https://dc.lft.to/lastmile_qr_scan", "ios": "https://dc.lft.to/lastmile_qr_scan"}, "fusion_lon": 0.0, "lat": 38.899723, "bike_id": "8f91dc8eb2a532c0458e188bd3a5a0fe", "type": "electric_scooter", "is_reserved": 0, "lon": -77.04052016666667}, {"fusion_lat": 0.0, "name": "86548a8c30395cf645e8bf49cf008754", "is_disabled": 0, "rental_uris": {"android": "https://dc.lft.to/lastmile_qr_scan", "ios": "https://dc.lft.to/lastmile_qr_scan"}, "fusion_lon": 0.0, "lat": 38.92380583333333, "bike_id": "86548a8c30395cf645e8bf49cf008754", "type": "electric_scooter", "is_reserved": 0, "lon": -77.075341}, {"fusion_lat": 0.0, "name": "7c256150a1bdf48961f476d01bcf4d07", "is_disabled": 0, "rental_uris": {"android": "https://dc.lft.to/lastmile_qr_scan", "ios": "https://dc.lft.to/lastmile_qr_scan"}, "fusion_lon": 0.0, "lat": 38.902503333333335, "bike_id": "7c256150a1bdf48961f476d01bcf4d07", "type": "electric_scooter", "is_reserved": 0, "lon": -77.02618616666666}, {"fusion_lat": 0.0, "name": "fdd9f96f834f656e0990cce0bddad86f", "is_disabled": 0, "rental_uris": {"android": "https://dc.lft.to/lastmile_qr_scan", "ios": "https://dc.lft.to/lastmile_qr_scan"}, "fusion_lon": 0.0, "lat": 38.92128066666667, "bike_id": "fdd9f96f834f656e0990cce0bddad86f", "type": "electric_scooter", "is_reserved": 0, "lon": -77.0442895}, {"fusion_lat": 0.0, "name": "8c51999ce944a72129edab6ec3718b60", "is_disabled": 0, "rental_uris": {"android": "https://dc.lft.to/lastmile_qr_scan", "ios": "https://dc.lft.to/lastmile_qr_scan"}, "fusion_lon": 0.0, "lat": 38.91804416666667, "bike_id": "8c51999ce944a72129edab6ec3718b60", "type": "electric_scooter", "is_reserved": 0, "lon": -77.036625}, {"fusion_lat": 0.0, "name": "661735817d05b88a29a5cfaec93b9ba1", "is_disabled": 0, "rental_uris": {"android": "https://dc.lft.to/lastmile_qr_scan", "ios": "https://dc.lft.to/lastmile_qr_scan"}, "fusion_lon": 0.0, "lat": 38.90413316666667, "bike_id": "661735817d05b88a29a5cfaec93b9ba1", "type": "electric_scooter", "is_reserved": 0, "lon": -77.02389533333333}, {"fusion_lat": 0.0, "name": "1846d35671c06a7ff94a1a54bae81b05", "is_disabled": 0, "rental_uris": {"android": "https://dc.lft.to/lastmile_qr_scan", "ios": "https://dc.lft.to/lastmile_qr_scan"}, "fusion_lon": 0.0, "lat": 38.90030333333333, "bike_id": "1846d35671c06a7ff94a1a54bae81b05", "type": "electric_scooter", "is_reserved": 0, "lon": -77.01211683333334}, {"fusion_lat": 0.0, "name": "f6459180161b4601bb2779c0c0df89b5", "is_disabled": 0, "rental_uris": {"android": "https://dc.lft.to/lastmile_qr_scan", "ios": "https://dc.lft.to/lastmile_qr_scan"}, "fusion_lon": 0.0, "lat": 38.845856166666664, "bike_id": "f6459180161b4601bb2779c0c0df89b5", "type": "electric_bike", "is_reserved": 0, "lon": -76.9816675}, {"fusion_lat": 0.0, "name": "83d75514dfaa04f541ec9cc7e5e28043", "is_disabled": 0, "rental_uris": {"android": "https://dc.lft.to/lastmile_qr_scan", "ios": "https://dc.lft.to/lastmile_qr_scan"}, "fusion_lon": 0.0, "lat": 38.927380666666664, "bike_id": "83d75514dfaa04f541ec9cc7e5e28043", "type": "electric_scooter", "is_reserved": 0, "lon": -77.0335785}, {"fusion_lat": 0.0, "name": "f04e8511f2bb3129a0637bb456817219", "is_disabled": 0, "rental_uris": {"android": "https://dc.lft.to/lastmile_qr_scan", "ios": "https://dc.lft.to/lastmile_qr_scan"}, "fusion_lon": 0.0, "lat": 38.93512333333334, "bike_id": "f04e8511f2bb3129a0637bb456817219", "type": "electric_scooter", "is_reserved": 0, "lon": -77.0334855}, {"fusion_lat": 0.0, "name": "1d6b7fa92c7a8492940b0ded188c4be2", "is_disabled": 0, "rental_uris": {"android": "https://dc.lft.to/lastmile_qr_scan", "ios": "https://dc.lft.to/lastmile_qr_scan"}, "fusion_lon": 0.0, "lat": 38.93190083333333, "bike_id": "1d6b7fa92c7a8492940b0ded188c4be2", "type": "electric_bike", "is_reserved": 0, "lon": -77.22929416666666}, {"fusion_lat": 0.0, "name": "d2d752c6d83113f428961fae2a8580c9", "is_disabled": 0, "rental_uris": {"android": "https://dc.lft.to/lastmile_qr_scan", "ios": "https://dc.lft.to/lastmile_qr_scan"}, "fusion_lon": 0.0, "lat": 38.87879133333333, "bike_id": "d2d752c6d83113f428961fae2a8580c9", "type": "electric_scooter", "is_reserved": 0, "lon": -77.0231685}, {"fusion_lat": 0.0, "name": "1d7e930a6b9c093a280b14a1a934fda8", "is_disabled": 0, "rental_uris": {"android": "https://dc.lft.to/lastmile_qr_scan", "ios": "https://dc.lft.to/lastmile_qr_scan"}, "fusion_lon": 0.0, "lat": 38.924819, "bike_id": "1d7e930a6b9c093a280b14a1a934fda8", "type": "electric_scooter", "is_reserved": 0, "lon": -77.02636966666667}, {"fusion_lat": 0.0, "name": "fd81732ed47eed92a7a5ec91cc488b0d", "is_disabled": 0, "rental_uris": {"android": "https://dc.lft.to/lastmile_qr_scan", "ios": "https://dc.lft.to/lastmile_qr_scan"}, "fusion_lon": 0.0, "lat": 38.92862266666667, "bike_id": "fd81732ed47eed92a7a5ec91cc488b0d", "type": "electric_scooter", "is_reserved": 0, "lon": -77.03358883333334}, {"fusion_lat": 0.0, "name": "4020f0e38c2b88e68a55a87612f68ee5", "is_disabled": 0, "rental_uris": {"android": "https://dc.lft.to/lastmile_qr_scan", "ios": "https://dc.lft.to/lastmile_qr_scan"}, "fusion_lon": 0.0, "lat": 38.91416366666667, "bike_id": "4020f0e38c2b88e68a55a87612f68ee5", "type": "electric_scooter", "is_reserved": 0, "lon": -77.03999233333333}, {"fusion_lat": 0.0, "name": "99a57ab27c1e3c613d5d26e4fb40b781", "is_disabled": 0, "rental_uris": {"android": "https://dc.lft.to/lastmile_qr_scan", "ios": "https://dc.lft.to/lastmile_qr_scan"}, "fusion_lon": 0.0, "lat": 38.922426333333334, "bike_id": "99a57ab27c1e3c613d5d26e4fb40b781", "type": "electric_scooter", "is_reserved": 0, "lon": -77.074766}, {"fusion_lat": 0.0, "name": "18acab037e47b3544d57bb19a3c4ac44", "is_disabled": 0, "rental_uris": {"android": "https://dc.lft.to/lastmile_qr_scan", "ios": "https://dc.lft.to/lastmile_qr_scan"}, "fusion_lon": 0.0, "lat": 38.9280405, "bike_id": "18acab037e47b3544d57bb19a3c4ac44", "type": "electric_scooter", "is_reserved": 0, "lon": -77.05381366666667}, {"fusion_lat": 0.0, "name": "1c19676175cfb993078adb716603f889", "is_disabled": 0, "rental_uris": {"android": "https://dc.lft.to/lastmile_qr_scan", "ios": "https://dc.lft.to/lastmile_qr_scan"}, "fusion_lon": 0.0, "lat": 38.91931183333333, "bike_id": "1c19676175cfb993078adb716603f889", "type": "electric_scooter", "is_reserved": 0, "lon": -77.07068533333333}, {"fusion_lat": 0.0, "name": "730c811d2f8200c557a6048aff9b0e3b", "is_disabled": 0, "rental_uris": {"android": "https://dc.lft.to/lastmile_qr_scan", "ios": "https://dc.lft.to/lastmile_qr_scan"}, "fusion_lon": 0.0, "lat": 38.9002885, "bike_id": "730c811d2f8200c557a6048aff9b0e3b", "type": "electric_scooter", "is_reserved": 0, "lon": -76.9985075}, {"fusion_lat": 0.0, "name": "46a403d84274acdd6428155638e9f0b7", "is_disabled": 0, "rental_uris": {"android": "https://dc.lft.to/lastmile_qr_scan", "ios": "https://dc.lft.to/lastmile_qr_scan"}, "fusion_lon": 0.0, "lat": 38.910178333333334, "bike_id": "46a403d84274acdd6428155638e9f0b7", "type": "electric_scooter", "is_reserved": 0, "lon": -77.00919166666667}, {"fusion_lat": 0.0, "name": "22734e99052912cbd49ce2e5b4f6b5d1", "is_disabled": 0, "rental_uris": {"android": "https://dc.lft.to/lastmile_qr_scan", "ios": "https://dc.lft.to/lastmile_qr_scan"}, "fusion_lon": 0.0, "lat": 38.80292883333333, "bike_id": "22734e99052912cbd49ce2e5b4f6b5d1", "type": "electric_bike", "is_reserved": 0, "lon": -77.05935716666667}, {"fusion_lat": 0.0, "name": "17868aaedd653a13176a75f84c4ecd3e", "is_disabled": 0, "rental_uris": {"android": "https://dc.lft.to/lastmile_qr_scan", "ios": "https://dc.lft.to/lastmile_qr_scan"}, "fusion_lon": 0.0, "lat": 38.903917666666665, "bike_id": "17868aaedd653a13176a75f84c4ecd3e", "type": "electric_scooter", "is_reserved": 0, "lon": -77.04206483333333}, {"fusion_lat": 0.0, "name": "f656adf9f1973b55b6793526669abcd1", "is_disabled": 0, "rental_uris": {"android": "https://dc.lft.to/lastmile_qr_scan", "ios": "https://dc.lft.to/lastmile_qr_scan"}, "fusion_lon": 0.0, "lat": 38.914035166666665, "bike_id": "f656adf9f1973b55b6793526669abcd1", "type": "electric_scooter", "is_reserved": 0, "lon": -77.03220783333333}, {"fusion_lat": 0.0, "name": "1187bd2990f90dbd0e3d59270a12db4b", "is_disabled": 0, "rental_uris": {"android": "https://dc.lft.to/lastmile_qr_scan", "ios": "https://dc.lft.to/lastmile_qr_scan"}, "fusion_lon": 0.0, "lat": 38.905021833333336, "bike_id": "1187bd2990f90dbd0e3d59270a12db4b", "type": "electric_scooter", "is_reserved": 0, "lon": -77.02949333333333}, {"fusion_lat": 0.0, "name": "b025edb71718cdd3e5a53b7a0f2bf81a", "is_disabled": 0, "rental_uris": {"android": "https://dc.lft.to/lastmile_qr_scan", "ios": "https://dc.lft.to/lastmile_qr_scan"}, "fusion_lon": 0.0, "lat": 38.90611033333333, "bike_id": "b025edb71718cdd3e5a53b7a0f2bf81a", "type": "electric_scooter", "is_reserved": 0, "lon": -77.02411583333334}, {"fusion_lat": 0.0, "name": "31ea5abda136297b78e977ffbdec44e5", "is_disabled": 0, "rental_uris": {"android": "https://dc.lft.to/lastmile_qr_scan", "ios": "https://dc.lft.to/lastmile_qr_scan"}, "fusion_lon": 0.0, "lat": 38.89683516666667, "bike_id": "31ea5abda136297b78e977ffbdec44e5", "type": "electric_scooter", "is_reserved": 0, "lon": -76.937129}, {"fusion_lat": 0.0, "name": "a5bd2752b40c9359d060a7db18b9edff", "is_disabled": 0, "rental_uris": {"android": "https://dc.lft.to/lastmile_qr_scan", "ios": "https://dc.lft.to/lastmile_qr_scan"}, "fusion_lon": 0.0, "lat": 38.885611, "bike_id": "a5bd2752b40c9359d060a7db18b9edff", "type": "electric_scooter", "is_reserved": 0, "lon": -77.01137133333333}, {"fusion_lat": 0.0, "name": "4e2d97def64ca25b3992ce0918d85a17", "is_disabled": 0, "rental_uris": {"android": "https://dc.lft.to/lastmile_qr_scan", "ios": "https://dc.lft.to/lastmile_qr_scan"}, "fusion_lon": 0.0, "lat": 38.908609166666665, "bike_id": "4e2d97def64ca25b3992ce0918d85a17", "type": "electric_scooter", "is_reserved": 0, "lon": -77.02430916666667}, {"fusion_lat": 0.0, "name": "12b69d30d5a0561006cb0d298aa27e01", "is_disabled": 0, "rental_uris": {"android": "https://dc.lft.to/lastmile_qr_scan", "ios": "https://dc.lft.to/lastmile_qr_scan"}, "fusion_lon": 0.0, "lat": 38.8766485, "bike_id": "12b69d30d5a0561006cb0d298aa27e01", "type": "electric_scooter", "is_reserved": 0, "lon": -77.01761733333333}, {"fusion_lat": 0.0, "name": "bdf00a56a62668d6c77ac5b3f1b22ffa", "is_disabled": 0, "rental_uris": {"android": "https://dc.lft.to/lastmile_qr_scan", "ios": "https://dc.lft.to/lastmile_qr_scan"}, "fusion_lon": 0.0, "lat": 38.907664, "bike_id": "bdf00a56a62668d6c77ac5b3f1b22ffa", "type": "electric_scooter", "is_reserved": 0, "lon": -77.0320605}, {"fusion_lat": 0.0, "name": "48d8e4314ff448131ec800dfeb9cafb3", "is_disabled": 0, "rental_uris": {"android": "https://dc.lft.to/lastmile_qr_scan", "ios": "https://dc.lft.to/lastmile_qr_scan"}, "fusion_lon": 0.0, "lat": 38.919447166666664, "bike_id": "48d8e4314ff448131ec800dfeb9cafb3", "type": "electric_scooter", "is_reserved": 0, "lon": -77.0178665}, {"fusion_lat": 0.0, "name": "218403ba24725d95571f2a8a78feeb99", "is_disabled": 0, "rental_uris": {"android": "https://dc.lft.to/lastmile_qr_scan", "ios": "https://dc.lft.to/lastmile_qr_scan"}, "fusion_lon": 0.0, "lat": 38.93672483333334, "bike_id": "218403ba24725d95571f2a8a78feeb99", "type": "electric_scooter", "is_reserved": 0, "lon": -77.03597983333333}, {"fusion_lat": 0.0, "name": "955948cb95114a98528d6a7b6681e2c4", "is_disabled": 0, "rental_uris": {"android": "https://dc.lft.to/lastmile_qr_scan", "ios": "https://dc.lft.to/lastmile_qr_scan"}, "fusion_lon": 0.0, "lat": 38.900301166666665, "bike_id": "955948cb95114a98528d6a7b6681e2c4", "type": "electric_scooter", "is_reserved": 0, "lon": -77.00202916666667}, {"fusion_lat": 0.0, "name": "6222354a98efbc03f7636cdac648dd12", "is_disabled": 0, "rental_uris": {"android": "https://dc.lft.to/lastmile_qr_scan", "ios": "https://dc.lft.to/lastmile_qr_scan"}, "fusion_lon": 0.0, "lat": 38.9038295, "bike_id": "6222354a98efbc03f7636cdac648dd12", "type": "electric_scooter", "is_reserved": 0, "lon": -77.04607616666667}, {"fusion_lat": 0.0, "name": "392eaa9738d9805a869e5768e1976ba3", "is_disabled": 0, "rental_uris": {"android": "https://dc.lft.to/lastmile_qr_scan", "ios": "https://dc.lft.to/lastmile_qr_scan"}, "fusion_lon": 0.0, "lat": 38.921164, "bike_id": "392eaa9738d9805a869e5768e1976ba3", "type": "electric_scooter", "is_reserved": 0, "lon": -77.01211366666666}, {"fusion_lat": 0.0, "name": "bb880272b32a2566d9a69572ab626abc", "is_disabled": 0, "rental_uris": {"android": "https://dc.lft.to/lastmile_qr_scan", "ios": "https://dc.lft.to/lastmile_qr_scan"}, "fusion_lon": 0.0, "lat": 38.92745466666667, "bike_id": "bb880272b32a2566d9a69572ab626abc", "type": "electric_scooter", "is_reserved": 0, "lon": -77.0216655}, {"fusion_lat": 0.0, "name": "d9e49ace0a64417aea51723cd573476f", "is_disabled": 0, "rental_uris": {"android": "https://dc.lft.to/lastmile_qr_scan", "ios": "https://dc.lft.to/lastmile_qr_scan"}, "fusion_lon": 0.0, "lat": 38.91413133333333, "bike_id": "d9e49ace0a64417aea51723cd573476f", "type": "electric_scooter", "is_reserved": 0, "lon": -77.03173866666667}, {"fusion_lat": 0.0, "name": "d374b92e0abcfae9cc035656c8780f3f", "is_disabled": 0, "rental_uris": {"android": "https://dc.lft.to/lastmile_qr_scan", "ios": "https://dc.lft.to/lastmile_qr_scan"}, "fusion_lon": 0.0, "lat": 38.8817785, "bike_id": "d374b92e0abcfae9cc035656c8780f3f", "type": "electric_scooter", "is_reserved": 0, "lon": -77.02807466666667}, {"fusion_lat": 0.0, "name": "df6f3bcf840a957319500a8eb445c8cb", "is_disabled": 0, "rental_uris": {"android": "https://dc.lft.to/lastmile_qr_scan", "ios": "https://dc.lft.to/lastmile_qr_scan"}, "fusion_lon": 0.0, "lat": 38.87964133333333, "bike_id": "df6f3bcf840a957319500a8eb445c8cb", "type": "electric_bike", "is_reserved": 0, "lon": -76.91613266666667}, {"fusion_lat": 0.0, "name": "28a0c5bc245471382e15c0c1bcbb16d7", "is_disabled": 0, "rental_uris": {"android": "https://dc.lft.to/lastmile_qr_scan", "ios": "https://dc.lft.to/lastmile_qr_scan"}, "fusion_lon": 0.0, "lat": 38.900143666666665, "bike_id": "28a0c5bc245471382e15c0c1bcbb16d7", "type": "electric_scooter", "is_reserved": 0, "lon": -77.00013416666667}, {"fusion_lat": 0.0, "name": "96eb42d13146ee9dc076bbf2a5e3da6f", "is_disabled": 0, "rental_uris": {"android": "https://dc.lft.to/lastmile_qr_scan", "ios": "https://dc.lft.to/lastmile_qr_scan"}, "fusion_lon": 0.0, "lat": 38.91561433333333, "bike_id": "96eb42d13146ee9dc076bbf2a5e3da6f", "type": "electric_scooter", "is_reserved": 0, "lon": -77.03150066666667}, {"fusion_lat": 0.0, "name": "7c69f94f35bf09d516d2d6524ccb87e1", "is_disabled": 0, "rental_uris": {"android": "https://dc.lft.to/lastmile_qr_scan", "ios": "https://dc.lft.to/lastmile_qr_scan"}, "fusion_lon": 0.0, "lat": 38.92425083333333, "bike_id": "7c69f94f35bf09d516d2d6524ccb87e1", "type": "electric_scooter", "is_reserved": 0, "lon": -77.019561}, {"fusion_lat": 0.0, "name": "87781f5b922e7f50eb9bbebae6b84c82", "is_disabled": 0, "rental_uris": {"android": "https://dc.lft.to/lastmile_qr_scan", "ios": "https://dc.lft.to/lastmile_qr_scan"}, "fusion_lon": 0.0, "lat": 38.93005733333333, "bike_id": "87781f5b922e7f50eb9bbebae6b84c82", "type": "electric_scooter", "is_reserved": 0, "lon": -77.02083216666666}, {"fusion_lat": 0.0, "name": "74559f44e25ca4d1c581393bbfeb6a15", "is_disabled": 0, "rental_uris": {"android": "https://dc.lft.to/lastmile_qr_scan", "ios": "https://dc.lft.to/lastmile_qr_scan"}, "fusion_lon": 0.0, "lat": 38.9257905, "bike_id": "74559f44e25ca4d1c581393bbfeb6a15", "type": "electric_scooter", "is_reserved": 0, "lon": -77.05253583333334}, {"fusion_lat": 0.0, "name": "ba6c5c8cf875e54658224f5a98969412", "is_disabled": 0, "rental_uris": {"android": "https://dc.lft.to/lastmile_qr_scan", "ios": "https://dc.lft.to/lastmile_qr_scan"}, "fusion_lon": 0.0, "lat": 38.913197833333335, "bike_id": "ba6c5c8cf875e54658224f5a98969412", "type": "electric_scooter", "is_reserved": 0, "lon": -77.02148483333333}, {"fusion_lat": 0.0, "name": "f6ac0098e2f3fbe38c5345f20115fdaa", "is_disabled": 0, "rental_uris": {"android": "https://dc.lft.to/lastmile_qr_scan", "ios": "https://dc.lft.to/lastmile_qr_scan"}, "fusion_lon": 0.0, "lat": 38.897104, "bike_id": "f6ac0098e2f3fbe38c5345f20115fdaa", "type": "electric_scooter", "is_reserved": 0, "lon": -77.02346033333333}, {"fusion_lat": 0.0, "name": "aa14c92ec0587678c655895ecd6c9800", "is_disabled": 0, "rental_uris": {"android": "https://dc.lft.to/lastmile_qr_scan", "ios": "https://dc.lft.to/lastmile_qr_scan"}, "fusion_lon": 0.0, "lat": 38.90393983333333, "bike_id": "aa14c92ec0587678c655895ecd6c9800", "type": "electric_scooter", "is_reserved": 0, "lon": -77.067752}, {"fusion_lat": 0.0, "name": "1eccc5ff4e461d368126d8271f053a7c", "is_disabled": 0, "rental_uris": {"android": "https://dc.lft.to/lastmile_qr_scan", "ios": "https://dc.lft.to/lastmile_qr_scan"}, "fusion_lon": 0.0, "lat": 38.917104, "bike_id": "1eccc5ff4e461d368126d8271f053a7c", "type": "electric_scooter", "is_reserved": 0, "lon": -77.0277835}, {"fusion_lat": 0.0, "name": "357803ab4a82b3fbe397cf56f3a94f38", "is_disabled": 0, "rental_uris": {"android": "https://dc.lft.to/lastmile_qr_scan", "ios": "https://dc.lft.to/lastmile_qr_scan"}, "fusion_lon": 0.0, "lat": 38.896039, "bike_id": "357803ab4a82b3fbe397cf56f3a94f38", "type": "electric_scooter", "is_reserved": 0, "lon": -77.00928666666667}, {"fusion_lat": 0.0, "name": "60a16e1e8975bab83a33b10818cb6819", "is_disabled": 0, "rental_uris": {"android": "https://dc.lft.to/lastmile_qr_scan", "ios": "https://dc.lft.to/lastmile_qr_scan"}, "fusion_lon": 0.0, "lat": 38.902566666666665, "bike_id": "60a16e1e8975bab83a33b10818cb6819", "type": "electric_scooter", "is_reserved": 0, "lon": -77.01767766666667}, {"fusion_lat": 0.0, "name": "8557397502b9127c3039c0219674b052", "is_disabled": 0, "rental_uris": {"android": "https://dc.lft.to/lastmile_qr_scan", "ios": "https://dc.lft.to/lastmile_qr_scan"}, "fusion_lon": 0.0, "lat": 38.91755366666667, "bike_id": "8557397502b9127c3039c0219674b052", "type": "electric_scooter", "is_reserved": 0, "lon": -77.03074483333333}, {"fusion_lat": 0.0, "name": "371bcf0a8a0362c7aabf379bd0b845bb", "is_disabled": 0, "rental_uris": {"android": "https://dc.lft.to/lastmile_qr_scan", "ios": "https://dc.lft.to/lastmile_qr_scan"}, "fusion_lon": 0.0, "lat": 38.921387833333334, "bike_id": "371bcf0a8a0362c7aabf379bd0b845bb", "type": "electric_scooter", "is_reserved": 0, "lon": -77.01800383333334}, {"fusion_lat": 0.0, "name": "592f1e70b1d2a6bb19ee291c06c6d7f2", "is_disabled": 0, "rental_uris": {"android": "https://dc.lft.to/lastmile_qr_scan", "ios": "https://dc.lft.to/lastmile_qr_scan"}, "fusion_lon": 0.0, "lat": 38.91107783333333, "bike_id": "592f1e70b1d2a6bb19ee291c06c6d7f2", "type": "electric_scooter", "is_reserved": 0, "lon": -77.081393}, {"fusion_lat": 0.0, "name": "3286cd0168d9448f762ce2fae47298e2", "is_disabled": 0, "rental_uris": {"android": "https://dc.lft.to/lastmile_qr_scan", "ios": "https://dc.lft.to/lastmile_qr_scan"}, "fusion_lon": 0.0, "lat": 38.907605833333335, "bike_id": "3286cd0168d9448f762ce2fae47298e2", "type": "electric_scooter", "is_reserved": 0, "lon": -77.05688483333333}, {"fusion_lat": 0.0, "name": "afb35027effc08ce80682b932ccc522d", "is_disabled": 0, "rental_uris": {"android": "https://dc.lft.to/lastmile_qr_scan", "ios": "https://dc.lft.to/lastmile_qr_scan"}, "fusion_lon": 0.0, "lat": 38.93070633333333, "bike_id": "afb35027effc08ce80682b932ccc522d", "type": "electric_scooter", "is_reserved": 0, "lon": -77.02173266666667}, {"fusion_lat": 0.0, "name": "d3bd71f56355a7d27eb1f3945cb07875", "is_disabled": 0, "rental_uris": {"android": "https://dc.lft.to/lastmile_qr_scan", "ios": "https://dc.lft.to/lastmile_qr_scan"}, "fusion_lon": 0.0, "lat": 38.90229583333333, "bike_id": "d3bd71f56355a7d27eb1f3945cb07875", "type": "electric_scooter", "is_reserved": 0, "lon": -77.0591715}, {"fusion_lat": 0.0, "name": "e6bc50e8f3e3595e61fd254781adcb3f", "is_disabled": 0, "rental_uris": {"android": "https://dc.lft.to/lastmile_qr_scan", "ios": "https://dc.lft.to/lastmile_qr_scan"}, "fusion_lon": 0.0, "lat": 38.92548133333333, "bike_id": "e6bc50e8f3e3595e61fd254781adcb3f", "type": "electric_scooter", "is_reserved": 0, "lon": -77.02584583333334}, {"fusion_lat": 0.0, "name": "d8c92cfe38cff754917a7256cc39ea03", "is_disabled": 0, "rental_uris": {"android": "https://dc.lft.to/lastmile_qr_scan", "ios": "https://dc.lft.to/lastmile_qr_scan"}, "fusion_lon": 0.0, "lat": 38.827876, "bike_id": "d8c92cfe38cff754917a7256cc39ea03", "type": "electric_bike", "is_reserved": 0, "lon": -77.1248685}, {"fusion_lat": 0.0, "name": "7748c205b54ccb985a6227ecacc4ae12", "is_disabled": 0, "rental_uris": {"android": "https://dc.lft.to/lastmile_qr_scan", "ios": "https://dc.lft.to/lastmile_qr_scan"}, "fusion_lon": 0.0, "lat": 38.9029795, "bike_id": "7748c205b54ccb985a6227ecacc4ae12", "type": "electric_scooter", "is_reserved": 0, "lon": -77.02696483333334}, {"fusion_lat": 0.0, "name": "1e10c830fa4f2728c46d9e1c6a54572d", "is_disabled": 0, "rental_uris": {"android": "https://dc.lft.to/lastmile_qr_scan", "ios": "https://dc.lft.to/lastmile_qr_scan"}, "fusion_lon": 0.0, "lat": 38.897412, "bike_id": "1e10c830fa4f2728c46d9e1c6a54572d", "type": "electric_scooter", "is_reserved": 0, "lon": -77.0076025}, {"fusion_lat": 0.0, "name": "795642147170f8a914e376d5e8b32b41", "is_disabled": 0, "rental_uris": {"android": "https://dc.lft.to/lastmile_qr_scan", "ios": "https://dc.lft.to/lastmile_qr_scan"}, "fusion_lon": 0.0, "lat": 38.93697133333333, "bike_id": "795642147170f8a914e376d5e8b32b41", "type": "electric_scooter", "is_reserved": 0, "lon": -77.05597466666667}, {"fusion_lat": 0.0, "name": "8e04d4d471066ca2767ee0ac28ea19c6", "is_disabled": 0, "rental_uris": {"android": "https://dc.lft.to/lastmile_qr_scan", "ios": "https://dc.lft.to/lastmile_qr_scan"}, "fusion_lon": 0.0, "lat": 38.93140983333333, "bike_id": "8e04d4d471066ca2767ee0ac28ea19c6", "type": "electric_scooter", "is_reserved": 0, "lon": -77.023769}, {"fusion_lat": 0.0, "name": "7a4fde6370c02c5ed09fbf884e630d5e", "is_disabled": 0, "rental_uris": {"android": "https://dc.lft.to/lastmile_qr_scan", "ios": "https://dc.lft.to/lastmile_qr_scan"}, "fusion_lon": 0.0, "lat": 38.8853855, "bike_id": "7a4fde6370c02c5ed09fbf884e630d5e", "type": "electric_scooter", "is_reserved": 0, "lon": -77.000531}, {"fusion_lat": 0.0, "name": "32c49447b33723188bf7de1238938458", "is_disabled": 0, "rental_uris": {"android": "https://dc.lft.to/lastmile_qr_scan", "ios": "https://dc.lft.to/lastmile_qr_scan"}, "fusion_lon": 0.0, "lat": 38.920766, "bike_id": "32c49447b33723188bf7de1238938458", "type": "electric_scooter", "is_reserved": 0, "lon": -77.0231155}, {"fusion_lat": 0.0, "name": "faf40675a9ea105a32658d4920041f89", "is_disabled": 0, "rental_uris": {"android": "https://dc.lft.to/lastmile_qr_scan", "ios": "https://dc.lft.to/lastmile_qr_scan"}, "fusion_lon": 0.0, "lat": 38.922459833333335, "bike_id": "faf40675a9ea105a32658d4920041f89", "type": "electric_scooter", "is_reserved": 0, "lon": -76.98404866666667}, {"fusion_lat": 0.0, "name": "e5c9cd560aedfe7a4f2b770ac7b92752", "is_disabled": 0, "rental_uris": {"android": "https://dc.lft.to/lastmile_qr_scan", "ios": "https://dc.lft.to/lastmile_qr_scan"}, "fusion_lon": 0.0, "lat": 38.904011833333335, "bike_id": "e5c9cd560aedfe7a4f2b770ac7b92752", "type": "electric_scooter", "is_reserved": 0, "lon": -77.04497816666667}, {"fusion_lat": 0.0, "name": "9a77d43cc4ef76e1f934e5b5108b44dd", "is_disabled": 0, "rental_uris": {"android": "https://dc.lft.to/lastmile_qr_scan", "ios": "https://dc.lft.to/lastmile_qr_scan"}, "fusion_lon": 0.0, "lat": 38.909602166666666, "bike_id": "9a77d43cc4ef76e1f934e5b5108b44dd", "type": "electric_scooter", "is_reserved": 0, "lon": -77.032307}, {"fusion_lat": 0.0, "name": "5271bbf9d6ef0e7dc4fa6aa168c53eb0", "is_disabled": 0, "rental_uris": {"android": "https://dc.lft.to/lastmile_qr_scan", "ios": "https://dc.lft.to/lastmile_qr_scan"}, "fusion_lon": 0.0, "lat": 38.9064815, "bike_id": "5271bbf9d6ef0e7dc4fa6aa168c53eb0", "type": "electric_scooter", "is_reserved": 0, "lon": -77.01413966666667}, {"fusion_lat": 0.0, "name": "5c9c2e88fadcad654a2d2c9be7bdc246", "is_disabled": 0, "rental_uris": {"android": "https://dc.lft.to/lastmile_qr_scan", "ios": "https://dc.lft.to/lastmile_qr_scan"}, "fusion_lon": 0.0, "lat": 38.905035, "bike_id": "5c9c2e88fadcad654a2d2c9be7bdc246", "type": "electric_scooter", "is_reserved": 0, "lon": -77.02953233333334}, {"fusion_lat": 0.0, "name": "fd44d9f43c4aa048c53357430e84ea02", "is_disabled": 0, "rental_uris": {"android": "https://dc.lft.to/lastmile_qr_scan", "ios": "https://dc.lft.to/lastmile_qr_scan"}, "fusion_lon": 0.0, "lat": 38.90863, "bike_id": "fd44d9f43c4aa048c53357430e84ea02", "type": "electric_scooter", "is_reserved": 0, "lon": -77.00927683333333}, {"fusion_lat": 0.0, "name": "d93e79bab2b33e35b771d05f13976a79", "is_disabled": 0, "rental_uris": {"android": "https://dc.lft.to/lastmile_qr_scan", "ios": "https://dc.lft.to/lastmile_qr_scan"}, "fusion_lon": 0.0, "lat": 38.87647183333333, "bike_id": "d93e79bab2b33e35b771d05f13976a79", "type": "electric_scooter", "is_reserved": 0, "lon": -77.00114133333334}, {"fusion_lat": 0.0, "name": "2a04a5e89d4f5c2064ad8a955d2cba47", "is_disabled": 0, "rental_uris": {"android": "https://dc.lft.to/lastmile_qr_scan", "ios": "https://dc.lft.to/lastmile_qr_scan"}, "fusion_lon": 0.0, "lat": 38.91160566666667, "bike_id": "2a04a5e89d4f5c2064ad8a955d2cba47", "type": "electric_scooter", "is_reserved": 0, "lon": -77.04154466666667}, {"fusion_lat": 0.0, "name": "28fe2ce83da9cf1b424c6ab8bd9ddca9", "is_disabled": 0, "rental_uris": {"android": "https://dc.lft.to/lastmile_qr_scan", "ios": "https://dc.lft.to/lastmile_qr_scan"}, "fusion_lon": 0.0, "lat": 38.91957083333333, "bike_id": "28fe2ce83da9cf1b424c6ab8bd9ddca9", "type": "electric_bike", "is_reserved": 0, "lon": -77.10110466666667}, {"fusion_lat": 0.0, "name": "71480b7915498441efba54dc8b401a13", "is_disabled": 0, "rental_uris": {"android": "https://dc.lft.to/lastmile_qr_scan", "ios": "https://dc.lft.to/lastmile_qr_scan"}, "fusion_lon": 0.0, "lat": 38.89963, "bike_id": "71480b7915498441efba54dc8b401a13", "type": "electric_scooter", "is_reserved": 0, "lon": -77.01507016666666}, {"fusion_lat": 0.0, "name": "a54594cb51628c50d8e3cf9fc0f260b8", "is_disabled": 0, "rental_uris": {"android": "https://dc.lft.to/lastmile_qr_scan", "ios": "https://dc.lft.to/lastmile_qr_scan"}, "fusion_lon": 0.0, "lat": 38.92356, "bike_id": "a54594cb51628c50d8e3cf9fc0f260b8", "type": "electric_scooter", "is_reserved": 0, "lon": -77.01952566666667}, {"fusion_lat": 0.0, "name": "0f5892a44dc263783fe7205836403fe0", "is_disabled": 0, "rental_uris": {"android": "https://dc.lft.to/lastmile_qr_scan", "ios": "https://dc.lft.to/lastmile_qr_scan"}, "fusion_lon": 0.0, "lat": 38.924115666666665, "bike_id": "0f5892a44dc263783fe7205836403fe0", "type": "electric_scooter", "is_reserved": 0, "lon": -77.02006916666667}, {"fusion_lat": 0.0, "name": "c40f82f4b782237661092cd851fb0879", "is_disabled": 0, "rental_uris": {"android": "https://dc.lft.to/lastmile_qr_scan", "ios": "https://dc.lft.to/lastmile_qr_scan"}, "fusion_lon": 0.0, "lat": 38.92201933333333, "bike_id": "c40f82f4b782237661092cd851fb0879", "type": "electric_scooter", "is_reserved": 0, "lon": -77.0412995}, {"fusion_lat": 0.0, "name": "c2104eedde4a35b53600b61966437b52", "is_disabled": 0, "rental_uris": {"android": "https://dc.lft.to/lastmile_qr_scan", "ios": "https://dc.lft.to/lastmile_qr_scan"}, "fusion_lon": 0.0, "lat": 38.94736433333333, "bike_id": "c2104eedde4a35b53600b61966437b52", "type": "electric_scooter", "is_reserved": 0, "lon": -77.026723}, {"fusion_lat": 0.0, "name": "d920ceb80fb0b769279657189636fa0a", "is_disabled": 0, "rental_uris": {"android": "https://dc.lft.to/lastmile_qr_scan", "ios": "https://dc.lft.to/lastmile_qr_scan"}, "fusion_lon": 0.0, "lat": 39.010733333333334, "bike_id": "d920ceb80fb0b769279657189636fa0a", "type": "electric_bike", "is_reserved": 0, "lon": -76.9106515}, {"fusion_lat": 0.0, "name": "6af51adafa3c222a54c67f4a6338f906", "is_disabled": 0, "rental_uris": {"android": "https://dc.lft.to/lastmile_qr_scan", "ios": "https://dc.lft.to/lastmile_qr_scan"}, "fusion_lon": 0.0, "lat": 38.9380225, "bike_id": "6af51adafa3c222a54c67f4a6338f906", "type": "electric_scooter", "is_reserved": 0, "lon": -77.06861533333333}, {"fusion_lat": 0.0, "name": "c841c95ba6321fababf68b35196cea44", "is_disabled": 0, "rental_uris": {"android": "https://dc.lft.to/lastmile_qr_scan", "ios": "https://dc.lft.to/lastmile_qr_scan"}, "fusion_lon": 0.0, "lat": 38.942297833333335, "bike_id": "c841c95ba6321fababf68b35196cea44", "type": "electric_scooter", "is_reserved": 0, "lon": -77.02339083333334}, {"fusion_lat": 0.0, "name": "d9423a9b3035aa498b94a10ca7d03178", "is_disabled": 0, "rental_uris": {"android": "https://dc.lft.to/lastmile_qr_scan", "ios": "https://dc.lft.to/lastmile_qr_scan"}, "fusion_lon": 0.0, "lat": 38.90763716666667, "bike_id": "d9423a9b3035aa498b94a10ca7d03178", "type": "electric_scooter", "is_reserved": 0, "lon": -77.0320745}, {"fusion_lat": 0.0, "name": "69a7b6942c11c88d0470bda4492f9a29", "is_disabled": 0, "rental_uris": {"android": "https://dc.lft.to/lastmile_qr_scan", "ios": "https://dc.lft.to/lastmile_qr_scan"}, "fusion_lon": 0.0, "lat": 38.90028016666667, "bike_id": "69a7b6942c11c88d0470bda4492f9a29", "type": "electric_scooter", "is_reserved": 0, "lon": -77.02632366666667}, {"fusion_lat": 0.0, "name": "1fcc8cce5965a114ab732190347311bb", "is_disabled": 0, "rental_uris": {"android": "https://dc.lft.to/lastmile_qr_scan", "ios": "https://dc.lft.to/lastmile_qr_scan"}, "fusion_lon": 0.0, "lat": 38.9305295, "bike_id": "1fcc8cce5965a114ab732190347311bb", "type": "electric_scooter", "is_reserved": 0, "lon": -77.040675}, {"fusion_lat": 0.0, "name": "124a48887561ae2862eae2c58c6a751d", "is_disabled": 0, "rental_uris": {"android": "https://dc.lft.to/lastmile_qr_scan", "ios": "https://dc.lft.to/lastmile_qr_scan"}, "fusion_lon": 0.0, "lat": 38.9004495, "bike_id": "124a48887561ae2862eae2c58c6a751d", "type": "electric_scooter", "is_reserved": 0, "lon": -77.02403866666667}, {"fusion_lat": 0.0, "name": "821e0c1783d995fdcf378b51989966e2", "is_disabled": 0, "rental_uris": {"android": "https://dc.lft.to/lastmile_qr_scan", "ios": "https://dc.lft.to/lastmile_qr_scan"}, "fusion_lon": 0.0, "lat": 38.90695566666667, "bike_id": "821e0c1783d995fdcf378b51989966e2", "type": "electric_scooter", "is_reserved": 0, "lon": -77.04206983333333}, {"fusion_lat": 0.0, "name": "fc02f2437dc8803e34ec0237768945ce", "is_disabled": 0, "rental_uris": {"android": "https://dc.lft.to/lastmile_qr_scan", "ios": "https://dc.lft.to/lastmile_qr_scan"}, "fusion_lon": 0.0, "lat": 38.91657416666666, "bike_id": "fc02f2437dc8803e34ec0237768945ce", "type": "electric_scooter", "is_reserved": 0, "lon": -77.02819633333333}, {"fusion_lat": 0.0, "name": "b4aa516782a8dc78e798d608b5d2d6bd", "is_disabled": 0, "rental_uris": {"android": "https://dc.lft.to/lastmile_qr_scan", "ios": "https://dc.lft.to/lastmile_qr_scan"}, "fusion_lon": 0.0, "lat": 38.86264966666667, "bike_id": "b4aa516782a8dc78e798d608b5d2d6bd", "type": "electric_bike", "is_reserved": 0, "lon": -76.983529}, {"fusion_lat": 0.0, "name": "8adeb10439f0afa28219fcde21308f02", "is_disabled": 0, "rental_uris": {"android": "https://dc.lft.to/lastmile_qr_scan", "ios": "https://dc.lft.to/lastmile_qr_scan"}, "fusion_lon": 0.0, "lat": 38.8925675, "bike_id": "8adeb10439f0afa28219fcde21308f02", "type": "electric_scooter", "is_reserved": 0, "lon": -77.04661466666667}, {"fusion_lat": 0.0, "name": "16bc8ba05f20c4dee2058fa873aea1b9", "is_disabled": 0, "rental_uris": {"android": "https://dc.lft.to/lastmile_qr_scan", "ios": "https://dc.lft.to/lastmile_qr_scan"}, "fusion_lon": 0.0, "lat": 38.9233655, "bike_id": "16bc8ba05f20c4dee2058fa873aea1b9", "type": "electric_scooter", "is_reserved": 0, "lon": -77.03540883333334}, {"fusion_lat": 0.0, "name": "5b93bf0195223e6cb67bc97a84180d6e", "is_disabled": 0, "rental_uris": {"android": "https://dc.lft.to/lastmile_qr_scan", "ios": "https://dc.lft.to/lastmile_qr_scan"}, "fusion_lon": 0.0, "lat": 38.9078745, "bike_id": "5b93bf0195223e6cb67bc97a84180d6e", "type": "electric_scooter", "is_reserved": 0, "lon": -77.032052}, {"fusion_lat": 0.0, "name": "a27719f74e04da93dc906f6e2ec00f7b", "is_disabled": 0, "rental_uris": {"android": "https://dc.lft.to/lastmile_qr_scan", "ios": "https://dc.lft.to/lastmile_qr_scan"}, "fusion_lon": 0.0, "lat": 38.9278825, "bike_id": "a27719f74e04da93dc906f6e2ec00f7b", "type": "electric_scooter", "is_reserved": 0, "lon": -76.97966966666667}, {"fusion_lat": 0.0, "name": "0e86afc50af8ba040268c345e4224f25", "is_disabled": 0, "rental_uris": {"android": "https://dc.lft.to/lastmile_qr_scan", "ios": "https://dc.lft.to/lastmile_qr_scan"}, "fusion_lon": 0.0, "lat": 38.94660233333333, "bike_id": "0e86afc50af8ba040268c345e4224f25", "type": "electric_bike", "is_reserved": 0, "lon": -77.00698483333333}, {"fusion_lat": 0.0, "name": "3f1f7b299fc3b54647461191e9054e9f", "is_disabled": 0, "rental_uris": {"android": "https://dc.lft.to/lastmile_qr_scan", "ios": "https://dc.lft.to/lastmile_qr_scan"}, "fusion_lon": 0.0, "lat": 38.90685466666667, "bike_id": "3f1f7b299fc3b54647461191e9054e9f", "type": "electric_scooter", "is_reserved": 0, "lon": -77.0238595}, {"fusion_lat": 0.0, "name": "f3c16df5d5630f8dc1a5a7032355abc5", "is_disabled": 0, "rental_uris": {"android": "https://dc.lft.to/lastmile_qr_scan", "ios": "https://dc.lft.to/lastmile_qr_scan"}, "fusion_lon": 0.0, "lat": 38.900642, "bike_id": "f3c16df5d5630f8dc1a5a7032355abc5", "type": "electric_scooter", "is_reserved": 0, "lon": -77.0173035}, {"fusion_lat": 0.0, "name": "cd599574546441b823151020bff39561", "is_disabled": 0, "rental_uris": {"android": "https://dc.lft.to/lastmile_qr_scan", "ios": "https://dc.lft.to/lastmile_qr_scan"}, "fusion_lon": 0.0, "lat": 38.886239833333335, "bike_id": "cd599574546441b823151020bff39561", "type": "electric_scooter", "is_reserved": 0, "lon": -77.01988016666667}, {"fusion_lat": 0.0, "name": "ce6a94dcbcb45f6a57028a4c97a3fb03", "is_disabled": 0, "rental_uris": {"android": "https://dc.lft.to/lastmile_qr_scan", "ios": "https://dc.lft.to/lastmile_qr_scan"}, "fusion_lon": 0.0, "lat": 38.99524266666667, "bike_id": "ce6a94dcbcb45f6a57028a4c97a3fb03", "type": "electric_bike", "is_reserved": 0, "lon": -77.074773}, {"fusion_lat": 0.0, "name": "ab9e2bfb6fa95cb0a4abdf401042a7a1", "is_disabled": 0, "rental_uris": {"android": "https://dc.lft.to/lastmile_qr_scan", "ios": "https://dc.lft.to/lastmile_qr_scan"}, "fusion_lon": 0.0, "lat": 38.883870333333334, "bike_id": "ab9e2bfb6fa95cb0a4abdf401042a7a1", "type": "electric_scooter", "is_reserved": 0, "lon": -76.9960735}, {"fusion_lat": 0.0, "name": "f6ca5616d162d4e7320d493820a10967", "is_disabled": 0, "rental_uris": {"android": "https://dc.lft.to/lastmile_qr_scan", "ios": "https://dc.lft.to/lastmile_qr_scan"}, "fusion_lon": 0.0, "lat": 38.9236645, "bike_id": "f6ca5616d162d4e7320d493820a10967", "type": "electric_scooter", "is_reserved": 0, "lon": -77.04263166666667}, {"fusion_lat": 0.0, "name": "a07961eeea392a21a76fb8d2d61c7306", "is_disabled": 0, "rental_uris": {"android": "https://dc.lft.to/lastmile_qr_scan", "ios": "https://dc.lft.to/lastmile_qr_scan"}, "fusion_lon": 0.0, "lat": 38.895580333333335, "bike_id": "a07961eeea392a21a76fb8d2d61c7306", "type": "electric_scooter", "is_reserved": 0, "lon": -77.02734716666667}, {"fusion_lat": 0.0, "name": "eff358f8ee8e2c120ec702f2dcf3d503", "is_disabled": 0, "rental_uris": {"android": "https://dc.lft.to/lastmile_qr_scan", "ios": "https://dc.lft.to/lastmile_qr_scan"}, "fusion_lon": 0.0, "lat": 38.89828283333333, "bike_id": "eff358f8ee8e2c120ec702f2dcf3d503", "type": "electric_scooter", "is_reserved": 0, "lon": -76.9465035}, {"fusion_lat": 0.0, "name": "1cc5277df403838603db1f69e8e11510", "is_disabled": 0, "rental_uris": {"android": "https://dc.lft.to/lastmile_qr_scan", "ios": "https://dc.lft.to/lastmile_qr_scan"}, "fusion_lon": 0.0, "lat": 38.88598666666667, "bike_id": "1cc5277df403838603db1f69e8e11510", "type": "electric_scooter", "is_reserved": 0, "lon": -77.003448}, {"fusion_lat": 0.0, "name": "ddcd04d92ea8ea57c8d86fddcc1ed4ba", "is_disabled": 0, "rental_uris": {"android": "https://dc.lft.to/lastmile_qr_scan", "ios": "https://dc.lft.to/lastmile_qr_scan"}, "fusion_lon": 0.0, "lat": 38.907832, "bike_id": "ddcd04d92ea8ea57c8d86fddcc1ed4ba", "type": "electric_scooter", "is_reserved": 0, "lon": -77.01118333333334}, {"fusion_lat": 0.0, "name": "7c315cba5417551cce4ecc3fb1bdf89c", "is_disabled": 0, "rental_uris": {"android": "https://dc.lft.to/lastmile_qr_scan", "ios": "https://dc.lft.to/lastmile_qr_scan"}, "fusion_lon": 0.0, "lat": 38.90656666666667, "bike_id": "7c315cba5417551cce4ecc3fb1bdf89c", "type": "electric_scooter", "is_reserved": 0, "lon": -77.00925816666667}, {"fusion_lat": 0.0, "name": "e450bc5599d82c2caef339cba7e31194", "is_disabled": 0, "rental_uris": {"android": "https://dc.lft.to/lastmile_qr_scan", "ios": "https://dc.lft.to/lastmile_qr_scan"}, "fusion_lon": 0.0, "lat": 38.904418166666666, "bike_id": "e450bc5599d82c2caef339cba7e31194", "type": "electric_scooter", "is_reserved": 0, "lon": -77.0297905}, {"fusion_lat": 0.0, "name": "ce208233c2d509591a1c8ebcf290f6b2", "is_disabled": 0, "rental_uris": {"android": "https://dc.lft.to/lastmile_qr_scan", "ios": "https://dc.lft.to/lastmile_qr_scan"}, "fusion_lon": 0.0, "lat": 38.98389866666667, "bike_id": "ce208233c2d509591a1c8ebcf290f6b2", "type": "electric_scooter", "is_reserved": 0, "lon": -77.02630066666667}, {"fusion_lat": 0.0, "name": "04a0fedbc603f5e83cca3f18100d5330", "is_disabled": 0, "rental_uris": {"android": "https://dc.lft.to/lastmile_qr_scan", "ios": "https://dc.lft.to/lastmile_qr_scan"}, "fusion_lon": 0.0, "lat": 38.908969, "bike_id": "04a0fedbc603f5e83cca3f18100d5330", "type": "electric_scooter", "is_reserved": 0, "lon": -77.03212316666666}, {"fusion_lat": 0.0, "name": "ec40239fff4d817e20960801c220e2ad", "is_disabled": 0, "rental_uris": {"android": "https://dc.lft.to/lastmile_qr_scan", "ios": "https://dc.lft.to/lastmile_qr_scan"}, "fusion_lon": 0.0, "lat": 38.90372766666667, "bike_id": "ec40239fff4d817e20960801c220e2ad", "type": "electric_scooter", "is_reserved": 0, "lon": -77.0074385}, {"fusion_lat": 0.0, "name": "a74fcd6c0e6f604300a4e5e5b18fafd0", "is_disabled": 0, "rental_uris": {"android": "https://dc.lft.to/lastmile_qr_scan", "ios": "https://dc.lft.to/lastmile_qr_scan"}, "fusion_lon": 0.0, "lat": 38.94520383333333, "bike_id": "a74fcd6c0e6f604300a4e5e5b18fafd0", "type": "electric_scooter", "is_reserved": 0, "lon": -77.0227225}, {"fusion_lat": 0.0, "name": "977e8722f318b8f3918b7e35ea6d30b5", "is_disabled": 0, "rental_uris": {"android": "https://dc.lft.to/lastmile_qr_scan", "ios": "https://dc.lft.to/lastmile_qr_scan"}, "fusion_lon": 0.0, "lat": 38.92149383333334, "bike_id": "977e8722f318b8f3918b7e35ea6d30b5", "type": "electric_scooter", "is_reserved": 0, "lon": -77.03868566666667}, {"fusion_lat": 0.0, "name": "a748b5eff6893e947d58910df611dd4a", "is_disabled": 0, "rental_uris": {"android": "https://dc.lft.to/lastmile_qr_scan", "ios": "https://dc.lft.to/lastmile_qr_scan"}, "fusion_lon": 0.0, "lat": 38.904918, "bike_id": "a748b5eff6893e947d58910df611dd4a", "type": "electric_scooter", "is_reserved": 0, "lon": -77.02976616666666}, {"fusion_lat": 0.0, "name": "c58c4d149440bde73036a582b4e78331", "is_disabled": 0, "rental_uris": {"android": "https://dc.lft.to/lastmile_qr_scan", "ios": "https://dc.lft.to/lastmile_qr_scan"}, "fusion_lon": 0.0, "lat": 38.91903533333333, "bike_id": "c58c4d149440bde73036a582b4e78331", "type": "electric_scooter", "is_reserved": 0, "lon": -77.01219683333333}, {"fusion_lat": 0.0, "name": "6cc014a9a138d271555487a069e153d7", "is_disabled": 0, "rental_uris": {"android": "https://dc.lft.to/lastmile_qr_scan", "ios": "https://dc.lft.to/lastmile_qr_scan"}, "fusion_lon": 0.0, "lat": 38.8901935, "bike_id": "6cc014a9a138d271555487a069e153d7", "type": "electric_scooter", "is_reserved": 0, "lon": -76.93718433333333}, {"fusion_lat": 0.0, "name": "0197095394e6561cf03b5da766db7188", "is_disabled": 0, "rental_uris": {"android": "https://dc.lft.to/lastmile_qr_scan", "ios": "https://dc.lft.to/lastmile_qr_scan"}, "fusion_lon": 0.0, "lat": 38.935044166666664, "bike_id": "0197095394e6561cf03b5da766db7188", "type": "electric_scooter", "is_reserved": 0, "lon": -77.0735985}, {"fusion_lat": 0.0, "name": "197eb1d6ba7eebd8b0e6d28491fced20", "is_disabled": 0, "rental_uris": {"android": "https://dc.lft.to/lastmile_qr_scan", "ios": "https://dc.lft.to/lastmile_qr_scan"}, "fusion_lon": 0.0, "lat": 38.930811166666665, "bike_id": "197eb1d6ba7eebd8b0e6d28491fced20", "type": "electric_scooter", "is_reserved": 0, "lon": -76.99609016666666}, {"fusion_lat": 0.0, "name": "decc1dcd3fc347299cf7247b8e60b1ae", "is_disabled": 0, "rental_uris": {"android": "https://dc.lft.to/lastmile_qr_scan", "ios": "https://dc.lft.to/lastmile_qr_scan"}, "fusion_lon": 0.0, "lat": 38.917176, "bike_id": "decc1dcd3fc347299cf7247b8e60b1ae", "type": "electric_scooter", "is_reserved": 0, "lon": -77.03857966666666}, {"fusion_lat": 0.0, "name": "b4c7be0bef372767e5ca01addb6a14bc", "is_disabled": 0, "rental_uris": {"android": "https://dc.lft.to/lastmile_qr_scan", "ios": "https://dc.lft.to/lastmile_qr_scan"}, "fusion_lon": 0.0, "lat": 38.90668983333333, "bike_id": "b4c7be0bef372767e5ca01addb6a14bc", "type": "electric_scooter", "is_reserved": 0, "lon": -77.07127583333333}, {"fusion_lat": 0.0, "name": "cb3c986fa4aa44e37ca70113c14dd1fe", "is_disabled": 0, "rental_uris": {"android": "https://dc.lft.to/lastmile_qr_scan", "ios": "https://dc.lft.to/lastmile_qr_scan"}, "fusion_lon": 0.0, "lat": 38.91770566666667, "bike_id": "cb3c986fa4aa44e37ca70113c14dd1fe", "type": "electric_scooter", "is_reserved": 0, "lon": -77.047724}, {"fusion_lat": 0.0, "name": "819ec20f853b2c46a8bba63ef120162c", "is_disabled": 0, "rental_uris": {"android": "https://dc.lft.to/lastmile_qr_scan", "ios": "https://dc.lft.to/lastmile_qr_scan"}, "fusion_lon": 0.0, "lat": 38.886169, "bike_id": "819ec20f853b2c46a8bba63ef120162c", "type": "electric_scooter", "is_reserved": 0, "lon": -77.01968916666667}, {"fusion_lat": 0.0, "name": "46e777eb64144c3b3e356e9a1ccb174b", "is_disabled": 0, "rental_uris": {"android": "https://dc.lft.to/lastmile_qr_scan", "ios": "https://dc.lft.to/lastmile_qr_scan"}, "fusion_lon": 0.0, "lat": 38.911048, "bike_id": "46e777eb64144c3b3e356e9a1ccb174b", "type": "electric_scooter", "is_reserved": 0, "lon": -77.00212433333333}, {"fusion_lat": 0.0, "name": "3734cc40249cad876556250063b1171d", "is_disabled": 0, "rental_uris": {"android": "https://dc.lft.to/lastmile_qr_scan", "ios": "https://dc.lft.to/lastmile_qr_scan"}, "fusion_lon": 0.0, "lat": 38.9039195, "bike_id": "3734cc40249cad876556250063b1171d", "type": "electric_scooter", "is_reserved": 0, "lon": -77.0179445}, {"fusion_lat": 0.0, "name": "23031c454c0519426b4cdb1d900295e7", "is_disabled": 0, "rental_uris": {"android": "https://dc.lft.to/lastmile_qr_scan", "ios": "https://dc.lft.to/lastmile_qr_scan"}, "fusion_lon": 0.0, "lat": 38.97880816666667, "bike_id": "23031c454c0519426b4cdb1d900295e7", "type": "electric_bike", "is_reserved": 0, "lon": -77.0602935}, {"fusion_lat": 0.0, "name": "7519a3e6bd74b3b260456a64aa8b09dd", "is_disabled": 0, "rental_uris": {"android": "https://dc.lft.to/lastmile_qr_scan", "ios": "https://dc.lft.to/lastmile_qr_scan"}, "fusion_lon": 0.0, "lat": 38.91304216666666, "bike_id": "7519a3e6bd74b3b260456a64aa8b09dd", "type": "electric_bike", "is_reserved": 0, "lon": -77.02859066666667}, {"fusion_lat": 0.0, "name": "e8bab476069acf037fdc76c007c933a2", "is_disabled": 0, "rental_uris": {"android": "https://dc.lft.to/lastmile_qr_scan", "ios": "https://dc.lft.to/lastmile_qr_scan"}, "fusion_lon": 0.0, "lat": 38.83930266666667, "bike_id": "e8bab476069acf037fdc76c007c933a2", "type": "electric_bike", "is_reserved": 0, "lon": -77.07904583333334}, {"fusion_lat": 0.0, "name": "5de89acd33325626cc7806618cb8ae88", "is_disabled": 0, "rental_uris": {"android": "https://dc.lft.to/lastmile_qr_scan", "ios": "https://dc.lft.to/lastmile_qr_scan"}, "fusion_lon": 0.0, "lat": 38.882671, "bike_id": "5de89acd33325626cc7806618cb8ae88", "type": "electric_scooter", "is_reserved": 0, "lon": -76.9901805}, {"fusion_lat": 0.0, "name": "412afb31c017e7ac411e3f4719aad25b", "is_disabled": 0, "rental_uris": {"android": "https://dc.lft.to/lastmile_qr_scan", "ios": "https://dc.lft.to/lastmile_qr_scan"}, "fusion_lon": 0.0, "lat": 38.901426, "bike_id": "412afb31c017e7ac411e3f4719aad25b", "type": "electric_scooter", "is_reserved": 0, "lon": -76.98662433333334}, {"fusion_lat": 0.0, "name": "c344330c4e252779ae6d44040db7c6ba", "is_disabled": 0, "rental_uris": {"android": "https://dc.lft.to/lastmile_qr_scan", "ios": "https://dc.lft.to/lastmile_qr_scan"}, "fusion_lon": 0.0, "lat": 38.898111166666666, "bike_id": "c344330c4e252779ae6d44040db7c6ba", "type": "electric_scooter", "is_reserved": 0, "lon": -77.0297845}, {"fusion_lat": 0.0, "name": "27f08cc1eac583c0545e3bbcaaef1835", "is_disabled": 0, "rental_uris": {"android": "https://dc.lft.to/lastmile_qr_scan", "ios": "https://dc.lft.to/lastmile_qr_scan"}, "fusion_lon": 0.0, "lat": 38.89844766666667, "bike_id": "27f08cc1eac583c0545e3bbcaaef1835", "type": "electric_scooter", "is_reserved": 0, "lon": -77.02210366666667}, {"fusion_lat": 0.0, "name": "7934d4c719ca535d95f1d6947013bd5c", "is_disabled": 0, "rental_uris": {"android": "https://dc.lft.to/lastmile_qr_scan", "ios": "https://dc.lft.to/lastmile_qr_scan"}, "fusion_lon": 0.0, "lat": 38.87634283333333, "bike_id": "7934d4c719ca535d95f1d6947013bd5c", "type": "electric_scooter", "is_reserved": 0, "lon": -77.0094805}, {"fusion_lat": 0.0, "name": "633cfe68b9c4c0668528bbd9dc7b6cea", "is_disabled": 0, "rental_uris": {"android": "https://dc.lft.to/lastmile_qr_scan", "ios": "https://dc.lft.to/lastmile_qr_scan"}, "fusion_lon": 0.0, "lat": 38.9181235, "bike_id": "633cfe68b9c4c0668528bbd9dc7b6cea", "type": "electric_scooter", "is_reserved": 0, "lon": -77.03333783333333}, {"fusion_lat": 0.0, "name": "4f742fd010be324f2323786b26d1ec99", "is_disabled": 0, "rental_uris": {"android": "https://dc.lft.to/lastmile_qr_scan", "ios": "https://dc.lft.to/lastmile_qr_scan"}, "fusion_lon": 0.0, "lat": 38.923606666666664, "bike_id": "4f742fd010be324f2323786b26d1ec99", "type": "electric_scooter", "is_reserved": 0, "lon": -77.01954666666667}, {"fusion_lat": 0.0, "name": "f94756c284c3c7c5a55b81c065f294ce", "is_disabled": 0, "rental_uris": {"android": "https://dc.lft.to/lastmile_qr_scan", "ios": "https://dc.lft.to/lastmile_qr_scan"}, "fusion_lon": 0.0, "lat": 38.91905716666667, "bike_id": "f94756c284c3c7c5a55b81c065f294ce", "type": "electric_scooter", "is_reserved": 0, "lon": -77.012219}, {"fusion_lat": 0.0, "name": "09a1b58f71bc20e3d48a9aec571a88a0", "is_disabled": 0, "rental_uris": {"android": "https://dc.lft.to/lastmile_qr_scan", "ios": "https://dc.lft.to/lastmile_qr_scan"}, "fusion_lon": 0.0, "lat": 38.926161, "bike_id": "09a1b58f71bc20e3d48a9aec571a88a0", "type": "electric_scooter", "is_reserved": 0, "lon": -77.022228}, {"fusion_lat": 0.0, "name": "77f75289894990b1786e902d2c2391e0", "is_disabled": 0, "rental_uris": {"android": "https://dc.lft.to/lastmile_qr_scan", "ios": "https://dc.lft.to/lastmile_qr_scan"}, "fusion_lon": 0.0, "lat": 38.9401465, "bike_id": "77f75289894990b1786e902d2c2391e0", "type": "electric_scooter", "is_reserved": 0, "lon": -77.027645}, {"fusion_lat": 0.0, "name": "037fdb3b65c7bc0252cad1d564312a8c", "is_disabled": 0, "rental_uris": {"android": "https://dc.lft.to/lastmile_qr_scan", "ios": "https://dc.lft.to/lastmile_qr_scan"}, "fusion_lon": 0.0, "lat": 38.887552, "bike_id": "037fdb3b65c7bc0252cad1d564312a8c", "type": "electric_scooter", "is_reserved": 0, "lon": -77.00174033333333}, {"fusion_lat": 0.0, "name": "9f85cf5dab7a3380b2121b7a422b8603", "is_disabled": 0, "rental_uris": {"android": "https://dc.lft.to/lastmile_qr_scan", "ios": "https://dc.lft.to/lastmile_qr_scan"}, "fusion_lon": 0.0, "lat": 38.879270166666664, "bike_id": "9f85cf5dab7a3380b2121b7a422b8603", "type": "electric_scooter", "is_reserved": 0, "lon": -77.02380116666667}, {"fusion_lat": 0.0, "name": "12be82f7c50ee210c6f437425161b6fa", "is_disabled": 0, "rental_uris": {"android": "https://dc.lft.to/lastmile_qr_scan", "ios": "https://dc.lft.to/lastmile_qr_scan"}, "fusion_lon": 0.0, "lat": 38.91921516666667, "bike_id": "12be82f7c50ee210c6f437425161b6fa", "type": "electric_scooter", "is_reserved": 0, "lon": -77.02508366666666}, {"fusion_lat": 0.0, "name": "1993c76d523d726a45d055a96359ae4c", "is_disabled": 0, "rental_uris": {"android": "https://dc.lft.to/lastmile_qr_scan", "ios": "https://dc.lft.to/lastmile_qr_scan"}, "fusion_lon": 0.0, "lat": 38.91435466666667, "bike_id": "1993c76d523d726a45d055a96359ae4c", "type": "electric_scooter", "is_reserved": 0, "lon": -76.99354833333334}, {"fusion_lat": 0.0, "name": "8004b6cacad07cf33766345822392bfa", "is_disabled": 0, "rental_uris": {"android": "https://dc.lft.to/lastmile_qr_scan", "ios": "https://dc.lft.to/lastmile_qr_scan"}, "fusion_lon": 0.0, "lat": 38.929578166666666, "bike_id": "8004b6cacad07cf33766345822392bfa", "type": "electric_scooter", "is_reserved": 0, "lon": -76.99172116666666}, {"fusion_lat": 0.0, "name": "0a54510d90dcc6464ab8e5547cb95cf4", "is_disabled": 0, "rental_uris": {"android": "https://dc.lft.to/lastmile_qr_scan", "ios": "https://dc.lft.to/lastmile_qr_scan"}, "fusion_lon": 0.0, "lat": 38.92890633333333, "bike_id": "0a54510d90dcc6464ab8e5547cb95cf4", "type": "electric_scooter", "is_reserved": 0, "lon": -77.0229905}, {"fusion_lat": 0.0, "name": "26ae16c7b700e03af3060dfa294d44b1", "is_disabled": 0, "rental_uris": {"android": "https://dc.lft.to/lastmile_qr_scan", "ios": "https://dc.lft.to/lastmile_qr_scan"}, "fusion_lon": 0.0, "lat": 38.92252416666667, "bike_id": "26ae16c7b700e03af3060dfa294d44b1", "type": "electric_scooter", "is_reserved": 0, "lon": -77.00912916666667}, {"fusion_lat": 0.0, "name": "dff0b498af5cea7417d643c20dd2d6f0", "is_disabled": 0, "rental_uris": {"android": "https://dc.lft.to/lastmile_qr_scan", "ios": "https://dc.lft.to/lastmile_qr_scan"}, "fusion_lon": 0.0, "lat": 38.83156016666667, "bike_id": "dff0b498af5cea7417d643c20dd2d6f0", "type": "electric_bike", "is_reserved": 0, "lon": -76.99578233333334}, {"fusion_lat": 0.0, "name": "3b9a713151d096e170bee19eaba0626e", "is_disabled": 0, "rental_uris": {"android": "https://dc.lft.to/lastmile_qr_scan", "ios": "https://dc.lft.to/lastmile_qr_scan"}, "fusion_lon": 0.0, "lat": 38.933045166666666, "bike_id": "3b9a713151d096e170bee19eaba0626e", "type": "electric_scooter", "is_reserved": 0, "lon": -77.03258583333333}, {"fusion_lat": 0.0, "name": "b79e77e0ee1ffb092ce4b17a2cea7260", "is_disabled": 0, "rental_uris": {"android": "https://dc.lft.to/lastmile_qr_scan", "ios": "https://dc.lft.to/lastmile_qr_scan"}, "fusion_lon": 0.0, "lat": 38.876925166666666, "bike_id": "b79e77e0ee1ffb092ce4b17a2cea7260", "type": "electric_scooter", "is_reserved": 0, "lon": -77.004107}, {"fusion_lat": 0.0, "name": "12c90cefac7678f0240703410a320e7e", "is_disabled": 0, "rental_uris": {"android": "https://dc.lft.to/lastmile_qr_scan", "ios": "https://dc.lft.to/lastmile_qr_scan"}, "fusion_lon": 0.0, "lat": 38.93177883333333, "bike_id": "12c90cefac7678f0240703410a320e7e", "type": "electric_scooter", "is_reserved": 0, "lon": -77.03806166666666}, {"fusion_lat": 0.0, "name": "6d2e16367a07d9e1ac8017db4eb5f94f", "is_disabled": 0, "rental_uris": {"android": "https://dc.lft.to/lastmile_qr_scan", "ios": "https://dc.lft.to/lastmile_qr_scan"}, "fusion_lon": 0.0, "lat": 38.966751333333335, "bike_id": "6d2e16367a07d9e1ac8017db4eb5f94f", "type": "electric_bike", "is_reserved": 0, "lon": -77.0230435}, {"fusion_lat": 0.0, "name": "a2db508b11c317edb59c02678b2ee699", "is_disabled": 0, "rental_uris": {"android": "https://dc.lft.to/lastmile_qr_scan", "ios": "https://dc.lft.to/lastmile_qr_scan"}, "fusion_lon": 0.0, "lat": 38.931504833333335, "bike_id": "a2db508b11c317edb59c02678b2ee699", "type": "electric_scooter", "is_reserved": 0, "lon": -77.0397565}, {"fusion_lat": 0.0, "name": "334b5bcb56b97d0e07d4e33f2dd02d5a", "is_disabled": 0, "rental_uris": {"android": "https://dc.lft.to/lastmile_qr_scan", "ios": "https://dc.lft.to/lastmile_qr_scan"}, "fusion_lon": 0.0, "lat": 38.896822666666665, "bike_id": "334b5bcb56b97d0e07d4e33f2dd02d5a", "type": "electric_scooter", "is_reserved": 0, "lon": -77.04668766666667}, {"fusion_lat": 0.0, "name": "0a52ad973e03f20c8bb6ba8c5bd24e34", "is_disabled": 0, "rental_uris": {"android": "https://dc.lft.to/lastmile_qr_scan", "ios": "https://dc.lft.to/lastmile_qr_scan"}, "fusion_lon": 0.0, "lat": 38.909784333333334, "bike_id": "0a52ad973e03f20c8bb6ba8c5bd24e34", "type": "electric_scooter", "is_reserved": 0, "lon": -77.03382816666667}, {"fusion_lat": 0.0, "name": "26e694d58cef2ce388bb867694a846e7", "is_disabled": 0, "rental_uris": {"android": "https://dc.lft.to/lastmile_qr_scan", "ios": "https://dc.lft.to/lastmile_qr_scan"}, "fusion_lon": 0.0, "lat": 38.91697833333333, "bike_id": "26e694d58cef2ce388bb867694a846e7", "type": "electric_scooter", "is_reserved": 0, "lon": -77.03505733333333}, {"fusion_lat": 0.0, "name": "15e6d14e2a3679f88122d04d863a85af", "is_disabled": 0, "rental_uris": {"android": "https://dc.lft.to/lastmile_qr_scan", "ios": "https://dc.lft.to/lastmile_qr_scan"}, "fusion_lon": 0.0, "lat": 38.88511183333333, "bike_id": "15e6d14e2a3679f88122d04d863a85af", "type": "electric_scooter", "is_reserved": 0, "lon": -77.011168}, {"fusion_lat": 0.0, "name": "3453af4155a9ba64a353943da80d5a5f", "is_disabled": 0, "rental_uris": {"android": "https://dc.lft.to/lastmile_qr_scan", "ios": "https://dc.lft.to/lastmile_qr_scan"}, "fusion_lon": 0.0, "lat": 38.905254666666664, "bike_id": "3453af4155a9ba64a353943da80d5a5f", "type": "electric_scooter", "is_reserved": 0, "lon": -77.04670616666667}, {"fusion_lat": 0.0, "name": "954754ef498f77e270e80f9aa577a3ba", "is_disabled": 0, "rental_uris": {"android": "https://dc.lft.to/lastmile_qr_scan", "ios": "https://dc.lft.to/lastmile_qr_scan"}, "fusion_lon": 0.0, "lat": 38.91696616666667, "bike_id": "954754ef498f77e270e80f9aa577a3ba", "type": "electric_scooter", "is_reserved": 0, "lon": -77.03131183333333}, {"fusion_lat": 0.0, "name": "a7a330668dbd14d63810a79b16932c74", "is_disabled": 0, "rental_uris": {"android": "https://dc.lft.to/lastmile_qr_scan", "ios": "https://dc.lft.to/lastmile_qr_scan"}, "fusion_lon": 0.0, "lat": 38.90462183333333, "bike_id": "a7a330668dbd14d63810a79b16932c74", "type": "electric_scooter", "is_reserved": 0, "lon": -77.03362283333334}, {"fusion_lat": 0.0, "name": "32c50e22004858d040dadfa8f3a02632", "is_disabled": 0, "rental_uris": {"android": "https://dc.lft.to/lastmile_qr_scan", "ios": "https://dc.lft.to/lastmile_qr_scan"}, "fusion_lon": 0.0, "lat": 38.913605, "bike_id": "32c50e22004858d040dadfa8f3a02632", "type": "electric_scooter", "is_reserved": 0, "lon": -77.04875616666666}, {"fusion_lat": 0.0, "name": "7b25d8c7cee67ee41fa38020873bb15c", "is_disabled": 0, "rental_uris": {"android": "https://dc.lft.to/lastmile_qr_scan", "ios": "https://dc.lft.to/lastmile_qr_scan"}, "fusion_lon": 0.0, "lat": 38.906986, "bike_id": "7b25d8c7cee67ee41fa38020873bb15c", "type": "electric_scooter", "is_reserved": 0, "lon": -77.04157233333333}, {"fusion_lat": 0.0, "name": "a25c8042aebea3d05eb9b130d9e80d15", "is_disabled": 0, "rental_uris": {"android": "https://dc.lft.to/lastmile_qr_scan", "ios": "https://dc.lft.to/lastmile_qr_scan"}, "fusion_lon": 0.0, "lat": 38.912532, "bike_id": "a25c8042aebea3d05eb9b130d9e80d15", "type": "electric_scooter", "is_reserved": 0, "lon": -77.04924416666667}, {"fusion_lat": 0.0, "name": "d2f0be5ed1ecad7974cc4aaffdb45ebc", "is_disabled": 0, "rental_uris": {"android": "https://dc.lft.to/lastmile_qr_scan", "ios": "https://dc.lft.to/lastmile_qr_scan"}, "fusion_lon": 0.0, "lat": 38.905646, "bike_id": "d2f0be5ed1ecad7974cc4aaffdb45ebc", "type": "electric_scooter", "is_reserved": 0, "lon": -77.04377383333333}, {"fusion_lat": 0.0, "name": "5c58eb48ad7ec53118f44b367b911852", "is_disabled": 0, "rental_uris": {"android": "https://dc.lft.to/lastmile_qr_scan", "ios": "https://dc.lft.to/lastmile_qr_scan"}, "fusion_lon": 0.0, "lat": 38.904994333333335, "bike_id": "5c58eb48ad7ec53118f44b367b911852", "type": "electric_scooter", "is_reserved": 0, "lon": -77.02958716666667}, {"fusion_lat": 0.0, "name": "19e85779e06a4195d7b8ff82b72b8157", "is_disabled": 0, "rental_uris": {"android": "https://dc.lft.to/lastmile_qr_scan", "ios": "https://dc.lft.to/lastmile_qr_scan"}, "fusion_lon": 0.0, "lat": 38.91948216666667, "bike_id": "19e85779e06a4195d7b8ff82b72b8157", "type": "electric_scooter", "is_reserved": 0, "lon": -77.0178055}, {"fusion_lat": 0.0, "name": "d8e412bb847d4dbfdd69f90330880a28", "is_disabled": 0, "rental_uris": {"android": "https://dc.lft.to/lastmile_qr_scan", "ios": "https://dc.lft.to/lastmile_qr_scan"}, "fusion_lon": 0.0, "lat": 39.056345, "bike_id": "d8e412bb847d4dbfdd69f90330880a28", "type": "electric_bike", "is_reserved": 0, "lon": -77.1252535}, {"fusion_lat": 0.0, "name": "18ca9f7901383fc7b234aa0c8abc6977", "is_disabled": 0, "rental_uris": {"android": "https://dc.lft.to/lastmile_qr_scan", "ios": "https://dc.lft.to/lastmile_qr_scan"}, "fusion_lon": 0.0, "lat": 38.890016, "bike_id": "18ca9f7901383fc7b234aa0c8abc6977", "type": "electric_scooter", "is_reserved": 0, "lon": -76.93741066666666}, {"fusion_lat": 0.0, "name": "b9424ddee42d90a6796d159ee7285ef2", "is_disabled": 0, "rental_uris": {"android": "https://dc.lft.to/lastmile_qr_scan", "ios": "https://dc.lft.to/lastmile_qr_scan"}, "fusion_lon": 0.0, "lat": 38.9239695, "bike_id": "b9424ddee42d90a6796d159ee7285ef2", "type": "electric_scooter", "is_reserved": 0, "lon": -77.02412283333334}, {"fusion_lat": 0.0, "name": "f571a2eb1142b01c6b6bc022726bfe0f", "is_disabled": 0, "rental_uris": {"android": "https://dc.lft.to/lastmile_qr_scan", "ios": "https://dc.lft.to/lastmile_qr_scan"}, "fusion_lon": 0.0, "lat": 38.930595333333336, "bike_id": "f571a2eb1142b01c6b6bc022726bfe0f", "type": "electric_scooter", "is_reserved": 0, "lon": -77.03161933333334}, {"fusion_lat": 0.0, "name": "995b5ed3d6c90e103b1eea288cf1a35c", "is_disabled": 0, "rental_uris": {"android": "https://dc.lft.to/lastmile_qr_scan", "ios": "https://dc.lft.to/lastmile_qr_scan"}, "fusion_lon": 0.0, "lat": 38.916943833333335, "bike_id": "995b5ed3d6c90e103b1eea288cf1a35c", "type": "electric_scooter", "is_reserved": 0, "lon": -77.03588666666667}, {"fusion_lat": 0.0, "name": "f73d3fd8a1aecdf5efee12e17289e6b1", "is_disabled": 0, "rental_uris": {"android": "https://dc.lft.to/lastmile_qr_scan", "ios": "https://dc.lft.to/lastmile_qr_scan"}, "fusion_lon": 0.0, "lat": 38.914047833333335, "bike_id": "f73d3fd8a1aecdf5efee12e17289e6b1", "type": "electric_scooter", "is_reserved": 0, "lon": -77.032286}, {"fusion_lat": 0.0, "name": "fb6398bcb2a2f78c41b7a0a4c6cf6b6c", "is_disabled": 0, "rental_uris": {"android": "https://dc.lft.to/lastmile_qr_scan", "ios": "https://dc.lft.to/lastmile_qr_scan"}, "fusion_lon": 0.0, "lat": 38.9161405, "bike_id": "fb6398bcb2a2f78c41b7a0a4c6cf6b6c", "type": "electric_scooter", "is_reserved": 0, "lon": -77.0295525}, {"fusion_lat": 0.0, "name": "0d8012ced072bac4f4725f224aab0bac", "is_disabled": 0, "rental_uris": {"android": "https://dc.lft.to/lastmile_qr_scan", "ios": "https://dc.lft.to/lastmile_qr_scan"}, "fusion_lon": 0.0, "lat": 38.89850783333333, "bike_id": "0d8012ced072bac4f4725f224aab0bac", "type": "electric_scooter", "is_reserved": 0, "lon": -77.03027333333333}, {"fusion_lat": 0.0, "name": "45ac26de6c8c58226983b1fd531b04f0", "is_disabled": 0, "rental_uris": {"android": "https://dc.lft.to/lastmile_qr_scan", "ios": "https://dc.lft.to/lastmile_qr_scan"}, "fusion_lon": 0.0, "lat": 38.9214825, "bike_id": "45ac26de6c8c58226983b1fd531b04f0", "type": "electric_scooter", "is_reserved": 0, "lon": -77.03869016666667}, {"fusion_lat": 0.0, "name": "14b14b566cf097dffd491988c6a49797", "is_disabled": 0, "rental_uris": {"android": "https://dc.lft.to/lastmile_qr_scan", "ios": "https://dc.lft.to/lastmile_qr_scan"}, "fusion_lon": 0.0, "lat": 38.92072533333333, "bike_id": "14b14b566cf097dffd491988c6a49797", "type": "electric_scooter", "is_reserved": 0, "lon": -77.02421166666667}, {"fusion_lat": 0.0, "name": "89ba44d8da5a3d111af82741175e432e", "is_disabled": 0, "rental_uris": {"android": "https://dc.lft.to/lastmile_qr_scan", "ios": "https://dc.lft.to/lastmile_qr_scan"}, "fusion_lon": 0.0, "lat": 38.91192783333334, "bike_id": "89ba44d8da5a3d111af82741175e432e", "type": "electric_scooter", "is_reserved": 0, "lon": -77.03258116666667}, {"fusion_lat": 0.0, "name": "10001b6cd803678f915f7897452edf67", "is_disabled": 0, "rental_uris": {"android": "https://dc.lft.to/lastmile_qr_scan", "ios": "https://dc.lft.to/lastmile_qr_scan"}, "fusion_lon": 0.0, "lat": 38.887697333333335, "bike_id": "10001b6cd803678f915f7897452edf67", "type": "electric_scooter", "is_reserved": 0, "lon": -76.9774945}, {"fusion_lat": 0.0, "name": "c4f00a5b490686876e66fc2e70194562", "is_disabled": 0, "rental_uris": {"android": "https://dc.lft.to/lastmile_qr_scan", "ios": "https://dc.lft.to/lastmile_qr_scan"}, "fusion_lon": 0.0, "lat": 38.90680066666667, "bike_id": "c4f00a5b490686876e66fc2e70194562", "type": "electric_bike", "is_reserved": 0, "lon": -76.94493816666666}, {"fusion_lat": 0.0, "name": "059da4c1b8fb83a22be688bbbdb47184", "is_disabled": 0, "rental_uris": {"android": "https://dc.lft.to/lastmile_qr_scan", "ios": "https://dc.lft.to/lastmile_qr_scan"}, "fusion_lon": 0.0, "lat": 38.901499333333334, "bike_id": "059da4c1b8fb83a22be688bbbdb47184", "type": "electric_scooter", "is_reserved": 0, "lon": -76.93070766666666}, {"fusion_lat": 0.0, "name": "b8f6502761d65f08f1d672de87616e7e", "is_disabled": 0, "rental_uris": {"android": "https://dc.lft.to/lastmile_qr_scan", "ios": "https://dc.lft.to/lastmile_qr_scan"}, "fusion_lon": 0.0, "lat": 38.909374666666665, "bike_id": "b8f6502761d65f08f1d672de87616e7e", "type": "electric_scooter", "is_reserved": 0, "lon": -77.018428}, {"fusion_lat": 0.0, "name": "6915183c7c26fc955c460e2b10c307a7", "is_disabled": 0, "rental_uris": {"android": "https://dc.lft.to/lastmile_qr_scan", "ios": "https://dc.lft.to/lastmile_qr_scan"}, "fusion_lon": 0.0, "lat": 38.92600316666667, "bike_id": "6915183c7c26fc955c460e2b10c307a7", "type": "electric_scooter", "is_reserved": 0, "lon": -77.02152733333334}, {"fusion_lat": 0.0, "name": "dc183a67f5875a05cbbdade38e3138fc", "is_disabled": 0, "rental_uris": {"android": "https://dc.lft.to/lastmile_qr_scan", "ios": "https://dc.lft.to/lastmile_qr_scan"}, "fusion_lon": 0.0, "lat": 38.915577666666664, "bike_id": "dc183a67f5875a05cbbdade38e3138fc", "type": "electric_scooter", "is_reserved": 0, "lon": -77.06754766666667}, {"fusion_lat": 0.0, "name": "de4e29914818d04bb8b3101757540037", "is_disabled": 0, "rental_uris": {"android": "https://dc.lft.to/lastmile_qr_scan", "ios": "https://dc.lft.to/lastmile_qr_scan"}, "fusion_lon": 0.0, "lat": 38.94409016666667, "bike_id": "de4e29914818d04bb8b3101757540037", "type": "electric_scooter", "is_reserved": 0, "lon": -77.03206683333333}, {"fusion_lat": 0.0, "name": "1f0134241ca4ab530003e39a3d99d6ca", "is_disabled": 0, "rental_uris": {"android": "https://dc.lft.to/lastmile_qr_scan", "ios": "https://dc.lft.to/lastmile_qr_scan"}, "fusion_lon": 0.0, "lat": 38.878983, "bike_id": "1f0134241ca4ab530003e39a3d99d6ca", "type": "electric_scooter", "is_reserved": 0, "lon": -77.01364683333334}, {"fusion_lat": 0.0, "name": "0480fa9a287510bfe83f2985d72b6c43", "is_disabled": 0, "rental_uris": {"android": "https://dc.lft.to/lastmile_qr_scan", "ios": "https://dc.lft.to/lastmile_qr_scan"}, "fusion_lon": 0.0, "lat": 38.8973185, "bike_id": "0480fa9a287510bfe83f2985d72b6c43", "type": "electric_scooter", "is_reserved": 0, "lon": -76.94721866666667}, {"fusion_lat": 0.0, "name": "3fb2e793ad4b01448177ac0456ac5f28", "is_disabled": 0, "rental_uris": {"android": "https://dc.lft.to/lastmile_qr_scan", "ios": "https://dc.lft.to/lastmile_qr_scan"}, "fusion_lon": 0.0, "lat": 38.912629833333334, "bike_id": "3fb2e793ad4b01448177ac0456ac5f28", "type": "electric_scooter", "is_reserved": 0, "lon": -77.03215466666667}, {"fusion_lat": 0.0, "name": "552e72b1189fea44868fd45c31da7cea", "is_disabled": 0, "rental_uris": {"android": "https://dc.lft.to/lastmile_qr_scan", "ios": "https://dc.lft.to/lastmile_qr_scan"}, "fusion_lon": 0.0, "lat": 38.905091666666664, "bike_id": "552e72b1189fea44868fd45c31da7cea", "type": "electric_scooter", "is_reserved": 0, "lon": -77.04063133333334}, {"fusion_lat": 0.0, "name": "af8ead38c29a543e242c1df3c459ebbf", "is_disabled": 0, "rental_uris": {"android": "https://dc.lft.to/lastmile_qr_scan", "ios": "https://dc.lft.to/lastmile_qr_scan"}, "fusion_lon": 0.0, "lat": 38.92769066666666, "bike_id": "af8ead38c29a543e242c1df3c459ebbf", "type": "electric_scooter", "is_reserved": 0, "lon": -77.01612833333333}, {"fusion_lat": 0.0, "name": "41e8a3f795ebc981ca4309454c654c1d", "is_disabled": 0, "rental_uris": {"android": "https://dc.lft.to/lastmile_qr_scan", "ios": "https://dc.lft.to/lastmile_qr_scan"}, "fusion_lon": 0.0, "lat": 38.913294, "bike_id": "41e8a3f795ebc981ca4309454c654c1d", "type": "electric_scooter", "is_reserved": 0, "lon": -77.0503625}, {"fusion_lat": 0.0, "name": "d2470916530686a4b0c1ce90422cd2f9", "is_disabled": 0, "rental_uris": {"android": "https://dc.lft.to/lastmile_qr_scan", "ios": "https://dc.lft.to/lastmile_qr_scan"}, "fusion_lon": 0.0, "lat": 38.926584166666665, "bike_id": "d2470916530686a4b0c1ce90422cd2f9", "type": "electric_scooter", "is_reserved": 0, "lon": -77.05342366666666}, {"fusion_lat": 0.0, "name": "62a467c96cbdad610fa77f14936a7aae", "is_disabled": 0, "rental_uris": {"android": "https://dc.lft.to/lastmile_qr_scan", "ios": "https://dc.lft.to/lastmile_qr_scan"}, "fusion_lon": 0.0, "lat": 38.843523833333336, "bike_id": "62a467c96cbdad610fa77f14936a7aae", "type": "electric_bike", "is_reserved": 0, "lon": -76.97819733333333}, {"fusion_lat": 0.0, "name": "72d7e5309b0853daf40b05776176134f", "is_disabled": 0, "rental_uris": {"android": "https://dc.lft.to/lastmile_qr_scan", "ios": "https://dc.lft.to/lastmile_qr_scan"}, "fusion_lon": 0.0, "lat": 38.958869, "bike_id": "72d7e5309b0853daf40b05776176134f", "type": "electric_bike", "is_reserved": 0, "lon": -76.92487733333333}, {"fusion_lat": 0.0, "name": "57d7934a33c31b1bdd98781956cbcbc9", "is_disabled": 0, "rental_uris": {"android": "https://dc.lft.to/lastmile_qr_scan", "ios": "https://dc.lft.to/lastmile_qr_scan"}, "fusion_lon": 0.0, "lat": 38.961877, "bike_id": "57d7934a33c31b1bdd98781956cbcbc9", "type": "electric_bike", "is_reserved": 0, "lon": -77.05269816666667}, {"fusion_lat": 0.0, "name": "356e2d7da3b40f3fd74bd2f5058251b5", "is_disabled": 0, "rental_uris": {"android": "https://dc.lft.to/lastmile_qr_scan", "ios": "https://dc.lft.to/lastmile_qr_scan"}, "fusion_lon": 0.0, "lat": 38.94615966666667, "bike_id": "356e2d7da3b40f3fd74bd2f5058251b5", "type": "electric_scooter", "is_reserved": 0, "lon": -77.08018066666666}, {"fusion_lat": 0.0, "name": "8b665c45e80ee481add1328572b59420", "is_disabled": 0, "rental_uris": {"android": "https://dc.lft.to/lastmile_qr_scan", "ios": "https://dc.lft.to/lastmile_qr_scan"}, "fusion_lon": 0.0, "lat": 38.928458666666664, "bike_id": "8b665c45e80ee481add1328572b59420", "type": "electric_scooter", "is_reserved": 0, "lon": -77.01405083333333}, {"fusion_lat": 0.0, "name": "83735cd5a2b02d0ec792151a7182ed2b", "is_disabled": 0, "rental_uris": {"android": "https://dc.lft.to/lastmile_qr_scan", "ios": "https://dc.lft.to/lastmile_qr_scan"}, "fusion_lon": 0.0, "lat": 38.9223215, "bike_id": "83735cd5a2b02d0ec792151a7182ed2b", "type": "electric_scooter", "is_reserved": 0, "lon": -77.0184275}, {"fusion_lat": 0.0, "name": "1f918fcfc19a56bbaab692253dc62d5c", "is_disabled": 0, "rental_uris": {"android": "https://dc.lft.to/lastmile_qr_scan", "ios": "https://dc.lft.to/lastmile_qr_scan"}, "fusion_lon": 0.0, "lat": 38.94826416666667, "bike_id": "1f918fcfc19a56bbaab692253dc62d5c", "type": "electric_scooter", "is_reserved": 0, "lon": -77.08004533333333}, {"fusion_lat": 0.0, "name": "7e006c55fb33b06452ab9d3f931ac499", "is_disabled": 0, "rental_uris": {"android": "https://dc.lft.to/lastmile_qr_scan", "ios": "https://dc.lft.to/lastmile_qr_scan"}, "fusion_lon": 0.0, "lat": 38.91783, "bike_id": "7e006c55fb33b06452ab9d3f931ac499", "type": "electric_scooter", "is_reserved": 0, "lon": -77.0322315}, {"fusion_lat": 0.0, "name": "5831cce6ad88b4371ae8184597882e58", "is_disabled": 0, "rental_uris": {"android": "https://dc.lft.to/lastmile_qr_scan", "ios": "https://dc.lft.to/lastmile_qr_scan"}, "fusion_lon": 0.0, "lat": 38.8836145, "bike_id": "5831cce6ad88b4371ae8184597882e58", "type": "electric_scooter", "is_reserved": 0, "lon": -76.94157483333333}, {"fusion_lat": 0.0, "name": "308340d2c9d016850f2e45e8b5a52571", "is_disabled": 0, "rental_uris": {"android": "https://dc.lft.to/lastmile_qr_scan", "ios": "https://dc.lft.to/lastmile_qr_scan"}, "fusion_lon": 0.0, "lat": 38.874893166666666, "bike_id": "308340d2c9d016850f2e45e8b5a52571", "type": "electric_bike", "is_reserved": 0, "lon": -77.211229}, {"fusion_lat": 0.0, "name": "fe85d1f648f6fd4dbff62277c4049c10", "is_disabled": 0, "rental_uris": {"android": "https://dc.lft.to/lastmile_qr_scan", "ios": "https://dc.lft.to/lastmile_qr_scan"}, "fusion_lon": 0.0, "lat": 38.904937333333336, "bike_id": "fe85d1f648f6fd4dbff62277c4049c10", "type": "electric_scooter", "is_reserved": 0, "lon": -77.02595216666667}, {"fusion_lat": 0.0, "name": "d27c169c6ff5325f30b192dced7ce802", "is_disabled": 0, "rental_uris": {"android": "https://dc.lft.to/lastmile_qr_scan", "ios": "https://dc.lft.to/lastmile_qr_scan"}, "fusion_lon": 0.0, "lat": 38.91965316666667, "bike_id": "d27c169c6ff5325f30b192dced7ce802", "type": "electric_scooter", "is_reserved": 0, "lon": -77.01785766666667}, {"fusion_lat": 0.0, "name": "57b0fcdd4ccb8f8a07f7b997c8cda2eb", "is_disabled": 0, "rental_uris": {"android": "https://dc.lft.to/lastmile_qr_scan", "ios": "https://dc.lft.to/lastmile_qr_scan"}, "fusion_lon": 0.0, "lat": 38.8788815, "bike_id": "57b0fcdd4ccb8f8a07f7b997c8cda2eb", "type": "electric_scooter", "is_reserved": 0, "lon": -76.99472083333333}, {"fusion_lat": 0.0, "name": "380d6ed874cbc91a424d0b069b8c6282", "is_disabled": 0, "rental_uris": {"android": "https://dc.lft.to/lastmile_qr_scan", "ios": "https://dc.lft.to/lastmile_qr_scan"}, "fusion_lon": 0.0, "lat": 38.926060166666666, "bike_id": "380d6ed874cbc91a424d0b069b8c6282", "type": "electric_scooter", "is_reserved": 0, "lon": -77.03958433333334}, {"fusion_lat": 0.0, "name": "cdc73c564f4b72f687835602d09aae7e", "is_disabled": 0, "rental_uris": {"android": "https://dc.lft.to/lastmile_qr_scan", "ios": "https://dc.lft.to/lastmile_qr_scan"}, "fusion_lon": 0.0, "lat": 38.88300533333334, "bike_id": "cdc73c564f4b72f687835602d09aae7e", "type": "electric_scooter", "is_reserved": 0, "lon": -76.94859383333333}, {"fusion_lat": 0.0, "name": "792f526e9f03b3b8f7cdaffe05e235da", "is_disabled": 0, "rental_uris": {"android": "https://dc.lft.to/lastmile_qr_scan", "ios": "https://dc.lft.to/lastmile_qr_scan"}, "fusion_lon": 0.0, "lat": 38.91686416666667, "bike_id": "792f526e9f03b3b8f7cdaffe05e235da", "type": "electric_scooter", "is_reserved": 0, "lon": -77.02307816666666}, {"fusion_lat": 0.0, "name": "3c5a431b788d055a337d7d970bb6d72e", "is_disabled": 0, "rental_uris": {"android": "https://dc.lft.to/lastmile_qr_scan", "ios": "https://dc.lft.to/lastmile_qr_scan"}, "fusion_lon": 0.0, "lat": 38.863336833333335, "bike_id": "3c5a431b788d055a337d7d970bb6d72e", "type": "electric_bike", "is_reserved": 0, "lon": -76.9872725}, {"fusion_lat": 0.0, "name": "15eb9675fa6cf61f41125ccabfbd0814", "is_disabled": 0, "rental_uris": {"android": "https://dc.lft.to/lastmile_qr_scan", "ios": "https://dc.lft.to/lastmile_qr_scan"}, "fusion_lon": 0.0, "lat": 38.90856616666667, "bike_id": "15eb9675fa6cf61f41125ccabfbd0814", "type": "electric_scooter", "is_reserved": 0, "lon": -77.034574}, {"fusion_lat": 0.0, "name": "d472c8a76d67eead04716c9c847aa1d5", "is_disabled": 0, "rental_uris": {"android": "https://dc.lft.to/lastmile_qr_scan", "ios": "https://dc.lft.to/lastmile_qr_scan"}, "fusion_lon": 0.0, "lat": 38.887761833333336, "bike_id": "d472c8a76d67eead04716c9c847aa1d5", "type": "electric_scooter", "is_reserved": 0, "lon": -77.01506516666667}, {"fusion_lat": 0.0, "name": "f0da52e6e6d5e36aad66e8b4dc3e0767", "is_disabled": 0, "rental_uris": {"android": "https://dc.lft.to/lastmile_qr_scan", "ios": "https://dc.lft.to/lastmile_qr_scan"}, "fusion_lon": 0.0, "lat": 38.900124, "bike_id": "f0da52e6e6d5e36aad66e8b4dc3e0767", "type": "electric_scooter", "is_reserved": 0, "lon": -77.0111645}, {"fusion_lat": 0.0, "name": "04473e7eb9aee8971f763d6398d67611", "is_disabled": 0, "rental_uris": {"android": "https://dc.lft.to/lastmile_qr_scan", "ios": "https://dc.lft.to/lastmile_qr_scan"}, "fusion_lon": 0.0, "lat": 38.85591633333333, "bike_id": "04473e7eb9aee8971f763d6398d67611", "type": "electric_scooter", "is_reserved": 0, "lon": -76.97260466666667}, {"fusion_lat": 0.0, "name": "bb25e61c5115f7cb716169bd42ce13bc", "is_disabled": 0, "rental_uris": {"android": "https://dc.lft.to/lastmile_qr_scan", "ios": "https://dc.lft.to/lastmile_qr_scan"}, "fusion_lon": 0.0, "lat": 38.90731816666667, "bike_id": "bb25e61c5115f7cb716169bd42ce13bc", "type": "electric_scooter", "is_reserved": 0, "lon": -77.00956333333333}, {"fusion_lat": 0.0, "name": "38d62c59d457f19add727429c4ef406c", "is_disabled": 0, "rental_uris": {"android": "https://dc.lft.to/lastmile_qr_scan", "ios": "https://dc.lft.to/lastmile_qr_scan"}, "fusion_lon": 0.0, "lat": 38.902472333333336, "bike_id": "38d62c59d457f19add727429c4ef406c", "type": "electric_scooter", "is_reserved": 0, "lon": -77.02828066666666}, {"fusion_lat": 0.0, "name": "400822364f788171547a5db50d9285dd", "is_disabled": 0, "rental_uris": {"android": "https://dc.lft.to/lastmile_qr_scan", "ios": "https://dc.lft.to/lastmile_qr_scan"}, "fusion_lon": 0.0, "lat": 38.90228066666667, "bike_id": "400822364f788171547a5db50d9285dd", "type": "electric_scooter", "is_reserved": 0, "lon": -77.06022483333334}, {"fusion_lat": 0.0, "name": "aedc97e5363a52921c8342b23132077c", "is_disabled": 0, "rental_uris": {"android": "https://dc.lft.to/lastmile_qr_scan", "ios": "https://dc.lft.to/lastmile_qr_scan"}, "fusion_lon": 0.0, "lat": 38.935300833333336, "bike_id": "aedc97e5363a52921c8342b23132077c", "type": "electric_scooter", "is_reserved": 0, "lon": -77.04511816666667}, {"fusion_lat": 0.0, "name": "a22c60b4db6f9c4d6c0ed1b64d2dd436", "is_disabled": 0, "rental_uris": {"android": "https://dc.lft.to/lastmile_qr_scan", "ios": "https://dc.lft.to/lastmile_qr_scan"}, "fusion_lon": 0.0, "lat": 38.883035, "bike_id": "a22c60b4db6f9c4d6c0ed1b64d2dd436", "type": "electric_scooter", "is_reserved": 0, "lon": -77.01379116666666}, {"fusion_lat": 0.0, "name": "5cb207c54b4c83d6d9e5f2e00029311a", "is_disabled": 0, "rental_uris": {"android": "https://dc.lft.to/lastmile_qr_scan", "ios": "https://dc.lft.to/lastmile_qr_scan"}, "fusion_lon": 0.0, "lat": 38.905559, "bike_id": "5cb207c54b4c83d6d9e5f2e00029311a", "type": "electric_scooter", "is_reserved": 0, "lon": -77.03470466666667}, {"fusion_lat": 0.0, "name": "60237ca1848ed5c8977d35d92d0e85ce", "is_disabled": 0, "rental_uris": {"android": "https://dc.lft.to/lastmile_qr_scan", "ios": "https://dc.lft.to/lastmile_qr_scan"}, "fusion_lon": 0.0, "lat": 38.903502833333334, "bike_id": "60237ca1848ed5c8977d35d92d0e85ce", "type": "electric_scooter", "is_reserved": 0, "lon": -76.974785}, {"fusion_lat": 0.0, "name": "b4b4e99862dd334432f679fcdc72ce12", "is_disabled": 0, "rental_uris": {"android": "https://dc.lft.to/lastmile_qr_scan", "ios": "https://dc.lft.to/lastmile_qr_scan"}, "fusion_lon": 0.0, "lat": 38.90037933333333, "bike_id": "b4b4e99862dd334432f679fcdc72ce12", "type": "electric_scooter", "is_reserved": 0, "lon": -77.026149}, {"fusion_lat": 0.0, "name": "32b7a43639fc01bdb5c7c452e6edad25", "is_disabled": 0, "rental_uris": {"android": "https://dc.lft.to/lastmile_qr_scan", "ios": "https://dc.lft.to/lastmile_qr_scan"}, "fusion_lon": 0.0, "lat": 38.9737395, "bike_id": "32b7a43639fc01bdb5c7c452e6edad25", "type": "electric_scooter", "is_reserved": 0, "lon": -77.012906}, {"fusion_lat": 0.0, "name": "f4da491bd518679427326c9a4628e407", "is_disabled": 0, "rental_uris": {"android": "https://dc.lft.to/lastmile_qr_scan", "ios": "https://dc.lft.to/lastmile_qr_scan"}, "fusion_lon": 0.0, "lat": 38.93462866666667, "bike_id": "f4da491bd518679427326c9a4628e407", "type": "electric_scooter", "is_reserved": 0, "lon": -77.0339555}, {"fusion_lat": 0.0, "name": "9d880bc34b2d2b9ae9d619d17a8bab41", "is_disabled": 0, "rental_uris": {"android": "https://dc.lft.to/lastmile_qr_scan", "ios": "https://dc.lft.to/lastmile_qr_scan"}, "fusion_lon": 0.0, "lat": 38.90535583333333, "bike_id": "9d880bc34b2d2b9ae9d619d17a8bab41", "type": "electric_scooter", "is_reserved": 0, "lon": -77.04751533333334}, {"fusion_lat": 0.0, "name": "86d149e212d7e8d434e7485f63329d57", "is_disabled": 0, "rental_uris": {"android": "https://dc.lft.to/lastmile_qr_scan", "ios": "https://dc.lft.to/lastmile_qr_scan"}, "fusion_lon": 0.0, "lat": 38.938782833333335, "bike_id": "86d149e212d7e8d434e7485f63329d57", "type": "electric_scooter", "is_reserved": 0, "lon": -77.02467383333334}, {"fusion_lat": 0.0, "name": "c014e01e4dd1088feb1fb58d4cff5d56", "is_disabled": 0, "rental_uris": {"android": "https://dc.lft.to/lastmile_qr_scan", "ios": "https://dc.lft.to/lastmile_qr_scan"}, "fusion_lon": 0.0, "lat": 38.90970566666667, "bike_id": "c014e01e4dd1088feb1fb58d4cff5d56", "type": "electric_scooter", "is_reserved": 0, "lon": -77.04872016666667}, {"fusion_lat": 0.0, "name": "9e057cd13a334c7255e2e8eac1e72fde", "is_disabled": 0, "rental_uris": {"android": "https://dc.lft.to/lastmile_qr_scan", "ios": "https://dc.lft.to/lastmile_qr_scan"}, "fusion_lon": 0.0, "lat": 38.905274166666665, "bike_id": "9e057cd13a334c7255e2e8eac1e72fde", "type": "electric_scooter", "is_reserved": 0, "lon": -77.06246083333333}, {"fusion_lat": 0.0, "name": "2c5a1e9b7d434d3181678176ac1ebbdf", "is_disabled": 0, "rental_uris": {"android": "https://dc.lft.to/lastmile_qr_scan", "ios": "https://dc.lft.to/lastmile_qr_scan"}, "fusion_lon": 0.0, "lat": 38.921573, "bike_id": "2c5a1e9b7d434d3181678176ac1ebbdf", "type": "electric_scooter", "is_reserved": 0, "lon": -77.02980816666667}, {"fusion_lat": 0.0, "name": "62abf777104decc806355b8b3b3adf84", "is_disabled": 0, "rental_uris": {"android": "https://dc.lft.to/lastmile_qr_scan", "ios": "https://dc.lft.to/lastmile_qr_scan"}, "fusion_lon": 0.0, "lat": 38.887208333333334, "bike_id": "62abf777104decc806355b8b3b3adf84", "type": "electric_scooter", "is_reserved": 0, "lon": -77.01981216666667}, {"fusion_lat": 0.0, "name": "18219da3a5b8a02aa8fffb6f08495480", "is_disabled": 0, "rental_uris": {"android": "https://dc.lft.to/lastmile_qr_scan", "ios": "https://dc.lft.to/lastmile_qr_scan"}, "fusion_lon": 0.0, "lat": 38.90717016666667, "bike_id": "18219da3a5b8a02aa8fffb6f08495480", "type": "electric_scooter", "is_reserved": 0, "lon": -77.03436433333333}, {"fusion_lat": 0.0, "name": "fa32d58f334fa324f500089059bf6e36", "is_disabled": 0, "rental_uris": {"android": "https://dc.lft.to/lastmile_qr_scan", "ios": "https://dc.lft.to/lastmile_qr_scan"}, "fusion_lon": 0.0, "lat": 38.905753, "bike_id": "fa32d58f334fa324f500089059bf6e36", "type": "electric_scooter", "is_reserved": 0, "lon": -77.03845116666666}, {"fusion_lat": 0.0, "name": "5b4ea1fdadf1644a0230aa78e8aa12e4", "is_disabled": 0, "rental_uris": {"android": "https://dc.lft.to/lastmile_qr_scan", "ios": "https://dc.lft.to/lastmile_qr_scan"}, "fusion_lon": 0.0, "lat": 38.9167715, "bike_id": "5b4ea1fdadf1644a0230aa78e8aa12e4", "type": "electric_scooter", "is_reserved": 0, "lon": -77.0238655}, {"fusion_lat": 0.0, "name": "1b38fa8d8ed71c7613c4df9b4d41eeef", "is_disabled": 0, "rental_uris": {"android": "https://dc.lft.to/lastmile_qr_scan", "ios": "https://dc.lft.to/lastmile_qr_scan"}, "fusion_lon": 0.0, "lat": 38.915958333333336, "bike_id": "1b38fa8d8ed71c7613c4df9b4d41eeef", "type": "electric_scooter", "is_reserved": 0, "lon": -77.03214883333334}, {"fusion_lat": 0.0, "name": "452d9a7c8f14f1ba1543d6dd00e3356b", "is_disabled": 0, "rental_uris": {"android": "https://dc.lft.to/lastmile_qr_scan", "ios": "https://dc.lft.to/lastmile_qr_scan"}, "fusion_lon": 0.0, "lat": 38.914668, "bike_id": "452d9a7c8f14f1ba1543d6dd00e3356b", "type": "electric_scooter", "is_reserved": 0, "lon": -77.04996983333334}, {"fusion_lat": 0.0, "name": "8a3467546efec4d9ab75b61a1e8b1595", "is_disabled": 0, "rental_uris": {"android": "https://dc.lft.to/lastmile_qr_scan", "ios": "https://dc.lft.to/lastmile_qr_scan"}, "fusion_lon": 0.0, "lat": 38.9088725, "bike_id": "8a3467546efec4d9ab75b61a1e8b1595", "type": "electric_scooter", "is_reserved": 0, "lon": -77.06427833333333}, {"fusion_lat": 0.0, "name": "092af5b201a135b6fe79e18cf31af9cf", "is_disabled": 0, "rental_uris": {"android": "https://dc.lft.to/lastmile_qr_scan", "ios": "https://dc.lft.to/lastmile_qr_scan"}, "fusion_lon": 0.0, "lat": 38.9437455, "bike_id": "092af5b201a135b6fe79e18cf31af9cf", "type": "electric_scooter", "is_reserved": 0, "lon": -77.06350933333333}, {"fusion_lat": 0.0, "name": "9c927156615b0d2e745d3bd191be6ff1", "is_disabled": 0, "rental_uris": {"android": "https://dc.lft.to/lastmile_qr_scan", "ios": "https://dc.lft.to/lastmile_qr_scan"}, "fusion_lon": 0.0, "lat": 38.907096333333335, "bike_id": "9c927156615b0d2e745d3bd191be6ff1", "type": "electric_scooter", "is_reserved": 0, "lon": -76.99842883333334}, {"fusion_lat": 0.0, "name": "16ca43bb515f9e06d05728e8d18f36a2", "is_disabled": 0, "rental_uris": {"android": "https://dc.lft.to/lastmile_qr_scan", "ios": "https://dc.lft.to/lastmile_qr_scan"}, "fusion_lon": 0.0, "lat": 38.918002, "bike_id": "16ca43bb515f9e06d05728e8d18f36a2", "type": "electric_scooter", "is_reserved": 0, "lon": -77.03664116666667}, {"fusion_lat": 0.0, "name": "17eff23b5211dddcc7106c47b5f38778", "is_disabled": 0, "rental_uris": {"android": "https://dc.lft.to/lastmile_qr_scan", "ios": "https://dc.lft.to/lastmile_qr_scan"}, "fusion_lon": 0.0, "lat": 38.9001935, "bike_id": "17eff23b5211dddcc7106c47b5f38778", "type": "electric_scooter", "is_reserved": 0, "lon": -77.00179766666666}, {"fusion_lat": 0.0, "name": "1563734ec3e3ceb9ad512dc83d241bd3", "is_disabled": 0, "rental_uris": {"android": "https://dc.lft.to/lastmile_qr_scan", "ios": "https://dc.lft.to/lastmile_qr_scan"}, "fusion_lon": 0.0, "lat": 38.9001855, "bike_id": "1563734ec3e3ceb9ad512dc83d241bd3", "type": "electric_scooter", "is_reserved": 0, "lon": -77.03481033333334}, {"fusion_lat": 0.0, "name": "46bb54100dcb9db081426d28a08fb99a", "is_disabled": 0, "rental_uris": {"android": "https://dc.lft.to/lastmile_qr_scan", "ios": "https://dc.lft.to/lastmile_qr_scan"}, "fusion_lon": 0.0, "lat": 38.8475375, "bike_id": "46bb54100dcb9db081426d28a08fb99a", "type": "electric_scooter", "is_reserved": 0, "lon": -76.99498316666667}, {"fusion_lat": 0.0, "name": "c6258a8ced5b28720bbf60a291647b06", "is_disabled": 0, "rental_uris": {"android": "https://dc.lft.to/lastmile_qr_scan", "ios": "https://dc.lft.to/lastmile_qr_scan"}, "fusion_lon": 0.0, "lat": 38.873807, "bike_id": "c6258a8ced5b28720bbf60a291647b06", "type": "electric_scooter", "is_reserved": 0, "lon": -77.00004216666666}, {"fusion_lat": 0.0, "name": "9c957744fad936943665acd62b9a38ed", "is_disabled": 0, "rental_uris": {"android": "https://dc.lft.to/lastmile_qr_scan", "ios": "https://dc.lft.to/lastmile_qr_scan"}, "fusion_lon": 0.0, "lat": 38.904066, "bike_id": "9c957744fad936943665acd62b9a38ed", "type": "electric_scooter", "is_reserved": 0, "lon": -77.02390733333333}, {"fusion_lat": 0.0, "name": "62b1e4705a1c0c748a1a88521ebc92d9", "is_disabled": 0, "rental_uris": {"android": "https://dc.lft.to/lastmile_qr_scan", "ios": "https://dc.lft.to/lastmile_qr_scan"}, "fusion_lon": 0.0, "lat": 38.896170166666664, "bike_id": "62b1e4705a1c0c748a1a88521ebc92d9", "type": "electric_scooter", "is_reserved": 0, "lon": -77.0091795}, {"fusion_lat": 0.0, "name": "a76fba858f2a74a2141475fbb435722c", "is_disabled": 0, "rental_uris": {"android": "https://dc.lft.to/lastmile_qr_scan", "ios": "https://dc.lft.to/lastmile_qr_scan"}, "fusion_lon": 0.0, "lat": 38.93519783333333, "bike_id": "a76fba858f2a74a2141475fbb435722c", "type": "electric_scooter", "is_reserved": 0, "lon": -77.07261433333333}, {"fusion_lat": 0.0, "name": "e450dfd9fa0e049acf92b17452e3b273", "is_disabled": 0, "rental_uris": {"android": "https://dc.lft.to/lastmile_qr_scan", "ios": "https://dc.lft.to/lastmile_qr_scan"}, "fusion_lon": 0.0, "lat": 38.878829, "bike_id": "e450dfd9fa0e049acf92b17452e3b273", "type": "electric_scooter", "is_reserved": 0, "lon": -77.02234033333333}, {"fusion_lat": 0.0, "name": "20b44235bbc408022d5c99f5e10587d2", "is_disabled": 0, "rental_uris": {"android": "https://dc.lft.to/lastmile_qr_scan", "ios": "https://dc.lft.to/lastmile_qr_scan"}, "fusion_lon": 0.0, "lat": 38.898740333333336, "bike_id": "20b44235bbc408022d5c99f5e10587d2", "type": "electric_scooter", "is_reserved": 0, "lon": -76.93184183333334},