{"data": {"bikes": [{"lon": -77.04128, "name": "447e0760b8ac4b068fa9aa3f87e50b96", "is_disabled": 0, "type": "electric_scooter", "is_reserved": 0, "fusion_lon": 0.0, "lat": 38.91888683333333, "rental_uris": {"ios": "https://dc.lft.to/lastmile_qr_scan", "android": "https://dc.lft.to/lastmile_qr_scan"}, "bike_id": "447e0760b8ac4b068fa9aa3f87e50b96", "fusion_lat": 0.0}, {"lon": -77.02850166666667, "name": "5a3f78362ce6ea2f6a2c097731d91da2", "is_disabled": 0, "type": "electric_scooter", "is_reserved": 0, "fusion_lon": 0.0, "lat": 38.935287333333335, "rental_uris": {"ios": "https://dc.lft.to/lastmile_qr_scan", "android": "https://dc.lft.to/lastmile_qr_scan"}, "bike_id": "5a3f78362ce6ea2f6a2c097731d91da2", "fusion_lat": 0.0}, {"lon": -77.029701, "name": "56760486e27defeceb7f0b4e35812039", "is_disabled": 0, "type": "electric_scooter", "is_reserved": 0, "fusion_lon": 0.0, "lat": 38.904928166666664, "rental_uris": {"ios": "https://dc.lft.to/lastmile_qr_scan", "android": "https://dc.lft.to/lastmile_qr_scan"}, "bike_id": "56760486e27defeceb7f0b4e35812039", "fusion_lat": 0.0}, {"lon": -77.02193683333333, "name": "02c2aeaeb406d11620178ddf97d2c4b3", "is_disabled": 0, "type": "electric_scooter", "is_reserved": 0, "fusion_lon": 0.0, "lat": 38.91010583333333, "rental_uris": {"ios": "https://dc.lft.to/lastmile_qr_scan", "android": "https://dc.lft.to/lastmile_qr_scan"}, "bike_id": "02c2aeaeb406d11620178ddf97d2c4b3", "fusion_lat": 0.0}, {"lon": -77.01615316666667, "name": "776641f0e1a38483b8319515a42e9fcb", "is_disabled": 0, "type": "electric_scooter", "is_reserved": 0, "fusion_lon": 0.0, "lat": 38.9106965, "rental_uris": {"ios": "https://dc.lft.to/lastmile_qr_scan", "android": "https://dc.lft.to/lastmile_qr_scan"}, "bike_id": "776641f0e1a38483b8319515a42e9fcb", "fusion_lat": 0.0}, {"lon": -77.0254475, "name": "80c6600557bd1846e93351477eca82d0", "is_disabled": 0, "type": "electric_scooter", "is_reserved": 0, "fusion_lon": 0.0, "lat": 38.9071925, "rental_uris": {"ios": "https://dc.lft.to/lastmile_qr_scan", "android": "https://dc.lft.to/lastmile_qr_scan"}, "bike_id": "80c6600557bd1846e93351477eca82d0", "fusion_lat": 0.0}, {"lon": -77.05095483333334, "name": "339285e119e3352235b1efcd61c4a454", "is_disabled": 0, "type": "electric_bike", "is_reserved": 0, "fusion_lon": 0.0, "lat": 38.81330333333333, "rental_uris": {"ios": "https://dc.lft.to/lastmile_qr_scan", "android": "https://dc.lft.to/lastmile_qr_scan"}, "bike_id": "339285e119e3352235b1efcd61c4a454", "fusion_lat": 0.0}, {"lon": -77.02050733333333, "name": "23659beeb7adfa9378e6c19d815de66a", "is_disabled": 0, "type": "electric_scooter", "is_reserved": 0, "fusion_lon": 0.0, "lat": 38.921766, "rental_uris": {"ios": "https://dc.lft.to/lastmile_qr_scan", "android": "https://dc.lft.to/lastmile_qr_scan"}, "bike_id": "23659beeb7adfa9378e6c19d815de66a", "fusion_lat": 0.0}, {"lon": -77.0849595, "name": "2b74bc13be3cf3195ae927a31980a2b3", "is_disabled": 0, "type": "electric_scooter", "is_reserved": 0, "fusion_lon": 0.0, "lat": 38.958908, "rental_uris": {"ios": "https://dc.lft.to/lastmile_qr_scan", "android": "https://dc.lft.to/lastmile_qr_scan"}, "bike_id": "2b74bc13be3cf3195ae927a31980a2b3", "fusion_lat": 0.0}, {"lon": -77.04317883333333, "name": "92d2d0ccda037fe9ae8ce59d63e49b53", "is_disabled": 0, "type": "electric_scooter", "is_reserved": 0, "fusion_lon": 0.0, "lat": 38.922084, "rental_uris": {"ios": "https://dc.lft.to/lastmile_qr_scan", "android": "https://dc.lft.to/lastmile_qr_scan"}, "bike_id": "92d2d0ccda037fe9ae8ce59d63e49b53", "fusion_lat": 0.0}, {"lon": -77.038263, "name": "3841a344726581c219d3f227f90248bb", "is_disabled": 0, "type": "electric_scooter", "is_reserved": 0, "fusion_lon": 0.0, "lat": 38.91104633333333, "rental_uris": {"ios": "https://dc.lft.to/lastmile_qr_scan", "android": "https://dc.lft.to/lastmile_qr_scan"}, "bike_id": "3841a344726581c219d3f227f90248bb", "fusion_lat": 0.0}, {"lon": -77.02688616666667, "name": "79f672b1169a7c917a770c80340ea00e", "is_disabled": 0, "type": "electric_scooter", "is_reserved": 0, "fusion_lon": 0.0, "lat": 38.916933, "rental_uris": {"ios": "https://dc.lft.to/lastmile_qr_scan", "android": "https://dc.lft.to/lastmile_qr_scan"}, "bike_id": "79f672b1169a7c917a770c80340ea00e", "fusion_lat": 0.0}, {"lon": -77.02158266666666, "name": "a8a3674ab7c525c9a64e33ef50c2794f", "is_disabled": 0, "type": "electric_scooter", "is_reserved": 0, "fusion_lon": 0.0, "lat": 38.92612233333333, "rental_uris": {"ios": "https://dc.lft.to/lastmile_qr_scan", "android": "https://dc.lft.to/lastmile_qr_scan"}, "bike_id": "a8a3674ab7c525c9a64e33ef50c2794f", "fusion_lat": 0.0}, {"lon": -76.94820433333334, "name": "1cbb8328d465a1a02afff9ce165a9890", "is_disabled": 0, "type": "electric_bike", "is_reserved": 0, "fusion_lon": 0.0, "lat": 38.893527666666664, "rental_uris": {"ios": "https://dc.lft.to/lastmile_qr_scan", "android": "https://dc.lft.to/lastmile_qr_scan"}, "bike_id": "1cbb8328d465a1a02afff9ce165a9890", "fusion_lat": 0.0}, {"lon": -77.03194133333334, "name": "70bf1677aa5a836cc93236a3df86e356", "is_disabled": 0, "type": "electric_scooter", "is_reserved": 0, "fusion_lon": 0.0, "lat": 38.920533, "rental_uris": {"ios": "https://dc.lft.to/lastmile_qr_scan", "android": "https://dc.lft.to/lastmile_qr_scan"}, "bike_id": "70bf1677aa5a836cc93236a3df86e356", "fusion_lat": 0.0}, {"lon": -77.02964733333333, "name": "d9a2222b270efb224f63fc317ccd59cb", "is_disabled": 0, "type": "electric_scooter", "is_reserved": 0, "fusion_lon": 0.0, "lat": 38.925884333333336, "rental_uris": {"ios": "https://dc.lft.to/lastmile_qr_scan", "android": "https://dc.lft.to/lastmile_qr_scan"}, "bike_id": "d9a2222b270efb224f63fc317ccd59cb", "fusion_lat": 0.0}, {"lon": -76.99774516666666, "name": "b1e14363f0105cc8881485cf28408bb4", "is_disabled": 0, "type": "electric_scooter", "is_reserved": 0, "fusion_lon": 0.0, "lat": 38.900373, "rental_uris": {"ios": "https://dc.lft.to/lastmile_qr_scan", "android": "https://dc.lft.to/lastmile_qr_scan"}, "bike_id": "b1e14363f0105cc8881485cf28408bb4", "fusion_lat": 0.0}, {"lon": -77.03833633333333, "name": "7124cc36b1e0704071ab3be0233f3663", "is_disabled": 0, "type": "electric_scooter", "is_reserved": 0, "fusion_lon": 0.0, "lat": 38.9110805, "rental_uris": {"ios": "https://dc.lft.to/lastmile_qr_scan", "android": "https://dc.lft.to/lastmile_qr_scan"}, "bike_id": "7124cc36b1e0704071ab3be0233f3663", "fusion_lat": 0.0}, {"lon": -77.03195983333333, "name": "fa777eaf32c8c7546fb20cd0246e7214", "is_disabled": 0, "type": "electric_scooter", "is_reserved": 0, "fusion_lon": 0.0, "lat": 38.916176666666665, "rental_uris": {"ios": "https://dc.lft.to/lastmile_qr_scan", "android": "https://dc.lft.to/lastmile_qr_scan"}, "bike_id": "fa777eaf32c8c7546fb20cd0246e7214", "fusion_lat": 0.0}, {"lon": -76.98539983333333, "name": "0d0ad67575016686bd8a62317f1a5aa3", "is_disabled": 0, "type": "electric_scooter", "is_reserved": 0, "fusion_lon": 0.0, "lat": 38.886012, "rental_uris": {"ios": "https://dc.lft.to/lastmile_qr_scan", "android": "https://dc.lft.to/lastmile_qr_scan"}, "bike_id": "0d0ad67575016686bd8a62317f1a5aa3", "fusion_lat": 0.0}, {"lon": -77.0092815, "name": "8ff919b686141011708535ad7f313f32", "is_disabled": 0, "type": "electric_scooter", "is_reserved": 0, "fusion_lon": 0.0, "lat": 38.895999833333335, "rental_uris": {"ios": "https://dc.lft.to/lastmile_qr_scan", "android": "https://dc.lft.to/lastmile_qr_scan"}, "bike_id": "8ff919b686141011708535ad7f313f32", "fusion_lat": 0.0}, {"lon": -77.04234033333333, "name": "4d286a7c9bb65d8710a9fb66133c2376", "is_disabled": 0, "type": "electric_scooter", "is_reserved": 0, "fusion_lon": 0.0, "lat": 38.921576, "rental_uris": {"ios": "https://dc.lft.to/lastmile_qr_scan", "android": "https://dc.lft.to/lastmile_qr_scan"}, "bike_id": "4d286a7c9bb65d8710a9fb66133c2376", "fusion_lat": 0.0}, {"lon": -77.02217966666667, "name": "a8e1cdd8922c57d4e8e4b481446c1f2d", "is_disabled": 0, "type": "electric_scooter", "is_reserved": 0, "fusion_lon": 0.0, "lat": 38.9247125, "rental_uris": {"ios": "https://dc.lft.to/lastmile_qr_scan", "android": "https://dc.lft.to/lastmile_qr_scan"}, "bike_id": "a8e1cdd8922c57d4e8e4b481446c1f2d", "fusion_lat": 0.0}, {"lon": -77.01705883333334, "name": "f504ea7fad816c98343cf136d185e923", "is_disabled": 0, "type": "electric_scooter", "is_reserved": 0, "fusion_lon": 0.0, "lat": 38.88749516666667, "rental_uris": {"ios": "https://dc.lft.to/lastmile_qr_scan", "android": "https://dc.lft.to/lastmile_qr_scan"}, "bike_id": "f504ea7fad816c98343cf136d185e923", "fusion_lat": 0.0}, {"lon": -77.07239816666667, "name": "4f86d6b2214610d4379370aded7085b9", "is_disabled": 0, "type": "electric_scooter", "is_reserved": 0, "fusion_lon": 0.0, "lat": 38.92153316666667, "rental_uris": {"ios": "https://dc.lft.to/lastmile_qr_scan", "android": "https://dc.lft.to/lastmile_qr_scan"}, "bike_id": "4f86d6b2214610d4379370aded7085b9", "fusion_lat": 0.0}, {"lon": -76.98489933333333, "name": "846ce42f67fc37aa8045d7c5450c0a4f", "is_disabled": 0, "type": "electric_scooter", "is_reserved": 0, "fusion_lon": 0.0, "lat": 38.903671833333334, "rental_uris": {"ios": "https://dc.lft.to/lastmile_qr_scan", "android": "https://dc.lft.to/lastmile_qr_scan"}, "bike_id": "846ce42f67fc37aa8045d7c5450c0a4f", "fusion_lat": 0.0}, {"lon": -77.02002616666667, "name": "b31c5b712cc0a70b4d1884163df42283", "is_disabled": 0, "type": "electric_scooter", "is_reserved": 0, "fusion_lon": 0.0, "lat": 38.911901666666665, "rental_uris": {"ios": "https://dc.lft.to/lastmile_qr_scan", "android": "https://dc.lft.to/lastmile_qr_scan"}, "bike_id": "b31c5b712cc0a70b4d1884163df42283", "fusion_lat": 0.0}, {"lon": -77.1033765, "name": "e871b1e1670054d8b26abee3f17c6e4c", "is_disabled": 0, "type": "electric_bike", "is_reserved": 0, "fusion_lon": 0.0, "lat": 38.83691116666667, "rental_uris": {"ios": "https://dc.lft.to/lastmile_qr_scan", "android": "https://dc.lft.to/lastmile_qr_scan"}, "bike_id": "e871b1e1670054d8b26abee3f17c6e4c", "fusion_lat": 0.0}, {"lon": -77.003228, "name": "3c91a2d379b164cb8b5b9f93e57c3c49", "is_disabled": 0, "type": "electric_scooter", "is_reserved": 0, "fusion_lon": 0.0, "lat": 38.86125533333333, "rental_uris": {"ios": "https://dc.lft.to/lastmile_qr_scan", "android": "https://dc.lft.to/lastmile_qr_scan"}, "bike_id": "3c91a2d379b164cb8b5b9f93e57c3c49", "fusion_lat": 0.0}, {"lon": -77.02358366666667, "name": "ffca4185241dbfc3ba0267ca0bfb12b8", "is_disabled": 0, "type": "electric_scooter", "is_reserved": 0, "fusion_lon": 0.0, "lat": 38.908499666666664, "rental_uris": {"ios": "https://dc.lft.to/lastmile_qr_scan", "android": "https://dc.lft.to/lastmile_qr_scan"}, "bike_id": "ffca4185241dbfc3ba0267ca0bfb12b8", "fusion_lat": 0.0}, {"lon": -77.07702883333333, "name": "187c247a8527fc7cc525123a6058da36", "is_disabled": 0, "type": "electric_scooter", "is_reserved": 0, "fusion_lon": 0.0, "lat": 38.922462833333334, "rental_uris": {"ios": "https://dc.lft.to/lastmile_qr_scan", "android": "https://dc.lft.to/lastmile_qr_scan"}, "bike_id": "187c247a8527fc7cc525123a6058da36", "fusion_lat": 0.0}, {"lon": -77.23411783333333, "name": "51d4b128be8ce1b86547b151e3c6213b", "is_disabled": 0, "type": "electric_bike", "is_reserved": 0, "fusion_lon": 0.0, "lat": 38.8757635, "rental_uris": {"ios": "https://dc.lft.to/lastmile_qr_scan", "android": "https://dc.lft.to/lastmile_qr_scan"}, "bike_id": "51d4b128be8ce1b86547b151e3c6213b", "fusion_lat": 0.0}, {"lon": -77.00226633333334, "name": "10b7688aec0b5f6822202072cef1b3f1", "is_disabled": 0, "type": "electric_scooter", "is_reserved": 0, "fusion_lon": 0.0, "lat": 38.907893, "rental_uris": {"ios": "https://dc.lft.to/lastmile_qr_scan", "android": "https://dc.lft.to/lastmile_qr_scan"}, "bike_id": "10b7688aec0b5f6822202072cef1b3f1", "fusion_lat": 0.0}, {"lon": -76.93930516666667, "name": "995344a765d615d38a0aaa9f62a06503", "is_disabled": 0, "type": "electric_scooter", "is_reserved": 0, "fusion_lon": 0.0, "lat": 38.89330416666667, "rental_uris": {"ios": "https://dc.lft.to/lastmile_qr_scan", "android": "https://dc.lft.to/lastmile_qr_scan"}, "bike_id": "995344a765d615d38a0aaa9f62a06503", "fusion_lat": 0.0}, {"lon": -77.04301716666667, "name": "1439d61a3f519e9a07dada44ce45ab4d", "is_disabled": 0, "type": "electric_scooter", "is_reserved": 0, "fusion_lon": 0.0, "lat": 38.92391933333333, "rental_uris": {"ios": "https://dc.lft.to/lastmile_qr_scan", "android": "https://dc.lft.to/lastmile_qr_scan"}, "bike_id": "1439d61a3f519e9a07dada44ce45ab4d", "fusion_lat": 0.0}, {"lon": -77.00577483333333, "name": "d80b6129bc46c493959781ff5fba64f5", "is_disabled": 0, "type": "electric_scooter", "is_reserved": 0, "fusion_lon": 0.0, "lat": 38.885034, "rental_uris": {"ios": "https://dc.lft.to/lastmile_qr_scan", "android": "https://dc.lft.to/lastmile_qr_scan"}, "bike_id": "d80b6129bc46c493959781ff5fba64f5", "fusion_lat": 0.0}, {"lon": -77.01971, "name": "2986c8ec792958160af6cf84bf53fce6", "is_disabled": 0, "type": "electric_scooter", "is_reserved": 0, "fusion_lon": 0.0, "lat": 38.87839366666667, "rental_uris": {"ios": "https://dc.lft.to/lastmile_qr_scan", "android": "https://dc.lft.to/lastmile_qr_scan"}, "bike_id": "2986c8ec792958160af6cf84bf53fce6", "fusion_lat": 0.0}, {"lon": -77.00338733333334, "name": "6c624c976d21ae8afd345c526fd16ff8", "is_disabled": 0, "type": "electric_scooter", "is_reserved": 0, "fusion_lon": 0.0, "lat": 38.8935645, "rental_uris": {"ios": "https://dc.lft.to/lastmile_qr_scan", "android": "https://dc.lft.to/lastmile_qr_scan"}, "bike_id": "6c624c976d21ae8afd345c526fd16ff8", "fusion_lat": 0.0}, {"lon": -76.979071, "name": "bcc1bc575980d07c6b862b7622f0260c", "is_disabled": 0, "type": "electric_scooter", "is_reserved": 0, "fusion_lon": 0.0, "lat": 38.88856583333333, "rental_uris": {"ios": "https://dc.lft.to/lastmile_qr_scan", "android": "https://dc.lft.to/lastmile_qr_scan"}, "bike_id": "bcc1bc575980d07c6b862b7622f0260c", "fusion_lat": 0.0}, {"lon": -77.02177833333333, "name": "a1d5e5a704bc032a92cccda8b9bfe356", "is_disabled": 0, "type": "electric_scooter", "is_reserved": 0, "fusion_lon": 0.0, "lat": 38.915450166666666, "rental_uris": {"ios": "https://dc.lft.to/lastmile_qr_scan", "android": "https://dc.lft.to/lastmile_qr_scan"}, "bike_id": "a1d5e5a704bc032a92cccda8b9bfe356", "fusion_lat": 0.0}, {"lon": -77.09565933333333, "name": "2afb38fa32d0f20f9ea92ed3ac21b765", "is_disabled": 0, "type": "electric_bike", "is_reserved": 0, "fusion_lon": 0.0, "lat": 38.99179916666667, "rental_uris": {"ios": "https://dc.lft.to/lastmile_qr_scan", "android": "https://dc.lft.to/lastmile_qr_scan"}, "bike_id": "2afb38fa32d0f20f9ea92ed3ac21b765", "fusion_lat": 0.0}, {"lon": -77.05944816666667, "name": "75248da78cc1063a9d277cfb6a2cd16f", "is_disabled": 0, "type": "electric_scooter", "is_reserved": 0, "fusion_lon": 0.0, "lat": 38.93693616666667, "rental_uris": {"ios": "https://dc.lft.to/lastmile_qr_scan", "android": "https://dc.lft.to/lastmile_qr_scan"}, "bike_id": "75248da78cc1063a9d277cfb6a2cd16f", "fusion_lat": 0.0}, {"lon": -77.0322155, "name": "102a9876cdd5cabfbed079d4b05645c6", "is_disabled": 0, "type": "electric_scooter", "is_reserved": 0, "fusion_lon": 0.0, "lat": 38.892200333333335, "rental_uris": {"ios": "https://dc.lft.to/lastmile_qr_scan", "android": "https://dc.lft.to/lastmile_qr_scan"}, "bike_id": "102a9876cdd5cabfbed079d4b05645c6", "fusion_lat": 0.0}, {"lon": -77.03294816666667, "name": "cd99dd25f9b07b497a1ba007f50e56a9", "is_disabled": 0, "type": "electric_scooter", "is_reserved": 0, "fusion_lon": 0.0, "lat": 38.956503166666664, "rental_uris": {"ios": "https://dc.lft.to/lastmile_qr_scan", "android": "https://dc.lft.to/lastmile_qr_scan"}, "bike_id": "cd99dd25f9b07b497a1ba007f50e56a9", "fusion_lat": 0.0}, {"lon": -77.0900195, "name": "eff3ea6a836f5aefff0f12b9949a8c21", "is_disabled": 0, "type": "electric_bike", "is_reserved": 0, "fusion_lon": 0.0, "lat": 38.9090405, "rental_uris": {"ios": "https://dc.lft.to/lastmile_qr_scan", "android": "https://dc.lft.to/lastmile_qr_scan"}, "bike_id": "eff3ea6a836f5aefff0f12b9949a8c21", "fusion_lat": 0.0}, {"lon": -77.01684766666666, "name": "06b91468ea43f183802bd0c3b2528a4d", "is_disabled": 0, "type": "electric_scooter", "is_reserved": 0, "fusion_lon": 0.0, "lat": 38.91084883333333, "rental_uris": {"ios": "https://dc.lft.to/lastmile_qr_scan", "android": "https://dc.lft.to/lastmile_qr_scan"}, "bike_id": "06b91468ea43f183802bd0c3b2528a4d", "fusion_lat": 0.0}, {"lon": -77.04466416666666, "name": "656941166283155283334d9e2711f894", "is_disabled": 0, "type": "electric_scooter", "is_reserved": 0, "fusion_lon": 0.0, "lat": 38.91888016666667, "rental_uris": {"ios": "https://dc.lft.to/lastmile_qr_scan", "android": "https://dc.lft.to/lastmile_qr_scan"}, "bike_id": "656941166283155283334d9e2711f894", "fusion_lat": 0.0}, {"lon": -77.0716225, "name": "6a81aef349664151f7d9d3ecab71c45e", "is_disabled": 0, "type": "electric_scooter", "is_reserved": 0, "fusion_lon": 0.0, "lat": 38.92016066666667, "rental_uris": {"ios": "https://dc.lft.to/lastmile_qr_scan", "android": "https://dc.lft.to/lastmile_qr_scan"}, "bike_id": "6a81aef349664151f7d9d3ecab71c45e", "fusion_lat": 0.0}, {"lon": -77.02128633333334, "name": "0758aaddd1dca88333c2598253c7f3cf", "is_disabled": 0, "type": "electric_scooter", "is_reserved": 0, "fusion_lon": 0.0, "lat": 38.92278966666667, "rental_uris": {"ios": "https://dc.lft.to/lastmile_qr_scan", "android": "https://dc.lft.to/lastmile_qr_scan"}, "bike_id": "0758aaddd1dca88333c2598253c7f3cf", "fusion_lat": 0.0}, {"lon": -77.090212, "name": "1170a5286b1b377f2611f02dd3b0b36a", "is_disabled": 0, "type": "electric_bike", "is_reserved": 0, "fusion_lon": 0.0, "lat": 38.926515333333334, "rental_uris": {"ios": "https://dc.lft.to/lastmile_qr_scan", "android": "https://dc.lft.to/lastmile_qr_scan"}, "bike_id": "1170a5286b1b377f2611f02dd3b0b36a", "fusion_lat": 0.0}, {"lon": -77.005033, "name": "cce1c87c76e08a09e26991ec0cc5d354", "is_disabled": 0, "type": "electric_scooter", "is_reserved": 0, "fusion_lon": 0.0, "lat": 38.916248333333336, "rental_uris": {"ios": "https://dc.lft.to/lastmile_qr_scan", "android": "https://dc.lft.to/lastmile_qr_scan"}, "bike_id": "cce1c87c76e08a09e26991ec0cc5d354", "fusion_lat": 0.0}, {"lon": -77.04895533333334, "name": "5c8dac507360aefe6290ca5bd9031c24", "is_disabled": 0, "type": "electric_scooter", "is_reserved": 0, "fusion_lon": 0.0, "lat": 38.90074116666667, "rental_uris": {"ios": "https://dc.lft.to/lastmile_qr_scan", "android": "https://dc.lft.to/lastmile_qr_scan"}, "bike_id": "5c8dac507360aefe6290ca5bd9031c24", "fusion_lat": 0.0}, {"lon": -76.99824316666667, "name": "3f4946dd63fd8da62f9e9f52e4ca25bd", "is_disabled": 0, "type": "electric_scooter", "is_reserved": 0, "fusion_lon": 0.0, "lat": 38.90715566666667, "rental_uris": {"ios": "https://dc.lft.to/lastmile_qr_scan", "android": "https://dc.lft.to/lastmile_qr_scan"}, "bike_id": "3f4946dd63fd8da62f9e9f52e4ca25bd", "fusion_lat": 0.0}, {"lon": -77.0161655, "name": "2ecc7dfc485af6b3db54258d9340b1e4", "is_disabled": 0, "type": "electric_scooter", "is_reserved": 0, "fusion_lon": 0.0, "lat": 38.91946566666667, "rental_uris": {"ios": "https://dc.lft.to/lastmile_qr_scan", "android": "https://dc.lft.to/lastmile_qr_scan"}, "bike_id": "2ecc7dfc485af6b3db54258d9340b1e4", "fusion_lat": 0.0}, {"lon": -77.029537, "name": "80833dae3a92bd80c0ff97691fa09b0f", "is_disabled": 0, "type": "electric_scooter", "is_reserved": 0, "fusion_lon": 0.0, "lat": 38.943026833333334, "rental_uris": {"ios": "https://dc.lft.to/lastmile_qr_scan", "android": "https://dc.lft.to/lastmile_qr_scan"}, "bike_id": "80833dae3a92bd80c0ff97691fa09b0f", "fusion_lat": 0.0}, {"lon": -77.02154383333334, "name": "46502cb2eb90b0aea1314931afdd98d7", "is_disabled": 0, "type": "electric_scooter", "is_reserved": 0, "fusion_lon": 0.0, "lat": 38.924380666666664, "rental_uris": {"ios": "https://dc.lft.to/lastmile_qr_scan", "android": "https://dc.lft.to/lastmile_qr_scan"}, "bike_id": "46502cb2eb90b0aea1314931afdd98d7", "fusion_lat": 0.0}, {"lon": -77.02822316666666, "name": "4cddbf9d9759e82af86d71aa02c6d82a", "is_disabled": 0, "type": "electric_scooter", "is_reserved": 0, "fusion_lon": 0.0, "lat": 38.90224033333333, "rental_uris": {"ios": "https://dc.lft.to/lastmile_qr_scan", "android": "https://dc.lft.to/lastmile_qr_scan"}, "bike_id": "4cddbf9d9759e82af86d71aa02c6d82a", "fusion_lat": 0.0}, {"lon": -77.06298183333334, "name": "2c9087fe723bc595142d2f29df9f589a", "is_disabled": 0, "type": "electric_scooter", "is_reserved": 0, "fusion_lon": 0.0, "lat": 38.907773, "rental_uris": {"ios": "https://dc.lft.to/lastmile_qr_scan", "android": "https://dc.lft.to/lastmile_qr_scan"}, "bike_id": "2c9087fe723bc595142d2f29df9f589a", "fusion_lat": 0.0}, {"lon": -77.0232155, "name": "d021d83381d19cbed060de504f409303", "is_disabled": 0, "type": "electric_scooter", "is_reserved": 0, "fusion_lon": 0.0, "lat": 38.920745, "rental_uris": {"ios": "https://dc.lft.to/lastmile_qr_scan", "android": "https://dc.lft.to/lastmile_qr_scan"}, "bike_id": "d021d83381d19cbed060de504f409303", "fusion_lat": 0.0}, {"lon": -77.03525466666666, "name": "874021d02f978ca40480a49194837cdd", "is_disabled": 0, "type": "electric_scooter", "is_reserved": 0, "fusion_lon": 0.0, "lat": 38.93275383333334, "rental_uris": {"ios": "https://dc.lft.to/lastmile_qr_scan", "android": "https://dc.lft.to/lastmile_qr_scan"}, "bike_id": "874021d02f978ca40480a49194837cdd", "fusion_lat": 0.0}, {"lon": -77.04187116666667, "name": "5bda8c270eccf3f8a65488f55cf440ff", "is_disabled": 0, "type": "electric_scooter", "is_reserved": 0, "fusion_lon": 0.0, "lat": 38.920528, "rental_uris": {"ios": "https://dc.lft.to/lastmile_qr_scan", "android": "https://dc.lft.to/lastmile_qr_scan"}, "bike_id": "5bda8c270eccf3f8a65488f55cf440ff", "fusion_lat": 0.0}, {"lon": -77.04470383333333, "name": "db45a01e0da465cd5085d04d2d1dcab6", "is_disabled": 0, "type": "electric_scooter", "is_reserved": 0, "fusion_lon": 0.0, "lat": 38.923160833333334, "rental_uris": {"ios": "https://dc.lft.to/lastmile_qr_scan", "android": "https://dc.lft.to/lastmile_qr_scan"}, "bike_id": "db45a01e0da465cd5085d04d2d1dcab6", "fusion_lat": 0.0}, {"lon": -77.02195533333334, "name": "79293451345bb0bbfcd018929be40a2c", "is_disabled": 0, "type": "electric_scooter", "is_reserved": 0, "fusion_lon": 0.0, "lat": 38.911174333333335, "rental_uris": {"ios": "https://dc.lft.to/lastmile_qr_scan", "android": "https://dc.lft.to/lastmile_qr_scan"}, "bike_id": "79293451345bb0bbfcd018929be40a2c", "fusion_lat": 0.0}, {"lon": -77.020958, "name": "90095429ee7984a6c491b536b200c5e3", "is_disabled": 0, "type": "electric_scooter", "is_reserved": 0, "fusion_lon": 0.0, "lat": 38.92158666666667, "rental_uris": {"ios": "https://dc.lft.to/lastmile_qr_scan", "android": "https://dc.lft.to/lastmile_qr_scan"}, "bike_id": "90095429ee7984a6c491b536b200c5e3", "fusion_lat": 0.0}, {"lon": -77.0258205, "name": "45149359a711438273e3623cfbaef987", "is_disabled": 0, "type": "electric_scooter", "is_reserved": 0, "fusion_lon": 0.0, "lat": 38.9033, "rental_uris": {"ios": "https://dc.lft.to/lastmile_qr_scan", "android": "https://dc.lft.to/lastmile_qr_scan"}, "bike_id": "45149359a711438273e3623cfbaef987", "fusion_lat": 0.0}, {"lon": -77.05752066666666, "name": "88956580bc2867c34f72c359c455829d", "is_disabled": 0, "type": "electric_scooter", "is_reserved": 0, "fusion_lon": 0.0, "lat": 38.928762666666664, "rental_uris": {"ios": "https://dc.lft.to/lastmile_qr_scan", "android": "https://dc.lft.to/lastmile_qr_scan"}, "bike_id": "88956580bc2867c34f72c359c455829d", "fusion_lat": 0.0}, {"lon": -77.06657116666666, "name": "a3a3d79934014f09616b55999f439ff4", "is_disabled": 0, "type": "electric_scooter", "is_reserved": 0, "fusion_lon": 0.0, "lat": 38.906812333333335, "rental_uris": {"ios": "https://dc.lft.to/lastmile_qr_scan", "android": "https://dc.lft.to/lastmile_qr_scan"}, "bike_id": "a3a3d79934014f09616b55999f439ff4", "fusion_lat": 0.0}, {"lon": -76.983797, "name": "75cb9cfdd9e9df06bf759de5497667c1", "is_disabled": 0, "type": "electric_scooter", "is_reserved": 0, "fusion_lon": 0.0, "lat": 38.88725433333333, "rental_uris": {"ios": "https://dc.lft.to/lastmile_qr_scan", "android": "https://dc.lft.to/lastmile_qr_scan"}, "bike_id": "75cb9cfdd9e9df06bf759de5497667c1", "fusion_lat": 0.0}, {"lon": -76.98619033333334, "name": "550d8e6723beed8c8591db7aef8a18f5", "is_disabled": 0, "type": "electric_scooter", "is_reserved": 0, "fusion_lon": 0.0, "lat": 38.905865666666664, "rental_uris": {"ios": "https://dc.lft.to/lastmile_qr_scan", "android": "https://dc.lft.to/lastmile_qr_scan"}, "bike_id": "550d8e6723beed8c8591db7aef8a18f5", "fusion_lat": 0.0}, {"lon": -77.01806116666667, "name": "588e65d9d13e9c072616605aa52d8eab", "is_disabled": 0, "type": "electric_scooter", "is_reserved": 0, "fusion_lon": 0.0, "lat": 38.9214585, "rental_uris": {"ios": "https://dc.lft.to/lastmile_qr_scan", "android": "https://dc.lft.to/lastmile_qr_scan"}, "bike_id": "588e65d9d13e9c072616605aa52d8eab", "fusion_lat": 0.0}, {"lon": -77.07591516666666, "name": "1ebedfdc003e119968f00e8ed4e7c9e0", "is_disabled": 0, "type": "electric_scooter", "is_reserved": 0, "fusion_lon": 0.0, "lat": 38.912138666666664, "rental_uris": {"ios": "https://dc.lft.to/lastmile_qr_scan", "android": "https://dc.lft.to/lastmile_qr_scan"}, "bike_id": "1ebedfdc003e119968f00e8ed4e7c9e0", "fusion_lat": 0.0}, {"lon": -77.019151, "name": "1ea8e34ad98830999c552fefc6613f69", "is_disabled": 0, "type": "electric_scooter", "is_reserved": 0, "fusion_lon": 0.0, "lat": 38.923658, "rental_uris": {"ios": "https://dc.lft.to/lastmile_qr_scan", "android": "https://dc.lft.to/lastmile_qr_scan"}, "bike_id": "1ea8e34ad98830999c552fefc6613f69", "fusion_lat": 0.0}, {"lon": -77.06285633333333, "name": "e3aae22e34bc8c29272219dc64da08da", "is_disabled": 0, "type": "electric_scooter", "is_reserved": 0, "fusion_lon": 0.0, "lat": 38.9058905, "rental_uris": {"ios": "https://dc.lft.to/lastmile_qr_scan", "android": "https://dc.lft.to/lastmile_qr_scan"}, "bike_id": "e3aae22e34bc8c29272219dc64da08da", "fusion_lat": 0.0}, {"lon": -77.0392175, "name": "38ba7fd5f81fbc161e63626866011774", "is_disabled": 0, "type": "electric_scooter", "is_reserved": 0, "fusion_lon": 0.0, "lat": 38.9248015, "rental_uris": {"ios": "https://dc.lft.to/lastmile_qr_scan", "android": "https://dc.lft.to/lastmile_qr_scan"}, "bike_id": "38ba7fd5f81fbc161e63626866011774", "fusion_lat": 0.0}, {"lon": -77.03446366666667, "name": "f2fa347896fc1657e1a623245f5bfbdd", "is_disabled": 0, "type": "electric_scooter", "is_reserved": 0, "fusion_lon": 0.0, "lat": 38.90672083333333, "rental_uris": {"ios": "https://dc.lft.to/lastmile_qr_scan", "android": "https://dc.lft.to/lastmile_qr_scan"}, "bike_id": "f2fa347896fc1657e1a623245f5bfbdd", "fusion_lat": 0.0}, {"lon": -77.01611183333333, "name": "9604dba79227b28bc1cc08758af26486", "is_disabled": 0, "type": "electric_bike", "is_reserved": 0, "fusion_lon": 0.0, "lat": 38.949391, "rental_uris": {"ios": "https://dc.lft.to/lastmile_qr_scan", "android": "https://dc.lft.to/lastmile_qr_scan"}, "bike_id": "9604dba79227b28bc1cc08758af26486", "fusion_lat": 0.0}, {"lon": -77.04773316666666, "name": "ed0035ac4cbf7ae97460174f01c0817a", "is_disabled": 0, "type": "electric_scooter", "is_reserved": 0, "fusion_lon": 0.0, "lat": 38.911213833333335, "rental_uris": {"ios": "https://dc.lft.to/lastmile_qr_scan", "android": "https://dc.lft.to/lastmile_qr_scan"}, "bike_id": "ed0035ac4cbf7ae97460174f01c0817a", "fusion_lat": 0.0}, {"lon": -77.0352375, "name": "d0dbb04efdee4ca9a698448cbe760f89", "is_disabled": 0, "type": "electric_scooter", "is_reserved": 0, "fusion_lon": 0.0, "lat": 38.90865516666667, "rental_uris": {"ios": "https://dc.lft.to/lastmile_qr_scan", "android": "https://dc.lft.to/lastmile_qr_scan"}, "bike_id": "d0dbb04efdee4ca9a698448cbe760f89", "fusion_lat": 0.0}, {"lon": -77.02809666666667, "name": "81386fdbfbd515a95141ba2bb198ce96", "is_disabled": 0, "type": "electric_scooter", "is_reserved": 0, "fusion_lon": 0.0, "lat": 38.90708016666667, "rental_uris": {"ios": "https://dc.lft.to/lastmile_qr_scan", "android": "https://dc.lft.to/lastmile_qr_scan"}, "bike_id": "81386fdbfbd515a95141ba2bb198ce96", "fusion_lat": 0.0}, {"lon": -77.02805483333333, "name": "7ee1e493370e1c7a502c573ce9b47726", "is_disabled": 0, "type": "electric_scooter", "is_reserved": 0, "fusion_lon": 0.0, "lat": 38.9071105, "rental_uris": {"ios": "https://dc.lft.to/lastmile_qr_scan", "android": "https://dc.lft.to/lastmile_qr_scan"}, "bike_id": "7ee1e493370e1c7a502c573ce9b47726", "fusion_lat": 0.0}, {"lon": -77.1147585, "name": "e25a333e3757e6fb2b1c6414e2ab7582", "is_disabled": 0, "type": "electric_bike", "is_reserved": 0, "fusion_lon": 0.0, "lat": 38.858324333333336, "rental_uris": {"ios": "https://dc.lft.to/lastmile_qr_scan", "android": "https://dc.lft.to/lastmile_qr_scan"}, "bike_id": "e25a333e3757e6fb2b1c6414e2ab7582", "fusion_lat": 0.0}, {"lon": -77.020559, "name": "bf43395b09eddb26a0c91244caed1419", "is_disabled": 0, "type": "electric_scooter", "is_reserved": 0, "fusion_lon": 0.0, "lat": 38.9277175, "rental_uris": {"ios": "https://dc.lft.to/lastmile_qr_scan", "android": "https://dc.lft.to/lastmile_qr_scan"}, "bike_id": "bf43395b09eddb26a0c91244caed1419", "fusion_lat": 0.0}, {"lon": -77.0352775, "name": "3d29ae3000db6eebce51e43da5a6fd05", "is_disabled": 0, "type": "electric_scooter", "is_reserved": 0, "fusion_lon": 0.0, "lat": 38.918284666666665, "rental_uris": {"ios": "https://dc.lft.to/lastmile_qr_scan", "android": "https://dc.lft.to/lastmile_qr_scan"}, "bike_id": "3d29ae3000db6eebce51e43da5a6fd05", "fusion_lat": 0.0}, {"lon": -77.02153116666666, "name": "99962ffb2985ec726bb57f54333b659e", "is_disabled": 0, "type": "electric_scooter", "is_reserved": 0, "fusion_lon": 0.0, "lat": 38.92451616666666, "rental_uris": {"ios": "https://dc.lft.to/lastmile_qr_scan", "android": "https://dc.lft.to/lastmile_qr_scan"}, "bike_id": "99962ffb2985ec726bb57f54333b659e", "fusion_lat": 0.0}, {"lon": -77.03107966666667, "name": "3698db51786619412516fbb9373306ea", "is_disabled": 0, "type": "electric_scooter", "is_reserved": 0, "fusion_lon": 0.0, "lat": 38.886033, "rental_uris": {"ios": "https://dc.lft.to/lastmile_qr_scan", "android": "https://dc.lft.to/lastmile_qr_scan"}, "bike_id": "3698db51786619412516fbb9373306ea", "fusion_lat": 0.0}, {"lon": -77.00740833333333, "name": "ffac7b7d35b411cf4707d87b7439bd61", "is_disabled": 0, "type": "electric_scooter", "is_reserved": 0, "fusion_lon": 0.0, "lat": 38.903527833333335, "rental_uris": {"ios": "https://dc.lft.to/lastmile_qr_scan", "android": "https://dc.lft.to/lastmile_qr_scan"}, "bike_id": "ffac7b7d35b411cf4707d87b7439bd61", "fusion_lat": 0.0}, {"lon": -77.02436266666666, "name": "a920f81e5f64c4341abb2c5ba5416e9f", "is_disabled": 0, "type": "electric_scooter", "is_reserved": 0, "fusion_lon": 0.0, "lat": 38.931042166666664, "rental_uris": {"ios": "https://dc.lft.to/lastmile_qr_scan", "android": "https://dc.lft.to/lastmile_qr_scan"}, "bike_id": "a920f81e5f64c4341abb2c5ba5416e9f", "fusion_lat": 0.0}, {"lon": -77.00115916666667, "name": "a3652edff143ce656dd11cbed7b1f99c", "is_disabled": 0, "type": "electric_scooter", "is_reserved": 0, "fusion_lon": 0.0, "lat": 38.88651, "rental_uris": {"ios": "https://dc.lft.to/lastmile_qr_scan", "android": "https://dc.lft.to/lastmile_qr_scan"}, "bike_id": "a3652edff143ce656dd11cbed7b1f99c", "fusion_lat": 0.0}, {"lon": -77.0282695, "name": "469780f59255d97ce8dffe9058fa68e5", "is_disabled": 0, "type": "electric_scooter", "is_reserved": 0, "fusion_lon": 0.0, "lat": 38.88736033333333, "rental_uris": {"ios": "https://dc.lft.to/lastmile_qr_scan", "android": "https://dc.lft.to/lastmile_qr_scan"}, "bike_id": "469780f59255d97ce8dffe9058fa68e5", "fusion_lat": 0.0}, {"lon": -77.03252916666666, "name": "4571b8ab2eb97be46c7cc28be799f68b", "is_disabled": 0, "type": "electric_scooter", "is_reserved": 0, "fusion_lon": 0.0, "lat": 38.939644, "rental_uris": {"ios": "https://dc.lft.to/lastmile_qr_scan", "android": "https://dc.lft.to/lastmile_qr_scan"}, "bike_id": "4571b8ab2eb97be46c7cc28be799f68b", "fusion_lat": 0.0}, {"lon": -77.03191883333334, "name": "c5d0d4d36c435dabd048c72a5230bec9", "is_disabled": 0, "type": "electric_scooter", "is_reserved": 0, "fusion_lon": 0.0, "lat": 38.89242483333334, "rental_uris": {"ios": "https://dc.lft.to/lastmile_qr_scan", "android": "https://dc.lft.to/lastmile_qr_scan"}, "bike_id": "c5d0d4d36c435dabd048c72a5230bec9", "fusion_lat": 0.0}, {"lon": -76.997651, "name": "0c5dfdbaf7d8ee2240ff06e91021dc82", "is_disabled": 0, "type": "electric_scooter", "is_reserved": 0, "fusion_lon": 0.0, "lat": 38.91073633333333, "rental_uris": {"ios": "https://dc.lft.to/lastmile_qr_scan", "android": "https://dc.lft.to/lastmile_qr_scan"}, "bike_id": "0c5dfdbaf7d8ee2240ff06e91021dc82", "fusion_lat": 0.0}, {"lon": -77.033851, "name": "17e151e72c933954f6020cf9694087f0", "is_disabled": 0, "type": "electric_scooter", "is_reserved": 0, "fusion_lon": 0.0, "lat": 38.93069966666667, "rental_uris": {"ios": "https://dc.lft.to/lastmile_qr_scan", "android": "https://dc.lft.to/lastmile_qr_scan"}, "bike_id": "17e151e72c933954f6020cf9694087f0", "fusion_lat": 0.0}, {"lon": -77.00066566666666, "name": "81bf6cbc40d2dbb9d4e97568de04749c", "is_disabled": 0, "type": "electric_scooter", "is_reserved": 0, "fusion_lon": 0.0, "lat": 38.92435666666667, "rental_uris": {"ios": "https://dc.lft.to/lastmile_qr_scan", "android": "https://dc.lft.to/lastmile_qr_scan"}, "bike_id": "81bf6cbc40d2dbb9d4e97568de04749c", "fusion_lat": 0.0}, {"lon": -77.04906266666667, "name": "0cd21f9b245ea8539bd803453cc0c5d3", "is_disabled": 0, "type": "electric_scooter", "is_reserved": 0, "fusion_lon": 0.0, "lat": 38.9159665, "rental_uris": {"ios": "https://dc.lft.to/lastmile_qr_scan", "android": "https://dc.lft.to/lastmile_qr_scan"}, "bike_id": "0cd21f9b245ea8539bd803453cc0c5d3", "fusion_lat": 0.0}, {"lon": -77.00753466666667, "name": "c84182c6d724989d388060118e0a8bf5", "is_disabled": 0, "type": "electric_scooter", "is_reserved": 0, "fusion_lon": 0.0, "lat": 38.90478983333333, "rental_uris": {"ios": "https://dc.lft.to/lastmile_qr_scan", "android": "https://dc.lft.to/lastmile_qr_scan"}, "bike_id": "c84182c6d724989d388060118e0a8bf5", "fusion_lat": 0.0}, {"lon": -77.01536433333334, "name": "ad01fa116f0704b8ff0a2c3116731d10", "is_disabled": 0, "type": "electric_scooter", "is_reserved": 0, "fusion_lon": 0.0, "lat": 38.92060683333333, "rental_uris": {"ios": "https://dc.lft.to/lastmile_qr_scan", "android": "https://dc.lft.to/lastmile_qr_scan"}, "bike_id": "ad01fa116f0704b8ff0a2c3116731d10", "fusion_lat": 0.0}, {"lon": -77.05319716666666, "name": "6e8434cc986592b568e340eb6415f0ca", "is_disabled": 0, "type": "electric_scooter", "is_reserved": 0, "fusion_lon": 0.0, "lat": 38.9344715, "rental_uris": {"ios": "https://dc.lft.to/lastmile_qr_scan", "android": "https://dc.lft.to/lastmile_qr_scan"}, "bike_id": "6e8434cc986592b568e340eb6415f0ca", "fusion_lat": 0.0}, {"lon": -77.0019265, "name": "fe64cdc55aa3629b0f3f3946be416c51", "is_disabled": 0, "type": "electric_scooter", "is_reserved": 0, "fusion_lon": 0.0, "lat": 38.87383533333333, "rental_uris": {"ios": "https://dc.lft.to/lastmile_qr_scan", "android": "https://dc.lft.to/lastmile_qr_scan"}, "bike_id": "fe64cdc55aa3629b0f3f3946be416c51", "fusion_lat": 0.0}, {"lon": -77.00331183333333, "name": "b1442974c7b85a37eeb3660828b93d96", "is_disabled": 0, "type": "electric_scooter", "is_reserved": 0, "fusion_lon": 0.0, "lat": 38.8936475, "rental_uris": {"ios": "https://dc.lft.to/lastmile_qr_scan", "android": "https://dc.lft.to/lastmile_qr_scan"}, "bike_id": "b1442974c7b85a37eeb3660828b93d96", "fusion_lat": 0.0}, {"lon": -77.02529233333334, "name": "6269cdbe99edd6f6ef28bd6d3bd31112", "is_disabled": 0, "type": "electric_scooter", "is_reserved": 0, "fusion_lon": 0.0, "lat": 38.8957155, "rental_uris": {"ios": "https://dc.lft.to/lastmile_qr_scan", "android": "https://dc.lft.to/lastmile_qr_scan"}, "bike_id": "6269cdbe99edd6f6ef28bd6d3bd31112", "fusion_lat": 0.0}, {"lon": -76.97855416666667, "name": "67c4e97b31af051feed34afa341231fc", "is_disabled": 0, "type": "electric_scooter", "is_reserved": 0, "fusion_lon": 0.0, "lat": 38.89717866666667, "rental_uris": {"ios": "https://dc.lft.to/lastmile_qr_scan", "android": "https://dc.lft.to/lastmile_qr_scan"}, "bike_id": "67c4e97b31af051feed34afa341231fc", "fusion_lat": 0.0}, {"lon": -77.04212566666666, "name": "dd86f66e17d2f01484cf219e8ebf9fe3", "is_disabled": 0, "type": "electric_scooter", "is_reserved": 0, "fusion_lon": 0.0, "lat": 38.92305866666667, "rental_uris": {"ios": "https://dc.lft.to/lastmile_qr_scan", "android": "https://dc.lft.to/lastmile_qr_scan"}, "bike_id": "dd86f66e17d2f01484cf219e8ebf9fe3", "fusion_lat": 0.0}, {"lon": -77.02438666666667, "name": "597e2781e4cd4f994c06f13f70fec45a", "is_disabled": 0, "type": "electric_scooter", "is_reserved": 0, "fusion_lon": 0.0, "lat": 38.918018000000004, "rental_uris": {"ios": "https://dc.lft.to/lastmile_qr_scan", "android": "https://dc.lft.to/lastmile_qr_scan"}, "bike_id": "597e2781e4cd4f994c06f13f70fec45a", "fusion_lat": 0.0}, {"lon": -77.03228633333333, "name": "d11a91a890e185b984f1a3176a75b782", "is_disabled": 0, "type": "electric_scooter", "is_reserved": 0, "fusion_lon": 0.0, "lat": 38.9235425, "rental_uris": {"ios": "https://dc.lft.to/lastmile_qr_scan", "android": "https://dc.lft.to/lastmile_qr_scan"}, "bike_id": "d11a91a890e185b984f1a3176a75b782", "fusion_lat": 0.0}, {"lon": -76.98602, "name": "fdd8777feb796a2269958d5e780b2177", "is_disabled": 0, "type": "electric_scooter", "is_reserved": 0, "fusion_lon": 0.0, "lat": 38.90024183333333, "rental_uris": {"ios": "https://dc.lft.to/lastmile_qr_scan", "android": "https://dc.lft.to/lastmile_qr_scan"}, "bike_id": "fdd8777feb796a2269958d5e780b2177", "fusion_lat": 0.0}, {"lon": -77.02139916666667, "name": "0dc877417faa208ff60e3885af886e25", "is_disabled": 0, "type": "electric_scooter", "is_reserved": 0, "fusion_lon": 0.0, "lat": 38.93121433333334, "rental_uris": {"ios": "https://dc.lft.to/lastmile_qr_scan", "android": "https://dc.lft.to/lastmile_qr_scan"}, "bike_id": "0dc877417faa208ff60e3885af886e25", "fusion_lat": 0.0}, {"lon": -76.97085616666666, "name": "96ee8cb78d1c3bcbe06a269415c8a29c", "is_disabled": 0, "type": "electric_scooter", "is_reserved": 0, "fusion_lon": 0.0, "lat": 38.86940366666666, "rental_uris": {"ios": "https://dc.lft.to/lastmile_qr_scan", "android": "https://dc.lft.to/lastmile_qr_scan"}, "bike_id": "96ee8cb78d1c3bcbe06a269415c8a29c", "fusion_lat": 0.0}, {"lon": -76.993458, "name": "90010ef4fc29aec863c8bece6a335448", "is_disabled": 0, "type": "electric_scooter", "is_reserved": 0, "fusion_lon": 0.0, "lat": 38.90011483333333, "rental_uris": {"ios": "https://dc.lft.to/lastmile_qr_scan", "android": "https://dc.lft.to/lastmile_qr_scan"}, "bike_id": "90010ef4fc29aec863c8bece6a335448", "fusion_lat": 0.0}, {"lon": -77.01645516666666, "name": "ffa37b0fd4a558d612794358b9d65c5a", "is_disabled": 0, "type": "electric_bike", "is_reserved": 0, "fusion_lon": 0.0, "lat": 38.881084666666666, "rental_uris": {"ios": "https://dc.lft.to/lastmile_qr_scan", "android": "https://dc.lft.to/lastmile_qr_scan"}, "bike_id": "ffa37b0fd4a558d612794358b9d65c5a", "fusion_lat": 0.0}, {"lon": -77.03178666666666, "name": "f1970e36ea0976d18576dd689ff39a39", "is_disabled": 0, "type": "electric_scooter", "is_reserved": 0, "fusion_lon": 0.0, "lat": 38.911952666666664, "rental_uris": {"ios": "https://dc.lft.to/lastmile_qr_scan", "android": "https://dc.lft.to/lastmile_qr_scan"}, "bike_id": "f1970e36ea0976d18576dd689ff39a39", "fusion_lat": 0.0}, {"lon": -77.0547525, "name": "2e165310ce9ff335957bf8179c8fc01d", "is_disabled": 0, "type": "electric_scooter", "is_reserved": 0, "fusion_lon": 0.0, "lat": 38.89731116666667, "rental_uris": {"ios": "https://dc.lft.to/lastmile_qr_scan", "android": "https://dc.lft.to/lastmile_qr_scan"}, "bike_id": "2e165310ce9ff335957bf8179c8fc01d", "fusion_lat": 0.0}, {"lon": -77.02222316666666, "name": "2fd2fc5915e37ebff0a7dbe1cca807b5", "is_disabled": 0, "type": "electric_scooter", "is_reserved": 0, "fusion_lon": 0.0, "lat": 38.9246795, "rental_uris": {"ios": "https://dc.lft.to/lastmile_qr_scan", "android": "https://dc.lft.to/lastmile_qr_scan"}, "bike_id": "2fd2fc5915e37ebff0a7dbe1cca807b5", "fusion_lat": 0.0}, {"lon": -77.02371666666667, "name": "ae86e66cda77b389cdf9d432ff2492f2", "is_disabled": 0, "type": "electric_scooter", "is_reserved": 0, "fusion_lon": 0.0, "lat": 38.901964666666665, "rental_uris": {"ios": "https://dc.lft.to/lastmile_qr_scan", "android": "https://dc.lft.to/lastmile_qr_scan"}, "bike_id": "ae86e66cda77b389cdf9d432ff2492f2", "fusion_lat": 0.0}, {"lon": -77.03186566666666, "name": "6ce75437438e0aedb2a8232db1815869", "is_disabled": 0, "type": "electric_scooter", "is_reserved": 0, "fusion_lon": 0.0, "lat": 38.892422, "rental_uris": {"ios": "https://dc.lft.to/lastmile_qr_scan", "android": "https://dc.lft.to/lastmile_qr_scan"}, "bike_id": "6ce75437438e0aedb2a8232db1815869", "fusion_lat": 0.0}, {"lon": -77.01902383333334, "name": "fbc7ffb08cc6582673f56d2d95c88f42", "is_disabled": 0, "type": "electric_scooter", "is_reserved": 0, "fusion_lon": 0.0, "lat": 38.923342, "rental_uris": {"ios": "https://dc.lft.to/lastmile_qr_scan", "android": "https://dc.lft.to/lastmile_qr_scan"}, "bike_id": "fbc7ffb08cc6582673f56d2d95c88f42", "fusion_lat": 0.0}, {"lon": -76.98838, "name": "1587239b0e457db9bb679d8f81694fd6", "is_disabled": 0, "type": "electric_scooter", "is_reserved": 0, "fusion_lon": 0.0, "lat": 38.89246933333333, "rental_uris": {"ios": "https://dc.lft.to/lastmile_qr_scan", "android": "https://dc.lft.to/lastmile_qr_scan"}, "bike_id": "1587239b0e457db9bb679d8f81694fd6", "fusion_lat": 0.0}, {"lon": -77.0326595, "name": "462fe5b61b5edd536da959dd10b368da", "is_disabled": 0, "type": "electric_scooter", "is_reserved": 0, "fusion_lon": 0.0, "lat": 38.934416166666665, "rental_uris": {"ios": "https://dc.lft.to/lastmile_qr_scan", "android": "https://dc.lft.to/lastmile_qr_scan"}, "bike_id": "462fe5b61b5edd536da959dd10b368da", "fusion_lat": 0.0}, {"lon": -76.98337133333334, "name": "fef9b9367e4ff7a2f15197afa8471560", "is_disabled": 0, "type": "electric_scooter", "is_reserved": 0, "fusion_lon": 0.0, "lat": 38.89541966666667, "rental_uris": {"ios": "https://dc.lft.to/lastmile_qr_scan", "android": "https://dc.lft.to/lastmile_qr_scan"}, "bike_id": "fef9b9367e4ff7a2f15197afa8471560", "fusion_lat": 0.0}, {"lon": -77.023813, "name": "9f4aa82d2cd41a4fe7e2cc6ca8d09298", "is_disabled": 0, "type": "electric_scooter", "is_reserved": 0, "fusion_lon": 0.0, "lat": 38.95272216666667, "rental_uris": {"ios": "https://dc.lft.to/lastmile_qr_scan", "android": "https://dc.lft.to/lastmile_qr_scan"}, "bike_id": "9f4aa82d2cd41a4fe7e2cc6ca8d09298", "fusion_lat": 0.0}, {"lon": -76.98562283333334, "name": "7e53f8e6aea051c413ca99cee01f2091", "is_disabled": 0, "type": "electric_scooter", "is_reserved": 0, "fusion_lon": 0.0, "lat": 38.906995333333334, "rental_uris": {"ios": "https://dc.lft.to/lastmile_qr_scan", "android": "https://dc.lft.to/lastmile_qr_scan"}, "bike_id": "7e53f8e6aea051c413ca99cee01f2091", "fusion_lat": 0.0}, {"lon": -77.00044616666666, "name": "a9b852117a0e89c5b01f7e50a829512d", "is_disabled": 0, "type": "electric_scooter", "is_reserved": 0, "fusion_lon": 0.0, "lat": 38.875532666666665, "rental_uris": {"ios": "https://dc.lft.to/lastmile_qr_scan", "android": "https://dc.lft.to/lastmile_qr_scan"}, "bike_id": "a9b852117a0e89c5b01f7e50a829512d", "fusion_lat": 0.0}, {"lon": -77.03383, "name": "ee15e22f7f16cdd27aefcd33c07de3e1", "is_disabled": 0, "type": "electric_scooter", "is_reserved": 0, "fusion_lon": 0.0, "lat": 38.9215835, "rental_uris": {"ios": "https://dc.lft.to/lastmile_qr_scan", "android": "https://dc.lft.to/lastmile_qr_scan"}, "bike_id": "ee15e22f7f16cdd27aefcd33c07de3e1", "fusion_lat": 0.0}, {"lon": -77.022149, "name": "ee2de15c6a30083b7a9fd5c35f911f26", "is_disabled": 0, "type": "electric_scooter", "is_reserved": 0, "fusion_lon": 0.0, "lat": 38.912686, "rental_uris": {"ios": "https://dc.lft.to/lastmile_qr_scan", "android": "https://dc.lft.to/lastmile_qr_scan"}, "bike_id": "ee2de15c6a30083b7a9fd5c35f911f26", "fusion_lat": 0.0}, {"lon": -77.03369533333333, "name": "2543efffdea96c16991c83ecb6590c36", "is_disabled": 0, "type": "electric_scooter", "is_reserved": 0, "fusion_lon": 0.0, "lat": 38.928763333333336, "rental_uris": {"ios": "https://dc.lft.to/lastmile_qr_scan", "android": "https://dc.lft.to/lastmile_qr_scan"}, "bike_id": "2543efffdea96c16991c83ecb6590c36", "fusion_lat": 0.0}, {"lon": -77.007389, "name": "ae45c20aab096f9d6e59f09e2f0358e8", "is_disabled": 0, "type": "electric_scooter", "is_reserved": 0, "fusion_lon": 0.0, "lat": 38.903444, "rental_uris": {"ios": "https://dc.lft.to/lastmile_qr_scan", "android": "https://dc.lft.to/lastmile_qr_scan"}, "bike_id": "ae45c20aab096f9d6e59f09e2f0358e8", "fusion_lat": 0.0}, {"lon": -77.02033566666667, "name": "4729325bee389b07f3cc5a75f0ed021d", "is_disabled": 0, "type": "electric_scooter", "is_reserved": 0, "fusion_lon": 0.0, "lat": 38.92408483333333, "rental_uris": {"ios": "https://dc.lft.to/lastmile_qr_scan", "android": "https://dc.lft.to/lastmile_qr_scan"}, "bike_id": "4729325bee389b07f3cc5a75f0ed021d", "fusion_lat": 0.0}, {"lon": -77.04014033333333, "name": "ac72e65d2f5195939c8d1859eefd07dd", "is_disabled": 0, "type": "electric_scooter", "is_reserved": 0, "fusion_lon": 0.0, "lat": 38.92182366666667, "rental_uris": {"ios": "https://dc.lft.to/lastmile_qr_scan", "android": "https://dc.lft.to/lastmile_qr_scan"}, "bike_id": "ac72e65d2f5195939c8d1859eefd07dd", "fusion_lat": 0.0}, {"lon": -77.0245015, "name": "c47b9b7b76d2b70cc4b4c96f7d9c4b88", "is_disabled": 0, "type": "electric_scooter", "is_reserved": 0, "fusion_lon": 0.0, "lat": 38.94976466666667, "rental_uris": {"ios": "https://dc.lft.to/lastmile_qr_scan", "android": "https://dc.lft.to/lastmile_qr_scan"}, "bike_id": "c47b9b7b76d2b70cc4b4c96f7d9c4b88", "fusion_lat": 0.0}, {"lon": -76.996939, "name": "2bdbc193d33a80cd968187b451dd3451", "is_disabled": 0, "type": "electric_bike", "is_reserved": 0, "fusion_lon": 0.0, "lat": 38.83857583333333, "rental_uris": {"ios": "https://dc.lft.to/lastmile_qr_scan", "android": "https://dc.lft.to/lastmile_qr_scan"}, "bike_id": "2bdbc193d33a80cd968187b451dd3451", "fusion_lat": 0.0}, {"lon": -77.0199895, "name": "4463971a0e6d56a80c2ba42891fe2f85", "is_disabled": 0, "type": "electric_scooter", "is_reserved": 0, "fusion_lon": 0.0, "lat": 38.911061, "rental_uris": {"ios": "https://dc.lft.to/lastmile_qr_scan", "android": "https://dc.lft.to/lastmile_qr_scan"}, "bike_id": "4463971a0e6d56a80c2ba42891fe2f85", "fusion_lat": 0.0}, {"lon": -77.02402966666666, "name": "bb4cabf4cebeab4799fa9dd815a5a066", "is_disabled": 0, "type": "electric_scooter", "is_reserved": 0, "fusion_lon": 0.0, "lat": 38.916018666666666, "rental_uris": {"ios": "https://dc.lft.to/lastmile_qr_scan", "android": "https://dc.lft.to/lastmile_qr_scan"}, "bike_id": "bb4cabf4cebeab4799fa9dd815a5a066", "fusion_lat": 0.0}, {"lon": -77.0224265, "name": "2c78fe2dfbf675b9b238a09ddab8eb07", "is_disabled": 0, "type": "electric_scooter", "is_reserved": 0, "fusion_lon": 0.0, "lat": 38.92431083333334, "rental_uris": {"ios": "https://dc.lft.to/lastmile_qr_scan", "android": "https://dc.lft.to/lastmile_qr_scan"}, "bike_id": "2c78fe2dfbf675b9b238a09ddab8eb07", "fusion_lat": 0.0}, {"lon": -77.0220635, "name": "3ddd5c12b6e2614ab59b237138fec864", "is_disabled": 0, "type": "electric_scooter", "is_reserved": 0, "fusion_lon": 0.0, "lat": 38.924721, "rental_uris": {"ios": "https://dc.lft.to/lastmile_qr_scan", "android": "https://dc.lft.to/lastmile_qr_scan"}, "bike_id": "3ddd5c12b6e2614ab59b237138fec864", "fusion_lat": 0.0}, {"lon": -76.95126216666667, "name": "ef428fd8b95204562a50bf7151d4312f", "is_disabled": 0, "type": "electric_bike", "is_reserved": 0, "fusion_lon": 0.0, "lat": 38.951896166666664, "rental_uris": {"ios": "https://dc.lft.to/lastmile_qr_scan", "android": "https://dc.lft.to/lastmile_qr_scan"}, "bike_id": "ef428fd8b95204562a50bf7151d4312f", "fusion_lat": 0.0}, {"lon": -77.0241495, "name": "289db2cb1bfc7d1e0216b9d59d11e889", "is_disabled": 0, "type": "electric_scooter", "is_reserved": 0, "fusion_lon": 0.0, "lat": 38.909571666666665, "rental_uris": {"ios": "https://dc.lft.to/lastmile_qr_scan", "android": "https://dc.lft.to/lastmile_qr_scan"}, "bike_id": "289db2cb1bfc7d1e0216b9d59d11e889", "fusion_lat": 0.0}, {"lon": -76.99563883333333, "name": "8b779e2fac80f092f7bc92bd713893d1", "is_disabled": 0, "type": "electric_scooter", "is_reserved": 0, "fusion_lon": 0.0, "lat": 38.950714166666664, "rental_uris": {"ios": "https://dc.lft.to/lastmile_qr_scan", "android": "https://dc.lft.to/lastmile_qr_scan"}, "bike_id": "8b779e2fac80f092f7bc92bd713893d1", "fusion_lat": 0.0}, {"lon": -77.03264066666667, "name": "88a344f76d201751bb035e29db10f796", "is_disabled": 0, "type": "electric_scooter", "is_reserved": 0, "fusion_lon": 0.0, "lat": 38.90282033333333, "rental_uris": {"ios": "https://dc.lft.to/lastmile_qr_scan", "android": "https://dc.lft.to/lastmile_qr_scan"}, "bike_id": "88a344f76d201751bb035e29db10f796", "fusion_lat": 0.0}, {"lon": -77.0506415, "name": "149f05a9d850d7d51969bf83b286ae9c", "is_disabled": 0, "type": "electric_scooter", "is_reserved": 0, "fusion_lon": 0.0, "lat": 38.90100966666667, "rental_uris": {"ios": "https://dc.lft.to/lastmile_qr_scan", "android": "https://dc.lft.to/lastmile_qr_scan"}, "bike_id": "149f05a9d850d7d51969bf83b286ae9c", "fusion_lat": 0.0}, {"lon": -76.92635633333333, "name": "78e3376f5e9b90b950b51b8c01e6d756", "is_disabled": 0, "type": "electric_scooter", "is_reserved": 0, "fusion_lon": 0.0, "lat": 38.886205833333335, "rental_uris": {"ios": "https://dc.lft.to/lastmile_qr_scan", "android": "https://dc.lft.to/lastmile_qr_scan"}, "bike_id": "78e3376f5e9b90b950b51b8c01e6d756", "fusion_lat": 0.0}, {"lon": -77.00899033333333, "name": "2da7b021d1a42e04a1cd84755c65ba38", "is_disabled": 0, "type": "electric_scooter", "is_reserved": 0, "fusion_lon": 0.0, "lat": 38.9097605, "rental_uris": {"ios": "https://dc.lft.to/lastmile_qr_scan", "android": "https://dc.lft.to/lastmile_qr_scan"}, "bike_id": "2da7b021d1a42e04a1cd84755c65ba38", "fusion_lat": 0.0}, {"lon": -77.00989666666666, "name": "ff2e09eaa440537ca3503fa0b363670e", "is_disabled": 0, "type": "electric_scooter", "is_reserved": 0, "fusion_lon": 0.0, "lat": 38.91407183333333, "rental_uris": {"ios": "https://dc.lft.to/lastmile_qr_scan", "android": "https://dc.lft.to/lastmile_qr_scan"}, "bike_id": "ff2e09eaa440537ca3503fa0b363670e", "fusion_lat": 0.0}, {"lon": -77.03168866666667, "name": "f5be8ce48ea18e667cb4b4d237528771", "is_disabled": 0, "type": "electric_scooter", "is_reserved": 0, "fusion_lon": 0.0, "lat": 38.883889333333336, "rental_uris": {"ios": "https://dc.lft.to/lastmile_qr_scan", "android": "https://dc.lft.to/lastmile_qr_scan"}, "bike_id": "f5be8ce48ea18e667cb4b4d237528771", "fusion_lat": 0.0}, {"lon": -77.023256, "name": "70caa1e23742516c676b95b3320df7ba", "is_disabled": 0, "type": "electric_scooter", "is_reserved": 0, "fusion_lon": 0.0, "lat": 38.939869333333334, "rental_uris": {"ios": "https://dc.lft.to/lastmile_qr_scan", "android": "https://dc.lft.to/lastmile_qr_scan"}, "bike_id": "70caa1e23742516c676b95b3320df7ba", "fusion_lat": 0.0}, {"lon": -77.03807066666667, "name": "80d861348377ad42ff1ebc8cd0bffa88", "is_disabled": 0, "type": "electric_scooter", "is_reserved": 0, "fusion_lon": 0.0, "lat": 38.92549483333333, "rental_uris": {"ios": "https://dc.lft.to/lastmile_qr_scan", "android": "https://dc.lft.to/lastmile_qr_scan"}, "bike_id": "80d861348377ad42ff1ebc8cd0bffa88", "fusion_lat": 0.0}, {"lon": -76.9985445, "name": "1eb14ad4a1c2502e79f7e931663706b0", "is_disabled": 0, "type": "electric_scooter", "is_reserved": 0, "fusion_lon": 0.0, "lat": 38.90122783333333, "rental_uris": {"ios": "https://dc.lft.to/lastmile_qr_scan", "android": "https://dc.lft.to/lastmile_qr_scan"}, "bike_id": "1eb14ad4a1c2502e79f7e931663706b0", "fusion_lat": 0.0}, {"lon": -77.02514966666666, "name": "e985b5f0b924c1d7bd4207e4a67d2749", "is_disabled": 0, "type": "electric_scooter", "is_reserved": 0, "fusion_lon": 0.0, "lat": 38.91711683333333, "rental_uris": {"ios": "https://dc.lft.to/lastmile_qr_scan", "android": "https://dc.lft.to/lastmile_qr_scan"}, "bike_id": "e985b5f0b924c1d7bd4207e4a67d2749", "fusion_lat": 0.0}, {"lon": -77.06693966666667, "name": "4a219ac3c6c670888a8719adb4777406", "is_disabled": 0, "type": "electric_scooter", "is_reserved": 0, "fusion_lon": 0.0, "lat": 38.91419783333333, "rental_uris": {"ios": "https://dc.lft.to/lastmile_qr_scan", "android": "https://dc.lft.to/lastmile_qr_scan"}, "bike_id": "4a219ac3c6c670888a8719adb4777406", "fusion_lat": 0.0}, {"lon": -77.0338605, "name": "14d821e15042227d159ebdf689daf6ca", "is_disabled": 0, "type": "electric_scooter", "is_reserved": 0, "fusion_lon": 0.0, "lat": 38.909725, "rental_uris": {"ios": "https://dc.lft.to/lastmile_qr_scan", "android": "https://dc.lft.to/lastmile_qr_scan"}, "bike_id": "14d821e15042227d159ebdf689daf6ca", "fusion_lat": 0.0}, {"lon": -77.075436, "name": "0ad9953a3a4dc36747d65f76503f0de2", "is_disabled": 0, "type": "electric_scooter", "is_reserved": 0, "fusion_lon": 0.0, "lat": 38.91533833333333, "rental_uris": {"ios": "https://dc.lft.to/lastmile_qr_scan", "android": "https://dc.lft.to/lastmile_qr_scan"}, "bike_id": "0ad9953a3a4dc36747d65f76503f0de2", "fusion_lat": 0.0}, {"lon": -77.0197635, "name": "fc67b429cb58b4d9a804eff32647cc8d", "is_disabled": 0, "type": "electric_scooter", "is_reserved": 0, "fusion_lon": 0.0, "lat": 38.885554166666665, "rental_uris": {"ios": "https://dc.lft.to/lastmile_qr_scan", "android": "https://dc.lft.to/lastmile_qr_scan"}, "bike_id": "fc67b429cb58b4d9a804eff32647cc8d", "fusion_lat": 0.0}, {"lon": -77.0177615, "name": "ac7e34168f593257607d1de778b25a77", "is_disabled": 0, "type": "electric_scooter", "is_reserved": 0, "fusion_lon": 0.0, "lat": 38.92033766666667, "rental_uris": {"ios": "https://dc.lft.to/lastmile_qr_scan", "android": "https://dc.lft.to/lastmile_qr_scan"}, "bike_id": "ac7e34168f593257607d1de778b25a77", "fusion_lat": 0.0}, {"lon": -77.0337925, "name": "e418db661a8a37673cdae4b5952e64d9", "is_disabled": 0, "type": "electric_scooter", "is_reserved": 0, "fusion_lon": 0.0, "lat": 38.9246435, "rental_uris": {"ios": "https://dc.lft.to/lastmile_qr_scan", "android": "https://dc.lft.to/lastmile_qr_scan"}, "bike_id": "e418db661a8a37673cdae4b5952e64d9", "fusion_lat": 0.0}, {"lon": -76.91808616666667, "name": "4412ded87971ec440b4a6ad3ba317d93", "is_disabled": 0, "type": "electric_bike", "is_reserved": 0, "fusion_lon": 0.0, "lat": 39.00000283333333, "rental_uris": {"ios": "https://dc.lft.to/lastmile_qr_scan", "android": "https://dc.lft.to/lastmile_qr_scan"}, "bike_id": "4412ded87971ec440b4a6ad3ba317d93", "fusion_lat": 0.0}, {"lon": -77.06601533333334, "name": "336c692b18ed1333acc85eeb6135d6e8", "is_disabled": 0, "type": "electric_scooter", "is_reserved": 0, "fusion_lon": 0.0, "lat": 38.91225283333333, "rental_uris": {"ios": "https://dc.lft.to/lastmile_qr_scan", "android": "https://dc.lft.to/lastmile_qr_scan"}, "bike_id": "336c692b18ed1333acc85eeb6135d6e8", "fusion_lat": 0.0}, {"lon": -77.050393, "name": "4bd59e2938fd00bc2e1d1e957a9beee7", "is_disabled": 0, "type": "electric_scooter", "is_reserved": 0, "fusion_lon": 0.0, "lat": 38.892818, "rental_uris": {"ios": "https://dc.lft.to/lastmile_qr_scan", "android": "https://dc.lft.to/lastmile_qr_scan"}, "bike_id": "4bd59e2938fd00bc2e1d1e957a9beee7", "fusion_lat": 0.0}, {"lon": -77.0219705, "name": "832df55f3eda6800dec9abab5d2877fc", "is_disabled": 0, "type": "electric_scooter", "is_reserved": 0, "fusion_lon": 0.0, "lat": 38.91115766666667, "rental_uris": {"ios": "https://dc.lft.to/lastmile_qr_scan", "android": "https://dc.lft.to/lastmile_qr_scan"}, "bike_id": "832df55f3eda6800dec9abab5d2877fc", "fusion_lat": 0.0}, {"lon": -77.00986933333333, "name": "8bb4e3661ec1bb53533cb0ef8fbeea7b", "is_disabled": 0, "type": "electric_scooter", "is_reserved": 0, "fusion_lon": 0.0, "lat": 38.903576, "rental_uris": {"ios": "https://dc.lft.to/lastmile_qr_scan", "android": "https://dc.lft.to/lastmile_qr_scan"}, "bike_id": "8bb4e3661ec1bb53533cb0ef8fbeea7b", "fusion_lat": 0.0}, {"lon": -77.01668083333334, "name": "d8e7682ea80d9a47f155fc96c6de40b6", "is_disabled": 0, "type": "electric_scooter", "is_reserved": 0, "fusion_lon": 0.0, "lat": 38.920449, "rental_uris": {"ios": "https://dc.lft.to/lastmile_qr_scan", "android": "https://dc.lft.to/lastmile_qr_scan"}, "bike_id": "d8e7682ea80d9a47f155fc96c6de40b6", "fusion_lat": 0.0}, {"lon": -77.003939, "name": "035d3acfdc0e78bc8b1bc1445ebb7670", "is_disabled": 0, "type": "electric_bike", "is_reserved": 0, "fusion_lon": 0.0, "lat": 38.985539, "rental_uris": {"ios": "https://dc.lft.to/lastmile_qr_scan", "android": "https://dc.lft.to/lastmile_qr_scan"}, "bike_id": "035d3acfdc0e78bc8b1bc1445ebb7670", "fusion_lat": 0.0}, {"lon": -77.0187875, "name": "e1e826f43fa67ab31733f58222fef2c4", "is_disabled": 0, "type": "electric_scooter", "is_reserved": 0, "fusion_lon": 0.0, "lat": 38.88120716666667, "rental_uris": {"ios": "https://dc.lft.to/lastmile_qr_scan", "android": "https://dc.lft.to/lastmile_qr_scan"}, "bike_id": "e1e826f43fa67ab31733f58222fef2c4", "fusion_lat": 0.0}, {"lon": -76.972757, "name": "fb886f70a2d986caa9080f7335fc7d5f", "is_disabled": 0, "type": "electric_bike", "is_reserved": 0, "fusion_lon": 0.0, "lat": 38.85599883333333, "rental_uris": {"ios": "https://dc.lft.to/lastmile_qr_scan", "android": "https://dc.lft.to/lastmile_qr_scan"}, "bike_id": "fb886f70a2d986caa9080f7335fc7d5f", "fusion_lat": 0.0}, {"lon": -77.01841166666667, "name": "480f5d6c304b39badd7ec320192bdc95", "is_disabled": 0, "type": "electric_scooter", "is_reserved": 0, "fusion_lon": 0.0, "lat": 38.90726883333333, "rental_uris": {"ios": "https://dc.lft.to/lastmile_qr_scan", "android": "https://dc.lft.to/lastmile_qr_scan"}, "bike_id": "480f5d6c304b39badd7ec320192bdc95", "fusion_lat": 0.0}, {"lon": -77.04485316666667, "name": "7eb4c226f27b03abe88b05e7bc199206", "is_disabled": 0, "type": "electric_scooter", "is_reserved": 0, "fusion_lon": 0.0, "lat": 38.89363083333333, "rental_uris": {"ios": "https://dc.lft.to/lastmile_qr_scan", "android": "https://dc.lft.to/lastmile_qr_scan"}, "bike_id": "7eb4c226f27b03abe88b05e7bc199206", "fusion_lat": 0.0}, {"lon": -77.00183666666666, "name": "6c2bad7bd1b98921032f32b28705d0f1", "is_disabled": 0, "type": "electric_scooter", "is_reserved": 0, "fusion_lon": 0.0, "lat": 38.888594, "rental_uris": {"ios": "https://dc.lft.to/lastmile_qr_scan", "android": "https://dc.lft.to/lastmile_qr_scan"}, "bike_id": "6c2bad7bd1b98921032f32b28705d0f1", "fusion_lat": 0.0}, {"lon": -76.99850633333334, "name": "3eb8da390cb7cff72a87ae5b39dcb257", "is_disabled": 0, "type": "electric_scooter", "is_reserved": 0, "fusion_lon": 0.0, "lat": 38.90008816666667, "rental_uris": {"ios": "https://dc.lft.to/lastmile_qr_scan", "android": "https://dc.lft.to/lastmile_qr_scan"}, "bike_id": "3eb8da390cb7cff72a87ae5b39dcb257", "fusion_lat": 0.0}, {"lon": -77.02284583333334, "name": "f2211a9cc70572db68f58bde89fd4d27", "is_disabled": 0, "type": "electric_scooter", "is_reserved": 0, "fusion_lon": 0.0, "lat": 38.916699333333334, "rental_uris": {"ios": "https://dc.lft.to/lastmile_qr_scan", "android": "https://dc.lft.to/lastmile_qr_scan"}, "bike_id": "f2211a9cc70572db68f58bde89fd4d27", "fusion_lat": 0.0}, {"lon": -77.00584383333333, "name": "912602638b1f71c849be1a4097593dc4", "is_disabled": 0, "type": "electric_scooter", "is_reserved": 0, "fusion_lon": 0.0, "lat": 38.872209166666664, "rental_uris": {"ios": "https://dc.lft.to/lastmile_qr_scan", "android": "https://dc.lft.to/lastmile_qr_scan"}, "bike_id": "912602638b1f71c849be1a4097593dc4", "fusion_lat": 0.0}, {"lon": -77.0263855, "name": "ef71380072186fb3babc4b14780829fe", "is_disabled": 0, "type": "electric_scooter", "is_reserved": 0, "fusion_lon": 0.0, "lat": 38.910991833333334, "rental_uris": {"ios": "https://dc.lft.to/lastmile_qr_scan", "android": "https://dc.lft.to/lastmile_qr_scan"}, "bike_id": "ef71380072186fb3babc4b14780829fe", "fusion_lat": 0.0}, {"lon": -77.01839483333333, "name": "e1284ad7830ba0cb6b422bb3d01f9603", "is_disabled": 0, "type": "electric_scooter", "is_reserved": 0, "fusion_lon": 0.0, "lat": 38.89737433333333, "rental_uris": {"ios": "https://dc.lft.to/lastmile_qr_scan", "android": "https://dc.lft.to/lastmile_qr_scan"}, "bike_id": "e1284ad7830ba0cb6b422bb3d01f9603", "fusion_lat": 0.0}, {"lon": -77.078731, "name": "dbd8b275e80e9f1ae84e33d66967f528", "is_disabled": 0, "type": "electric_scooter", "is_reserved": 0, "fusion_lon": 0.0, "lat": 38.91956166666667, "rental_uris": {"ios": "https://dc.lft.to/lastmile_qr_scan", "android": "https://dc.lft.to/lastmile_qr_scan"}, "bike_id": "dbd8b275e80e9f1ae84e33d66967f528", "fusion_lat": 0.0}, {"lon": -77.04997216666666, "name": "8628e63c5d89fc7a134b9f43f8844e9a", "is_disabled": 0, "type": "electric_scooter", "is_reserved": 0, "fusion_lon": 0.0, "lat": 38.89228883333333, "rental_uris": {"ios": "https://dc.lft.to/lastmile_qr_scan", "android": "https://dc.lft.to/lastmile_qr_scan"}, "bike_id": "8628e63c5d89fc7a134b9f43f8844e9a", "fusion_lat": 0.0}, {"lon": -77.06135233333333, "name": "d47e88c9e806a6b442856adf01603710", "is_disabled": 0, "type": "electric_scooter", "is_reserved": 0, "fusion_lon": 0.0, "lat": 38.940957833333336, "rental_uris": {"ios": "https://dc.lft.to/lastmile_qr_scan", "android": "https://dc.lft.to/lastmile_qr_scan"}, "bike_id": "d47e88c9e806a6b442856adf01603710", "fusion_lat": 0.0}, {"lon": -77.04704133333334, "name": "9a001688f70cd623756aa26eb4b6761f", "is_disabled": 0, "type": "electric_scooter", "is_reserved": 0, "fusion_lon": 0.0, "lat": 38.92155066666667, "rental_uris": {"ios": "https://dc.lft.to/lastmile_qr_scan", "android": "https://dc.lft.to/lastmile_qr_scan"}, "bike_id": "9a001688f70cd623756aa26eb4b6761f", "fusion_lat": 0.0}, {"lon": -77.0188005, "name": "429887b629f5660bb0ba1505a74e667d", "is_disabled": 0, "type": "electric_scooter", "is_reserved": 0, "fusion_lon": 0.0, "lat": 38.91933183333333, "rental_uris": {"ios": "https://dc.lft.to/lastmile_qr_scan", "android": "https://dc.lft.to/lastmile_qr_scan"}, "bike_id": "429887b629f5660bb0ba1505a74e667d", "fusion_lat": 0.0}, {"lon": -77.02950983333334, "name": "6e0b2e39eec49cb247811cf6a6ae2913", "is_disabled": 0, "type": "electric_scooter", "is_reserved": 0, "fusion_lon": 0.0, "lat": 38.92767933333333, "rental_uris": {"ios": "https://dc.lft.to/lastmile_qr_scan", "android": "https://dc.lft.to/lastmile_qr_scan"}, "bike_id": "6e0b2e39eec49cb247811cf6a6ae2913", "fusion_lat": 0.0}, {"lon": -77.01720416666667, "name": "d26d3afc396182919fe90e658c5a945b", "is_disabled": 0, "type": "electric_scooter", "is_reserved": 0, "fusion_lon": 0.0, "lat": 38.913621666666664, "rental_uris": {"ios": "https://dc.lft.to/lastmile_qr_scan", "android": "https://dc.lft.to/lastmile_qr_scan"}, "bike_id": "d26d3afc396182919fe90e658c5a945b", "fusion_lat": 0.0}, {"lon": -76.99068833333334, "name": "4ac0ac44d58d26aa59e7c0ae716f9a62", "is_disabled": 0, "type": "electric_bike", "is_reserved": 0, "fusion_lon": 0.0, "lat": 38.8982145, "rental_uris": {"ios": "https://dc.lft.to/lastmile_qr_scan", "android": "https://dc.lft.to/lastmile_qr_scan"}, "bike_id": "4ac0ac44d58d26aa59e7c0ae716f9a62", "fusion_lat": 0.0}, {"lon": -77.02154666666667, "name": "0907a6a9b24024cf88aa513be61c72e3", "is_disabled": 0, "type": "electric_scooter", "is_reserved": 0, "fusion_lon": 0.0, "lat": 38.92605116666667, "rental_uris": {"ios": "https://dc.lft.to/lastmile_qr_scan", "android": "https://dc.lft.to/lastmile_qr_scan"}, "bike_id": "0907a6a9b24024cf88aa513be61c72e3", "fusion_lat": 0.0}, {"lon": -77.03187233333334, "name": "0ffdcd2debb61d50fa8edaa31b2c8140", "is_disabled": 0, "type": "electric_scooter", "is_reserved": 0, "fusion_lon": 0.0, "lat": 38.919438166666666, "rental_uris": {"ios": "https://dc.lft.to/lastmile_qr_scan", "android": "https://dc.lft.to/lastmile_qr_scan"}, "bike_id": "0ffdcd2debb61d50fa8edaa31b2c8140", "fusion_lat": 0.0}, {"lon": -77.01946866666667, "name": "27e57eff95058aa9e72f1800b0c6925a", "is_disabled": 0, "type": "electric_scooter", "is_reserved": 0, "fusion_lon": 0.0, "lat": 38.92420283333333, "rental_uris": {"ios": "https://dc.lft.to/lastmile_qr_scan", "android": "https://dc.lft.to/lastmile_qr_scan"}, "bike_id": "27e57eff95058aa9e72f1800b0c6925a", "fusion_lat": 0.0}, {"lon": -77.01213716666666, "name": "ce462fba237a5c87228f629a7a4de0e5", "is_disabled": 0, "type": "electric_scooter", "is_reserved": 0, "fusion_lon": 0.0, "lat": 38.914425333333334, "rental_uris": {"ios": "https://dc.lft.to/lastmile_qr_scan", "android": "https://dc.lft.to/lastmile_qr_scan"}, "bike_id": "ce462fba237a5c87228f629a7a4de0e5", "fusion_lat": 0.0}, {"lon": -77.003373, "name": "f346adaeb41e2681925c73699f9aab59", "is_disabled": 0, "type": "electric_bike", "is_reserved": 0, "fusion_lon": 0.0, "lat": 38.92019716666667, "rental_uris": {"ios": "https://dc.lft.to/lastmile_qr_scan", "android": "https://dc.lft.to/lastmile_qr_scan"}, "bike_id": "f346adaeb41e2681925c73699f9aab59", "fusion_lat": 0.0}, {"lon": -77.04473216666666, "name": "a19222ac8b86a9831baeb4a2e811800a", "is_disabled": 0, "type": "electric_scooter", "is_reserved": 0, "fusion_lon": 0.0, "lat": 38.9153845, "rental_uris": {"ios": "https://dc.lft.to/lastmile_qr_scan", "android": "https://dc.lft.to/lastmile_qr_scan"}, "bike_id": "a19222ac8b86a9831baeb4a2e811800a", "fusion_lat": 0.0}, {"lon": -77.041844, "name": "ee24941e96aa3eaa92ce092f12542cf2", "is_disabled": 0, "type": "electric_scooter", "is_reserved": 0, "fusion_lon": 0.0, "lat": 38.92048716666667, "rental_uris": {"ios": "https://dc.lft.to/lastmile_qr_scan", "android": "https://dc.lft.to/lastmile_qr_scan"}, "bike_id": "ee24941e96aa3eaa92ce092f12542cf2", "fusion_lat": 0.0}, {"lon": -77.05762583333333, "name": "9729f89f1254755ec9b6077b4981270b", "is_disabled": 0, "type": "electric_scooter", "is_reserved": 0, "fusion_lon": 0.0, "lat": 38.9248065, "rental_uris": {"ios": "https://dc.lft.to/lastmile_qr_scan", "android": "https://dc.lft.to/lastmile_qr_scan"}, "bike_id": "9729f89f1254755ec9b6077b4981270b", "fusion_lat": 0.0}, {"lon": -77.01362866666666, "name": "e5cde2a6315b148ba488fbc2650ad86f", "is_disabled": 0, "type": "electric_scooter", "is_reserved": 0, "fusion_lon": 0.0, "lat": 38.928845833333334, "rental_uris": {"ios": "https://dc.lft.to/lastmile_qr_scan", "android": "https://dc.lft.to/lastmile_qr_scan"}, "bike_id": "e5cde2a6315b148ba488fbc2650ad86f", "fusion_lat": 0.0}, {"lon": -77.05710583333334, "name": "0fc264453eeef197813d0deb5cd15163", "is_disabled": 0, "type": "electric_scooter", "is_reserved": 0, "fusion_lon": 0.0, "lat": 38.925994333333335, "rental_uris": {"ios": "https://dc.lft.to/lastmile_qr_scan", "android": "https://dc.lft.to/lastmile_qr_scan"}, "bike_id": "0fc264453eeef197813d0deb5cd15163", "fusion_lat": 0.0}, {"lon": -77.02403533333333, "name": "ffef2bd6c59f1c3c4e682b01df5c00b8", "is_disabled": 0, "type": "electric_scooter", "is_reserved": 0, "fusion_lon": 0.0, "lat": 38.916187, "rental_uris": {"ios": "https://dc.lft.to/lastmile_qr_scan", "android": "https://dc.lft.to/lastmile_qr_scan"}, "bike_id": "ffef2bd6c59f1c3c4e682b01df5c00b8", "fusion_lat": 0.0}, {"lon": -77.04144266666667, "name": "2cc83e54e52919f158c6ee93e765c3b5", "is_disabled": 0, "type": "electric_scooter", "is_reserved": 0, "fusion_lon": 0.0, "lat": 38.90720366666667, "rental_uris": {"ios": "https://dc.lft.to/lastmile_qr_scan", "android": "https://dc.lft.to/lastmile_qr_scan"}, "bike_id": "2cc83e54e52919f158c6ee93e765c3b5", "fusion_lat": 0.0}, {"lon": -77.03567583333333, "name": "cd8b7406ee5f10481d2a307e61764cb3", "is_disabled": 0, "type": "electric_scooter", "is_reserved": 0, "fusion_lon": 0.0, "lat": 38.9266895, "rental_uris": {"ios": "https://dc.lft.to/lastmile_qr_scan", "android": "https://dc.lft.to/lastmile_qr_scan"}, "bike_id": "cd8b7406ee5f10481d2a307e61764cb3", "fusion_lat": 0.0}, {"lon": -77.0159065, "name": "292c84b98269439aa8f1fddc51922cb2", "is_disabled": 0, "type": "electric_scooter", "is_reserved": 0, "fusion_lon": 0.0, "lat": 38.8746335, "rental_uris": {"ios": "https://dc.lft.to/lastmile_qr_scan", "android": "https://dc.lft.to/lastmile_qr_scan"}, "bike_id": "292c84b98269439aa8f1fddc51922cb2", "fusion_lat": 0.0}, {"lon": -77.02601683333333, "name": "aa90eb2dd824e97587c5090eb6159896", "is_disabled": 0, "type": "electric_scooter", "is_reserved": 0, "fusion_lon": 0.0, "lat": 38.89632016666667, "rental_uris": {"ios": "https://dc.lft.to/lastmile_qr_scan", "android": "https://dc.lft.to/lastmile_qr_scan"}, "bike_id": "aa90eb2dd824e97587c5090eb6159896", "fusion_lat": 0.0}, {"lon": -77.08318883333334, "name": "69a199e2c2b246e5de88f708ee1a7dfc", "is_disabled": 0, "type": "electric_scooter", "is_reserved": 0, "fusion_lon": 0.0, "lat": 38.929862666666665, "rental_uris": {"ios": "https://dc.lft.to/lastmile_qr_scan", "android": "https://dc.lft.to/lastmile_qr_scan"}, "bike_id": "69a199e2c2b246e5de88f708ee1a7dfc", "fusion_lat": 0.0}, {"lon": -77.02985, "name": "14b4fbaab23c23bcb5e556249e5af75b", "is_disabled": 0, "type": "electric_scooter", "is_reserved": 0, "fusion_lon": 0.0, "lat": 38.942625666666665, "rental_uris": {"ios": "https://dc.lft.to/lastmile_qr_scan", "android": "https://dc.lft.to/lastmile_qr_scan"}, "bike_id": "14b4fbaab23c23bcb5e556249e5af75b", "fusion_lat": 0.0}, {"lon": -77.01423916666667, "name": "898496765e63d9480415c41c10679302", "is_disabled": 0, "type": "electric_scooter", "is_reserved": 0, "fusion_lon": 0.0, "lat": 38.905676166666666, "rental_uris": {"ios": "https://dc.lft.to/lastmile_qr_scan", "android": "https://dc.lft.to/lastmile_qr_scan"}, "bike_id": "898496765e63d9480415c41c10679302", "fusion_lat": 0.0}, {"lon": -77.01757133333334, "name": "472b4d3e26e566259cb40b56f0b40d55", "is_disabled": 0, "type": "electric_scooter", "is_reserved": 0, "fusion_lon": 0.0, "lat": 38.882041, "rental_uris": {"ios": "https://dc.lft.to/lastmile_qr_scan", "android": "https://dc.lft.to/lastmile_qr_scan"}, "bike_id": "472b4d3e26e566259cb40b56f0b40d55", "fusion_lat": 0.0}, {"lon": -77.04999016666666, "name": "0c11aaa0b80c57f1517bb1f3ab4f9cf3", "is_disabled": 0, "type": "electric_scooter", "is_reserved": 0, "fusion_lon": 0.0, "lat": 38.89229183333333, "rental_uris": {"ios": "https://dc.lft.to/lastmile_qr_scan", "android": "https://dc.lft.to/lastmile_qr_scan"}, "bike_id": "0c11aaa0b80c57f1517bb1f3ab4f9cf3", "fusion_lat": 0.0}, {"lon": -76.955622, "name": "51b16bbfd22c1f67f4f0588d706f48b7", "is_disabled": 0, "type": "electric_bike", "is_reserved": 0, "fusion_lon": 0.0, "lat": 38.98501233333333, "rental_uris": {"ios": "https://dc.lft.to/lastmile_qr_scan", "android": "https://dc.lft.to/lastmile_qr_scan"}, "bike_id": "51b16bbfd22c1f67f4f0588d706f48b7", "fusion_lat": 0.0}, {"lon": -77.0344365, "name": "bc8a82b7b7ccf5964e3448f2534ade26", "is_disabled": 0, "type": "electric_scooter", "is_reserved": 0, "fusion_lon": 0.0, "lat": 38.917828166666666, "rental_uris": {"ios": "https://dc.lft.to/lastmile_qr_scan", "android": "https://dc.lft.to/lastmile_qr_scan"}, "bike_id": "bc8a82b7b7ccf5964e3448f2534ade26", "fusion_lat": 0.0}, {"lon": -77.02228533333333, "name": "10a253d2286abbc590a67ac855e33794", "is_disabled": 0, "type": "electric_scooter", "is_reserved": 0, "fusion_lon": 0.0, "lat": 38.9209095, "rental_uris": {"ios": "https://dc.lft.to/lastmile_qr_scan", "android": "https://dc.lft.to/lastmile_qr_scan"}, "bike_id": "10a253d2286abbc590a67ac855e33794", "fusion_lat": 0.0}, {"lon": -77.02213983333333, "name": "0c4d16c3d7fa654f726df4330a0159fa", "is_disabled": 0, "type": "electric_scooter", "is_reserved": 0, "fusion_lon": 0.0, "lat": 38.9126705, "rental_uris": {"ios": "https://dc.lft.to/lastmile_qr_scan", "android": "https://dc.lft.to/lastmile_qr_scan"}, "bike_id": "0c4d16c3d7fa654f726df4330a0159fa", "fusion_lat": 0.0}, {"lon": -77.01915633333333, "name": "5deb292270f1d01e2e94877eb7d2d24a", "is_disabled": 0, "type": "electric_scooter", "is_reserved": 0, "fusion_lon": 0.0, "lat": 38.9294, "rental_uris": {"ios": "https://dc.lft.to/lastmile_qr_scan", "android": "https://dc.lft.to/lastmile_qr_scan"}, "bike_id": "5deb292270f1d01e2e94877eb7d2d24a", "fusion_lat": 0.0}, {"lon": -76.98523183333333, "name": "f87129ebdaf84c98280fe367e548e601", "is_disabled": 0, "type": "electric_scooter", "is_reserved": 0, "fusion_lon": 0.0, "lat": 38.87973066666667, "rental_uris": {"ios": "https://dc.lft.to/lastmile_qr_scan", "android": "https://dc.lft.to/lastmile_qr_scan"}, "bike_id": "f87129ebdaf84c98280fe367e548e601", "fusion_lat": 0.0}, {"lon": -77.04121866666667, "name": "e435ad40fd24a76c83660d11890a5d9b", "is_disabled": 0, "type": "electric_scooter", "is_reserved": 0, "fusion_lon": 0.0, "lat": 38.921181833333335, "rental_uris": {"ios": "https://dc.lft.to/lastmile_qr_scan", "android": "https://dc.lft.to/lastmile_qr_scan"}, "bike_id": "e435ad40fd24a76c83660d11890a5d9b", "fusion_lat": 0.0}, {"lon": -77.03661716666667, "name": "21ca084aa30172d21a1f05c151ab7b2b", "is_disabled": 0, "type": "electric_scooter", "is_reserved": 0, "fusion_lon": 0.0, "lat": 38.931565166666665, "rental_uris": {"ios": "https://dc.lft.to/lastmile_qr_scan", "android": "https://dc.lft.to/lastmile_qr_scan"}, "bike_id": "21ca084aa30172d21a1f05c151ab7b2b", "fusion_lat": 0.0}, {"lon": -77.05426983333334, "name": "9392222d5fe9d31e150fab02d806f9cb", "is_disabled": 0, "type": "electric_scooter", "is_reserved": 0, "fusion_lon": 0.0, "lat": 38.923450333333335, "rental_uris": {"ios": "https://dc.lft.to/lastmile_qr_scan", "android": "https://dc.lft.to/lastmile_qr_scan"}, "bike_id": "9392222d5fe9d31e150fab02d806f9cb", "fusion_lat": 0.0}, {"lon": -77.02206, "name": "24da4fd5f47467ec355fdcd29661de99", "is_disabled": 0, "type": "electric_scooter", "is_reserved": 0, "fusion_lon": 0.0, "lat": 38.878978833333335, "rental_uris": {"ios": "https://dc.lft.to/lastmile_qr_scan", "android": "https://dc.lft.to/lastmile_qr_scan"}, "bike_id": "24da4fd5f47467ec355fdcd29661de99", "fusion_lat": 0.0}, {"lon": -76.99801633333334, "name": "6fdd57a643e7ae52a598f07e9fbc6340", "is_disabled": 0, "type": "electric_scooter", "is_reserved": 0, "fusion_lon": 0.0, "lat": 38.89606633333333, "rental_uris": {"ios": "https://dc.lft.to/lastmile_qr_scan", "android": "https://dc.lft.to/lastmile_qr_scan"}, "bike_id": "6fdd57a643e7ae52a598f07e9fbc6340", "fusion_lat": 0.0}, {"lon": -77.04621366666667, "name": "810ad7c7bd2cbbdbef1b3360574c704d", "is_disabled": 0, "type": "electric_scooter", "is_reserved": 0, "fusion_lon": 0.0, "lat": 38.91614883333333, "rental_uris": {"ios": "https://dc.lft.to/lastmile_qr_scan", "android": "https://dc.lft.to/lastmile_qr_scan"}, "bike_id": "810ad7c7bd2cbbdbef1b3360574c704d", "fusion_lat": 0.0}, {"lon": -77.02187883333333, "name": "876717809f894ea26a47aa10b82aa88c", "is_disabled": 0, "type": "electric_scooter", "is_reserved": 0, "fusion_lon": 0.0, "lat": 38.914848, "rental_uris": {"ios": "https://dc.lft.to/lastmile_qr_scan", "android": "https://dc.lft.to/lastmile_qr_scan"}, "bike_id": "876717809f894ea26a47aa10b82aa88c", "fusion_lat": 0.0}, {"lon": -77.02232916666667, "name": "6c9331a27ed470446a9306bf9696daa6", "is_disabled": 0, "type": "electric_scooter", "is_reserved": 0, "fusion_lon": 0.0, "lat": 38.923536, "rental_uris": {"ios": "https://dc.lft.to/lastmile_qr_scan", "android": "https://dc.lft.to/lastmile_qr_scan"}, "bike_id": "6c9331a27ed470446a9306bf9696daa6", "fusion_lat": 0.0}, {"lon": -77.02201416666666, "name": "377a47e18d2d723fbfde4ffee0c759b8", "is_disabled": 0, "type": "electric_scooter", "is_reserved": 0, "fusion_lon": 0.0, "lat": 38.9299965, "rental_uris": {"ios": "https://dc.lft.to/lastmile_qr_scan", "android": "https://dc.lft.to/lastmile_qr_scan"}, "bike_id": "377a47e18d2d723fbfde4ffee0c759b8", "fusion_lat": 0.0}, {"lon": -77.04699816666667, "name": "72e63b4615f2a06b5bf9cae00383db83", "is_disabled": 0, "type": "electric_scooter", "is_reserved": 0, "fusion_lon": 0.0, "lat": 38.91661383333334, "rental_uris": {"ios": "https://dc.lft.to/lastmile_qr_scan", "android": "https://dc.lft.to/lastmile_qr_scan"}, "bike_id": "72e63b4615f2a06b5bf9cae00383db83", "fusion_lat": 0.0}, {"lon": -77.04388433333334, "name": "ddfbb39876249ec677b7fd29250aa427", "is_disabled": 0, "type": "electric_scooter", "is_reserved": 0, "fusion_lon": 0.0, "lat": 38.922319, "rental_uris": {"ios": "https://dc.lft.to/lastmile_qr_scan", "android": "https://dc.lft.to/lastmile_qr_scan"}, "bike_id": "ddfbb39876249ec677b7fd29250aa427", "fusion_lat": 0.0}, {"lon": -77.03888766666667, "name": "22af1ce03922e78f30c903855853770c", "is_disabled": 0, "type": "electric_scooter", "is_reserved": 0, "fusion_lon": 0.0, "lat": 38.91852, "rental_uris": {"ios": "https://dc.lft.to/lastmile_qr_scan", "android": "https://dc.lft.to/lastmile_qr_scan"}, "bike_id": "22af1ce03922e78f30c903855853770c", "fusion_lat": 0.0}, {"lon": -76.99957416666666, "name": "4b108493be2e4664781cdc29d2b545d4", "is_disabled": 0, "type": "electric_scooter", "is_reserved": 0, "fusion_lon": 0.0, "lat": 38.9038105, "rental_uris": {"ios": "https://dc.lft.to/lastmile_qr_scan", "android": "https://dc.lft.to/lastmile_qr_scan"}, "bike_id": "4b108493be2e4664781cdc29d2b545d4", "fusion_lat": 0.0}, {"lon": -77.04457416666666, "name": "dac5b2b6513c0c535db682d791eef536", "is_disabled": 0, "type": "electric_scooter", "is_reserved": 0, "fusion_lon": 0.0, "lat": 38.919181, "rental_uris": {"ios": "https://dc.lft.to/lastmile_qr_scan", "android": "https://dc.lft.to/lastmile_qr_scan"}, "bike_id": "dac5b2b6513c0c535db682d791eef536", "fusion_lat": 0.0}, {"lon": -76.995929, "name": "d76d6eaf728c146c7b514ecfee778a96", "is_disabled": 0, "type": "electric_scooter", "is_reserved": 0, "fusion_lon": 0.0, "lat": 38.88431116666667, "rental_uris": {"ios": "https://dc.lft.to/lastmile_qr_scan", "android": "https://dc.lft.to/lastmile_qr_scan"}, "bike_id": "d76d6eaf728c146c7b514ecfee778a96", "fusion_lat": 0.0}, {"lon": -77.03253133333334, "name": "08e2e6f3f4d3e0a2aee9058e61350b89", "is_disabled": 0, "type": "electric_scooter", "is_reserved": 0, "fusion_lon": 0.0, "lat": 38.939667666666665, "rental_uris": {"ios": "https://dc.lft.to/lastmile_qr_scan", "android": "https://dc.lft.to/lastmile_qr_scan"}, "bike_id": "08e2e6f3f4d3e0a2aee9058e61350b89", "fusion_lat": 0.0}, {"lon": -77.02526433333334, "name": "f83564d1f5cc7659517d417098fdd52d", "is_disabled": 0, "type": "electric_scooter", "is_reserved": 0, "fusion_lon": 0.0, "lat": 38.922325, "rental_uris": {"ios": "https://dc.lft.to/lastmile_qr_scan", "android": "https://dc.lft.to/lastmile_qr_scan"}, "bike_id": "f83564d1f5cc7659517d417098fdd52d", "fusion_lat": 0.0}, {"lon": -77.03866833333333, "name": "a2edd448e4f7b9733731d12b70432fe2", "is_disabled": 0, "type": "electric_scooter", "is_reserved": 0, "fusion_lon": 0.0, "lat": 38.912724, "rental_uris": {"ios": "https://dc.lft.to/lastmile_qr_scan", "android": "https://dc.lft.to/lastmile_qr_scan"}, "bike_id": "a2edd448e4f7b9733731d12b70432fe2", "fusion_lat": 0.0}, {"lon": -77.09524083333334, "name": "670d64cdcb01cebef5c8dba00bfffe97", "is_disabled": 0, "type": "electric_bike", "is_reserved": 0, "fusion_lon": 0.0, "lat": 38.838078, "rental_uris": {"ios": "https://dc.lft.to/lastmile_qr_scan", "android": "https://dc.lft.to/lastmile_qr_scan"}, "bike_id": "670d64cdcb01cebef5c8dba00bfffe97", "fusion_lat": 0.0}, {"lon": -77.04506216666667, "name": "45e825cb310076ef29141802c56a38c0", "is_disabled": 0, "type": "electric_scooter", "is_reserved": 0, "fusion_lon": 0.0, "lat": 38.912715166666665, "rental_uris": {"ios": "https://dc.lft.to/lastmile_qr_scan", "android": "https://dc.lft.to/lastmile_qr_scan"}, "bike_id": "45e825cb310076ef29141802c56a38c0", "fusion_lat": 0.0}, {"lon": -76.93629833333334, "name": "748d5ed1830331ba7308b41e7f251069", "is_disabled": 0, "type": "electric_scooter", "is_reserved": 0, "fusion_lon": 0.0, "lat": 38.883467333333336, "rental_uris": {"ios": "https://dc.lft.to/lastmile_qr_scan", "android": "https://dc.lft.to/lastmile_qr_scan"}, "bike_id": "748d5ed1830331ba7308b41e7f251069", "fusion_lat": 0.0}, {"lon": -76.99373866666667, "name": "891aabb70d756b6bcef6a306bccaf999", "is_disabled": 0, "type": "electric_bike", "is_reserved": 0, "fusion_lon": 0.0, "lat": 38.99097316666667, "rental_uris": {"ios": "https://dc.lft.to/lastmile_qr_scan", "android": "https://dc.lft.to/lastmile_qr_scan"}, "bike_id": "891aabb70d756b6bcef6a306bccaf999", "fusion_lat": 0.0}, {"lon": -76.94292633333333, "name": "38e46fc88b4beb53950f71408a43ff5f", "is_disabled": 0, "type": "electric_scooter", "is_reserved": 0, "fusion_lon": 0.0, "lat": 38.898421166666665, "rental_uris": {"ios": "https://dc.lft.to/lastmile_qr_scan", "android": "https://dc.lft.to/lastmile_qr_scan"}, "bike_id": "38e46fc88b4beb53950f71408a43ff5f", "fusion_lat": 0.0}, {"lon": -77.0389925, "name": "4cbcd55eae1917ee03f5091bbe7cce6b", "is_disabled": 0, "type": "electric_scooter", "is_reserved": 0, "fusion_lon": 0.0, "lat": 38.9183905, "rental_uris": {"ios": "https://dc.lft.to/lastmile_qr_scan", "android": "https://dc.lft.to/lastmile_qr_scan"}, "bike_id": "4cbcd55eae1917ee03f5091bbe7cce6b", "fusion_lat": 0.0}, {"lon": -76.98321133333333, "name": "35b214e910782fe174921212aee99c9a", "is_disabled": 0, "type": "electric_scooter", "is_reserved": 0, "fusion_lon": 0.0, "lat": 38.9225365, "rental_uris": {"ios": "https://dc.lft.to/lastmile_qr_scan", "android": "https://dc.lft.to/lastmile_qr_scan"}, "bike_id": "35b214e910782fe174921212aee99c9a", "fusion_lat": 0.0}, {"lon": -77.02077233333333, "name": "74333a39b26752222dde80341008c964", "is_disabled": 0, "type": "electric_scooter", "is_reserved": 0, "fusion_lon": 0.0, "lat": 38.95258966666667, "rental_uris": {"ios": "https://dc.lft.to/lastmile_qr_scan", "android": "https://dc.lft.to/lastmile_qr_scan"}, "bike_id": "74333a39b26752222dde80341008c964", "fusion_lat": 0.0}, {"lon": -77.04176133333333, "name": "0ba31a0ff46c35bbff95aeeb89e91c5c", "is_disabled": 0, "type": "electric_scooter", "is_reserved": 0, "fusion_lon": 0.0, "lat": 38.91702566666667, "rental_uris": {"ios": "https://dc.lft.to/lastmile_qr_scan", "android": "https://dc.lft.to/lastmile_qr_scan"}, "bike_id": "0ba31a0ff46c35bbff95aeeb89e91c5c", "fusion_lat": 0.0}, {"lon": -77.01439283333333, "name": "5d1e77aaeefcd16591ff87dbb9351968", "is_disabled": 0, "type": "electric_scooter", "is_reserved": 0, "fusion_lon": 0.0, "lat": 38.913127833333334, "rental_uris": {"ios": "https://dc.lft.to/lastmile_qr_scan", "android": "https://dc.lft.to/lastmile_qr_scan"}, "bike_id": "5d1e77aaeefcd16591ff87dbb9351968", "fusion_lat": 0.0}, {"lon": -77.03194966666666, "name": "3311be412d2dc334e47ace6df9c3bc45", "is_disabled": 0, "type": "electric_scooter", "is_reserved": 0, "fusion_lon": 0.0, "lat": 38.91618166666667, "rental_uris": {"ios": "https://dc.lft.to/lastmile_qr_scan", "android": "https://dc.lft.to/lastmile_qr_scan"}, "bike_id": "3311be412d2dc334e47ace6df9c3bc45", "fusion_lat": 0.0}, {"lon": -77.03661216666667, "name": "96fd7fcfaaa6f67cea3de5354337e451", "is_disabled": 0, "type": "electric_scooter", "is_reserved": 0, "fusion_lon": 0.0, "lat": 38.92284516666667, "rental_uris": {"ios": "https://dc.lft.to/lastmile_qr_scan", "android": "https://dc.lft.to/lastmile_qr_scan"}, "bike_id": "96fd7fcfaaa6f67cea3de5354337e451", "fusion_lat": 0.0}, {"lon": -77.02324516666667, "name": "c78ae77a562dab1bd558149c4226b652", "is_disabled": 0, "type": "electric_scooter", "is_reserved": 0, "fusion_lon": 0.0, "lat": 38.9206995, "rental_uris": {"ios": "https://dc.lft.to/lastmile_qr_scan", "android": "https://dc.lft.to/lastmile_qr_scan"}, "bike_id": "c78ae77a562dab1bd558149c4226b652", "fusion_lat": 0.0}, {"lon": -76.98956316666667, "name": "602066a958b4b2d1aa44ec2b7b1319d7", "is_disabled": 0, "type": "electric_scooter", "is_reserved": 0, "fusion_lon": 0.0, "lat": 38.90136233333333, "rental_uris": {"ios": "https://dc.lft.to/lastmile_qr_scan", "android": "https://dc.lft.to/lastmile_qr_scan"}, "bike_id": "602066a958b4b2d1aa44ec2b7b1319d7", "fusion_lat": 0.0}, {"lon": -77.02586383333333, "name": "66342539b46428cf7d8953c2026883a0", "is_disabled": 0, "type": "electric_scooter", "is_reserved": 0, "fusion_lon": 0.0, "lat": 38.909625, "rental_uris": {"ios": "https://dc.lft.to/lastmile_qr_scan", "android": "https://dc.lft.to/lastmile_qr_scan"}, "bike_id": "66342539b46428cf7d8953c2026883a0", "fusion_lat": 0.0}, {"lon": -77.03587416666667, "name": "1d6af0e3ad93a6817b82b09d4313e284", "is_disabled": 0, "type": "electric_scooter", "is_reserved": 0, "fusion_lon": 0.0, "lat": 38.9278325, "rental_uris": {"ios": "https://dc.lft.to/lastmile_qr_scan", "android": "https://dc.lft.to/lastmile_qr_scan"}, "bike_id": "1d6af0e3ad93a6817b82b09d4313e284", "fusion_lat": 0.0}, {"lon": -76.952039, "name": "4a01039cc9e1770f387bc0d744a63b15", "is_disabled": 0, "type": "electric_bike", "is_reserved": 0, "fusion_lon": 0.0, "lat": 38.891136833333334, "rental_uris": {"ios": "https://dc.lft.to/lastmile_qr_scan", "android": "https://dc.lft.to/lastmile_qr_scan"}, "bike_id": "4a01039cc9e1770f387bc0d744a63b15", "fusion_lat": 0.0}, {"lon": -77.0259645, "name": "9cbe3c7f1d35262b6c3af72b46a8567e", "is_disabled": 0, "type": "electric_scooter", "is_reserved": 0, "fusion_lon": 0.0, "lat": 38.92091083333333, "rental_uris": {"ios": "https://dc.lft.to/lastmile_qr_scan", "android": "https://dc.lft.to/lastmile_qr_scan"}, "bike_id": "9cbe3c7f1d35262b6c3af72b46a8567e", "fusion_lat": 0.0}, {"lon": -77.06460783333333, "name": "fe3b2680c8a5eb282a39e4e64d2cf025", "is_disabled": 0, "type": "electric_scooter", "is_reserved": 0, "fusion_lon": 0.0, "lat": 38.910453, "rental_uris": {"ios": "https://dc.lft.to/lastmile_qr_scan", "android": "https://dc.lft.to/lastmile_qr_scan"}, "bike_id": "fe3b2680c8a5eb282a39e4e64d2cf025", "fusion_lat": 0.0}, {"lon": -77.02378416666667, "name": "7a5fd6a4397b6184d5fb11d51a77b3a2", "is_disabled": 0, "type": "electric_scooter", "is_reserved": 0, "fusion_lon": 0.0, "lat": 38.902035, "rental_uris": {"ios": "https://dc.lft.to/lastmile_qr_scan", "android": "https://dc.lft.to/lastmile_qr_scan"}, "bike_id": "7a5fd6a4397b6184d5fb11d51a77b3a2", "fusion_lat": 0.0}, {"lon": -76.998574, "name": "b06e509ab4fcaa7d7dac6d8414dbe5da", "is_disabled": 0, "type": "electric_scooter", "is_reserved": 0, "fusion_lon": 0.0, "lat": 38.90256316666667, "rental_uris": {"ios": "https://dc.lft.to/lastmile_qr_scan", "android": "https://dc.lft.to/lastmile_qr_scan"}, "bike_id": "b06e509ab4fcaa7d7dac6d8414dbe5da", "fusion_lat": 0.0}, {"lon": -77.0503455, "name": "e95b8829563df8254cd49c6ee64a4394", "is_disabled": 0, "type": "electric_scooter", "is_reserved": 0, "fusion_lon": 0.0, "lat": 38.903357, "rental_uris": {"ios": "https://dc.lft.to/lastmile_qr_scan", "android": "https://dc.lft.to/lastmile_qr_scan"}, "bike_id": "e95b8829563df8254cd49c6ee64a4394", "fusion_lat": 0.0}, {"lon": -77.0238365, "name": "f42b6de781494b49725296ef3321fc0c", "is_disabled": 0, "type": "electric_scooter", "is_reserved": 0, "fusion_lon": 0.0, "lat": 38.90339516666667, "rental_uris": {"ios": "https://dc.lft.to/lastmile_qr_scan", "android": "https://dc.lft.to/lastmile_qr_scan"}, "bike_id": "f42b6de781494b49725296ef3321fc0c", "fusion_lat": 0.0}, {"lon": -77.02593633333333, "name": "714e1df7ad635569390f47f02ef45a5e", "is_disabled": 0, "type": "electric_scooter", "is_reserved": 0, "fusion_lon": 0.0, "lat": 38.904193666666664, "rental_uris": {"ios": "https://dc.lft.to/lastmile_qr_scan", "android": "https://dc.lft.to/lastmile_qr_scan"}, "bike_id": "714e1df7ad635569390f47f02ef45a5e", "fusion_lat": 0.0}, {"lon": -77.13933516666667, "name": "bf2adacd47e3a97c05687da1f9ff72f6", "is_disabled": 0, "type": "electric_bike", "is_reserved": 0, "fusion_lon": 0.0, "lat": 38.84677083333333, "rental_uris": {"ios": "https://dc.lft.to/lastmile_qr_scan", "android": "https://dc.lft.to/lastmile_qr_scan"}, "bike_id": "bf2adacd47e3a97c05687da1f9ff72f6", "fusion_lat": 0.0}, {"lon": -76.98566666666666, "name": "743eed382fb885e91cb05dfd271927f1", "is_disabled": 0, "type": "electric_scooter", "is_reserved": 0, "fusion_lon": 0.0, "lat": 38.899574, "rental_uris": {"ios": "https://dc.lft.to/lastmile_qr_scan", "android": "https://dc.lft.to/lastmile_qr_scan"}, "bike_id": "743eed382fb885e91cb05dfd271927f1", "fusion_lat": 0.0}, {"lon": -76.99030333333333, "name": "1c0d76e4be4d03744a445df831fec8d8", "is_disabled": 0, "type": "electric_scooter", "is_reserved": 0, "fusion_lon": 0.0, "lat": 38.898499, "rental_uris": {"ios": "https://dc.lft.to/lastmile_qr_scan", "android": "https://dc.lft.to/lastmile_qr_scan"}, "bike_id": "1c0d76e4be4d03744a445df831fec8d8", "fusion_lat": 0.0}, {"lon": -77.0155795, "name": "8e7e6f91740ac5ee5441867c5c50f5d7", "is_disabled": 0, "type": "electric_scooter", "is_reserved": 0, "fusion_lon": 0.0, "lat": 38.893681, "rental_uris": {"ios": "https://dc.lft.to/lastmile_qr_scan", "android": "https://dc.lft.to/lastmile_qr_scan"}, "bike_id": "8e7e6f91740ac5ee5441867c5c50f5d7", "fusion_lat": 0.0}, {"lon": -76.98832083333333, "name": "68a011b025b63557ea33a571c0745bc4", "is_disabled": 0, "type": "electric_scooter", "is_reserved": 0, "fusion_lon": 0.0, "lat": 38.89099516666667, "rental_uris": {"ios": "https://dc.lft.to/lastmile_qr_scan", "android": "https://dc.lft.to/lastmile_qr_scan"}, "bike_id": "68a011b025b63557ea33a571c0745bc4", "fusion_lat": 0.0}, {"lon": -76.99396116666667, "name": "4a7c9224e73cb66f822f4c3d3650585c", "is_disabled": 0, "type": "electric_scooter", "is_reserved": 0, "fusion_lon": 0.0, "lat": 38.91006483333334, "rental_uris": {"ios": "https://dc.lft.to/lastmile_qr_scan", "android": "https://dc.lft.to/lastmile_qr_scan"}, "bike_id": "4a7c9224e73cb66f822f4c3d3650585c", "fusion_lat": 0.0}, {"lon": -77.03546516666667, "name": "8547f68bee4647b3f8de8bde405dd16a", "is_disabled": 0, "type": "electric_scooter", "is_reserved": 0, "fusion_lon": 0.0, "lat": 38.9076025, "rental_uris": {"ios": "https://dc.lft.to/lastmile_qr_scan", "android": "https://dc.lft.to/lastmile_qr_scan"}, "bike_id": "8547f68bee4647b3f8de8bde405dd16a", "fusion_lat": 0.0}, {"lon": -77.01227366666667, "name": "63a246bac64c3134cc3a3fcf186ffc92", "is_disabled": 0, "type": "electric_scooter", "is_reserved": 0, "fusion_lon": 0.0, "lat": 38.913480666666665, "rental_uris": {"ios": "https://dc.lft.to/lastmile_qr_scan", "android": "https://dc.lft.to/lastmile_qr_scan"}, "bike_id": "63a246bac64c3134cc3a3fcf186ffc92", "fusion_lat": 0.0}, {"lon": -77.02129666666667, "name": "5b16f6568bed2ded3739d23a4ed724ed", "is_disabled": 0, "type": "electric_scooter", "is_reserved": 0, "fusion_lon": 0.0, "lat": 38.924155999999996, "rental_uris": {"ios": "https://dc.lft.to/lastmile_qr_scan", "android": "https://dc.lft.to/lastmile_qr_scan"}, "bike_id": "5b16f6568bed2ded3739d23a4ed724ed", "fusion_lat": 0.0}, {"lon": -77.01898666666666, "name": "0ebe0354fdcb901ad55ed51f7f1b353a", "is_disabled": 0, "type": "electric_scooter", "is_reserved": 0, "fusion_lon": 0.0, "lat": 38.913853333333336, "rental_uris": {"ios": "https://dc.lft.to/lastmile_qr_scan", "android": "https://dc.lft.to/lastmile_qr_scan"}, "bike_id": "0ebe0354fdcb901ad55ed51f7f1b353a", "fusion_lat": 0.0}, {"lon": -76.99238083333333, "name": "ec1f977ac5e4014f6342e8fac697bc14", "is_disabled": 0, "type": "electric_scooter", "is_reserved": 0, "fusion_lon": 0.0, "lat": 38.9020575, "rental_uris": {"ios": "https://dc.lft.to/lastmile_qr_scan", "android": "https://dc.lft.to/lastmile_qr_scan"}, "bike_id": "ec1f977ac5e4014f6342e8fac697bc14", "fusion_lat": 0.0}, {"lon": -77.02524066666666, "name": "5b50541a70b18a23f925117374701304", "is_disabled": 0, "type": "electric_scooter", "is_reserved": 0, "fusion_lon": 0.0, "lat": 38.94564533333333, "rental_uris": {"ios": "https://dc.lft.to/lastmile_qr_scan", "android": "https://dc.lft.to/lastmile_qr_scan"}, "bike_id": "5b50541a70b18a23f925117374701304", "fusion_lat": 0.0}, {"lon": -77.04171116666667, "name": "2af66763389d91375830462b08c807bb", "is_disabled": 0, "type": "electric_scooter", "is_reserved": 0, "fusion_lon": 0.0, "lat": 38.90734533333333, "rental_uris": {"ios": "https://dc.lft.to/lastmile_qr_scan", "android": "https://dc.lft.to/lastmile_qr_scan"}, "bike_id": "2af66763389d91375830462b08c807bb", "fusion_lat": 0.0}, {"lon": -77.036715, "name": "865ea9d582c8befb6ef0dbcb25890e6e", "is_disabled": 0, "type": "electric_scooter", "is_reserved": 0, "fusion_lon": 0.0, "lat": 38.9363845, "rental_uris": {"ios": "https://dc.lft.to/lastmile_qr_scan", "android": "https://dc.lft.to/lastmile_qr_scan"}, "bike_id": "865ea9d582c8befb6ef0dbcb25890e6e", "fusion_lat": 0.0}, {"lon": -77.09404133333334, "name": "3912ac32e44c9b741abd9af61735e2cf", "is_disabled": 0, "type": "electric_bike", "is_reserved": 0, "fusion_lon": 0.0, "lat": 38.978047833333335, "rental_uris": {"ios": "https://dc.lft.to/lastmile_qr_scan", "android": "https://dc.lft.to/lastmile_qr_scan"}, "bike_id": "3912ac32e44c9b741abd9af61735e2cf", "fusion_lat": 0.0}, {"lon": -77.23396666666666, "name": "1eba60161ed4ce57ff3b3d2dd0ebf5ae", "is_disabled": 0, "type": "electric_bike", "is_reserved": 0, "fusion_lon": 0.0, "lat": 38.871708166666664, "rental_uris": {"ios": "https://dc.lft.to/lastmile_qr_scan", "android": "https://dc.lft.to/lastmile_qr_scan"}, "bike_id": "1eba60161ed4ce57ff3b3d2dd0ebf5ae", "fusion_lat": 0.0}, {"lon": -76.94885683333334, "name": "ada59fe608c214f86eb034f807167909", "is_disabled": 0, "type": "electric_scooter", "is_reserved": 0, "fusion_lon": 0.0, "lat": 38.895083166666666, "rental_uris": {"ios": "https://dc.lft.to/lastmile_qr_scan", "android": "https://dc.lft.to/lastmile_qr_scan"}, "bike_id": "ada59fe608c214f86eb034f807167909", "fusion_lat": 0.0}, {"lon": -77.09687383333333, "name": "3defebd3ca3851b9840f5b9c8b0a09c6", "is_disabled": 0, "type": "electric_bike", "is_reserved": 0, "fusion_lon": 0.0, "lat": 38.807392, "rental_uris": {"ios": "https://dc.lft.to/lastmile_qr_scan", "android": "https://dc.lft.to/lastmile_qr_scan"}, "bike_id": "3defebd3ca3851b9840f5b9c8b0a09c6", "fusion_lat": 0.0}, {"lon": -77.01997516666667, "name": "5f664fbc279a8e3c9098e5f27419df03", "is_disabled": 0, "type": "electric_scooter", "is_reserved": 0, "fusion_lon": 0.0, "lat": 38.90190233333333, "rental_uris": {"ios": "https://dc.lft.to/lastmile_qr_scan", "android": "https://dc.lft.to/lastmile_qr_scan"}, "bike_id": "5f664fbc279a8e3c9098e5f27419df03", "fusion_lat": 0.0}, {"lon": -77.031899, "name": "a8e8627c87816ea8afd6507c9b632a4e", "is_disabled": 0, "type": "electric_scooter", "is_reserved": 0, "fusion_lon": 0.0, "lat": 38.91621266666667, "rental_uris": {"ios": "https://dc.lft.to/lastmile_qr_scan", "android": "https://dc.lft.to/lastmile_qr_scan"}, "bike_id": "a8e8627c87816ea8afd6507c9b632a4e", "fusion_lat": 0.0}, {"lon": -76.9991455, "name": "e17de476cefbefa49ff416da27bfddea", "is_disabled": 0, "type": "electric_scooter", "is_reserved": 0, "fusion_lon": 0.0, "lat": 38.924578, "rental_uris": {"ios": "https://dc.lft.to/lastmile_qr_scan", "android": "https://dc.lft.to/lastmile_qr_scan"}, "bike_id": "e17de476cefbefa49ff416da27bfddea", "fusion_lat": 0.0}, {"lon": -77.01523433333334, "name": "76b224b0b746954656b76b723fcf74b2", "is_disabled": 0, "type": "electric_scooter", "is_reserved": 0, "fusion_lon": 0.0, "lat": 38.8728675, "rental_uris": {"ios": "https://dc.lft.to/lastmile_qr_scan", "android": "https://dc.lft.to/lastmile_qr_scan"}, "bike_id": "76b224b0b746954656b76b723fcf74b2", "fusion_lat": 0.0}, {"lon": -76.992783, "name": "5fa29a27ae2e3d9af622b8ba732e8ed4", "is_disabled": 0, "type": "electric_scooter", "is_reserved": 0, "fusion_lon": 0.0, "lat": 38.903142833333334, "rental_uris": {"ios": "https://dc.lft.to/lastmile_qr_scan", "android": "https://dc.lft.to/lastmile_qr_scan"}, "bike_id": "5fa29a27ae2e3d9af622b8ba732e8ed4", "fusion_lat": 0.0}, {"lon": -77.01134683333333, "name": "b28ae251c30c9d18c98cff146bc0d36d", "is_disabled": 0, "type": "electric_scooter", "is_reserved": 0, "fusion_lon": 0.0, "lat": 38.907259833333335, "rental_uris": {"ios": "https://dc.lft.to/lastmile_qr_scan", "android": "https://dc.lft.to/lastmile_qr_scan"}, "bike_id": "b28ae251c30c9d18c98cff146bc0d36d", "fusion_lat": 0.0}, {"lon": -77.021431, "name": "0e9f0205c684d2d21b90683221c69555", "is_disabled": 0, "type": "electric_scooter", "is_reserved": 0, "fusion_lon": 0.0, "lat": 38.921116833333336, "rental_uris": {"ios": "https://dc.lft.to/lastmile_qr_scan", "android": "https://dc.lft.to/lastmile_qr_scan"}, "bike_id": "0e9f0205c684d2d21b90683221c69555", "fusion_lat": 0.0}, {"lon": -77.04334416666667, "name": "69e4204146204f65f5052422af0df797", "is_disabled": 0, "type": "electric_scooter", "is_reserved": 0, "fusion_lon": 0.0, "lat": 38.924990333333334, "rental_uris": {"ios": "https://dc.lft.to/lastmile_qr_scan", "android": "https://dc.lft.to/lastmile_qr_scan"}, "bike_id": "69e4204146204f65f5052422af0df797", "fusion_lat": 0.0}, {"lon": -77.04177133333333, "name": "f865388043c70d23c1db3b547d38bc4f", "is_disabled": 0, "type": "electric_scooter", "is_reserved": 0, "fusion_lon": 0.0, "lat": 38.9170145, "rental_uris": {"ios": "https://dc.lft.to/lastmile_qr_scan", "android": "https://dc.lft.to/lastmile_qr_scan"}, "bike_id": "f865388043c70d23c1db3b547d38bc4f", "fusion_lat": 0.0}, {"lon": -77.02429433333333, "name": "3e7de61ae1494a23dcde078a6a5e9721", "is_disabled": 0, "type": "electric_scooter", "is_reserved": 0, "fusion_lon": 0.0, "lat": 38.9204985, "rental_uris": {"ios": "https://dc.lft.to/lastmile_qr_scan", "android": "https://dc.lft.to/lastmile_qr_scan"}, "bike_id": "3e7de61ae1494a23dcde078a6a5e9721", "fusion_lat": 0.0}, {"lon": -77.01959133333334, "name": "a1c8ecd349b6ad2d29d29c2d7de507a1", "is_disabled": 0, "type": "electric_scooter", "is_reserved": 0, "fusion_lon": 0.0, "lat": 38.92365983333333, "rental_uris": {"ios": "https://dc.lft.to/lastmile_qr_scan", "android": "https://dc.lft.to/lastmile_qr_scan"}, "bike_id": "a1c8ecd349b6ad2d29d29c2d7de507a1", "fusion_lat": 0.0}, {"lon": -77.039357, "name": "436937f6f4527f7abecb7c07fd7dc0c0", "is_disabled": 0, "type": "electric_scooter", "is_reserved": 0, "fusion_lon": 0.0, "lat": 38.924863333333334, "rental_uris": {"ios": "https://dc.lft.to/lastmile_qr_scan", "android": "https://dc.lft.to/lastmile_qr_scan"}, "bike_id": "436937f6f4527f7abecb7c07fd7dc0c0", "fusion_lat": 0.0}, {"lon": -76.98840216666666, "name": "79a79626cb4a0841a42ebac0e4b96281", "is_disabled": 0, "type": "electric_scooter", "is_reserved": 0, "fusion_lon": 0.0, "lat": 38.934700666666664, "rental_uris": {"ios": "https://dc.lft.to/lastmile_qr_scan", "android": "https://dc.lft.to/lastmile_qr_scan"}, "bike_id": "79a79626cb4a0841a42ebac0e4b96281", "fusion_lat": 0.0}, {"lon": -77.0020325, "name": "ab33689ab1abec18eee710fe93e5a156", "is_disabled": 0, "type": "electric_scooter", "is_reserved": 0, "fusion_lon": 0.0, "lat": 38.9002305, "rental_uris": {"ios": "https://dc.lft.to/lastmile_qr_scan", "android": "https://dc.lft.to/lastmile_qr_scan"}, "bike_id": "ab33689ab1abec18eee710fe93e5a156", "fusion_lat": 0.0}, {"lon": -77.0456155, "name": "a955c8aa9e334b04cc0c970ad43aed73", "is_disabled": 0, "type": "electric_scooter", "is_reserved": 0, "fusion_lon": 0.0, "lat": 38.902309333333335, "rental_uris": {"ios": "https://dc.lft.to/lastmile_qr_scan", "android": "https://dc.lft.to/lastmile_qr_scan"}, "bike_id": "a955c8aa9e334b04cc0c970ad43aed73", "fusion_lat": 0.0}, {"lon": -77.02539083333333, "name": "06cccbe971421c51d38a2dc2e5684a35", "is_disabled": 0, "type": "electric_scooter", "is_reserved": 0, "fusion_lon": 0.0, "lat": 38.8922035, "rental_uris": {"ios": "https://dc.lft.to/lastmile_qr_scan", "android": "https://dc.lft.to/lastmile_qr_scan"}, "bike_id": "06cccbe971421c51d38a2dc2e5684a35", "fusion_lat": 0.0}, {"lon": -77.03190033333334, "name": "feedabf71862f5b1777bf287c7d95837", "is_disabled": 0, "type": "electric_scooter", "is_reserved": 0, "fusion_lon": 0.0, "lat": 38.9166175, "rental_uris": {"ios": "https://dc.lft.to/lastmile_qr_scan", "android": "https://dc.lft.to/lastmile_qr_scan"}, "bike_id": "feedabf71862f5b1777bf287c7d95837", "fusion_lat": 0.0}, {"lon": -77.02670383333333, "name": "39002ed4da0d0bf73ddef5dfa70d848d", "is_disabled": 0, "type": "electric_scooter", "is_reserved": 0, "fusion_lon": 0.0, "lat": 38.92167083333333, "rental_uris": {"ios": "https://dc.lft.to/lastmile_qr_scan", "android": "https://dc.lft.to/lastmile_qr_scan"}, "bike_id": "39002ed4da0d0bf73ddef5dfa70d848d", "fusion_lat": 0.0},