{"data": {"bikes": [{"rental_uris": {"ios": "https://dc.lft.to/lastmile_qr_scan", "android": "https://dc.lft.to/lastmile_qr_scan"}, "type": "electric_scooter", "name": "b371019c2445d2409f32cdedf2b55ce5", "is_reserved": 0, "lon": -77.025241, "is_disabled": 0, "fusion_lat": 0.0, "lat": 38.929773833333336, "bike_id": "b371019c2445d2409f32cdedf2b55ce5", "fusion_lon": 0.0}, {"rental_uris": {"ios": "https://dc.lft.to/lastmile_qr_scan", "android": "https://dc.lft.to/lastmile_qr_scan"}, "type": "electric_scooter", "name": "5a8010f95990f07bff73e8aed09620f5", "is_reserved": 0, "lon": -76.93213366666667, "is_disabled": 0, "fusion_lat": 0.0, "lat": 38.880472, "bike_id": "5a8010f95990f07bff73e8aed09620f5", "fusion_lon": 0.0}, {"rental_uris": {"ios": "https://dc.lft.to/lastmile_qr_scan", "android": "https://dc.lft.to/lastmile_qr_scan"}, "type": "electric_scooter", "name": "e4fa527347658a5a9cf0ce5ba84bbbdb", "is_reserved": 0, "lon": -77.041448, "is_disabled": 0, "fusion_lat": 0.0, "lat": 38.893483333333336, "bike_id": "e4fa527347658a5a9cf0ce5ba84bbbdb", "fusion_lon": 0.0}, {"rental_uris": {"ios": "https://dc.lft.to/lastmile_qr_scan", "android": "https://dc.lft.to/lastmile_qr_scan"}, "type": "electric_scooter", "name": "2d04bc3da3ac0102a33e143a401f66aa", "is_reserved": 0, "lon": -77.05725883333334, "is_disabled": 0, "fusion_lat": 0.0, "lat": 38.933569, "bike_id": "2d04bc3da3ac0102a33e143a401f66aa", "fusion_lon": 0.0}, {"rental_uris": {"ios": "https://dc.lft.to/lastmile_qr_scan", "android": "https://dc.lft.to/lastmile_qr_scan"}, "type": "electric_scooter", "name": "d82d96627065a236c12ef128b7c52f1a", "is_reserved": 0, "lon": -77.0345345, "is_disabled": 0, "fusion_lat": 0.0, "lat": 38.90733066666667, "bike_id": "d82d96627065a236c12ef128b7c52f1a", "fusion_lon": 0.0}, {"rental_uris": {"ios": "https://dc.lft.to/lastmile_qr_scan", "android": "https://dc.lft.to/lastmile_qr_scan"}, "type": "electric_scooter", "name": "b6a29f5ed4eebe321dbd0963d72a2a81", "is_reserved": 0, "lon": -76.98357066666667, "is_disabled": 0, "fusion_lat": 0.0, "lat": 38.88734216666667, "bike_id": "b6a29f5ed4eebe321dbd0963d72a2a81", "fusion_lon": 0.0}, {"rental_uris": {"ios": "https://dc.lft.to/lastmile_qr_scan", "android": "https://dc.lft.to/lastmile_qr_scan"}, "type": "electric_scooter", "name": "ea4c447d98a88bc69eb952767774065c", "is_reserved": 0, "lon": -77.00063066666667, "is_disabled": 0, "fusion_lat": 0.0, "lat": 38.87447616666667, "bike_id": "ea4c447d98a88bc69eb952767774065c", "fusion_lon": 0.0}, {"rental_uris": {"ios": "https://dc.lft.to/lastmile_qr_scan", "android": "https://dc.lft.to/lastmile_qr_scan"}, "type": "electric_scooter", "name": "c002345d14860097c9fe6985f3de3e28", "is_reserved": 0, "lon": -77.0182, "is_disabled": 0, "fusion_lat": 0.0, "lat": 38.9211945, "bike_id": "c002345d14860097c9fe6985f3de3e28", "fusion_lon": 0.0}, {"rental_uris": {"ios": "https://dc.lft.to/lastmile_qr_scan", "android": "https://dc.lft.to/lastmile_qr_scan"}, "type": "electric_scooter", "name": "fab928a1fc4bcef0c7b0d04d668591fe", "is_reserved": 0, "lon": -77.028228, "is_disabled": 0, "fusion_lat": 0.0, "lat": 38.950811, "bike_id": "fab928a1fc4bcef0c7b0d04d668591fe", "fusion_lon": 0.0}, {"rental_uris": {"ios": "https://dc.lft.to/lastmile_qr_scan", "android": "https://dc.lft.to/lastmile_qr_scan"}, "type": "electric_scooter", "name": "781ad87334982e0a667b6f957af0e9b9", "is_reserved": 0, "lon": -77.01020016666666, "is_disabled": 0, "fusion_lat": 0.0, "lat": 38.914043, "bike_id": "781ad87334982e0a667b6f957af0e9b9", "fusion_lon": 0.0}, {"rental_uris": {"ios": "https://dc.lft.to/lastmile_qr_scan", "android": "https://dc.lft.to/lastmile_qr_scan"}, "type": "electric_scooter", "name": "e19aa51b9bd978d9041fe29a53659e2f", "is_reserved": 0, "lon": -77.02331966666667, "is_disabled": 0, "fusion_lat": 0.0, "lat": 38.916681, "bike_id": "e19aa51b9bd978d9041fe29a53659e2f", "fusion_lon": 0.0}, {"rental_uris": {"ios": "https://dc.lft.to/lastmile_qr_scan", "android": "https://dc.lft.to/lastmile_qr_scan"}, "type": "electric_scooter", "name": "5e65893c8c02af82a405a3625b52ff3e", "is_reserved": 0, "lon": -76.99381066666666, "is_disabled": 0, "fusion_lat": 0.0, "lat": 38.893381833333336, "bike_id": "5e65893c8c02af82a405a3625b52ff3e", "fusion_lon": 0.0}, {"rental_uris": {"ios": "https://dc.lft.to/lastmile_qr_scan", "android": "https://dc.lft.to/lastmile_qr_scan"}, "type": "electric_scooter", "name": "6afa1d407ccaff81d2107b174507c7b0", "is_reserved": 0, "lon": -77.00256733333333, "is_disabled": 0, "fusion_lat": 0.0, "lat": 38.894752833333335, "bike_id": "6afa1d407ccaff81d2107b174507c7b0", "fusion_lon": 0.0}, {"rental_uris": {"ios": "https://dc.lft.to/lastmile_qr_scan", "android": "https://dc.lft.to/lastmile_qr_scan"}, "type": "electric_scooter", "name": "ccc3f991a1f51af5290978e3d12e9f08", "is_reserved": 0, "lon": -77.0647895, "is_disabled": 0, "fusion_lat": 0.0, "lat": 38.926957, "bike_id": "ccc3f991a1f51af5290978e3d12e9f08", "fusion_lon": 0.0}, {"rental_uris": {"ios": "https://dc.lft.to/lastmile_qr_scan", "android": "https://dc.lft.to/lastmile_qr_scan"}, "type": "electric_scooter", "name": "d3b752120c8158f1a3e7448c3a3c613f", "is_reserved": 0, "lon": -77.04524133333334, "is_disabled": 0, "fusion_lat": 0.0, "lat": 38.91104133333333, "bike_id": "d3b752120c8158f1a3e7448c3a3c613f", "fusion_lon": 0.0}, {"rental_uris": {"ios": "https://dc.lft.to/lastmile_qr_scan", "android": "https://dc.lft.to/lastmile_qr_scan"}, "type": "electric_scooter", "name": "bcc7a6ad1a7fef96f93c0bf16c8727a0", "is_reserved": 0, "lon": -76.98455233333334, "is_disabled": 0, "fusion_lat": 0.0, "lat": 38.90015133333333, "bike_id": "bcc7a6ad1a7fef96f93c0bf16c8727a0", "fusion_lon": 0.0}, {"rental_uris": {"ios": "https://dc.lft.to/lastmile_qr_scan", "android": "https://dc.lft.to/lastmile_qr_scan"}, "type": "electric_scooter", "name": "0458e83e0c816c32d9928f879c546bf8", "is_reserved": 0, "lon": -76.99164233333333, "is_disabled": 0, "fusion_lat": 0.0, "lat": 38.888094833333334, "bike_id": "0458e83e0c816c32d9928f879c546bf8", "fusion_lon": 0.0}, {"rental_uris": {"ios": "https://dc.lft.to/lastmile_qr_scan", "android": "https://dc.lft.to/lastmile_qr_scan"}, "type": "electric_scooter", "name": "1cce9177639d8f8b775e0b41bffa5876", "is_reserved": 0, "lon": -76.940638, "is_disabled": 0, "fusion_lat": 0.0, "lat": 38.8858455, "bike_id": "1cce9177639d8f8b775e0b41bffa5876", "fusion_lon": 0.0}, {"rental_uris": {"ios": "https://dc.lft.to/lastmile_qr_scan", "android": "https://dc.lft.to/lastmile_qr_scan"}, "type": "electric_scooter", "name": "9c977dab15c178941c0c2acb2955378b", "is_reserved": 0, "lon": -77.00473616666666, "is_disabled": 0, "fusion_lat": 0.0, "lat": 38.8850955, "bike_id": "9c977dab15c178941c0c2acb2955378b", "fusion_lon": 0.0}, {"rental_uris": {"ios": "https://dc.lft.to/lastmile_qr_scan", "android": "https://dc.lft.to/lastmile_qr_scan"}, "type": "electric_scooter", "name": "423acca82534c85b7bb939b96d8e3272", "is_reserved": 0, "lon": -76.93390833333333, "is_disabled": 0, "fusion_lat": 0.0, "lat": 38.8990725, "bike_id": "423acca82534c85b7bb939b96d8e3272", "fusion_lon": 0.0}, {"rental_uris": {"ios": "https://dc.lft.to/lastmile_qr_scan", "android": "https://dc.lft.to/lastmile_qr_scan"}, "type": "electric_scooter", "name": "099fc1231c5c3cff569b5907dd4a9972", "is_reserved": 0, "lon": -76.9950445, "is_disabled": 0, "fusion_lat": 0.0, "lat": 38.9098055, "bike_id": "099fc1231c5c3cff569b5907dd4a9972", "fusion_lon": 0.0}, {"rental_uris": {"ios": "https://dc.lft.to/lastmile_qr_scan", "android": "https://dc.lft.to/lastmile_qr_scan"}, "type": "electric_bike", "name": "8defe5b03366e8d4047e6ff8b2031ee9", "is_reserved": 0, "lon": -77.03277116666666, "is_disabled": 0, "fusion_lat": 0.0, "lat": 38.880908166666664, "bike_id": "8defe5b03366e8d4047e6ff8b2031ee9", "fusion_lon": 0.0}, {"rental_uris": {"ios": "https://dc.lft.to/lastmile_qr_scan", "android": "https://dc.lft.to/lastmile_qr_scan"}, "type": "electric_scooter", "name": "bc7debb2ddcd5155e91f25398a7eb829", "is_reserved": 0, "lon": -77.02396683333333, "is_disabled": 0, "fusion_lat": 0.0, "lat": 38.931019166666665, "bike_id": "bc7debb2ddcd5155e91f25398a7eb829", "fusion_lon": 0.0}, {"rental_uris": {"ios": "https://dc.lft.to/lastmile_qr_scan", "android": "https://dc.lft.to/lastmile_qr_scan"}, "type": "electric_scooter", "name": "eb3e911cbdee221f4d9277bcf67e7854", "is_reserved": 0, "lon": -77.01516566666666, "is_disabled": 0, "fusion_lat": 0.0, "lat": 38.89270333333333, "bike_id": "eb3e911cbdee221f4d9277bcf67e7854", "fusion_lon": 0.0}, {"rental_uris": {"ios": "https://dc.lft.to/lastmile_qr_scan", "android": "https://dc.lft.to/lastmile_qr_scan"}, "type": "electric_scooter", "name": "e6be9b6019e8793d87b0e0b1461fa2f9", "is_reserved": 0, "lon": -77.03799316666667, "is_disabled": 0, "fusion_lat": 0.0, "lat": 38.92674383333333, "bike_id": "e6be9b6019e8793d87b0e0b1461fa2f9", "fusion_lon": 0.0}, {"rental_uris": {"ios": "https://dc.lft.to/lastmile_qr_scan", "android": "https://dc.lft.to/lastmile_qr_scan"}, "type": "electric_scooter", "name": "ae73e72cfb40d97cd87cbe1df4fbedd9", "is_reserved": 0, "lon": -76.97707716666666, "is_disabled": 0, "fusion_lat": 0.0, "lat": 38.888204333333334, "bike_id": "ae73e72cfb40d97cd87cbe1df4fbedd9", "fusion_lon": 0.0}, {"rental_uris": {"ios": "https://dc.lft.to/lastmile_qr_scan", "android": "https://dc.lft.to/lastmile_qr_scan"}, "type": "electric_scooter", "name": "5f8b2183c7a82c65d6063215b381dcda", "is_reserved": 0, "lon": -77.01794066666666, "is_disabled": 0, "fusion_lat": 0.0, "lat": 38.892325166666666, "bike_id": "5f8b2183c7a82c65d6063215b381dcda", "fusion_lon": 0.0}, {"rental_uris": {"ios": "https://dc.lft.to/lastmile_qr_scan", "android": "https://dc.lft.to/lastmile_qr_scan"}, "type": "electric_scooter", "name": "6af3c04e33391becdb53b58d55e9f430", "is_reserved": 0, "lon": -77.01651883333334, "is_disabled": 0, "fusion_lat": 0.0, "lat": 38.94199916666667, "bike_id": "6af3c04e33391becdb53b58d55e9f430", "fusion_lon": 0.0}, {"rental_uris": {"ios": "https://dc.lft.to/lastmile_qr_scan", "android": "https://dc.lft.to/lastmile_qr_scan"}, "type": "electric_scooter", "name": "2af11639bd0befbaf142350e9ff06a55", "is_reserved": 0, "lon": -77.0251055, "is_disabled": 0, "fusion_lat": 0.0, "lat": 38.916903, "bike_id": "2af11639bd0befbaf142350e9ff06a55", "fusion_lon": 0.0}, {"rental_uris": {"ios": "https://dc.lft.to/lastmile_qr_scan", "android": "https://dc.lft.to/lastmile_qr_scan"}, "type": "electric_scooter", "name": "eeb708b0939a6a81eabe239d409f40bf", "is_reserved": 0, "lon": -77.03201266666666, "is_disabled": 0, "fusion_lat": 0.0, "lat": 38.914261333333336, "bike_id": "eeb708b0939a6a81eabe239d409f40bf", "fusion_lon": 0.0}, {"rental_uris": {"ios": "https://dc.lft.to/lastmile_qr_scan", "android": "https://dc.lft.to/lastmile_qr_scan"}, "type": "electric_scooter", "name": "385bb2dea2742f5eb98caedf9416575c", "is_reserved": 0, "lon": -77.0201315, "is_disabled": 0, "fusion_lat": 0.0, "lat": 38.8991135, "bike_id": "385bb2dea2742f5eb98caedf9416575c", "fusion_lon": 0.0}, {"rental_uris": {"ios": "https://dc.lft.to/lastmile_qr_scan", "android": "https://dc.lft.to/lastmile_qr_scan"}, "type": "electric_scooter", "name": "4b43995b1e6828bf139680b558694d5b", "is_reserved": 0, "lon": -77.034719, "is_disabled": 0, "fusion_lat": 0.0, "lat": 38.9352895, "bike_id": "4b43995b1e6828bf139680b558694d5b", "fusion_lon": 0.0}, {"rental_uris": {"ios": "https://dc.lft.to/lastmile_qr_scan", "android": "https://dc.lft.to/lastmile_qr_scan"}, "type": "electric_scooter", "name": "114ee3e937f79c4659e7ede98c8aa759", "is_reserved": 0, "lon": -77.04906666666666, "is_disabled": 0, "fusion_lat": 0.0, "lat": 38.888404, "bike_id": "114ee3e937f79c4659e7ede98c8aa759", "fusion_lon": 0.0}, {"rental_uris": {"ios": "https://dc.lft.to/lastmile_qr_scan", "android": "https://dc.lft.to/lastmile_qr_scan"}, "type": "electric_scooter", "name": "11c61fca763ffc008290f036fa13aa02", "is_reserved": 0, "lon": -77.08790833333333, "is_disabled": 0, "fusion_lat": 0.0, "lat": 38.9354485, "bike_id": "11c61fca763ffc008290f036fa13aa02", "fusion_lon": 0.0}, {"rental_uris": {"ios": "https://dc.lft.to/lastmile_qr_scan", "android": "https://dc.lft.to/lastmile_qr_scan"}, "type": "electric_scooter", "name": "4db89a466b97704fd0891059f651cf21", "is_reserved": 0, "lon": -77.034628, "is_disabled": 0, "fusion_lat": 0.0, "lat": 38.915932166666664, "bike_id": "4db89a466b97704fd0891059f651cf21", "fusion_lon": 0.0}, {"rental_uris": {"ios": "https://dc.lft.to/lastmile_qr_scan", "android": "https://dc.lft.to/lastmile_qr_scan"}, "type": "electric_scooter", "name": "3e86b4f85c9e9db9c572f6b5c7426ac7", "is_reserved": 0, "lon": -77.04355333333334, "is_disabled": 0, "fusion_lat": 0.0, "lat": 38.9214285, "bike_id": "3e86b4f85c9e9db9c572f6b5c7426ac7", "fusion_lon": 0.0}, {"rental_uris": {"ios": "https://dc.lft.to/lastmile_qr_scan", "android": "https://dc.lft.to/lastmile_qr_scan"}, "type": "electric_scooter", "name": "4f950dcea20f08b8d91d32e4cfba20de", "is_reserved": 0, "lon": -77.05513566666667, "is_disabled": 0, "fusion_lat": 0.0, "lat": 38.92839583333333, "bike_id": "4f950dcea20f08b8d91d32e4cfba20de", "fusion_lon": 0.0}, {"rental_uris": {"ios": "https://dc.lft.to/lastmile_qr_scan", "android": "https://dc.lft.to/lastmile_qr_scan"}, "type": "electric_scooter", "name": "c36bc54beef8754e894ee34a34840353", "is_reserved": 0, "lon": -77.04121866666667, "is_disabled": 0, "fusion_lat": 0.0, "lat": 38.92875766666667, "bike_id": "c36bc54beef8754e894ee34a34840353", "fusion_lon": 0.0}, {"rental_uris": {"ios": "https://dc.lft.to/lastmile_qr_scan", "android": "https://dc.lft.to/lastmile_qr_scan"}, "type": "electric_scooter", "name": "8893c40c804b4ff816a280b2b56648a4", "is_reserved": 0, "lon": -76.9446575, "is_disabled": 0, "fusion_lat": 0.0, "lat": 38.89026066666667, "bike_id": "8893c40c804b4ff816a280b2b56648a4", "fusion_lon": 0.0}, {"rental_uris": {"ios": "https://dc.lft.to/lastmile_qr_scan", "android": "https://dc.lft.to/lastmile_qr_scan"}, "type": "electric_scooter", "name": "c23e6355bf756313956669a6420a600e", "is_reserved": 0, "lon": -77.07125866666667, "is_disabled": 0, "fusion_lat": 0.0, "lat": 38.89783966666667, "bike_id": "c23e6355bf756313956669a6420a600e", "fusion_lon": 0.0}, {"rental_uris": {"ios": "https://dc.lft.to/lastmile_qr_scan", "android": "https://dc.lft.to/lastmile_qr_scan"}, "type": "electric_bike", "name": "868d9646ef8fde66897f1ae8fa91fde5", "is_reserved": 0, "lon": -77.12649833333333, "is_disabled": 0, "fusion_lat": 0.0, "lat": 38.819035, "bike_id": "868d9646ef8fde66897f1ae8fa91fde5", "fusion_lon": 0.0}, {"rental_uris": {"ios": "https://dc.lft.to/lastmile_qr_scan", "android": "https://dc.lft.to/lastmile_qr_scan"}, "type": "electric_scooter", "name": "cf0abc9038295f214a32f482137400d2", "is_reserved": 0, "lon": -77.03593416666666, "is_disabled": 0, "fusion_lat": 0.0, "lat": 38.927829333333335, "bike_id": "cf0abc9038295f214a32f482137400d2", "fusion_lon": 0.0}, {"rental_uris": {"ios": "https://dc.lft.to/lastmile_qr_scan", "android": "https://dc.lft.to/lastmile_qr_scan"}, "type": "electric_scooter", "name": "7b9cc8c5ce1e6f43aa042892b633d419", "is_reserved": 0, "lon": -77.00624916666666, "is_disabled": 0, "fusion_lat": 0.0, "lat": 38.87174183333333, "bike_id": "7b9cc8c5ce1e6f43aa042892b633d419", "fusion_lon": 0.0}, {"rental_uris": {"ios": "https://dc.lft.to/lastmile_qr_scan", "android": "https://dc.lft.to/lastmile_qr_scan"}, "type": "electric_scooter", "name": "6a44244674897b939f348547acd90f6a", "is_reserved": 0, "lon": -77.01391066666666, "is_disabled": 0, "fusion_lat": 0.0, "lat": 38.9110515, "bike_id": "6a44244674897b939f348547acd90f6a", "fusion_lon": 0.0}, {"rental_uris": {"ios": "https://dc.lft.to/lastmile_qr_scan", "android": "https://dc.lft.to/lastmile_qr_scan"}, "type": "electric_scooter", "name": "5ec91314eacb3b739c9c3ad925999514", "is_reserved": 0, "lon": -76.97962416666667, "is_disabled": 0, "fusion_lat": 0.0, "lat": 38.897893833333335, "bike_id": "5ec91314eacb3b739c9c3ad925999514", "fusion_lon": 0.0}, {"rental_uris": {"ios": "https://dc.lft.to/lastmile_qr_scan", "android": "https://dc.lft.to/lastmile_qr_scan"}, "type": "electric_scooter", "name": "b54ff86123a9fd77e1467583394ede49", "is_reserved": 0, "lon": -77.03193833333333, "is_disabled": 0, "fusion_lat": 0.0, "lat": 38.91559866666667, "bike_id": "b54ff86123a9fd77e1467583394ede49", "fusion_lon": 0.0}, {"rental_uris": {"ios": "https://dc.lft.to/lastmile_qr_scan", "android": "https://dc.lft.to/lastmile_qr_scan"}, "type": "electric_scooter", "name": "5b0a46418441851f2d4b421866d0b466", "is_reserved": 0, "lon": -77.02248666666667, "is_disabled": 0, "fusion_lat": 0.0, "lat": 38.899788666666666, "bike_id": "5b0a46418441851f2d4b421866d0b466", "fusion_lon": 0.0}, {"rental_uris": {"ios": "https://dc.lft.to/lastmile_qr_scan", "android": "https://dc.lft.to/lastmile_qr_scan"}, "type": "electric_bike", "name": "39a547c6132dd0a65659db9b10492987", "is_reserved": 0, "lon": -77.02445633333333, "is_disabled": 0, "fusion_lat": 0.0, "lat": 38.95735966666667, "bike_id": "39a547c6132dd0a65659db9b10492987", "fusion_lon": 0.0}, {"rental_uris": {"ios": "https://dc.lft.to/lastmile_qr_scan", "android": "https://dc.lft.to/lastmile_qr_scan"}, "type": "electric_scooter", "name": "b6f301be3963dbdfdb71e12eed1f51d3", "is_reserved": 0, "lon": -76.98802916666666, "is_disabled": 0, "fusion_lat": 0.0, "lat": 38.893634666666664, "bike_id": "b6f301be3963dbdfdb71e12eed1f51d3", "fusion_lon": 0.0}, {"rental_uris": {"ios": "https://dc.lft.to/lastmile_qr_scan", "android": "https://dc.lft.to/lastmile_qr_scan"}, "type": "electric_scooter", "name": "4380b36d16a15661766a492f3c479d66", "is_reserved": 0, "lon": -76.9800085, "is_disabled": 0, "fusion_lat": 0.0, "lat": 38.894371666666665, "bike_id": "4380b36d16a15661766a492f3c479d66", "fusion_lon": 0.0}, {"rental_uris": {"ios": "https://dc.lft.to/lastmile_qr_scan", "android": "https://dc.lft.to/lastmile_qr_scan"}, "type": "electric_bike", "name": "7b0ccd4fa221ad84e5f0bc4d3ce3b788", "is_reserved": 0, "lon": -77.04646716666667, "is_disabled": 0, "fusion_lat": 0.0, "lat": 38.815415, "bike_id": "7b0ccd4fa221ad84e5f0bc4d3ce3b788", "fusion_lon": 0.0}, {"rental_uris": {"ios": "https://dc.lft.to/lastmile_qr_scan", "android": "https://dc.lft.to/lastmile_qr_scan"}, "type": "electric_scooter", "name": "67e20ad332fadd4ed9661902d0c44bbf", "is_reserved": 0, "lon": -77.0327835, "is_disabled": 0, "fusion_lat": 0.0, "lat": 38.932537333333336, "bike_id": "67e20ad332fadd4ed9661902d0c44bbf", "fusion_lon": 0.0}, {"rental_uris": {"ios": "https://dc.lft.to/lastmile_qr_scan", "android": "https://dc.lft.to/lastmile_qr_scan"}, "type": "electric_bike", "name": "258ac69b6175197f829d8dd6c88bb97f", "is_reserved": 0, "lon": -76.95244516666666, "is_disabled": 0, "fusion_lat": 0.0, "lat": 38.9069575, "bike_id": "258ac69b6175197f829d8dd6c88bb97f", "fusion_lon": 0.0}, {"rental_uris": {"ios": "https://dc.lft.to/lastmile_qr_scan", "android": "https://dc.lft.to/lastmile_qr_scan"}, "type": "electric_scooter", "name": "e883f7d543fba9cfd9846b28e0fd8d06", "is_reserved": 0, "lon": -77.06372983333333, "is_disabled": 0, "fusion_lat": 0.0, "lat": 38.935572, "bike_id": "e883f7d543fba9cfd9846b28e0fd8d06", "fusion_lon": 0.0}, {"rental_uris": {"ios": "https://dc.lft.to/lastmile_qr_scan", "android": "https://dc.lft.to/lastmile_qr_scan"}, "type": "electric_scooter", "name": "2477a7f6297b27907118e25880b660f8", "is_reserved": 0, "lon": -77.04807533333333, "is_disabled": 0, "fusion_lat": 0.0, "lat": 38.9049465, "bike_id": "2477a7f6297b27907118e25880b660f8", "fusion_lon": 0.0}, {"rental_uris": {"ios": "https://dc.lft.to/lastmile_qr_scan", "android": "https://dc.lft.to/lastmile_qr_scan"}, "type": "electric_bike", "name": "428d3d40f359ab9d454b9a74eac1fd28", "is_reserved": 0, "lon": -76.99177533333334, "is_disabled": 0, "fusion_lat": 0.0, "lat": 38.96080633333333, "bike_id": "428d3d40f359ab9d454b9a74eac1fd28", "fusion_lon": 0.0}, {"rental_uris": {"ios": "https://dc.lft.to/lastmile_qr_scan", "android": "https://dc.lft.to/lastmile_qr_scan"}, "type": "electric_scooter", "name": "828ae10e5be0676b0956b4958698f0eb", "is_reserved": 0, "lon": -77.03189416666666, "is_disabled": 0, "fusion_lat": 0.0, "lat": 38.91092116666667, "bike_id": "828ae10e5be0676b0956b4958698f0eb", "fusion_lon": 0.0}, {"rental_uris": {"ios": "https://dc.lft.to/lastmile_qr_scan", "android": "https://dc.lft.to/lastmile_qr_scan"}, "type": "electric_scooter", "name": "2f76594a09a62714e8a9b6e398dfebb8", "is_reserved": 0, "lon": -77.055116, "is_disabled": 0, "fusion_lat": 0.0, "lat": 38.92833616666667, "bike_id": "2f76594a09a62714e8a9b6e398dfebb8", "fusion_lon": 0.0}, {"rental_uris": {"ios": "https://dc.lft.to/lastmile_qr_scan", "android": "https://dc.lft.to/lastmile_qr_scan"}, "type": "electric_scooter", "name": "232da74fb818a3e2d9386d88606c95ee", "is_reserved": 0, "lon": -77.07335633333334, "is_disabled": 0, "fusion_lat": 0.0, "lat": 38.960891, "bike_id": "232da74fb818a3e2d9386d88606c95ee", "fusion_lon": 0.0}, {"rental_uris": {"ios": "https://dc.lft.to/lastmile_qr_scan", "android": "https://dc.lft.to/lastmile_qr_scan"}, "type": "electric_scooter", "name": "0ecdbf932b58e97c4b5585f160fac734", "is_reserved": 0, "lon": -77.0609665, "is_disabled": 0, "fusion_lat": 0.0, "lat": 38.93991033333333, "bike_id": "0ecdbf932b58e97c4b5585f160fac734", "fusion_lon": 0.0}, {"rental_uris": {"ios": "https://dc.lft.to/lastmile_qr_scan", "android": "https://dc.lft.to/lastmile_qr_scan"}, "type": "electric_scooter", "name": "db66464379270b98840f6d90c7141ec7", "is_reserved": 0, "lon": -77.04979066666667, "is_disabled": 0, "fusion_lat": 0.0, "lat": 38.90524883333333, "bike_id": "db66464379270b98840f6d90c7141ec7", "fusion_lon": 0.0}, {"rental_uris": {"ios": "https://dc.lft.to/lastmile_qr_scan", "android": "https://dc.lft.to/lastmile_qr_scan"}, "type": "electric_bike", "name": "6bcaa8f0ea961b2ce1454b83f404b578", "is_reserved": 0, "lon": -77.001341, "is_disabled": 0, "fusion_lat": 0.0, "lat": 38.9949875, "bike_id": "6bcaa8f0ea961b2ce1454b83f404b578", "fusion_lon": 0.0}, {"rental_uris": {"ios": "https://dc.lft.to/lastmile_qr_scan", "android": "https://dc.lft.to/lastmile_qr_scan"}, "type": "electric_bike", "name": "3a2de2f154e25bcbbe15d5fbac720b56", "is_reserved": 0, "lon": -76.9579455, "is_disabled": 0, "fusion_lat": 0.0, "lat": 38.98043083333334, "bike_id": "3a2de2f154e25bcbbe15d5fbac720b56", "fusion_lon": 0.0}, {"rental_uris": {"ios": "https://dc.lft.to/lastmile_qr_scan", "android": "https://dc.lft.to/lastmile_qr_scan"}, "type": "electric_scooter", "name": "d9e05e91fec1dc670ee4db954574dbbf", "is_reserved": 0, "lon": -76.99792916666667, "is_disabled": 0, "fusion_lat": 0.0, "lat": 38.876344833333334, "bike_id": "d9e05e91fec1dc670ee4db954574dbbf", "fusion_lon": 0.0}, {"rental_uris": {"ios": "https://dc.lft.to/lastmile_qr_scan", "android": "https://dc.lft.to/lastmile_qr_scan"}, "type": "electric_scooter", "name": "40f9e26e13e00f86a06fccb11fd20e35", "is_reserved": 0, "lon": -76.97568766666667, "is_disabled": 0, "fusion_lat": 0.0, "lat": 38.944198166666666, "bike_id": "40f9e26e13e00f86a06fccb11fd20e35", "fusion_lon": 0.0}, {"rental_uris": {"ios": "https://dc.lft.to/lastmile_qr_scan", "android": "https://dc.lft.to/lastmile_qr_scan"}, "type": "electric_scooter", "name": "75bc4b85140c5faf2c1b7bc55598e44c", "is_reserved": 0, "lon": -76.94929866666666, "is_disabled": 0, "fusion_lat": 0.0, "lat": 38.895317666666664, "bike_id": "75bc4b85140c5faf2c1b7bc55598e44c", "fusion_lon": 0.0}, {"rental_uris": {"ios": "https://dc.lft.to/lastmile_qr_scan", "android": "https://dc.lft.to/lastmile_qr_scan"}, "type": "electric_scooter", "name": "04920bd4cdf04bfa6e8546d913fd568f", "is_reserved": 0, "lon": -77.0031995, "is_disabled": 0, "fusion_lat": 0.0, "lat": 38.876679, "bike_id": "04920bd4cdf04bfa6e8546d913fd568f", "fusion_lon": 0.0}, {"rental_uris": {"ios": "https://dc.lft.to/lastmile_qr_scan", "android": "https://dc.lft.to/lastmile_qr_scan"}, "type": "electric_scooter", "name": "b84a5d2f79867c106bc872c5e3885fb4", "is_reserved": 0, "lon": -77.00119716666667, "is_disabled": 0, "fusion_lat": 0.0, "lat": 38.87487766666667, "bike_id": "b84a5d2f79867c106bc872c5e3885fb4", "fusion_lon": 0.0}, {"rental_uris": {"ios": "https://dc.lft.to/lastmile_qr_scan", "android": "https://dc.lft.to/lastmile_qr_scan"}, "type": "electric_scooter", "name": "9f8cfea0f1d6e3b36b17863e8f43ca00", "is_reserved": 0, "lon": -77.06135716666667, "is_disabled": 0, "fusion_lat": 0.0, "lat": 38.943066, "bike_id": "9f8cfea0f1d6e3b36b17863e8f43ca00", "fusion_lon": 0.0}, {"rental_uris": {"ios": "https://dc.lft.to/lastmile_qr_scan", "android": "https://dc.lft.to/lastmile_qr_scan"}, "type": "electric_scooter", "name": "425f0da653bc38aff70ae674d06b7e5e", "is_reserved": 0, "lon": -76.92997033333333, "is_disabled": 0, "fusion_lat": 0.0, "lat": 38.889934, "bike_id": "425f0da653bc38aff70ae674d06b7e5e", "fusion_lon": 0.0}, {"rental_uris": {"ios": "https://dc.lft.to/lastmile_qr_scan", "android": "https://dc.lft.to/lastmile_qr_scan"}, "type": "electric_scooter", "name": "384bf334a0043415f37510b8a84d5c79", "is_reserved": 0, "lon": -77.06112083333333, "is_disabled": 0, "fusion_lat": 0.0, "lat": 38.9128235, "bike_id": "384bf334a0043415f37510b8a84d5c79", "fusion_lon": 0.0}, {"rental_uris": {"ios": "https://dc.lft.to/lastmile_qr_scan", "android": "https://dc.lft.to/lastmile_qr_scan"}, "type": "electric_scooter", "name": "beaade20a126bd36194be4399271533f", "is_reserved": 0, "lon": -76.9914465, "is_disabled": 0, "fusion_lat": 0.0, "lat": 38.900396, "bike_id": "beaade20a126bd36194be4399271533f", "fusion_lon": 0.0}, {"rental_uris": {"ios": "https://dc.lft.to/lastmile_qr_scan", "android": "https://dc.lft.to/lastmile_qr_scan"}, "type": "electric_scooter", "name": "893858bdb73ac2d585e010c37d14276a", "is_reserved": 0, "lon": -77.02288433333334, "is_disabled": 0, "fusion_lat": 0.0, "lat": 38.895062333333335, "bike_id": "893858bdb73ac2d585e010c37d14276a", "fusion_lon": 0.0}, {"rental_uris": {"ios": "https://dc.lft.to/lastmile_qr_scan", "android": "https://dc.lft.to/lastmile_qr_scan"}, "type": "electric_scooter", "name": "3b47fc552cc1fed99fe4a05d88c73c95", "is_reserved": 0, "lon": -77.02088216666667, "is_disabled": 0, "fusion_lat": 0.0, "lat": 38.929128166666665, "bike_id": "3b47fc552cc1fed99fe4a05d88c73c95", "fusion_lon": 0.0}, {"rental_uris": {"ios": "https://dc.lft.to/lastmile_qr_scan", "android": "https://dc.lft.to/lastmile_qr_scan"}, "type": "electric_scooter", "name": "add7d5a78dad55ad9351ff47e4a49ef9", "is_reserved": 0, "lon": -77.0083945, "is_disabled": 0, "fusion_lat": 0.0, "lat": 38.878977666666664, "bike_id": "add7d5a78dad55ad9351ff47e4a49ef9", "fusion_lon": 0.0}, {"rental_uris": {"ios": "https://dc.lft.to/lastmile_qr_scan", "android": "https://dc.lft.to/lastmile_qr_scan"}, "type": "electric_scooter", "name": "e42eaa5326a874cda2f50c036f76f131", "is_reserved": 0, "lon": -77.02167066666667, "is_disabled": 0, "fusion_lat": 0.0, "lat": 38.925079, "bike_id": "e42eaa5326a874cda2f50c036f76f131", "fusion_lon": 0.0}, {"rental_uris": {"ios": "https://dc.lft.to/lastmile_qr_scan", "android": "https://dc.lft.to/lastmile_qr_scan"}, "type": "electric_scooter", "name": "187ad52c8182754cd9cdb37e553a7429", "is_reserved": 0, "lon": -77.039641, "is_disabled": 0, "fusion_lat": 0.0, "lat": 38.93147883333334, "bike_id": "187ad52c8182754cd9cdb37e553a7429", "fusion_lon": 0.0}, {"rental_uris": {"ios": "https://dc.lft.to/lastmile_qr_scan", "android": "https://dc.lft.to/lastmile_qr_scan"}, "type": "electric_scooter", "name": "ca80710bcb159b2f5d4d9b986c618fdc", "is_reserved": 0, "lon": -77.03474866666667, "is_disabled": 0, "fusion_lat": 0.0, "lat": 38.930317333333335, "bike_id": "ca80710bcb159b2f5d4d9b986c618fdc", "fusion_lon": 0.0}, {"rental_uris": {"ios": "https://dc.lft.to/lastmile_qr_scan", "android": "https://dc.lft.to/lastmile_qr_scan"}, "type": "electric_scooter", "name": "ac250a3493270a503a7fed8e8ce07766", "is_reserved": 0, "lon": -77.03224566666667, "is_disabled": 0, "fusion_lat": 0.0, "lat": 38.91402633333333, "bike_id": "ac250a3493270a503a7fed8e8ce07766", "fusion_lon": 0.0}, {"rental_uris": {"ios": "https://dc.lft.to/lastmile_qr_scan", "android": "https://dc.lft.to/lastmile_qr_scan"}, "type": "electric_scooter", "name": "a7d58e1c70614ed1304d1a8016e1a5c9", "is_reserved": 0, "lon": -77.023056, "is_disabled": 0, "fusion_lat": 0.0, "lat": 38.898546, "bike_id": "a7d58e1c70614ed1304d1a8016e1a5c9", "fusion_lon": 0.0}, {"rental_uris": {"ios": "https://dc.lft.to/lastmile_qr_scan", "android": "https://dc.lft.to/lastmile_qr_scan"}, "type": "electric_scooter", "name": "8435216ed5521a0bbdd23b6e1b4c301a", "is_reserved": 0, "lon": -77.03900516666667, "is_disabled": 0, "fusion_lat": 0.0, "lat": 38.9222, "bike_id": "8435216ed5521a0bbdd23b6e1b4c301a", "fusion_lon": 0.0}, {"rental_uris": {"ios": "https://dc.lft.to/lastmile_qr_scan", "android": "https://dc.lft.to/lastmile_qr_scan"}, "type": "electric_scooter", "name": "96294a0a54517a5537a5ecf6bee64a70", "is_reserved": 0, "lon": -77.04154983333333, "is_disabled": 0, "fusion_lat": 0.0, "lat": 38.91743666666667, "bike_id": "96294a0a54517a5537a5ecf6bee64a70", "fusion_lon": 0.0}, {"rental_uris": {"ios": "https://dc.lft.to/lastmile_qr_scan", "android": "https://dc.lft.to/lastmile_qr_scan"}, "type": "electric_scooter", "name": "848f29a5eed9c27fb7894f44cf4ed461", "is_reserved": 0, "lon": -76.980873, "is_disabled": 0, "fusion_lat": 0.0, "lat": 38.90412083333333, "bike_id": "848f29a5eed9c27fb7894f44cf4ed461", "fusion_lon": 0.0}, {"rental_uris": {"ios": "https://dc.lft.to/lastmile_qr_scan", "android": "https://dc.lft.to/lastmile_qr_scan"}, "type": "electric_scooter", "name": "1fa3ff2deaad5ba40805cec4b2987994", "is_reserved": 0, "lon": -77.02158183333333, "is_disabled": 0, "fusion_lat": 0.0, "lat": 38.87914333333333, "bike_id": "1fa3ff2deaad5ba40805cec4b2987994", "fusion_lon": 0.0}, {"rental_uris": {"ios": "https://dc.lft.to/lastmile_qr_scan", "android": "https://dc.lft.to/lastmile_qr_scan"}, "type": "electric_scooter", "name": "c7f5198a4dc83d461f7b35aaf3498f6a", "is_reserved": 0, "lon": -77.00593216666667, "is_disabled": 0, "fusion_lat": 0.0, "lat": 38.9067755, "bike_id": "c7f5198a4dc83d461f7b35aaf3498f6a", "fusion_lon": 0.0}, {"rental_uris": {"ios": "https://dc.lft.to/lastmile_qr_scan", "android": "https://dc.lft.to/lastmile_qr_scan"}, "type": "electric_scooter", "name": "d0723933fb2b970aeb1a3977c72cc9b8", "is_reserved": 0, "lon": -77.0006965, "is_disabled": 0, "fusion_lat": 0.0, "lat": 38.873662, "bike_id": "d0723933fb2b970aeb1a3977c72cc9b8", "fusion_lon": 0.0}, {"rental_uris": {"ios": "https://dc.lft.to/lastmile_qr_scan", "android": "https://dc.lft.to/lastmile_qr_scan"}, "type": "electric_scooter", "name": "35b4b81071a8609c0571dd27c1a143c5", "is_reserved": 0, "lon": -77.005469, "is_disabled": 0, "fusion_lat": 0.0, "lat": 38.91815716666667, "bike_id": "35b4b81071a8609c0571dd27c1a143c5", "fusion_lon": 0.0}, {"rental_uris": {"ios": "https://dc.lft.to/lastmile_qr_scan", "android": "https://dc.lft.to/lastmile_qr_scan"}, "type": "electric_scooter", "name": "3b0f806cf3e1f6c4f466817ca0adb6e2", "is_reserved": 0, "lon": -77.00040366666667, "is_disabled": 0, "fusion_lat": 0.0, "lat": 38.900062166666665, "bike_id": "3b0f806cf3e1f6c4f466817ca0adb6e2", "fusion_lon": 0.0}, {"rental_uris": {"ios": "https://dc.lft.to/lastmile_qr_scan", "android": "https://dc.lft.to/lastmile_qr_scan"}, "type": "electric_scooter", "name": "43835b092d436e36df78fb00f74e35b6", "is_reserved": 0, "lon": -76.98371183333333, "is_disabled": 0, "fusion_lat": 0.0, "lat": 38.892623666666665, "bike_id": "43835b092d436e36df78fb00f74e35b6", "fusion_lon": 0.0}, {"rental_uris": {"ios": "https://dc.lft.to/lastmile_qr_scan", "android": "https://dc.lft.to/lastmile_qr_scan"}, "type": "electric_scooter", "name": "fb6a95f80d268ea0bc146d5a7dc1c659", "is_reserved": 0, "lon": -77.040456, "is_disabled": 0, "fusion_lat": 0.0, "lat": 38.90482733333333, "bike_id": "fb6a95f80d268ea0bc146d5a7dc1c659", "fusion_lon": 0.0}, {"rental_uris": {"ios": "https://dc.lft.to/lastmile_qr_scan", "android": "https://dc.lft.to/lastmile_qr_scan"}, "type": "electric_scooter", "name": "df2e70fb6548ee485e58174e7c61c8d9", "is_reserved": 0, "lon": -77.02353216666667, "is_disabled": 0, "fusion_lat": 0.0, "lat": 38.94200566666667, "bike_id": "df2e70fb6548ee485e58174e7c61c8d9", "fusion_lon": 0.0}, {"rental_uris": {"ios": "https://dc.lft.to/lastmile_qr_scan", "android": "https://dc.lft.to/lastmile_qr_scan"}, "type": "electric_scooter", "name": "2386fa40222232ed0daf0b40a88eb323", "is_reserved": 0, "lon": -76.92893716666667, "is_disabled": 0, "fusion_lat": 0.0, "lat": 38.87941033333333, "bike_id": "2386fa40222232ed0daf0b40a88eb323", "fusion_lon": 0.0}, {"rental_uris": {"ios": "https://dc.lft.to/lastmile_qr_scan", "android": "https://dc.lft.to/lastmile_qr_scan"}, "type": "electric_scooter", "name": "46f8da694bdd5db6ef9f26fb7e085fc3", "is_reserved": 0, "lon": -76.98497166666667, "is_disabled": 0, "fusion_lat": 0.0, "lat": 38.903520666666665, "bike_id": "46f8da694bdd5db6ef9f26fb7e085fc3", "fusion_lon": 0.0}, {"rental_uris": {"ios": "https://dc.lft.to/lastmile_qr_scan", "android": "https://dc.lft.to/lastmile_qr_scan"}, "type": "electric_bike", "name": "d73c5b7231eec7e7a6d1a71cb3c8655b", "is_reserved": 0, "lon": -76.96060866666667, "is_disabled": 0, "fusion_lat": 0.0, "lat": 38.88393083333333, "bike_id": "d73c5b7231eec7e7a6d1a71cb3c8655b", "fusion_lon": 0.0}, {"rental_uris": {"ios": "https://dc.lft.to/lastmile_qr_scan", "android": "https://dc.lft.to/lastmile_qr_scan"}, "type": "electric_scooter", "name": "491e2a7fdcfdfebd56d2e663dd075a2f", "is_reserved": 0, "lon": -77.005734, "is_disabled": 0, "fusion_lat": 0.0, "lat": 38.90554783333333, "bike_id": "491e2a7fdcfdfebd56d2e663dd075a2f", "fusion_lon": 0.0}, {"rental_uris": {"ios": "https://dc.lft.to/lastmile_qr_scan", "android": "https://dc.lft.to/lastmile_qr_scan"}, "type": "electric_scooter", "name": "5955d9362b0204057f6341d53e460a6f", "is_reserved": 0, "lon": -77.0160915, "is_disabled": 0, "fusion_lat": 0.0, "lat": 38.90956166666667, "bike_id": "5955d9362b0204057f6341d53e460a6f", "fusion_lon": 0.0}, {"rental_uris": {"ios": "https://dc.lft.to/lastmile_qr_scan", "android": "https://dc.lft.to/lastmile_qr_scan"}, "type": "electric_scooter", "name": "5520438f3b69cd979894301cc5db0651", "is_reserved": 0, "lon": -76.93739816666667, "is_disabled": 0, "fusion_lat": 0.0, "lat": 38.89005816666667, "bike_id": "5520438f3b69cd979894301cc5db0651", "fusion_lon": 0.0}, {"rental_uris": {"ios": "https://dc.lft.to/lastmile_qr_scan", "android": "https://dc.lft.to/lastmile_qr_scan"}, "type": "electric_scooter", "name": "57b2263d4aa69d3b93cb817c0497a07d", "is_reserved": 0, "lon": -77.02813583333334, "is_disabled": 0, "fusion_lat": 0.0, "lat": 38.930819166666666, "bike_id": "57b2263d4aa69d3b93cb817c0497a07d", "fusion_lon": 0.0}, {"rental_uris": {"ios": "https://dc.lft.to/lastmile_qr_scan", "android": "https://dc.lft.to/lastmile_qr_scan"}, "type": "electric_bike", "name": "9a57d7f1135fccf852cb54065738375a", "is_reserved": 0, "lon": -76.942228, "is_disabled": 0, "fusion_lat": 0.0, "lat": 38.89049383333333, "bike_id": "9a57d7f1135fccf852cb54065738375a", "fusion_lon": 0.0}, {"rental_uris": {"ios": "https://dc.lft.to/lastmile_qr_scan", "android": "https://dc.lft.to/lastmile_qr_scan"}, "type": "electric_scooter", "name": "645f7a6ebdbeffbe879e344e2851cddb", "is_reserved": 0, "lon": -77.0421795, "is_disabled": 0, "fusion_lat": 0.0, "lat": 38.9210495, "bike_id": "645f7a6ebdbeffbe879e344e2851cddb", "fusion_lon": 0.0}, {"rental_uris": {"ios": "https://dc.lft.to/lastmile_qr_scan", "android": "https://dc.lft.to/lastmile_qr_scan"}, "type": "electric_scooter", "name": "b5954f37b2aec578adde02b884c4de24", "is_reserved": 0, "lon": -77.020868, "is_disabled": 0, "fusion_lat": 0.0, "lat": 38.8818735, "bike_id": "b5954f37b2aec578adde02b884c4de24", "fusion_lon": 0.0}, {"rental_uris": {"ios": "https://dc.lft.to/lastmile_qr_scan", "android": "https://dc.lft.to/lastmile_qr_scan"}, "type": "electric_scooter", "name": "6e87fac1500a2f9b0e56c430cb08f045", "is_reserved": 0, "lon": -77.017535, "is_disabled": 0, "fusion_lat": 0.0, "lat": 38.876879, "bike_id": "6e87fac1500a2f9b0e56c430cb08f045", "fusion_lon": 0.0}, {"rental_uris": {"ios": "https://dc.lft.to/lastmile_qr_scan", "android": "https://dc.lft.to/lastmile_qr_scan"}, "type": "electric_scooter", "name": "9ba08d8e0522964455a029a49204ef69", "is_reserved": 0, "lon": -77.04183583333334, "is_disabled": 0, "fusion_lat": 0.0, "lat": 38.920494166666664, "bike_id": "9ba08d8e0522964455a029a49204ef69", "fusion_lon": 0.0}, {"rental_uris": {"ios": "https://dc.lft.to/lastmile_qr_scan", "android": "https://dc.lft.to/lastmile_qr_scan"}, "type": "electric_bike", "name": "144a0c613f0662ba98eda48f0b9047b8", "is_reserved": 0, "lon": -77.06695283333333, "is_disabled": 0, "fusion_lat": 0.0, "lat": 38.83167066666667, "bike_id": "144a0c613f0662ba98eda48f0b9047b8", "fusion_lon": 0.0}, {"rental_uris": {"ios": "https://dc.lft.to/lastmile_qr_scan", "android": "https://dc.lft.to/lastmile_qr_scan"}, "type": "electric_scooter", "name": "aeca77b3a64f2755235ec738b3f4f9a4", "is_reserved": 0, "lon": -77.07215866666667, "is_disabled": 0, "fusion_lat": 0.0, "lat": 38.89900766666667, "bike_id": "aeca77b3a64f2755235ec738b3f4f9a4", "fusion_lon": 0.0}, {"rental_uris": {"ios": "https://dc.lft.to/lastmile_qr_scan", "android": "https://dc.lft.to/lastmile_qr_scan"}, "type": "electric_scooter", "name": "3798e8eab8b32ffa513d9da83eb9f130", "is_reserved": 0, "lon": -77.03482916666667, "is_disabled": 0, "fusion_lat": 0.0, "lat": 38.92054566666667, "bike_id": "3798e8eab8b32ffa513d9da83eb9f130", "fusion_lon": 0.0}, {"rental_uris": {"ios": "https://dc.lft.to/lastmile_qr_scan", "android": "https://dc.lft.to/lastmile_qr_scan"}, "type": "electric_scooter", "name": "ea98b3763669a653c51682f5ed5c4718", "is_reserved": 0, "lon": -77.04125116666667, "is_disabled": 0, "fusion_lat": 0.0, "lat": 38.910388833333336, "bike_id": "ea98b3763669a653c51682f5ed5c4718", "fusion_lon": 0.0}, {"rental_uris": {"ios": "https://dc.lft.to/lastmile_qr_scan", "android": "https://dc.lft.to/lastmile_qr_scan"}, "type": "electric_scooter", "name": "2562fa019a89bc2d45a87b24f88dc25c", "is_reserved": 0, "lon": -76.99765733333334, "is_disabled": 0, "fusion_lat": 0.0, "lat": 38.92279766666667, "bike_id": "2562fa019a89bc2d45a87b24f88dc25c", "fusion_lon": 0.0}, {"rental_uris": {"ios": "https://dc.lft.to/lastmile_qr_scan", "android": "https://dc.lft.to/lastmile_qr_scan"}, "type": "electric_scooter", "name": "802e90052a7dc4e91a7cda373531efb6", "is_reserved": 0, "lon": -77.03842466666667, "is_disabled": 0, "fusion_lat": 0.0, "lat": 38.909819666666664, "bike_id": "802e90052a7dc4e91a7cda373531efb6", "fusion_lon": 0.0}, {"rental_uris": {"ios": "https://dc.lft.to/lastmile_qr_scan", "android": "https://dc.lft.to/lastmile_qr_scan"}, "type": "electric_scooter", "name": "fd40d21c6bc81218ac5ad99b6caed6f8", "is_reserved": 0, "lon": -77.027993, "is_disabled": 0, "fusion_lat": 0.0, "lat": 38.95607566666666, "bike_id": "fd40d21c6bc81218ac5ad99b6caed6f8", "fusion_lon": 0.0}, {"rental_uris": {"ios": "https://dc.lft.to/lastmile_qr_scan", "android": "https://dc.lft.to/lastmile_qr_scan"}, "type": "electric_scooter", "name": "f2e9a47d7267a9e435357a79b148b36d", "is_reserved": 0, "lon": -76.9703235, "is_disabled": 0, "fusion_lat": 0.0, "lat": 38.8731625, "bike_id": "f2e9a47d7267a9e435357a79b148b36d", "fusion_lon": 0.0}, {"rental_uris": {"ios": "https://dc.lft.to/lastmile_qr_scan", "android": "https://dc.lft.to/lastmile_qr_scan"}, "type": "electric_scooter", "name": "4de6164cead96754d59c7f99f5892fc5", "is_reserved": 0, "lon": -77.007577, "is_disabled": 0, "fusion_lat": 0.0, "lat": 38.910224666666664, "bike_id": "4de6164cead96754d59c7f99f5892fc5", "fusion_lon": 0.0}, {"rental_uris": {"ios": "https://dc.lft.to/lastmile_qr_scan", "android": "https://dc.lft.to/lastmile_qr_scan"}, "type": "electric_scooter", "name": "554ac28bb2f0b215a1223f2b5b18a95c", "is_reserved": 0, "lon": -77.00786733333334, "is_disabled": 0, "fusion_lat": 0.0, "lat": 38.878292333333334, "bike_id": "554ac28bb2f0b215a1223f2b5b18a95c", "fusion_lon": 0.0}, {"rental_uris": {"ios": "https://dc.lft.to/lastmile_qr_scan", "android": "https://dc.lft.to/lastmile_qr_scan"}, "type": "electric_scooter", "name": "2843ca5509c51ff55d55dfac3ca33170", "is_reserved": 0, "lon": -77.008994, "is_disabled": 0, "fusion_lat": 0.0, "lat": 38.8959765, "bike_id": "2843ca5509c51ff55d55dfac3ca33170", "fusion_lon": 0.0}, {"rental_uris": {"ios": "https://dc.lft.to/lastmile_qr_scan", "android": "https://dc.lft.to/lastmile_qr_scan"}, "type": "electric_scooter", "name": "bb38001447b650d84cf97a1a05a752b7", "is_reserved": 0, "lon": -76.94664166666666, "is_disabled": 0, "fusion_lat": 0.0, "lat": 38.898671666666665, "bike_id": "bb38001447b650d84cf97a1a05a752b7", "fusion_lon": 0.0}, {"rental_uris": {"ios": "https://dc.lft.to/lastmile_qr_scan", "android": "https://dc.lft.to/lastmile_qr_scan"}, "type": "electric_scooter", "name": "f67993dd454395da25a69b579786474d", "is_reserved": 0, "lon": -77.02405333333333, "is_disabled": 0, "fusion_lat": 0.0, "lat": 38.89714516666667, "bike_id": "f67993dd454395da25a69b579786474d", "fusion_lon": 0.0}, {"rental_uris": {"ios": "https://dc.lft.to/lastmile_qr_scan", "android": "https://dc.lft.to/lastmile_qr_scan"}, "type": "electric_scooter", "name": "a8b44fc34a486cc8cd206d22f6b3bec4", "is_reserved": 0, "lon": -77.027434, "is_disabled": 0, "fusion_lat": 0.0, "lat": 38.923763, "bike_id": "a8b44fc34a486cc8cd206d22f6b3bec4", "fusion_lon": 0.0}, {"rental_uris": {"ios": "https://dc.lft.to/lastmile_qr_scan", "android": "https://dc.lft.to/lastmile_qr_scan"}, "type": "electric_scooter", "name": "0eb96da8146a56663ae57ee322432141", "is_reserved": 0, "lon": -77.04079166666666, "is_disabled": 0, "fusion_lat": 0.0, "lat": 38.920223166666666, "bike_id": "0eb96da8146a56663ae57ee322432141", "fusion_lon": 0.0}, {"rental_uris": {"ios": "https://dc.lft.to/lastmile_qr_scan", "android": "https://dc.lft.to/lastmile_qr_scan"}, "type": "electric_scooter", "name": "9c21bc9dc42490a9f4b3b589967da67c", "is_reserved": 0, "lon": -77.03161866666666, "is_disabled": 0, "fusion_lat": 0.0, "lat": 38.90593066666667, "bike_id": "9c21bc9dc42490a9f4b3b589967da67c", "fusion_lon": 0.0}, {"rental_uris": {"ios": "https://dc.lft.to/lastmile_qr_scan", "android": "https://dc.lft.to/lastmile_qr_scan"}, "type": "electric_scooter", "name": "039494b764119238b253b14771556427", "is_reserved": 0, "lon": -77.03862766666667, "is_disabled": 0, "fusion_lat": 0.0, "lat": 38.911666833333335, "bike_id": "039494b764119238b253b14771556427", "fusion_lon": 0.0}, {"rental_uris": {"ios": "https://dc.lft.to/lastmile_qr_scan", "android": "https://dc.lft.to/lastmile_qr_scan"}, "type": "electric_scooter", "name": "708d08eb42ccceb8f5a6816dd536aa40", "is_reserved": 0, "lon": -76.93263816666666, "is_disabled": 0, "fusion_lat": 0.0, "lat": 38.8874085, "bike_id": "708d08eb42ccceb8f5a6816dd536aa40", "fusion_lon": 0.0}, {"rental_uris": {"ios": "https://dc.lft.to/lastmile_qr_scan", "android": "https://dc.lft.to/lastmile_qr_scan"}, "type": "electric_scooter", "name": "b6360b8db63b0fed0e79ee6908b34ebc", "is_reserved": 0, "lon": -77.04048133333333, "is_disabled": 0, "fusion_lat": 0.0, "lat": 38.91787883333333, "bike_id": "b6360b8db63b0fed0e79ee6908b34ebc", "fusion_lon": 0.0}, {"rental_uris": {"ios": "https://dc.lft.to/lastmile_qr_scan", "android": "https://dc.lft.to/lastmile_qr_scan"}, "type": "electric_scooter", "name": "e86c91fd0b6724305693231172101652", "is_reserved": 0, "lon": -77.02294416666666, "is_disabled": 0, "fusion_lat": 0.0, "lat": 38.9090935, "bike_id": "e86c91fd0b6724305693231172101652", "fusion_lon": 0.0}, {"rental_uris": {"ios": "https://dc.lft.to/lastmile_qr_scan", "android": "https://dc.lft.to/lastmile_qr_scan"}, "type": "electric_scooter", "name": "42c0ada02c1a8619360e3ea7d5787b17", "is_reserved": 0, "lon": -77.01893616666666, "is_disabled": 0, "fusion_lat": 0.0, "lat": 38.89746266666667, "bike_id": "42c0ada02c1a8619360e3ea7d5787b17", "fusion_lon": 0.0}, {"rental_uris": {"ios": "https://dc.lft.to/lastmile_qr_scan", "android": "https://dc.lft.to/lastmile_qr_scan"}, "type": "electric_scooter", "name": "a5545c8750c543e2b8266d52c1ee0d1b", "is_reserved": 0, "lon": -77.0396925, "is_disabled": 0, "fusion_lat": 0.0, "lat": 38.920192666666665, "bike_id": "a5545c8750c543e2b8266d52c1ee0d1b", "fusion_lon": 0.0}, {"rental_uris": {"ios": "https://dc.lft.to/lastmile_qr_scan", "android": "https://dc.lft.to/lastmile_qr_scan"}, "type": "electric_scooter", "name": "75906fa3cd8cedab718b5fac5d2ecfc0", "is_reserved": 0, "lon": -77.03225316666666, "is_disabled": 0, "fusion_lat": 0.0, "lat": 38.93000716666667, "bike_id": "75906fa3cd8cedab718b5fac5d2ecfc0", "fusion_lon": 0.0}, {"rental_uris": {"ios": "https://dc.lft.to/lastmile_qr_scan", "android": "https://dc.lft.to/lastmile_qr_scan"}, "type": "electric_scooter", "name": "42222910ce7aa7da5699df77da6dae9f", "is_reserved": 0, "lon": -77.01876966666667, "is_disabled": 0, "fusion_lat": 0.0, "lat": 38.93055, "bike_id": "42222910ce7aa7da5699df77da6dae9f", "fusion_lon": 0.0}, {"rental_uris": {"ios": "https://dc.lft.to/lastmile_qr_scan", "android": "https://dc.lft.to/lastmile_qr_scan"}, "type": "electric_scooter", "name": "6efff8a65a0ad2660ac0d26b82a12521", "is_reserved": 0, "lon": -77.03838183333333, "is_disabled": 0, "fusion_lat": 0.0, "lat": 38.90717633333333, "bike_id": "6efff8a65a0ad2660ac0d26b82a12521", "fusion_lon": 0.0}, {"rental_uris": {"ios": "https://dc.lft.to/lastmile_qr_scan", "android": "https://dc.lft.to/lastmile_qr_scan"}, "type": "electric_scooter", "name": "1deec874bf3683ebbccd94c3b5d372ce", "is_reserved": 0, "lon": -77.1102525, "is_disabled": 0, "fusion_lat": 0.0, "lat": 38.876941333333335, "bike_id": "1deec874bf3683ebbccd94c3b5d372ce", "fusion_lon": 0.0}, {"rental_uris": {"ios": "https://dc.lft.to/lastmile_qr_scan", "android": "https://dc.lft.to/lastmile_qr_scan"}, "type": "electric_scooter", "name": "bbc0aebbd6823670b83b100c7c848565", "is_reserved": 0, "lon": -77.046086, "is_disabled": 0, "fusion_lat": 0.0, "lat": 38.8837985, "bike_id": "bbc0aebbd6823670b83b100c7c848565", "fusion_lon": 0.0}, {"rental_uris": {"ios": "https://dc.lft.to/lastmile_qr_scan", "android": "https://dc.lft.to/lastmile_qr_scan"}, "type": "electric_scooter", "name": "b4c4342b4ecd61a1511b53048fbdd6c0", "is_reserved": 0, "lon": -77.04833116666667, "is_disabled": 0, "fusion_lat": 0.0, "lat": 38.9007175, "bike_id": "b4c4342b4ecd61a1511b53048fbdd6c0", "fusion_lon": 0.0}, {"rental_uris": {"ios": "https://dc.lft.to/lastmile_qr_scan", "android": "https://dc.lft.to/lastmile_qr_scan"}, "type": "electric_scooter", "name": "ea8e7d523ae98bb3e9b9d63e1cc44cf6", "is_reserved": 0, "lon": -77.0318305, "is_disabled": 0, "fusion_lat": 0.0, "lat": 38.90514233333333, "bike_id": "ea8e7d523ae98bb3e9b9d63e1cc44cf6", "fusion_lon": 0.0}, {"rental_uris": {"ios": "https://dc.lft.to/lastmile_qr_scan", "android": "https://dc.lft.to/lastmile_qr_scan"}, "type": "electric_bike", "name": "15ea4812a6ad5c4c465a1cad2b0f9d40", "is_reserved": 0, "lon": -76.989945, "is_disabled": 0, "fusion_lat": 0.0, "lat": 38.924325833333334, "bike_id": "15ea4812a6ad5c4c465a1cad2b0f9d40", "fusion_lon": 0.0}, {"rental_uris": {"ios": "https://dc.lft.to/lastmile_qr_scan", "android": "https://dc.lft.to/lastmile_qr_scan"}, "type": "electric_scooter", "name": "761ca6a2d6224a084736364ac801ef31", "is_reserved": 0, "lon": -77.04498766666667, "is_disabled": 0, "fusion_lat": 0.0, "lat": 38.914175166666666, "bike_id": "761ca6a2d6224a084736364ac801ef31", "fusion_lon": 0.0}, {"rental_uris": {"ios": "https://dc.lft.to/lastmile_qr_scan", "android": "https://dc.lft.to/lastmile_qr_scan"}, "type": "electric_scooter", "name": "6ee4f832fb03a128299b9739a89cc5d0", "is_reserved": 0, "lon": -77.00869816666666, "is_disabled": 0, "fusion_lat": 0.0, "lat": 38.91177416666667, "bike_id": "6ee4f832fb03a128299b9739a89cc5d0", "fusion_lon": 0.0}, {"rental_uris": {"ios": "https://dc.lft.to/lastmile_qr_scan", "android": "https://dc.lft.to/lastmile_qr_scan"}, "type": "electric_bike", "name": "b7cff779d23a7ca7d51e1f35b66299bd", "is_reserved": 0, "lon": -77.03446533333333, "is_disabled": 0, "fusion_lat": 0.0, "lat": 38.9064115, "bike_id": "b7cff779d23a7ca7d51e1f35b66299bd", "fusion_lon": 0.0}, {"rental_uris": {"ios": "https://dc.lft.to/lastmile_qr_scan", "android": "https://dc.lft.to/lastmile_qr_scan"}, "type": "electric_scooter", "name": "d06069b477a4126fd84af667c1c7fdd6", "is_reserved": 0, "lon": -77.02022016666666, "is_disabled": 0, "fusion_lat": 0.0, "lat": 38.924392, "bike_id": "d06069b477a4126fd84af667c1c7fdd6", "fusion_lon": 0.0}, {"rental_uris": {"ios": "https://dc.lft.to/lastmile_qr_scan", "android": "https://dc.lft.to/lastmile_qr_scan"}, "type": "electric_scooter", "name": "7c3b802fa40f2768c5b502a9e0f6b9ce", "is_reserved": 0, "lon": -77.042695, "is_disabled": 0, "fusion_lat": 0.0, "lat": 38.92300983333333, "bike_id": "7c3b802fa40f2768c5b502a9e0f6b9ce", "fusion_lon": 0.0}, {"rental_uris": {"ios": "https://dc.lft.to/lastmile_qr_scan", "android": "https://dc.lft.to/lastmile_qr_scan"}, "type": "electric_scooter", "name": "e74059733e1d274beaeaa54694b084e9", "is_reserved": 0, "lon": -77.03023066666667, "is_disabled": 0, "fusion_lat": 0.0, "lat": 38.878443833333336, "bike_id": "e74059733e1d274beaeaa54694b084e9", "fusion_lon": 0.0}, {"rental_uris": {"ios": "https://dc.lft.to/lastmile_qr_scan", "android": "https://dc.lft.to/lastmile_qr_scan"}, "type": "electric_scooter", "name": "fa1ce7549a802b8b6ab3575a8d3851d5", "is_reserved": 0, "lon": -76.99969466666667, "is_disabled": 0, "fusion_lat": 0.0, "lat": 38.907630833333336, "bike_id": "fa1ce7549a802b8b6ab3575a8d3851d5", "fusion_lon": 0.0}, {"rental_uris": {"ios": "https://dc.lft.to/lastmile_qr_scan", "android": "https://dc.lft.to/lastmile_qr_scan"}, "type": "electric_bike", "name": "4c91cda23548514cef3de43492a97162", "is_reserved": 0, "lon": -77.02818, "is_disabled": 0, "fusion_lat": 0.0, "lat": 38.965588333333336, "bike_id": "4c91cda23548514cef3de43492a97162", "fusion_lon": 0.0}, {"rental_uris": {"ios": "https://dc.lft.to/lastmile_qr_scan", "android": "https://dc.lft.to/lastmile_qr_scan"}, "type": "electric_scooter", "name": "e1969421f738dcc3e581ba4011270f76", "is_reserved": 0, "lon": -77.0293375, "is_disabled": 0, "fusion_lat": 0.0, "lat": 38.88402033333333, "bike_id": "e1969421f738dcc3e581ba4011270f76", "fusion_lon": 0.0}, {"rental_uris": {"ios": "https://dc.lft.to/lastmile_qr_scan", "android": "https://dc.lft.to/lastmile_qr_scan"}, "type": "electric_scooter", "name": "1fad120f94ad2203669f7778891c70b9", "is_reserved": 0, "lon": -77.03184833333333, "is_disabled": 0, "fusion_lat": 0.0, "lat": 38.91390066666666, "bike_id": "1fad120f94ad2203669f7778891c70b9", "fusion_lon": 0.0}, {"rental_uris": {"ios": "https://dc.lft.to/lastmile_qr_scan", "android": "https://dc.lft.to/lastmile_qr_scan"}, "type": "electric_scooter", "name": "edde7f5b05b634b5e52733833ed2dfeb", "is_reserved": 0, "lon": -76.92661216666667, "is_disabled": 0, "fusion_lat": 0.0, "lat": 38.882332, "bike_id": "edde7f5b05b634b5e52733833ed2dfeb", "fusion_lon": 0.0}, {"rental_uris": {"ios": "https://dc.lft.to/lastmile_qr_scan", "android": "https://dc.lft.to/lastmile_qr_scan"}, "type": "electric_scooter", "name": "66c2b30c0f7e5054d5d7bb899a6fee8a", "is_reserved": 0, "lon": -77.041643, "is_disabled": 0, "fusion_lat": 0.0, "lat": 38.90143833333333, "bike_id": "66c2b30c0f7e5054d5d7bb899a6fee8a", "fusion_lon": 0.0}, {"rental_uris": {"ios": "https://dc.lft.to/lastmile_qr_scan", "android": "https://dc.lft.to/lastmile_qr_scan"}, "type": "electric_scooter", "name": "3dc4d50293ad27fb0b3efcd11be732e8", "is_reserved": 0, "lon": -77.03458166666667, "is_disabled": 0, "fusion_lat": 0.0, "lat": 38.90835766666667, "bike_id": "3dc4d50293ad27fb0b3efcd11be732e8", "fusion_lon": 0.0}, {"rental_uris": {"ios": "https://dc.lft.to/lastmile_qr_scan", "android": "https://dc.lft.to/lastmile_qr_scan"}, "type": "electric_scooter", "name": "fc8101c25c39309696cf9f6624f1ca73", "is_reserved": 0, "lon": -77.044609, "is_disabled": 0, "fusion_lat": 0.0, "lat": 38.9246455, "bike_id": "fc8101c25c39309696cf9f6624f1ca73", "fusion_lon": 0.0}, {"rental_uris": {"ios": "https://dc.lft.to/lastmile_qr_scan", "android": "https://dc.lft.to/lastmile_qr_scan"}, "type": "electric_scooter", "name": "6e5e0c2a7a58c7ccf01ac268e3fb2f4c", "is_reserved": 0, "lon": -76.99746033333334, "is_disabled": 0, "fusion_lat": 0.0, "lat": 38.901255, "bike_id": "6e5e0c2a7a58c7ccf01ac268e3fb2f4c", "fusion_lon": 0.0}, {"rental_uris": {"ios": "https://dc.lft.to/lastmile_qr_scan", "android": "https://dc.lft.to/lastmile_qr_scan"}, "type": "electric_scooter", "name": "4063df98a955b279aef95301c205cad6", "is_reserved": 0, "lon": -77.0316815, "is_disabled": 0, "fusion_lat": 0.0, "lat": 38.8946, "bike_id": "4063df98a955b279aef95301c205cad6", "fusion_lon": 0.0}, {"rental_uris": {"ios": "https://dc.lft.to/lastmile_qr_scan", "android": "https://dc.lft.to/lastmile_qr_scan"}, "type": "electric_scooter", "name": "afbcfb663d15bad814ca3fef9f1d45f1", "is_reserved": 0, "lon": -77.01110016666667, "is_disabled": 0, "fusion_lat": 0.0, "lat": 38.895583, "bike_id": "afbcfb663d15bad814ca3fef9f1d45f1", "fusion_lon": 0.0}, {"rental_uris": {"ios": "https://dc.lft.to/lastmile_qr_scan", "android": "https://dc.lft.to/lastmile_qr_scan"}, "type": "electric_bike", "name": "d776e90b9abd98dee7595291e92491f1", "is_reserved": 0, "lon": -77.01198783333334, "is_disabled": 0, "fusion_lat": 0.0, "lat": 38.9506915, "bike_id": "d776e90b9abd98dee7595291e92491f1", "fusion_lon": 0.0}, {"rental_uris": {"ios": "https://dc.lft.to/lastmile_qr_scan", "android": "https://dc.lft.to/lastmile_qr_scan"}, "type": "electric_bike", "name": "86c85d9523cedc7e5e8004a6ad1be9d4", "is_reserved": 0, "lon": -76.987654, "is_disabled": 0, "fusion_lat": 0.0, "lat": 38.85765266666667, "bike_id": "86c85d9523cedc7e5e8004a6ad1be9d4", "fusion_lon": 0.0}, {"rental_uris": {"ios": "https://dc.lft.to/lastmile_qr_scan", "android": "https://dc.lft.to/lastmile_qr_scan"}, "type": "electric_scooter", "name": "9970acdd665ec7494021ac4313dfc664", "is_reserved": 0, "lon": -77.044853, "is_disabled": 0, "fusion_lat": 0.0, "lat": 38.90008783333333, "bike_id": "9970acdd665ec7494021ac4313dfc664", "fusion_lon": 0.0}, {"rental_uris": {"ios": "https://dc.lft.to/lastmile_qr_scan", "android": "https://dc.lft.to/lastmile_qr_scan"}, "type": "electric_scooter", "name": "4606c264ac69a619edbd54af1df4c11b", "is_reserved": 0, "lon": -77.0198075, "is_disabled": 0, "fusion_lat": 0.0, "lat": 38.8871975, "bike_id": "4606c264ac69a619edbd54af1df4c11b", "fusion_lon": 0.0}, {"rental_uris": {"ios": "https://dc.lft.to/lastmile_qr_scan", "android": "https://dc.lft.to/lastmile_qr_scan"}, "type": "electric_scooter", "name": "5ea2a18f8ee3dbb146a07c70971b5b57", "is_reserved": 0, "lon": -76.9837405, "is_disabled": 0, "fusion_lat": 0.0, "lat": 38.89970616666667, "bike_id": "5ea2a18f8ee3dbb146a07c70971b5b57", "fusion_lon": 0.0}, {"rental_uris": {"ios": "https://dc.lft.to/lastmile_qr_scan", "android": "https://dc.lft.to/lastmile_qr_scan"}, "type": "electric_scooter", "name": "8de0f2f046ee045f1e67f1e65f21a1ff", "is_reserved": 0, "lon": -77.02703016666666, "is_disabled": 0, "fusion_lat": 0.0, "lat": 38.895731833333336, "bike_id": "8de0f2f046ee045f1e67f1e65f21a1ff", "fusion_lon": 0.0}, {"rental_uris": {"ios": "https://dc.lft.to/lastmile_qr_scan", "android": "https://dc.lft.to/lastmile_qr_scan"}, "type": "electric_scooter", "name": "021a005f8dcc2de6a21268c3267bbbaf", "is_reserved": 0, "lon": -77.0220315, "is_disabled": 0, "fusion_lat": 0.0, "lat": 38.911010166666664, "bike_id": "021a005f8dcc2de6a21268c3267bbbaf", "fusion_lon": 0.0}, {"rental_uris": {"ios": "https://dc.lft.to/lastmile_qr_scan", "android": "https://dc.lft.to/lastmile_qr_scan"}, "type": "electric_scooter", "name": "eb68aa6a86cfc8abe4d70836b23170e4", "is_reserved": 0, "lon": -77.01788983333333, "is_disabled": 0, "fusion_lat": 0.0, "lat": 38.876779166666665, "bike_id": "eb68aa6a86cfc8abe4d70836b23170e4", "fusion_lon": 0.0}, {"rental_uris": {"ios": "https://dc.lft.to/lastmile_qr_scan", "android": "https://dc.lft.to/lastmile_qr_scan"}, "type": "electric_scooter", "name": "f6436986f1635cb69be25b356e9531d6", "is_reserved": 0, "lon": -77.03950583333334, "is_disabled": 0, "fusion_lat": 0.0, "lat": 38.90007033333333, "bike_id": "f6436986f1635cb69be25b356e9531d6", "fusion_lon": 0.0}, {"rental_uris": {"ios": "https://dc.lft.to/lastmile_qr_scan", "android": "https://dc.lft.to/lastmile_qr_scan"}, "type": "electric_scooter", "name": "7b481ca61a15b3d376c784dbbb2698b4", "is_reserved": 0, "lon": -77.02297866666666, "is_disabled": 0, "fusion_lat": 0.0, "lat": 38.96127233333333, "bike_id": "7b481ca61a15b3d376c784dbbb2698b4", "fusion_lon": 0.0}, {"rental_uris": {"ios": "https://dc.lft.to/lastmile_qr_scan", "android": "https://dc.lft.to/lastmile_qr_scan"}, "type": "electric_scooter", "name": "451ae64f415d428a42ee31073371654f", "is_reserved": 0, "lon": -77.03375716666666, "is_disabled": 0, "fusion_lat": 0.0, "lat": 38.91041633333333, "bike_id": "451ae64f415d428a42ee31073371654f", "fusion_lon": 0.0}, {"rental_uris": {"ios": "https://dc.lft.to/lastmile_qr_scan", "android": "https://dc.lft.to/lastmile_qr_scan"}, "type": "electric_scooter", "name": "efedf7ccca1d001975847ea43687ac97", "is_reserved": 0, "lon": -77.05357533333333, "is_disabled": 0, "fusion_lat": 0.0, "lat": 38.90395483333333, "bike_id": "efedf7ccca1d001975847ea43687ac97", "fusion_lon": 0.0}, {"rental_uris": {"ios": "https://dc.lft.to/lastmile_qr_scan", "android": "https://dc.lft.to/lastmile_qr_scan"}, "type": "electric_bike", "name": "352fe8795d22fc0c91c200bdce83f861", "is_reserved": 0, "lon": -77.03702466666667, "is_disabled": 0, "fusion_lat": 0.0, "lat": 38.9356005, "bike_id": "352fe8795d22fc0c91c200bdce83f861", "fusion_lon": 0.0}, {"rental_uris": {"ios": "https://dc.lft.to/lastmile_qr_scan", "android": "https://dc.lft.to/lastmile_qr_scan"}, "type": "electric_scooter", "name": "8cf910aa8fc0801d9bb3c80f1a5a6bc2", "is_reserved": 0, "lon": -77.02569216666667, "is_disabled": 0, "fusion_lat": 0.0, "lat": 38.887448, "bike_id": "8cf910aa8fc0801d9bb3c80f1a5a6bc2", "fusion_lon": 0.0}, {"rental_uris": {"ios": "https://dc.lft.to/lastmile_qr_scan", "android": "https://dc.lft.to/lastmile_qr_scan"}, "type": "electric_scooter", "name": "20b08329d1a749c23fb90c889f1c6305", "is_reserved": 0, "lon": -77.02814516666666, "is_disabled": 0, "fusion_lat": 0.0, "lat": 38.95642683333333, "bike_id": "20b08329d1a749c23fb90c889f1c6305", "fusion_lon": 0.0}, {"rental_uris": {"ios": "https://dc.lft.to/lastmile_qr_scan", "android": "https://dc.lft.to/lastmile_qr_scan"}, "type": "electric_bike", "name": "6ecc8074ddbc553bd903f06faeaacccc", "is_reserved": 0, "lon": -77.00206283333333, "is_disabled": 0, "fusion_lat": 0.0, "lat": 38.988460333333336, "bike_id": "6ecc8074ddbc553bd903f06faeaacccc", "fusion_lon": 0.0}, {"rental_uris": {"ios": "https://dc.lft.to/lastmile_qr_scan", "android": "https://dc.lft.to/lastmile_qr_scan"}, "type": "electric_scooter", "name": "6d2ded9429998d09cb8366cd73041e7d", "is_reserved": 0, "lon": -77.01057866666666, "is_disabled": 0, "fusion_lat": 0.0, "lat": 38.9164045, "bike_id": "6d2ded9429998d09cb8366cd73041e7d", "fusion_lon": 0.0}, {"rental_uris": {"ios": "https://dc.lft.to/lastmile_qr_scan", "android": "https://dc.lft.to/lastmile_qr_scan"}, "type": "electric_scooter", "name": "933939103dc6fa1bb498197d9ce42321", "is_reserved": 0, "lon": -77.01728016666667, "is_disabled": 0, "fusion_lat": 0.0, "lat": 38.905595, "bike_id": "933939103dc6fa1bb498197d9ce42321", "fusion_lon": 0.0}, {"rental_uris": {"ios": "https://dc.lft.to/lastmile_qr_scan", "android": "https://dc.lft.to/lastmile_qr_scan"}, "type": "electric_scooter", "name": "7e088784882588352f51292f8d386eaa", "is_reserved": 0, "lon": -77.01018183333333, "is_disabled": 0, "fusion_lat": 0.0, "lat": 38.91254433333334, "bike_id": "7e088784882588352f51292f8d386eaa", "fusion_lon": 0.0}, {"rental_uris": {"ios": "https://dc.lft.to/lastmile_qr_scan", "android": "https://dc.lft.to/lastmile_qr_scan"}, "type": "electric_scooter", "name": "1641f5e18365db985b0bcfc414ec3238", "is_reserved": 0, "lon": -77.03202966666667, "is_disabled": 0, "fusion_lat": 0.0, "lat": 38.9163815, "bike_id": "1641f5e18365db985b0bcfc414ec3238", "fusion_lon": 0.0}, {"rental_uris": {"ios": "https://dc.lft.to/lastmile_qr_scan", "android": "https://dc.lft.to/lastmile_qr_scan"}, "type": "electric_scooter", "name": "f5e167c7cb109b8da8dbcb9c70b72a91", "is_reserved": 0, "lon": -77.04731583333333, "is_disabled": 0, "fusion_lat": 0.0, "lat": 38.8955345, "bike_id": "f5e167c7cb109b8da8dbcb9c70b72a91", "fusion_lon": 0.0}, {"rental_uris": {"ios": "https://dc.lft.to/lastmile_qr_scan", "android": "https://dc.lft.to/lastmile_qr_scan"}, "type": "electric_scooter", "name": "18a47d897a9dedcf13f10a10a4472947", "is_reserved": 0, "lon": -77.023911, "is_disabled": 0, "fusion_lat": 0.0, "lat": 38.9165685, "bike_id": "18a47d897a9dedcf13f10a10a4472947", "fusion_lon": 0.0}, {"rental_uris": {"ios": "https://dc.lft.to/lastmile_qr_scan", "android": "https://dc.lft.to/lastmile_qr_scan"}, "type": "electric_scooter", "name": "fdc327ffcfc9bc60212722956cc425ff", "is_reserved": 0, "lon": -77.02437216666667, "is_disabled": 0, "fusion_lat": 0.0, "lat": 38.87969066666667, "bike_id": "fdc327ffcfc9bc60212722956cc425ff", "fusion_lon": 0.0}, {"rental_uris": {"ios": "https://dc.lft.to/lastmile_qr_scan", "android": "https://dc.lft.to/lastmile_qr_scan"}, "type": "electric_scooter", "name": "d95cd41e420ac39ff7f7a6faba776f94", "is_reserved": 0, "lon": -76.93186616666667, "is_disabled": 0, "fusion_lat": 0.0, "lat": 38.89874066666667, "bike_id": "d95cd41e420ac39ff7f7a6faba776f94", "fusion_lon": 0.0}, {"rental_uris": {"ios": "https://dc.lft.to/lastmile_qr_scan", "android": "https://dc.lft.to/lastmile_qr_scan"}, "type": "electric_scooter", "name": "9648e87c28ff4a765338d41b948d1062", "is_reserved": 0, "lon": -77.02163483333334, "is_disabled": 0, "fusion_lat": 0.0, "lat": 38.92004816666667, "bike_id": "9648e87c28ff4a765338d41b948d1062", "fusion_lon": 0.0}, {"rental_uris": {"ios": "https://dc.lft.to/lastmile_qr_scan", "android": "https://dc.lft.to/lastmile_qr_scan"}, "type": "electric_scooter", "name": "ea47cc2abff3285c88c01050bb4badb2", "is_reserved": 0, "lon": -77.04552533333333, "is_disabled": 0, "fusion_lat": 0.0, "lat": 38.9127095, "bike_id": "ea47cc2abff3285c88c01050bb4badb2", "fusion_lon": 0.0}, {"rental_uris": {"ios": "https://dc.lft.to/lastmile_qr_scan", "android": "https://dc.lft.to/lastmile_qr_scan"}, "type": "electric_scooter", "name": "d4ed00d70c0566f7d63f3452de9e8ee0", "is_reserved": 0, "lon": -77.05169016666666, "is_disabled": 0, "fusion_lat": 0.0, "lat": 38.90328066666667, "bike_id": "d4ed00d70c0566f7d63f3452de9e8ee0", "fusion_lon": 0.0}, {"rental_uris": {"ios": "https://dc.lft.to/lastmile_qr_scan", "android": "https://dc.lft.to/lastmile_qr_scan"}, "type": "electric_scooter", "name": "f627b9cd35cdd36538c97aaf7db1d9b5", "is_reserved": 0, "lon": -77.06984966666667, "is_disabled": 0, "fusion_lat": 0.0, "lat": 38.95529533333333, "bike_id": "f627b9cd35cdd36538c97aaf7db1d9b5", "fusion_lon": 0.0}, {"rental_uris": {"ios": "https://dc.lft.to/lastmile_qr_scan", "android": "https://dc.lft.to/lastmile_qr_scan"}, "type": "electric_scooter", "name": "fd239df56d3a092fce6cdf3bb96bdd85", "is_reserved": 0, "lon": -77.0181435, "is_disabled": 0, "fusion_lat": 0.0, "lat": 38.904936, "bike_id": "fd239df56d3a092fce6cdf3bb96bdd85", "fusion_lon": 0.0}, {"rental_uris": {"ios": "https://dc.lft.to/lastmile_qr_scan", "android": "https://dc.lft.to/lastmile_qr_scan"}, "type": "electric_scooter", "name": "4567c3b72bc6def20bbe691cb46a5277", "is_reserved": 0, "lon": -77.03843366666666, "is_disabled": 0, "fusion_lat": 0.0, "lat": 38.9148755, "bike_id": "4567c3b72bc6def20bbe691cb46a5277", "fusion_lon": 0.0}, {"rental_uris": {"ios": "https://dc.lft.to/lastmile_qr_scan", "android": "https://dc.lft.to/lastmile_qr_scan"}, "type": "electric_scooter", "name": "113623ae49f4489c9e6b8b45988ef91b", "is_reserved": 0, "lon": -77.02462716666666, "is_disabled": 0, "fusion_lat": 0.0, "lat": 38.937159666666666, "bike_id": "113623ae49f4489c9e6b8b45988ef91b", "fusion_lon": 0.0}, {"rental_uris": {"ios": "https://dc.lft.to/lastmile_qr_scan", "android": "https://dc.lft.to/lastmile_qr_scan"}, "type": "electric_scooter", "name": "3ff4d53be50d642a18a726b1111f4ea8", "is_reserved": 0, "lon": -77.01760466666667, "is_disabled": 0, "fusion_lat": 0.0, "lat": 38.876849166666666, "bike_id": "3ff4d53be50d642a18a726b1111f4ea8", "fusion_lon": 0.0}, {"rental_uris": {"ios": "https://dc.lft.to/lastmile_qr_scan", "android": "https://dc.lft.to/lastmile_qr_scan"}, "type": "electric_bike", "name": "16817b6af5c7d270930a5d220a27ca4c", "is_reserved": 0, "lon": -77.102129, "is_disabled": 0, "fusion_lat": 0.0, "lat": 38.919952, "bike_id": "16817b6af5c7d270930a5d220a27ca4c", "fusion_lon": 0.0}, {"rental_uris": {"ios": "https://dc.lft.to/lastmile_qr_scan", "android": "https://dc.lft.to/lastmile_qr_scan"}, "type": "electric_bike", "name": "a5bd74743b68cdddeab3841a8748c351", "is_reserved": 0, "lon": -76.99467216666666, "is_disabled": 0, "fusion_lat": 0.0, "lat": 38.862646833333336, "bike_id": "a5bd74743b68cdddeab3841a8748c351", "fusion_lon": 0.0}, {"rental_uris": {"ios": "https://dc.lft.to/lastmile_qr_scan", "android": "https://dc.lft.to/lastmile_qr_scan"}, "type": "electric_bike", "name": "aa939028a00a96f1ab0139c24302c425", "is_reserved": 0, "lon": -76.98687716666667, "is_disabled": 0, "fusion_lat": 0.0, "lat": 38.94468716666667, "bike_id": "aa939028a00a96f1ab0139c24302c425", "fusion_lon": 0.0}, {"rental_uris": {"ios": "https://dc.lft.to/lastmile_qr_scan", "android": "https://dc.lft.to/lastmile_qr_scan"}, "type": "electric_bike", "name": "bac532fbdbfc0815b93c144568bc9eb5", "is_reserved": 0, "lon": -77.03624633333334, "is_disabled": 0, "fusion_lat": 0.0, "lat": 38.97297066666667, "bike_id": "bac532fbdbfc0815b93c144568bc9eb5", "fusion_lon": 0.0}, {"rental_uris": {"ios": "https://dc.lft.to/lastmile_qr_scan", "android": "https://dc.lft.to/lastmile_qr_scan"}, "type": "electric_scooter", "name": "d64d4a74e03e1953bb1a157ef5c0de18", "is_reserved": 0, "lon": -77.00661283333334, "is_disabled": 0, "fusion_lat": 0.0, "lat": 38.899862666666664, "bike_id": "d64d4a74e03e1953bb1a157ef5c0de18", "fusion_lon": 0.0}, {"rental_uris": {"ios": "https://dc.lft.to/lastmile_qr_scan", "android": "https://dc.lft.to/lastmile_qr_scan"}, "type": "electric_scooter", "name": "65b55a1b585c5bffe09c1c599db9b6c2", "is_reserved": 0, "lon": -77.02124366666666, "is_disabled": 0, "fusion_lat": 0.0, "lat": 38.90240333333333, "bike_id": "65b55a1b585c5bffe09c1c599db9b6c2", "fusion_lon": 0.0}, {"rental_uris": {"ios": "https://dc.lft.to/lastmile_qr_scan", "android": "https://dc.lft.to/lastmile_qr_scan"}, "type": "electric_bike", "name": "c8a368739ad5b26cd4048b1265131c82", "is_reserved": 0, "lon": -77.0840405, "is_disabled": 0, "fusion_lat": 0.0, "lat": 38.912976666666665, "bike_id": "c8a368739ad5b26cd4048b1265131c82", "fusion_lon": 0.0}, {"rental_uris": {"ios": "https://dc.lft.to/lastmile_qr_scan", "android": "https://dc.lft.to/lastmile_qr_scan"}, "type": "electric_scooter", "name": "53b9f6f5c93fd9683865f3a25bad3244", "is_reserved": 0, "lon": -76.98838383333333, "is_disabled": 0, "fusion_lat": 0.0, "lat": 38.842951, "bike_id": "53b9f6f5c93fd9683865f3a25bad3244", "fusion_lon": 0.0}, {"rental_uris": {"ios": "https://dc.lft.to/lastmile_qr_scan", "android": "https://dc.lft.to/lastmile_qr_scan"}, "type": "electric_scooter", "name": "ba50cf5d2578d36559ebaadb611ed460", "is_reserved": 0, "lon": -77.02596266666667, "is_disabled": 0, "fusion_lat": 0.0, "lat": 38.958098166666666, "bike_id": "ba50cf5d2578d36559ebaadb611ed460", "fusion_lon": 0.0}, {"rental_uris": {"ios": "https://dc.lft.to/lastmile_qr_scan", "android": "https://dc.lft.to/lastmile_qr_scan"}, "type": "electric_bike", "name": "30d57ced83b68efe59f10a7dbdc023c4", "is_reserved": 0, "lon": -76.96263616666667, "is_disabled": 0, "fusion_lat": 0.0, "lat": 38.967794833333336, "bike_id": "30d57ced83b68efe59f10a7dbdc023c4", "fusion_lon": 0.0}, {"rental_uris": {"ios": "https://dc.lft.to/lastmile_qr_scan", "android": "https://dc.lft.to/lastmile_qr_scan"}, "type": "electric_scooter", "name": "e97c9307c2fef84bbc2d9bb2d463a498", "is_reserved": 0, "lon": -77.02702583333334, "is_disabled": 0, "fusion_lat": 0.0, "lat": 38.897152, "bike_id": "e97c9307c2fef84bbc2d9bb2d463a498", "fusion_lon": 0.0}, {"rental_uris": {"ios": "https://dc.lft.to/lastmile_qr_scan", "android": "https://dc.lft.to/lastmile_qr_scan"}, "type": "electric_scooter", "name": "5e4fb22b8feb736bd26232a876a14bb1", "is_reserved": 0, "lon": -77.0516875, "is_disabled": 0, "fusion_lat": 0.0, "lat": 38.90325433333334, "bike_id": "5e4fb22b8feb736bd26232a876a14bb1", "fusion_lon": 0.0}, {"rental_uris": {"ios": "https://dc.lft.to/lastmile_qr_scan", "android": "https://dc.lft.to/lastmile_qr_scan"}, "type": "electric_scooter", "name": "7a1257d50ea63d35cec7c78b31cfcc6d", "is_reserved": 0, "lon": -77.03461016666667, "is_disabled": 0, "fusion_lat": 0.0, "lat": 38.908315333333334, "bike_id": "7a1257d50ea63d35cec7c78b31cfcc6d", "fusion_lon": 0.0}, {"rental_uris": {"ios": "https://dc.lft.to/lastmile_qr_scan", "android": "https://dc.lft.to/lastmile_qr_scan"}, "type": "electric_bike", "name": "d7f81cc54a744bec24241cd456496a1a", "is_reserved": 0, "lon": -77.0369965, "is_disabled": 0, "fusion_lat": 0.0, "lat": 38.9355485, "bike_id": "d7f81cc54a744bec24241cd456496a1a", "fusion_lon": 0.0}, {"rental_uris": {"ios": "https://dc.lft.to/lastmile_qr_scan", "android": "https://dc.lft.to/lastmile_qr_scan"}, "type": "electric_scooter", "name": "60502084070754df86af0b4673605f3f", "is_reserved": 0, "lon": -77.02278116666666, "is_disabled": 0, "fusion_lat": 0.0, "lat": 38.892209666666666, "bike_id": "60502084070754df86af0b4673605f3f", "fusion_lon": 0.0}, {"rental_uris": {"ios": "https://dc.lft.to/lastmile_qr_scan", "android": "https://dc.lft.to/lastmile_qr_scan"}, "type": "electric_scooter", "name": "4b1c2ea7ba3814c340c95f4b1716fcd3", "is_reserved": 0, "lon": -77.04218466666667, "is_disabled": 0, "fusion_lat": 0.0, "lat": 38.92165033333333, "bike_id": "4b1c2ea7ba3814c340c95f4b1716fcd3", "fusion_lon": 0.0}, {"rental_uris": {"ios": "https://dc.lft.to/lastmile_qr_scan", "android": "https://dc.lft.to/lastmile_qr_scan"}, "type": "electric_scooter", "name": "84797753fe55be9be7c50441ac902ed7", "is_reserved": 0, "lon": -77.04244533333333, "is_disabled": 0, "fusion_lat": 0.0, "lat": 38.9223605, "bike_id": "84797753fe55be9be7c50441ac902ed7", "fusion_lon": 0.0}, {"rental_uris": {"ios": "https://dc.lft.to/lastmile_qr_scan", "android": "https://dc.lft.to/lastmile_qr_scan"}, "type": "electric_scooter", "name": "7c166be14f60151059bd6a8fe0fac423", "is_reserved": 0, "lon": -77.0476905, "is_disabled": 0, "fusion_lat": 0.0, "lat": 38.91239233333334, "bike_id": "7c166be14f60151059bd6a8fe0fac423", "fusion_lon": 0.0}, {"rental_uris": {"ios": "https://dc.lft.to/lastmile_qr_scan", "android": "https://dc.lft.to/lastmile_qr_scan"}, "type": "electric_scooter", "name": "65269898acb6fcca87c90d1ba8730f03", "is_reserved": 0, "lon": -77.032757, "is_disabled": 0, "fusion_lat": 0.0, "lat": 38.91988933333333, "bike_id": "65269898acb6fcca87c90d1ba8730f03", "fusion_lon": 0.0}, {"rental_uris": {"ios": "https://dc.lft.to/lastmile_qr_scan", "android": "https://dc.lft.to/lastmile_qr_scan"}, "type": "electric_scooter", "name": "69301d10bf51e2940a2610fb977dc397", "is_reserved": 0, "lon": -77.0786435, "is_disabled": 0, "fusion_lat": 0.0, "lat": 38.92459133333333, "bike_id": "69301d10bf51e2940a2610fb977dc397", "fusion_lon": 0.0}, {"rental_uris": {"ios": "https://dc.lft.to/lastmile_qr_scan", "android": "https://dc.lft.to/lastmile_qr_scan"}, "type": "electric_scooter", "name": "27d69bbc9b8025853d5872829f0eeb53", "is_reserved": 0, "lon": -77.03855016666667, "is_disabled": 0, "fusion_lat": 0.0, "lat": 38.91661, "bike_id": "27d69bbc9b8025853d5872829f0eeb53", "fusion_lon": 0.0}, {"rental_uris": {"ios": "https://dc.lft.to/lastmile_qr_scan", "android": "https://dc.lft.to/lastmile_qr_scan"}, "type": "electric_scooter", "name": "b858951dafbc0d5440d85eb67c298688", "is_reserved": 0, "lon": -77.0563695, "is_disabled": 0, "fusion_lat": 0.0, "lat": 38.9359565, "bike_id": "b858951dafbc0d5440d85eb67c298688", "fusion_lon": 0.0}, {"rental_uris": {"ios": "https://dc.lft.to/lastmile_qr_scan", "android": "https://dc.lft.to/lastmile_qr_scan"}, "type": "electric_scooter", "name": "65e4e74850e11997e32dfb5f341e29b1", "is_reserved": 0, "lon": -77.04693466666667, "is_disabled": 0, "fusion_lat": 0.0, "lat": 38.897346666666664, "bike_id": "65e4e74850e11997e32dfb5f341e29b1", "fusion_lon": 0.0}, {"rental_uris": {"ios": "https://dc.lft.to/lastmile_qr_scan", "android": "https://dc.lft.to/lastmile_qr_scan"}, "type": "electric_scooter", "name": "3a749abb4c562b418f9f77853419f9e8", "is_reserved": 0, "lon": -77.03956766666667, "is_disabled": 0, "fusion_lat": 0.0, "lat": 38.89246883333333, "bike_id": "3a749abb4c562b418f9f77853419f9e8", "fusion_lon": 0.0}, {"rental_uris": {"ios": "https://dc.lft.to/lastmile_qr_scan", "android": "https://dc.lft.to/lastmile_qr_scan"}, "type": "electric_scooter", "name": "d7043c4fe2a8464c886447524308b811", "is_reserved": 0, "lon": -77.036343, "is_disabled": 0, "fusion_lat": 0.0, "lat": 38.92592716666667, "bike_id": "d7043c4fe2a8464c886447524308b811", "fusion_lon": 0.0}, {"rental_uris": {"ios": "https://dc.lft.to/lastmile_qr_scan", "android": "https://dc.lft.to/lastmile_qr_scan"}, "type": "electric_scooter", "name": "957306c5d3ec5b0e57fba6a328f8f132", "is_reserved": 0, "lon": -77.01009766666667, "is_disabled": 0, "fusion_lat": 0.0, "lat": 38.912602, "bike_id": "957306c5d3ec5b0e57fba6a328f8f132", "fusion_lon": 0.0}, {"rental_uris": {"ios": "https://dc.lft.to/lastmile_qr_scan", "android": "https://dc.lft.to/lastmile_qr_scan"}, "type": "electric_scooter", "name": "3c4a2b58515642c3b571cee412208988", "is_reserved": 0, "lon": -76.99982066666666, "is_disabled": 0, "fusion_lat": 0.0, "lat": 38.90760683333333, "bike_id": "3c4a2b58515642c3b571cee412208988", "fusion_lon": 0.0}, {"rental_uris": {"ios": "https://dc.lft.to/lastmile_qr_scan", "android": "https://dc.lft.to/lastmile_qr_scan"}, "type": "electric_scooter", "name": "0bf33b0539b1e249c90cee46a2d4ff03", "is_reserved": 0, "lon": -77.03798516666667, "is_disabled": 0, "fusion_lat": 0.0, "lat": 38.9306925, "bike_id": "0bf33b0539b1e249c90cee46a2d4ff03", "fusion_lon": 0.0}, {"rental_uris": {"ios": "https://dc.lft.to/lastmile_qr_scan", "android": "https://dc.lft.to/lastmile_qr_scan"}, "type": "electric_scooter", "name": "681153331f637f3aae698264faa47ded", "is_reserved": 0, "lon": -77.02382033333333, "is_disabled": 0, "fusion_lat": 0.0, "lat": 38.89198233333333, "bike_id": "681153331f637f3aae698264faa47ded", "fusion_lon": 0.0}, {"rental_uris": {"ios": "https://dc.lft.to/lastmile_qr_scan", "android": "https://dc.lft.to/lastmile_qr_scan"}, "type": "electric_scooter", "name": "084485ff05d69f0065defe15dc18cefa", "is_reserved": 0, "lon": -77.01997916666667, "is_disabled": 0, "fusion_lat": 0.0, "lat": 38.93051716666667, "bike_id": "084485ff05d69f0065defe15dc18cefa", "fusion_lon": 0.0}, {"rental_uris": {"ios": "https://dc.lft.to/lastmile_qr_scan", "android": "https://dc.lft.to/lastmile_qr_scan"}, "type": "electric_bike", "name": "1a203af4214cb6a11a5300088cb5eb8f", "is_reserved": 0, "lon": -76.95062766666666, "is_disabled": 0, "fusion_lat": 0.0, "lat": 39.085092333333336, "bike_id": "1a203af4214cb6a11a5300088cb5eb8f", "fusion_lon": 0.0}, {"rental_uris": {"ios": "https://dc.lft.to/lastmile_qr_scan", "android": "https://dc.lft.to/lastmile_qr_scan"}, "type": "electric_scooter", "name": "1b7daf0ae336b80c684004bb9980bddd", "is_reserved": 0, "lon": -77.07398066666667, "is_disabled": 0, "fusion_lat": 0.0, "lat": 38.937457, "bike_id": "1b7daf0ae336b80c684004bb9980bddd", "fusion_lon": 0.0}, {"rental_uris": {"ios": "https://dc.lft.to/lastmile_qr_scan", "android": "https://dc.lft.to/lastmile_qr_scan"}, "type": "electric_scooter", "name": "8b5027ad8f51a7b975b21fd91bd3ab85", "is_reserved": 0, "lon": -77.02356633333333, "is_disabled": 0, "fusion_lat": 0.0, "lat": 38.9451915, "bike_id": "8b5027ad8f51a7b975b21fd91bd3ab85", "fusion_lon": 0.0}, {"rental_uris": {"ios": "https://dc.lft.to/lastmile_qr_scan", "android": "https://dc.lft.to/lastmile_qr_scan"}, "type": "electric_scooter", "name": "c000dfe0fe0e8b60af1b69b0cc41f82b", "is_reserved": 0, "lon": -76.981838, "is_disabled": 0, "fusion_lat": 0.0, "lat": 38.9058025, "bike_id": "c000dfe0fe0e8b60af1b69b0cc41f82b", "fusion_lon": 0.0}, {"rental_uris": {"ios": "https://dc.lft.to/lastmile_qr_scan", "android": "https://dc.lft.to/lastmile_qr_scan"}, "type": "electric_scooter", "name": "2dbf55508f6ac0eb326eaa4821f1dc2e", "is_reserved": 0, "lon": -77.03123816666667, "is_disabled": 0, "fusion_lat": 0.0, "lat": 38.9237375, "bike_id": "2dbf55508f6ac0eb326eaa4821f1dc2e", "fusion_lon": 0.0}, {"rental_uris": {"ios": "https://dc.lft.to/lastmile_qr_scan", "android": "https://dc.lft.to/lastmile_qr_scan"}, "type": "electric_scooter", "name": "589f95f41ee67c5c6905271de1ab90f1", "is_reserved": 0, "lon": -77.00213633333334, "is_disabled": 0, "fusion_lat": 0.0, "lat": 38.90022466666667, "bike_id": "589f95f41ee67c5c6905271de1ab90f1", "fusion_lon": 0.0}, {"rental_uris": {"ios": "https://dc.lft.to/lastmile_qr_scan", "android": "https://dc.lft.to/lastmile_qr_scan"}, "type": "electric_scooter", "name": "46725194371f136f52b73d5f5a52930e", "is_reserved": 0, "lon": -77.023907, "is_disabled": 0, "fusion_lat": 0.0, "lat": 38.91708833333333, "bike_id": "46725194371f136f52b73d5f5a52930e", "fusion_lon": 0.0}, {"rental_uris": {"ios": "https://dc.lft.to/lastmile_qr_scan", "android": "https://dc.lft.to/lastmile_qr_scan"}, "type": "electric_scooter", "name": "a1b0fd4d07bf8b0613637c6d4af7a77c", "is_reserved": 0, "lon": -77.03862883333333, "is_disabled": 0, "fusion_lat": 0.0, "lat": 38.908392666666664, "bike_id": "a1b0fd4d07bf8b0613637c6d4af7a77c", "fusion_lon": 0.0}, {"rental_uris": {"ios": "https://dc.lft.to/lastmile_qr_scan", "android": "https://dc.lft.to/lastmile_qr_scan"}, "type": "electric_scooter", "name": "c90dcd00ba0f10b9a8051f5d4b028936", "is_reserved": 0, "lon": -77.0413565, "is_disabled": 0, "fusion_lat": 0.0, "lat": 38.922585166666664, "bike_id": "c90dcd00ba0f10b9a8051f5d4b028936", "fusion_lon": 0.0}, {"rental_uris": {"ios": "https://dc.lft.to/lastmile_qr_scan", "android": "https://dc.lft.to/lastmile_qr_scan"}, "type": "electric_scooter", "name": "da3bc5a9198b43b4abeb7fe20f7d551a", "is_reserved": 0, "lon": -77.03221066666667, "is_disabled": 0, "fusion_lat": 0.0, "lat": 38.914053833333334, "bike_id": "da3bc5a9198b43b4abeb7fe20f7d551a", "fusion_lon": 0.0}, {"rental_uris": {"ios": "https://dc.lft.to/lastmile_qr_scan", "android": "https://dc.lft.to/lastmile_qr_scan"}, "type": "electric_scooter", "name": "4ca78ca1cb3d8bb13237156253cef35d", "is_reserved": 0, "lon": -76.9772055, "is_disabled": 0, "fusion_lat": 0.0, "lat": 38.88821, "bike_id": "4ca78ca1cb3d8bb13237156253cef35d", "fusion_lon": 0.0}, {"rental_uris": {"ios": "https://dc.lft.to/lastmile_qr_scan", "android": "https://dc.lft.to/lastmile_qr_scan"}, "type": "electric_scooter", "name": "c948b075d64eec63e1c41278faa3d0ab", "is_reserved": 0, "lon": -77.0108345, "is_disabled": 0, "fusion_lat": 0.0, "lat": 38.903312666666665, "bike_id": "c948b075d64eec63e1c41278faa3d0ab", "fusion_lon": 0.0}, {"rental_uris": {"ios": "https://dc.lft.to/lastmile_qr_scan", "android": "https://dc.lft.to/lastmile_qr_scan"}, "type": "electric_scooter", "name": "0eb43324713fe391f7992c740328f5c1", "is_reserved": 0, "lon": -77.042505, "is_disabled": 0, "fusion_lat": 0.0, "lat": 38.90931333333333, "bike_id": "0eb43324713fe391f7992c740328f5c1", "fusion_lon": 0.0}, {"rental_uris": {"ios": "https://dc.lft.to/lastmile_qr_scan", "android": "https://dc.lft.to/lastmile_qr_scan"}, "type": "electric_scooter", "name": "3050e65b2d01c94a476335ba83ead363", "is_reserved": 0, "lon": -77.03660966666666, "is_disabled": 0, "fusion_lat": 0.0, "lat": 38.920471166666665, "bike_id": "3050e65b2d01c94a476335ba83ead363", "fusion_lon": 0.0}, {"rental_uris": {"ios": "https://dc.lft.to/lastmile_qr_scan", "android": "https://dc.lft.to/lastmile_qr_scan"}, "type": "electric_scooter", "name": "ee2bb425454a101ffbab087885ada4fb", "is_reserved": 0, "lon": -77.0316755, "is_disabled": 0, "fusion_lat": 0.0, "lat": 38.93856366666667, "bike_id": "ee2bb425454a101ffbab087885ada4fb", "fusion_lon": 0.0}, {"rental_uris": {"ios": "https://dc.lft.to/lastmile_qr_scan", "android": "https://dc.lft.to/lastmile_qr_scan"}, "type": "electric_scooter", "name": "eff359194df760586442b6e3f5e4c417", "is_reserved": 0, "lon": -77.02384666666667, "is_disabled": 0, "fusion_lat": 0.0, "lat": 38.908405, "bike_id": "eff359194df760586442b6e3f5e4c417", "fusion_lon": 0.0}, {"rental_uris": {"ios": "https://dc.lft.to/lastmile_qr_scan", "android": "https://dc.lft.to/lastmile_qr_scan"}, "type": "electric_scooter", "name": "ae39de288be5539ec83be8b35d59afa6", "is_reserved": 0, "lon": -77.01630866666666, "is_disabled": 0, "fusion_lat": 0.0, "lat": 38.887303333333335, "bike_id": "ae39de288be5539ec83be8b35d59afa6", "fusion_lon": 0.0}, {"rental_uris": {"ios": "https://dc.lft.to/lastmile_qr_scan", "android": "https://dc.lft.to/lastmile_qr_scan"}, "type": "electric_scooter", "name": "4729007b094f6c62f320e6e7af372ec6", "is_reserved": 0, "lon": -77.03607333333333, "is_disabled": 0, "fusion_lat": 0.0, "lat": 38.903455, "bike_id": "4729007b094f6c62f320e6e7af372ec6", "fusion_lon": 0.0}, {"rental_uris": {"ios": "https://dc.lft.to/lastmile_qr_scan", "android": "https://dc.lft.to/lastmile_qr_scan"}, "type": "electric_scooter", "name": "1cbb5531b57770d2b8b03092fc9a8832", "is_reserved": 0, "lon": -77.01143966666666, "is_disabled": 0, "fusion_lat": 0.0, "lat": 38.906457, "bike_id": "1cbb5531b57770d2b8b03092fc9a8832", "fusion_lon": 0.0}, {"rental_uris": {"ios": "https://dc.lft.to/lastmile_qr_scan", "android": "https://dc.lft.to/lastmile_qr_scan"}, "type": "electric_scooter", "name": "fb9b0f592fce7ee7d569687dd6aa6854", "is_reserved": 0, "lon": -76.98279716666667, "is_disabled": 0, "fusion_lat": 0.0, "lat": 38.90339483333333, "bike_id": "fb9b0f592fce7ee7d569687dd6aa6854", "fusion_lon": 0.0}, {"rental_uris": {"ios": "https://dc.lft.to/lastmile_qr_scan", "android": "https://dc.lft.to/lastmile_qr_scan"}, "type": "electric_scooter", "name": "ccd0bf0561bcf06e3a7bec032e7fb3ae", "is_reserved": 0, "lon": -77.02198, "is_disabled": 0, "fusion_lat": 0.0, "lat": 38.89573083333333, "bike_id": "ccd0bf0561bcf06e3a7bec032e7fb3ae", "fusion_lon": 0.0}, {"rental_uris": {"ios": "https://dc.lft.to/lastmile_qr_scan", "android": "https://dc.lft.to/lastmile_qr_scan"}, "type": "electric_scooter", "name": "05c1555983c1ce994165ecfc2bbc6548", "is_reserved": 0, "lon": -77.00729716666666, "is_disabled": 0, "fusion_lat": 0.0, "lat": 38.91191, "bike_id": "05c1555983c1ce994165ecfc2bbc6548", "fusion_lon": 0.0}, {"rental_uris": {"ios": "https://dc.lft.to/lastmile_qr_scan", "android": "https://dc.lft.to/lastmile_qr_scan"}, "type": "electric_scooter", "name": "ffa635e9f39d715422d692c3f6f6db2b", "is_reserved": 0, "lon": -77.059202, "is_disabled": 0, "fusion_lat": 0.0, "lat": 38.93658083333333, "bike_id": "ffa635e9f39d715422d692c3f6f6db2b", "fusion_lon": 0.0}, {"rental_uris": {"ios": "https://dc.lft.to/lastmile_qr_scan", "android": "https://dc.lft.to/lastmile_qr_scan"}, "type": "electric_scooter", "name": "084f09f22bff18e05cadb47c8990ee29", "is_reserved": 0, "lon": -77.0385755, "is_disabled": 0, "fusion_lat": 0.0, "lat": 38.911936, "bike_id": "084f09f22bff18e05cadb47c8990ee29", "fusion_lon": 0.0}, {"rental_uris": {"ios": "https://dc.lft.to/lastmile_qr_scan", "android": "https://dc.lft.to/lastmile_qr_scan"}, "type": "electric_scooter", "name": "f899d438d940cad2a475aa8c34d0ae63", "is_reserved": 0, "lon": -77.02001166666666, "is_disabled": 0, "fusion_lat": 0.0, "lat": 38.914899, "bike_id": "f899d438d940cad2a475aa8c34d0ae63", "fusion_lon": 0.0}, {"rental_uris": {"ios": "https://dc.lft.to/lastmile_qr_scan", "android": "https://dc.lft.to/lastmile_qr_scan"}, "type": "electric_scooter", "name": "8a5a3b7d57afb4ac17099b80a5175769", "is_reserved": 0, "lon": -77.02182966666666, "is_disabled": 0, "fusion_lat": 0.0, "lat": 38.9097645, "bike_id": "8a5a3b7d57afb4ac17099b80a5175769", "fusion_lon": 0.0}, {"rental_uris": {"ios": "https://dc.lft.to/lastmile_qr_scan", "android": "https://dc.lft.to/lastmile_qr_scan"}, "type": "electric_scooter", "name": "0b0ac768bab17183a1561a890c204427", "is_reserved": 0, "lon": -77.02926, "is_disabled": 0, "fusion_lat": 0.0, "lat": 38.897274, "bike_id": "0b0ac768bab17183a1561a890c204427", "fusion_lon": 0.0}, {"rental_uris": {"ios": "https://dc.lft.to/lastmile_qr_scan", "android": "https://dc.lft.to/lastmile_qr_scan"}, "type": "electric_scooter", "name": "12ff2d8bf848072516dfd55c0fe68f05", "is_reserved": 0, "lon": -77.04438066666667, "is_disabled": 0, "fusion_lat": 0.0, "lat": 38.912606333333336, "bike_id": "12ff2d8bf848072516dfd55c0fe68f05", "fusion_lon": 0.0}, {"rental_uris": {"ios": "https://dc.lft.to/lastmile_qr_scan", "android": "https://dc.lft.to/lastmile_qr_scan"}, "type": "electric_bike", "name": "8e8d091afeb978de0a014edd4c38166c", "is_reserved": 0, "lon": -77.09522366666667, "is_disabled": 0, "fusion_lat": 0.0, "lat": 38.83809766666667, "bike_id": "8e8d091afeb978de0a014edd4c38166c", "fusion_lon": 0.0}, {"rental_uris": {"ios": "https://dc.lft.to/lastmile_qr_scan", "android": "https://dc.lft.to/lastmile_qr_scan"}, "type": "electric_scooter", "name": "ea22cacf10bf588f0ce6918429e2f95b", "is_reserved": 0, "lon": -76.94381533333333, "is_disabled": 0, "fusion_lat": 0.0, "lat": 38.89108866666667, "bike_id": "ea22cacf10bf588f0ce6918429e2f95b", "fusion_lon": 0.0}, {"rental_uris": {"ios": "https://dc.lft.to/lastmile_qr_scan", "android": "https://dc.lft.to/lastmile_qr_scan"}, "type": "electric_scooter", "name": "005240d641b3a52130d0be3398235a14", "is_reserved": 0, "lon": -76.95256366666666, "is_disabled": 0, "fusion_lat": 0.0, "lat": 38.8927095, "bike_id": "005240d641b3a52130d0be3398235a14", "fusion_lon": 0.0}, {"rental_uris": {"ios": "https://dc.lft.to/lastmile_qr_scan", "android": "https://dc.lft.to/lastmile_qr_scan"}, "type": "electric_scooter", "name": "308129fe280f913db506cff6e3b69b7c", "is_reserved": 0, "lon": -77.065033, "is_disabled": 0, "fusion_lat": 0.0, "lat": 38.905105, "bike_id": "308129fe280f913db506cff6e3b69b7c", "fusion_lon": 0.0}, {"rental_uris": {"ios": "https://dc.lft.to/lastmile_qr_scan", "android": "https://dc.lft.to/lastmile_qr_scan"}, "type": "electric_scooter", "name": "911161d7d4b4ed4f35064f034fd8384b", "is_reserved": 0, "lon": -76.94652483333333, "is_disabled": 0, "fusion_lat": 0.0, "lat": 38.89829233333333, "bike_id": "911161d7d4b4ed4f35064f034fd8384b", "fusion_lon": 0.0}, {"rental_uris": {"ios": "https://dc.lft.to/lastmile_qr_scan", "android": "https://dc.lft.to/lastmile_qr_scan"}, "type": "electric_scooter", "name": "3735694b1b284fc1a0090dc145a6a264", "is_reserved": 0, "lon": -77.0403185, "is_disabled": 0, "fusion_lat": 0.0, "lat": 38.911864333333334, "bike_id": "3735694b1b284fc1a0090dc145a6a264", "fusion_lon": 0.0}, {"rental_uris": {"ios": "https://dc.lft.to/lastmile_qr_scan", "android": "https://dc.lft.to/lastmile_qr_scan"}, "type": "electric_scooter", "name": "8914921eed6561e9c62705c4f0f5500f", "is_reserved": 0, "lon": -77.03856066666667, "is_disabled": 0, "fusion_lat": 0.0, "lat": 38.910903833333336, "bike_id": "8914921eed6561e9c62705c4f0f5500f", "fusion_lon": 0.0}, {"rental_uris": {"ios": "https://dc.lft.to/lastmile_qr_scan", "android": "https://dc.lft.to/lastmile_qr_scan"}, "type": "electric_scooter", "name": "1bb37ed9a4f3369bfdc2f3e05385b0db", "is_reserved": 0, "lon": -76.97549066666667, "is_disabled": 0, "fusion_lat": 0.0, "lat": 38.875790333333335, "bike_id": "1bb37ed9a4f3369bfdc2f3e05385b0db", "fusion_lon": 0.0}, {"rental_uris": {"ios": "https://dc.lft.to/lastmile_qr_scan", "android": "https://dc.lft.to/lastmile_qr_scan"}, "type": "electric_scooter", "name": "8423499fdfd9a5aaf606a9f93d5e78a8", "is_reserved": 0, "lon": -77.02826716666667, "is_disabled": 0, "fusion_lat": 0.0, "lat": 38.893592166666664, "bike_id": "8423499fdfd9a5aaf606a9f93d5e78a8", "fusion_lon": 0.0}, {"rental_uris": {"ios": "https://dc.lft.to/lastmile_qr_scan", "android": "https://dc.lft.to/lastmile_qr_scan"}, "type": "electric_scooter", "name": "b56c851fa1cb1cfa591e6fa65ba05315", "is_reserved": 0, "lon": -77.02255583333333, "is_disabled": 0, "fusion_lat": 0.0, "lat": 38.893626, "bike_id": "b56c851fa1cb1cfa591e6fa65ba05315", "fusion_lon": 0.0}, {"rental_uris": {"ios": "https://dc.lft.to/lastmile_qr_scan", "android": "https://dc.lft.to/lastmile_qr_scan"}, "type": "electric_bike", "name": "3cc51ea2d6e6391314f7688bcb5066ec", "is_reserved": 0, "lon": -77.00404366666666, "is_disabled": 0, "fusion_lat": 0.0, "lat": 38.92118716666667, "bike_id": "3cc51ea2d6e6391314f7688bcb5066ec", "fusion_lon": 0.0}, {"rental_uris": {"ios": "https://dc.lft.to/lastmile_qr_scan", "android": "https://dc.lft.to/lastmile_qr_scan"}, "type": "electric_scooter", "name": "de1c795a6fed87aa28f4245c52ff38f0", "is_reserved": 0, "lon": -76.990261, "is_disabled": 0, "fusion_lat": 0.0, "lat": 38.891304833333336, "bike_id": "de1c795a6fed87aa28f4245c52ff38f0", "fusion_lon": 0.0}, {"rental_uris": {"ios": "https://dc.lft.to/lastmile_qr_scan", "android": "https://dc.lft.to/lastmile_qr_scan"}, "type": "electric_scooter", "name": "d6696d0fc93a1d13552fe7eb561117a3", "is_reserved": 0, "lon": -77.00478666666666, "is_disabled": 0, "fusion_lat": 0.0, "lat": 38.874540333333336, "bike_id": "d6696d0fc93a1d13552fe7eb561117a3", "fusion_lon": 0.0}, {"rental_uris": {"ios": "https://dc.lft.to/lastmile_qr_scan", "android": "https://dc.lft.to/lastmile_qr_scan"}, "type": "electric_bike", "name": "5179518475e29cf0ee8a63a5e7596185", "is_reserved": 0, "lon": -77.0242265, "is_disabled": 0, "fusion_lat": 0.0, "lat": 38.94909216666667, "bike_id": "5179518475e29cf0ee8a63a5e7596185", "fusion_lon": 0.0}, {"rental_uris": {"ios": "https://dc.lft.to/lastmile_qr_scan", "android": "https://dc.lft.to/lastmile_qr_scan"}, "type": "electric_scooter", "name": "6ddf3435d6fc7e02593b46edc92e5a49", "is_reserved": 0, "lon": -77.03683316666667, "is_disabled": 0, "fusion_lat": 0.0, "lat": 38.939262166666666, "bike_id": "6ddf3435d6fc7e02593b46edc92e5a49", "fusion_lon": 0.0}, {"rental_uris": {"ios": "https://dc.lft.to/lastmile_qr_scan", "android": "https://dc.lft.to/lastmile_qr_scan"}, "type": "electric_bike", "name": "ed1a96ed4f81a8ff644965dec30d7972", "is_reserved": 0, "lon": -76.98059833333333, "is_disabled": 0, "fusion_lat": 0.0, "lat": 38.97248416666667, "bike_id": "ed1a96ed4f81a8ff644965dec30d7972", "fusion_lon": 0.0}, {"rental_uris": {"ios": "https://dc.lft.to/lastmile_qr_scan", "android": "https://dc.lft.to/lastmile_qr_scan"}, "type": "electric_scooter", "name": "d080d05260609315e6c8a30a21482431", "is_reserved": 0, "lon": -77.00726933333333, "is_disabled": 0, "fusion_lat": 0.0, "lat": 38.905480833333336, "bike_id": "d080d05260609315e6c8a30a21482431", "fusion_lon": 0.0}, {"rental_uris": {"ios": "https://dc.lft.to/lastmile_qr_scan", "android": "https://dc.lft.to/lastmile_qr_scan"}, "type": "electric_scooter", "name": "3c0fe5db7aca33a48383e54af89f8617", "is_reserved": 0, "lon": -77.03977533333334, "is_disabled": 0, "fusion_lat": 0.0, "lat": 38.89223833333333, "bike_id": "3c0fe5db7aca33a48383e54af89f8617", "fusion_lon": 0.0}, {"rental_uris": {"ios": "https://dc.lft.to/lastmile_qr_scan", "android": "https://dc.lft.to/lastmile_qr_scan"}, "type": "electric_scooter", "name": "1079bcfa650e2bbd566911fcd21b8262", "is_reserved": 0, "lon": -77.03989483333334, "is_disabled": 0, "fusion_lat": 0.0, "lat": 38.933980166666665, "bike_id": "1079bcfa650e2bbd566911fcd21b8262", "fusion_lon": 0.0}, {"rental_uris": {"ios": "https://dc.lft.to/lastmile_qr_scan", "android": "https://dc.lft.to/lastmile_qr_scan"}, "type": "electric_scooter", "name": "e838e935918dedffff680f28443f0a3b", "is_reserved": 0, "lon": -77.08175983333334, "is_disabled": 0, "fusion_lat": 0.0, "lat": 38.89125516666667, "bike_id": "e838e935918dedffff680f28443f0a3b", "fusion_lon": 0.0}, {"rental_uris": {"ios": "https://dc.lft.to/lastmile_qr_scan", "android": "https://dc.lft.to/lastmile_qr_scan"}, "type": "electric_scooter", "name": "1b2efcf2f39c39608b2dcb26b9fe433a", "is_reserved": 0, "lon": -77.00281433333333, "is_disabled": 0, "fusion_lat": 0.0, "lat": 38.84612583333333, "bike_id": "1b2efcf2f39c39608b2dcb26b9fe433a", "fusion_lon": 0.0}, {"rental_uris": {"ios": "https://dc.lft.to/lastmile_qr_scan", "android": "https://dc.lft.to/lastmile_qr_scan"}, "type": "electric_scooter", "name": "039ce21230973528cb0c5f8fb379b646", "is_reserved": 0, "lon": -77.02302766666666, "is_disabled": 0, "fusion_lat": 0.0, "lat": 38.91778033333333, "bike_id": "039ce21230973528cb0c5f8fb379b646", "fusion_lon": 0.0}, {"rental_uris": {"ios": "https://dc.lft.to/lastmile_qr_scan", "android": "https://dc.lft.to/lastmile_qr_scan"}, "type": "electric_scooter", "name": "9ba9dabd6422f97d3671a9a402368a72", "is_reserved": 0, "lon": -77.018334, "is_disabled": 0, "fusion_lat": 0.0, "lat": 38.921555, "bike_id": "9ba9dabd6422f97d3671a9a402368a72", "fusion_lon": 0.0}, {"rental_uris": {"ios": "https://dc.lft.to/lastmile_qr_scan", "android": "https://dc.lft.to/lastmile_qr_scan"}, "type": "electric_scooter", "name": "b6e510fc0b88e4955c90da40a86d47d7", "is_reserved": 0, "lon": -77.03286533333333, "is_disabled": 0, "fusion_lat": 0.0, "lat": 38.947005, "bike_id": "b6e510fc0b88e4955c90da40a86d47d7", "fusion_lon": 0.0}, {"rental_uris": {"ios": "https://dc.lft.to/lastmile_qr_scan", "android": "https://dc.lft.to/lastmile_qr_scan"}, "type": "electric_bike", "name": "60a2f5153f09e70c9200c9711b955f25", "is_reserved": 0, "lon": -77.040791, "is_disabled": 0, "fusion_lat": 0.0, "lat": 38.83061716666667, "bike_id": "60a2f5153f09e70c9200c9711b955f25", "fusion_lon": 0.0}, {"rental_uris": {"ios": "https://dc.lft.to/lastmile_qr_scan", "android": "https://dc.lft.to/lastmile_qr_scan"}, "type": "electric_scooter", "name": "56bd8ee0e3857586612ad4f17d1df45c", "is_reserved": 0, "lon": -76.99290216666667, "is_disabled": 0, "fusion_lat": 0.0, "lat": 38.90258883333333, "bike_id": "56bd8ee0e3857586612ad4f17d1df45c", "fusion_lon": 0.0}, {"rental_uris": {"ios": "https://dc.lft.to/lastmile_qr_scan", "android": "https://dc.lft.to/lastmile_qr_scan"}, "type": "electric_scooter", "name": "a85f1aefee4522e3b68345912ed1d213", "is_reserved": 0, "lon": -77.0033485, "is_disabled": 0, "fusion_lat": 0.0, "lat": 38.877335, "bike_id": "a85f1aefee4522e3b68345912ed1d213", "fusion_lon": 0.0}, {"rental_uris": {"ios": "https://dc.lft.to/lastmile_qr_scan", "android": "https://dc.lft.to/lastmile_qr_scan"}, "type": "electric_scooter", "name": "db9254e47e7c048e911ebde550dcbc31", "is_reserved": 0, "lon": -77.02165866666667, "is_disabled": 0, "fusion_lat": 0.0, "lat": 38.919943833333335, "bike_id": "db9254e47e7c048e911ebde550dcbc31", "fusion_lon": 0.0}, {"rental_uris": {"ios": "https://dc.lft.to/lastmile_qr_scan", "android": "https://dc.lft.to/lastmile_qr_scan"}, "type": "electric_scooter", "name": "43847b79dc2cbffc246c1356c540ce6c", "is_reserved": 0, "lon": -77.02146233333333, "is_disabled": 0, "fusion_lat": 0.0, "lat": 38.92552933333333, "bike_id": "43847b79dc2cbffc246c1356c540ce6c", "fusion_lon": 0.0}, {"rental_uris": {"ios": "https://dc.lft.to/lastmile_qr_scan", "android": "https://dc.lft.to/lastmile_qr_scan"}, "type": "electric_scooter", "name": "98758aa5378f9091ff69ca519178283e", "is_reserved": 0, "lon": -77.02386816666667, "is_disabled": 0, "fusion_lat": 0.0, "lat": 38.916762, "bike_id": "98758aa5378f9091ff69ca519178283e", "fusion_lon": 0.0}, {"rental_uris": {"ios": "https://dc.lft.to/lastmile_qr_scan", "android": "https://dc.lft.to/lastmile_qr_scan"}, "type": "electric_scooter", "name": "692eae1c2aaade1602aea64ce7af0134", "is_reserved": 0, "lon": -77.05811683333333, "is_disabled": 0, "fusion_lat": 0.0, "lat": 38.92901116666667, "bike_id": "692eae1c2aaade1602aea64ce7af0134", "fusion_lon": 0.0}, {"rental_uris": {"ios": "https://dc.lft.to/lastmile_qr_scan", "android": "https://dc.lft.to/lastmile_qr_scan"}, "type": "electric_scooter", "name": "fe8d0d056762ca68b4c7296ceae9288e", "is_reserved": 0, "lon": -77.01774683333333, "is_disabled": 0, "fusion_lat": 0.0, "lat": 38.900327, "bike_id": "fe8d0d056762ca68b4c7296ceae9288e", "fusion_lon": 0.0}, {"rental_uris": {"ios": "https://dc.lft.to/lastmile_qr_scan", "android": "https://dc.lft.to/lastmile_qr_scan"}, "type": "electric_scooter", "name": "5a3932e4fa5c68e202a84a3bc8f79767", "is_reserved": 0, "lon": -77.03967933333334, "is_disabled": 0, "fusion_lat": 0.0, "lat": 38.9023835, "bike_id": "5a3932e4fa5c68e202a84a3bc8f79767", "fusion_lon": 0.0}, {"rental_uris": {"ios": "https://dc.lft.to/lastmile_qr_scan", "android": "https://dc.lft.to/lastmile_qr_scan"}, "type": "electric_scooter", "name": "7fd40d3b08eba13b5e09441d824ccdde", "is_reserved": 0, "lon": -77.018913, "is_disabled": 0, "fusion_lat": 0.0, "lat": 38.89748733333333, "bike_id": "7fd40d3b08eba13b5e09441d824ccdde", "fusion_lon": 0.0}, {"rental_uris": {"ios": "https://dc.lft.to/lastmile_qr_scan", "android": "https://dc.lft.to/lastmile_qr_scan"}, "type": "electric_bike", "name": "96bb7b03981c753a86da2ac695e032f7", "is_reserved": 0, "lon": -76.99628, "is_disabled": 0, "fusion_lat": 0.0, "lat": 38.9284945, "bike_id": "96bb7b03981c753a86da2ac695e032f7", "fusion_lon": 0.0}, {"rental_uris": {"ios": "https://dc.lft.to/lastmile_qr_scan", "android": "https://dc.lft.to/lastmile_qr_scan"}, "type": "electric_scooter", "name": "ef24f1d0356e1c8d99fae1f1ca6ec985", "is_reserved": 0, "lon": -77.0059345, "is_disabled": 0, "fusion_lat": 0.0, "lat": 38.87561933333333, "bike_id": "ef24f1d0356e1c8d99fae1f1ca6ec985", "fusion_lon": 0.0}, {"rental_uris": {"ios": "https://dc.lft.to/lastmile_qr_scan", "android": "https://dc.lft.to/lastmile_qr_scan"}, "type": "electric_scooter", "name": "741809fbf68400caf4be22bf7bba7f86", "is_reserved": 0, "lon": -77.01763433333333, "is_disabled": 0, "fusion_lat": 0.0, "lat": 38.87685583333333, "bike_id": "741809fbf68400caf4be22bf7bba7f86", "fusion_lon": 0.0}, {"rental_uris": {"ios": "https://dc.lft.to/lastmile_qr_scan", "android": "https://dc.lft.to/lastmile_qr_scan"}, "type": "electric_scooter", "name": "a247439015f9f9cbfc08a50f7d81f5ac", "is_reserved": 0, "lon": -77.04781616666666, "is_disabled": 0, "fusion_lat": 0.0, "lat": 38.90859283333333, "bike_id": "a247439015f9f9cbfc08a50f7d81f5ac", "fusion_lon": 0.0}, {"rental_uris": {"ios": "https://dc.lft.to/lastmile_qr_scan", "android": "https://dc.lft.to/lastmile_qr_scan"}, "type": "electric_scooter", "name": "71b31ec1697f2a62fce678cac7519b00", "is_reserved": 0, "lon": -77.02758616666667, "is_disabled": 0, "fusion_lat": 0.0, "lat": 38.95777533333333, "bike_id": "71b31ec1697f2a62fce678cac7519b00", "fusion_lon": 0.0}, {"rental_uris": {"ios": "https://dc.lft.to/lastmile_qr_scan", "android": "https://dc.lft.to/lastmile_qr_scan"}, "type": "electric_scooter", "name": "d3fe3b58c4cc8db73a91038c7f4b4b9b", "is_reserved": 0, "lon": -77.040586, "is_disabled": 0, "fusion_lat": 0.0, "lat": 38.917634166666666, "bike_id": "d3fe3b58c4cc8db73a91038c7f4b4b9b", "fusion_lon": 0.0}, {"rental_uris": {"ios": "https://dc.lft.to/lastmile_qr_scan", "android": "https://dc.lft.to/lastmile_qr_scan"}, "type": "electric_scooter", "name": "8c9fcaa9802bca0889a49342e4870aed", "is_reserved": 0, "lon": -77.036318, "is_disabled": 0, "fusion_lat": 0.0, "lat": 38.903610666666665, "bike_id": "8c9fcaa9802bca0889a49342e4870aed", "fusion_lon": 0.0}, {"rental_uris": {"ios": "https://dc.lft.to/lastmile_qr_scan", "android": "https://dc.lft.to/lastmile_qr_scan"}, "type": "electric_scooter", "name": "82d4e62b2c9082c369da74397514a7ab", "is_reserved": 0, "lon": -76.98536833333333, "is_disabled": 0, "fusion_lat": 0.0, "lat": 38.912879, "bike_id": "82d4e62b2c9082c369da74397514a7ab", "fusion_lon": 0.0}, {"rental_uris": {"ios": "https://dc.lft.to/lastmile_qr_scan", "android": "https://dc.lft.to/lastmile_qr_scan"},