{"data": {"bikes": [{"bike_id": "c02a7f9dc5e60ccef7d47ad3bf962ba3", "type": "electric_scooter", "is_disabled": 0, "lat": 38.927915666666664, "rental_uris": {"ios": "https://dc.lft.to/lastmile_qr_scan", "android": "https://dc.lft.to/lastmile_qr_scan"}, "is_reserved": 0, "fusion_lon": 0.0, "fusion_lat": 0.0, "lon": -77.021335, "name": "c02a7f9dc5e60ccef7d47ad3bf962ba3"}, {"bike_id": "b3abddf0e3c96712e1aabe535887e6e7", "type": "electric_scooter", "is_disabled": 0, "lat": 38.884862166666665, "rental_uris": {"ios": "https://dc.lft.to/lastmile_qr_scan", "android": "https://dc.lft.to/lastmile_qr_scan"}, "is_reserved": 0, "fusion_lon": 0.0, "fusion_lat": 0.0, "lon": -77.01522233333333, "name": "b3abddf0e3c96712e1aabe535887e6e7"}, {"bike_id": "bab3821cb92e40235cd0591ade323ea0", "type": "electric_scooter", "is_disabled": 0, "lat": 38.862155, "rental_uris": {"ios": "https://dc.lft.to/lastmile_qr_scan", "android": "https://dc.lft.to/lastmile_qr_scan"}, "is_reserved": 0, "fusion_lon": 0.0, "fusion_lat": 0.0, "lon": -76.99483883333333, "name": "bab3821cb92e40235cd0591ade323ea0"}, {"bike_id": "7fa00f152c1ee9825e7eaf3f901b813d", "type": "electric_scooter", "is_disabled": 0, "lat": 38.93122366666667, "rental_uris": {"ios": "https://dc.lft.to/lastmile_qr_scan", "android": "https://dc.lft.to/lastmile_qr_scan"}, "is_reserved": 0, "fusion_lon": 0.0, "fusion_lat": 0.0, "lon": -77.02070566666667, "name": "7fa00f152c1ee9825e7eaf3f901b813d"}, {"bike_id": "b7971e91a0a4ed4f2fbedb10cb48945b", "type": "electric_scooter", "is_disabled": 0, "lat": 38.90428816666667, "rental_uris": {"ios": "https://dc.lft.to/lastmile_qr_scan", "android": "https://dc.lft.to/lastmile_qr_scan"}, "is_reserved": 0, "fusion_lon": 0.0, "fusion_lat": 0.0, "lon": -77.05329933333333, "name": "b7971e91a0a4ed4f2fbedb10cb48945b"}, {"bike_id": "63ed1889fd0f037d1d5e6f2ae5631cec", "type": "electric_scooter", "is_disabled": 0, "lat": 38.91684583333333, "rental_uris": {"ios": "https://dc.lft.to/lastmile_qr_scan", "android": "https://dc.lft.to/lastmile_qr_scan"}, "is_reserved": 0, "fusion_lon": 0.0, "fusion_lat": 0.0, "lon": -77.02963316666667, "name": "63ed1889fd0f037d1d5e6f2ae5631cec"}, {"bike_id": "2add6c3fe159307784ba73e7ea3340b9", "type": "electric_scooter", "is_disabled": 0, "lat": 38.90266316666667, "rental_uris": {"ios": "https://dc.lft.to/lastmile_qr_scan", "android": "https://dc.lft.to/lastmile_qr_scan"}, "is_reserved": 0, "fusion_lon": 0.0, "fusion_lat": 0.0, "lon": -77.01966433333334, "name": "2add6c3fe159307784ba73e7ea3340b9"}, {"bike_id": "58614acf1094abf15782be603f635b4e", "type": "electric_scooter", "is_disabled": 0, "lat": 38.9166675, "rental_uris": {"ios": "https://dc.lft.to/lastmile_qr_scan", "android": "https://dc.lft.to/lastmile_qr_scan"}, "is_reserved": 0, "fusion_lon": 0.0, "fusion_lat": 0.0, "lon": -77.038535, "name": "58614acf1094abf15782be603f635b4e"}, {"bike_id": "6fbdfc34e8efb8126ba1bc96c9206833", "type": "electric_scooter", "is_disabled": 0, "lat": 38.95685133333333, "rental_uris": {"ios": "https://dc.lft.to/lastmile_qr_scan", "android": "https://dc.lft.to/lastmile_qr_scan"}, "is_reserved": 0, "fusion_lon": 0.0, "fusion_lat": 0.0, "lon": -77.0239815, "name": "6fbdfc34e8efb8126ba1bc96c9206833"}, {"bike_id": "44d96d81a0795b339b63275c7c4ffe3a", "type": "electric_scooter", "is_disabled": 0, "lat": 38.9206145, "rental_uris": {"ios": "https://dc.lft.to/lastmile_qr_scan", "android": "https://dc.lft.to/lastmile_qr_scan"}, "is_reserved": 0, "fusion_lon": 0.0, "fusion_lat": 0.0, "lon": -77.03467716666667, "name": "44d96d81a0795b339b63275c7c4ffe3a"}, {"bike_id": "da17873043d03d4f2cede0f1c89fffd6", "type": "electric_scooter", "is_disabled": 0, "lat": 38.907238, "rental_uris": {"ios": "https://dc.lft.to/lastmile_qr_scan", "android": "https://dc.lft.to/lastmile_qr_scan"}, "is_reserved": 0, "fusion_lon": 0.0, "fusion_lat": 0.0, "lon": -77.05325383333333, "name": "da17873043d03d4f2cede0f1c89fffd6"}, {"bike_id": "b2b41db26638529b443844fc82beec60", "type": "electric_scooter", "is_disabled": 0, "lat": 38.9161735, "rental_uris": {"ios": "https://dc.lft.to/lastmile_qr_scan", "android": "https://dc.lft.to/lastmile_qr_scan"}, "is_reserved": 0, "fusion_lon": 0.0, "fusion_lat": 0.0, "lon": -77.0319205, "name": "b2b41db26638529b443844fc82beec60"}, {"bike_id": "44d44849ee85c9a88b02c4d701f5563b", "type": "electric_scooter", "is_disabled": 0, "lat": 38.91107383333333, "rental_uris": {"ios": "https://dc.lft.to/lastmile_qr_scan", "android": "https://dc.lft.to/lastmile_qr_scan"}, "is_reserved": 0, "fusion_lon": 0.0, "fusion_lat": 0.0, "lon": -77.04478266666666, "name": "44d44849ee85c9a88b02c4d701f5563b"}, {"bike_id": "3284c948e44afac54d420697b4c9e493", "type": "electric_scooter", "is_disabled": 0, "lat": 38.8624675, "rental_uris": {"ios": "https://dc.lft.to/lastmile_qr_scan", "android": "https://dc.lft.to/lastmile_qr_scan"}, "is_reserved": 0, "fusion_lon": 0.0, "fusion_lat": 0.0, "lon": -76.99502833333334, "name": "3284c948e44afac54d420697b4c9e493"}, {"bike_id": "ee21127d0d2f9aab97ca2536dc8bd78b", "type": "electric_scooter", "is_disabled": 0, "lat": 38.98431033333333, "rental_uris": {"ios": "https://dc.lft.to/lastmile_qr_scan", "android": "https://dc.lft.to/lastmile_qr_scan"}, "is_reserved": 0, "fusion_lon": 0.0, "fusion_lat": 0.0, "lon": -77.02673266666666, "name": "ee21127d0d2f9aab97ca2536dc8bd78b"}, {"bike_id": "bac0cc9802a854a8893646d4004173fa", "type": "electric_scooter", "is_disabled": 0, "lat": 38.903943166666664, "rental_uris": {"ios": "https://dc.lft.to/lastmile_qr_scan", "android": "https://dc.lft.to/lastmile_qr_scan"}, "is_reserved": 0, "fusion_lon": 0.0, "fusion_lat": 0.0, "lon": -76.98942916666667, "name": "bac0cc9802a854a8893646d4004173fa"}, {"bike_id": "8777002c1a2dc83e8a266a83ff7450d8", "type": "electric_scooter", "is_disabled": 0, "lat": 38.91913533333334, "rental_uris": {"ios": "https://dc.lft.to/lastmile_qr_scan", "android": "https://dc.lft.to/lastmile_qr_scan"}, "is_reserved": 0, "fusion_lon": 0.0, "fusion_lat": 0.0, "lon": -77.044648, "name": "8777002c1a2dc83e8a266a83ff7450d8"}, {"bike_id": "7bed7c41cc100c2ceedfad324f9d2444", "type": "electric_scooter", "is_disabled": 0, "lat": 38.957807333333335, "rental_uris": {"ios": "https://dc.lft.to/lastmile_qr_scan", "android": "https://dc.lft.to/lastmile_qr_scan"}, "is_reserved": 0, "fusion_lon": 0.0, "fusion_lat": 0.0, "lon": -77.01988166666666, "name": "7bed7c41cc100c2ceedfad324f9d2444"}, {"bike_id": "5c162935ba638845162e6ca3f742964b", "type": "electric_scooter", "is_disabled": 0, "lat": 38.900419166666666, "rental_uris": {"ios": "https://dc.lft.to/lastmile_qr_scan", "android": "https://dc.lft.to/lastmile_qr_scan"}, "is_reserved": 0, "fusion_lon": 0.0, "fusion_lat": 0.0, "lon": -77.01782316666667, "name": "5c162935ba638845162e6ca3f742964b"}, {"bike_id": "7cba613e2c9f065e0ff96a2055fb5b5a", "type": "electric_scooter", "is_disabled": 0, "lat": 38.96190683333333, "rental_uris": {"ios": "https://dc.lft.to/lastmile_qr_scan", "android": "https://dc.lft.to/lastmile_qr_scan"}, "is_reserved": 0, "fusion_lon": 0.0, "fusion_lat": 0.0, "lon": -77.02794183333333, "name": "7cba613e2c9f065e0ff96a2055fb5b5a"}, {"bike_id": "7e40e85bfb31b2aa71b07429ba37c477", "type": "electric_scooter", "is_disabled": 0, "lat": 38.919120666666664, "rental_uris": {"ios": "https://dc.lft.to/lastmile_qr_scan", "android": "https://dc.lft.to/lastmile_qr_scan"}, "is_reserved": 0, "fusion_lon": 0.0, "fusion_lat": 0.0, "lon": -77.02943483333334, "name": "7e40e85bfb31b2aa71b07429ba37c477"}, {"bike_id": "1c5735ae2afc541f564225fc49b74535", "type": "electric_bike", "is_disabled": 0, "lat": 38.932371, "rental_uris": {"ios": "https://dc.lft.to/lastmile_qr_scan", "android": "https://dc.lft.to/lastmile_qr_scan"}, "is_reserved": 0, "fusion_lon": 0.0, "fusion_lat": 0.0, "lon": -76.97425033333333, "name": "1c5735ae2afc541f564225fc49b74535"}, {"bike_id": "c8549d99f477fb203c6c625928354f36", "type": "electric_scooter", "is_disabled": 0, "lat": 38.906482833333335, "rental_uris": {"ios": "https://dc.lft.to/lastmile_qr_scan", "android": "https://dc.lft.to/lastmile_qr_scan"}, "is_reserved": 0, "fusion_lon": 0.0, "fusion_lat": 0.0, "lon": -77.01460033333333, "name": "c8549d99f477fb203c6c625928354f36"}, {"bike_id": "a5f172ec4f2663f257a36152f6e400e9", "type": "electric_scooter", "is_disabled": 0, "lat": 38.900676, "rental_uris": {"ios": "https://dc.lft.to/lastmile_qr_scan", "android": "https://dc.lft.to/lastmile_qr_scan"}, "is_reserved": 0, "fusion_lon": 0.0, "fusion_lat": 0.0, "lon": -77.03523233333334, "name": "a5f172ec4f2663f257a36152f6e400e9"}, {"bike_id": "716908caab4cdd89e6f2a762f57e2d25", "type": "electric_scooter", "is_disabled": 0, "lat": 38.90667966666667, "rental_uris": {"ios": "https://dc.lft.to/lastmile_qr_scan", "android": "https://dc.lft.to/lastmile_qr_scan"}, "is_reserved": 0, "fusion_lon": 0.0, "fusion_lat": 0.0, "lon": -77.07183383333333, "name": "716908caab4cdd89e6f2a762f57e2d25"}, {"bike_id": "893bb0ec2e0878774935a30f196635eb", "type": "electric_scooter", "is_disabled": 0, "lat": 38.927050333333334, "rental_uris": {"ios": "https://dc.lft.to/lastmile_qr_scan", "android": "https://dc.lft.to/lastmile_qr_scan"}, "is_reserved": 0, "fusion_lon": 0.0, "fusion_lat": 0.0, "lon": -77.0232825, "name": "893bb0ec2e0878774935a30f196635eb"}, {"bike_id": "420e64432e6543e4b522da381698bd1b", "type": "electric_scooter", "is_disabled": 0, "lat": 38.90332033333333, "rental_uris": {"ios": "https://dc.lft.to/lastmile_qr_scan", "android": "https://dc.lft.to/lastmile_qr_scan"}, "is_reserved": 0, "fusion_lon": 0.0, "fusion_lat": 0.0, "lon": -77.06926233333333, "name": "420e64432e6543e4b522da381698bd1b"}, {"bike_id": "f0124491156303d27800046c1a2e83d3", "type": "electric_scooter", "is_disabled": 0, "lat": 38.90742216666666, "rental_uris": {"ios": "https://dc.lft.to/lastmile_qr_scan", "android": "https://dc.lft.to/lastmile_qr_scan"}, "is_reserved": 0, "fusion_lon": 0.0, "fusion_lat": 0.0, "lon": -77.02960333333333, "name": "f0124491156303d27800046c1a2e83d3"}, {"bike_id": "0a5cdc084fef9a1c19e97c16b79e4aa4", "type": "electric_scooter", "is_disabled": 0, "lat": 38.90022283333333, "rental_uris": {"ios": "https://dc.lft.to/lastmile_qr_scan", "android": "https://dc.lft.to/lastmile_qr_scan"}, "is_reserved": 0, "fusion_lon": 0.0, "fusion_lat": 0.0, "lon": -77.0218935, "name": "0a5cdc084fef9a1c19e97c16b79e4aa4"}, {"bike_id": "f9f1b99b2097f7af80d4077d0fe2efe9", "type": "electric_scooter", "is_disabled": 0, "lat": 38.928790166666666, "rental_uris": {"ios": "https://dc.lft.to/lastmile_qr_scan", "android": "https://dc.lft.to/lastmile_qr_scan"}, "is_reserved": 0, "fusion_lon": 0.0, "fusion_lat": 0.0, "lon": -77.032389, "name": "f9f1b99b2097f7af80d4077d0fe2efe9"}, {"bike_id": "aeada51bb2f4764c659161dbc162e7fe", "type": "electric_scooter", "is_disabled": 0, "lat": 38.92576616666667, "rental_uris": {"ios": "https://dc.lft.to/lastmile_qr_scan", "android": "https://dc.lft.to/lastmile_qr_scan"}, "is_reserved": 0, "fusion_lon": 0.0, "fusion_lat": 0.0, "lon": -77.02759583333334, "name": "aeada51bb2f4764c659161dbc162e7fe"}, {"bike_id": "058c86475b98f0004618b6e635687206", "type": "electric_scooter", "is_disabled": 0, "lat": 38.917034666666666, "rental_uris": {"ios": "https://dc.lft.to/lastmile_qr_scan", "android": "https://dc.lft.to/lastmile_qr_scan"}, "is_reserved": 0, "fusion_lon": 0.0, "fusion_lat": 0.0, "lon": -77.0079725, "name": "058c86475b98f0004618b6e635687206"}, {"bike_id": "02e136276716558ebd32ca182cf62ce4", "type": "electric_scooter", "is_disabled": 0, "lat": 38.9060085, "rental_uris": {"ios": "https://dc.lft.to/lastmile_qr_scan", "android": "https://dc.lft.to/lastmile_qr_scan"}, "is_reserved": 0, "fusion_lon": 0.0, "fusion_lat": 0.0, "lon": -77.06291416666667, "name": "02e136276716558ebd32ca182cf62ce4"}, {"bike_id": "3eae8419d054cf368b4be07798f482aa", "type": "electric_scooter", "is_disabled": 0, "lat": 38.922619833333336, "rental_uris": {"ios": "https://dc.lft.to/lastmile_qr_scan", "android": "https://dc.lft.to/lastmile_qr_scan"}, "is_reserved": 0, "fusion_lon": 0.0, "fusion_lat": 0.0, "lon": -77.0326265, "name": "3eae8419d054cf368b4be07798f482aa"}, {"bike_id": "1cbf519d3ceb1ef5f893c39ceb6b40ee", "type": "electric_scooter", "is_disabled": 0, "lat": 38.9265845, "rental_uris": {"ios": "https://dc.lft.to/lastmile_qr_scan", "android": "https://dc.lft.to/lastmile_qr_scan"}, "is_reserved": 0, "fusion_lon": 0.0, "fusion_lat": 0.0, "lon": -77.03728233333334, "name": "1cbf519d3ceb1ef5f893c39ceb6b40ee"}, {"bike_id": "f4a378b1920133eaeeaff5ce224ca70a", "type": "electric_scooter", "is_disabled": 0, "lat": 38.91416683333333, "rental_uris": {"ios": "https://dc.lft.to/lastmile_qr_scan", "android": "https://dc.lft.to/lastmile_qr_scan"}, "is_reserved": 0, "fusion_lon": 0.0, "fusion_lat": 0.0, "lon": -77.0225205, "name": "f4a378b1920133eaeeaff5ce224ca70a"}, {"bike_id": "a8c3eadcaf7c5fa5154c965a4ac121ca", "type": "electric_scooter", "is_disabled": 0, "lat": 38.90531566666667, "rental_uris": {"ios": "https://dc.lft.to/lastmile_qr_scan", "android": "https://dc.lft.to/lastmile_qr_scan"}, "is_reserved": 0, "fusion_lon": 0.0, "fusion_lat": 0.0, "lon": -77.041811, "name": "a8c3eadcaf7c5fa5154c965a4ac121ca"}, {"bike_id": "4019461bd38863bc9fca3b7e978d806a", "type": "electric_scooter", "is_disabled": 0, "lat": 38.91175766666667, "rental_uris": {"ios": "https://dc.lft.to/lastmile_qr_scan", "android": "https://dc.lft.to/lastmile_qr_scan"}, "is_reserved": 0, "fusion_lon": 0.0, "fusion_lat": 0.0, "lon": -77.04550216666667, "name": "4019461bd38863bc9fca3b7e978d806a"}, {"bike_id": "fa8809251464ec7042987de217d16fc4", "type": "electric_scooter", "is_disabled": 0, "lat": 38.90012483333334, "rental_uris": {"ios": "https://dc.lft.to/lastmile_qr_scan", "android": "https://dc.lft.to/lastmile_qr_scan"}, "is_reserved": 0, "fusion_lon": 0.0, "fusion_lat": 0.0, "lon": -77.044929, "name": "fa8809251464ec7042987de217d16fc4"}, {"bike_id": "b548c750db3d77cbc16e471f0de4f9ab", "type": "electric_scooter", "is_disabled": 0, "lat": 38.92348466666667, "rental_uris": {"ios": "https://dc.lft.to/lastmile_qr_scan", "android": "https://dc.lft.to/lastmile_qr_scan"}, "is_reserved": 0, "fusion_lon": 0.0, "fusion_lat": 0.0, "lon": -77.0415055, "name": "b548c750db3d77cbc16e471f0de4f9ab"}, {"bike_id": "0cb2d7a240bba0761d093afaa228482a", "type": "electric_scooter", "is_disabled": 0, "lat": 38.9041185, "rental_uris": {"ios": "https://dc.lft.to/lastmile_qr_scan", "android": "https://dc.lft.to/lastmile_qr_scan"}, "is_reserved": 0, "fusion_lon": 0.0, "fusion_lat": 0.0, "lon": -77.00589616666667, "name": "0cb2d7a240bba0761d093afaa228482a"}, {"bike_id": "7780b4d8157a1d3f8a86d6ce4b6a72d7", "type": "electric_scooter", "is_disabled": 0, "lat": 38.90945716666667, "rental_uris": {"ios": "https://dc.lft.to/lastmile_qr_scan", "android": "https://dc.lft.to/lastmile_qr_scan"}, "is_reserved": 0, "fusion_lon": 0.0, "fusion_lat": 0.0, "lon": -77.0344215, "name": "7780b4d8157a1d3f8a86d6ce4b6a72d7"}, {"bike_id": "c7b7b418eaaf90a54681aee9de1d0d94", "type": "electric_scooter", "is_disabled": 0, "lat": 38.90513816666667, "rental_uris": {"ios": "https://dc.lft.to/lastmile_qr_scan", "android": "https://dc.lft.to/lastmile_qr_scan"}, "is_reserved": 0, "fusion_lon": 0.0, "fusion_lat": 0.0, "lon": -77.06201133333333, "name": "c7b7b418eaaf90a54681aee9de1d0d94"}, {"bike_id": "ad641152373b24a656e1005352f5fbe7", "type": "electric_scooter", "is_disabled": 0, "lat": 38.920048666666666, "rental_uris": {"ios": "https://dc.lft.to/lastmile_qr_scan", "android": "https://dc.lft.to/lastmile_qr_scan"}, "is_reserved": 0, "fusion_lon": 0.0, "fusion_lat": 0.0, "lon": -77.03162616666667, "name": "ad641152373b24a656e1005352f5fbe7"}, {"bike_id": "61bbc4bb693ebdff94ab876cde8bc841", "type": "electric_scooter", "is_disabled": 0, "lat": 38.89874666666667, "rental_uris": {"ios": "https://dc.lft.to/lastmile_qr_scan", "android": "https://dc.lft.to/lastmile_qr_scan"}, "is_reserved": 0, "fusion_lon": 0.0, "fusion_lat": 0.0, "lon": -76.9318355, "name": "61bbc4bb693ebdff94ab876cde8bc841"}, {"bike_id": "b799285719ae5ba05b9a3da6888967b4", "type": "electric_scooter", "is_disabled": 0, "lat": 38.9310055, "rental_uris": {"ios": "https://dc.lft.to/lastmile_qr_scan", "android": "https://dc.lft.to/lastmile_qr_scan"}, "is_reserved": 0, "fusion_lon": 0.0, "fusion_lat": 0.0, "lon": -77.02669233333333, "name": "b799285719ae5ba05b9a3da6888967b4"}, {"bike_id": "d20b7df670abf1285b2802629fe2cfd1", "type": "electric_scooter", "is_disabled": 0, "lat": 38.91798216666667, "rental_uris": {"ios": "https://dc.lft.to/lastmile_qr_scan", "android": "https://dc.lft.to/lastmile_qr_scan"}, "is_reserved": 0, "fusion_lon": 0.0, "fusion_lat": 0.0, "lon": -77.0344015, "name": "d20b7df670abf1285b2802629fe2cfd1"}, {"bike_id": "7d0ee7b9fbeb011694f3fadac3c532c5", "type": "electric_scooter", "is_disabled": 0, "lat": 38.93728566666667, "rental_uris": {"ios": "https://dc.lft.to/lastmile_qr_scan", "android": "https://dc.lft.to/lastmile_qr_scan"}, "is_reserved": 0, "fusion_lon": 0.0, "fusion_lat": 0.0, "lon": -77.03293183333334, "name": "7d0ee7b9fbeb011694f3fadac3c532c5"}, {"bike_id": "d903fa913307f19a57527f811110492a", "type": "electric_scooter", "is_disabled": 0, "lat": 38.8962005, "rental_uris": {"ios": "https://dc.lft.to/lastmile_qr_scan", "android": "https://dc.lft.to/lastmile_qr_scan"}, "is_reserved": 0, "fusion_lon": 0.0, "fusion_lat": 0.0, "lon": -76.9857, "name": "d903fa913307f19a57527f811110492a"}, {"bike_id": "fb05c8d902c2a66fdd6402c91fffef90", "type": "electric_scooter", "is_disabled": 0, "lat": 38.9012075, "rental_uris": {"ios": "https://dc.lft.to/lastmile_qr_scan", "android": "https://dc.lft.to/lastmile_qr_scan"}, "is_reserved": 0, "fusion_lon": 0.0, "fusion_lat": 0.0, "lon": -77.00855883333334, "name": "fb05c8d902c2a66fdd6402c91fffef90"}, {"bike_id": "2956f15de12c6c5ca153a2ab10e42f0e", "type": "electric_bike", "is_disabled": 0, "lat": 38.861992666666666, "rental_uris": {"ios": "https://dc.lft.to/lastmile_qr_scan", "android": "https://dc.lft.to/lastmile_qr_scan"}, "is_reserved": 0, "fusion_lon": 0.0, "fusion_lat": 0.0, "lon": -76.9480305, "name": "2956f15de12c6c5ca153a2ab10e42f0e"}, {"bike_id": "8b6480a557b7fd10542344c2324eae81", "type": "electric_scooter", "is_disabled": 0, "lat": 38.95094666666667, "rental_uris": {"ios": "https://dc.lft.to/lastmile_qr_scan", "android": "https://dc.lft.to/lastmile_qr_scan"}, "is_reserved": 0, "fusion_lon": 0.0, "fusion_lat": 0.0, "lon": -77.02964466666667, "name": "8b6480a557b7fd10542344c2324eae81"}, {"bike_id": "660bde140a19709a89208c10d84fbf6b", "type": "electric_scooter", "is_disabled": 0, "lat": 38.905536166666664, "rental_uris": {"ios": "https://dc.lft.to/lastmile_qr_scan", "android": "https://dc.lft.to/lastmile_qr_scan"}, "is_reserved": 0, "fusion_lon": 0.0, "fusion_lat": 0.0, "lon": -77.005658, "name": "660bde140a19709a89208c10d84fbf6b"}, {"bike_id": "b406244bf1aef6fe64508580c4aace90", "type": "electric_scooter", "is_disabled": 0, "lat": 38.87711316666667, "rental_uris": {"ios": "https://dc.lft.to/lastmile_qr_scan", "android": "https://dc.lft.to/lastmile_qr_scan"}, "is_reserved": 0, "fusion_lon": 0.0, "fusion_lat": 0.0, "lon": -77.01759916666667, "name": "b406244bf1aef6fe64508580c4aace90"}, {"bike_id": "419277afc801e581f51032bdee8356e5", "type": "electric_scooter", "is_disabled": 0, "lat": 38.88593433333333, "rental_uris": {"ios": "https://dc.lft.to/lastmile_qr_scan", "android": "https://dc.lft.to/lastmile_qr_scan"}, "is_reserved": 0, "fusion_lon": 0.0, "fusion_lat": 0.0, "lon": -77.02844, "name": "419277afc801e581f51032bdee8356e5"}, {"bike_id": "bb4dc1c861687a8602d4e034e6c9f2d2", "type": "electric_scooter", "is_disabled": 0, "lat": 38.844379833333335, "rental_uris": {"ios": "https://dc.lft.to/lastmile_qr_scan", "android": "https://dc.lft.to/lastmile_qr_scan"}, "is_reserved": 0, "fusion_lon": 0.0, "fusion_lat": 0.0, "lon": -76.99779283333334, "name": "bb4dc1c861687a8602d4e034e6c9f2d2"}, {"bike_id": "2c39c32d30d6ab4998e39428c8832b87", "type": "electric_scooter", "is_disabled": 0, "lat": 38.907423333333334, "rental_uris": {"ios": "https://dc.lft.to/lastmile_qr_scan", "android": "https://dc.lft.to/lastmile_qr_scan"}, "is_reserved": 0, "fusion_lon": 0.0, "fusion_lat": 0.0, "lon": -77.063401, "name": "2c39c32d30d6ab4998e39428c8832b87"}, {"bike_id": "94de1bc85353843ff944281ce3b9428c", "type": "electric_scooter", "is_disabled": 0, "lat": 38.9149005, "rental_uris": {"ios": "https://dc.lft.to/lastmile_qr_scan", "android": "https://dc.lft.to/lastmile_qr_scan"}, "is_reserved": 0, "fusion_lon": 0.0, "fusion_lat": 0.0, "lon": -76.98581183333333, "name": "94de1bc85353843ff944281ce3b9428c"}, {"bike_id": "04895d784dd2a6e8e6d905a2d1a1e77e", "type": "electric_scooter", "is_disabled": 0, "lat": 38.925918, "rental_uris": {"ios": "https://dc.lft.to/lastmile_qr_scan", "android": "https://dc.lft.to/lastmile_qr_scan"}, "is_reserved": 0, "fusion_lon": 0.0, "fusion_lat": 0.0, "lon": -77.0083745, "name": "04895d784dd2a6e8e6d905a2d1a1e77e"}, {"bike_id": "539e2a1443c0ba2757c0359394e30906", "type": "electric_scooter", "is_disabled": 0, "lat": 38.90957516666667, "rental_uris": {"ios": "https://dc.lft.to/lastmile_qr_scan", "android": "https://dc.lft.to/lastmile_qr_scan"}, "is_reserved": 0, "fusion_lon": 0.0, "fusion_lat": 0.0, "lon": -77.04050916666667, "name": "539e2a1443c0ba2757c0359394e30906"}, {"bike_id": "b43a7d37ab75a48d278c4d0522513ef2", "type": "electric_scooter", "is_disabled": 0, "lat": 38.90031416666667, "rental_uris": {"ios": "https://dc.lft.to/lastmile_qr_scan", "android": "https://dc.lft.to/lastmile_qr_scan"}, "is_reserved": 0, "fusion_lon": 0.0, "fusion_lat": 0.0, "lon": -76.98061, "name": "b43a7d37ab75a48d278c4d0522513ef2"}, {"bike_id": "80d3d597050fac84dcd49fffc4811cc3", "type": "electric_scooter", "is_disabled": 0, "lat": 38.920559, "rental_uris": {"ios": "https://dc.lft.to/lastmile_qr_scan", "android": "https://dc.lft.to/lastmile_qr_scan"}, "is_reserved": 0, "fusion_lon": 0.0, "fusion_lat": 0.0, "lon": -77.03441516666666, "name": "80d3d597050fac84dcd49fffc4811cc3"}, {"bike_id": "db7a8c7c937bf3a79771b90cd1351595", "type": "electric_scooter", "is_disabled": 0, "lat": 38.93175933333333, "rental_uris": {"ios": "https://dc.lft.to/lastmile_qr_scan", "android": "https://dc.lft.to/lastmile_qr_scan"}, "is_reserved": 0, "fusion_lon": 0.0, "fusion_lat": 0.0, "lon": -77.0430145, "name": "db7a8c7c937bf3a79771b90cd1351595"}, {"bike_id": "4e2f3f3adde742ae3abe48ff368dbd73", "type": "electric_scooter", "is_disabled": 0, "lat": 38.895151, "rental_uris": {"ios": "https://dc.lft.to/lastmile_qr_scan", "android": "https://dc.lft.to/lastmile_qr_scan"}, "is_reserved": 0, "fusion_lon": 0.0, "fusion_lat": 0.0, "lon": -77.011298, "name": "4e2f3f3adde742ae3abe48ff368dbd73"}, {"bike_id": "c506d1ff6562afd29fdb92471a8842d0", "type": "electric_scooter", "is_disabled": 0, "lat": 38.9176445, "rental_uris": {"ios": "https://dc.lft.to/lastmile_qr_scan", "android": "https://dc.lft.to/lastmile_qr_scan"}, "is_reserved": 0, "fusion_lon": 0.0, "fusion_lat": 0.0, "lon": -77.04768483333334, "name": "c506d1ff6562afd29fdb92471a8842d0"}, {"bike_id": "d724ae0b32e6ecb2cbcf7ba4a4dfee4b", "type": "electric_scooter", "is_disabled": 0, "lat": 38.91118916666667, "rental_uris": {"ios": "https://dc.lft.to/lastmile_qr_scan", "android": "https://dc.lft.to/lastmile_qr_scan"}, "is_reserved": 0, "fusion_lon": 0.0, "fusion_lat": 0.0, "lon": -77.04475516666666, "name": "d724ae0b32e6ecb2cbcf7ba4a4dfee4b"}, {"bike_id": "d5f4f7c58b61f4bc1696878b67107a3b", "type": "electric_scooter", "is_disabled": 0, "lat": 38.90813033333333, "rental_uris": {"ios": "https://dc.lft.to/lastmile_qr_scan", "android": "https://dc.lft.to/lastmile_qr_scan"}, "is_reserved": 0, "fusion_lon": 0.0, "fusion_lat": 0.0, "lon": -77.03457633333333, "name": "d5f4f7c58b61f4bc1696878b67107a3b"}, {"bike_id": "2127d841a9e10c3cb9a6eac7a61682c3", "type": "electric_bike", "is_disabled": 0, "lat": 38.87937083333333, "rental_uris": {"ios": "https://dc.lft.to/lastmile_qr_scan", "android": "https://dc.lft.to/lastmile_qr_scan"}, "is_reserved": 0, "fusion_lon": 0.0, "fusion_lat": 0.0, "lon": -76.98082683333334, "name": "2127d841a9e10c3cb9a6eac7a61682c3"}, {"bike_id": "492733fd0bc6ff287fd6a1f6d62c3425", "type": "electric_scooter", "is_disabled": 0, "lat": 38.905054166666666, "rental_uris": {"ios": "https://dc.lft.to/lastmile_qr_scan", "android": "https://dc.lft.to/lastmile_qr_scan"}, "is_reserved": 0, "fusion_lon": 0.0, "fusion_lat": 0.0, "lon": -77.06109683333334, "name": "492733fd0bc6ff287fd6a1f6d62c3425"}, {"bike_id": "ad1652ed00abeb8c09d1d8b1593e21a1", "type": "electric_scooter", "is_disabled": 0, "lat": 38.9027695, "rental_uris": {"ios": "https://dc.lft.to/lastmile_qr_scan", "android": "https://dc.lft.to/lastmile_qr_scan"}, "is_reserved": 0, "fusion_lon": 0.0, "fusion_lat": 0.0, "lon": -77.0189785, "name": "ad1652ed00abeb8c09d1d8b1593e21a1"}, {"bike_id": "0194ac409b7bce882e22bfa6b3901a21", "type": "electric_scooter", "is_disabled": 0, "lat": 38.9068595, "rental_uris": {"ios": "https://dc.lft.to/lastmile_qr_scan", "android": "https://dc.lft.to/lastmile_qr_scan"}, "is_reserved": 0, "fusion_lon": 0.0, "fusion_lat": 0.0, "lon": -77.0268865, "name": "0194ac409b7bce882e22bfa6b3901a21"}, {"bike_id": "1417414242714ed2ba26391ad382c1be", "type": "electric_scooter", "is_disabled": 0, "lat": 38.913534166666665, "rental_uris": {"ios": "https://dc.lft.to/lastmile_qr_scan", "android": "https://dc.lft.to/lastmile_qr_scan"}, "is_reserved": 0, "fusion_lon": 0.0, "fusion_lat": 0.0, "lon": -77.0256375, "name": "1417414242714ed2ba26391ad382c1be"}, {"bike_id": "3976195180fce71febf041c20a3d1d47", "type": "electric_scooter", "is_disabled": 0, "lat": 38.9239025, "rental_uris": {"ios": "https://dc.lft.to/lastmile_qr_scan", "android": "https://dc.lft.to/lastmile_qr_scan"}, "is_reserved": 0, "fusion_lon": 0.0, "fusion_lat": 0.0, "lon": -77.02604016666666, "name": "3976195180fce71febf041c20a3d1d47"}, {"bike_id": "b95ca4e448619ed2ee253798a5139a5f", "type": "electric_scooter", "is_disabled": 0, "lat": 38.90003316666667, "rental_uris": {"ios": "https://dc.lft.to/lastmile_qr_scan", "android": "https://dc.lft.to/lastmile_qr_scan"}, "is_reserved": 0, "fusion_lon": 0.0, "fusion_lat": 0.0, "lon": -77.0467065, "name": "b95ca4e448619ed2ee253798a5139a5f"}, {"bike_id": "aa021a144bbe7676962dd0dacffbae34", "type": "electric_scooter", "is_disabled": 0, "lat": 38.896178666666664, "rental_uris": {"ios": "https://dc.lft.to/lastmile_qr_scan", "android": "https://dc.lft.to/lastmile_qr_scan"}, "is_reserved": 0, "fusion_lon": 0.0, "fusion_lat": 0.0, "lon": -76.98164466666667, "name": "aa021a144bbe7676962dd0dacffbae34"}, {"bike_id": "afcf3630dad7e97bec52d6c8b0975bc0", "type": "electric_scooter", "is_disabled": 0, "lat": 38.915707166666664, "rental_uris": {"ios": "https://dc.lft.to/lastmile_qr_scan", "android": "https://dc.lft.to/lastmile_qr_scan"}, "is_reserved": 0, "fusion_lon": 0.0, "fusion_lat": 0.0, "lon": -77.01999133333334, "name": "afcf3630dad7e97bec52d6c8b0975bc0"}, {"bike_id": "80fdc1e95428207338ec943c51c6a334", "type": "electric_bike", "is_disabled": 0, "lat": 38.956248, "rental_uris": {"ios": "https://dc.lft.to/lastmile_qr_scan", "android": "https://dc.lft.to/lastmile_qr_scan"}, "is_reserved": 0, "fusion_lon": 0.0, "fusion_lat": 0.0, "lon": -76.93877333333333, "name": "80fdc1e95428207338ec943c51c6a334"}, {"bike_id": "de39c1ec71acc8d9574f6982eedfbb13", "type": "electric_scooter", "is_disabled": 0, "lat": 38.916617333333335, "rental_uris": {"ios": "https://dc.lft.to/lastmile_qr_scan", "android": "https://dc.lft.to/lastmile_qr_scan"}, "is_reserved": 0, "fusion_lon": 0.0, "fusion_lat": 0.0, "lon": -77.03850666666666, "name": "de39c1ec71acc8d9574f6982eedfbb13"}, {"bike_id": "e70e64f96fb6f6b619441be160502dd9", "type": "electric_scooter", "is_disabled": 0, "lat": 38.9066425, "rental_uris": {"ios": "https://dc.lft.to/lastmile_qr_scan", "android": "https://dc.lft.to/lastmile_qr_scan"}, "is_reserved": 0, "fusion_lon": 0.0, "fusion_lat": 0.0, "lon": -77.02698116666667, "name": "e70e64f96fb6f6b619441be160502dd9"}, {"bike_id": "3e998e9f0cf26a23cba90262e01a1830", "type": "electric_scooter", "is_disabled": 0, "lat": 38.92825083333334, "rental_uris": {"ios": "https://dc.lft.to/lastmile_qr_scan", "android": "https://dc.lft.to/lastmile_qr_scan"}, "is_reserved": 0, "fusion_lon": 0.0, "fusion_lat": 0.0, "lon": -77.02256433333334, "name": "3e998e9f0cf26a23cba90262e01a1830"}, {"bike_id": "ac17172a3187b16da0e7efadc3515f03", "type": "electric_scooter", "is_disabled": 0, "lat": 38.90264466666667, "rental_uris": {"ios": "https://dc.lft.to/lastmile_qr_scan", "android": "https://dc.lft.to/lastmile_qr_scan"}, "is_reserved": 0, "fusion_lon": 0.0, "fusion_lat": 0.0, "lon": -77.03385, "name": "ac17172a3187b16da0e7efadc3515f03"}, {"bike_id": "c833968e960334aca82cc14bbc76c955", "type": "electric_scooter", "is_disabled": 0, "lat": 38.9176785, "rental_uris": {"ios": "https://dc.lft.to/lastmile_qr_scan", "android": "https://dc.lft.to/lastmile_qr_scan"}, "is_reserved": 0, "fusion_lon": 0.0, "fusion_lat": 0.0, "lon": -77.04773066666667, "name": "c833968e960334aca82cc14bbc76c955"}, {"bike_id": "bed7cbc88c4a374c71ac12887f633a2d", "type": "electric_scooter", "is_disabled": 0, "lat": 38.92078866666667, "rental_uris": {"ios": "https://dc.lft.to/lastmile_qr_scan", "android": "https://dc.lft.to/lastmile_qr_scan"}, "is_reserved": 0, "fusion_lon": 0.0, "fusion_lat": 0.0, "lon": -77.0250185, "name": "bed7cbc88c4a374c71ac12887f633a2d"}, {"bike_id": "e58fb2e8e2ba846da787898c22a4b3a6", "type": "electric_scooter", "is_disabled": 0, "lat": 38.90272433333333, "rental_uris": {"ios": "https://dc.lft.to/lastmile_qr_scan", "android": "https://dc.lft.to/lastmile_qr_scan"}, "is_reserved": 0, "fusion_lon": 0.0, "fusion_lat": 0.0, "lon": -77.04472383333334, "name": "e58fb2e8e2ba846da787898c22a4b3a6"}, {"bike_id": "a2e70409b19be741d34357afaac347af", "type": "electric_bike", "is_disabled": 0, "lat": 38.94020616666667, "rental_uris": {"ios": "https://dc.lft.to/lastmile_qr_scan", "android": "https://dc.lft.to/lastmile_qr_scan"}, "is_reserved": 0, "fusion_lon": 0.0, "fusion_lat": 0.0, "lon": -76.976122, "name": "a2e70409b19be741d34357afaac347af"}, {"bike_id": "b52759d4952e30fa750cb6173aae4d28", "type": "electric_scooter", "is_disabled": 0, "lat": 38.905619, "rental_uris": {"ios": "https://dc.lft.to/lastmile_qr_scan", "android": "https://dc.lft.to/lastmile_qr_scan"}, "is_reserved": 0, "fusion_lon": 0.0, "fusion_lat": 0.0, "lon": -77.04661266666666, "name": "b52759d4952e30fa750cb6173aae4d28"}, {"bike_id": "48ab5f78ba859fa14bcdae7d9c340910", "type": "electric_scooter", "is_disabled": 0, "lat": 38.87059983333333, "rental_uris": {"ios": "https://dc.lft.to/lastmile_qr_scan", "android": "https://dc.lft.to/lastmile_qr_scan"}, "is_reserved": 0, "fusion_lon": 0.0, "fusion_lat": 0.0, "lon": -77.007413, "name": "48ab5f78ba859fa14bcdae7d9c340910"}, {"bike_id": "5debe99dd93e4a7e82bdaa0f2b55e455", "type": "electric_scooter", "is_disabled": 0, "lat": 38.884200666666665, "rental_uris": {"ios": "https://dc.lft.to/lastmile_qr_scan", "android": "https://dc.lft.to/lastmile_qr_scan"}, "is_reserved": 0, "fusion_lon": 0.0, "fusion_lat": 0.0, "lon": -77.00743316666667, "name": "5debe99dd93e4a7e82bdaa0f2b55e455"}, {"bike_id": "966c72cfda830c87a614df72e995d47f", "type": "electric_scooter", "is_disabled": 0, "lat": 38.92422283333333, "rental_uris": {"ios": "https://dc.lft.to/lastmile_qr_scan", "android": "https://dc.lft.to/lastmile_qr_scan"}, "is_reserved": 0, "fusion_lon": 0.0, "fusion_lat": 0.0, "lon": -77.0226575, "name": "966c72cfda830c87a614df72e995d47f"}, {"bike_id": "682dd97a1eac0b9e5fb6d33c22979ac0", "type": "electric_scooter", "is_disabled": 0, "lat": 38.863731, "rental_uris": {"ios": "https://dc.lft.to/lastmile_qr_scan", "android": "https://dc.lft.to/lastmile_qr_scan"}, "is_reserved": 0, "fusion_lon": 0.0, "fusion_lat": 0.0, "lon": -76.99056683333333, "name": "682dd97a1eac0b9e5fb6d33c22979ac0"}, {"bike_id": "79850d3a92f8c30e7a83a061f37dbb0b", "type": "electric_scooter", "is_disabled": 0, "lat": 38.90735166666666, "rental_uris": {"ios": "https://dc.lft.to/lastmile_qr_scan", "android": "https://dc.lft.to/lastmile_qr_scan"}, "is_reserved": 0, "fusion_lon": 0.0, "fusion_lat": 0.0, "lon": -77.02981816666667, "name": "79850d3a92f8c30e7a83a061f37dbb0b"}, {"bike_id": "a85b378c38a81346d3b786877622e5d0", "type": "electric_scooter", "is_disabled": 0, "lat": 38.935439, "rental_uris": {"ios": "https://dc.lft.to/lastmile_qr_scan", "android": "https://dc.lft.to/lastmile_qr_scan"}, "is_reserved": 0, "fusion_lon": 0.0, "fusion_lat": 0.0, "lon": -77.0250375, "name": "a85b378c38a81346d3b786877622e5d0"}, {"bike_id": "cdce94d9f4d9ec4627d7df7722a3e46d", "type": "electric_scooter", "is_disabled": 0, "lat": 38.98433383333333, "rental_uris": {"ios": "https://dc.lft.to/lastmile_qr_scan", "android": "https://dc.lft.to/lastmile_qr_scan"}, "is_reserved": 0, "fusion_lon": 0.0, "fusion_lat": 0.0, "lon": -77.02674933333333, "name": "cdce94d9f4d9ec4627d7df7722a3e46d"}, {"bike_id": "c2e85401986373fbc5ad7ab101be6d76", "type": "electric_scooter", "is_disabled": 0, "lat": 38.91707866666667, "rental_uris": {"ios": "https://dc.lft.to/lastmile_qr_scan", "android": "https://dc.lft.to/lastmile_qr_scan"}, "is_reserved": 0, "fusion_lon": 0.0, "fusion_lat": 0.0, "lon": -77.02892083333333, "name": "c2e85401986373fbc5ad7ab101be6d76"}, {"bike_id": "383a37c1c375be6fbfd2126fa2d11dda", "type": "electric_scooter", "is_disabled": 0, "lat": 38.91100683333333, "rental_uris": {"ios": "https://dc.lft.to/lastmile_qr_scan", "android": "https://dc.lft.to/lastmile_qr_scan"}, "is_reserved": 0, "fusion_lon": 0.0, "fusion_lat": 0.0, "lon": -77.0280435, "name": "383a37c1c375be6fbfd2126fa2d11dda"}, {"bike_id": "317080c1d8f966f71dfbff9cf6e86035", "type": "electric_scooter", "is_disabled": 0, "lat": 38.915475666666666, "rental_uris": {"ios": "https://dc.lft.to/lastmile_qr_scan", "android": "https://dc.lft.to/lastmile_qr_scan"}, "is_reserved": 0, "fusion_lon": 0.0, "fusion_lat": 0.0, "lon": -77.03205, "name": "317080c1d8f966f71dfbff9cf6e86035"}, {"bike_id": "381b1b0820fa1bba19865aaf401fc32e", "type": "electric_scooter", "is_disabled": 0, "lat": 38.92659533333333, "rental_uris": {"ios": "https://dc.lft.to/lastmile_qr_scan", "android": "https://dc.lft.to/lastmile_qr_scan"}, "is_reserved": 0, "fusion_lon": 0.0, "fusion_lat": 0.0, "lon": -77.0372705, "name": "381b1b0820fa1bba19865aaf401fc32e"}, {"bike_id": "194bf9233544b817401d79fbe37d1ce4", "type": "electric_scooter", "is_disabled": 0, "lat": 38.906691333333335, "rental_uris": {"ios": "https://dc.lft.to/lastmile_qr_scan", "android": "https://dc.lft.to/lastmile_qr_scan"}, "is_reserved": 0, "fusion_lon": 0.0, "fusion_lat": 0.0, "lon": -77.027098, "name": "194bf9233544b817401d79fbe37d1ce4"}, {"bike_id": "3301f0a8b7e975fbb5c747e291fd2cee", "type": "electric_scooter", "is_disabled": 0, "lat": 38.9167165, "rental_uris": {"ios": "https://dc.lft.to/lastmile_qr_scan", "android": "https://dc.lft.to/lastmile_qr_scan"}, "is_reserved": 0, "fusion_lon": 0.0, "fusion_lat": 0.0, "lon": -77.032156, "name": "3301f0a8b7e975fbb5c747e291fd2cee"}, {"bike_id": "f92394940d0e1da3f097a5682a1ffc28", "type": "electric_scooter", "is_disabled": 0, "lat": 38.92883916666667, "rental_uris": {"ios": "https://dc.lft.to/lastmile_qr_scan", "android": "https://dc.lft.to/lastmile_qr_scan"}, "is_reserved": 0, "fusion_lon": 0.0, "fusion_lat": 0.0, "lon": -77.025737, "name": "f92394940d0e1da3f097a5682a1ffc28"}, {"bike_id": "46d1c35b0e911970276ac31f352b8e4e", "type": "electric_scooter", "is_disabled": 0, "lat": 38.92343283333334, "rental_uris": {"ios": "https://dc.lft.to/lastmile_qr_scan", "android": "https://dc.lft.to/lastmile_qr_scan"}, "is_reserved": 0, "fusion_lon": 0.0, "fusion_lat": 0.0, "lon": -77.03523233333334, "name": "46d1c35b0e911970276ac31f352b8e4e"}, {"bike_id": "b0bca72af31fa2a62329fd61285a7b2d", "type": "electric_scooter", "is_disabled": 0, "lat": 38.911174, "rental_uris": {"ios": "https://dc.lft.to/lastmile_qr_scan", "android": "https://dc.lft.to/lastmile_qr_scan"}, "is_reserved": 0, "fusion_lon": 0.0, "fusion_lat": 0.0, "lon": -77.042348, "name": "b0bca72af31fa2a62329fd61285a7b2d"}, {"bike_id": "b77667682b4f028eba9c304cdfbc9121", "type": "electric_scooter", "is_disabled": 0, "lat": 38.92361116666667, "rental_uris": {"ios": "https://dc.lft.to/lastmile_qr_scan", "android": "https://dc.lft.to/lastmile_qr_scan"}, "is_reserved": 0, "fusion_lon": 0.0, "fusion_lat": 0.0, "lon": -77.051293, "name": "b77667682b4f028eba9c304cdfbc9121"}, {"bike_id": "af345dad6cdc58eae37dcc38c527f5bc", "type": "electric_scooter", "is_disabled": 0, "lat": 38.900246333333335, "rental_uris": {"ios": "https://dc.lft.to/lastmile_qr_scan", "android": "https://dc.lft.to/lastmile_qr_scan"}, "is_reserved": 0, "fusion_lon": 0.0, "fusion_lat": 0.0, "lon": -77.04679116666667, "name": "af345dad6cdc58eae37dcc38c527f5bc"}, {"bike_id": "b8de6cdcd7e3fd7cc6df37f8dc7c7c8b", "type": "electric_bike", "is_disabled": 0, "lat": 39.050558333333335, "rental_uris": {"ios": "https://dc.lft.to/lastmile_qr_scan", "android": "https://dc.lft.to/lastmile_qr_scan"}, "is_reserved": 0, "fusion_lon": 0.0, "fusion_lat": 0.0, "lon": -77.05145216666666, "name": "b8de6cdcd7e3fd7cc6df37f8dc7c7c8b"}, {"bike_id": "f8039ce47a21b73100a31115c81f2bc4", "type": "electric_scooter", "is_disabled": 0, "lat": 38.893610833333334, "rental_uris": {"ios": "https://dc.lft.to/lastmile_qr_scan", "android": "https://dc.lft.to/lastmile_qr_scan"}, "is_reserved": 0, "fusion_lon": 0.0, "fusion_lat": 0.0, "lon": -77.02815966666667, "name": "f8039ce47a21b73100a31115c81f2bc4"}, {"bike_id": "c1b787aa23bf82ca833696c4004edf73", "type": "electric_scooter", "is_disabled": 0, "lat": 38.90015233333333, "rental_uris": {"ios": "https://dc.lft.to/lastmile_qr_scan", "android": "https://dc.lft.to/lastmile_qr_scan"}, "is_reserved": 0, "fusion_lon": 0.0, "fusion_lat": 0.0, "lon": -77.0446755, "name": "c1b787aa23bf82ca833696c4004edf73"}, {"bike_id": "eaca36f13bccc72f287aa5bda80dd35c", "type": "electric_scooter", "is_disabled": 0, "lat": 38.9141425, "rental_uris": {"ios": "https://dc.lft.to/lastmile_qr_scan", "android": "https://dc.lft.to/lastmile_qr_scan"}, "is_reserved": 0, "fusion_lon": 0.0, "fusion_lat": 0.0, "lon": -77.029845, "name": "eaca36f13bccc72f287aa5bda80dd35c"}, {"bike_id": "158a68fab041c128b5e811d012e02d2e", "type": "electric_scooter", "is_disabled": 0, "lat": 38.93249733333333, "rental_uris": {"ios": "https://dc.lft.to/lastmile_qr_scan", "android": "https://dc.lft.to/lastmile_qr_scan"}, "is_reserved": 0, "fusion_lon": 0.0, "fusion_lat": 0.0, "lon": -77.038474, "name": "158a68fab041c128b5e811d012e02d2e"}, {"bike_id": "d67dfeb30b1bccc950c171012f7a9710", "type": "electric_scooter", "is_disabled": 0, "lat": 38.9040825, "rental_uris": {"ios": "https://dc.lft.to/lastmile_qr_scan", "android": "https://dc.lft.to/lastmile_qr_scan"}, "is_reserved": 0, "fusion_lon": 0.0, "fusion_lat": 0.0, "lon": -76.97334633333334, "name": "d67dfeb30b1bccc950c171012f7a9710"}, {"bike_id": "9932fb7d9a925c9127f27a490c4ea0b4", "type": "electric_scooter", "is_disabled": 0, "lat": 38.88016116666667, "rental_uris": {"ios": "https://dc.lft.to/lastmile_qr_scan", "android": "https://dc.lft.to/lastmile_qr_scan"}, "is_reserved": 0, "fusion_lon": 0.0, "fusion_lat": 0.0, "lon": -77.024807, "name": "9932fb7d9a925c9127f27a490c4ea0b4"}, {"bike_id": "5c7d5e97b0defbf794188c3f2c14951b", "type": "electric_scooter", "is_disabled": 0, "lat": 38.897972333333335, "rental_uris": {"ios": "https://dc.lft.to/lastmile_qr_scan", "android": "https://dc.lft.to/lastmile_qr_scan"}, "is_reserved": 0, "fusion_lon": 0.0, "fusion_lat": 0.0, "lon": -77.0120665, "name": "5c7d5e97b0defbf794188c3f2c14951b"}, {"bike_id": "447c635915d4c273c4b51fdc7b218db8", "type": "electric_bike", "is_disabled": 0, "lat": 38.832359333333336, "rental_uris": {"ios": "https://dc.lft.to/lastmile_qr_scan", "android": "https://dc.lft.to/lastmile_qr_scan"}, "is_reserved": 0, "fusion_lon": 0.0, "fusion_lat": 0.0, "lon": -76.9462325, "name": "447c635915d4c273c4b51fdc7b218db8"}, {"bike_id": "623a64e2b6c33fc00c192267d9e900f4", "type": "electric_scooter", "is_disabled": 0, "lat": 38.921213, "rental_uris": {"ios": "https://dc.lft.to/lastmile_qr_scan", "android": "https://dc.lft.to/lastmile_qr_scan"}, "is_reserved": 0, "fusion_lon": 0.0, "fusion_lat": 0.0, "lon": -77.03665516666666, "name": "623a64e2b6c33fc00c192267d9e900f4"}, {"bike_id": "eaa91e56adc8f648f95650f736c2e5d7", "type": "electric_scooter", "is_disabled": 0, "lat": 38.90780783333334, "rental_uris": {"ios": "https://dc.lft.to/lastmile_qr_scan", "android": "https://dc.lft.to/lastmile_qr_scan"}, "is_reserved": 0, "fusion_lon": 0.0, "fusion_lat": 0.0, "lon": -77.03861183333333, "name": "eaa91e56adc8f648f95650f736c2e5d7"}, {"bike_id": "329178be69643e33cfe1c7867b80be4c", "type": "electric_scooter", "is_disabled": 0, "lat": 38.920913166666665, "rental_uris": {"ios": "https://dc.lft.to/lastmile_qr_scan", "android": "https://dc.lft.to/lastmile_qr_scan"}, "is_reserved": 0, "fusion_lon": 0.0, "fusion_lat": 0.0, "lon": -77.00438533333333, "name": "329178be69643e33cfe1c7867b80be4c"}, {"bike_id": "28b3f044101a003f970354252e071004", "type": "electric_scooter", "is_disabled": 0, "lat": 38.89625316666667, "rental_uris": {"ios": "https://dc.lft.to/lastmile_qr_scan", "android": "https://dc.lft.to/lastmile_qr_scan"}, "is_reserved": 0, "fusion_lon": 0.0, "fusion_lat": 0.0, "lon": -77.03291666666667, "name": "28b3f044101a003f970354252e071004"}, {"bike_id": "4ade7b686a4efac741146baae7961fbf", "type": "electric_scooter", "is_disabled": 0, "lat": 38.91627183333333, "rental_uris": {"ios": "https://dc.lft.to/lastmile_qr_scan", "android": "https://dc.lft.to/lastmile_qr_scan"}, "is_reserved": 0, "fusion_lon": 0.0, "fusion_lat": 0.0, "lon": -77.01074383333334, "name": "4ade7b686a4efac741146baae7961fbf"}, {"bike_id": "1fd101858d94cb1eaacf04000acd3af9", "type": "electric_bike", "is_disabled": 0, "lat": 38.956406666666666, "rental_uris": {"ios": "https://dc.lft.to/lastmile_qr_scan", "android": "https://dc.lft.to/lastmile_qr_scan"}, "is_reserved": 0, "fusion_lon": 0.0, "fusion_lat": 0.0, "lon": -76.997958, "name": "1fd101858d94cb1eaacf04000acd3af9"}, {"bike_id": "0d187a5aee6ad6293b8c6780f0f6618b", "type": "electric_scooter", "is_disabled": 0, "lat": 38.9192025, "rental_uris": {"ios": "https://dc.lft.to/lastmile_qr_scan", "android": "https://dc.lft.to/lastmile_qr_scan"}, "is_reserved": 0, "fusion_lon": 0.0, "fusion_lat": 0.0, "lon": -77.03389416666667, "name": "0d187a5aee6ad6293b8c6780f0f6618b"}, {"bike_id": "c71188d3222072829f6be4f73544eb00", "type": "electric_scooter", "is_disabled": 0, "lat": 38.908545, "rental_uris": {"ios": "https://dc.lft.to/lastmile_qr_scan", "android": "https://dc.lft.to/lastmile_qr_scan"}, "is_reserved": 0, "fusion_lon": 0.0, "fusion_lat": 0.0, "lon": -77.0224075, "name": "c71188d3222072829f6be4f73544eb00"}, {"bike_id": "90fd053ecf43f3cb8a363971aabb6c64", "type": "electric_scooter", "is_disabled": 0, "lat": 38.9198995, "rental_uris": {"ios": "https://dc.lft.to/lastmile_qr_scan", "android": "https://dc.lft.to/lastmile_qr_scan"}, "is_reserved": 0, "fusion_lon": 0.0, "fusion_lat": 0.0, "lon": -77.01805383333334, "name": "90fd053ecf43f3cb8a363971aabb6c64"}, {"bike_id": "2cb01582df1f03fdd98d65ceb9fa291f", "type": "electric_scooter", "is_disabled": 0, "lat": 38.92444166666667, "rental_uris": {"ios": "https://dc.lft.to/lastmile_qr_scan", "android": "https://dc.lft.to/lastmile_qr_scan"}, "is_reserved": 0, "fusion_lon": 0.0, "fusion_lat": 0.0, "lon": -77.04410266666666, "name": "2cb01582df1f03fdd98d65ceb9fa291f"}, {"bike_id": "80e813e46f8c18b631ed6f7969b9ad7f", "type": "electric_scooter", "is_disabled": 0, "lat": 38.900975, "rental_uris": {"ios": "https://dc.lft.to/lastmile_qr_scan", "android": "https://dc.lft.to/lastmile_qr_scan"}, "is_reserved": 0, "fusion_lon": 0.0, "fusion_lat": 0.0, "lon": -77.047541, "name": "80e813e46f8c18b631ed6f7969b9ad7f"}, {"bike_id": "61ccc14f1ba4e69dcb8db03752c4a4d3", "type": "electric_bike", "is_disabled": 0, "lat": 39.01372033333333, "rental_uris": {"ios": "https://dc.lft.to/lastmile_qr_scan", "android": "https://dc.lft.to/lastmile_qr_scan"}, "is_reserved": 0, "fusion_lon": 0.0, "fusion_lat": 0.0, "lon": -76.92139433333334, "name": "61ccc14f1ba4e69dcb8db03752c4a4d3"}, {"bike_id": "60743f798668063038d945eb6077a373", "type": "electric_scooter", "is_disabled": 0, "lat": 38.91773366666666, "rental_uris": {"ios": "https://dc.lft.to/lastmile_qr_scan", "android": "https://dc.lft.to/lastmile_qr_scan"}, "is_reserved": 0, "fusion_lon": 0.0, "fusion_lat": 0.0, "lon": -77.02337616666667, "name": "60743f798668063038d945eb6077a373"}, {"bike_id": "a77430edefbddbb4dd403b019a8d3c9b", "type": "electric_scooter", "is_disabled": 0, "lat": 38.918404, "rental_uris": {"ios": "https://dc.lft.to/lastmile_qr_scan", "android": "https://dc.lft.to/lastmile_qr_scan"}, "is_reserved": 0, "fusion_lon": 0.0, "fusion_lat": 0.0, "lon": -77.0317695, "name": "a77430edefbddbb4dd403b019a8d3c9b"}, {"bike_id": "5066bd24983b12cd5a310940dee80f21", "type": "electric_scooter", "is_disabled": 0, "lat": 38.916811833333334, "rental_uris": {"ios": "https://dc.lft.to/lastmile_qr_scan", "android": "https://dc.lft.to/lastmile_qr_scan"}, "is_reserved": 0, "fusion_lon": 0.0, "fusion_lat": 0.0, "lon": -77.02949816666667, "name": "5066bd24983b12cd5a310940dee80f21"}, {"bike_id": "1b8c155f01c5cc97ace10b4b4057636b", "type": "electric_scooter", "is_disabled": 0, "lat": 38.920613333333336, "rental_uris": {"ios": "https://dc.lft.to/lastmile_qr_scan", "android": "https://dc.lft.to/lastmile_qr_scan"}, "is_reserved": 0, "fusion_lon": 0.0, "fusion_lat": 0.0, "lon": -77.02359483333333, "name": "1b8c155f01c5cc97ace10b4b4057636b"}, {"bike_id": "4cfefea11ae1f95184c6f6b50200da7b", "type": "electric_scooter", "is_disabled": 0, "lat": 38.8934635, "rental_uris": {"ios": "https://dc.lft.to/lastmile_qr_scan", "android": "https://dc.lft.to/lastmile_qr_scan"}, "is_reserved": 0, "fusion_lon": 0.0, "fusion_lat": 0.0, "lon": -76.99385166666667, "name": "4cfefea11ae1f95184c6f6b50200da7b"}, {"bike_id": "e5d0dc36972675d3775ace409afb1c1d", "type": "electric_scooter", "is_disabled": 0, "lat": 38.931747666666666, "rental_uris": {"ios": "https://dc.lft.to/lastmile_qr_scan", "android": "https://dc.lft.to/lastmile_qr_scan"}, "is_reserved": 0, "fusion_lon": 0.0, "fusion_lat": 0.0, "lon": -77.02817833333333, "name": "e5d0dc36972675d3775ace409afb1c1d"}, {"bike_id": "7bfacb271eb7ee7be497ca6da7cba65a", "type": "electric_scooter", "is_disabled": 0, "lat": 38.91633016666667, "rental_uris": {"ios": "https://dc.lft.to/lastmile_qr_scan", "android": "https://dc.lft.to/lastmile_qr_scan"}, "is_reserved": 0, "fusion_lon": 0.0, "fusion_lat": 0.0, "lon": -77.02958766666667, "name": "7bfacb271eb7ee7be497ca6da7cba65a"}, {"bike_id": "3c83d8f8f5e4d2dffa7bdb96ce620fa8", "type": "electric_scooter", "is_disabled": 0, "lat": 38.937714, "rental_uris": {"ios": "https://dc.lft.to/lastmile_qr_scan", "android": "https://dc.lft.to/lastmile_qr_scan"}, "is_reserved": 0, "fusion_lon": 0.0, "fusion_lat": 0.0, "lon": -77.01972366666666, "name": "3c83d8f8f5e4d2dffa7bdb96ce620fa8"}, {"bike_id": "292d258c0234285d75fe26721995d99e", "type": "electric_scooter", "is_disabled": 0, "lat": 38.924661, "rental_uris": {"ios": "https://dc.lft.to/lastmile_qr_scan", "android": "https://dc.lft.to/lastmile_qr_scan"}, "is_reserved": 0, "fusion_lon": 0.0, "fusion_lat": 0.0, "lon": -77.043762, "name": "292d258c0234285d75fe26721995d99e"}, {"bike_id": "0926e1c9fa06a9c779d2a17d3781bdea", "type": "electric_scooter", "is_disabled": 0, "lat": 38.9125795, "rental_uris": {"ios": "https://dc.lft.to/lastmile_qr_scan", "android": "https://dc.lft.to/lastmile_qr_scan"}, "is_reserved": 0, "fusion_lon": 0.0, "fusion_lat": 0.0, "lon": -77.04443233333333, "name": "0926e1c9fa06a9c779d2a17d3781bdea"}, {"bike_id": "e3787048b07d6362fe0372f0769a02cd", "type": "electric_scooter", "is_disabled": 0, "lat": 38.858913333333334, "rental_uris": {"ios": "https://dc.lft.to/lastmile_qr_scan", "android": "https://dc.lft.to/lastmile_qr_scan"}, "is_reserved": 0, "fusion_lon": 0.0, "fusion_lat": 0.0, "lon": -76.9972455, "name": "e3787048b07d6362fe0372f0769a02cd"}, {"bike_id": "9dcdae9171f945a1fa034255eeec9095", "type": "electric_scooter", "is_disabled": 0, "lat": 38.9028515, "rental_uris": {"ios": "https://dc.lft.to/lastmile_qr_scan", "android": "https://dc.lft.to/lastmile_qr_scan"}, "is_reserved": 0, "fusion_lon": 0.0, "fusion_lat": 0.0, "lon": -77.00342733333333, "name": "9dcdae9171f945a1fa034255eeec9095"}, {"bike_id": "7b24d43e659220a14fcb59cc445a8410", "type": "electric_scooter", "is_disabled": 0, "lat": 38.91185616666667, "rental_uris": {"ios": "https://dc.lft.to/lastmile_qr_scan", "android": "https://dc.lft.to/lastmile_qr_scan"}, "is_reserved": 0, "fusion_lon": 0.0, "fusion_lat": 0.0, "lon": -77.0039335, "name": "7b24d43e659220a14fcb59cc445a8410"}, {"bike_id": "ffe6d53777ceb6d5a0e862cb1121b849", "type": "electric_scooter", "is_disabled": 0, "lat": 38.8998065, "rental_uris": {"ios": "https://dc.lft.to/lastmile_qr_scan", "android": "https://dc.lft.to/lastmile_qr_scan"}, "is_reserved": 0, "fusion_lon": 0.0, "fusion_lat": 0.0, "lon": -76.985633, "name": "ffe6d53777ceb6d5a0e862cb1121b849"}, {"bike_id": "f93dadd1f228465667442072ccd3b464", "type": "electric_scooter", "is_disabled": 0, "lat": 38.916413166666665, "rental_uris": {"ios": "https://dc.lft.to/lastmile_qr_scan", "android": "https://dc.lft.to/lastmile_qr_scan"}, "is_reserved": 0, "fusion_lon": 0.0, "fusion_lat": 0.0, "lon": -77.03970566666666, "name": "f93dadd1f228465667442072ccd3b464"}, {"bike_id": "40d2b1a93833b16d66a139c7c4c1237e", "type": "electric_scooter", "is_disabled": 0, "lat": 38.91849216666667, "rental_uris": {"ios": "https://dc.lft.to/lastmile_qr_scan", "android": "https://dc.lft.to/lastmile_qr_scan"}, "is_reserved": 0, "fusion_lon": 0.0, "fusion_lat": 0.0, "lon": -77.03879516666667, "name": "40d2b1a93833b16d66a139c7c4c1237e"}, {"bike_id": "32a2b0c13c0f92b19890a45a2b8307bd", "type": "electric_bike", "is_disabled": 0, "lat": 38.8633025, "rental_uris": {"ios": "https://dc.lft.to/lastmile_qr_scan", "android": "https://dc.lft.to/lastmile_qr_scan"}, "is_reserved": 0, "fusion_lon": 0.0, "fusion_lat": 0.0, "lon": -76.9871925, "name": "32a2b0c13c0f92b19890a45a2b8307bd"}, {"bike_id": "ede1fcccec2c0f6490518580c6e732b3", "type": "electric_scooter", "is_disabled": 0, "lat": 38.899849333333336, "rental_uris": {"ios": "https://dc.lft.to/lastmile_qr_scan", "android": "https://dc.lft.to/lastmile_qr_scan"}, "is_reserved": 0, "fusion_lon": 0.0, "fusion_lat": 0.0, "lon": -76.950008, "name": "ede1fcccec2c0f6490518580c6e732b3"}, {"bike_id": "d5a23a7f601b560099372093eabd5bee", "type": "electric_scooter", "is_disabled": 0, "lat": 38.9175365, "rental_uris": {"ios": "https://dc.lft.to/lastmile_qr_scan", "android": "https://dc.lft.to/lastmile_qr_scan"}, "is_reserved": 0, "fusion_lon": 0.0, "fusion_lat": 0.0, "lon": -77.0229085, "name": "d5a23a7f601b560099372093eabd5bee"}, {"bike_id": "a53766b33a2bf0abc75e56299a922508", "type": "electric_scooter", "is_disabled": 0, "lat": 38.92820666666667, "rental_uris": {"ios": "https://dc.lft.to/lastmile_qr_scan", "android": "https://dc.lft.to/lastmile_qr_scan"}, "is_reserved": 0, "fusion_lon": 0.0, "fusion_lat": 0.0, "lon": -77.02260866666667, "name": "a53766b33a2bf0abc75e56299a922508"}, {"bike_id": "5190282bb9f5d3c0877343e89f4db572", "type": "electric_scooter", "is_disabled": 0, "lat": 38.90777383333333, "rental_uris": {"ios": "https://dc.lft.to/lastmile_qr_scan", "android": "https://dc.lft.to/lastmile_qr_scan"}, "is_reserved": 0, "fusion_lon": 0.0, "fusion_lat": 0.0, "lon": -77.03849983333333, "name": "5190282bb9f5d3c0877343e89f4db572"}, {"bike_id": "c4620667f113af96f55bec265cb72544", "type": "electric_scooter", "is_disabled": 0, "lat": 38.93512716666667, "rental_uris": {"ios": "https://dc.lft.to/lastmile_qr_scan", "android": "https://dc.lft.to/lastmile_qr_scan"}, "is_reserved": 0, "fusion_lon": 0.0, "fusion_lat": 0.0, "lon": -77.02410216666667, "name": "c4620667f113af96f55bec265cb72544"}, {"bike_id": "48f955b17df3325ad98f85045f984495", "type": "electric_scooter", "is_disabled": 0, "lat": 38.936612333333336, "rental_uris": {"ios": "https://dc.lft.to/lastmile_qr_scan", "android": "https://dc.lft.to/lastmile_qr_scan"}, "is_reserved": 0, "fusion_lon": 0.0, "fusion_lat": 0.0, "lon": -77.05502183333333, "name": "48f955b17df3325ad98f85045f984495"}, {"bike_id": "8739becc56d9d159358df8dfe6ead9c1", "type": "electric_scooter", "is_disabled": 0, "lat": 38.90681266666667, "rental_uris": {"ios": "https://dc.lft.to/lastmile_qr_scan", "android": "https://dc.lft.to/lastmile_qr_scan"}, "is_reserved": 0, "fusion_lon": 0.0, "fusion_lat": 0.0, "lon": -77.02690466666667, "name": "8739becc56d9d159358df8dfe6ead9c1"}, {"bike_id": "7a788b6b5e429bede367dca913bec09f", "type": "electric_scooter", "is_disabled": 0, "lat": 38.91552733333333, "rental_uris": {"ios": "https://dc.lft.to/lastmile_qr_scan", "android": "https://dc.lft.to/lastmile_qr_scan"}, "is_reserved": 0, "fusion_lon": 0.0, "fusion_lat": 0.0, "lon": -77.03511483333334, "name": "7a788b6b5e429bede367dca913bec09f"}, {"bike_id": "29b18df67acccd04ba2a1e41b818791a", "type": "electric_scooter", "is_disabled": 0, "lat": 38.901088666666666, "rental_uris": {"ios": "https://dc.lft.to/lastmile_qr_scan", "android": "https://dc.lft.to/lastmile_qr_scan"}, "is_reserved": 0, "fusion_lon": 0.0, "fusion_lat": 0.0, "lon": -77.05161866666667, "name": "29b18df67acccd04ba2a1e41b818791a"}, {"bike_id": "5067899e53dc9b161fcbd09ecc74f118", "type": "electric_scooter", "is_disabled": 0, "lat": 38.9224155, "rental_uris": {"ios": "https://dc.lft.to/lastmile_qr_scan", "android": "https://dc.lft.to/lastmile_qr_scan"}, "is_reserved": 0, "fusion_lon": 0.0, "fusion_lat": 0.0, "lon": -77.0389965, "name": "5067899e53dc9b161fcbd09ecc74f118"}, {"bike_id": "49bd1d22bdfeecb81a16ac8948a2762c", "type": "electric_scooter", "is_disabled": 0, "lat": 38.928644166666665, "rental_uris": {"ios": "https://dc.lft.to/lastmile_qr_scan", "android": "https://dc.lft.to/lastmile_qr_scan"}, "is_reserved": 0, "fusion_lon": 0.0, "fusion_lat": 0.0, "lon": -77.03222833333334, "name": "49bd1d22bdfeecb81a16ac8948a2762c"}, {"bike_id": "dbe85bd232d79ba3adf56d845605b0d0", "type": "electric_bike", "is_disabled": 0, "lat": 38.93869133333333, "rental_uris": {"ios": "https://dc.lft.to/lastmile_qr_scan", "android": "https://dc.lft.to/lastmile_qr_scan"}, "is_reserved": 0, "fusion_lon": 0.0, "fusion_lat": 0.0, "lon": -77.02696283333333, "name": "dbe85bd232d79ba3adf56d845605b0d0"}, {"bike_id": "310cc21010c9e5f86276b854fe87704c", "type": "electric_scooter", "is_disabled": 0, "lat": 38.90686066666667, "rental_uris": {"ios": "https://dc.lft.to/lastmile_qr_scan", "android": "https://dc.lft.to/lastmile_qr_scan"}, "is_reserved": 0, "fusion_lon": 0.0, "fusion_lat": 0.0, "lon": -77.065482, "name": "310cc21010c9e5f86276b854fe87704c"}, {"bike_id": "1f1d06ba3a8f03e4f696781c0041f826", "type": "electric_scooter", "is_disabled": 0, "lat": 38.929946666666666, "rental_uris": {"ios": "https://dc.lft.to/lastmile_qr_scan", "android": "https://dc.lft.to/lastmile_qr_scan"}, "is_reserved": 0, "fusion_lon": 0.0, "fusion_lat": 0.0, "lon": -77.02351783333333, "name": "1f1d06ba3a8f03e4f696781c0041f826"}, {"bike_id": "0f5a2f82f3fb040589feaec6ceb5edcb", "type": "electric_bike", "is_disabled": 0, "lat": 38.8576725, "rental_uris": {"ios": "https://dc.lft.to/lastmile_qr_scan", "android": "https://dc.lft.to/lastmile_qr_scan"}, "is_reserved": 0, "fusion_lon": 0.0, "fusion_lat": 0.0, "lon": -76.98767616666666, "name": "0f5a2f82f3fb040589feaec6ceb5edcb"}, {"bike_id": "df4c2c90a51e826916da3dcc7a86bb14", "type": "electric_scooter", "is_disabled": 0, "lat": 38.903184, "rental_uris": {"ios": "https://dc.lft.to/lastmile_qr_scan", "android": "https://dc.lft.to/lastmile_qr_scan"}, "is_reserved": 0, "fusion_lon": 0.0, "fusion_lat": 0.0, "lon": -76.97803483333334, "name": "df4c2c90a51e826916da3dcc7a86bb14"}, {"bike_id": "e70d46d422c32b4e92074b20ba5ba07c", "type": "electric_scooter", "is_disabled": 0, "lat": 38.892065333333335, "rental_uris": {"ios": "https://dc.lft.to/lastmile_qr_scan", "android": "https://dc.lft.to/lastmile_qr_scan"}, "is_reserved": 0, "fusion_lon": 0.0, "fusion_lat": 0.0, "lon": -76.99931616666667, "name": "e70d46d422c32b4e92074b20ba5ba07c"}, {"bike_id": "6c99f0579be3df2937fbb1a08f2aa439", "type": "electric_scooter", "is_disabled": 0, "lat": 38.899662166666666, "rental_uris": {"ios": "https://dc.lft.to/lastmile_qr_scan", "android": "https://dc.lft.to/lastmile_qr_scan"}, "is_reserved": 0, "fusion_lon": 0.0, "fusion_lat": 0.0, "lon": -76.98297483333333, "name": "6c99f0579be3df2937fbb1a08f2aa439"}, {"bike_id": "0a1d897199decf003c39c560399041d9", "type": "electric_scooter", "is_disabled": 0, "lat": 38.91460383333333, "rental_uris": {"ios": "https://dc.lft.to/lastmile_qr_scan", "android": "https://dc.lft.to/lastmile_qr_scan"}, "is_reserved": 0, "fusion_lon": 0.0, "fusion_lat": 0.0, "lon": -77.00214616666666, "name": "0a1d897199decf003c39c560399041d9"}, {"bike_id": "d0b5476e7f642c1e2430dc6c0907a21a", "type": "electric_scooter", "is_disabled": 0, "lat": 38.902359833333335, "rental_uris": {"ios": "https://dc.lft.to/lastmile_qr_scan", "android": "https://dc.lft.to/lastmile_qr_scan"}, "is_reserved": 0, "fusion_lon": 0.0, "fusion_lat": 0.0, "lon": -77.0019865, "name": "d0b5476e7f642c1e2430dc6c0907a21a"}, {"bike_id": "c26c28e341d80de888d282054be6bc87", "type": "electric_bike", "is_disabled": 0, "lat": 38.870966333333335, "rental_uris": {"ios": "https://dc.lft.to/lastmile_qr_scan", "android": "https://dc.lft.to/lastmile_qr_scan"}, "is_reserved": 0, "fusion_lon": 0.0, "fusion_lat": 0.0, "lon": -77.01205783333333, "name": "c26c28e341d80de888d282054be6bc87"}, {"bike_id": "1e5e5b255f36df64921b8b8d076b6660", "type": "electric_scooter", "is_disabled": 0, "lat": 38.908553833333336, "rental_uris": {"ios": "https://dc.lft.to/lastmile_qr_scan", "android": "https://dc.lft.to/lastmile_qr_scan"}, "is_reserved": 0, "fusion_lon": 0.0, "fusion_lat": 0.0, "lon": -77.04767683333333, "name": "1e5e5b255f36df64921b8b8d076b6660"}, {"bike_id": "cab7702d482d0c1fe1b62a97f0aa8c69", "type": "electric_scooter", "is_disabled": 0, "lat": 38.89994766666667, "rental_uris": {"ios": "https://dc.lft.to/lastmile_qr_scan", "android": "https://dc.lft.to/lastmile_qr_scan"}, "is_reserved": 0, "fusion_lon": 0.0, "fusion_lat": 0.0, "lon": -77.00197216666666, "name": "cab7702d482d0c1fe1b62a97f0aa8c69"}, {"bike_id": "2f6c0b85dc7d91967921813b0ced533a", "type": "electric_bike", "is_disabled": 0, "lat": 38.8589465, "rental_uris": {"ios": "https://dc.lft.to/lastmile_qr_scan", "android": "https://dc.lft.to/lastmile_qr_scan"}, "is_reserved": 0, "fusion_lon": 0.0, "fusion_lat": 0.0, "lon": -77.11862633333334, "name": "2f6c0b85dc7d91967921813b0ced533a"}, {"bike_id": "3037e9e6693aaf5ab6dc2e0e35119f85", "type": "electric_scooter", "is_disabled": 0, "lat": 38.9456205, "rental_uris": {"ios": "https://dc.lft.to/lastmile_qr_scan", "android": "https://dc.lft.to/lastmile_qr_scan"}, "is_reserved": 0, "fusion_lon": 0.0, "fusion_lat": 0.0, "lon": -77.07124733333333, "name": "3037e9e6693aaf5ab6dc2e0e35119f85"}, {"bike_id": "f89fea3665fe2d0a92fb1030eeb5586d", "type": "electric_scooter", "is_disabled": 0, "lat": 38.88449383333333, "rental_uris": {"ios": "https://dc.lft.to/lastmile_qr_scan", "android": "https://dc.lft.to/lastmile_qr_scan"}, "is_reserved": 0, "fusion_lon": 0.0, "fusion_lat": 0.0, "lon": -76.95098233333333, "name": "f89fea3665fe2d0a92fb1030eeb5586d"}, {"bike_id": "3e9f5aa53cd14e7c9f4b4af305ff7649", "type": "electric_scooter", "is_disabled": 0, "lat": 38.923458, "rental_uris": {"ios": "https://dc.lft.to/lastmile_qr_scan", "android": "https://dc.lft.to/lastmile_qr_scan"}, "is_reserved": 0, "fusion_lon": 0.0, "fusion_lat": 0.0, "lon": -77.05378, "name": "3e9f5aa53cd14e7c9f4b4af305ff7649"}, {"bike_id": "20217bc4183a9af16afc25799a5a5825", "type": "electric_scooter", "is_disabled": 0, "lat": 38.91793166666667, "rental_uris": {"ios": "https://dc.lft.to/lastmile_qr_scan", "android": "https://dc.lft.to/lastmile_qr_scan"}, "is_reserved": 0, "fusion_lon": 0.0, "fusion_lat": 0.0, "lon": -77.027125, "name": "20217bc4183a9af16afc25799a5a5825"}, {"bike_id": "d00b8ef4715086fe923dafa5597bde17", "type": "electric_scooter", "is_disabled": 0, "lat": 38.910528, "rental_uris": {"ios": "https://dc.lft.to/lastmile_qr_scan", "android": "https://dc.lft.to/lastmile_qr_scan"}, "is_reserved": 0, "fusion_lon": 0.0, "fusion_lat": 0.0, "lon": -77.0308405, "name": "d00b8ef4715086fe923dafa5597bde17"}, {"bike_id": "abe53944977a9b54dc26fbb9a89a6ed9", "type": "electric_scooter", "is_disabled": 0, "lat": 38.929575, "rental_uris": {"ios": "https://dc.lft.to/lastmile_qr_scan", "android": "https://dc.lft.to/lastmile_qr_scan"}, "is_reserved": 0, "fusion_lon": 0.0, "fusion_lat": 0.0, "lon": -77.037781, "name": "abe53944977a9b54dc26fbb9a89a6ed9"}, {"bike_id": "e90cd64f9c653feb3e2dd8df0b21d5db", "type": "electric_scooter", "is_disabled": 0, "lat": 38.906061666666666, "rental_uris": {"ios": "https://dc.lft.to/lastmile_qr_scan", "android": "https://dc.lft.to/lastmile_qr_scan"}, "is_reserved": 0, "fusion_lon": 0.0, "fusion_lat": 0.0, "lon": -76.99278516666666, "name": "e90cd64f9c653feb3e2dd8df0b21d5db"}, {"bike_id": "30b432815533328eb55cc3e5b8d03ab4", "type": "electric_bike", "is_disabled": 0, "lat": 38.96958466666667, "rental_uris": {"ios": "https://dc.lft.to/lastmile_qr_scan", "android": "https://dc.lft.to/lastmile_qr_scan"}, "is_reserved": 0, "fusion_lon": 0.0, "fusion_lat": 0.0, "lon": -76.95751383333334, "name": "30b432815533328eb55cc3e5b8d03ab4"}, {"bike_id": "6d50b893329ea7fe333c84aff4e4ebbe", "type": "electric_scooter", "is_disabled": 0, "lat": 38.935423166666666, "rental_uris": {"ios": "https://dc.lft.to/lastmile_qr_scan", "android": "https://dc.lft.to/lastmile_qr_scan"}, "is_reserved": 0, "fusion_lon": 0.0, "fusion_lat": 0.0, "lon": -77.058616, "name": "6d50b893329ea7fe333c84aff4e4ebbe"}, {"bike_id": "3b2afe5cac108fdc979bf7f75485e3fd", "type": "electric_scooter", "is_disabled": 0, "lat": 38.9023355, "rental_uris": {"ios": "https://dc.lft.to/lastmile_qr_scan", "android": "https://dc.lft.to/lastmile_qr_scan"}, "is_reserved": 0, "fusion_lon": 0.0, "fusion_lat": 0.0, "lon": -77.0020005, "name": "3b2afe5cac108fdc979bf7f75485e3fd"}, {"bike_id": "6ca8cd9988853fbf5548fead32819421", "type": "electric_scooter", "is_disabled": 0, "lat": 38.88298283333334, "rental_uris": {"ios": "https://dc.lft.to/lastmile_qr_scan", "android": "https://dc.lft.to/lastmile_qr_scan"}, "is_reserved": 0, "fusion_lon": 0.0, "fusion_lat": 0.0, "lon": -76.948541, "name": "6ca8cd9988853fbf5548fead32819421"}, {"bike_id": "8de0a56aad13b6c2ae06cfe38f5fb60d", "type": "electric_scooter", "is_disabled": 0, "lat": 38.90074533333333, "rental_uris": {"ios": "https://dc.lft.to/lastmile_qr_scan", "android": "https://dc.lft.to/lastmile_qr_scan"}, "is_reserved": 0, "fusion_lon": 0.0, "fusion_lat": 0.0, "lon": -77.046775, "name": "8de0a56aad13b6c2ae06cfe38f5fb60d"}, {"bike_id": "e00a8e5867f10761365d8017df6cbdc4", "type": "electric_scooter", "is_disabled": 0, "lat": 38.92470866666667, "rental_uris": {"ios": "https://dc.lft.to/lastmile_qr_scan", "android": "https://dc.lft.to/lastmile_qr_scan"}, "is_reserved": 0, "fusion_lon": 0.0, "fusion_lat": 0.0, "lon": -77.02835166666667, "name": "e00a8e5867f10761365d8017df6cbdc4"}, {"bike_id": "68beda41d8eedca079451301878a3b9d", "type": "electric_scooter", "is_disabled": 0, "lat": 38.925939166666666, "rental_uris": {"ios": "https://dc.lft.to/lastmile_qr_scan", "android": "https://dc.lft.to/lastmile_qr_scan"}, "is_reserved": 0, "fusion_lon": 0.0, "fusion_lat": 0.0, "lon": -77.0440095, "name": "68beda41d8eedca079451301878a3b9d"}, {"bike_id": "b4e62454c3f158a189dc231f2908ed35", "type": "electric_scooter", "is_disabled": 0, "lat": 38.86467583333334, "rental_uris": {"ios": "https://dc.lft.to/lastmile_qr_scan", "android": "https://dc.lft.to/lastmile_qr_scan"}, "is_reserved": 0, "fusion_lon": 0.0, "fusion_lat": 0.0, "lon": -76.97741583333334, "name": "b4e62454c3f158a189dc231f2908ed35"}, {"bike_id": "6ea2e1d99ba6f333bba3bc74a45c4f1b", "type": "electric_scooter", "is_disabled": 0, "lat": 38.9128265, "rental_uris": {"ios": "https://dc.lft.to/lastmile_qr_scan", "android": "https://dc.lft.to/lastmile_qr_scan"}, "is_reserved": 0, "fusion_lon": 0.0, "fusion_lat": 0.0, "lon": -77.02715916666666, "name": "6ea2e1d99ba6f333bba3bc74a45c4f1b"}, {"bike_id": "df50851f58d5e2d52ab79267d0693afd", "type": "electric_scooter", "is_disabled": 0, "lat": 38.941323833333335, "rental_uris": {"ios": "https://dc.lft.to/lastmile_qr_scan", "android": "https://dc.lft.to/lastmile_qr_scan"}, "is_reserved": 0, "fusion_lon": 0.0, "fusion_lat": 0.0, "lon": -77.01543716666667, "name": "df50851f58d5e2d52ab79267d0693afd"}, {"bike_id": "58afbc3afbbe3888de30c264ed253f9f", "type": "electric_scooter", "is_disabled": 0, "lat": 38.91584733333333, "rental_uris": {"ios": "https://dc.lft.to/lastmile_qr_scan", "android": "https://dc.lft.to/lastmile_qr_scan"}, "is_reserved": 0, "fusion_lon": 0.0, "fusion_lat": 0.0, "lon": -77.04478883333333, "name": "58afbc3afbbe3888de30c264ed253f9f"}, {"bike_id": "01f1ffb4bb5d6670611edec287b9be7a", "type": "electric_bike", "is_disabled": 0, "lat": 38.91664766666667, "rental_uris": {"ios": "https://dc.lft.to/lastmile_qr_scan", "android": "https://dc.lft.to/lastmile_qr_scan"}, "is_reserved": 0, "fusion_lon": 0.0, "fusion_lat": 0.0, "lon": -77.0240645, "name": "01f1ffb4bb5d6670611edec287b9be7a"}, {"bike_id": "43e26a684ccd5d11e3a94fed404174f4", "type": "electric_scooter", "is_disabled": 0, "lat": 38.92671433333334, "rental_uris": {"ios": "https://dc.lft.to/lastmile_qr_scan", "android": "https://dc.lft.to/lastmile_qr_scan"}, "is_reserved": 0, "fusion_lon": 0.0, "fusion_lat": 0.0, "lon": -77.0150175, "name": "43e26a684ccd5d11e3a94fed404174f4"}, {"bike_id": "6e7ae4f3cc99ef496f6395bd2abb2133", "type": "electric_scooter", "is_disabled": 0, "lat": 38.909507, "rental_uris": {"ios": "https://dc.lft.to/lastmile_qr_scan", "android": "https://dc.lft.to/lastmile_qr_scan"}, "is_reserved": 0, "fusion_lon": 0.0, "fusion_lat": 0.0, "lon": -77.04499716666666, "name": "6e7ae4f3cc99ef496f6395bd2abb2133"}, {"bike_id": "4c1de05cf76c43455a48db210dc364ec", "type": "electric_scooter", "is_disabled": 0, "lat": 38.90346183333333, "rental_uris": {"ios": "https://dc.lft.to/lastmile_qr_scan", "android": "https://dc.lft.to/lastmile_qr_scan"}, "is_reserved": 0, "fusion_lon": 0.0, "fusion_lat": 0.0, "lon": -77.05294683333334, "name": "4c1de05cf76c43455a48db210dc364ec"}, {"bike_id": "901911b46ca4c7e356cbd101b1d2798b", "type": "electric_scooter", "is_disabled": 0, "lat": 38.90809383333333, "rental_uris": {"ios": "https://dc.lft.to/lastmile_qr_scan", "android": "https://dc.lft.to/lastmile_qr_scan"}, "is_reserved": 0, "fusion_lon": 0.0, "fusion_lat": 0.0, "lon": -77.03450933333333, "name": "901911b46ca4c7e356cbd101b1d2798b"}, {"bike_id": "c6d17c848c746df10f4adedc878c477c", "type": "electric_scooter", "is_disabled": 0, "lat": 38.905287333333334, "rental_uris": {"ios": "https://dc.lft.to/lastmile_qr_scan", "android": "https://dc.lft.to/lastmile_qr_scan"}, "is_reserved": 0, "fusion_lon": 0.0, "fusion_lat": 0.0, "lon": -77.059359, "name": "c6d17c848c746df10f4adedc878c477c"}, {"bike_id": "4b3d9e75d0faaf1b5c4b7b04e8ac16ea", "type": "electric_scooter", "is_disabled": 0, "lat": 38.89827116666667, "rental_uris": {"ios": "https://dc.lft.to/lastmile_qr_scan", "android": "https://dc.lft.to/lastmile_qr_scan"}, "is_reserved": 0, "fusion_lon": 0.0, "fusion_lat": 0.0, "lon": -77.02538983333334, "name": "4b3d9e75d0faaf1b5c4b7b04e8ac16ea"}, {"bike_id": "513948651e232fb79278ec82f3406c48", "type": "electric_scooter", "is_disabled": 0, "lat": 38.8842975, "rental_uris": {"ios": "https://dc.lft.to/lastmile_qr_scan", "android": "https://dc.lft.to/lastmile_qr_scan"}, "is_reserved": 0, "fusion_lon": 0.0, "fusion_lat": 0.0, "lon": -76.95757983333333, "name": "513948651e232fb79278ec82f3406c48"}, {"bike_id": "1e4336273c5cb16ced274b8b4b8c7ba0", "type": "electric_scooter", "is_disabled": 0, "lat": 38.89707, "rental_uris": {"ios": "https://dc.lft.to/lastmile_qr_scan", "android": "https://dc.lft.to/lastmile_qr_scan"}, "is_reserved": 0, "fusion_lon": 0.0, "fusion_lat": 0.0, "lon": -76.92999916666666, "name": "1e4336273c5cb16ced274b8b4b8c7ba0"}, {"bike_id": "4da8ef60471311183f20a8d592860063", "type": "electric_scooter", "is_disabled": 0, "lat": 38.901499666666666, "rental_uris": {"ios": "https://dc.lft.to/lastmile_qr_scan", "android": "https://dc.lft.to/lastmile_qr_scan"}, "is_reserved": 0, "fusion_lon": 0.0, "fusion_lat": 0.0, "lon": -77.02490133333333, "name": "4da8ef60471311183f20a8d592860063"}, {"bike_id": "c295183659fc8a6e7a5b0c03c079d3af", "type": "electric_scooter", "is_disabled": 0, "lat": 38.902403166666666, "rental_uris": {"ios": "https://dc.lft.to/lastmile_qr_scan", "android": "https://dc.lft.to/lastmile_qr_scan"}, "is_reserved": 0, "fusion_lon": 0.0, "fusion_lat": 0.0, "lon": -76.996264, "name": "c295183659fc8a6e7a5b0c03c079d3af"}, {"bike_id": "dd85fa37e55aaf2cdbce9bfc6c1e8523", "type": "electric_scooter", "is_disabled": 0, "lat": 38.916038, "rental_uris": {"ios": "https://dc.lft.to/lastmile_qr_scan", "android": "https://dc.lft.to/lastmile_qr_scan"}, "is_reserved": 0, "fusion_lon": 0.0, "fusion_lat": 0.0, "lon": -77.022978, "name": "dd85fa37e55aaf2cdbce9bfc6c1e8523"}, {"bike_id": "23cea00349605b81cdc2da24fc2ac674", "type": "electric_scooter", "is_disabled": 0, "lat": 38.9248025, "rental_uris": {"ios": "https://dc.lft.to/lastmile_qr_scan", "android": "https://dc.lft.to/lastmile_qr_scan"}, "is_reserved": 0, "fusion_lon": 0.0, "fusion_lat": 0.0, "lon": -77.02836633333334, "name": "23cea00349605b81cdc2da24fc2ac674"}, {"bike_id": "35842aaecc5d272b0c65de3febdde59f", "type": "electric_scooter", "is_disabled": 0, "lat": 38.9073435, "rental_uris": {"ios": "https://dc.lft.to/lastmile_qr_scan", "android": "https://dc.lft.to/lastmile_qr_scan"}, "is_reserved": 0, "fusion_lon": 0.0, "fusion_lat": 0.0, "lon": -77.01317083333333, "name": "35842aaecc5d272b0c65de3febdde59f"}, {"bike_id": "f9a24b2d24ac7b5af59233edd6af12e5", "type": "electric_scooter", "is_disabled": 0, "lat": 38.90150966666667, "rental_uris": {"ios": "https://dc.lft.to/lastmile_qr_scan", "android": "https://dc.lft.to/lastmile_qr_scan"}, "is_reserved": 0, "fusion_lon": 0.0, "fusion_lat": 0.0, "lon": -76.99021833333333, "name": "f9a24b2d24ac7b5af59233edd6af12e5"}, {"bike_id": "b6781ec63c240244da1cceec1b511807", "type": "electric_scooter", "is_disabled": 0, "lat": 38.918057833333336, "rental_uris": {"ios": "https://dc.lft.to/lastmile_qr_scan", "android": "https://dc.lft.to/lastmile_qr_scan"}, "is_reserved": 0, "fusion_lon": 0.0, "fusion_lat": 0.0, "lon": -77.00763266666667, "name": "b6781ec63c240244da1cceec1b511807"}, {"bike_id": "b6a5030bb88ca1b66f8ed15a8c2e9fab", "type": "electric_scooter", "is_disabled": 0, "lat": 38.90751983333333, "rental_uris": {"ios": "https://dc.lft.to/lastmile_qr_scan", "android": "https://dc.lft.to/lastmile_qr_scan"}, "is_reserved": 0, "fusion_lon": 0.0, "fusion_lat": 0.0, "lon": -77.03188416666667, "name": "b6a5030bb88ca1b66f8ed15a8c2e9fab"}, {"bike_id": "76d7497a2716cc8c5a88ec1b69b2a4fa", "type": "electric_scooter", "is_disabled": 0, "lat": 38.903357166666666, "rental_uris": {"ios": "https://dc.lft.to/lastmile_qr_scan", "android": "https://dc.lft.to/lastmile_qr_scan"}, "is_reserved": 0, "fusion_lon": 0.0, "fusion_lat": 0.0, "lon": -77.03659916666666, "name": "76d7497a2716cc8c5a88ec1b69b2a4fa"}, {"bike_id": "037a804d5124069ae5503e8e6a4a995d", "type": "electric_scooter", "is_disabled": 0, "lat": 38.92780183333333, "rental_uris": {"ios": "https://dc.lft.to/lastmile_qr_scan", "android": "https://dc.lft.to/lastmile_qr_scan"}, "is_reserved": 0, "fusion_lon": 0.0, "fusion_lat": 0.0, "lon": -77.054108, "name": "037a804d5124069ae5503e8e6a4a995d"}, {"bike_id": "c5c807651c0d4f67ed5c6c296a0b8603", "type": "electric_scooter", "is_disabled": 0, "lat": 38.918296166666664, "rental_uris": {"ios": "https://dc.lft.to/lastmile_qr_scan", "android": "https://dc.lft.to/lastmile_qr_scan"}, "is_reserved": 0, "fusion_lon": 0.0, "fusion_lat": 0.0, "lon": -77.04564483333333, "name": "c5c807651c0d4f67ed5c6c296a0b8603"}, {"bike_id": "f22c75c5f7c579fe1f04b159e9729416", "type": "electric_scooter", "is_disabled": 0, "lat": 38.862037, "rental_uris": {"ios": "https://dc.lft.to/lastmile_qr_scan", "android": "https://dc.lft.to/lastmile_qr_scan"}, "is_reserved": 0, "fusion_lon": 0.0, "fusion_lat": 0.0, "lon": -76.99463083333333, "name": "f22c75c5f7c579fe1f04b159e9729416"}, {"bike_id": "99a8887e424460db9e5a06fa9d2a8407", "type": "electric_scooter", "is_disabled": 0, "lat": 38.9263475, "rental_uris": {"ios": "https://dc.lft.to/lastmile_qr_scan", "android": "https://dc.lft.to/lastmile_qr_scan"}, "is_reserved": 0, "fusion_lon": 0.0, "fusion_lat": 0.0, "lon": -77.02167133333333, "name": "99a8887e424460db9e5a06fa9d2a8407"}, {"bike_id": "dd63bc5c45caf3cc2d15633ad8fd3445", "type": "electric_scooter", "is_disabled": 0, "lat": 38.943437333333335, "rental_uris": {"ios": "https://dc.lft.to/lastmile_qr_scan", "android": "https://dc.lft.to/lastmile_qr_scan"}, "is_reserved": 0, "fusion_lon": 0.0, "fusion_lat": 0.0, "lon": -77.061289, "name": "dd63bc5c45caf3cc2d15633ad8fd3445"}, {"bike_id": "804ccfbc8bb34a89c0bafe641ff7d67f", "type": "electric_scooter", "is_disabled": 0, "lat": 38.911102666666665, "rental_uris": {"ios": "https://dc.lft.to/lastmile_qr_scan", "android": "https://dc.lft.to/lastmile_qr_scan"}, "is_reserved": 0, "fusion_lon": 0.0, "fusion_lat": 0.0, "lon": -77.02449083333333, "name": "804ccfbc8bb34a89c0bafe641ff7d67f"}, {"bike_id": "359aff2e2b6e507eeffc0a2f80e460bc", "type": "electric_scooter", "is_disabled": 0, "lat": 38.92783933333333, "rental_uris": {"ios": "https://dc.lft.to/lastmile_qr_scan", "android": "https://dc.lft.to/lastmile_qr_scan"}, "is_reserved": 0, "fusion_lon": 0.0, "fusion_lat": 0.0, "lon": -77.05260216666667, "name": "359aff2e2b6e507eeffc0a2f80e460bc"}, {"bike_id": "7e08fc3a1a0303ca03824cfc13171c1c", "type": "electric_scooter", "is_disabled": 0, "lat": 38.86697383333333, "rental_uris": {"ios": "https://dc.lft.to/lastmile_qr_scan", "android": "https://dc.lft.to/lastmile_qr_scan"}, "is_reserved": 0, "fusion_lon": 0.0, "fusion_lat": 0.0, "lon": -76.987134, "name": "7e08fc3a1a0303ca03824cfc13171c1c"}, {"bike_id": "14427d2e50462c86aea762ef31390a0f", "type": "electric_scooter", "is_disabled": 0, "lat": 38.947117, "rental_uris": {"ios": "https://dc.lft.to/lastmile_qr_scan", "android": "https://dc.lft.to/lastmile_qr_scan"}, "is_reserved": 0, "fusion_lon": 0.0, "fusion_lat": 0.0, "lon": -77.02775116666666, "name": "14427d2e50462c86aea762ef31390a0f"}, {"bike_id": "01e4b55140465335715d23436438a39c", "type": "electric_scooter", "is_disabled": 0, "lat": 38.913293, "rental_uris": {"ios": "https://dc.lft.to/lastmile_qr_scan", "android": "https://dc.lft.to/lastmile_qr_scan"}, "is_reserved": 0, "fusion_lon": 0.0, "fusion_lat": 0.0, "lon": -77.0317195, "name": "01e4b55140465335715d23436438a39c"}, {"bike_id": "b61a0a2c2c0871e8235fd20e9bfc90b2", "type": "electric_scooter", "is_disabled": 0, "lat": 38.86674716666667, "rental_uris": {"ios": "https://dc.lft.to/lastmile_qr_scan", "android": "https://dc.lft.to/lastmile_qr_scan"}, "is_reserved": 0, "fusion_lon": 0.0, "fusion_lat": 0.0, "lon": -76.985347, "name": "b61a0a2c2c0871e8235fd20e9bfc90b2"}, {"bike_id": "61d0dd8998159695fc85d58cda7cdb3c", "type": "electric_scooter", "is_disabled": 0, "lat": 38.907337, "rental_uris": {"ios": "https://dc.lft.to/lastmile_qr_scan", "android": "https://dc.lft.to/lastmile_qr_scan"}, "is_reserved": 0, "fusion_lon": 0.0, "fusion_lat": 0.0, "lon": -77.043384, "name": "61d0dd8998159695fc85d58cda7cdb3c"}, {"bike_id": "9affc287d31fb58af627df38904b736f", "type": "electric_scooter", "is_disabled": 0, "lat": 38.923642666666666, "rental_uris": {"ios": "https://dc.lft.to/lastmile_qr_scan", "android": "https://dc.lft.to/lastmile_qr_scan"}, "is_reserved": 0, "fusion_lon": 0.0, "fusion_lat": 0.0, "lon": -77.05128683333334, "name": "9affc287d31fb58af627df38904b736f"}, {"bike_id": "0669623958b5242357ec9edbc3d620a9", "type": "electric_scooter", "is_disabled": 0, "lat": 38.90729266666666, "rental_uris": {"ios": "https://dc.lft.to/lastmile_qr_scan", "android": "https://dc.lft.to/lastmile_qr_scan"}, "is_reserved": 0, "fusion_lon": 0.0, "fusion_lat": 0.0, "lon": -77.00977633333333, "name": "0669623958b5242357ec9edbc3d620a9"}, {"bike_id": "bd280f9b7cb235c90d54f510a11fc366", "type": "electric_scooter", "is_disabled": 0, "lat": 38.939233333333334, "rental_uris": {"ios": "https://dc.lft.to/lastmile_qr_scan", "android": "https://dc.lft.to/lastmile_qr_scan"}, "is_reserved": 0, "fusion_lon": 0.0, "fusion_lat": 0.0, "lon": -77.03673533333334, "name": "bd280f9b7cb235c90d54f510a11fc366"}, {"bike_id": "03295aab53bcd2cfcf53967520b4bde1", "type": "electric_scooter", "is_disabled": 0, "lat": 38.92046366666667, "rental_uris": {"ios": "https://dc.lft.to/lastmile_qr_scan", "android": "https://dc.lft.to/lastmile_qr_scan"}, "is_reserved": 0, "fusion_lon": 0.0, "fusion_lat": 0.0, "lon": -77.031412, "name": "03295aab53bcd2cfcf53967520b4bde1"}, {"bike_id": "db214192c0d8226996d5a3f52733c745", "type": "electric_scooter", "is_disabled": 0, "lat": 38.90797833333333, "rental_uris": {"ios": "https://dc.lft.to/lastmile_qr_scan", "android": "https://dc.lft.to/lastmile_qr_scan"}, "is_reserved": 0, "fusion_lon": 0.0, "fusion_lat": 0.0, "lon": -77.03475683333333, "name": "db214192c0d8226996d5a3f52733c745"}, {"bike_id": "8e3a2780517d3bca5af2cab1e16d115e", "type": "electric_bike", "is_disabled": 0, "lat": 38.89290733333333, "rental_uris": {"ios": "https://dc.lft.to/lastmile_qr_scan", "android": "https://dc.lft.to/lastmile_qr_scan"}, "is_reserved": 0, "fusion_lon": 0.0, "fusion_lat": 0.0, "lon": -76.97616533333333, "name": "8e3a2780517d3bca5af2cab1e16d115e"}, {"bike_id": "dc4ec0027514072e36a3bc1cc3f5a924", "type": "electric_scooter", "is_disabled": 0, "lat": 38.8826155, "rental_uris": {"ios": "https://dc.lft.to/lastmile_qr_scan", "android": "https://dc.lft.to/lastmile_qr_scan"}, "is_reserved": 0, "fusion_lon": 0.0, "fusion_lat": 0.0, "lon": -76.99505833333333, "name": "dc4ec0027514072e36a3bc1cc3f5a924"}, {"bike_id": "05a9bb01401860e531f8f370e8c2eae3", "type": "electric_bike", "is_disabled": 0, "lat": 38.973934666666665, "rental_uris": {"ios": "https://dc.lft.to/lastmile_qr_scan", "android": "https://dc.lft.to/lastmile_qr_scan"}, "is_reserved": 0, "fusion_lon": 0.0, "fusion_lat": 0.0, "lon": -77.06455266666667, "name": "05a9bb01401860e531f8f370e8c2eae3"}, {"bike_id": "1c8444a35506a1c2fa76077a78a4ff0a", "type": "electric_scooter", "is_disabled": 0, "lat": 38.9232965, "rental_uris": {"ios": "https://dc.lft.to/lastmile_qr_scan", "android": "https://dc.lft.to/lastmile_qr_scan"}, "is_reserved": 0, "fusion_lon": 0.0, "fusion_lat": 0.0, "lon": -77.03783883333334, "name": "1c8444a35506a1c2fa76077a78a4ff0a"}, {"bike_id": "bd49463440e7d887c91671271381f5ea", "type": "electric_scooter", "is_disabled": 0, "lat": 38.873346166666664, "rental_uris": {"ios": "https://dc.lft.to/lastmile_qr_scan", "android": "https://dc.lft.to/lastmile_qr_scan"}, "is_reserved": 0, "fusion_lon": 0.0, "fusion_lat": 0.0, "lon": -76.96787383333333, "name": "bd49463440e7d887c91671271381f5ea"}, {"bike_id": "7cd8f0ee52d0b3553ba1445ef49df1ba", "type": "electric_scooter", "is_disabled": 0, "lat": 38.92452633333333, "rental_uris": {"ios": "https://dc.lft.to/lastmile_qr_scan", "android": "https://dc.lft.to/lastmile_qr_scan"}, "is_reserved": 0, "fusion_lon": 0.0, "fusion_lat": 0.0, "lon": -77.0240645, "name": "7cd8f0ee52d0b3553ba1445ef49df1ba"}, {"bike_id": "35dda775c6ba084bbb3ece6da38a730d", "type": "electric_scooter", "is_disabled": 0, "lat": 38.877334833333336, "rental_uris": {"ios": "https://dc.lft.to/lastmile_qr_scan", "android": "https://dc.lft.to/lastmile_qr_scan"}, "is_reserved": 0, "fusion_lon": 0.0, "fusion_lat": 0.0, "lon": -77.02006416666667, "name": "35dda775c6ba084bbb3ece6da38a730d"}, {"bike_id": "1b729c82f1de04f554701e94c1b457fb", "type": "electric_scooter", "is_disabled": 0, "lat": 38.95623583333333, "rental_uris": {"ios": "https://dc.lft.to/lastmile_qr_scan", "android": "https://dc.lft.to/lastmile_qr_scan"}, "is_reserved": 0, "fusion_lon": 0.0, "fusion_lat": 0.0, "lon": -77.036129, "name": "1b729c82f1de04f554701e94c1b457fb"}, {"bike_id": "c75356370744f8241ea34a8a950ef23d", "type": "electric_scooter", "is_disabled": 0, "lat": 38.910464166666664, "rental_uris": {"ios": "https://dc.lft.to/lastmile_qr_scan", "android": "https://dc.lft.to/lastmile_qr_scan"}, "is_reserved": 0, "fusion_lon": 0.0, "fusion_lat": 0.0, "lon": -77.04347666666666, "name": "c75356370744f8241ea34a8a950ef23d"}, {"bike_id": "97b43541c1df2966eaba98302f266634", "type": "electric_scooter", "is_disabled": 0, "lat": 38.928983, "rental_uris": {"ios": "https://dc.lft.to/lastmile_qr_scan", "android": "https://dc.lft.to/lastmile_qr_scan"}, "is_reserved": 0, "fusion_lon": 0.0, "fusion_lat": 0.0, "lon": -77.0545285, "name": "97b43541c1df2966eaba98302f266634"}, {"bike_id": "ea0e8a2cc98b3a5022aefdf2d80135cd", "type": "electric_scooter", "is_disabled": 0, "lat": 38.879137166666666, "rental_uris": {"ios": "https://dc.lft.to/lastmile_qr_scan", "android": "https://dc.lft.to/lastmile_qr_scan"}, "is_reserved": 0, "fusion_lon": 0.0, "fusion_lat": 0.0, "lon": -77.00881, "name": "ea0e8a2cc98b3a5022aefdf2d80135cd"}, {"bike_id": "6c6c1c5827940d06d653777fae041b88", "type": "electric_scooter", "is_disabled": 0, "lat": 38.93760366666667, "rental_uris": {"ios": "https://dc.lft.to/lastmile_qr_scan", "android": "https://dc.lft.to/lastmile_qr_scan"}, "is_reserved": 0, "fusion_lon": 0.0, "fusion_lat": 0.0, "lon": -77.02475166666666, "name": "6c6c1c5827940d06d653777fae041b88"}, {"bike_id": "9b92a5594cb528c14a77b587dd382c86", "type": "electric_scooter", "is_disabled": 0, "lat": 38.9313465, "rental_uris": {"ios": "https://dc.lft.to/lastmile_qr_scan", "android": "https://dc.lft.to/lastmile_qr_scan"}, "is_reserved": 0, "fusion_lon": 0.0, "fusion_lat": 0.0, "lon": -77.028036, "name": "9b92a5594cb528c14a77b587dd382c86"}, {"bike_id": "33467b20f004939f97288d8b6a553954", "type": "electric_scooter", "is_disabled": 0, "lat": 38.902874833333335, "rental_uris": {"ios": "https://dc.lft.to/lastmile_qr_scan", "android": "https://dc.lft.to/lastmile_qr_scan"}, "is_reserved": 0, "fusion_lon": 0.0, "fusion_lat": 0.0, "lon": -77.00359883333333, "name": "33467b20f004939f97288d8b6a553954"}, {"bike_id": "6a778bf4020b2d521ee8e032b9b0b28b", "type": "electric_scooter", "is_disabled": 0, "lat": 38.901196, "rental_uris": {"ios": "https://dc.lft.to/lastmile_qr_scan", "android": "https://dc.lft.to/lastmile_qr_scan"}, "is_reserved": 0, "fusion_lon": 0.0, "fusion_lat": 0.0, "lon": -76.92954733333333, "name": "6a778bf4020b2d521ee8e032b9b0b28b"}, {"bike_id": "01218ccd53c8e036a680bf0ac52b53b0", "type": "electric_scooter", "is_disabled": 0, "lat": 38.925481, "rental_uris": {"ios": "https://dc.lft.to/lastmile_qr_scan", "android": "https://dc.lft.to/lastmile_qr_scan"}, "is_reserved": 0, "fusion_lon": 0.0, "fusion_lat": 0.0, "lon": -77.04126316666667, "name": "01218ccd53c8e036a680bf0ac52b53b0"}, {"bike_id": "fab036c327498ae6be808bd1e404bf19", "type": "electric_scooter", "is_disabled": 0, "lat": 38.898834666666666, "rental_uris": {"ios": "https://dc.lft.to/lastmile_qr_scan", "android": "https://dc.lft.to/lastmile_qr_scan"}, "is_reserved": 0, "fusion_lon": 0.0, "fusion_lat": 0.0, "lon": -76.97695033333333, "name": "fab036c327498ae6be808bd1e404bf19"}, {"bike_id": "dda349e520e90568d30574dc93bad668", "type": "electric_scooter", "is_disabled": 0, "lat": 38.906099833333336, "rental_uris": {"ios": "https://dc.lft.to/lastmile_qr_scan", "android": "https://dc.lft.to/lastmile_qr_scan"}, "is_reserved": 0, "fusion_lon": 0.0, "fusion_lat": 0.0, "lon": -77.0211145, "name": "dda349e520e90568d30574dc93bad668"}, {"bike_id": "5f2ec15afe77e22bad18e447d6d8d67c", "type": "electric_bike", "is_disabled": 0, "lat": 38.9509965, "rental_uris": {"ios": "https://dc.lft.to/lastmile_qr_scan", "android": "https://dc.lft.to/lastmile_qr_scan"}, "is_reserved": 0, "fusion_lon": 0.0, "fusion_lat": 0.0, "lon": -77.05513666666667, "name": "5f2ec15afe77e22bad18e447d6d8d67c"}, {"bike_id": "8c837862b4da75a47f9e9da53d5ebf46", "type": "electric_scooter", "is_disabled": 0, "lat": 38.913380333333336, "rental_uris": {"ios": "https://dc.lft.to/lastmile_qr_scan", "android": "https://dc.lft.to/lastmile_qr_scan"}, "is_reserved": 0, "fusion_lon": 0.0, "fusion_lat": 0.0, "lon": -77.03169666666666, "name": "8c837862b4da75a47f9e9da53d5ebf46"}, {"bike_id": "bb86d004a39c2971e7b94340b0f5c332", "type": "electric_scooter", "is_disabled": 0, "lat": 38.91569166666667, "rental_uris": {"ios": "https://dc.lft.to/lastmile_qr_scan", "android": "https://dc.lft.to/lastmile_qr_scan"}, "is_reserved": 0, "fusion_lon": 0.0, "fusion_lat": 0.0, "lon": -77.02289733333333, "name": "bb86d004a39c2971e7b94340b0f5c332"}, {"bike_id": "9edf15f415b331db7db1337d44a69136", "type": "electric_scooter", "is_disabled": 0, "lat": 38.93242, "rental_uris": {"ios": "https://dc.lft.to/lastmile_qr_scan", "android": "https://dc.lft.to/lastmile_qr_scan"}, "is_reserved": 0, "fusion_lon": 0.0, "fusion_lat": 0.0, "lon": -77.03851116666667, "name": "9edf15f415b331db7db1337d44a69136"}, {"bike_id": "9ff9e6b9be1a7f877af6dbaad6d53814", "type": "electric_scooter", "is_disabled": 0, "lat": 38.90561366666667, "rental_uris": {"ios": "https://dc.lft.to/lastmile_qr_scan", "android": "https://dc.lft.to/lastmile_qr_scan"}, "is_reserved": 0, "fusion_lon": 0.0, "fusion_lat": 0.0, "lon": -77.04344133333333, "name": "9ff9e6b9be1a7f877af6dbaad6d53814"}, {"bike_id": "a2c6ced7442df2b5fa679f3dde029443", "type": "electric_scooter", "is_disabled": 0, "lat": 38.90578516666667, "rental_uris": {"ios": "https://dc.lft.to/lastmile_qr_scan", "android": "https://dc.lft.to/lastmile_qr_scan"}, "is_reserved": 0, "fusion_lon": 0.0, "fusion_lat": 0.0, "lon": -77.02604466666666, "name": "a2c6ced7442df2b5fa679f3dde029443"}, {"bike_id": "9d330696bffe9bc33ef2f78b9ddeb85c", "type": "electric_scooter", "is_disabled": 0, "lat": 38.905942, "rental_uris": {"ios": "https://dc.lft.to/lastmile_qr_scan", "android": "https://dc.lft.to/lastmile_qr_scan"}, "is_reserved": 0, "fusion_lon": 0.0, "fusion_lat": 0.0, "lon": -77.04122483333333, "name": "9d330696bffe9bc33ef2f78b9ddeb85c"}, {"bike_id": "1eb1eaa61ae2527e692a049576786d78", "type": "electric_scooter", "is_disabled": 0, "lat": 38.907281, "rental_uris": {"ios": "https://dc.lft.to/lastmile_qr_scan", "android": "https://dc.lft.to/lastmile_qr_scan"}, "is_reserved": 0, "fusion_lon": 0.0, "fusion_lat": 0.0, "lon": -77.02494683333333, "name": "1eb1eaa61ae2527e692a049576786d78"}, {"bike_id": "089e033f9bc0aa8a375e8138582a485c", "type": "electric_scooter", "is_disabled": 0, "lat": 38.928639833333335, "rental_uris": {"ios": "https://dc.lft.to/lastmile_qr_scan", "android": "https://dc.lft.to/lastmile_qr_scan"}, "is_reserved": 0, "fusion_lon": 0.0, "fusion_lat": 0.0, "lon": -77.03219383333334, "name": "089e033f9bc0aa8a375e8138582a485c"}, {"bike_id": "23d0646615df1094908552ef82a42f57", "type": "electric_scooter", "is_disabled": 0, "lat": 38.9254265, "rental_uris": {"ios": "https://dc.lft.to/lastmile_qr_scan", "android": "https://dc.lft.to/lastmile_qr_scan"}, "is_reserved": 0, "fusion_lon": 0.0, "fusion_lat": 0.0, "lon": -77.02969583333334, "name": "23d0646615df1094908552ef82a42f57"}, {"bike_id": "8f629c2dd3c6b8b791edd91c8ae9856c", "type": "electric_scooter", "is_disabled": 0, "lat": 38.92348783333333, "rental_uris": {"ios": "https://dc.lft.to/lastmile_qr_scan", "android": "https://dc.lft.to/lastmile_qr_scan"}, "is_reserved": 0, "fusion_lon": 0.0, "fusion_lat": 0.0, "lon": -77.02442383333333, "name": "8f629c2dd3c6b8b791edd91c8ae9856c"}, {"bike_id": "967792207cbc75b946f62494a923c89f", "type": "electric_scooter", "is_disabled": 0, "lat": 38.8891625, "rental_uris": {"ios": "https://dc.lft.to/lastmile_qr_scan", "android": "https://dc.lft.to/lastmile_qr_scan"}, "is_reserved": 0, "fusion_lon": 0.0, "fusion_lat": 0.0, "lon": -76.99128116666667, "name": "967792207cbc75b946f62494a923c89f"}, {"bike_id": "6be2356a05ec582169babd24174313e1", "type": "electric_scooter", "is_disabled": 0, "lat": 38.909734666666665, "rental_uris": {"ios": "https://dc.lft.to/lastmile_qr_scan", "android": "https://dc.lft.to/lastmile_qr_scan"}, "is_reserved": 0, "fusion_lon": 0.0, "fusion_lat": 0.0, "lon": -77.0318425, "name": "6be2356a05ec582169babd24174313e1"}, {"bike_id": "b8dd18b4cb31da822af6960331e3388e", "type": "electric_scooter", "is_disabled": 0, "lat": 38.9341585, "rental_uris": {"ios": "https://dc.lft.to/lastmile_qr_scan", "android": "https://dc.lft.to/lastmile_qr_scan"}, "is_reserved": 0, "fusion_lon": 0.0, "fusion_lat": 0.0, "lon": -77.041495, "name": "b8dd18b4cb31da822af6960331e3388e"}, {"bike_id": "001ba8d62a70d012da3cba22228e0eaf", "type": "electric_bike", "is_disabled": 0, "lat": 38.934460333333334, "rental_uris": {"ios": "https://dc.lft.to/lastmile_qr_scan", "android": "https://dc.lft.to/lastmile_qr_scan"}, "is_reserved": 0, "fusion_lon": 0.0, "fusion_lat": 0.0, "lon": -77.041243, "name": "001ba8d62a70d012da3cba22228e0eaf"}, {"bike_id": "e6213091b1fbf08130e4dea8e5f81186", "type": "electric_scooter", "is_disabled": 0, "lat": 38.93458833333333, "rental_uris": {"ios": "https://dc.lft.to/lastmile_qr_scan", "android": "https://dc.lft.to/lastmile_qr_scan"}, "is_reserved": 0, "fusion_lon": 0.0, "fusion_lat": 0.0, "lon": -77.02799033333334, "name": "e6213091b1fbf08130e4dea8e5f81186"}, {"bike_id": "ae716256d29cc277148a93d4ff650554", "type": "electric_scooter", "is_disabled": 0, "lat": 38.9322195, "rental_uris": {"ios": "https://dc.lft.to/lastmile_qr_scan", "android": "https://dc.lft.to/lastmile_qr_scan"}, "is_reserved": 0, "fusion_lon": 0.0, "fusion_lat": 0.0, "lon": -77.03361183333334, "name": "ae716256d29cc277148a93d4ff650554"}, {"bike_id": "531b2511542fa2d7e27181fcdb661c8d", "type": "electric_scooter", "is_disabled": 0, "lat": 38.906795333333335, "rental_uris": {"ios": "https://dc.lft.to/lastmile_qr_scan", "android": "https://dc.lft.to/lastmile_qr_scan"}, "is_reserved": 0, "fusion_lon": 0.0, "fusion_lat": 0.0, "lon": -77.062606, "name": "531b2511542fa2d7e27181fcdb661c8d"}, {"bike_id": "03a385b45761d85692b3e1bf1b7b8e8b", "type": "electric_bike", "is_disabled": 0, "lat": 38.8824515, "rental_uris": {"ios": "https://dc.lft.to/lastmile_qr_scan", "android": "https://dc.lft.to/lastmile_qr_scan"}, "is_reserved": 0, "fusion_lon": 0.0, "fusion_lat": 0.0, "lon": -76.9625855, "name": "03a385b45761d85692b3e1bf1b7b8e8b"}, {"bike_id": "76db4c561bf33954e36e2e6edee19882", "type": "electric_scooter", "is_disabled": 0, "lat": 38.90780216666667, "rental_uris": {"ios": "https://dc.lft.to/lastmile_qr_scan", "android": "https://dc.lft.to/lastmile_qr_scan"}, "is_reserved": 0, "fusion_lon": 0.0, "fusion_lat": 0.0, "lon": -77.03861966666666, "name": "76db4c561bf33954e36e2e6edee19882"}, {"bike_id": "c995b40fe38cb73931414c3be722fb35", "type": "electric_scooter", "is_disabled": 0, "lat": 38.91337716666666, "rental_uris": {"ios": "https://dc.lft.to/lastmile_qr_scan", "android": "https://dc.lft.to/lastmile_qr_scan"}, "is_reserved": 0, "fusion_lon": 0.0, "fusion_lat": 0.0, "lon": -77.03267816666667, "name": "c995b40fe38cb73931414c3be722fb35"}, {"bike_id": "6663b7fc3bd37557b8e672304fbae27b", "type": "electric_scooter", "is_disabled": 0, "lat": 38.9141125, "rental_uris": {"ios": "https://dc.lft.to/lastmile_qr_scan", "android": "https://dc.lft.to/lastmile_qr_scan"}, "is_reserved": 0, "fusion_lon": 0.0, "fusion_lat": 0.0, "lon": -77.021784, "name": "6663b7fc3bd37557b8e672304fbae27b"}, {"bike_id": "d2fd9b508174c6acb91626e42b516548", "type": "electric_scooter", "is_disabled": 0, "lat": 38.929495333333335, "rental_uris": {"ios": "https://dc.lft.to/lastmile_qr_scan", "android": "https://dc.lft.to/lastmile_qr_scan"}, "is_reserved": 0, "fusion_lon": 0.0, "fusion_lat": 0.0, "lon": -77.04403283333333, "name": "d2fd9b508174c6acb91626e42b516548"}, {"bike_id": "8e288c2575e50a6dd374d68246b4cccf", "type": "electric_bike", "is_disabled": 0, "lat": 38.932235, "rental_uris": {"ios": "https://dc.lft.to/lastmile_qr_scan", "android": "https://dc.lft.to/lastmile_qr_scan"}, "is_reserved": 0, "fusion_lon": 0.0, "fusion_lat": 0.0, "lon": -77.18119416666667, "name": "8e288c2575e50a6dd374d68246b4cccf"}, {"bike_id": "5da7869120deff418254ff1adf822bb4", "type": "electric_scooter", "is_disabled": 0, "lat": 38.9319005, "rental_uris": {"ios": "https://dc.lft.to/lastmile_qr_scan", "android": "https://dc.lft.to/lastmile_qr_scan"}, "is_reserved": 0, "fusion_lon": 0.0, "fusion_lat": 0.0, "lon": -77.02392033333334, "name": "5da7869120deff418254ff1adf822bb4"}, {"bike_id": "0bbe16fb4e2b0c20fd269b5e203f5cad", "type": "electric_scooter", "is_disabled": 0, "lat": 38.900285, "rental_uris": {"ios": "https://dc.lft.to/lastmile_qr_scan", "android": "https://dc.lft.to/lastmile_qr_scan"}, "is_reserved": 0, "fusion_lon": 0.0, "fusion_lat": 0.0, "lon": -76.99857866666666, "name": "0bbe16fb4e2b0c20fd269b5e203f5cad"}, {"bike_id": "c8ac06c53a55ae668acaf7dcb32cbc70", "type": "electric_scooter", "is_disabled": 0, "lat": 38.93553216666667, "rental_uris": {"ios": "https://dc.lft.to/lastmile_qr_scan", "android": "https://dc.lft.to/lastmile_qr_scan"}, "is_reserved": 0, "fusion_lon": 0.0, "fusion_lat": 0.0, "lon": -77.036873, "name": "c8ac06c53a55ae668acaf7dcb32cbc70"}, {"bike_id": "26b1f2f64721c111bf967ce3068b1f94", "type": "electric_scooter", "is_disabled": 0, "lat": 38.92256416666667, "rental_uris": {"ios": "https://dc.lft.to/lastmile_qr_scan", "android": "https://dc.lft.to/lastmile_qr_scan"}, "is_reserved": 0, "fusion_lon": 0.0, "fusion_lat": 0.0, "lon": -77.04211483333333, "name": "26b1f2f64721c111bf967ce3068b1f94"}, {"bike_id": "74bb9f6b293161996c485de2cb88f49c", "type": "electric_scooter", "is_disabled": 0, "lat": 38.90468533333333, "rental_uris": {"ios": "https://dc.lft.to/lastmile_qr_scan", "android": "https://dc.lft.to/lastmile_qr_scan"}, "is_reserved": 0, "fusion_lon": 0.0, "fusion_lat": 0.0, "lon": -76.9761155, "name": "74bb9f6b293161996c485de2cb88f49c"}, {"bike_id": "0a4766b30aa6d8d6099d71d1e1997571", "type": "electric_scooter", "is_disabled": 0, "lat": 38.91838166666667, "rental_uris": {"ios": "https://dc.lft.to/lastmile_qr_scan", "android": "https://dc.lft.to/lastmile_qr_scan"}, "is_reserved": 0, "fusion_lon": 0.0, "fusion_lat": 0.0, "lon": -77.03172683333334, "name": "0a4766b30aa6d8d6099d71d1e1997571"}, {"bike_id": "ea94ccc4b6d69496c5bcea1f42ac0d26", "type": "electric_scooter", "is_disabled": 0, "lat": 38.916984166666666, "rental_uris": {"ios": "https://dc.lft.to/lastmile_qr_scan", "android": "https://dc.lft.to/lastmile_qr_scan"}, "is_reserved": 0, "fusion_lon": 0.0, "fusion_lat": 0.0, "lon": -77.03217266666667, "name": "ea94ccc4b6d69496c5bcea1f42ac0d26"}, {"bike_id": "2d5ab5d7176641d2c0f80ea5bc3b905c", "type": "electric_scooter", "is_disabled": 0, "lat": 38.907682333333334, "rental_uris": {"ios": "https://dc.lft.to/lastmile_qr_scan", "android": "https://dc.lft.to/lastmile_qr_scan"}, "is_reserved": 0, "fusion_lon": 0.0, "fusion_lat": 0.0, "lon": -77.012264, "name": "2d5ab5d7176641d2c0f80ea5bc3b905c"}, {"bike_id": "c02a2a6a230d81a5da333e809b45e5a4", "type": "electric_scooter", "is_disabled": 0, "lat": 38.927472, "rental_uris": {"ios": "https://dc.lft.to/lastmile_qr_scan", "android": "https://dc.lft.to/lastmile_qr_scan"}, "is_reserved": 0, "fusion_lon": 0.0, "fusion_lat": 0.0, "lon": -77.02426116666666, "name": "c02a2a6a230d81a5da333e809b45e5a4"}, {"bike_id": "326b682cb9858798255b497136991a03", "type": "electric_scooter", "is_disabled": 0, "lat": 38.91546133333333, "rental_uris": {"ios": "https://dc.lft.to/lastmile_qr_scan", "android": "https://dc.lft.to/lastmile_qr_scan"}, "is_reserved": 0, "fusion_lon": 0.0, "fusion_lat": 0.0, "lon": -77.01270416666667, "name": "326b682cb9858798255b497136991a03"}, {"bike_id": "2e219c4a831761e8f177a02d25154b7f", "type": "electric_scooter", "is_disabled": 0, "lat": 38.936108833333336, "rental_uris": {"ios": "https://dc.lft.to/lastmile_qr_scan", "android": "https://dc.lft.to/lastmile_qr_scan"}, "is_reserved": 0, "fusion_lon": 0.0, "fusion_lat": 0.0, "lon": -77.03799066666667, "name": "2e219c4a831761e8f177a02d25154b7f"}, {"bike_id": "ef6db02a99fb51e02cc098ac48a8bdb3", "type": "electric_bike", "is_disabled": 0, "lat": 38.87301516666667, "rental_uris": {"ios": "https://dc.lft.to/lastmile_qr_scan", "android": "https://dc.lft.to/lastmile_qr_scan"}, "is_reserved": 0, "fusion_lon": 0.0, "fusion_lat": 0.0, "lon": -77.13914583333333, "name": "ef6db02a99fb51e02cc098ac48a8bdb3"}, {"bike_id": "8f150610af2267269525f1542c5f1d77", "type": "electric_scooter", "is_disabled": 0, "lat": 38.9361745, "rental_uris": {"ios": "https://dc.lft.to/lastmile_qr_scan", "android": "https://dc.lft.to/lastmile_qr_scan"}, "is_reserved": 0, "fusion_lon": 0.0, "fusion_lat": 0.0, "lon": -77.06759116666667, "name": "8f150610af2267269525f1542c5f1d77"}, {"bike_id": "698ebb672718f39a7a602164df21f207", "type": "electric_scooter", "is_disabled": 0, "lat": 38.9419575, "rental_uris": {"ios": "https://dc.lft.to/lastmile_qr_scan", "android": "https://dc.lft.to/lastmile_qr_scan"}, "is_reserved": 0, "fusion_lon": 0.0, "fusion_lat": 0.0, "lon": -77.02349466666666, "name": "698ebb672718f39a7a602164df21f207"}, {"bike_id": "507af4566d6c521658303ae10fe949cf", "type": "electric_scooter", "is_disabled": 0, "lat": 38.905515666666666, "rental_uris": {"ios": "https://dc.lft.to/lastmile_qr_scan", "android": "https://dc.lft.to/lastmile_qr_scan"}, "is_reserved": 0, "fusion_lon": 0.0, "fusion_lat": 0.0, "lon": -77.005477, "name": "507af4566d6c521658303ae10fe949cf"}, {"bike_id": "fc52d298ea7dda01b5d5c6ced1a39010", "type": "electric_scooter", "is_disabled": 0, "lat": 38.9073205, "rental_uris": {"ios": "https://dc.lft.to/lastmile_qr_scan", "android": "https://dc.lft.to/lastmile_qr_scan"}, "is_reserved": 0, "fusion_lon": 0.0, "fusion_lat": 0.0, "lon": -77.02980766666667, "name": "fc52d298ea7dda01b5d5c6ced1a39010"}, {"bike_id": "f483a96adfcd29364364fd328f9bfab7", "type": "electric_scooter", "is_disabled": 0, "lat": 38.90954416666667, "rental_uris": {"ios": "https://dc.lft.to/lastmile_qr_scan", "android": "https://dc.lft.to/lastmile_qr_scan"}, "is_reserved": 0, "fusion_lon": 0.0, "fusion_lat": 0.0, "lon": -77.03361816666667, "name": "f483a96adfcd29364364fd328f9bfab7"}, {"bike_id": "4e7d98deadfb7e4de1c54edc746a3730", "type": "electric_scooter", "is_disabled": 0, "lat": 38.944804833333336, "rental_uris": {"ios": "https://dc.lft.to/lastmile_qr_scan", "android": "https://dc.lft.to/lastmile_qr_scan"}, "is_reserved": 0, "fusion_lon": 0.0, "fusion_lat": 0.0, "lon": -77.06380866666667, "name": "4e7d98deadfb7e4de1c54edc746a3730"}, {"bike_id": "8fd4be26cf594352ea06adb7f1b7e8c4", "type": "electric_scooter", "is_disabled": 0, "lat": 38.9030965, "rental_uris": {"ios": "https://dc.lft.to/lastmile_qr_scan", "android": "https://dc.lft.to/lastmile_qr_scan"}, "is_reserved": 0, "fusion_lon": 0.0, "fusion_lat": 0.0, "lon": -76.98357166666666, "name": "8fd4be26cf594352ea06adb7f1b7e8c4"}, {"bike_id": "b2942298a4323511a799ef0b00d8cf3f", "type": "electric_scooter", "is_disabled": 0, "lat": 38.877950166666665, "rental_uris": {"ios": "https://dc.lft.to/lastmile_qr_scan", "android": "https://dc.lft.to/lastmile_qr_scan"}, "is_reserved": 0, "fusion_lon": 0.0, "fusion_lat": 0.0, "lon": -77.00755433333333, "name": "b2942298a4323511a799ef0b00d8cf3f"}, {"bike_id": "b9c218ace4e1705d005794a1cdb62eb1", "type": "electric_scooter", "is_disabled": 0, "lat": 38.868913, "rental_uris": {"ios": "https://dc.lft.to/lastmile_qr_scan", "android": "https://dc.lft.to/lastmile_qr_scan"}, "is_reserved": 0, "fusion_lon": 0.0, "fusion_lat": 0.0, "lon": -76.98448616666667, "name": "b9c218ace4e1705d005794a1cdb62eb1"},