{"data": {"bikes": [{"fusion_lon": 0.0, "name": "d8c947d972a4fe01a0de249edee15224", "rental_uris": {"android": "https://dc.lft.to/lastmile_qr_scan", "ios": "https://dc.lft.to/lastmile_qr_scan"}, "lat": 38.92885233333333, "bike_id": "d8c947d972a4fe01a0de249edee15224", "is_disabled": 0, "lon": -77.03328533333334, "is_reserved": 0, "fusion_lat": 0.0, "type": "electric_scooter"}, {"fusion_lon": 0.0, "name": "2a37847c8289568390c3a2cacd733ffa", "rental_uris": {"android": "https://dc.lft.to/lastmile_qr_scan", "ios": "https://dc.lft.to/lastmile_qr_scan"}, "lat": 38.923252833333336, "bike_id": "2a37847c8289568390c3a2cacd733ffa", "is_disabled": 0, "lon": -77.01957633333333, "is_reserved": 0, "fusion_lat": 0.0, "type": "electric_scooter"}, {"fusion_lon": 0.0, "name": "1a07f5797ac2a9cbfd25b142ccb0d60c", "rental_uris": {"android": "https://dc.lft.to/lastmile_qr_scan", "ios": "https://dc.lft.to/lastmile_qr_scan"}, "lat": 38.925839833333335, "bike_id": "1a07f5797ac2a9cbfd25b142ccb0d60c", "is_disabled": 0, "lon": -77.02442166666667, "is_reserved": 0, "fusion_lat": 0.0, "type": "electric_bike"}, {"fusion_lon": 0.0, "name": "17aeaac95c7e23ab81350737368945da", "rental_uris": {"android": "https://dc.lft.to/lastmile_qr_scan", "ios": "https://dc.lft.to/lastmile_qr_scan"}, "lat": 38.898766, "bike_id": "17aeaac95c7e23ab81350737368945da", "is_disabled": 0, "lon": -76.98840333333334, "is_reserved": 0, "fusion_lat": 0.0, "type": "electric_scooter"}, {"fusion_lon": 0.0, "name": "550b08b20e37339d198701f5d903deaa", "rental_uris": {"android": "https://dc.lft.to/lastmile_qr_scan", "ios": "https://dc.lft.to/lastmile_qr_scan"}, "lat": 38.89706, "bike_id": "550b08b20e37339d198701f5d903deaa", "is_disabled": 0, "lon": -76.9911895, "is_reserved": 0, "fusion_lat": 0.0, "type": "electric_scooter"}, {"fusion_lon": 0.0, "name": "1a276ec7fda60d3b6c59a5d788c9fc91", "rental_uris": {"android": "https://dc.lft.to/lastmile_qr_scan", "ios": "https://dc.lft.to/lastmile_qr_scan"}, "lat": 38.89778116666667, "bike_id": "1a276ec7fda60d3b6c59a5d788c9fc91", "is_disabled": 0, "lon": -76.99076, "is_reserved": 0, "fusion_lat": 0.0, "type": "electric_bike"}, {"fusion_lon": 0.0, "name": "e5d9027bbe127375103eb377084b4ba0", "rental_uris": {"android": "https://dc.lft.to/lastmile_qr_scan", "ios": "https://dc.lft.to/lastmile_qr_scan"}, "lat": 38.9264255, "bike_id": "e5d9027bbe127375103eb377084b4ba0", "is_disabled": 0, "lon": -77.02507983333334, "is_reserved": 0, "fusion_lat": 0.0, "type": "electric_scooter"}, {"fusion_lon": 0.0, "name": "6873bcbb8819f834bf4e8c7d8269cfcf", "rental_uris": {"android": "https://dc.lft.to/lastmile_qr_scan", "ios": "https://dc.lft.to/lastmile_qr_scan"}, "lat": 38.8860175, "bike_id": "6873bcbb8819f834bf4e8c7d8269cfcf", "is_disabled": 0, "lon": -77.04510883333333, "is_reserved": 0, "fusion_lat": 0.0, "type": "electric_scooter"}, {"fusion_lon": 0.0, "name": "26ea27f9d6a39f989f64a665f4d21352", "rental_uris": {"android": "https://dc.lft.to/lastmile_qr_scan", "ios": "https://dc.lft.to/lastmile_qr_scan"}, "lat": 38.92366333333333, "bike_id": "26ea27f9d6a39f989f64a665f4d21352", "is_disabled": 0, "lon": -77.019527, "is_reserved": 0, "fusion_lat": 0.0, "type": "electric_scooter"}, {"fusion_lon": 0.0, "name": "5048539f787540c830b30db66354d0f1", "rental_uris": {"android": "https://dc.lft.to/lastmile_qr_scan", "ios": "https://dc.lft.to/lastmile_qr_scan"}, "lat": 38.8968125, "bike_id": "5048539f787540c830b30db66354d0f1", "is_disabled": 0, "lon": -77.004989, "is_reserved": 0, "fusion_lat": 0.0, "type": "electric_scooter"}, {"fusion_lon": 0.0, "name": "f559f23fca275c9b0756cdfdb7d77197", "rental_uris": {"android": "https://dc.lft.to/lastmile_qr_scan", "ios": "https://dc.lft.to/lastmile_qr_scan"}, "lat": 38.923585333333335, "bike_id": "f559f23fca275c9b0756cdfdb7d77197", "is_disabled": 0, "lon": -77.05427016666667, "is_reserved": 0, "fusion_lat": 0.0, "type": "electric_scooter"}, {"fusion_lon": 0.0, "name": "224a59486bd77094e4cfc73ef7f8a15d", "rental_uris": {"android": "https://dc.lft.to/lastmile_qr_scan", "ios": "https://dc.lft.to/lastmile_qr_scan"}, "lat": 38.95181616666667, "bike_id": "224a59486bd77094e4cfc73ef7f8a15d", "is_disabled": 0, "lon": -77.0261385, "is_reserved": 0, "fusion_lat": 0.0, "type": "electric_scooter"}, {"fusion_lon": 0.0, "name": "12f5bd3171559c78f7dbfa068fb046f3", "rental_uris": {"android": "https://dc.lft.to/lastmile_qr_scan", "ios": "https://dc.lft.to/lastmile_qr_scan"}, "lat": 38.9204865, "bike_id": "12f5bd3171559c78f7dbfa068fb046f3", "is_disabled": 0, "lon": -77.04190133333333, "is_reserved": 0, "fusion_lat": 0.0, "type": "electric_scooter"}, {"fusion_lon": 0.0, "name": "c203820c7d2213a1a0840217101686d1", "rental_uris": {"android": "https://dc.lft.to/lastmile_qr_scan", "ios": "https://dc.lft.to/lastmile_qr_scan"}, "lat": 38.98987283333334, "bike_id": "c203820c7d2213a1a0840217101686d1", "is_disabled": 0, "lon": -77.03364866666666, "is_reserved": 0, "fusion_lat": 0.0, "type": "electric_scooter"}, {"fusion_lon": 0.0, "name": "b94918064c5f9a1c3bae50c3c752040d", "rental_uris": {"android": "https://dc.lft.to/lastmile_qr_scan", "ios": "https://dc.lft.to/lastmile_qr_scan"}, "lat": 38.934801, "bike_id": "b94918064c5f9a1c3bae50c3c752040d", "is_disabled": 0, "lon": -77.04460833333333, "is_reserved": 0, "fusion_lat": 0.0, "type": "electric_scooter"}, {"fusion_lon": 0.0, "name": "ffa7e40efae7afc4021daf2e2d48eb52", "rental_uris": {"android": "https://dc.lft.to/lastmile_qr_scan", "ios": "https://dc.lft.to/lastmile_qr_scan"}, "lat": 38.9179875, "bike_id": "ffa7e40efae7afc4021daf2e2d48eb52", "is_disabled": 0, "lon": -77.03154316666667, "is_reserved": 0, "fusion_lat": 0.0, "type": "electric_scooter"}, {"fusion_lon": 0.0, "name": "5d5f2168474597d0ea14a950d715b191", "rental_uris": {"android": "https://dc.lft.to/lastmile_qr_scan", "ios": "https://dc.lft.to/lastmile_qr_scan"}, "lat": 38.9011585, "bike_id": "5d5f2168474597d0ea14a950d715b191", "is_disabled": 0, "lon": -77.0448255, "is_reserved": 0, "fusion_lat": 0.0, "type": "electric_scooter"}, {"fusion_lon": 0.0, "name": "c19fb0881b60ad8bf28e09c3fcc1cbc2", "rental_uris": {"android": "https://dc.lft.to/lastmile_qr_scan", "ios": "https://dc.lft.to/lastmile_qr_scan"}, "lat": 38.8624605, "bike_id": "c19fb0881b60ad8bf28e09c3fcc1cbc2", "is_disabled": 0, "lon": -76.99498883333334, "is_reserved": 0, "fusion_lat": 0.0, "type": "electric_scooter"}, {"fusion_lon": 0.0, "name": "6d85dabdaccd4615327f906aeb5d2d7e", "rental_uris": {"android": "https://dc.lft.to/lastmile_qr_scan", "ios": "https://dc.lft.to/lastmile_qr_scan"}, "lat": 38.924869, "bike_id": "6d85dabdaccd4615327f906aeb5d2d7e", "is_disabled": 0, "lon": -77.0390585, "is_reserved": 0, "fusion_lat": 0.0, "type": "electric_scooter"}, {"fusion_lon": 0.0, "name": "37ae0a8abe6f07cbd3143d9e3fe2a36d", "rental_uris": {"android": "https://dc.lft.to/lastmile_qr_scan", "ios": "https://dc.lft.to/lastmile_qr_scan"}, "lat": 38.89651516666667, "bike_id": "37ae0a8abe6f07cbd3143d9e3fe2a36d", "is_disabled": 0, "lon": -77.05035116666667, "is_reserved": 0, "fusion_lat": 0.0, "type": "electric_scooter"}, {"fusion_lon": 0.0, "name": "17ca42d7303afa0b85890141b1c62193", "rental_uris": {"android": "https://dc.lft.to/lastmile_qr_scan", "ios": "https://dc.lft.to/lastmile_qr_scan"}, "lat": 38.9041095, "bike_id": "17ca42d7303afa0b85890141b1c62193", "is_disabled": 0, "lon": -77.0258175, "is_reserved": 0, "fusion_lat": 0.0, "type": "electric_scooter"}, {"fusion_lon": 0.0, "name": "1c312650de2d85de828be125f1efc6ac", "rental_uris": {"android": "https://dc.lft.to/lastmile_qr_scan", "ios": "https://dc.lft.to/lastmile_qr_scan"}, "lat": 38.908678333333334, "bike_id": "1c312650de2d85de828be125f1efc6ac", "is_disabled": 0, "lon": -77.000464, "is_reserved": 0, "fusion_lat": 0.0, "type": "electric_scooter"}, {"fusion_lon": 0.0, "name": "4d37aefc2e5b78175765bc539dd0ad0c", "rental_uris": {"android": "https://dc.lft.to/lastmile_qr_scan", "ios": "https://dc.lft.to/lastmile_qr_scan"}, "lat": 38.917022, "bike_id": "4d37aefc2e5b78175765bc539dd0ad0c", "is_disabled": 0, "lon": -77.01197533333334, "is_reserved": 0, "fusion_lat": 0.0, "type": "electric_scooter"}, {"fusion_lon": 0.0, "name": "adfe2f47eb9ec706de090ed43cdd7341", "rental_uris": {"android": "https://dc.lft.to/lastmile_qr_scan", "ios": "https://dc.lft.to/lastmile_qr_scan"}, "lat": 38.88771633333333, "bike_id": "adfe2f47eb9ec706de090ed43cdd7341", "is_disabled": 0, "lon": -76.9326455, "is_reserved": 0, "fusion_lat": 0.0, "type": "electric_scooter"}, {"fusion_lon": 0.0, "name": "b3a410a9739f026b21d4dfeb32839db6", "rental_uris": {"android": "https://dc.lft.to/lastmile_qr_scan", "ios": "https://dc.lft.to/lastmile_qr_scan"}, "lat": 38.889894, "bike_id": "b3a410a9739f026b21d4dfeb32839db6", "is_disabled": 0, "lon": -76.99515883333333, "is_reserved": 0, "fusion_lat": 0.0, "type": "electric_scooter"}, {"fusion_lon": 0.0, "name": "f01fa99d3a8fd82130ba8290b69ba649", "rental_uris": {"android": "https://dc.lft.to/lastmile_qr_scan", "ios": "https://dc.lft.to/lastmile_qr_scan"}, "lat": 38.89605316666667, "bike_id": "f01fa99d3a8fd82130ba8290b69ba649", "is_disabled": 0, "lon": -77.0303695, "is_reserved": 0, "fusion_lat": 0.0, "type": "electric_scooter"}, {"fusion_lon": 0.0, "name": "713d168eb0f87ed905f181c54d45f09d", "rental_uris": {"android": "https://dc.lft.to/lastmile_qr_scan", "ios": "https://dc.lft.to/lastmile_qr_scan"}, "lat": 38.9015725, "bike_id": "713d168eb0f87ed905f181c54d45f09d", "is_disabled": 0, "lon": -77.05000233333334, "is_reserved": 0, "fusion_lat": 0.0, "type": "electric_scooter"}, {"fusion_lon": 0.0, "name": "0977948c7a2b306290ab91c2d9b52b83", "rental_uris": {"android": "https://dc.lft.to/lastmile_qr_scan", "ios": "https://dc.lft.to/lastmile_qr_scan"}, "lat": 38.91417333333333, "bike_id": "0977948c7a2b306290ab91c2d9b52b83", "is_disabled": 0, "lon": -77.0325635, "is_reserved": 0, "fusion_lat": 0.0, "type": "electric_scooter"}, {"fusion_lon": 0.0, "name": "0ee96068d8e3dc4540178a31ce462ad8", "rental_uris": {"android": "https://dc.lft.to/lastmile_qr_scan", "ios": "https://dc.lft.to/lastmile_qr_scan"}, "lat": 38.892235, "bike_id": "0ee96068d8e3dc4540178a31ce462ad8", "is_disabled": 0, "lon": -77.02313566666666, "is_reserved": 0, "fusion_lat": 0.0, "type": "electric_scooter"}, {"fusion_lon": 0.0, "name": "7d571c458c53ac1fcd75394af9a804dd", "rental_uris": {"android": "https://dc.lft.to/lastmile_qr_scan", "ios": "https://dc.lft.to/lastmile_qr_scan"}, "lat": 38.91248983333333, "bike_id": "7d571c458c53ac1fcd75394af9a804dd", "is_disabled": 0, "lon": -77.02228483333333, "is_reserved": 0, "fusion_lat": 0.0, "type": "electric_scooter"}, {"fusion_lon": 0.0, "name": "b756fb1bdc6be2b2cb2936d7048f429d", "rental_uris": {"android": "https://dc.lft.to/lastmile_qr_scan", "ios": "https://dc.lft.to/lastmile_qr_scan"}, "lat": 38.95300666666667, "bike_id": "b756fb1bdc6be2b2cb2936d7048f429d", "is_disabled": 0, "lon": -77.027774, "is_reserved": 0, "fusion_lat": 0.0, "type": "electric_scooter"}, {"fusion_lon": 0.0, "name": "41f7be0b4b11ae5c87e6a836c34efa13", "rental_uris": {"android": "https://dc.lft.to/lastmile_qr_scan", "ios": "https://dc.lft.to/lastmile_qr_scan"}, "lat": 38.90673916666667, "bike_id": "41f7be0b4b11ae5c87e6a836c34efa13", "is_disabled": 0, "lon": -77.0269545, "is_reserved": 0, "fusion_lat": 0.0, "type": "electric_scooter"}, {"fusion_lon": 0.0, "name": "60d3a04d14eaf3a4c6a4939c20499d1b", "rental_uris": {"android": "https://dc.lft.to/lastmile_qr_scan", "ios": "https://dc.lft.to/lastmile_qr_scan"}, "lat": 38.89602033333333, "bike_id": "60d3a04d14eaf3a4c6a4939c20499d1b", "is_disabled": 0, "lon": -76.96781266666666, "is_reserved": 0, "fusion_lat": 0.0, "type": "electric_bike"}, {"fusion_lon": 0.0, "name": "8be2e724e73fca220519f7384b4a57e6", "rental_uris": {"android": "https://dc.lft.to/lastmile_qr_scan", "ios": "https://dc.lft.to/lastmile_qr_scan"}, "lat": 38.91708883333333, "bike_id": "8be2e724e73fca220519f7384b4a57e6", "is_disabled": 0, "lon": -77.03866883333333, "is_reserved": 0, "fusion_lat": 0.0, "type": "electric_scooter"}, {"fusion_lon": 0.0, "name": "cf391d39768052176edd2371e3cbcf7b", "rental_uris": {"android": "https://dc.lft.to/lastmile_qr_scan", "ios": "https://dc.lft.to/lastmile_qr_scan"}, "lat": 38.92685983333333, "bike_id": "cf391d39768052176edd2371e3cbcf7b", "is_disabled": 0, "lon": -77.0296425, "is_reserved": 0, "fusion_lat": 0.0, "type": "electric_scooter"}, {"fusion_lon": 0.0, "name": "5f15575940e9d320e52d4b33a40c0c21", "rental_uris": {"android": "https://dc.lft.to/lastmile_qr_scan", "ios": "https://dc.lft.to/lastmile_qr_scan"}, "lat": 38.87734416666667, "bike_id": "5f15575940e9d320e52d4b33a40c0c21", "is_disabled": 0, "lon": -76.99489216666667, "is_reserved": 0, "fusion_lat": 0.0, "type": "electric_scooter"}, {"fusion_lon": 0.0, "name": "a1b7d4165fe1a22565c637fd1042344b", "rental_uris": {"android": "https://dc.lft.to/lastmile_qr_scan", "ios": "https://dc.lft.to/lastmile_qr_scan"}, "lat": 38.900598333333335, "bike_id": "a1b7d4165fe1a22565c637fd1042344b", "is_disabled": 0, "lon": -76.98489983333333, "is_reserved": 0, "fusion_lat": 0.0, "type": "electric_scooter"}, {"fusion_lon": 0.0, "name": "198d69869318d99e1aafef83f89c775c", "rental_uris": {"android": "https://dc.lft.to/lastmile_qr_scan", "ios": "https://dc.lft.to/lastmile_qr_scan"}, "lat": 38.89171016666667, "bike_id": "198d69869318d99e1aafef83f89c775c", "is_disabled": 0, "lon": -76.942583, "is_reserved": 0, "fusion_lat": 0.0, "type": "electric_scooter"}, {"fusion_lon": 0.0, "name": "f082b39db3d374274ddc29abadde400b", "rental_uris": {"android": "https://dc.lft.to/lastmile_qr_scan", "ios": "https://dc.lft.to/lastmile_qr_scan"}, "lat": 38.90489, "bike_id": "f082b39db3d374274ddc29abadde400b", "is_disabled": 0, "lon": -77.02598716666667, "is_reserved": 0, "fusion_lat": 0.0, "type": "electric_scooter"}, {"fusion_lon": 0.0, "name": "ccb5a57fcb4ef29d43ee469668e72d6d", "rental_uris": {"android": "https://dc.lft.to/lastmile_qr_scan", "ios": "https://dc.lft.to/lastmile_qr_scan"}, "lat": 38.92468816666667, "bike_id": "ccb5a57fcb4ef29d43ee469668e72d6d", "is_disabled": 0, "lon": -77.039566, "is_reserved": 0, "fusion_lat": 0.0, "type": "electric_scooter"}, {"fusion_lon": 0.0, "name": "031479b2496afb9f02127ec803b5f64d", "rental_uris": {"android": "https://dc.lft.to/lastmile_qr_scan", "ios": "https://dc.lft.to/lastmile_qr_scan"}, "lat": 38.93524566666667, "bike_id": "031479b2496afb9f02127ec803b5f64d", "is_disabled": 0, "lon": -77.032574, "is_reserved": 0, "fusion_lat": 0.0, "type": "electric_scooter"}, {"fusion_lon": 0.0, "name": "382db8c45089792eb2e1495f4a581f90", "rental_uris": {"android": "https://dc.lft.to/lastmile_qr_scan", "ios": "https://dc.lft.to/lastmile_qr_scan"}, "lat": 38.895104333333336, "bike_id": "382db8c45089792eb2e1495f4a581f90", "is_disabled": 0, "lon": -77.04682616666666, "is_reserved": 0, "fusion_lat": 0.0, "type": "electric_scooter"}, {"fusion_lon": 0.0, "name": "d891977e935568a491a8371b5133acb2", "rental_uris": {"android": "https://dc.lft.to/lastmile_qr_scan", "ios": "https://dc.lft.to/lastmile_qr_scan"}, "lat": 38.89226683333333, "bike_id": "d891977e935568a491a8371b5133acb2", "is_disabled": 0, "lon": -77.01725083333334, "is_reserved": 0, "fusion_lat": 0.0, "type": "electric_scooter"}, {"fusion_lon": 0.0, "name": "979574beac11df3e65076409c8150152", "rental_uris": {"android": "https://dc.lft.to/lastmile_qr_scan", "ios": "https://dc.lft.to/lastmile_qr_scan"}, "lat": 38.94799666666667, "bike_id": "979574beac11df3e65076409c8150152", "is_disabled": 0, "lon": -76.95971433333334, "is_reserved": 0, "fusion_lat": 0.0, "type": "electric_bike"}, {"fusion_lon": 0.0, "name": "87f003ab266bbb6832fc08d2ec0fd1a9", "rental_uris": {"android": "https://dc.lft.to/lastmile_qr_scan", "ios": "https://dc.lft.to/lastmile_qr_scan"}, "lat": 38.923677, "bike_id": "87f003ab266bbb6832fc08d2ec0fd1a9", "is_disabled": 0, "lon": -77.01955066666666, "is_reserved": 0, "fusion_lat": 0.0, "type": "electric_scooter"}, {"fusion_lon": 0.0, "name": "deb455afda74afb569b0e343c9db5216", "rental_uris": {"android": "https://dc.lft.to/lastmile_qr_scan", "ios": "https://dc.lft.to/lastmile_qr_scan"}, "lat": 38.912920666666665, "bike_id": "deb455afda74afb569b0e343c9db5216", "is_disabled": 0, "lon": -76.98545866666667, "is_reserved": 0, "fusion_lat": 0.0, "type": "electric_scooter"}, {"fusion_lon": 0.0, "name": "0735d119945327d47523b80d673942ca", "rental_uris": {"android": "https://dc.lft.to/lastmile_qr_scan", "ios": "https://dc.lft.to/lastmile_qr_scan"}, "lat": 38.95580133333333, "bike_id": "0735d119945327d47523b80d673942ca", "is_disabled": 0, "lon": -77.070081, "is_reserved": 0, "fusion_lat": 0.0, "type": "electric_scooter"}, {"fusion_lon": 0.0, "name": "34d54e26b5a6e3dd05ca5967b8e49359", "rental_uris": {"android": "https://dc.lft.to/lastmile_qr_scan", "ios": "https://dc.lft.to/lastmile_qr_scan"}, "lat": 38.892214833333334, "bike_id": "34d54e26b5a6e3dd05ca5967b8e49359", "is_disabled": 0, "lon": -77.03999583333334, "is_reserved": 0, "fusion_lat": 0.0, "type": "electric_scooter"}, {"fusion_lon": 0.0, "name": "c1bd657de2491b097f8bd2fadf2b75d1", "rental_uris": {"android": "https://dc.lft.to/lastmile_qr_scan", "ios": "https://dc.lft.to/lastmile_qr_scan"}, "lat": 38.8767145, "bike_id": "c1bd657de2491b097f8bd2fadf2b75d1", "is_disabled": 0, "lon": -77.00568433333333, "is_reserved": 0, "fusion_lat": 0.0, "type": "electric_scooter"}, {"fusion_lon": 0.0, "name": "e19bd8d7e09bcfa62478cf067f708aea", "rental_uris": {"android": "https://dc.lft.to/lastmile_qr_scan", "ios": "https://dc.lft.to/lastmile_qr_scan"}, "lat": 38.92474683333333, "bike_id": "e19bd8d7e09bcfa62478cf067f708aea", "is_disabled": 0, "lon": -77.02219716666667, "is_reserved": 0, "fusion_lat": 0.0, "type": "electric_scooter"}, {"fusion_lon": 0.0, "name": "7c51c4013a6f9e6fe796edbff3445105", "rental_uris": {"android": "https://dc.lft.to/lastmile_qr_scan", "ios": "https://dc.lft.to/lastmile_qr_scan"}, "lat": 38.9206585, "bike_id": "7c51c4013a6f9e6fe796edbff3445105", "is_disabled": 0, "lon": -77.024329, "is_reserved": 0, "fusion_lat": 0.0, "type": "electric_scooter"}, {"fusion_lon": 0.0, "name": "33a259f24e8c377d635c6bb45b847eb2", "rental_uris": {"android": "https://dc.lft.to/lastmile_qr_scan", "ios": "https://dc.lft.to/lastmile_qr_scan"}, "lat": 38.911087333333334, "bike_id": "33a259f24e8c377d635c6bb45b847eb2", "is_disabled": 0, "lon": -77.03831616666666, "is_reserved": 0, "fusion_lat": 0.0, "type": "electric_scooter"}, {"fusion_lon": 0.0, "name": "f57d988a62a429962dd7bab75a6b2782", "rental_uris": {"android": "https://dc.lft.to/lastmile_qr_scan", "ios": "https://dc.lft.to/lastmile_qr_scan"}, "lat": 38.91339516666667, "bike_id": "f57d988a62a429962dd7bab75a6b2782", "is_disabled": 0, "lon": -77.01607016666667, "is_reserved": 0, "fusion_lat": 0.0, "type": "electric_scooter"}, {"fusion_lon": 0.0, "name": "5056dd23e5a35e9c43591b02af4ff5f8", "rental_uris": {"android": "https://dc.lft.to/lastmile_qr_scan", "ios": "https://dc.lft.to/lastmile_qr_scan"}, "lat": 38.954632, "bike_id": "5056dd23e5a35e9c43591b02af4ff5f8", "is_disabled": 0, "lon": -77.07010416666667, "is_reserved": 0, "fusion_lat": 0.0, "type": "electric_scooter"}, {"fusion_lon": 0.0, "name": "701175ac475d01256a619ff003aec962", "rental_uris": {"android": "https://dc.lft.to/lastmile_qr_scan", "ios": "https://dc.lft.to/lastmile_qr_scan"}, "lat": 38.90862333333333, "bike_id": "701175ac475d01256a619ff003aec962", "is_disabled": 0, "lon": -77.03562066666667, "is_reserved": 0, "fusion_lat": 0.0, "type": "electric_scooter"}, {"fusion_lon": 0.0, "name": "7711fea2033af47d5d6590ac430718e8", "rental_uris": {"android": "https://dc.lft.to/lastmile_qr_scan", "ios": "https://dc.lft.to/lastmile_qr_scan"}, "lat": 38.90423233333333, "bike_id": "7711fea2033af47d5d6590ac430718e8", "is_disabled": 0, "lon": -77.0258965, "is_reserved": 0, "fusion_lat": 0.0, "type": "electric_scooter"}, {"fusion_lon": 0.0, "name": "36818038a62fe9a8ed455d3807f1925e", "rental_uris": {"android": "https://dc.lft.to/lastmile_qr_scan", "ios": "https://dc.lft.to/lastmile_qr_scan"}, "lat": 38.915542, "bike_id": "36818038a62fe9a8ed455d3807f1925e", "is_disabled": 0, "lon": -77.0366605, "is_reserved": 0, "fusion_lat": 0.0, "type": "electric_scooter"}, {"fusion_lon": 0.0, "name": "55b9f8be392c7ec23986dd90fe093784", "rental_uris": {"android": "https://dc.lft.to/lastmile_qr_scan", "ios": "https://dc.lft.to/lastmile_qr_scan"}, "lat": 38.92381, "bike_id": "55b9f8be392c7ec23986dd90fe093784", "is_disabled": 0, "lon": -77.03655166666667, "is_reserved": 0, "fusion_lat": 0.0, "type": "electric_scooter"}, {"fusion_lon": 0.0, "name": "3b2a99efb63cb81f2e43d8aa4ede9adb", "rental_uris": {"android": "https://dc.lft.to/lastmile_qr_scan", "ios": "https://dc.lft.to/lastmile_qr_scan"}, "lat": 38.905509333333335, "bike_id": "3b2a99efb63cb81f2e43d8aa4ede9adb", "is_disabled": 0, "lon": -77.0349425, "is_reserved": 0, "fusion_lat": 0.0, "type": "electric_scooter"}, {"fusion_lon": 0.0, "name": "1fa1fc5bc871ae4ebac00aba31b75f8c", "rental_uris": {"android": "https://dc.lft.to/lastmile_qr_scan", "ios": "https://dc.lft.to/lastmile_qr_scan"}, "lat": 38.893636666666666, "bike_id": "1fa1fc5bc871ae4ebac00aba31b75f8c", "is_disabled": 0, "lon": -76.98460583333333, "is_reserved": 0, "fusion_lat": 0.0, "type": "electric_scooter"}, {"fusion_lon": 0.0, "name": "9b2e48e00f84813840c59fb8198d6b79", "rental_uris": {"android": "https://dc.lft.to/lastmile_qr_scan", "ios": "https://dc.lft.to/lastmile_qr_scan"}, "lat": 38.90203833333333, "bike_id": "9b2e48e00f84813840c59fb8198d6b79", "is_disabled": 0, "lon": -77.06122933333333, "is_reserved": 0, "fusion_lat": 0.0, "type": "electric_scooter"}, {"fusion_lon": 0.0, "name": "9383658a30795b9c08bcf2167dd4eb86", "rental_uris": {"android": "https://dc.lft.to/lastmile_qr_scan", "ios": "https://dc.lft.to/lastmile_qr_scan"}, "lat": 38.9021935, "bike_id": "9383658a30795b9c08bcf2167dd4eb86", "is_disabled": 0, "lon": -77.02163583333333, "is_reserved": 0, "fusion_lat": 0.0, "type": "electric_scooter"}, {"fusion_lon": 0.0, "name": "59553f4feda01bb40cd4a7c424e97691", "rental_uris": {"android": "https://dc.lft.to/lastmile_qr_scan", "ios": "https://dc.lft.to/lastmile_qr_scan"}, "lat": 38.87311966666667, "bike_id": "59553f4feda01bb40cd4a7c424e97691", "is_disabled": 0, "lon": -77.01392633333333, "is_reserved": 0, "fusion_lat": 0.0, "type": "electric_scooter"}, {"fusion_lon": 0.0, "name": "7a06883ebc7a493489de8bb60d81c345", "rental_uris": {"android": "https://dc.lft.to/lastmile_qr_scan", "ios": "https://dc.lft.to/lastmile_qr_scan"}, "lat": 38.9089405, "bike_id": "7a06883ebc7a493489de8bb60d81c345", "is_disabled": 0, "lon": -77.030151, "is_reserved": 0, "fusion_lat": 0.0, "type": "electric_scooter"}, {"fusion_lon": 0.0, "name": "2ad08517d8dca512db062799710be0bd", "rental_uris": {"android": "https://dc.lft.to/lastmile_qr_scan", "ios": "https://dc.lft.to/lastmile_qr_scan"}, "lat": 38.92619833333333, "bike_id": "2ad08517d8dca512db062799710be0bd", "is_disabled": 0, "lon": -77.00591983333334, "is_reserved": 0, "fusion_lat": 0.0, "type": "electric_bike"}, {"fusion_lon": 0.0, "name": "8c8c6324615cc07694c9d0c9ad23de91", "rental_uris": {"android": "https://dc.lft.to/lastmile_qr_scan", "ios": "https://dc.lft.to/lastmile_qr_scan"}, "lat": 38.956276333333335, "bike_id": "8c8c6324615cc07694c9d0c9ad23de91", "is_disabled": 0, "lon": -77.029531, "is_reserved": 0, "fusion_lat": 0.0, "type": "electric_scooter"}, {"fusion_lon": 0.0, "name": "9cdba1796a6b88c45c7b42f6c5e5a36d", "rental_uris": {"android": "https://dc.lft.to/lastmile_qr_scan", "ios": "https://dc.lft.to/lastmile_qr_scan"}, "lat": 38.94150966666667, "bike_id": "9cdba1796a6b88c45c7b42f6c5e5a36d", "is_disabled": 0, "lon": -77.00200333333333, "is_reserved": 0, "fusion_lat": 0.0, "type": "electric_bike"}, {"fusion_lon": 0.0, "name": "392341530210b86305f48004c9fb2a65", "rental_uris": {"android": "https://dc.lft.to/lastmile_qr_scan", "ios": "https://dc.lft.to/lastmile_qr_scan"}, "lat": 38.8961915, "bike_id": "392341530210b86305f48004c9fb2a65", "is_disabled": 0, "lon": -76.9297685, "is_reserved": 0, "fusion_lat": 0.0, "type": "electric_scooter"}, {"fusion_lon": 0.0, "name": "353a95371567ed24db3d055d6b4ea5e7", "rental_uris": {"android": "https://dc.lft.to/lastmile_qr_scan", "ios": "https://dc.lft.to/lastmile_qr_scan"}, "lat": 38.895571333333336, "bike_id": "353a95371567ed24db3d055d6b4ea5e7", "is_disabled": 0, "lon": -77.12749166666667, "is_reserved": 0, "fusion_lat": 0.0, "type": "electric_bike"}, {"fusion_lon": 0.0, "name": "d187f2fa0af7dccf8b9b84e8db8cb1f3", "rental_uris": {"android": "https://dc.lft.to/lastmile_qr_scan", "ios": "https://dc.lft.to/lastmile_qr_scan"}, "lat": 38.88074483333333, "bike_id": "d187f2fa0af7dccf8b9b84e8db8cb1f3", "is_disabled": 0, "lon": -77.0372135, "is_reserved": 0, "fusion_lat": 0.0, "type": "electric_scooter"}, {"fusion_lon": 0.0, "name": "b0d736a7e126b1f09e5b4c653714be86", "rental_uris": {"android": "https://dc.lft.to/lastmile_qr_scan", "ios": "https://dc.lft.to/lastmile_qr_scan"}, "lat": 38.920645, "bike_id": "b0d736a7e126b1f09e5b4c653714be86", "is_disabled": 0, "lon": -77.02434183333334, "is_reserved": 0, "fusion_lat": 0.0, "type": "electric_scooter"}, {"fusion_lon": 0.0, "name": "bc2283c55bd5f9ee67daf199ca175124", "rental_uris": {"android": "https://dc.lft.to/lastmile_qr_scan", "ios": "https://dc.lft.to/lastmile_qr_scan"}, "lat": 38.91690066666666, "bike_id": "bc2283c55bd5f9ee67daf199ca175124", "is_disabled": 0, "lon": -77.03132366666667, "is_reserved": 0, "fusion_lat": 0.0, "type": "electric_scooter"}, {"fusion_lon": 0.0, "name": "4745e8eb4633213ad78781f204a879c6", "rental_uris": {"android": "https://dc.lft.to/lastmile_qr_scan", "ios": "https://dc.lft.to/lastmile_qr_scan"}, "lat": 38.80570566666667, "bike_id": "4745e8eb4633213ad78781f204a879c6", "is_disabled": 0, "lon": -77.1323045, "is_reserved": 0, "fusion_lat": 0.0, "type": "electric_bike"}, {"fusion_lon": 0.0, "name": "a8e59b0f7ea6a9139f4cf3e753e004d2", "rental_uris": {"android": "https://dc.lft.to/lastmile_qr_scan", "ios": "https://dc.lft.to/lastmile_qr_scan"}, "lat": 38.91444116666667, "bike_id": "a8e59b0f7ea6a9139f4cf3e753e004d2", "is_disabled": 0, "lon": -76.97272216666667, "is_reserved": 0, "fusion_lat": 0.0, "type": "electric_scooter"}, {"fusion_lon": 0.0, "name": "06293c16882ad2fd01cad0b8cdf2c904", "rental_uris": {"android": "https://dc.lft.to/lastmile_qr_scan", "ios": "https://dc.lft.to/lastmile_qr_scan"}, "lat": 38.88058216666667, "bike_id": "06293c16882ad2fd01cad0b8cdf2c904", "is_disabled": 0, "lon": -77.02555683333334, "is_reserved": 0, "fusion_lat": 0.0, "type": "electric_scooter"}, {"fusion_lon": 0.0, "name": "6044792b2f8030e57e161747b8317d19", "rental_uris": {"android": "https://dc.lft.to/lastmile_qr_scan", "ios": "https://dc.lft.to/lastmile_qr_scan"}, "lat": 38.90965633333333, "bike_id": "6044792b2f8030e57e161747b8317d19", "is_disabled": 0, "lon": -77.032137, "is_reserved": 0, "fusion_lat": 0.0, "type": "electric_scooter"}, {"fusion_lon": 0.0, "name": "25ab16de14109bdb2761265708aa808e", "rental_uris": {"android": "https://dc.lft.to/lastmile_qr_scan", "ios": "https://dc.lft.to/lastmile_qr_scan"}, "lat": 38.89543, "bike_id": "25ab16de14109bdb2761265708aa808e", "is_disabled": 0, "lon": -76.98337666666667, "is_reserved": 0, "fusion_lat": 0.0, "type": "electric_scooter"}, {"fusion_lon": 0.0, "name": "96d608f4cf3f8d3bb07d16e7a8f30ce0", "rental_uris": {"android": "https://dc.lft.to/lastmile_qr_scan", "ios": "https://dc.lft.to/lastmile_qr_scan"}, "lat": 38.8946705, "bike_id": "96d608f4cf3f8d3bb07d16e7a8f30ce0", "is_disabled": 0, "lon": -76.99712216666667, "is_reserved": 0, "fusion_lat": 0.0, "type": "electric_scooter"}, {"fusion_lon": 0.0, "name": "615c172fb586816724d4f1d550dd2156", "rental_uris": {"android": "https://dc.lft.to/lastmile_qr_scan", "ios": "https://dc.lft.to/lastmile_qr_scan"}, "lat": 39.00376816666667, "bike_id": "615c172fb586816724d4f1d550dd2156", "is_disabled": 0, "lon": -77.01286516666667, "is_reserved": 0, "fusion_lat": 0.0, "type": "electric_bike"}, {"fusion_lon": 0.0, "name": "ee05070d53f0141028c01a2a2dbfee88", "rental_uris": {"android": "https://dc.lft.to/lastmile_qr_scan", "ios": "https://dc.lft.to/lastmile_qr_scan"}, "lat": 38.8769385, "bike_id": "ee05070d53f0141028c01a2a2dbfee88", "is_disabled": 0, "lon": -76.9961935, "is_reserved": 0, "fusion_lat": 0.0, "type": "electric_scooter"}, {"fusion_lon": 0.0, "name": "9e7b0782770a239aa17f45880fe60da8", "rental_uris": {"android": "https://dc.lft.to/lastmile_qr_scan", "ios": "https://dc.lft.to/lastmile_qr_scan"}, "lat": 38.9181885, "bike_id": "9e7b0782770a239aa17f45880fe60da8", "is_disabled": 0, "lon": -77.03670783333334, "is_reserved": 0, "fusion_lat": 0.0, "type": "electric_scooter"}, {"fusion_lon": 0.0, "name": "e80e27d9f9a467410f402d7f8bf35205", "rental_uris": {"android": "https://dc.lft.to/lastmile_qr_scan", "ios": "https://dc.lft.to/lastmile_qr_scan"}, "lat": 38.858731666666664, "bike_id": "e80e27d9f9a467410f402d7f8bf35205", "is_disabled": 0, "lon": -76.99047216666666, "is_reserved": 0, "fusion_lat": 0.0, "type": "electric_scooter"}, {"fusion_lon": 0.0, "name": "bdf7d831392f5c8dd5e07f8b49874d1a", "rental_uris": {"android": "https://dc.lft.to/lastmile_qr_scan", "ios": "https://dc.lft.to/lastmile_qr_scan"}, "lat": 38.91174916666667, "bike_id": "bdf7d831392f5c8dd5e07f8b49874d1a", "is_disabled": 0, "lon": -77.04143033333334, "is_reserved": 0, "fusion_lat": 0.0, "type": "electric_scooter"}, {"fusion_lon": 0.0, "name": "3437296e1c16f1dd28bdb5f485a64836", "rental_uris": {"android": "https://dc.lft.to/lastmile_qr_scan", "ios": "https://dc.lft.to/lastmile_qr_scan"}, "lat": 39.042382333333336, "bike_id": "3437296e1c16f1dd28bdb5f485a64836", "is_disabled": 0, "lon": -76.99739066666666, "is_reserved": 0, "fusion_lat": 0.0, "type": "electric_bike"}, {"fusion_lon": 0.0, "name": "3d0ee502c9fb31e8ae96359d742a827a", "rental_uris": {"android": "https://dc.lft.to/lastmile_qr_scan", "ios": "https://dc.lft.to/lastmile_qr_scan"}, "lat": 38.90056666666667, "bike_id": "3d0ee502c9fb31e8ae96359d742a827a", "is_disabled": 0, "lon": -76.984867, "is_reserved": 0, "fusion_lat": 0.0, "type": "electric_scooter"}, {"fusion_lon": 0.0, "name": "4ca5dd6efc3f9745b8da88f5028bf5c1", "rental_uris": {"android": "https://dc.lft.to/lastmile_qr_scan", "ios": "https://dc.lft.to/lastmile_qr_scan"}, "lat": 38.90367333333333, "bike_id": "4ca5dd6efc3f9745b8da88f5028bf5c1", "is_disabled": 0, "lon": -77.01630516666667, "is_reserved": 0, "fusion_lat": 0.0, "type": "electric_scooter"}, {"fusion_lon": 0.0, "name": "05f451faf4660541639af41a583ae845", "rental_uris": {"android": "https://dc.lft.to/lastmile_qr_scan", "ios": "https://dc.lft.to/lastmile_qr_scan"}, "lat": 38.8922535, "bike_id": "05f451faf4660541639af41a583ae845", "is_disabled": 0, "lon": -77.04337633333333, "is_reserved": 0, "fusion_lat": 0.0, "type": "electric_scooter"}, {"fusion_lon": 0.0, "name": "292c09ed52db6cab82c7f85d19ebac06", "rental_uris": {"android": "https://dc.lft.to/lastmile_qr_scan", "ios": "https://dc.lft.to/lastmile_qr_scan"}, "lat": 38.92193683333333, "bike_id": "292c09ed52db6cab82c7f85d19ebac06", "is_disabled": 0, "lon": -77.03515633333333, "is_reserved": 0, "fusion_lat": 0.0, "type": "electric_scooter"}, {"fusion_lon": 0.0, "name": "362aa38c798067ebfb2f0ebeb490f638", "rental_uris": {"android": "https://dc.lft.to/lastmile_qr_scan", "ios": "https://dc.lft.to/lastmile_qr_scan"}, "lat": 38.901572, "bike_id": "362aa38c798067ebfb2f0ebeb490f638", "is_disabled": 0, "lon": -77.04678116666666, "is_reserved": 0, "fusion_lat": 0.0, "type": "electric_scooter"}, {"fusion_lon": 0.0, "name": "74aee45831f0015d78a223edd9ae69ab", "rental_uris": {"android": "https://dc.lft.to/lastmile_qr_scan", "ios": "https://dc.lft.to/lastmile_qr_scan"}, "lat": 38.9185385, "bike_id": "74aee45831f0015d78a223edd9ae69ab", "is_disabled": 0, "lon": -77.03187483333333, "is_reserved": 0, "fusion_lat": 0.0, "type": "electric_scooter"}, {"fusion_lon": 0.0, "name": "bca3c7145531e196be07b5a86a7be5a2", "rental_uris": {"android": "https://dc.lft.to/lastmile_qr_scan", "ios": "https://dc.lft.to/lastmile_qr_scan"}, "lat": 38.90905933333333, "bike_id": "bca3c7145531e196be07b5a86a7be5a2", "is_disabled": 0, "lon": -77.023225, "is_reserved": 0, "fusion_lat": 0.0, "type": "electric_scooter"}, {"fusion_lon": 0.0, "name": "a5d051cfbf0361b1c6c7698c7e11d760", "rental_uris": {"android": "https://dc.lft.to/lastmile_qr_scan", "ios": "https://dc.lft.to/lastmile_qr_scan"}, "lat": 38.90042183333333, "bike_id": "a5d051cfbf0361b1c6c7698c7e11d760", "is_disabled": 0, "lon": -77.00179483333334, "is_reserved": 0, "fusion_lat": 0.0, "type": "electric_scooter"}, {"fusion_lon": 0.0, "name": "3be01817a9c78232c5524d7dff6a86a4", "rental_uris": {"android": "https://dc.lft.to/lastmile_qr_scan", "ios": "https://dc.lft.to/lastmile_qr_scan"}, "lat": 38.97336333333333, "bike_id": "3be01817a9c78232c5524d7dff6a86a4", "is_disabled": 0, "lon": -76.9959075, "is_reserved": 0, "fusion_lat": 0.0, "type": "electric_bike"}, {"fusion_lon": 0.0, "name": "f29734e65529cbac11c3ba776dad0cfa", "rental_uris": {"android": "https://dc.lft.to/lastmile_qr_scan", "ios": "https://dc.lft.to/lastmile_qr_scan"}, "lat": 38.9205625, "bike_id": "f29734e65529cbac11c3ba776dad0cfa", "is_disabled": 0, "lon": -76.9843065, "is_reserved": 0, "fusion_lat": 0.0, "type": "electric_scooter"}, {"fusion_lon": 0.0, "name": "dcc8952c85aae7fd884a282dccdf6596", "rental_uris": {"android": "https://dc.lft.to/lastmile_qr_scan", "ios": "https://dc.lft.to/lastmile_qr_scan"}, "lat": 38.91324566666667, "bike_id": "dcc8952c85aae7fd884a282dccdf6596", "is_disabled": 0, "lon": -77.04549516666667, "is_reserved": 0, "fusion_lat": 0.0, "type": "electric_scooter"}, {"fusion_lon": 0.0, "name": "62d41073b660298a2008a2bdc49dd283", "rental_uris": {"android": "https://dc.lft.to/lastmile_qr_scan", "ios": "https://dc.lft.to/lastmile_qr_scan"}, "lat": 38.902353, "bike_id": "62d41073b660298a2008a2bdc49dd283", "is_disabled": 0, "lon": -77.00199533333333, "is_reserved": 0, "fusion_lat": 0.0, "type": "electric_scooter"}, {"fusion_lon": 0.0, "name": "4de48ec6de6b6d85e531cee3b6ed9905", "rental_uris": {"android": "https://dc.lft.to/lastmile_qr_scan", "ios": "https://dc.lft.to/lastmile_qr_scan"}, "lat": 38.89817566666667, "bike_id": "4de48ec6de6b6d85e531cee3b6ed9905", "is_disabled": 0, "lon": -77.02486366666666, "is_reserved": 0, "fusion_lat": 0.0, "type": "electric_scooter"}, {"fusion_lon": 0.0, "name": "932ca3535616665312b1f3be3c306ab3", "rental_uris": {"android": "https://dc.lft.to/lastmile_qr_scan", "ios": "https://dc.lft.to/lastmile_qr_scan"}, "lat": 38.8917175, "bike_id": "932ca3535616665312b1f3be3c306ab3", "is_disabled": 0, "lon": -77.01552133333334, "is_reserved": 0, "fusion_lat": 0.0, "type": "electric_scooter"}, {"fusion_lon": 0.0, "name": "ea5649559c20cada6183e6e2108eb4a5", "rental_uris": {"android": "https://dc.lft.to/lastmile_qr_scan", "ios": "https://dc.lft.to/lastmile_qr_scan"}, "lat": 38.917533166666665, "bike_id": "ea5649559c20cada6183e6e2108eb4a5", "is_disabled": 0, "lon": -77.01216166666667, "is_reserved": 0, "fusion_lat": 0.0, "type": "electric_scooter"}, {"fusion_lon": 0.0, "name": "c7f52e38fc3b0a523f8610726a08fdd7", "rental_uris": {"android": "https://dc.lft.to/lastmile_qr_scan", "ios": "https://dc.lft.to/lastmile_qr_scan"}, "lat": 38.90821016666666, "bike_id": "c7f52e38fc3b0a523f8610726a08fdd7", "is_disabled": 0, "lon": -77.03839516666666, "is_reserved": 0, "fusion_lat": 0.0, "type": "electric_scooter"}, {"fusion_lon": 0.0, "name": "ac7afa3d383535d5c26dbd0b699d6b0e", "rental_uris": {"android": "https://dc.lft.to/lastmile_qr_scan", "ios": "https://dc.lft.to/lastmile_qr_scan"}, "lat": 38.907195, "bike_id": "ac7afa3d383535d5c26dbd0b699d6b0e", "is_disabled": 0, "lon": -77.02988433333333, "is_reserved": 0, "fusion_lat": 0.0, "type": "electric_scooter"}, {"fusion_lon": 0.0, "name": "af285b3d082c2169232c96c9517862c0", "rental_uris": {"android": "https://dc.lft.to/lastmile_qr_scan", "ios": "https://dc.lft.to/lastmile_qr_scan"}, "lat": 38.921258, "bike_id": "af285b3d082c2169232c96c9517862c0", "is_disabled": 0, "lon": -77.02144383333334, "is_reserved": 0, "fusion_lat": 0.0, "type": "electric_scooter"}, {"fusion_lon": 0.0, "name": "bc2c5c1180979c5d18c9116880177299", "rental_uris": {"android": "https://dc.lft.to/lastmile_qr_scan", "ios": "https://dc.lft.to/lastmile_qr_scan"}, "lat": 38.91554566666667, "bike_id": "bc2c5c1180979c5d18c9116880177299", "is_disabled": 0, "lon": -77.03668766666667, "is_reserved": 0, "fusion_lat": 0.0, "type": "electric_scooter"}, {"fusion_lon": 0.0, "name": "f56bdb0639b0fb89f2e9631c3a32437e", "rental_uris": {"android": "https://dc.lft.to/lastmile_qr_scan", "ios": "https://dc.lft.to/lastmile_qr_scan"}, "lat": 38.90216516666667, "bike_id": "f56bdb0639b0fb89f2e9631c3a32437e", "is_disabled": 0, "lon": -77.02164766666667, "is_reserved": 0, "fusion_lat": 0.0, "type": "electric_scooter"}, {"fusion_lon": 0.0, "name": "0f4ec515aa742a3941fd9f93353c7e8d", "rental_uris": {"android": "https://dc.lft.to/lastmile_qr_scan", "ios": "https://dc.lft.to/lastmile_qr_scan"}, "lat": 38.90829566666667, "bike_id": "0f4ec515aa742a3941fd9f93353c7e8d", "is_disabled": 0, "lon": -76.94161616666666, "is_reserved": 0, "fusion_lat": 0.0, "type": "electric_bike"}, {"fusion_lon": 0.0, "name": "57589d629db9351a6ae8b696b0f1baa9", "rental_uris": {"android": "https://dc.lft.to/lastmile_qr_scan", "ios": "https://dc.lft.to/lastmile_qr_scan"}, "lat": 38.906307166666664, "bike_id": "57589d629db9351a6ae8b696b0f1baa9", "is_disabled": 0, "lon": -77.04131, "is_reserved": 0, "fusion_lat": 0.0, "type": "electric_scooter"}, {"fusion_lon": 0.0, "name": "4525d0bd2101d46c847f32e7a05314ce", "rental_uris": {"android": "https://dc.lft.to/lastmile_qr_scan", "ios": "https://dc.lft.to/lastmile_qr_scan"}, "lat": 38.926548333333336, "bike_id": "4525d0bd2101d46c847f32e7a05314ce", "is_disabled": 0, "lon": -77.040635, "is_reserved": 0, "fusion_lat": 0.0, "type": "electric_scooter"}, {"fusion_lon": 0.0, "name": "a69691e27bd19d695d5d1d1ebac589c9", "rental_uris": {"android": "https://dc.lft.to/lastmile_qr_scan", "ios": "https://dc.lft.to/lastmile_qr_scan"}, "lat": 38.8759795, "bike_id": "a69691e27bd19d695d5d1d1ebac589c9", "is_disabled": 0, "lon": -77.00579966666666, "is_reserved": 0, "fusion_lat": 0.0, "type": "electric_scooter"}, {"fusion_lon": 0.0, "name": "cd0cd2515cad19d1b812c593a0892c51", "rental_uris": {"android": "https://dc.lft.to/lastmile_qr_scan", "ios": "https://dc.lft.to/lastmile_qr_scan"}, "lat": 38.898752, "bike_id": "cd0cd2515cad19d1b812c593a0892c51", "is_disabled": 0, "lon": -76.9884175, "is_reserved": 0, "fusion_lat": 0.0, "type": "electric_scooter"}, {"fusion_lon": 0.0, "name": "9ec639e1e8560c6e243f24520db0537d", "rental_uris": {"android": "https://dc.lft.to/lastmile_qr_scan", "ios": "https://dc.lft.to/lastmile_qr_scan"}, "lat": 38.87888916666667, "bike_id": "9ec639e1e8560c6e243f24520db0537d", "is_disabled": 0, "lon": -77.02208383333334, "is_reserved": 0, "fusion_lat": 0.0, "type": "electric_scooter"}, {"fusion_lon": 0.0, "name": "152710656faf0785240db309c9247abd", "rental_uris": {"android": "https://dc.lft.to/lastmile_qr_scan", "ios": "https://dc.lft.to/lastmile_qr_scan"}, "lat": 38.92663533333333, "bike_id": "152710656faf0785240db309c9247abd", "is_disabled": 0, "lon": -77.03029666666667, "is_reserved": 0, "fusion_lat": 0.0, "type": "electric_scooter"}, {"fusion_lon": 0.0, "name": "da2bfba5548982de426cae0cb2fa536a", "rental_uris": {"android": "https://dc.lft.to/lastmile_qr_scan", "ios": "https://dc.lft.to/lastmile_qr_scan"}, "lat": 38.9169265, "bike_id": "da2bfba5548982de426cae0cb2fa536a", "is_disabled": 0, "lon": -77.0311285, "is_reserved": 0, "fusion_lat": 0.0, "type": "electric_scooter"}, {"fusion_lon": 0.0, "name": "be0bf651ddb55d782c28a157bdd0b828", "rental_uris": {"android": "https://dc.lft.to/lastmile_qr_scan", "ios": "https://dc.lft.to/lastmile_qr_scan"}, "lat": 38.9051045, "bike_id": "be0bf651ddb55d782c28a157bdd0b828", "is_disabled": 0, "lon": -77.00212933333333, "is_reserved": 0, "fusion_lat": 0.0, "type": "electric_scooter"}, {"fusion_lon": 0.0, "name": "55387f163723baf5a266cb4dbef910bf", "rental_uris": {"android": "https://dc.lft.to/lastmile_qr_scan", "ios": "https://dc.lft.to/lastmile_qr_scan"}, "lat": 38.926157833333335, "bike_id": "55387f163723baf5a266cb4dbef910bf", "is_disabled": 0, "lon": -77.02162316666667, "is_reserved": 0, "fusion_lat": 0.0, "type": "electric_scooter"}, {"fusion_lon": 0.0, "name": "21058eee333ca73e742784769cb967fc", "rental_uris": {"android": "https://dc.lft.to/lastmile_qr_scan", "ios": "https://dc.lft.to/lastmile_qr_scan"}, "lat": 38.892256833333334, "bike_id": "21058eee333ca73e742784769cb967fc", "is_disabled": 0, "lon": -77.01723333333334, "is_reserved": 0, "fusion_lat": 0.0, "type": "electric_scooter"}, {"fusion_lon": 0.0, "name": "3eac4ac5c3f927934607ead0e08a485c", "rental_uris": {"android": "https://dc.lft.to/lastmile_qr_scan", "ios": "https://dc.lft.to/lastmile_qr_scan"}, "lat": 38.925997333333335, "bike_id": "3eac4ac5c3f927934607ead0e08a485c", "is_disabled": 0, "lon": -77.021566, "is_reserved": 0, "fusion_lat": 0.0, "type": "electric_scooter"}, {"fusion_lon": 0.0, "name": "784d44ddde05189bbd1279b9a326b261", "rental_uris": {"android": "https://dc.lft.to/lastmile_qr_scan", "ios": "https://dc.lft.to/lastmile_qr_scan"}, "lat": 38.9089355, "bike_id": "784d44ddde05189bbd1279b9a326b261", "is_disabled": 0, "lon": -76.99127483333334, "is_reserved": 0, "fusion_lat": 0.0, "type": "electric_scooter"}, {"fusion_lon": 0.0, "name": "96d64e64a63781c8866d9ae3102bd950", "rental_uris": {"android": "https://dc.lft.to/lastmile_qr_scan", "ios": "https://dc.lft.to/lastmile_qr_scan"}, "lat": 38.89497716666666, "bike_id": "96d64e64a63781c8866d9ae3102bd950", "is_disabled": 0, "lon": -77.002092, "is_reserved": 0, "fusion_lat": 0.0, "type": "electric_scooter"}, {"fusion_lon": 0.0, "name": "82427a030153b400d2caa98ba47aa105", "rental_uris": {"android": "https://dc.lft.to/lastmile_qr_scan", "ios": "https://dc.lft.to/lastmile_qr_scan"}, "lat": 38.900133333333336, "bike_id": "82427a030153b400d2caa98ba47aa105", "is_disabled": 0, "lon": -76.9302425, "is_reserved": 0, "fusion_lat": 0.0, "type": "electric_scooter"}, {"fusion_lon": 0.0, "name": "a1fa21b9a92c859af02fc025a0abeeb1", "rental_uris": {"android": "https://dc.lft.to/lastmile_qr_scan", "ios": "https://dc.lft.to/lastmile_qr_scan"}, "lat": 38.893025333333334, "bike_id": "a1fa21b9a92c859af02fc025a0abeeb1", "is_disabled": 0, "lon": -76.92986183333333, "is_reserved": 0, "fusion_lat": 0.0, "type": "electric_scooter"}, {"fusion_lon": 0.0, "name": "b79d39866f8ff07991a6f679bd60a433", "rental_uris": {"android": "https://dc.lft.to/lastmile_qr_scan", "ios": "https://dc.lft.to/lastmile_qr_scan"}, "lat": 38.9002465, "bike_id": "b79d39866f8ff07991a6f679bd60a433", "is_disabled": 0, "lon": -77.00202683333333, "is_reserved": 0, "fusion_lat": 0.0, "type": "electric_scooter"}, {"fusion_lon": 0.0, "name": "6e19ef7f1a66454c1d7314e876a8042b", "rental_uris": {"android": "https://dc.lft.to/lastmile_qr_scan", "ios": "https://dc.lft.to/lastmile_qr_scan"}, "lat": 38.8882115, "bike_id": "6e19ef7f1a66454c1d7314e876a8042b", "is_disabled": 0, "lon": -76.9770405, "is_reserved": 0, "fusion_lat": 0.0, "type": "electric_scooter"}, {"fusion_lon": 0.0, "name": "a2b1c2953bf1aa9f2cb2f5345e8a6fdb", "rental_uris": {"android": "https://dc.lft.to/lastmile_qr_scan", "ios": "https://dc.lft.to/lastmile_qr_scan"}, "lat": 38.92887916666667, "bike_id": "a2b1c2953bf1aa9f2cb2f5345e8a6fdb", "is_disabled": 0, "lon": -77.026011, "is_reserved": 0, "fusion_lat": 0.0, "type": "electric_scooter"}, {"fusion_lon": 0.0, "name": "da62511cef78673310864792172f2085", "rental_uris": {"android": "https://dc.lft.to/lastmile_qr_scan", "ios": "https://dc.lft.to/lastmile_qr_scan"}, "lat": 38.916217333333336, "bike_id": "da62511cef78673310864792172f2085", "is_disabled": 0, "lon": -77.00188833333333, "is_reserved": 0, "fusion_lat": 0.0, "type": "electric_scooter"}, {"fusion_lon": 0.0, "name": "0e20680f04c02473c05c8937427a564a", "rental_uris": {"android": "https://dc.lft.to/lastmile_qr_scan", "ios": "https://dc.lft.to/lastmile_qr_scan"}, "lat": 38.92081366666667, "bike_id": "0e20680f04c02473c05c8937427a564a", "is_disabled": 0, "lon": -77.03568233333333, "is_reserved": 0, "fusion_lat": 0.0, "type": "electric_scooter"}, {"fusion_lon": 0.0, "name": "38aaaa3b6b2f309516f501128b8e2e96", "rental_uris": {"android": "https://dc.lft.to/lastmile_qr_scan", "ios": "https://dc.lft.to/lastmile_qr_scan"}, "lat": 38.9234255, "bike_id": "38aaaa3b6b2f309516f501128b8e2e96", "is_disabled": 0, "lon": -77.04852666666666, "is_reserved": 0, "fusion_lat": 0.0, "type": "electric_scooter"}, {"fusion_lon": 0.0, "name": "e513e8ba6f0492869d57811379d29570", "rental_uris": {"android": "https://dc.lft.to/lastmile_qr_scan", "ios": "https://dc.lft.to/lastmile_qr_scan"}, "lat": 38.90677933333333, "bike_id": "e513e8ba6f0492869d57811379d29570", "is_disabled": 0, "lon": -77.02694216666667, "is_reserved": 0, "fusion_lat": 0.0, "type": "electric_scooter"}, {"fusion_lon": 0.0, "name": "20ba6c3aeefa08522f01d9164e2a88db", "rental_uris": {"android": "https://dc.lft.to/lastmile_qr_scan", "ios": "https://dc.lft.to/lastmile_qr_scan"}, "lat": 38.95954733333333, "bike_id": "20ba6c3aeefa08522f01d9164e2a88db", "is_disabled": 0, "lon": -77.03055816666667, "is_reserved": 0, "fusion_lat": 0.0, "type": "electric_bike"}, {"fusion_lon": 0.0, "name": "af310832afab4d9f697367ef21fb8cb6", "rental_uris": {"android": "https://dc.lft.to/lastmile_qr_scan", "ios": "https://dc.lft.to/lastmile_qr_scan"}, "lat": 38.931300666666665, "bike_id": "af310832afab4d9f697367ef21fb8cb6", "is_disabled": 0, "lon": -77.0226755, "is_reserved": 0, "fusion_lat": 0.0, "type": "electric_scooter"}, {"fusion_lon": 0.0, "name": "19186279caef4b98ae82d0e3d07bd3f3", "rental_uris": {"android": "https://dc.lft.to/lastmile_qr_scan", "ios": "https://dc.lft.to/lastmile_qr_scan"}, "lat": 38.9076965, "bike_id": "19186279caef4b98ae82d0e3d07bd3f3", "is_disabled": 0, "lon": -77.04541133333333, "is_reserved": 0, "fusion_lat": 0.0, "type": "electric_scooter"}, {"fusion_lon": 0.0, "name": "5d862d7efd72f19ceb8ea92ef1b58a90", "rental_uris": {"android": "https://dc.lft.to/lastmile_qr_scan", "ios": "https://dc.lft.to/lastmile_qr_scan"}, "lat": 38.93418783333333, "bike_id": "5d862d7efd72f19ceb8ea92ef1b58a90", "is_disabled": 0, "lon": -77.02508466666667, "is_reserved": 0, "fusion_lat": 0.0, "type": "electric_bike"}, {"fusion_lon": 0.0, "name": "fd289b781a6af8b650fc7705130aee60", "rental_uris": {"android": "https://dc.lft.to/lastmile_qr_scan", "ios": "https://dc.lft.to/lastmile_qr_scan"}, "lat": 38.882287833333336, "bike_id": "fd289b781a6af8b650fc7705130aee60", "is_disabled": 0, "lon": -76.99091166666666, "is_reserved": 0, "fusion_lat": 0.0, "type": "electric_scooter"}, {"fusion_lon": 0.0, "name": "a7a1fbdb70ede56c12a14a3aa9e2558f", "rental_uris": {"android": "https://dc.lft.to/lastmile_qr_scan", "ios": "https://dc.lft.to/lastmile_qr_scan"}, "lat": 38.91571783333333, "bike_id": "a7a1fbdb70ede56c12a14a3aa9e2558f", "is_disabled": 0, "lon": -77.03170233333333, "is_reserved": 0, "fusion_lat": 0.0, "type": "electric_scooter"}, {"fusion_lon": 0.0, "name": "fe57ab7373878883dd916d28e5f4fbff", "rental_uris": {"android": "https://dc.lft.to/lastmile_qr_scan", "ios": "https://dc.lft.to/lastmile_qr_scan"}, "lat": 38.846722166666666, "bike_id": "fe57ab7373878883dd916d28e5f4fbff", "is_disabled": 0, "lon": -77.13924716666666, "is_reserved": 0, "fusion_lat": 0.0, "type": "electric_bike"}, {"fusion_lon": 0.0, "name": "3b9b5af0be9e5e864ef2549b25aab268", "rental_uris": {"android": "https://dc.lft.to/lastmile_qr_scan", "ios": "https://dc.lft.to/lastmile_qr_scan"}, "lat": 38.91316616666667, "bike_id": "3b9b5af0be9e5e864ef2549b25aab268", "is_disabled": 0, "lon": -77.04569333333333, "is_reserved": 0, "fusion_lat": 0.0, "type": "electric_scooter"}, {"fusion_lon": 0.0, "name": "5e3d75d512d4bb6d1338250b74e0814f", "rental_uris": {"android": "https://dc.lft.to/lastmile_qr_scan", "ios": "https://dc.lft.to/lastmile_qr_scan"}, "lat": 38.930480833333334, "bike_id": "5e3d75d512d4bb6d1338250b74e0814f", "is_disabled": 0, "lon": -76.95838033333334, "is_reserved": 0, "fusion_lat": 0.0, "type": "electric_scooter"}, {"fusion_lon": 0.0, "name": "c3b50c6a3048e755a43179f5df892336", "rental_uris": {"android": "https://dc.lft.to/lastmile_qr_scan", "ios": "https://dc.lft.to/lastmile_qr_scan"}, "lat": 38.91661366666666, "bike_id": "c3b50c6a3048e755a43179f5df892336", "is_disabled": 0, "lon": -77.03208516666666, "is_reserved": 0, "fusion_lat": 0.0, "type": "electric_scooter"}, {"fusion_lon": 0.0, "name": "a16c02742012b6300c629fffc71f95f5", "rental_uris": {"android": "https://dc.lft.to/lastmile_qr_scan", "ios": "https://dc.lft.to/lastmile_qr_scan"}, "lat": 38.92969633333333, "bike_id": "a16c02742012b6300c629fffc71f95f5", "is_disabled": 0, "lon": -77.02793433333333, "is_reserved": 0, "fusion_lat": 0.0, "type": "electric_scooter"}, {"fusion_lon": 0.0, "name": "744888fcb2e03d80213326bda756ba72", "rental_uris": {"android": "https://dc.lft.to/lastmile_qr_scan", "ios": "https://dc.lft.to/lastmile_qr_scan"}, "lat": 38.92242933333333, "bike_id": "744888fcb2e03d80213326bda756ba72", "is_disabled": 0, "lon": -77.04363583333334, "is_reserved": 0, "fusion_lat": 0.0, "type": "electric_scooter"}, {"fusion_lon": 0.0, "name": "4a2b085524f3dfad5f17ab197c41059f", "rental_uris": {"android": "https://dc.lft.to/lastmile_qr_scan", "ios": "https://dc.lft.to/lastmile_qr_scan"}, "lat": 38.9005195, "bike_id": "4a2b085524f3dfad5f17ab197c41059f", "is_disabled": 0, "lon": -77.04893233333334, "is_reserved": 0, "fusion_lat": 0.0, "type": "electric_scooter"}, {"fusion_lon": 0.0, "name": "7815ad69c059973fbecd2937d045350f", "rental_uris": {"android": "https://dc.lft.to/lastmile_qr_scan", "ios": "https://dc.lft.to/lastmile_qr_scan"}, "lat": 38.91418783333334, "bike_id": "7815ad69c059973fbecd2937d045350f", "is_disabled": 0, "lon": -77.01806783333333, "is_reserved": 0, "fusion_lat": 0.0, "type": "electric_scooter"}, {"fusion_lon": 0.0, "name": "0522abb79686b2eeabb5662401416616", "rental_uris": {"android": "https://dc.lft.to/lastmile_qr_scan", "ios": "https://dc.lft.to/lastmile_qr_scan"}, "lat": 38.89672866666667, "bike_id": "0522abb79686b2eeabb5662401416616", "is_disabled": 0, "lon": -77.0435905, "is_reserved": 0, "fusion_lat": 0.0, "type": "electric_scooter"}, {"fusion_lon": 0.0, "name": "1b9e0ff4f7e1dfd578f3707745e3cfa2", "rental_uris": {"android": "https://dc.lft.to/lastmile_qr_scan", "ios": "https://dc.lft.to/lastmile_qr_scan"}, "lat": 38.9260625, "bike_id": "1b9e0ff4f7e1dfd578f3707745e3cfa2", "is_disabled": 0, "lon": -77.02157083333333, "is_reserved": 0, "fusion_lat": 0.0, "type": "electric_scooter"}, {"fusion_lon": 0.0, "name": "214b915a1ff166b7689a6eefc2949a32", "rental_uris": {"android": "https://dc.lft.to/lastmile_qr_scan", "ios": "https://dc.lft.to/lastmile_qr_scan"}, "lat": 38.93556533333334, "bike_id": "214b915a1ff166b7689a6eefc2949a32", "is_disabled": 0, "lon": -77.03480933333333, "is_reserved": 0, "fusion_lat": 0.0, "type": "electric_scooter"}, {"fusion_lon": 0.0, "name": "2582e7ee9b2c03d7858d656ccce4e17c", "rental_uris": {"android": "https://dc.lft.to/lastmile_qr_scan", "ios": "https://dc.lft.to/lastmile_qr_scan"}, "lat": 38.929194333333335, "bike_id": "2582e7ee9b2c03d7858d656ccce4e17c", "is_disabled": 0, "lon": -76.99819583333333, "is_reserved": 0, "fusion_lat": 0.0, "type": "electric_scooter"}, {"fusion_lon": 0.0, "name": "2f7a740f104673415e8cdb94b89f4326", "rental_uris": {"android": "https://dc.lft.to/lastmile_qr_scan", "ios": "https://dc.lft.to/lastmile_qr_scan"}, "lat": 38.935001, "bike_id": "2f7a740f104673415e8cdb94b89f4326", "is_disabled": 0, "lon": -77.0201195, "is_reserved": 0, "fusion_lat": 0.0, "type": "electric_scooter"}, {"fusion_lon": 0.0, "name": "9535685e3b433e84471d5640c7e03156", "rental_uris": {"android": "https://dc.lft.to/lastmile_qr_scan", "ios": "https://dc.lft.to/lastmile_qr_scan"}, "lat": 38.902689333333335, "bike_id": "9535685e3b433e84471d5640c7e03156", "is_disabled": 0, "lon": -77.01740816666667, "is_reserved": 0, "fusion_lat": 0.0, "type": "electric_scooter"}, {"fusion_lon": 0.0, "name": "ace940cb504e7a94e4e49318a420b4c9", "rental_uris": {"android": "https://dc.lft.to/lastmile_qr_scan", "ios": "https://dc.lft.to/lastmile_qr_scan"}, "lat": 38.89543466666667, "bike_id": "ace940cb504e7a94e4e49318a420b4c9", "is_disabled": 0, "lon": -76.98337433333333, "is_reserved": 0, "fusion_lat": 0.0, "type": "electric_scooter"}, {"fusion_lon": 0.0, "name": "e1180e6b67c9c819f6223f3a7ca00f38", "rental_uris": {"android": "https://dc.lft.to/lastmile_qr_scan", "ios": "https://dc.lft.to/lastmile_qr_scan"}, "lat": 38.907551833333336, "bike_id": "e1180e6b67c9c819f6223f3a7ca00f38", "is_disabled": 0, "lon": -77.05983383333333, "is_reserved": 0, "fusion_lat": 0.0, "type": "electric_scooter"}, {"fusion_lon": 0.0, "name": "13d670178cf3453078cc81683b7a554a", "rental_uris": {"android": "https://dc.lft.to/lastmile_qr_scan", "ios": "https://dc.lft.to/lastmile_qr_scan"}, "lat": 38.919159666666665, "bike_id": "13d670178cf3453078cc81683b7a554a", "is_disabled": 0, "lon": -77.034246, "is_reserved": 0, "fusion_lat": 0.0, "type": "electric_scooter"}, {"fusion_lon": 0.0, "name": "f2953ed95227bf777b55305fd0094349", "rental_uris": {"android": "https://dc.lft.to/lastmile_qr_scan", "ios": "https://dc.lft.to/lastmile_qr_scan"}, "lat": 38.924711333333335, "bike_id": "f2953ed95227bf777b55305fd0094349", "is_disabled": 0, "lon": -77.0383075, "is_reserved": 0, "fusion_lat": 0.0, "type": "electric_scooter"}, {"fusion_lon": 0.0, "name": "dfbbd75366e5f8bb486bacf7cb28d3ba", "rental_uris": {"android": "https://dc.lft.to/lastmile_qr_scan", "ios": "https://dc.lft.to/lastmile_qr_scan"}, "lat": 38.917073333333335, "bike_id": "dfbbd75366e5f8bb486bacf7cb28d3ba", "is_disabled": 0, "lon": -77.03865283333333, "is_reserved": 0, "fusion_lat": 0.0, "type": "electric_scooter"}, {"fusion_lon": 0.0, "name": "75c3e5a97467947858e8e295eec931d3", "rental_uris": {"android": "https://dc.lft.to/lastmile_qr_scan", "ios": "https://dc.lft.to/lastmile_qr_scan"}, "lat": 38.94459166666667, "bike_id": "75c3e5a97467947858e8e295eec931d3", "is_disabled": 0, "lon": -77.06397766666667, "is_reserved": 0, "fusion_lat": 0.0, "type": "electric_scooter"}, {"fusion_lon": 0.0, "name": "d2b58a5be383f80cf5117855585b6023", "rental_uris": {"android": "https://dc.lft.to/lastmile_qr_scan", "ios": "https://dc.lft.to/lastmile_qr_scan"}, "lat": 38.898832, "bike_id": "d2b58a5be383f80cf5117855585b6023", "is_disabled": 0, "lon": -76.98836616666667, "is_reserved": 0, "fusion_lat": 0.0, "type": "electric_scooter"}, {"fusion_lon": 0.0, "name": "083a28905ca312c6a1aa77bf8b2a482c", "rental_uris": {"android": "https://dc.lft.to/lastmile_qr_scan", "ios": "https://dc.lft.to/lastmile_qr_scan"}, "lat": 38.924667166666666, "bike_id": "083a28905ca312c6a1aa77bf8b2a482c", "is_disabled": 0, "lon": -77.03284033333334, "is_reserved": 0, "fusion_lat": 0.0, "type": "electric_scooter"}, {"fusion_lon": 0.0, "name": "e26170ccbebcbdb9e47e68973fc1bc5a", "rental_uris": {"android": "https://dc.lft.to/lastmile_qr_scan", "ios": "https://dc.lft.to/lastmile_qr_scan"}, "lat": 38.900231833333336, "bike_id": "e26170ccbebcbdb9e47e68973fc1bc5a", "is_disabled": 0, "lon": -77.00234166666667, "is_reserved": 0, "fusion_lat": 0.0, "type": "electric_scooter"}, {"fusion_lon": 0.0, "name": "f31e55e5df9204bb33e811389a15ce9c", "rental_uris": {"android": "https://dc.lft.to/lastmile_qr_scan", "ios": "https://dc.lft.to/lastmile_qr_scan"}, "lat": 38.918591, "bike_id": "f31e55e5df9204bb33e811389a15ce9c", "is_disabled": 0, "lon": -77.03182483333333, "is_reserved": 0, "fusion_lat": 0.0, "type": "electric_scooter"}, {"fusion_lon": 0.0, "name": "a0dee0306d5992939b01d1956d635f53", "rental_uris": {"android": "https://dc.lft.to/lastmile_qr_scan", "ios": "https://dc.lft.to/lastmile_qr_scan"}, "lat": 38.940199666666665, "bike_id": "a0dee0306d5992939b01d1956d635f53", "is_disabled": 0, "lon": -77.02505666666667, "is_reserved": 0, "fusion_lat": 0.0, "type": "electric_scooter"}, {"fusion_lon": 0.0, "name": "88684cfd5dd950ff4ec977a8d105c5ca", "rental_uris": {"android": "https://dc.lft.to/lastmile_qr_scan", "ios": "https://dc.lft.to/lastmile_qr_scan"}, "lat": 38.91842416666667, "bike_id": "88684cfd5dd950ff4ec977a8d105c5ca", "is_disabled": 0, "lon": -77.03859416666667, "is_reserved": 0, "fusion_lat": 0.0, "type": "electric_scooter"}, {"fusion_lon": 0.0, "name": "c7b7c021e7e3aeda782fc574be468cc2", "rental_uris": {"android": "https://dc.lft.to/lastmile_qr_scan", "ios": "https://dc.lft.to/lastmile_qr_scan"}, "lat": 38.8805305, "bike_id": "c7b7c021e7e3aeda782fc574be468cc2", "is_disabled": 0, "lon": -77.00338766666667, "is_reserved": 0, "fusion_lat": 0.0, "type": "electric_scooter"}, {"fusion_lon": 0.0, "name": "c62005a3bd61ef103cd2eb358e1cb909", "rental_uris": {"android": "https://dc.lft.to/lastmile_qr_scan", "ios": "https://dc.lft.to/lastmile_qr_scan"}, "lat": 38.87746466666667, "bike_id": "c62005a3bd61ef103cd2eb358e1cb909", "is_disabled": 0, "lon": -77.01204, "is_reserved": 0, "fusion_lat": 0.0, "type": "electric_bike"}, {"fusion_lon": 0.0, "name": "7b8538ceb98d7fcc84eabab482e99b5d", "rental_uris": {"android": "https://dc.lft.to/lastmile_qr_scan", "ios": "https://dc.lft.to/lastmile_qr_scan"}, "lat": 38.93637283333333, "bike_id": "7b8538ceb98d7fcc84eabab482e99b5d", "is_disabled": 0, "lon": -77.032623, "is_reserved": 0, "fusion_lat": 0.0, "type": "electric_scooter"}, {"fusion_lon": 0.0, "name": "9d42a8c601987ecdba4707b3d646456f", "rental_uris": {"android": "https://dc.lft.to/lastmile_qr_scan", "ios": "https://dc.lft.to/lastmile_qr_scan"}, "lat": 38.90961766666667, "bike_id": "9d42a8c601987ecdba4707b3d646456f", "is_disabled": 0, "lon": -77.0244205, "is_reserved": 0, "fusion_lat": 0.0, "type": "electric_scooter"}, {"fusion_lon": 0.0, "name": "de36c0a012ecf10003859ad4622bb5d5", "rental_uris": {"android": "https://dc.lft.to/lastmile_qr_scan", "ios": "https://dc.lft.to/lastmile_qr_scan"}, "lat": 38.91613566666667, "bike_id": "de36c0a012ecf10003859ad4622bb5d5", "is_disabled": 0, "lon": -77.02312766666667, "is_reserved": 0, "fusion_lat": 0.0, "type": "electric_scooter"}, {"fusion_lon": 0.0, "name": "5bb4ee8160d6f205b505381126ac0e85", "rental_uris": {"android": "https://dc.lft.to/lastmile_qr_scan", "ios": "https://dc.lft.to/lastmile_qr_scan"}, "lat": 38.9736805, "bike_id": "5bb4ee8160d6f205b505381126ac0e85", "is_disabled": 0, "lon": -77.01865816666667, "is_reserved": 0, "fusion_lat": 0.0, "type": "electric_scooter"}, {"fusion_lon": 0.0, "name": "25fe84e46eb44d3b61af91f326a9e0e6", "rental_uris": {"android": "https://dc.lft.to/lastmile_qr_scan", "ios": "https://dc.lft.to/lastmile_qr_scan"}, "lat": 38.90779783333333, "bike_id": "25fe84e46eb44d3b61af91f326a9e0e6", "is_disabled": 0, "lon": -76.998605, "is_reserved": 0, "fusion_lat": 0.0, "type": "electric_scooter"}, {"fusion_lon": 0.0, "name": "0e688fc9f1d8750d388df0c3fd7581a2", "rental_uris": {"android": "https://dc.lft.to/lastmile_qr_scan", "ios": "https://dc.lft.to/lastmile_qr_scan"}, "lat": 38.94166933333333, "bike_id": "0e688fc9f1d8750d388df0c3fd7581a2", "is_disabled": 0, "lon": -77.02559016666666, "is_reserved": 0, "fusion_lat": 0.0, "type": "electric_scooter"}, {"fusion_lon": 0.0, "name": "b90b159d8c100d7f4543cac94efa8597", "rental_uris": {"android": "https://dc.lft.to/lastmile_qr_scan", "ios": "https://dc.lft.to/lastmile_qr_scan"}, "lat": 38.9094995, "bike_id": "b90b159d8c100d7f4543cac94efa8597", "is_disabled": 0, "lon": -77.04496683333333, "is_reserved": 0, "fusion_lat": 0.0, "type": "electric_scooter"}, {"fusion_lon": 0.0, "name": "33bd0ee4c3eba98252e6b486cb1fea40", "rental_uris": {"android": "https://dc.lft.to/lastmile_qr_scan", "ios": "https://dc.lft.to/lastmile_qr_scan"}, "lat": 38.905841833333334, "bike_id": "33bd0ee4c3eba98252e6b486cb1fea40", "is_disabled": 0, "lon": -77.046939, "is_reserved": 0, "fusion_lat": 0.0, "type": "electric_scooter"}, {"fusion_lon": 0.0, "name": "3face9073d2b3289310f6e608f8bb6f0", "rental_uris": {"android": "https://dc.lft.to/lastmile_qr_scan", "ios": "https://dc.lft.to/lastmile_qr_scan"}, "lat": 38.917589166666666, "bike_id": "3face9073d2b3289310f6e608f8bb6f0", "is_disabled": 0, "lon": -77.00920833333333, "is_reserved": 0, "fusion_lat": 0.0, "type": "electric_scooter"}, {"fusion_lon": 0.0, "name": "2113dbfd6f5e0cd8d061ebceaa7fc1b7", "rental_uris": {"android": "https://dc.lft.to/lastmile_qr_scan", "ios": "https://dc.lft.to/lastmile_qr_scan"}, "lat": 38.90366266666667, "bike_id": "2113dbfd6f5e0cd8d061ebceaa7fc1b7", "is_disabled": 0, "lon": -76.9984055, "is_reserved": 0, "fusion_lat": 0.0, "type": "electric_scooter"}, {"fusion_lon": 0.0, "name": "1cba9d12141afae6f401544600e14ee2", "rental_uris": {"android": "https://dc.lft.to/lastmile_qr_scan", "ios": "https://dc.lft.to/lastmile_qr_scan"}, "lat": 38.9052455, "bike_id": "1cba9d12141afae6f401544600e14ee2", "is_disabled": 0, "lon": -77.06232816666666, "is_reserved": 0, "fusion_lat": 0.0, "type": "electric_scooter"}, {"fusion_lon": 0.0, "name": "e9d86adab4b55ce54671d22ee53c6326", "rental_uris": {"android": "https://dc.lft.to/lastmile_qr_scan", "ios": "https://dc.lft.to/lastmile_qr_scan"}, "lat": 38.914783166666666, "bike_id": "e9d86adab4b55ce54671d22ee53c6326", "is_disabled": 0, "lon": -77.04010183333334, "is_reserved": 0, "fusion_lat": 0.0, "type": "electric_scooter"}, {"fusion_lon": 0.0, "name": "5aba20170e679e21a26b261ab4b21588", "rental_uris": {"android": "https://dc.lft.to/lastmile_qr_scan", "ios": "https://dc.lft.to/lastmile_qr_scan"}, "lat": 38.916511166666666, "bike_id": "5aba20170e679e21a26b261ab4b21588", "is_disabled": 0, "lon": -77.00946116666667, "is_reserved": 0, "fusion_lat": 0.0, "type": "electric_scooter"}, {"fusion_lon": 0.0, "name": "baa1aa70caa289873a68676bb54a43bb", "rental_uris": {"android": "https://dc.lft.to/lastmile_qr_scan", "ios": "https://dc.lft.to/lastmile_qr_scan"}, "lat": 38.80868566666667, "bike_id": "baa1aa70caa289873a68676bb54a43bb", "is_disabled": 0, "lon": -77.11254333333333, "is_reserved": 0, "fusion_lat": 0.0, "type": "electric_bike"}, {"fusion_lon": 0.0, "name": "96fcc0c9b4e84371a66e51e15cf2a66c", "rental_uris": {"android": "https://dc.lft.to/lastmile_qr_scan", "ios": "https://dc.lft.to/lastmile_qr_scan"}, "lat": 38.871971333333335, "bike_id": "96fcc0c9b4e84371a66e51e15cf2a66c", "is_disabled": 0, "lon": -77.00934666666667, "is_reserved": 0, "fusion_lat": 0.0, "type": "electric_scooter"}, {"fusion_lon": 0.0, "name": "24eae45c521361a76f2d519c54603af0", "rental_uris": {"android": "https://dc.lft.to/lastmile_qr_scan", "ios": "https://dc.lft.to/lastmile_qr_scan"}, "lat": 38.87174433333333, "bike_id": "24eae45c521361a76f2d519c54603af0", "is_disabled": 0, "lon": -77.233882, "is_reserved": 0, "fusion_lat": 0.0, "type": "electric_bike"}, {"fusion_lon": 0.0, "name": "fdab4f75e6521501cd12fb1c6b0853dd", "rental_uris": {"android": "https://dc.lft.to/lastmile_qr_scan", "ios": "https://dc.lft.to/lastmile_qr_scan"}, "lat": 38.87570783333334, "bike_id": "fdab4f75e6521501cd12fb1c6b0853dd", "is_disabled": 0, "lon": -77.005749, "is_reserved": 0, "fusion_lat": 0.0, "type": "electric_scooter"}, {"fusion_lon": 0.0, "name": "d94630263373e4a8b93f337f4167e948", "rental_uris": {"android": "https://dc.lft.to/lastmile_qr_scan", "ios": "https://dc.lft.to/lastmile_qr_scan"}, "lat": 38.9026335, "bike_id": "d94630263373e4a8b93f337f4167e948", "is_disabled": 0, "lon": -77.03127933333333, "is_reserved": 0, "fusion_lat": 0.0, "type": "electric_scooter"}, {"fusion_lon": 0.0, "name": "4a4cb599e64ececca2c90b2efd8863b0", "rental_uris": {"android": "https://dc.lft.to/lastmile_qr_scan", "ios": "https://dc.lft.to/lastmile_qr_scan"}, "lat": 38.807322166666665, "bike_id": "4a4cb599e64ececca2c90b2efd8863b0", "is_disabled": 0, "lon": -76.99260466666667, "is_reserved": 0, "fusion_lat": 0.0, "type": "electric_bike"}, {"fusion_lon": 0.0, "name": "cb1eac64d07cf6419088a1e319af7787", "rental_uris": {"android": "https://dc.lft.to/lastmile_qr_scan", "ios": "https://dc.lft.to/lastmile_qr_scan"}, "lat": 38.916625333333336, "bike_id": "cb1eac64d07cf6419088a1e319af7787", "is_disabled": 0, "lon": -77.03210866666667, "is_reserved": 0, "fusion_lat": 0.0, "type": "electric_scooter"}, {"fusion_lon": 0.0, "name": "fccc8aded6a9d618c64a08e6f785aa65", "rental_uris": {"android": "https://dc.lft.to/lastmile_qr_scan", "ios": "https://dc.lft.to/lastmile_qr_scan"}, "lat": 38.918196333333334, "bike_id": "fccc8aded6a9d618c64a08e6f785aa65", "is_disabled": 0, "lon": -77.023172, "is_reserved": 0, "fusion_lat": 0.0, "type": "electric_scooter"}, {"fusion_lon": 0.0, "name": "c8c5c158b23ef2f4a068e40afc801531", "rental_uris": {"android": "https://dc.lft.to/lastmile_qr_scan", "ios": "https://dc.lft.to/lastmile_qr_scan"}, "lat": 38.91984633333333, "bike_id": "c8c5c158b23ef2f4a068e40afc801531", "is_disabled": 0, "lon": -77.02701416666666, "is_reserved": 0, "fusion_lat": 0.0, "type": "electric_scooter"}, {"fusion_lon": 0.0, "name": "c40dca9b21af4887f6850c43927e29ee", "rental_uris": {"android": "https://dc.lft.to/lastmile_qr_scan", "ios": "https://dc.lft.to/lastmile_qr_scan"}, "lat": 38.879969833333334, "bike_id": "c40dca9b21af4887f6850c43927e29ee", "is_disabled": 0, "lon": -77.0374235, "is_reserved": 0, "fusion_lat": 0.0, "type": "electric_scooter"}, {"fusion_lon": 0.0, "name": "6659f5daf288071ddac1102b9bb4db29", "rental_uris": {"android": "https://dc.lft.to/lastmile_qr_scan", "ios": "https://dc.lft.to/lastmile_qr_scan"}, "lat": 38.904796, "bike_id": "6659f5daf288071ddac1102b9bb4db29", "is_disabled": 0, "lon": -77.05119533333334, "is_reserved": 0, "fusion_lat": 0.0, "type": "electric_scooter"}, {"fusion_lon": 0.0, "name": "1086c0474bc9472a7811f793fb7c7098", "rental_uris": {"android": "https://dc.lft.to/lastmile_qr_scan", "ios": "https://dc.lft.to/lastmile_qr_scan"}, "lat": 38.90960166666667, "bike_id": "1086c0474bc9472a7811f793fb7c7098", "is_disabled": 0, "lon": -77.03571783333334, "is_reserved": 0, "fusion_lat": 0.0, "type": "electric_scooter"}, {"fusion_lon": 0.0, "name": "38788bb3c570282cddae4266d38c29e1", "rental_uris": {"android": "https://dc.lft.to/lastmile_qr_scan", "ios": "https://dc.lft.to/lastmile_qr_scan"}, "lat": 38.926851666666664, "bike_id": "38788bb3c570282cddae4266d38c29e1", "is_disabled": 0, "lon": -77.0296575, "is_reserved": 0, "fusion_lat": 0.0, "type": "electric_scooter"}, {"fusion_lon": 0.0, "name": "9f0315e5b096f46556ef0c868ab6874a", "rental_uris": {"android": "https://dc.lft.to/lastmile_qr_scan", "ios": "https://dc.lft.to/lastmile_qr_scan"}, "lat": 38.884362333333335, "bike_id": "9f0315e5b096f46556ef0c868ab6874a", "is_disabled": 0, "lon": -76.95755333333334, "is_reserved": 0, "fusion_lat": 0.0, "type": "electric_scooter"}, {"fusion_lon": 0.0, "name": "87f15adf52c50b0539474fb71398def3", "rental_uris": {"android": "https://dc.lft.to/lastmile_qr_scan", "ios": "https://dc.lft.to/lastmile_qr_scan"}, "lat": 38.899465, "bike_id": "87f15adf52c50b0539474fb71398def3", "is_disabled": 0, "lon": -77.0471965, "is_reserved": 0, "fusion_lat": 0.0, "type": "electric_scooter"}, {"fusion_lon": 0.0, "name": "8a9c403022680f5d36a89769cb907e33", "rental_uris": {"android": "https://dc.lft.to/lastmile_qr_scan", "ios": "https://dc.lft.to/lastmile_qr_scan"}, "lat": 38.89221233333333, "bike_id": "8a9c403022680f5d36a89769cb907e33", "is_disabled": 0, "lon": -77.04371333333333, "is_reserved": 0, "fusion_lat": 0.0, "type": "electric_scooter"}, {"fusion_lon": 0.0, "name": "52d54be51a149dfc58a4e997fee83e10", "rental_uris": {"android": "https://dc.lft.to/lastmile_qr_scan", "ios": "https://dc.lft.to/lastmile_qr_scan"}, "lat": 38.92410733333333, "bike_id": "52d54be51a149dfc58a4e997fee83e10", "is_disabled": 0, "lon": -77.02140916666667, "is_reserved": 0, "fusion_lat": 0.0, "type": "electric_scooter"}, {"fusion_lon": 0.0, "name": "288139c25ad90fbe0da0174cd7ac4e10", "rental_uris": {"android": "https://dc.lft.to/lastmile_qr_scan", "ios": "https://dc.lft.to/lastmile_qr_scan"}, "lat": 38.95084033333333, "bike_id": "288139c25ad90fbe0da0174cd7ac4e10", "is_disabled": 0, "lon": -76.99799266666666, "is_reserved": 0, "fusion_lat": 0.0, "type": "electric_scooter"}, {"fusion_lon": 0.0, "name": "d2df5e81fa5deb581162c161b8fcbc6f", "rental_uris": {"android": "https://dc.lft.to/lastmile_qr_scan", "ios": "https://dc.lft.to/lastmile_qr_scan"}, "lat": 38.89906033333333, "bike_id": "d2df5e81fa5deb581162c161b8fcbc6f", "is_disabled": 0, "lon": -76.93389533333334, "is_reserved": 0, "fusion_lat": 0.0, "type": "electric_scooter"}, {"fusion_lon": 0.0, "name": "f764ef6c909cf132bd59af1b60e2ac00", "rental_uris": {"android": "https://dc.lft.to/lastmile_qr_scan", "ios": "https://dc.lft.to/lastmile_qr_scan"}, "lat": 38.93741266666667, "bike_id": "f764ef6c909cf132bd59af1b60e2ac00", "is_disabled": 0, "lon": -77.03279533333334, "is_reserved": 0, "fusion_lat": 0.0, "type": "electric_scooter"}, {"fusion_lon": 0.0, "name": "933c2ee76e3ae6ac57b7691db6478488", "rental_uris": {"android": "https://dc.lft.to/lastmile_qr_scan", "ios": "https://dc.lft.to/lastmile_qr_scan"}, "lat": 38.92396766666667, "bike_id": "933c2ee76e3ae6ac57b7691db6478488", "is_disabled": 0, "lon": -77.03416466666667, "is_reserved": 0, "fusion_lat": 0.0, "type": "electric_scooter"}, {"fusion_lon": 0.0, "name": "cb1b1aab731509c60a46ebbb6aba52cf", "rental_uris": {"android": "https://dc.lft.to/lastmile_qr_scan", "ios": "https://dc.lft.to/lastmile_qr_scan"}, "lat": 38.926831, "bike_id": "cb1b1aab731509c60a46ebbb6aba52cf", "is_disabled": 0, "lon": -77.02966916666666, "is_reserved": 0, "fusion_lat": 0.0, "type": "electric_scooter"}, {"fusion_lon": 0.0, "name": "945984087e6ad37bb7fda6ba9550fd96", "rental_uris": {"android": "https://dc.lft.to/lastmile_qr_scan", "ios": "https://dc.lft.to/lastmile_qr_scan"}, "lat": 38.964098666666665, "bike_id": "945984087e6ad37bb7fda6ba9550fd96", "is_disabled": 0, "lon": -77.03288283333333, "is_reserved": 0, "fusion_lat": 0.0, "type": "electric_scooter"}, {"fusion_lon": 0.0, "name": "2b8f81fcd416916119bc21015b375ccf", "rental_uris": {"android": "https://dc.lft.to/lastmile_qr_scan", "ios": "https://dc.lft.to/lastmile_qr_scan"}, "lat": 38.87070533333333, "bike_id": "2b8f81fcd416916119bc21015b375ccf", "is_disabled": 0, "lon": -77.11056166666667, "is_reserved": 0, "fusion_lat": 0.0, "type": "electric_bike"}, {"fusion_lon": 0.0, "name": "7ad26c3de2dab68286122c1dc0813b48", "rental_uris": {"android": "https://dc.lft.to/lastmile_qr_scan", "ios": "https://dc.lft.to/lastmile_qr_scan"}, "lat": 38.929701333333334, "bike_id": "7ad26c3de2dab68286122c1dc0813b48", "is_disabled": 0, "lon": -77.02338416666667, "is_reserved": 0, "fusion_lat": 0.0, "type": "electric_scooter"}, {"fusion_lon": 0.0, "name": "f179287c76e758a013e626bd28ff4264", "rental_uris": {"android": "https://dc.lft.to/lastmile_qr_scan", "ios": "https://dc.lft.to/lastmile_qr_scan"}, "lat": 38.926892, "bike_id": "f179287c76e758a013e626bd28ff4264", "is_disabled": 0, "lon": -77.0226945, "is_reserved": 0, "fusion_lat": 0.0, "type": "electric_scooter"}, {"fusion_lon": 0.0, "name": "ada7c3d9ee0034f203d5d3b633578537", "rental_uris": {"android": "https://dc.lft.to/lastmile_qr_scan", "ios": "https://dc.lft.to/lastmile_qr_scan"}, "lat": 38.8749755, "bike_id": "ada7c3d9ee0034f203d5d3b633578537", "is_disabled": 0, "lon": -76.997948, "is_reserved": 0, "fusion_lat": 0.0, "type": "electric_scooter"}, {"fusion_lon": 0.0, "name": "90eaee609cdae965db3e76ca09b295b2", "rental_uris": {"android": "https://dc.lft.to/lastmile_qr_scan", "ios": "https://dc.lft.to/lastmile_qr_scan"}, "lat": 38.92323433333333, "bike_id": "90eaee609cdae965db3e76ca09b295b2", "is_disabled": 0, "lon": -77.04185666666666, "is_reserved": 0, "fusion_lat": 0.0, "type": "electric_scooter"}, {"fusion_lon": 0.0, "name": "d534d500ae1cac8c9d198bfd5f3e0adc", "rental_uris": {"android": "https://dc.lft.to/lastmile_qr_scan", "ios": "https://dc.lft.to/lastmile_qr_scan"}, "lat": 38.90268316666667, "bike_id": "d534d500ae1cac8c9d198bfd5f3e0adc", "is_disabled": 0, "lon": -77.03037016666667, "is_reserved": 0, "fusion_lat": 0.0, "type": "electric_scooter"}, {"fusion_lon": 0.0, "name": "e91c38797bac3428cd0f2ac55d980f65", "rental_uris": {"android": "https://dc.lft.to/lastmile_qr_scan", "ios": "https://dc.lft.to/lastmile_qr_scan"}, "lat": 38.92312883333334, "bike_id": "e91c38797bac3428cd0f2ac55d980f65", "is_disabled": 0, "lon": -77.04019133333334, "is_reserved": 0, "fusion_lat": 0.0, "type": "electric_scooter"}, {"fusion_lon": 0.0, "name": "8052ec2427126166042d9552764d84f0", "rental_uris": {"android": "https://dc.lft.to/lastmile_qr_scan", "ios": "https://dc.lft.to/lastmile_qr_scan"}, "lat": 38.9363935, "bike_id": "8052ec2427126166042d9552764d84f0", "is_disabled": 0, "lon": -77.05595966666667, "is_reserved": 0, "fusion_lat": 0.0, "type": "electric_scooter"}, {"fusion_lon": 0.0, "name": "498e4786eab40882a9b32feabda4e256", "rental_uris": {"android": "https://dc.lft.to/lastmile_qr_scan", "ios": "https://dc.lft.to/lastmile_qr_scan"}, "lat": 38.90085366666667, "bike_id": "498e4786eab40882a9b32feabda4e256", "is_disabled": 0, "lon": -77.0475125, "is_reserved": 0, "fusion_lat": 0.0, "type": "electric_scooter"}, {"fusion_lon": 0.0, "name": "96110535cde867d1f6a26a49413d5303", "rental_uris": {"android": "https://dc.lft.to/lastmile_qr_scan", "ios": "https://dc.lft.to/lastmile_qr_scan"}, "lat": 38.903550333333335, "bike_id": "96110535cde867d1f6a26a49413d5303", "is_disabled": 0, "lon": -77.02587333333334, "is_reserved": 0, "fusion_lat": 0.0, "type": "electric_scooter"}, {"fusion_lon": 0.0, "name": "ac002ae58d10d73eccebbd037edc9320", "rental_uris": {"android": "https://dc.lft.to/lastmile_qr_scan", "ios": "https://dc.lft.to/lastmile_qr_scan"}, "lat": 38.89818416666667, "bike_id": "ac002ae58d10d73eccebbd037edc9320", "is_disabled": 0, "lon": -77.030371, "is_reserved": 0, "fusion_lat": 0.0, "type": "electric_scooter"}, {"fusion_lon": 0.0, "name": "919d10bfccb80ea8fdde413f55c826a5", "rental_uris": {"android": "https://dc.lft.to/lastmile_qr_scan", "ios": "https://dc.lft.to/lastmile_qr_scan"}, "lat": 38.920622, "bike_id": "919d10bfccb80ea8fdde413f55c826a5", "is_disabled": 0, "lon": -77.0346675, "is_reserved": 0, "fusion_lat": 0.0, "type": "electric_scooter"}, {"fusion_lon": 0.0, "name": "66538cb4dfba5aa84b3706cf4e4631ea", "rental_uris": {"android": "https://dc.lft.to/lastmile_qr_scan", "ios": "https://dc.lft.to/lastmile_qr_scan"}, "lat": 38.923122, "bike_id": "66538cb4dfba5aa84b3706cf4e4631ea", "is_disabled": 0, "lon": -77.02900466666667, "is_reserved": 0, "fusion_lat": 0.0, "type": "electric_scooter"}, {"fusion_lon": 0.0, "name": "5f24559a6f84e1fb90e7fa275ee3b85f", "rental_uris": {"android": "https://dc.lft.to/lastmile_qr_scan", "ios": "https://dc.lft.to/lastmile_qr_scan"}, "lat": 38.89230716666667, "bike_id": "5f24559a6f84e1fb90e7fa275ee3b85f", "is_disabled": 0, "lon": -77.04997666666667, "is_reserved": 0, "fusion_lat": 0.0, "type": "electric_scooter"}, {"fusion_lon": 0.0, "name": "80840beb930ddc30cee62b290e6a93da", "rental_uris": {"android": "https://dc.lft.to/lastmile_qr_scan", "ios": "https://dc.lft.to/lastmile_qr_scan"}, "lat": 38.88766533333333, "bike_id": "80840beb930ddc30cee62b290e6a93da", "is_disabled": 0, "lon": -76.9977045, "is_reserved": 0, "fusion_lat": 0.0, "type": "electric_scooter"}, {"fusion_lon": 0.0, "name": "55ca405f654d224906b04c5b59d5b484", "rental_uris": {"android": "https://dc.lft.to/lastmile_qr_scan", "ios": "https://dc.lft.to/lastmile_qr_scan"}, "lat": 38.912702333333336, "bike_id": "55ca405f654d224906b04c5b59d5b484", "is_disabled": 0, "lon": -77.03277683333333, "is_reserved": 0, "fusion_lat": 0.0, "type": "electric_scooter"}, {"fusion_lon": 0.0, "name": "b669cc0a12ee3f9d229c8bbdfdad1e83", "rental_uris": {"android": "https://dc.lft.to/lastmile_qr_scan", "ios": "https://dc.lft.to/lastmile_qr_scan"}, "lat": 38.92214033333333, "bike_id": "b669cc0a12ee3f9d229c8bbdfdad1e83", "is_disabled": 0, "lon": -77.02418783333333, "is_reserved": 0, "fusion_lat": 0.0, "type": "electric_scooter"}, {"fusion_lon": 0.0, "name": "40228f2baa0cbda9641df37064013356", "rental_uris": {"android": "https://dc.lft.to/lastmile_qr_scan", "ios": "https://dc.lft.to/lastmile_qr_scan"}, "lat": 38.89589866666667, "bike_id": "40228f2baa0cbda9641df37064013356", "is_disabled": 0, "lon": -77.0480975, "is_reserved": 0, "fusion_lat": 0.0, "type": "electric_scooter"}, {"fusion_lon": 0.0, "name": "d83fbd56c59b686ef09379d6776c8788", "rental_uris": {"android": "https://dc.lft.to/lastmile_qr_scan", "ios": "https://dc.lft.to/lastmile_qr_scan"}, "lat": 38.912226833333335, "bike_id": "d83fbd56c59b686ef09379d6776c8788", "is_disabled": 0, "lon": -77.0321265, "is_reserved": 0, "fusion_lat": 0.0, "type": "electric_scooter"}, {"fusion_lon": 0.0, "name": "cba403049541af914f96101154d6a9b7", "rental_uris": {"android": "https://dc.lft.to/lastmile_qr_scan", "ios": "https://dc.lft.to/lastmile_qr_scan"}, "lat": 38.88510466666666, "bike_id": "cba403049541af914f96101154d6a9b7", "is_disabled": 0, "lon": -77.01117233333333, "is_reserved": 0, "fusion_lat": 0.0, "type": "electric_scooter"}, {"fusion_lon": 0.0, "name": "50fc826aee60b33ca525f3727a659c03", "rental_uris": {"android": "https://dc.lft.to/lastmile_qr_scan", "ios": "https://dc.lft.to/lastmile_qr_scan"}, "lat": 38.9002445, "bike_id": "50fc826aee60b33ca525f3727a659c03", "is_disabled": 0, "lon": -77.04676866666667, "is_reserved": 0, "fusion_lat": 0.0, "type": "electric_scooter"}, {"fusion_lon": 0.0, "name": "ce35d4197db9a80974a22ef8a12df3c1", "rental_uris": {"android": "https://dc.lft.to/lastmile_qr_scan", "ios": "https://dc.lft.to/lastmile_qr_scan"}, "lat": 38.9235195, "bike_id": "ce35d4197db9a80974a22ef8a12df3c1", "is_disabled": 0, "lon": -77.05051266666666, "is_reserved": 0, "fusion_lat": 0.0, "type": "electric_scooter"}, {"fusion_lon": 0.0, "name": "167361efd19eb9792280f63fa77bd02a", "rental_uris": {"android": "https://dc.lft.to/lastmile_qr_scan", "ios": "https://dc.lft.to/lastmile_qr_scan"}, "lat": 38.907337166666665, "bike_id": "167361efd19eb9792280f63fa77bd02a", "is_disabled": 0, "lon": -77.0279755, "is_reserved": 0, "fusion_lat": 0.0, "type": "electric_scooter"}, {"fusion_lon": 0.0, "name": "11c2463e5c0f4d39b70fe0ef767a58f1", "rental_uris": {"android": "https://dc.lft.to/lastmile_qr_scan", "ios": "https://dc.lft.to/lastmile_qr_scan"}, "lat": 38.901706, "bike_id": "11c2463e5c0f4d39b70fe0ef767a58f1", "is_disabled": 0, "lon": -77.02401316666666, "is_reserved": 0, "fusion_lat": 0.0, "type": "electric_scooter"}, {"fusion_lon": 0.0, "name": "df17f5dc02a5bde61693c822dafb6dba", "rental_uris": {"android": "https://dc.lft.to/lastmile_qr_scan", "ios": "https://dc.lft.to/lastmile_qr_scan"}, "lat": 38.89871133333333, "bike_id": "df17f5dc02a5bde61693c822dafb6dba", "is_disabled": 0, "lon": -77.03285316666667, "is_reserved": 0, "fusion_lat": 0.0, "type": "electric_scooter"}, {"fusion_lon": 0.0, "name": "d3cc34a0b6c1542ae26faea035a2f912", "rental_uris": {"android": "https://dc.lft.to/lastmile_qr_scan", "ios": "https://dc.lft.to/lastmile_qr_scan"}, "lat": 38.96397433333333, "bike_id": "d3cc34a0b6c1542ae26faea035a2f912", "is_disabled": 0, "lon": -77.0277085, "is_reserved": 0, "fusion_lat": 0.0, "type": "electric_scooter"}, {"fusion_lon": 0.0, "name": "03347050cb78018c4e57f57684580868", "rental_uris": {"android": "https://dc.lft.to/lastmile_qr_scan", "ios": "https://dc.lft.to/lastmile_qr_scan"}, "lat": 38.90363516666667, "bike_id": "03347050cb78018c4e57f57684580868", "is_disabled": 0, "lon": -77.01748266666667, "is_reserved": 0, "fusion_lat": 0.0, "type": "electric_scooter"}, {"fusion_lon": 0.0, "name": "beea36db7dd66753e2b3e95a79dc3d77", "rental_uris": {"android": "https://dc.lft.to/lastmile_qr_scan", "ios": "https://dc.lft.to/lastmile_qr_scan"}, "lat": 38.9426025, "bike_id": "beea36db7dd66753e2b3e95a79dc3d77", "is_disabled": 0, "lon": -76.99072116666666, "is_reserved": 0, "fusion_lat": 0.0, "type": "electric_bike"}, {"fusion_lon": 0.0, "name": "f3da591dd42afe81d721ecd730ed8c5f", "rental_uris": {"android": "https://dc.lft.to/lastmile_qr_scan", "ios": "https://dc.lft.to/lastmile_qr_scan"}, "lat": 38.91668583333333, "bike_id": "f3da591dd42afe81d721ecd730ed8c5f", "is_disabled": 0, "lon": -77.04617916666666, "is_reserved": 0, "fusion_lat": 0.0, "type": "electric_scooter"}, {"fusion_lon": 0.0, "name": "1a1b5bce1f859e9b41a67478a4d980d9", "rental_uris": {"android": "https://dc.lft.to/lastmile_qr_scan", "ios": "https://dc.lft.to/lastmile_qr_scan"}, "lat": 38.8068725, "bike_id": "1a1b5bce1f859e9b41a67478a4d980d9", "is_disabled": 0, "lon": -77.133827, "is_reserved": 0, "fusion_lat": 0.0, "type": "electric_bike"}, {"fusion_lon": 0.0, "name": "5529b99d38875d441a10f3395aee5fc6", "rental_uris": {"android": "https://dc.lft.to/lastmile_qr_scan", "ios": "https://dc.lft.to/lastmile_qr_scan"}, "lat": 38.9280865, "bike_id": "5529b99d38875d441a10f3395aee5fc6", "is_disabled": 0, "lon": -77.03147383333334, "is_reserved": 0, "fusion_lat": 0.0, "type": "electric_scooter"}, {"fusion_lon": 0.0, "name": "a75f234fd03d40d104a5423bbab40195", "rental_uris": {"android": "https://dc.lft.to/lastmile_qr_scan", "ios": "https://dc.lft.to/lastmile_qr_scan"}, "lat": 38.92320516666667, "bike_id": "a75f234fd03d40d104a5423bbab40195", "is_disabled": 0, "lon": -77.03607966666667, "is_reserved": 0, "fusion_lat": 0.0, "type": "electric_scooter"}, {"fusion_lon": 0.0, "name": "cccbb2a7a9ad0505e0ffaf09c9cbc5f4", "rental_uris": {"android": "https://dc.lft.to/lastmile_qr_scan", "ios": "https://dc.lft.to/lastmile_qr_scan"}, "lat": 38.84052466666667, "bike_id": "cccbb2a7a9ad0505e0ffaf09c9cbc5f4", "is_disabled": 0, "lon": -76.97667666666666, "is_reserved": 0, "fusion_lat": 0.0, "type": "electric_scooter"}, {"fusion_lon": 0.0, "name": "e7737d709962b2491fa1f8c23ad1e441", "rental_uris": {"android": "https://dc.lft.to/lastmile_qr_scan", "ios": "https://dc.lft.to/lastmile_qr_scan"}, "lat": 38.91691816666667, "bike_id": "e7737d709962b2491fa1f8c23ad1e441", "is_disabled": 0, "lon": -77.0422675, "is_reserved": 0, "fusion_lat": 0.0, "type": "electric_scooter"}, {"fusion_lon": 0.0, "name": "4026d1c75c999e891a980b94378884b4", "rental_uris": {"android": "https://dc.lft.to/lastmile_qr_scan", "ios": "https://dc.lft.to/lastmile_qr_scan"}, "lat": 38.90029116666667, "bike_id": "4026d1c75c999e891a980b94378884b4", "is_disabled": 0, "lon": -76.98840383333334, "is_reserved": 0, "fusion_lat": 0.0, "type": "electric_scooter"}, {"fusion_lon": 0.0, "name": "ee623fb7275844ef2c0bf356de97772c", "rental_uris": {"android": "https://dc.lft.to/lastmile_qr_scan", "ios": "https://dc.lft.to/lastmile_qr_scan"}, "lat": 38.91822966666667, "bike_id": "ee623fb7275844ef2c0bf356de97772c", "is_disabled": 0, "lon": -77.0417465, "is_reserved": 0, "fusion_lat": 0.0, "type": "electric_scooter"}, {"fusion_lon": 0.0, "name": "4c394b24f7b8ce948f6d5e3aa96df358", "rental_uris": {"android": "https://dc.lft.to/lastmile_qr_scan", "ios": "https://dc.lft.to/lastmile_qr_scan"}, "lat": 38.928133333333335, "bike_id": "4c394b24f7b8ce948f6d5e3aa96df358", "is_disabled": 0, "lon": -77.02242383333333, "is_reserved": 0, "fusion_lat": 0.0, "type": "electric_scooter"}, {"fusion_lon": 0.0, "name": "0ec9e6c5fdd676bb5997b559cb52b797", "rental_uris": {"android": "https://dc.lft.to/lastmile_qr_scan", "ios": "https://dc.lft.to/lastmile_qr_scan"}, "lat": 38.8843685, "bike_id": "0ec9e6c5fdd676bb5997b559cb52b797", "is_disabled": 0, "lon": -76.95771616666667, "is_reserved": 0, "fusion_lat": 0.0, "type": "electric_scooter"}, {"fusion_lon": 0.0, "name": "031f2f4a3dd9d27cbbfbf2abedd3556a", "rental_uris": {"android": "https://dc.lft.to/lastmile_qr_scan", "ios": "https://dc.lft.to/lastmile_qr_scan"}, "lat": 38.91576466666667, "bike_id": "031f2f4a3dd9d27cbbfbf2abedd3556a", "is_disabled": 0, "lon": -77.012333, "is_reserved": 0, "fusion_lat": 0.0, "type": "electric_scooter"}, {"fusion_lon": 0.0, "name": "b4415f2681952c0870094d6d9417c822", "rental_uris": {"android": "https://dc.lft.to/lastmile_qr_scan", "ios": "https://dc.lft.to/lastmile_qr_scan"}, "lat": 38.921658, "bike_id": "b4415f2681952c0870094d6d9417c822", "is_disabled": 0, "lon": -77.04030366666667, "is_reserved": 0, "fusion_lat": 0.0, "type": "electric_scooter"}, {"fusion_lon": 0.0, "name": "7ee513b1f39e6ebd130f86702c8b26a0", "rental_uris": {"android": "https://dc.lft.to/lastmile_qr_scan", "ios": "https://dc.lft.to/lastmile_qr_scan"}, "lat": 38.9179605, "bike_id": "7ee513b1f39e6ebd130f86702c8b26a0", "is_disabled": 0, "lon": -77.03455516666666, "is_reserved": 0, "fusion_lat": 0.0, "type": "electric_scooter"}, {"fusion_lon": 0.0, "name": "a65da639fb0b5a765057cd35bd3a2529", "rental_uris": {"android": "https://dc.lft.to/lastmile_qr_scan", "ios": "https://dc.lft.to/lastmile_qr_scan"}, "lat": 38.89489, "bike_id": "a65da639fb0b5a765057cd35bd3a2529", "is_disabled": 0, "lon": -76.99519616666667, "is_reserved": 0, "fusion_lat": 0.0, "type": "electric_scooter"}, {"fusion_lon": 0.0, "name": "8a4297369ae68b8c09ab68963801b28a", "rental_uris": {"android": "https://dc.lft.to/lastmile_qr_scan", "ios": "https://dc.lft.to/lastmile_qr_scan"}, "lat": 38.832962333333334, "bike_id": "8a4297369ae68b8c09ab68963801b28a", "is_disabled": 0, "lon": -77.08412766666666, "is_reserved": 0, "fusion_lat": 0.0, "type": "electric_bike"}, {"fusion_lon": 0.0, "name": "ca2bc9e924ae27f3e197ab0abef0343d", "rental_uris": {"android": "https://dc.lft.to/lastmile_qr_scan", "ios": "https://dc.lft.to/lastmile_qr_scan"}, "lat": 38.90583083333333, "bike_id": "ca2bc9e924ae27f3e197ab0abef0343d", "is_disabled": 0, "lon": -77.00604366666667, "is_reserved": 0, "fusion_lat": 0.0, "type": "electric_scooter"}, {"fusion_lon": 0.0, "name": "997f2d365178ea9287cbbd414bd93758", "rental_uris": {"android": "https://dc.lft.to/lastmile_qr_scan", "ios": "https://dc.lft.to/lastmile_qr_scan"}, "lat": 38.91267366666667, "bike_id": "997f2d365178ea9287cbbd414bd93758", "is_disabled": 0, "lon": -77.038735, "is_reserved": 0, "fusion_lat": 0.0, "type": "electric_scooter"}, {"fusion_lon": 0.0, "name": "f1ab5647ddc72e2f0b43c10c667f8c9d", "rental_uris": {"android": "https://dc.lft.to/lastmile_qr_scan", "ios": "https://dc.lft.to/lastmile_qr_scan"}, "lat": 38.8990345, "bike_id": "f1ab5647ddc72e2f0b43c10c667f8c9d", "is_disabled": 0, "lon": -77.02456333333333, "is_reserved": 0, "fusion_lat": 0.0, "type": "electric_scooter"}, {"fusion_lon": 0.0, "name": "0df554c5305cbe11d0add34042059dd4", "rental_uris": {"android": "https://dc.lft.to/lastmile_qr_scan", "ios": "https://dc.lft.to/lastmile_qr_scan"}, "lat": 38.9183425, "bike_id": "0df554c5305cbe11d0add34042059dd4", "is_disabled": 0, "lon": -77.0228885, "is_reserved": 0, "fusion_lat": 0.0, "type": "electric_scooter"}, {"fusion_lon": 0.0, "name": "bb20e65d709fdb5b3b30749ebd2675b7", "rental_uris": {"android": "https://dc.lft.to/lastmile_qr_scan", "ios": "https://dc.lft.to/lastmile_qr_scan"}, "lat": 38.903599666666665, "bike_id": "bb20e65d709fdb5b3b30749ebd2675b7", "is_disabled": 0, "lon": -77.00566983333333, "is_reserved": 0, "fusion_lat": 0.0, "type": "electric_scooter"}, {"fusion_lon": 0.0, "name": "68b59fa5966310ffbba01435d7112a45", "rental_uris": {"android": "https://dc.lft.to/lastmile_qr_scan", "ios": "https://dc.lft.to/lastmile_qr_scan"}, "lat": 38.875715666666665, "bike_id": "68b59fa5966310ffbba01435d7112a45", "is_disabled": 0, "lon": -77.00577666666666, "is_reserved": 0, "fusion_lat": 0.0, "type": "electric_scooter"}, {"fusion_lon": 0.0, "name": "f38df7e659cb7d96761ba79f2e5b6214", "rental_uris": {"android": "https://dc.lft.to/lastmile_qr_scan", "ios": "https://dc.lft.to/lastmile_qr_scan"}, "lat": 38.884775, "bike_id": "f38df7e659cb7d96761ba79f2e5b6214", "is_disabled": 0, "lon": -77.01979366666667, "is_reserved": 0, "fusion_lat": 0.0, "type": "electric_scooter"}, {"fusion_lon": 0.0, "name": "98eda0d25e4367adeeba32671b7d76ab", "rental_uris": {"android": "https://dc.lft.to/lastmile_qr_scan", "ios": "https://dc.lft.to/lastmile_qr_scan"}, "lat": 38.9151795, "bike_id": "98eda0d25e4367adeeba32671b7d76ab", "is_disabled": 0, "lon": -77.0122645, "is_reserved": 0, "fusion_lat": 0.0, "type": "electric_scooter"}, {"fusion_lon": 0.0, "name": "5f0052b74fefa14a5eb4a919a815983e", "rental_uris": {"android": "https://dc.lft.to/lastmile_qr_scan", "ios": "https://dc.lft.to/lastmile_qr_scan"}, "lat": 38.8767055, "bike_id": "5f0052b74fefa14a5eb4a919a815983e", "is_disabled": 0, "lon": -77.01442933333334, "is_reserved": 0, "fusion_lat": 0.0, "type": "electric_bike"}, {"fusion_lon": 0.0, "name": "99d664e58b61dd34cc14631a4e0af205", "rental_uris": {"android": "https://dc.lft.to/lastmile_qr_scan", "ios": "https://dc.lft.to/lastmile_qr_scan"}, "lat": 38.944091666666665, "bike_id": "99d664e58b61dd34cc14631a4e0af205", "is_disabled": 0, "lon": -77.063745, "is_reserved": 0, "fusion_lat": 0.0, "type": "electric_scooter"}, {"fusion_lon": 0.0, "name": "4294585ed001ee79e6d8a6b2b507a2e2", "rental_uris": {"android": "https://dc.lft.to/lastmile_qr_scan", "ios": "https://dc.lft.to/lastmile_qr_scan"}, "lat": 38.906060333333336, "bike_id": "4294585ed001ee79e6d8a6b2b507a2e2", "is_disabled": 0, "lon": -77.12894916666667, "is_reserved": 0, "fusion_lat": 0.0, "type": "electric_bike"}, {"fusion_lon": 0.0, "name": "2c315a55df92df1b1ed0c5c5297f3549", "rental_uris": {"android": "https://dc.lft.to/lastmile_qr_scan", "ios": "https://dc.lft.to/lastmile_qr_scan"}, "lat": 38.90031316666666, "bike_id": "2c315a55df92df1b1ed0c5c5297f3549", "is_disabled": 0, "lon": -77.0119855, "is_reserved": 0, "fusion_lat": 0.0, "type": "electric_scooter"}, {"fusion_lon": 0.0, "name": "a878bbb266cfffc9b6514dd01dbd8ea5", "rental_uris": {"android": "https://dc.lft.to/lastmile_qr_scan", "ios": "https://dc.lft.to/lastmile_qr_scan"}, "lat": 38.8805325, "bike_id": "a878bbb266cfffc9b6514dd01dbd8ea5", "is_disabled": 0, "lon": -77.0117135, "is_reserved": 0, "fusion_lat": 0.0, "type": "electric_scooter"}, {"fusion_lon": 0.0, "name": "9a5339a196688b4328bfae826be7acc2", "rental_uris": {"android": "https://dc.lft.to/lastmile_qr_scan", "ios": "https://dc.lft.to/lastmile_qr_scan"}, "lat": 38.923862, "bike_id": "9a5339a196688b4328bfae826be7acc2", "is_disabled": 0, "lon": -77.03049533333333, "is_reserved": 0, "fusion_lat": 0.0, "type": "electric_scooter"}, {"fusion_lon": 0.0, "name": "0cb01a8dc23b1f0163bdea0182284127", "rental_uris": {"android": "https://dc.lft.to/lastmile_qr_scan", "ios": "https://dc.lft.to/lastmile_qr_scan"}, "lat": 38.90561866666667, "bike_id": "0cb01a8dc23b1f0163bdea0182284127", "is_disabled": 0, "lon": -77.03467883333333, "is_reserved": 0, "fusion_lat": 0.0, "type": "electric_scooter"}, {"fusion_lon": 0.0, "name": "ff980f88c4a472b0212ee2534c1050ab", "rental_uris": {"android": "https://dc.lft.to/lastmile_qr_scan", "ios": "https://dc.lft.to/lastmile_qr_scan"}, "lat": 38.91565633333333, "bike_id": "ff980f88c4a472b0212ee2534c1050ab", "is_disabled": 0, "lon": -77.050188, "is_reserved": 0, "fusion_lat": 0.0, "type": "electric_scooter"}, {"fusion_lon": 0.0, "name": "c82b2ff31baa836007df988482a80060", "rental_uris": {"android": "https://dc.lft.to/lastmile_qr_scan", "ios": "https://dc.lft.to/lastmile_qr_scan"}, "lat": 38.901693, "bike_id": "c82b2ff31baa836007df988482a80060", "is_disabled": 0, "lon": -77.059938, "is_reserved": 0, "fusion_lat": 0.0, "type": "electric_scooter"}, {"fusion_lon": 0.0, "name": "baaaea4090791087507b1f18e30e01c0", "rental_uris": {"android": "https://dc.lft.to/lastmile_qr_scan", "ios": "https://dc.lft.to/lastmile_qr_scan"}, "lat": 38.899654166666664, "bike_id": "baaaea4090791087507b1f18e30e01c0", "is_disabled": 0, "lon": -77.021982, "is_reserved": 0, "fusion_lat": 0.0, "type": "electric_scooter"}, {"fusion_lon": 0.0, "name": "5a59d250a2ac36156f55bda7f04bf9f0", "rental_uris": {"android": "https://dc.lft.to/lastmile_qr_scan", "ios": "https://dc.lft.to/lastmile_qr_scan"}, "lat": 38.925692166666664, "bike_id": "5a59d250a2ac36156f55bda7f04bf9f0", "is_disabled": 0, "lon": -76.99960416666667, "is_reserved": 0, "fusion_lat": 0.0, "type": "electric_scooter"}, {"fusion_lon": 0.0, "name": "ea6d26a2ba597025e2b2da12e307e01d", "rental_uris": {"android": "https://dc.lft.to/lastmile_qr_scan", "ios": "https://dc.lft.to/lastmile_qr_scan"}, "lat": 38.89621266666666, "bike_id": "ea6d26a2ba597025e2b2da12e307e01d", "is_disabled": 0, "lon": -77.0321205, "is_reserved": 0, "fusion_lat": 0.0, "type": "electric_scooter"}, {"fusion_lon": 0.0, "name": "d303fdb95bc7cfbfde57e385b6c3b9bc", "rental_uris": {"android": "https://dc.lft.to/lastmile_qr_scan", "ios": "https://dc.lft.to/lastmile_qr_scan"}, "lat": 38.924298, "bike_id": "d303fdb95bc7cfbfde57e385b6c3b9bc", "is_disabled": 0, "lon": -77.037839, "is_reserved": 0, "fusion_lat": 0.0, "type": "electric_scooter"}, {"fusion_lon": 0.0, "name": "e21f9781650f66a247704df4e85c65ee", "rental_uris": {"android": "https://dc.lft.to/lastmile_qr_scan", "ios": "https://dc.lft.to/lastmile_qr_scan"}, "lat": 38.915642, "bike_id": "e21f9781650f66a247704df4e85c65ee", "is_disabled": 0, "lon": -77.03169533333333, "is_reserved": 0, "fusion_lat": 0.0, "type": "electric_scooter"}, {"fusion_lon": 0.0, "name": "0b0d6de96ad3a82059b54d7c0766553e", "rental_uris": {"android": "https://dc.lft.to/lastmile_qr_scan", "ios": "https://dc.lft.to/lastmile_qr_scan"}, "lat": 38.883040666666666, "bike_id": "0b0d6de96ad3a82059b54d7c0766553e", "is_disabled": 0, "lon": -77.02587133333333, "is_reserved": 0, "fusion_lat": 0.0, "type": "electric_scooter"}, {"fusion_lon": 0.0, "name": "0389ec34bfc4ee4e796f8551fdf046d1", "rental_uris": {"android": "https://dc.lft.to/lastmile_qr_scan", "ios": "https://dc.lft.to/lastmile_qr_scan"}, "lat": 38.901187666666665, "bike_id": "0389ec34bfc4ee4e796f8551fdf046d1", "is_disabled": 0, "lon": -77.050049, "is_reserved": 0, "fusion_lat": 0.0, "type": "electric_scooter"}, {"fusion_lon": 0.0, "name": "abb2811a537a86bfafac65f9055624ee", "rental_uris": {"android": "https://dc.lft.to/lastmile_qr_scan", "ios": "https://dc.lft.to/lastmile_qr_scan"}, "lat": 38.900635333333334, "bike_id": "abb2811a537a86bfafac65f9055624ee", "is_disabled": 0, "lon": -76.987075, "is_reserved": 0, "fusion_lat": 0.0, "type": "electric_scooter"}, {"fusion_lon": 0.0, "name": "6ebcd54e9c28f550b1f7f0f1d8dc24b7", "rental_uris": {"android": "https://dc.lft.to/lastmile_qr_scan", "ios": "https://dc.lft.to/lastmile_qr_scan"}, "lat": 38.86243566666667, "bike_id": "6ebcd54e9c28f550b1f7f0f1d8dc24b7", "is_disabled": 0, "lon": -76.9950075, "is_reserved": 0, "fusion_lat": 0.0, "type": "electric_scooter"}, {"fusion_lon": 0.0, "name": "eb94b2087ef4d2d39271631bd30da289", "rental_uris": {"android": "https://dc.lft.to/lastmile_qr_scan", "ios": "https://dc.lft.to/lastmile_qr_scan"}, "lat": 38.89953366666667, "bike_id": "eb94b2087ef4d2d39271631bd30da289", "is_disabled": 0, "lon": -77.0503355, "is_reserved": 0, "fusion_lat": 0.0, "type": "electric_scooter"}, {"fusion_lon": 0.0, "name": "d3e2e4849aafd7a0e8f434d24816525c", "rental_uris": {"android": "https://dc.lft.to/lastmile_qr_scan", "ios": "https://dc.lft.to/lastmile_qr_scan"}, "lat": 38.8622085, "bike_id": "d3e2e4849aafd7a0e8f434d24816525c", "is_disabled": 0, "lon": -76.99464383333333, "is_reserved": 0, "fusion_lat": 0.0, "type": "electric_scooter"}, {"fusion_lon": 0.0, "name": "2c1a59fef8c8444c0203b8a476fc6649", "rental_uris": {"android": "https://dc.lft.to/lastmile_qr_scan", "ios": "https://dc.lft.to/lastmile_qr_scan"}, "lat": 38.894468, "bike_id": "2c1a59fef8c8444c0203b8a476fc6649", "is_disabled": 0, "lon": -77.02078333333333, "is_reserved": 0, "fusion_lat": 0.0, "type": "electric_scooter"}, {"fusion_lon": 0.0, "name": "82c6ed987ecd55c297e1083f0e9d37e6", "rental_uris": {"android": "https://dc.lft.to/lastmile_qr_scan", "ios": "https://dc.lft.to/lastmile_qr_scan"}, "lat": 38.90431683333333, "bike_id": "82c6ed987ecd55c297e1083f0e9d37e6", "is_disabled": 0, "lon": -77.02844416666667, "is_reserved": 0, "fusion_lat": 0.0, "type": "electric_scooter"}, {"fusion_lon": 0.0, "name": "6e60b74901d4f07221339dd6a303fcbd", "rental_uris": {"android": "https://dc.lft.to/lastmile_qr_scan", "ios": "https://dc.lft.to/lastmile_qr_scan"}, "lat": 38.835865166666665, "bike_id": "6e60b74901d4f07221339dd6a303fcbd", "is_disabled": 0, "lon": -76.9902325, "is_reserved": 0, "fusion_lat": 0.0, "type": "electric_bike"}, {"fusion_lon": 0.0, "name": "b840fb7166ca9172e3d65206554dbc8e", "rental_uris": {"android": "https://dc.lft.to/lastmile_qr_scan", "ios": "https://dc.lft.to/lastmile_qr_scan"}, "lat": 38.93474233333333, "bike_id": "b840fb7166ca9172e3d65206554dbc8e", "is_disabled": 0, "lon": -77.0865785, "is_reserved": 0, "fusion_lat": 0.0, "type": "electric_scooter"}, {"fusion_lon": 0.0, "name": "c1aca505256d081d0a3a797cbeef937c", "rental_uris": {"android": "https://dc.lft.to/lastmile_qr_scan", "ios": "https://dc.lft.to/lastmile_qr_scan"}, "lat": 38.8933515, "bike_id": "c1aca505256d081d0a3a797cbeef937c", "is_disabled": 0, "lon": -77.04871383333334, "is_reserved": 0, "fusion_lat": 0.0, "type": "electric_scooter"}, {"fusion_lon": 0.0, "name": "c3431b217d2bde7cbf41497675abbb5d", "rental_uris": {"android": "https://dc.lft.to/lastmile_qr_scan", "ios": "https://dc.lft.to/lastmile_qr_scan"}, "lat": 38.898231, "bike_id": "c3431b217d2bde7cbf41497675abbb5d", "is_disabled": 0, "lon": -76.93011833333334, "is_reserved": 0, "fusion_lat": 0.0, "type": "electric_scooter"}, {"fusion_lon": 0.0, "name": "80dde2f2f91e666019718e0bff1861c1", "rental_uris": {"android": "https://dc.lft.to/lastmile_qr_scan", "ios": "https://dc.lft.to/lastmile_qr_scan"}, "lat": 38.89626583333333, "bike_id": "80dde2f2f91e666019718e0bff1861c1", "is_disabled": 0, "lon": -76.99416666666667, "is_reserved": 0, "fusion_lat": 0.0, "type": "electric_scooter"}, {"fusion_lon": 0.0, "name": "06fb2d86f7cded117eeee1794f80ba41", "rental_uris": {"android": "https://dc.lft.to/lastmile_qr_scan", "ios": "https://dc.lft.to/lastmile_qr_scan"}, "lat": 38.92615816666667, "bike_id": "06fb2d86f7cded117eeee1794f80ba41", "is_disabled": 0, "lon": -77.02163583333333, "is_reserved": 0, "fusion_lat": 0.0, "type": "electric_scooter"}, {"fusion_lon": 0.0, "name": "3498737e44378f827a1eb80fb32c10ba", "rental_uris": {"android": "https://dc.lft.to/lastmile_qr_scan", "ios": "https://dc.lft.to/lastmile_qr_scan"}, "lat": 38.901767166666666, "bike_id": "3498737e44378f827a1eb80fb32c10ba", "is_disabled": 0, "lon": -77.050018, "is_reserved": 0, "fusion_lat": 0.0, "type": "electric_scooter"}, {"fusion_lon": 0.0, "name": "d6577855c878647d88b1184d366f7706", "rental_uris": {"android": "https://dc.lft.to/lastmile_qr_scan", "ios": "https://dc.lft.to/lastmile_qr_scan"}, "lat": 38.89220566666667, "bike_id": "d6577855c878647d88b1184d366f7706", "is_disabled": 0, "lon": -77.0139845, "is_reserved": 0, "fusion_lat": 0.0, "type": "electric_scooter"}, {"fusion_lon": 0.0, "name": "f0879665d6792c72fc89c52174cf11dd", "rental_uris": {"android": "https://dc.lft.to/lastmile_qr_scan", "ios": "https://dc.lft.to/lastmile_qr_scan"}, "lat": 38.9077875, "bike_id": "f0879665d6792c72fc89c52174cf11dd", "is_disabled": 0, "lon": -77.03520133333333, "is_reserved": 0, "fusion_lat": 0.0, "type": "electric_scooter"}, {"fusion_lon": 0.0, "name": "645853e67f9935a29889033235dcead0", "rental_uris": {"android": "https://dc.lft.to/lastmile_qr_scan", "ios": "https://dc.lft.to/lastmile_qr_scan"}, "lat": 38.93839166666667, "bike_id": "645853e67f9935a29889033235dcead0", "is_disabled": 0, "lon": -77.02451983333333, "is_reserved": 0, "fusion_lat": 0.0, "type": "electric_scooter"}, {"fusion_lon": 0.0, "name": "ee1cd838220544a63b6e875bd094cd44", "rental_uris": {"android": "https://dc.lft.to/lastmile_qr_scan", "ios": "https://dc.lft.to/lastmile_qr_scan"}, "lat": 38.897050666666665, "bike_id": "ee1cd838220544a63b6e875bd094cd44", "is_disabled": 0, "lon": -77.04330183333333, "is_reserved": 0, "fusion_lat": 0.0, "type": "electric_scooter"}, {"fusion_lon": 0.0, "name": "3ac5df09dfe9283acb0ee869510290da", "rental_uris": {"android": "https://dc.lft.to/lastmile_qr_scan", "ios": "https://dc.lft.to/lastmile_qr_scan"}, "lat": 38.91399666666667, "bike_id": "3ac5df09dfe9283acb0ee869510290da", "is_disabled": 0, "lon": -77.0184405, "is_reserved": 0, "fusion_lat": 0.0, "type": "electric_scooter"},