{"data": {"bikes": [{"name": "ec15309e276195ae287719c8f76bb864", "is_reserved": 0, "fusion_lon": 0.0, "bike_id": "ec15309e276195ae287719c8f76bb864", "lat": 38.91008733333334, "is_disabled": 0, "lon": -77.03445833333333, "fusion_lat": 0.0, "rental_uris": {"ios": "https://dc.lft.to/lastmile_qr_scan", "android": "https://dc.lft.to/lastmile_qr_scan"}, "type": "electric_scooter"}, {"name": "d89d55de45ecd7a4e51940b7440c1ac9", "is_reserved": 0, "fusion_lon": 0.0, "bike_id": "d89d55de45ecd7a4e51940b7440c1ac9", "lat": 38.877360333333336, "is_disabled": 0, "lon": -77.01059416666666, "fusion_lat": 0.0, "rental_uris": {"ios": "https://dc.lft.to/lastmile_qr_scan", "android": "https://dc.lft.to/lastmile_qr_scan"}, "type": "electric_scooter"}, {"name": "17738738ffcab7b3a29c2482a97ddaf2", "is_reserved": 0, "fusion_lon": 0.0, "bike_id": "17738738ffcab7b3a29c2482a97ddaf2", "lat": 38.91191416666667, "is_disabled": 0, "lon": -77.01841683333333, "fusion_lat": 0.0, "rental_uris": {"ios": "https://dc.lft.to/lastmile_qr_scan", "android": "https://dc.lft.to/lastmile_qr_scan"}, "type": "electric_scooter"}, {"name": "a929dda8c84cd0f74ed8768d244bd490", "is_reserved": 0, "fusion_lon": 0.0, "bike_id": "a929dda8c84cd0f74ed8768d244bd490", "lat": 38.885496333333336, "is_disabled": 0, "lon": -77.02003766666667, "fusion_lat": 0.0, "rental_uris": {"ios": "https://dc.lft.to/lastmile_qr_scan", "android": "https://dc.lft.to/lastmile_qr_scan"}, "type": "electric_scooter"}, {"name": "30dbdf1de8856a1e559049472defca52", "is_reserved": 0, "fusion_lon": 0.0, "bike_id": "30dbdf1de8856a1e559049472defca52", "lat": 38.9203995, "is_disabled": 0, "lon": -77.03414633333334, "fusion_lat": 0.0, "rental_uris": {"ios": "https://dc.lft.to/lastmile_qr_scan", "android": "https://dc.lft.to/lastmile_qr_scan"}, "type": "electric_scooter"}, {"name": "fc2d353c18657bb941395a69222f4b66", "is_reserved": 0, "fusion_lon": 0.0, "bike_id": "fc2d353c18657bb941395a69222f4b66", "lat": 38.92959883333333, "is_disabled": 0, "lon": -77.225714, "fusion_lat": 0.0, "rental_uris": {"ios": "https://dc.lft.to/lastmile_qr_scan", "android": "https://dc.lft.to/lastmile_qr_scan"}, "type": "electric_bike"}, {"name": "b359e9e8dfcd2e372f5c775aac60258d", "is_reserved": 0, "fusion_lon": 0.0, "bike_id": "b359e9e8dfcd2e372f5c775aac60258d", "lat": 38.892190166666666, "is_disabled": 0, "lon": -77.04863783333333, "fusion_lat": 0.0, "rental_uris": {"ios": "https://dc.lft.to/lastmile_qr_scan", "android": "https://dc.lft.to/lastmile_qr_scan"}, "type": "electric_scooter"}, {"name": "0534d720463bea84da98bc51200c7003", "is_reserved": 0, "fusion_lon": 0.0, "bike_id": "0534d720463bea84da98bc51200c7003", "lat": 38.901718, "is_disabled": 0, "lon": -76.92944166666666, "fusion_lat": 0.0, "rental_uris": {"ios": "https://dc.lft.to/lastmile_qr_scan", "android": "https://dc.lft.to/lastmile_qr_scan"}, "type": "electric_scooter"}, {"name": "ad25affed894cbf3a53f626f701be2c8", "is_reserved": 0, "fusion_lon": 0.0, "bike_id": "ad25affed894cbf3a53f626f701be2c8", "lat": 38.924662, "is_disabled": 0, "lon": -77.02214516666666, "fusion_lat": 0.0, "rental_uris": {"ios": "https://dc.lft.to/lastmile_qr_scan", "android": "https://dc.lft.to/lastmile_qr_scan"}, "type": "electric_scooter"}, {"name": "208b89c566ca379523e04530b721f73e", "is_reserved": 0, "fusion_lon": 0.0, "bike_id": "208b89c566ca379523e04530b721f73e", "lat": 38.90238733333333, "is_disabled": 0, "lon": -77.006985, "fusion_lat": 0.0, "rental_uris": {"ios": "https://dc.lft.to/lastmile_qr_scan", "android": "https://dc.lft.to/lastmile_qr_scan"}, "type": "electric_scooter"}, {"name": "604d131e272f47dd5f900b3d7ba30dd4", "is_reserved": 0, "fusion_lon": 0.0, "bike_id": "604d131e272f47dd5f900b3d7ba30dd4", "lat": 38.924506666666666, "is_disabled": 0, "lon": -77.02150066666667, "fusion_lat": 0.0, "rental_uris": {"ios": "https://dc.lft.to/lastmile_qr_scan", "android": "https://dc.lft.to/lastmile_qr_scan"}, "type": "electric_scooter"}, {"name": "8678e5b1514cee1182d203faa0e33a29", "is_reserved": 0, "fusion_lon": 0.0, "bike_id": "8678e5b1514cee1182d203faa0e33a29", "lat": 38.880018666666665, "is_disabled": 0, "lon": -76.99504733333333, "fusion_lat": 0.0, "rental_uris": {"ios": "https://dc.lft.to/lastmile_qr_scan", "android": "https://dc.lft.to/lastmile_qr_scan"}, "type": "electric_scooter"}, {"name": "f136c62bd6fed349abadf79ca80d23c8", "is_reserved": 0, "fusion_lon": 0.0, "bike_id": "f136c62bd6fed349abadf79ca80d23c8", "lat": 38.923568, "is_disabled": 0, "lon": -77.035376, "fusion_lat": 0.0, "rental_uris": {"ios": "https://dc.lft.to/lastmile_qr_scan", "android": "https://dc.lft.to/lastmile_qr_scan"}, "type": "electric_scooter"}, {"name": "64c1e9ac97cc4859cb6ef9eb4fefd10e", "is_reserved": 0, "fusion_lon": 0.0, "bike_id": "64c1e9ac97cc4859cb6ef9eb4fefd10e", "lat": 38.9023095, "is_disabled": 0, "lon": -77.0081825, "fusion_lat": 0.0, "rental_uris": {"ios": "https://dc.lft.to/lastmile_qr_scan", "android": "https://dc.lft.to/lastmile_qr_scan"}, "type": "electric_scooter"}, {"name": "68f860a8f9a3c2df923476f71ccf105f", "is_reserved": 0, "fusion_lon": 0.0, "bike_id": "68f860a8f9a3c2df923476f71ccf105f", "lat": 38.925035333333334, "is_disabled": 0, "lon": -77.02574183333333, "fusion_lat": 0.0, "rental_uris": {"ios": "https://dc.lft.to/lastmile_qr_scan", "android": "https://dc.lft.to/lastmile_qr_scan"}, "type": "electric_scooter"}, {"name": "d955d13892bb08bfea67b1137f0d59c5", "is_reserved": 0, "fusion_lon": 0.0, "bike_id": "d955d13892bb08bfea67b1137f0d59c5", "lat": 38.983734, "is_disabled": 0, "lon": -76.94719716666667, "fusion_lat": 0.0, "rental_uris": {"ios": "https://dc.lft.to/lastmile_qr_scan", "android": "https://dc.lft.to/lastmile_qr_scan"}, "type": "electric_bike"}, {"name": "b8c74542847b057e396c0724072696c5", "is_reserved": 0, "fusion_lon": 0.0, "bike_id": "b8c74542847b057e396c0724072696c5", "lat": 38.89223066666667, "is_disabled": 0, "lon": -77.039841, "fusion_lat": 0.0, "rental_uris": {"ios": "https://dc.lft.to/lastmile_qr_scan", "android": "https://dc.lft.to/lastmile_qr_scan"}, "type": "electric_scooter"}, {"name": "a7aad86f6cba4f2bc630ca57aad10c03", "is_reserved": 0, "fusion_lon": 0.0, "bike_id": "a7aad86f6cba4f2bc630ca57aad10c03", "lat": 38.922554, "is_disabled": 0, "lon": -77.01925083333333, "fusion_lat": 0.0, "rental_uris": {"ios": "https://dc.lft.to/lastmile_qr_scan", "android": "https://dc.lft.to/lastmile_qr_scan"}, "type": "electric_scooter"}, {"name": "56c039c863f7e3149fb6c8be7a42ab3c", "is_reserved": 0, "fusion_lon": 0.0, "bike_id": "56c039c863f7e3149fb6c8be7a42ab3c", "lat": 38.9237265, "is_disabled": 0, "lon": -77.08050116666666, "fusion_lat": 0.0, "rental_uris": {"ios": "https://dc.lft.to/lastmile_qr_scan", "android": "https://dc.lft.to/lastmile_qr_scan"}, "type": "electric_scooter"}, {"name": "2a3e73c621971164bf1cacde2a6ace25", "is_reserved": 0, "fusion_lon": 0.0, "bike_id": "2a3e73c621971164bf1cacde2a6ace25", "lat": 38.928273, "is_disabled": 0, "lon": -77.013864, "fusion_lat": 0.0, "rental_uris": {"ios": "https://dc.lft.to/lastmile_qr_scan", "android": "https://dc.lft.to/lastmile_qr_scan"}, "type": "electric_scooter"}, {"name": "f320611723c454e2b6ba186b8c619ae7", "is_reserved": 0, "fusion_lon": 0.0, "bike_id": "f320611723c454e2b6ba186b8c619ae7", "lat": 38.90398366666667, "is_disabled": 0, "lon": -77.03432583333333, "fusion_lat": 0.0, "rental_uris": {"ios": "https://dc.lft.to/lastmile_qr_scan", "android": "https://dc.lft.to/lastmile_qr_scan"}, "type": "electric_scooter"}, {"name": "e759be52affb7ff02d73e47507c78cca", "is_reserved": 0, "fusion_lon": 0.0, "bike_id": "e759be52affb7ff02d73e47507c78cca", "lat": 38.95410583333334, "is_disabled": 0, "lon": -77.02498566666667, "fusion_lat": 0.0, "rental_uris": {"ios": "https://dc.lft.to/lastmile_qr_scan", "android": "https://dc.lft.to/lastmile_qr_scan"}, "type": "electric_scooter"}, {"name": "bf477187853161379869943ab64150d2", "is_reserved": 0, "fusion_lon": 0.0, "bike_id": "bf477187853161379869943ab64150d2", "lat": 38.921568666666666, "is_disabled": 0, "lon": -77.033802, "fusion_lat": 0.0, "rental_uris": {"ios": "https://dc.lft.to/lastmile_qr_scan", "android": "https://dc.lft.to/lastmile_qr_scan"}, "type": "electric_scooter"}, {"name": "c62aa9b8a43607415293f049613cd3df", "is_reserved": 0, "fusion_lon": 0.0, "bike_id": "c62aa9b8a43607415293f049613cd3df", "lat": 38.892203333333335, "is_disabled": 0, "lon": -77.04864816666667, "fusion_lat": 0.0, "rental_uris": {"ios": "https://dc.lft.to/lastmile_qr_scan", "android": "https://dc.lft.to/lastmile_qr_scan"}, "type": "electric_scooter"}, {"name": "8019e302ca847eda8a33b520dea5d32a", "is_reserved": 0, "fusion_lon": 0.0, "bike_id": "8019e302ca847eda8a33b520dea5d32a", "lat": 38.92003183333333, "is_disabled": 0, "lon": -77.03200583333333, "fusion_lat": 0.0, "rental_uris": {"ios": "https://dc.lft.to/lastmile_qr_scan", "android": "https://dc.lft.to/lastmile_qr_scan"}, "type": "electric_scooter"}, {"name": "dcf4aac09cf002ab021308f6d0a6b3bf", "is_reserved": 0, "fusion_lon": 0.0, "bike_id": "dcf4aac09cf002ab021308f6d0a6b3bf", "lat": 38.924715166666665, "is_disabled": 0, "lon": -77.02212083333333, "fusion_lat": 0.0, "rental_uris": {"ios": "https://dc.lft.to/lastmile_qr_scan", "android": "https://dc.lft.to/lastmile_qr_scan"}, "type": "electric_scooter"}, {"name": "4c4ba1f328c190cab20ee92165e6b63c", "is_reserved": 0, "fusion_lon": 0.0, "bike_id": "4c4ba1f328c190cab20ee92165e6b63c", "lat": 38.9202465, "is_disabled": 0, "lon": -77.026075, "fusion_lat": 0.0, "rental_uris": {"ios": "https://dc.lft.to/lastmile_qr_scan", "android": "https://dc.lft.to/lastmile_qr_scan"}, "type": "electric_scooter"}, {"name": "f520eef5597858a20132d40edd28c1cb", "is_reserved": 0, "fusion_lon": 0.0, "bike_id": "f520eef5597858a20132d40edd28c1cb", "lat": 38.9056445, "is_disabled": 0, "lon": -77.06281966666667, "fusion_lat": 0.0, "rental_uris": {"ios": "https://dc.lft.to/lastmile_qr_scan", "android": "https://dc.lft.to/lastmile_qr_scan"}, "type": "electric_scooter"}, {"name": "4dd9cd340c5e9e821a460586ece9f599", "is_reserved": 0, "fusion_lon": 0.0, "bike_id": "4dd9cd340c5e9e821a460586ece9f599", "lat": 38.952678, "is_disabled": 0, "lon": -77.023773, "fusion_lat": 0.0, "rental_uris": {"ios": "https://dc.lft.to/lastmile_qr_scan", "android": "https://dc.lft.to/lastmile_qr_scan"}, "type": "electric_scooter"}, {"name": "def1c2fadc51b2a1235241c01d04c35b", "is_reserved": 0, "fusion_lon": 0.0, "bike_id": "def1c2fadc51b2a1235241c01d04c35b", "lat": 38.92409283333333, "is_disabled": 0, "lon": -77.02036366666667, "fusion_lat": 0.0, "rental_uris": {"ios": "https://dc.lft.to/lastmile_qr_scan", "android": "https://dc.lft.to/lastmile_qr_scan"}, "type": "electric_scooter"}, {"name": "6e782a8049c3dbce7ea65b488773b95d", "is_reserved": 0, "fusion_lon": 0.0, "bike_id": "6e782a8049c3dbce7ea65b488773b95d", "lat": 38.90845633333333, "is_disabled": 0, "lon": -77.03011266666667, "fusion_lat": 0.0, "rental_uris": {"ios": "https://dc.lft.to/lastmile_qr_scan", "android": "https://dc.lft.to/lastmile_qr_scan"}, "type": "electric_scooter"}, {"name": "aa8ae8934ce2773081e61376cf9dd956", "is_reserved": 0, "fusion_lon": 0.0, "bike_id": "aa8ae8934ce2773081e61376cf9dd956", "lat": 38.8923285, "is_disabled": 0, "lon": -77.002893, "fusion_lat": 0.0, "rental_uris": {"ios": "https://dc.lft.to/lastmile_qr_scan", "android": "https://dc.lft.to/lastmile_qr_scan"}, "type": "electric_scooter"}, {"name": "02f4dd44b1246cb0584a11c984eb0e67", "is_reserved": 0, "fusion_lon": 0.0, "bike_id": "02f4dd44b1246cb0584a11c984eb0e67", "lat": 38.89973716666667, "is_disabled": 0, "lon": -77.04720033333334, "fusion_lat": 0.0, "rental_uris": {"ios": "https://dc.lft.to/lastmile_qr_scan", "android": "https://dc.lft.to/lastmile_qr_scan"}, "type": "electric_scooter"}, {"name": "56f094a7a0b168aea2cf8f6eea2134a1", "is_reserved": 0, "fusion_lon": 0.0, "bike_id": "56f094a7a0b168aea2cf8f6eea2134a1", "lat": 38.91816716666666, "is_disabled": 0, "lon": -77.02483783333334, "fusion_lat": 0.0, "rental_uris": {"ios": "https://dc.lft.to/lastmile_qr_scan", "android": "https://dc.lft.to/lastmile_qr_scan"}, "type": "electric_scooter"}, {"name": "17a7c3863d07797f555047ca4f745719", "is_reserved": 0, "fusion_lon": 0.0, "bike_id": "17a7c3863d07797f555047ca4f745719", "lat": 38.928822, "is_disabled": 0, "lon": -77.03138016666666, "fusion_lat": 0.0, "rental_uris": {"ios": "https://dc.lft.to/lastmile_qr_scan", "android": "https://dc.lft.to/lastmile_qr_scan"}, "type": "electric_scooter"}, {"name": "ab3854871f95d3b6627c99e736e86d60", "is_reserved": 0, "fusion_lon": 0.0, "bike_id": "ab3854871f95d3b6627c99e736e86d60", "lat": 38.9176285, "is_disabled": 0, "lon": -77.02704033333333, "fusion_lat": 0.0, "rental_uris": {"ios": "https://dc.lft.to/lastmile_qr_scan", "android": "https://dc.lft.to/lastmile_qr_scan"}, "type": "electric_scooter"}, {"name": "36203e656f28ee313018b519185495f9", "is_reserved": 0, "fusion_lon": 0.0, "bike_id": "36203e656f28ee313018b519185495f9", "lat": 38.943558, "is_disabled": 0, "lon": -77.0297365, "fusion_lat": 0.0, "rental_uris": {"ios": "https://dc.lft.to/lastmile_qr_scan", "android": "https://dc.lft.to/lastmile_qr_scan"}, "type": "electric_scooter"}, {"name": "71df82f5d325cdb6fc99e524ebf0da93", "is_reserved": 0, "fusion_lon": 0.0, "bike_id": "71df82f5d325cdb6fc99e524ebf0da93", "lat": 38.9132935, "is_disabled": 0, "lon": -77.0136475, "fusion_lat": 0.0, "rental_uris": {"ios": "https://dc.lft.to/lastmile_qr_scan", "android": "https://dc.lft.to/lastmile_qr_scan"}, "type": "electric_scooter"}, {"name": "5a75f3d6d6554e0b763fe2d52b0b9e83", "is_reserved": 0, "fusion_lon": 0.0, "bike_id": "5a75f3d6d6554e0b763fe2d52b0b9e83", "lat": 38.90683583333333, "is_disabled": 0, "lon": -77.06401533333333, "fusion_lat": 0.0, "rental_uris": {"ios": "https://dc.lft.to/lastmile_qr_scan", "android": "https://dc.lft.to/lastmile_qr_scan"}, "type": "electric_scooter"}, {"name": "b99fb6d207275d3e5b29e1c6ee6ffd07", "is_reserved": 0, "fusion_lon": 0.0, "bike_id": "b99fb6d207275d3e5b29e1c6ee6ffd07", "lat": 38.9012235, "is_disabled": 0, "lon": -77.03510116666666, "fusion_lat": 0.0, "rental_uris": {"ios": "https://dc.lft.to/lastmile_qr_scan", "android": "https://dc.lft.to/lastmile_qr_scan"}, "type": "electric_scooter"}, {"name": "04b503b34ceb0dd34d8b2581ac176f09", "is_reserved": 0, "fusion_lon": 0.0, "bike_id": "04b503b34ceb0dd34d8b2581ac176f09", "lat": 38.92031016666667, "is_disabled": 0, "lon": -76.98484933333333, "fusion_lat": 0.0, "rental_uris": {"ios": "https://dc.lft.to/lastmile_qr_scan", "android": "https://dc.lft.to/lastmile_qr_scan"}, "type": "electric_scooter"}, {"name": "6282b27ccc545240effcc7d682666289", "is_reserved": 0, "fusion_lon": 0.0, "bike_id": "6282b27ccc545240effcc7d682666289", "lat": 38.898102333333334, "is_disabled": 0, "lon": -77.002103, "fusion_lat": 0.0, "rental_uris": {"ios": "https://dc.lft.to/lastmile_qr_scan", "android": "https://dc.lft.to/lastmile_qr_scan"}, "type": "electric_scooter"}, {"name": "3248d7fe71b6644d35e891c2820990a6", "is_reserved": 0, "fusion_lon": 0.0, "bike_id": "3248d7fe71b6644d35e891c2820990a6", "lat": 38.902750833333336, "is_disabled": 0, "lon": -77.0168605, "fusion_lat": 0.0, "rental_uris": {"ios": "https://dc.lft.to/lastmile_qr_scan", "android": "https://dc.lft.to/lastmile_qr_scan"}, "type": "electric_scooter"}, {"name": "200309801f2e5a651461a74cb58a02f8", "is_reserved": 0, "fusion_lon": 0.0, "bike_id": "200309801f2e5a651461a74cb58a02f8", "lat": 38.870838, "is_disabled": 0, "lon": -77.01211666666667, "fusion_lat": 0.0, "rental_uris": {"ios": "https://dc.lft.to/lastmile_qr_scan", "android": "https://dc.lft.to/lastmile_qr_scan"}, "type": "electric_bike"}, {"name": "aa00804abd745ad3fc7d7ef9d6be0933", "is_reserved": 0, "fusion_lon": 0.0, "bike_id": "aa00804abd745ad3fc7d7ef9d6be0933", "lat": 38.91684333333333, "is_disabled": 0, "lon": -77.04004783333333, "fusion_lat": 0.0, "rental_uris": {"ios": "https://dc.lft.to/lastmile_qr_scan", "android": "https://dc.lft.to/lastmile_qr_scan"}, "type": "electric_scooter"}, {"name": "8f5b4e450f40994c8c0341fa25ad4880", "is_reserved": 0, "fusion_lon": 0.0, "bike_id": "8f5b4e450f40994c8c0341fa25ad4880", "lat": 38.886017833333334, "is_disabled": 0, "lon": -76.92501333333334, "fusion_lat": 0.0, "rental_uris": {"ios": "https://dc.lft.to/lastmile_qr_scan", "android": "https://dc.lft.to/lastmile_qr_scan"}, "type": "electric_scooter"}, {"name": "36e7bbd3e7e6f676144b09faf1b84497", "is_reserved": 0, "fusion_lon": 0.0, "bike_id": "36e7bbd3e7e6f676144b09faf1b84497", "lat": 38.91663483333333, "is_disabled": 0, "lon": -77.05700733333333, "fusion_lat": 0.0, "rental_uris": {"ios": "https://dc.lft.to/lastmile_qr_scan", "android": "https://dc.lft.to/lastmile_qr_scan"}, "type": "electric_scooter"}, {"name": "30ed8927a8a205ec22a47233d915bfc1", "is_reserved": 0, "fusion_lon": 0.0, "bike_id": "30ed8927a8a205ec22a47233d915bfc1", "lat": 38.900529, "is_disabled": 0, "lon": -76.99343366666666, "fusion_lat": 0.0, "rental_uris": {"ios": "https://dc.lft.to/lastmile_qr_scan", "android": "https://dc.lft.to/lastmile_qr_scan"}, "type": "electric_scooter"}, {"name": "388fc4eb18cf30b192208745d2e8b94a", "is_reserved": 0, "fusion_lon": 0.0, "bike_id": "388fc4eb18cf30b192208745d2e8b94a", "lat": 38.893920666666666, "is_disabled": 0, "lon": -77.054731, "fusion_lat": 0.0, "rental_uris": {"ios": "https://dc.lft.to/lastmile_qr_scan", "android": "https://dc.lft.to/lastmile_qr_scan"}, "type": "electric_scooter"}, {"name": "a5faebf948dbcfcd64b15a54a997e0ca", "is_reserved": 0, "fusion_lon": 0.0, "bike_id": "a5faebf948dbcfcd64b15a54a997e0ca", "lat": 38.892180833333335, "is_disabled": 0, "lon": -77.015532, "fusion_lat": 0.0, "rental_uris": {"ios": "https://dc.lft.to/lastmile_qr_scan", "android": "https://dc.lft.to/lastmile_qr_scan"}, "type": "electric_scooter"}, {"name": "c358c24680df05c5aa21584f50213f6c", "is_reserved": 0, "fusion_lon": 0.0, "bike_id": "c358c24680df05c5aa21584f50213f6c", "lat": 38.96387633333333, "is_disabled": 0, "lon": -77.02767383333334, "fusion_lat": 0.0, "rental_uris": {"ios": "https://dc.lft.to/lastmile_qr_scan", "android": "https://dc.lft.to/lastmile_qr_scan"}, "type": "electric_scooter"}, {"name": "90988e0e45a77e30344c3cee2abb0746", "is_reserved": 0, "fusion_lon": 0.0, "bike_id": "90988e0e45a77e30344c3cee2abb0746", "lat": 38.92354233333333, "is_disabled": 0, "lon": -77.02121933333333, "fusion_lat": 0.0, "rental_uris": {"ios": "https://dc.lft.to/lastmile_qr_scan", "android": "https://dc.lft.to/lastmile_qr_scan"}, "type": "electric_scooter"}, {"name": "b8589d9a4b5d1622aded0618723759e5", "is_reserved": 0, "fusion_lon": 0.0, "bike_id": "b8589d9a4b5d1622aded0618723759e5", "lat": 38.937318833333336, "is_disabled": 0, "lon": -77.03278333333333, "fusion_lat": 0.0, "rental_uris": {"ios": "https://dc.lft.to/lastmile_qr_scan", "android": "https://dc.lft.to/lastmile_qr_scan"}, "type": "electric_scooter"}, {"name": "5e2c7b4cef3ff04571a1f236590d8d99", "is_reserved": 0, "fusion_lon": 0.0, "bike_id": "5e2c7b4cef3ff04571a1f236590d8d99", "lat": 38.900082166666664, "is_disabled": 0, "lon": -76.97743083333333, "fusion_lat": 0.0, "rental_uris": {"ios": "https://dc.lft.to/lastmile_qr_scan", "android": "https://dc.lft.to/lastmile_qr_scan"}, "type": "electric_scooter"}, {"name": "74ac4f26114d58eedf32eb7b498eb9bc", "is_reserved": 0, "fusion_lon": 0.0, "bike_id": "74ac4f26114d58eedf32eb7b498eb9bc", "lat": 38.92371833333333, "is_disabled": 0, "lon": -77.02553716666667, "fusion_lat": 0.0, "rental_uris": {"ios": "https://dc.lft.to/lastmile_qr_scan", "android": "https://dc.lft.to/lastmile_qr_scan"}, "type": "electric_scooter"}, {"name": "4e0fa7c424c12428e6c32350e42b5948", "is_reserved": 0, "fusion_lon": 0.0, "bike_id": "4e0fa7c424c12428e6c32350e42b5948", "lat": 38.90386016666667, "is_disabled": 0, "lon": -77.0330055, "fusion_lat": 0.0, "rental_uris": {"ios": "https://dc.lft.to/lastmile_qr_scan", "android": "https://dc.lft.to/lastmile_qr_scan"}, "type": "electric_scooter"}, {"name": "812339d4974b840763de76702946e6b8", "is_reserved": 0, "fusion_lon": 0.0, "bike_id": "812339d4974b840763de76702946e6b8", "lat": 38.893582333333335, "is_disabled": 0, "lon": -77.0205845, "fusion_lat": 0.0, "rental_uris": {"ios": "https://dc.lft.to/lastmile_qr_scan", "android": "https://dc.lft.to/lastmile_qr_scan"}, "type": "electric_scooter"}, {"name": "a7892e4379afda16786a68ddd8c369e2", "is_reserved": 0, "fusion_lon": 0.0, "bike_id": "a7892e4379afda16786a68ddd8c369e2", "lat": 38.86515166666667, "is_disabled": 0, "lon": -76.99034233333333, "fusion_lat": 0.0, "rental_uris": {"ios": "https://dc.lft.to/lastmile_qr_scan", "android": "https://dc.lft.to/lastmile_qr_scan"}, "type": "electric_scooter"}, {"name": "baff52559a2453169bd12af181dfe643", "is_reserved": 0, "fusion_lon": 0.0, "bike_id": "baff52559a2453169bd12af181dfe643", "lat": 38.904724, "is_disabled": 0, "lon": -77.0417555, "fusion_lat": 0.0, "rental_uris": {"ios": "https://dc.lft.to/lastmile_qr_scan", "android": "https://dc.lft.to/lastmile_qr_scan"}, "type": "electric_scooter"}, {"name": "e3c500ca0aa3c4c45f3e6daae31084ad", "is_reserved": 0, "fusion_lon": 0.0, "bike_id": "e3c500ca0aa3c4c45f3e6daae31084ad", "lat": 38.901338, "is_disabled": 0, "lon": -77.0299, "fusion_lat": 0.0, "rental_uris": {"ios": "https://dc.lft.to/lastmile_qr_scan", "android": "https://dc.lft.to/lastmile_qr_scan"}, "type": "electric_scooter"}, {"name": "4eefb166d34c83c4a6a22590f440dbb4", "is_reserved": 0, "fusion_lon": 0.0, "bike_id": "4eefb166d34c83c4a6a22590f440dbb4", "lat": 38.93585933333333, "is_disabled": 0, "lon": -77.07432266666666, "fusion_lat": 0.0, "rental_uris": {"ios": "https://dc.lft.to/lastmile_qr_scan", "android": "https://dc.lft.to/lastmile_qr_scan"}, "type": "electric_scooter"}, {"name": "6fddca73ab33f780933a8ed2aa115742", "is_reserved": 0, "fusion_lon": 0.0, "bike_id": "6fddca73ab33f780933a8ed2aa115742", "lat": 38.898506, "is_disabled": 0, "lon": -76.93209433333334, "fusion_lat": 0.0, "rental_uris": {"ios": "https://dc.lft.to/lastmile_qr_scan", "android": "https://dc.lft.to/lastmile_qr_scan"}, "type": "electric_scooter"}, {"name": "a6ffad803a2b2750c0b1e3c98362f31c", "is_reserved": 0, "fusion_lon": 0.0, "bike_id": "a6ffad803a2b2750c0b1e3c98362f31c", "lat": 38.900706, "is_disabled": 0, "lon": -77.01820433333333, "fusion_lat": 0.0, "rental_uris": {"ios": "https://dc.lft.to/lastmile_qr_scan", "android": "https://dc.lft.to/lastmile_qr_scan"}, "type": "electric_scooter"}, {"name": "087c1a810774ca7e82781473d653790b", "is_reserved": 0, "fusion_lon": 0.0, "bike_id": "087c1a810774ca7e82781473d653790b", "lat": 38.90961216666667, "is_disabled": 0, "lon": -77.0339325, "fusion_lat": 0.0, "rental_uris": {"ios": "https://dc.lft.to/lastmile_qr_scan", "android": "https://dc.lft.to/lastmile_qr_scan"}, "type": "electric_scooter"}, {"name": "0fbdb6b07a7419a444e3cbf18392eb91", "is_reserved": 0, "fusion_lon": 0.0, "bike_id": "0fbdb6b07a7419a444e3cbf18392eb91", "lat": 38.936053666666666, "is_disabled": 0, "lon": -77.03779533333334, "fusion_lat": 0.0, "rental_uris": {"ios": "https://dc.lft.to/lastmile_qr_scan", "android": "https://dc.lft.to/lastmile_qr_scan"}, "type": "electric_scooter"}, {"name": "b81adae54da6fb83a965c596ede67af6", "is_reserved": 0, "fusion_lon": 0.0, "bike_id": "b81adae54da6fb83a965c596ede67af6", "lat": 38.883312333333336, "is_disabled": 0, "lon": -76.93134133333334, "fusion_lat": 0.0, "rental_uris": {"ios": "https://dc.lft.to/lastmile_qr_scan", "android": "https://dc.lft.to/lastmile_qr_scan"}, "type": "electric_scooter"}, {"name": "4905547eafe890b895ff57e4a043fc8a", "is_reserved": 0, "fusion_lon": 0.0, "bike_id": "4905547eafe890b895ff57e4a043fc8a", "lat": 38.89621283333334, "is_disabled": 0, "lon": -76.99848666666666, "fusion_lat": 0.0, "rental_uris": {"ios": "https://dc.lft.to/lastmile_qr_scan", "android": "https://dc.lft.to/lastmile_qr_scan"}, "type": "electric_scooter"}, {"name": "2b60283d595d8af480486ca568c8bb99", "is_reserved": 0, "fusion_lon": 0.0, "bike_id": "2b60283d595d8af480486ca568c8bb99", "lat": 38.9407075, "is_disabled": 0, "lon": -77.00169216666667, "fusion_lat": 0.0, "rental_uris": {"ios": "https://dc.lft.to/lastmile_qr_scan", "android": "https://dc.lft.to/lastmile_qr_scan"}, "type": "electric_scooter"}, {"name": "040497db0aeb624f008951768a94b314", "is_reserved": 0, "fusion_lon": 0.0, "bike_id": "040497db0aeb624f008951768a94b314", "lat": 38.920297833333336, "is_disabled": 0, "lon": -76.97805466666667, "fusion_lat": 0.0, "rental_uris": {"ios": "https://dc.lft.to/lastmile_qr_scan", "android": "https://dc.lft.to/lastmile_qr_scan"}, "type": "electric_scooter"}, {"name": "196de7c6e1305be1f357cf6d274a7dce", "is_reserved": 0, "fusion_lon": 0.0, "bike_id": "196de7c6e1305be1f357cf6d274a7dce", "lat": 38.903583166666664, "is_disabled": 0, "lon": -77.03202266666666, "fusion_lat": 0.0, "rental_uris": {"ios": "https://dc.lft.to/lastmile_qr_scan", "android": "https://dc.lft.to/lastmile_qr_scan"}, "type": "electric_scooter"}, {"name": "2a3c88f3f20559d859e331c089ed9110", "is_reserved": 0, "fusion_lon": 0.0, "bike_id": "2a3c88f3f20559d859e331c089ed9110", "lat": 38.9573595, "is_disabled": 0, "lon": -77.00214066666666, "fusion_lat": 0.0, "rental_uris": {"ios": "https://dc.lft.to/lastmile_qr_scan", "android": "https://dc.lft.to/lastmile_qr_scan"}, "type": "electric_scooter"}, {"name": "0d44775363258533e308bb35dfd5c2a8", "is_reserved": 0, "fusion_lon": 0.0, "bike_id": "0d44775363258533e308bb35dfd5c2a8", "lat": 38.984994666666665, "is_disabled": 0, "lon": -76.9820245, "fusion_lat": 0.0, "rental_uris": {"ios": "https://dc.lft.to/lastmile_qr_scan", "android": "https://dc.lft.to/lastmile_qr_scan"}, "type": "electric_bike"}, {"name": "eaec918414d9d6d68ef3717e9b39c72a", "is_reserved": 0, "fusion_lon": 0.0, "bike_id": "eaec918414d9d6d68ef3717e9b39c72a", "lat": 38.92611016666667, "is_disabled": 0, "lon": -77.0215635, "fusion_lat": 0.0, "rental_uris": {"ios": "https://dc.lft.to/lastmile_qr_scan", "android": "https://dc.lft.to/lastmile_qr_scan"}, "type": "electric_scooter"}, {"name": "fc533675944a00f0ed75888f356d3de7", "is_reserved": 0, "fusion_lon": 0.0, "bike_id": "fc533675944a00f0ed75888f356d3de7", "lat": 38.910595, "is_disabled": 0, "lon": -77.03196, "fusion_lat": 0.0, "rental_uris": {"ios": "https://dc.lft.to/lastmile_qr_scan", "android": "https://dc.lft.to/lastmile_qr_scan"}, "type": "electric_scooter"}, {"name": "0fa698abb447275b5c3d7dc2e696f915", "is_reserved": 0, "fusion_lon": 0.0, "bike_id": "0fa698abb447275b5c3d7dc2e696f915", "lat": 38.923429166666665, "is_disabled": 0, "lon": -77.02016716666667, "fusion_lat": 0.0, "rental_uris": {"ios": "https://dc.lft.to/lastmile_qr_scan", "android": "https://dc.lft.to/lastmile_qr_scan"}, "type": "electric_scooter"}, {"name": "4caf35e03bb23d7067e701dd56bef2cb", "is_reserved": 0, "fusion_lon": 0.0, "bike_id": "4caf35e03bb23d7067e701dd56bef2cb", "lat": 38.90997333333333, "is_disabled": 0, "lon": -76.98414983333333, "fusion_lat": 0.0, "rental_uris": {"ios": "https://dc.lft.to/lastmile_qr_scan", "android": "https://dc.lft.to/lastmile_qr_scan"}, "type": "electric_bike"}, {"name": "6213fab87b6efd1be450d4c63f2d2fdf", "is_reserved": 0, "fusion_lon": 0.0, "bike_id": "6213fab87b6efd1be450d4c63f2d2fdf", "lat": 38.93734716666667, "is_disabled": 0, "lon": -77.032848, "fusion_lat": 0.0, "rental_uris": {"ios": "https://dc.lft.to/lastmile_qr_scan", "android": "https://dc.lft.to/lastmile_qr_scan"}, "type": "electric_scooter"}, {"name": "807f53e8a6399abfd82b4a4dd685e0bb", "is_reserved": 0, "fusion_lon": 0.0, "bike_id": "807f53e8a6399abfd82b4a4dd685e0bb", "lat": 38.94488616666667, "is_disabled": 0, "lon": -77.02342033333333, "fusion_lat": 0.0, "rental_uris": {"ios": "https://dc.lft.to/lastmile_qr_scan", "android": "https://dc.lft.to/lastmile_qr_scan"}, "type": "electric_scooter"}, {"name": "15a3fc59efe146a4e904f847718c45e4", "is_reserved": 0, "fusion_lon": 0.0, "bike_id": "15a3fc59efe146a4e904f847718c45e4", "lat": 38.91537966666667, "is_disabled": 0, "lon": -77.01266716666666, "fusion_lat": 0.0, "rental_uris": {"ios": "https://dc.lft.to/lastmile_qr_scan", "android": "https://dc.lft.to/lastmile_qr_scan"}, "type": "electric_scooter"}, {"name": "2a4e1d66f2028e8850ab31c18ac0fc2c", "is_reserved": 0, "fusion_lon": 0.0, "bike_id": "2a4e1d66f2028e8850ab31c18ac0fc2c", "lat": 38.90390766666667, "is_disabled": 0, "lon": -77.038292, "fusion_lat": 0.0, "rental_uris": {"ios": "https://dc.lft.to/lastmile_qr_scan", "android": "https://dc.lft.to/lastmile_qr_scan"}, "type": "electric_scooter"}, {"name": "22faa7a0f4950724d8cc505a4cc15bfa", "is_reserved": 0, "fusion_lon": 0.0, "bike_id": "22faa7a0f4950724d8cc505a4cc15bfa", "lat": 38.90395266666667, "is_disabled": 0, "lon": -77.06507883333333, "fusion_lat": 0.0, "rental_uris": {"ios": "https://dc.lft.to/lastmile_qr_scan", "android": "https://dc.lft.to/lastmile_qr_scan"}, "type": "electric_scooter"}, {"name": "6e9872a0d7c430589b46501850913cd2", "is_reserved": 0, "fusion_lon": 0.0, "bike_id": "6e9872a0d7c430589b46501850913cd2", "lat": 38.895262833333334, "is_disabled": 0, "lon": -77.002041, "fusion_lat": 0.0, "rental_uris": {"ios": "https://dc.lft.to/lastmile_qr_scan", "android": "https://dc.lft.to/lastmile_qr_scan"}, "type": "electric_scooter"}, {"name": "dab663afa4a33ef0abe56934efeb544f", "is_reserved": 0, "fusion_lon": 0.0, "bike_id": "dab663afa4a33ef0abe56934efeb544f", "lat": 38.898822, "is_disabled": 0, "lon": -77.0415025, "fusion_lat": 0.0, "rental_uris": {"ios": "https://dc.lft.to/lastmile_qr_scan", "android": "https://dc.lft.to/lastmile_qr_scan"}, "type": "electric_scooter"}, {"name": "6048218d553925b0cf8b56621be15d53", "is_reserved": 0, "fusion_lon": 0.0, "bike_id": "6048218d553925b0cf8b56621be15d53", "lat": 38.884784333333336, "is_disabled": 0, "lon": -77.03343633333333, "fusion_lat": 0.0, "rental_uris": {"ios": "https://dc.lft.to/lastmile_qr_scan", "android": "https://dc.lft.to/lastmile_qr_scan"}, "type": "electric_scooter"}, {"name": "35a422f7fcb31e9d885468b93ebbe4be", "is_reserved": 0, "fusion_lon": 0.0, "bike_id": "35a422f7fcb31e9d885468b93ebbe4be", "lat": 38.90407833333333, "is_disabled": 0, "lon": -76.9928345, "fusion_lat": 0.0, "rental_uris": {"ios": "https://dc.lft.to/lastmile_qr_scan", "android": "https://dc.lft.to/lastmile_qr_scan"}, "type": "electric_scooter"}, {"name": "70dd34c4f9e9b5657a2941890a719126", "is_reserved": 0, "fusion_lon": 0.0, "bike_id": "70dd34c4f9e9b5657a2941890a719126", "lat": 38.899965333333334, "is_disabled": 0, "lon": -76.993553, "fusion_lat": 0.0, "rental_uris": {"ios": "https://dc.lft.to/lastmile_qr_scan", "android": "https://dc.lft.to/lastmile_qr_scan"}, "type": "electric_scooter"}, {"name": "5a90affaf49160c736f9ecbe1d5c5de1", "is_reserved": 0, "fusion_lon": 0.0, "bike_id": "5a90affaf49160c736f9ecbe1d5c5de1", "lat": 38.91414483333333, "is_disabled": 0, "lon": -77.04605883333333, "fusion_lat": 0.0, "rental_uris": {"ios": "https://dc.lft.to/lastmile_qr_scan", "android": "https://dc.lft.to/lastmile_qr_scan"}, "type": "electric_scooter"}, {"name": "5b273a1f590186c57a81362856b2fc30", "is_reserved": 0, "fusion_lon": 0.0, "bike_id": "5b273a1f590186c57a81362856b2fc30", "lat": 38.90047166666667, "is_disabled": 0, "lon": -77.04747116666667, "fusion_lat": 0.0, "rental_uris": {"ios": "https://dc.lft.to/lastmile_qr_scan", "android": "https://dc.lft.to/lastmile_qr_scan"}, "type": "electric_scooter"}, {"name": "726506ad7b1175b4bb3733450f2f7fac", "is_reserved": 0, "fusion_lon": 0.0, "bike_id": "726506ad7b1175b4bb3733450f2f7fac", "lat": 38.9215725, "is_disabled": 0, "lon": -77.03384416666667, "fusion_lat": 0.0, "rental_uris": {"ios": "https://dc.lft.to/lastmile_qr_scan", "android": "https://dc.lft.to/lastmile_qr_scan"}, "type": "electric_scooter"}, {"name": "6b4dc6e75d5f6bcf83f976040dcf8e91", "is_reserved": 0, "fusion_lon": 0.0, "bike_id": "6b4dc6e75d5f6bcf83f976040dcf8e91", "lat": 38.924936833333334, "is_disabled": 0, "lon": -77.04330533333334, "fusion_lat": 0.0, "rental_uris": {"ios": "https://dc.lft.to/lastmile_qr_scan", "android": "https://dc.lft.to/lastmile_qr_scan"}, "type": "electric_scooter"}, {"name": "a0ddc664569f19ef8f61d74313e54fdd", "is_reserved": 0, "fusion_lon": 0.0, "bike_id": "a0ddc664569f19ef8f61d74313e54fdd", "lat": 38.906343666666665, "is_disabled": 0, "lon": -77.031427, "fusion_lat": 0.0, "rental_uris": {"ios": "https://dc.lft.to/lastmile_qr_scan", "android": "https://dc.lft.to/lastmile_qr_scan"}, "type": "electric_scooter"}, {"name": "89afcfef109ace6b6e3a54b1aa1587bf", "is_reserved": 0, "fusion_lon": 0.0, "bike_id": "89afcfef109ace6b6e3a54b1aa1587bf", "lat": 38.8945945, "is_disabled": 0, "lon": -77.04659016666666, "fusion_lat": 0.0, "rental_uris": {"ios": "https://dc.lft.to/lastmile_qr_scan", "android": "https://dc.lft.to/lastmile_qr_scan"}, "type": "electric_scooter"}, {"name": "30d895419c207ab2de5005b6a66d1b74", "is_reserved": 0, "fusion_lon": 0.0, "bike_id": "30d895419c207ab2de5005b6a66d1b74", "lat": 38.901028, "is_disabled": 0, "lon": -77.04990066666667, "fusion_lat": 0.0, "rental_uris": {"ios": "https://dc.lft.to/lastmile_qr_scan", "android": "https://dc.lft.to/lastmile_qr_scan"}, "type": "electric_scooter"}, {"name": "5b28ff33148d6946409698456852f5da", "is_reserved": 0, "fusion_lon": 0.0, "bike_id": "5b28ff33148d6946409698456852f5da", "lat": 38.900346666666664, "is_disabled": 0, "lon": -77.00203766666667, "fusion_lat": 0.0, "rental_uris": {"ios": "https://dc.lft.to/lastmile_qr_scan", "android": "https://dc.lft.to/lastmile_qr_scan"}, "type": "electric_scooter"}, {"name": "ad1c5512317562a427b00b35b0f74d00", "is_reserved": 0, "fusion_lon": 0.0, "bike_id": "ad1c5512317562a427b00b35b0f74d00", "lat": 38.892262833333334, "is_disabled": 0, "lon": -77.02532716666667, "fusion_lat": 0.0, "rental_uris": {"ios": "https://dc.lft.to/lastmile_qr_scan", "android": "https://dc.lft.to/lastmile_qr_scan"}, "type": "electric_scooter"}, {"name": "3b25570949a4beee3f3204710a77efb8", "is_reserved": 0, "fusion_lon": 0.0, "bike_id": "3b25570949a4beee3f3204710a77efb8", "lat": 38.919193, "is_disabled": 0, "lon": -77.03108466666667, "fusion_lat": 0.0, "rental_uris": {"ios": "https://dc.lft.to/lastmile_qr_scan", "android": "https://dc.lft.to/lastmile_qr_scan"}, "type": "electric_scooter"}, {"name": "5925650918297fb649d00433f7a0e909", "is_reserved": 0, "fusion_lon": 0.0, "bike_id": "5925650918297fb649d00433f7a0e909", "lat": 38.9236815, "is_disabled": 0, "lon": -77.019534, "fusion_lat": 0.0, "rental_uris": {"ios": "https://dc.lft.to/lastmile_qr_scan", "android": "https://dc.lft.to/lastmile_qr_scan"}, "type": "electric_scooter"}, {"name": "03c8d34f306fdc8ff599e8d23e49e422", "is_reserved": 0, "fusion_lon": 0.0, "bike_id": "03c8d34f306fdc8ff599e8d23e49e422", "lat": 38.89500733333333, "is_disabled": 0, "lon": -77.00948216666667, "fusion_lat": 0.0, "rental_uris": {"ios": "https://dc.lft.to/lastmile_qr_scan", "android": "https://dc.lft.to/lastmile_qr_scan"}, "type": "electric_scooter"}, {"name": "1f53c929cf05df440801d6f720858940", "is_reserved": 0, "fusion_lon": 0.0, "bike_id": "1f53c929cf05df440801d6f720858940", "lat": 38.925036166666665, "is_disabled": 0, "lon": -77.02569033333333, "fusion_lat": 0.0, "rental_uris": {"ios": "https://dc.lft.to/lastmile_qr_scan", "android": "https://dc.lft.to/lastmile_qr_scan"}, "type": "electric_scooter"}, {"name": "9f1811fd0af6293f02bd4761025566ec", "is_reserved": 0, "fusion_lon": 0.0, "bike_id": "9f1811fd0af6293f02bd4761025566ec", "lat": 38.921193, "is_disabled": 0, "lon": -77.03680633333333, "fusion_lat": 0.0, "rental_uris": {"ios": "https://dc.lft.to/lastmile_qr_scan", "android": "https://dc.lft.to/lastmile_qr_scan"}, "type": "electric_scooter"}, {"name": "87b665dfa2759960bb1528a40b53adc3", "is_reserved": 0, "fusion_lon": 0.0, "bike_id": "87b665dfa2759960bb1528a40b53adc3", "lat": 38.90396633333334, "is_disabled": 0, "lon": -77.04051216666667, "fusion_lat": 0.0, "rental_uris": {"ios": "https://dc.lft.to/lastmile_qr_scan", "android": "https://dc.lft.to/lastmile_qr_scan"}, "type": "electric_scooter"}, {"name": "15fdaba0dae69ccc0fd01e53ff130c80", "is_reserved": 0, "fusion_lon": 0.0, "bike_id": "15fdaba0dae69ccc0fd01e53ff130c80", "lat": 38.921635, "is_disabled": 0, "lon": -77.026689, "fusion_lat": 0.0, "rental_uris": {"ios": "https://dc.lft.to/lastmile_qr_scan", "android": "https://dc.lft.to/lastmile_qr_scan"}, "type": "electric_scooter"}, {"name": "f351be2371432c152cafaaf3a787fb72", "is_reserved": 0, "fusion_lon": 0.0, "bike_id": "f351be2371432c152cafaaf3a787fb72", "lat": 38.90699633333333, "is_disabled": 0, "lon": -77.003522, "fusion_lat": 0.0, "rental_uris": {"ios": "https://dc.lft.to/lastmile_qr_scan", "android": "https://dc.lft.to/lastmile_qr_scan"}, "type": "electric_scooter"}, {"name": "aa97cdebc11a8c8c8b93cc8971155a9f", "is_reserved": 0, "fusion_lon": 0.0, "bike_id": "aa97cdebc11a8c8c8b93cc8971155a9f", "lat": 38.8924275, "is_disabled": 0, "lon": -77.03349933333334, "fusion_lat": 0.0, "rental_uris": {"ios": "https://dc.lft.to/lastmile_qr_scan", "android": "https://dc.lft.to/lastmile_qr_scan"}, "type": "electric_scooter"}, {"name": "cf8a5b07a36b175d4e4f1137f59e28b6", "is_reserved": 0, "fusion_lon": 0.0, "bike_id": "cf8a5b07a36b175d4e4f1137f59e28b6", "lat": 38.924779, "is_disabled": 0, "lon": -77.0213645, "fusion_lat": 0.0, "rental_uris": {"ios": "https://dc.lft.to/lastmile_qr_scan", "android": "https://dc.lft.to/lastmile_qr_scan"}, "type": "electric_scooter"}, {"name": "e03cf12178764a586762398ae002deba", "is_reserved": 0, "fusion_lon": 0.0, "bike_id": "e03cf12178764a586762398ae002deba", "lat": 38.892192333333334, "is_disabled": 0, "lon": -77.04686016666666, "fusion_lat": 0.0, "rental_uris": {"ios": "https://dc.lft.to/lastmile_qr_scan", "android": "https://dc.lft.to/lastmile_qr_scan"}, "type": "electric_scooter"}, {"name": "dfcbe59df9aa58437e7d9742f4584753", "is_reserved": 0, "fusion_lon": 0.0, "bike_id": "dfcbe59df9aa58437e7d9742f4584753", "lat": 38.90661, "is_disabled": 0, "lon": -77.071903, "fusion_lat": 0.0, "rental_uris": {"ios": "https://dc.lft.to/lastmile_qr_scan", "android": "https://dc.lft.to/lastmile_qr_scan"}, "type": "electric_scooter"}, {"name": "bd4048a68be0b39ea8549eca236cd2ef", "is_reserved": 0, "fusion_lon": 0.0, "bike_id": "bd4048a68be0b39ea8549eca236cd2ef", "lat": 38.898463166666666, "is_disabled": 0, "lon": -77.04665383333334, "fusion_lat": 0.0, "rental_uris": {"ios": "https://dc.lft.to/lastmile_qr_scan", "android": "https://dc.lft.to/lastmile_qr_scan"}, "type": "electric_scooter"}, {"name": "983616312038c0198256fdaba86da6a9", "is_reserved": 0, "fusion_lon": 0.0, "bike_id": "983616312038c0198256fdaba86da6a9", "lat": 38.876818666666665, "is_disabled": 0, "lon": -77.01790616666666, "fusion_lat": 0.0, "rental_uris": {"ios": "https://dc.lft.to/lastmile_qr_scan", "android": "https://dc.lft.to/lastmile_qr_scan"}, "type": "electric_scooter"}, {"name": "6081ce6760ff89df79c6ef8ce8df3a64", "is_reserved": 0, "fusion_lon": 0.0, "bike_id": "6081ce6760ff89df79c6ef8ce8df3a64", "lat": 38.904182166666665, "is_disabled": 0, "lon": -77.03246833333333, "fusion_lat": 0.0, "rental_uris": {"ios": "https://dc.lft.to/lastmile_qr_scan", "android": "https://dc.lft.to/lastmile_qr_scan"}, "type": "electric_scooter"}, {"name": "fa8d0cb33682df43d5f2502207d04056", "is_reserved": 0, "fusion_lon": 0.0, "bike_id": "fa8d0cb33682df43d5f2502207d04056", "lat": 38.91715083333333, "is_disabled": 0, "lon": -77.03346, "fusion_lat": 0.0, "rental_uris": {"ios": "https://dc.lft.to/lastmile_qr_scan", "android": "https://dc.lft.to/lastmile_qr_scan"}, "type": "electric_scooter"}, {"name": "87ecf516814b9e76a37097d0cdfc104f", "is_reserved": 0, "fusion_lon": 0.0, "bike_id": "87ecf516814b9e76a37097d0cdfc104f", "lat": 38.897224666666666, "is_disabled": 0, "lon": -77.046508, "fusion_lat": 0.0, "rental_uris": {"ios": "https://dc.lft.to/lastmile_qr_scan", "android": "https://dc.lft.to/lastmile_qr_scan"}, "type": "electric_scooter"}, {"name": "14dd73caeab530824d9f200d10e59edd", "is_reserved": 0, "fusion_lon": 0.0, "bike_id": "14dd73caeab530824d9f200d10e59edd", "lat": 38.9036745, "is_disabled": 0, "lon": -77.03420833333334, "fusion_lat": 0.0, "rental_uris": {"ios": "https://dc.lft.to/lastmile_qr_scan", "android": "https://dc.lft.to/lastmile_qr_scan"}, "type": "electric_scooter"}, {"name": "91f8d5c9838884d03e2323ed5b0a314d", "is_reserved": 0, "fusion_lon": 0.0, "bike_id": "91f8d5c9838884d03e2323ed5b0a314d", "lat": 38.99490816666667, "is_disabled": 0, "lon": -77.00135116666667, "fusion_lat": 0.0, "rental_uris": {"ios": "https://dc.lft.to/lastmile_qr_scan", "android": "https://dc.lft.to/lastmile_qr_scan"}, "type": "electric_bike"}, {"name": "82a885ddb929582669d32499d21df3ce", "is_reserved": 0, "fusion_lon": 0.0, "bike_id": "82a885ddb929582669d32499d21df3ce", "lat": 38.92200166666667, "is_disabled": 0, "lon": -77.01833133333334, "fusion_lat": 0.0, "rental_uris": {"ios": "https://dc.lft.to/lastmile_qr_scan", "android": "https://dc.lft.to/lastmile_qr_scan"}, "type": "electric_scooter"}, {"name": "8eaf63c7febe8e99f53c86c39c27bdc8", "is_reserved": 0, "fusion_lon": 0.0, "bike_id": "8eaf63c7febe8e99f53c86c39c27bdc8", "lat": 38.875434, "is_disabled": 0, "lon": -77.0053325, "fusion_lat": 0.0, "rental_uris": {"ios": "https://dc.lft.to/lastmile_qr_scan", "android": "https://dc.lft.to/lastmile_qr_scan"}, "type": "electric_scooter"}, {"name": "f2f61f22bda85f409f3df10e8255bafa", "is_reserved": 0, "fusion_lon": 0.0, "bike_id": "f2f61f22bda85f409f3df10e8255bafa", "lat": 38.900120666666666, "is_disabled": 0, "lon": -76.98929233333334, "fusion_lat": 0.0, "rental_uris": {"ios": "https://dc.lft.to/lastmile_qr_scan", "android": "https://dc.lft.to/lastmile_qr_scan"}, "type": "electric_scooter"}, {"name": "aab5907fc2ce58387a2b2d33c8f4167e", "is_reserved": 0, "fusion_lon": 0.0, "bike_id": "aab5907fc2ce58387a2b2d33c8f4167e", "lat": 38.8791865, "is_disabled": 0, "lon": -77.01552066666666, "fusion_lat": 0.0, "rental_uris": {"ios": "https://dc.lft.to/lastmile_qr_scan", "android": "https://dc.lft.to/lastmile_qr_scan"}, "type": "electric_scooter"}, {"name": "be418aa8ab93b28cc4471e15ec801450", "is_reserved": 0, "fusion_lon": 0.0, "bike_id": "be418aa8ab93b28cc4471e15ec801450", "lat": 38.923563, "is_disabled": 0, "lon": -77.02232333333333, "fusion_lat": 0.0, "rental_uris": {"ios": "https://dc.lft.to/lastmile_qr_scan", "android": "https://dc.lft.to/lastmile_qr_scan"}, "type": "electric_scooter"}, {"name": "6677e94e28b0e3f15ae4a629fc4cddfa", "is_reserved": 0, "fusion_lon": 0.0, "bike_id": "6677e94e28b0e3f15ae4a629fc4cddfa", "lat": 38.921240833333336, "is_disabled": 0, "lon": -77.0411455, "fusion_lat": 0.0, "rental_uris": {"ios": "https://dc.lft.to/lastmile_qr_scan", "android": "https://dc.lft.to/lastmile_qr_scan"}, "type": "electric_scooter"}, {"name": "e9e6e772d88dfbbeb5c762d7e36b4372", "is_reserved": 0, "fusion_lon": 0.0, "bike_id": "e9e6e772d88dfbbeb5c762d7e36b4372", "lat": 38.9161125, "is_disabled": 0, "lon": -77.04617383333333, "fusion_lat": 0.0, "rental_uris": {"ios": "https://dc.lft.to/lastmile_qr_scan", "android": "https://dc.lft.to/lastmile_qr_scan"}, "type": "electric_scooter"}, {"name": "300db06d895a3210f5f1d81dd2704e9a", "is_reserved": 0, "fusion_lon": 0.0, "bike_id": "300db06d895a3210f5f1d81dd2704e9a", "lat": 38.89847666666667, "is_disabled": 0, "lon": -77.046666, "fusion_lat": 0.0, "rental_uris": {"ios": "https://dc.lft.to/lastmile_qr_scan", "android": "https://dc.lft.to/lastmile_qr_scan"}, "type": "electric_scooter"}, {"name": "87b988c0e21f605f6ee2d3acbb737810", "is_reserved": 0, "fusion_lon": 0.0, "bike_id": "87b988c0e21f605f6ee2d3acbb737810", "lat": 38.896264, "is_disabled": 0, "lon": -77.0396325, "fusion_lat": 0.0, "rental_uris": {"ios": "https://dc.lft.to/lastmile_qr_scan", "android": "https://dc.lft.to/lastmile_qr_scan"}, "type": "electric_scooter"}, {"name": "3a6543a488e2209e7992680f613aaf79", "is_reserved": 0, "fusion_lon": 0.0, "bike_id": "3a6543a488e2209e7992680f613aaf79", "lat": 38.928033666666664, "is_disabled": 0, "lon": -77.01545966666667, "fusion_lat": 0.0, "rental_uris": {"ios": "https://dc.lft.to/lastmile_qr_scan", "android": "https://dc.lft.to/lastmile_qr_scan"}, "type": "electric_scooter"}, {"name": "e24d089779854d213289da97bd588d9c", "is_reserved": 0, "fusion_lon": 0.0, "bike_id": "e24d089779854d213289da97bd588d9c", "lat": 38.90026, "is_disabled": 0, "lon": -77.010935, "fusion_lat": 0.0, "rental_uris": {"ios": "https://dc.lft.to/lastmile_qr_scan", "android": "https://dc.lft.to/lastmile_qr_scan"}, "type": "electric_scooter"}, {"name": "5556b0e05d36b97e0b7f198883682243", "is_reserved": 0, "fusion_lon": 0.0, "bike_id": "5556b0e05d36b97e0b7f198883682243", "lat": 38.923483833333336, "is_disabled": 0, "lon": -77.05425183333334, "fusion_lat": 0.0, "rental_uris": {"ios": "https://dc.lft.to/lastmile_qr_scan", "android": "https://dc.lft.to/lastmile_qr_scan"}, "type": "electric_scooter"}, {"name": "cb95c7bcf584c69b5fe78a63fa88c273", "is_reserved": 0, "fusion_lon": 0.0, "bike_id": "cb95c7bcf584c69b5fe78a63fa88c273", "lat": 38.88474183333334, "is_disabled": 0, "lon": -77.02490933333333, "fusion_lat": 0.0, "rental_uris": {"ios": "https://dc.lft.to/lastmile_qr_scan", "android": "https://dc.lft.to/lastmile_qr_scan"}, "type": "electric_scooter"}, {"name": "0c6fe6a3b019e584475f5dcc95612358", "is_reserved": 0, "fusion_lon": 0.0, "bike_id": "0c6fe6a3b019e584475f5dcc95612358", "lat": 38.884264333333334, "is_disabled": 0, "lon": -76.9959795, "fusion_lat": 0.0, "rental_uris": {"ios": "https://dc.lft.to/lastmile_qr_scan", "android": "https://dc.lft.to/lastmile_qr_scan"}, "type": "electric_scooter"}, {"name": "e233535acb0b0a7329101462dc330fce", "is_reserved": 0, "fusion_lon": 0.0, "bike_id": "e233535acb0b0a7329101462dc330fce", "lat": 38.942342, "is_disabled": 0, "lon": -77.0117275, "fusion_lat": 0.0, "rental_uris": {"ios": "https://dc.lft.to/lastmile_qr_scan", "android": "https://dc.lft.to/lastmile_qr_scan"}, "type": "electric_scooter"}, {"name": "067384292f8d767ece4b207e551544ae", "is_reserved": 0, "fusion_lon": 0.0, "bike_id": "067384292f8d767ece4b207e551544ae", "lat": 38.896152, "is_disabled": 0, "lon": -77.022093, "fusion_lat": 0.0, "rental_uris": {"ios": "https://dc.lft.to/lastmile_qr_scan", "android": "https://dc.lft.to/lastmile_qr_scan"}, "type": "electric_scooter"}, {"name": "d7806c4f5a09bd90d6ddaa6459f57f15", "is_reserved": 0, "fusion_lon": 0.0, "bike_id": "d7806c4f5a09bd90d6ddaa6459f57f15", "lat": 38.91270633333333, "is_disabled": 0, "lon": -77.02243983333334, "fusion_lat": 0.0, "rental_uris": {"ios": "https://dc.lft.to/lastmile_qr_scan", "android": "https://dc.lft.to/lastmile_qr_scan"}, "type": "electric_scooter"}, {"name": "d3e57678558adcfb906b36b4d3bd8912", "is_reserved": 0, "fusion_lon": 0.0, "bike_id": "d3e57678558adcfb906b36b4d3bd8912", "lat": 38.8967345, "is_disabled": 0, "lon": -77.04333933333334, "fusion_lat": 0.0, "rental_uris": {"ios": "https://dc.lft.to/lastmile_qr_scan", "android": "https://dc.lft.to/lastmile_qr_scan"}, "type": "electric_scooter"}, {"name": "971b5dd23c9a80f76b006020dfa8afa2", "is_reserved": 0, "fusion_lon": 0.0, "bike_id": "971b5dd23c9a80f76b006020dfa8afa2", "lat": 38.90710083333333, "is_disabled": 0, "lon": -77.0435585, "fusion_lat": 0.0, "rental_uris": {"ios": "https://dc.lft.to/lastmile_qr_scan", "android": "https://dc.lft.to/lastmile_qr_scan"}, "type": "electric_scooter"}, {"name": "84b98ca447d75e7cab8a8ee860a7b536", "is_reserved": 0, "fusion_lon": 0.0, "bike_id": "84b98ca447d75e7cab8a8ee860a7b536", "lat": 38.923785333333335, "is_disabled": 0, "lon": -77.02654616666666, "fusion_lat": 0.0, "rental_uris": {"ios": "https://dc.lft.to/lastmile_qr_scan", "android": "https://dc.lft.to/lastmile_qr_scan"}, "type": "electric_scooter"}, {"name": "7d21bc54527047e111b31dc38449d3fc", "is_reserved": 0, "fusion_lon": 0.0, "bike_id": "7d21bc54527047e111b31dc38449d3fc", "lat": 38.8329595, "is_disabled": 0, "lon": -77.0840885, "fusion_lat": 0.0, "rental_uris": {"ios": "https://dc.lft.to/lastmile_qr_scan", "android": "https://dc.lft.to/lastmile_qr_scan"}, "type": "electric_bike"}, {"name": "bb86b442a95223e527461df5ae3065fa", "is_reserved": 0, "fusion_lon": 0.0, "bike_id": "bb86b442a95223e527461df5ae3065fa", "lat": 38.9497935, "is_disabled": 0, "lon": -77.08028416666667, "fusion_lat": 0.0, "rental_uris": {"ios": "https://dc.lft.to/lastmile_qr_scan", "android": "https://dc.lft.to/lastmile_qr_scan"}, "type": "electric_scooter"}, {"name": "810a81166906e20c1d19c6d6a3d0cfd1", "is_reserved": 0, "fusion_lon": 0.0, "bike_id": "810a81166906e20c1d19c6d6a3d0cfd1", "lat": 38.9376605, "is_disabled": 0, "lon": -76.9930495, "fusion_lat": 0.0, "rental_uris": {"ios": "https://dc.lft.to/lastmile_qr_scan", "android": "https://dc.lft.to/lastmile_qr_scan"}, "type": "electric_scooter"}, {"name": "61f9d1c6f644e0fbc213167ae238dadf", "is_reserved": 0, "fusion_lon": 0.0, "bike_id": "61f9d1c6f644e0fbc213167ae238dadf", "lat": 38.921473166666665, "is_disabled": 0, "lon": -77.0423625, "fusion_lat": 0.0, "rental_uris": {"ios": "https://dc.lft.to/lastmile_qr_scan", "android": "https://dc.lft.to/lastmile_qr_scan"}, "type": "electric_scooter"}, {"name": "aba8d3d7295e942c7597446446194555", "is_reserved": 0, "fusion_lon": 0.0, "bike_id": "aba8d3d7295e942c7597446446194555", "lat": 38.915417, "is_disabled": 0, "lon": -77.03202616666667, "fusion_lat": 0.0, "rental_uris": {"ios": "https://dc.lft.to/lastmile_qr_scan", "android": "https://dc.lft.to/lastmile_qr_scan"}, "type": "electric_scooter"}, {"name": "2e03df47652b404c1e151955f6bfb323", "is_reserved": 0, "fusion_lon": 0.0, "bike_id": "2e03df47652b404c1e151955f6bfb323", "lat": 38.8995025, "is_disabled": 0, "lon": -77.04172133333333, "fusion_lat": 0.0, "rental_uris": {"ios": "https://dc.lft.to/lastmile_qr_scan", "android": "https://dc.lft.to/lastmile_qr_scan"}, "type": "electric_scooter"}, {"name": "cea248549350c8b40f7cfce17303314f", "is_reserved": 0, "fusion_lon": 0.0, "bike_id": "cea248549350c8b40f7cfce17303314f", "lat": 38.898494666666664, "is_disabled": 0, "lon": -76.92749183333333, "fusion_lat": 0.0, "rental_uris": {"ios": "https://dc.lft.to/lastmile_qr_scan", "android": "https://dc.lft.to/lastmile_qr_scan"}, "type": "electric_scooter"}, {"name": "93cda113e999d018c53d80dd8918e9ad", "is_reserved": 0, "fusion_lon": 0.0, "bike_id": "93cda113e999d018c53d80dd8918e9ad", "lat": 38.998028833333336, "is_disabled": 0, "lon": -76.99790616666667, "fusion_lat": 0.0, "rental_uris": {"ios": "https://dc.lft.to/lastmile_qr_scan", "android": "https://dc.lft.to/lastmile_qr_scan"}, "type": "electric_bike"}, {"name": "7d0c9a39710da40d6ef10ddb54672211", "is_reserved": 0, "fusion_lon": 0.0, "bike_id": "7d0c9a39710da40d6ef10ddb54672211", "lat": 38.90701716666667, "is_disabled": 0, "lon": -77.028082, "fusion_lat": 0.0, "rental_uris": {"ios": "https://dc.lft.to/lastmile_qr_scan", "android": "https://dc.lft.to/lastmile_qr_scan"}, "type": "electric_scooter"}, {"name": "cf4a7ffc88621bc2ae8a5b1c809ebc80", "is_reserved": 0, "fusion_lon": 0.0, "bike_id": "cf4a7ffc88621bc2ae8a5b1c809ebc80", "lat": 38.90643033333333, "is_disabled": 0, "lon": -76.98378966666667, "fusion_lat": 0.0, "rental_uris": {"ios": "https://dc.lft.to/lastmile_qr_scan", "android": "https://dc.lft.to/lastmile_qr_scan"}, "type": "electric_scooter"}, {"name": "f7fc7b2acb3a5b05ef830b9d0d83ac13", "is_reserved": 0, "fusion_lon": 0.0, "bike_id": "f7fc7b2acb3a5b05ef830b9d0d83ac13", "lat": 38.892049, "is_disabled": 0, "lon": -76.96108916666667, "fusion_lat": 0.0, "rental_uris": {"ios": "https://dc.lft.to/lastmile_qr_scan", "android": "https://dc.lft.to/lastmile_qr_scan"}, "type": "electric_scooter"}, {"name": "6041a1993ad88be28cf23cc57d5b6b45", "is_reserved": 0, "fusion_lon": 0.0, "bike_id": "6041a1993ad88be28cf23cc57d5b6b45", "lat": 38.876339333333334, "is_disabled": 0, "lon": -77.0037715, "fusion_lat": 0.0, "rental_uris": {"ios": "https://dc.lft.to/lastmile_qr_scan", "android": "https://dc.lft.to/lastmile_qr_scan"}, "type": "electric_scooter"}, {"name": "ee7ad7336cd40245ec7d80497a870248", "is_reserved": 0, "fusion_lon": 0.0, "bike_id": "ee7ad7336cd40245ec7d80497a870248", "lat": 38.906508, "is_disabled": 0, "lon": -76.98599, "fusion_lat": 0.0, "rental_uris": {"ios": "https://dc.lft.to/lastmile_qr_scan", "android": "https://dc.lft.to/lastmile_qr_scan"}, "type": "electric_scooter"}, {"name": "2105ed22ddb1b76cd671d613ca41c121", "is_reserved": 0, "fusion_lon": 0.0, "bike_id": "2105ed22ddb1b76cd671d613ca41c121", "lat": 38.9278495, "is_disabled": 0, "lon": -77.0212085, "fusion_lat": 0.0, "rental_uris": {"ios": "https://dc.lft.to/lastmile_qr_scan", "android": "https://dc.lft.to/lastmile_qr_scan"}, "type": "electric_scooter"}, {"name": "82401f6a9bd8c1446d4e78ecb433055a", "is_reserved": 0, "fusion_lon": 0.0, "bike_id": "82401f6a9bd8c1446d4e78ecb433055a", "lat": 38.9246785, "is_disabled": 0, "lon": -77.0219585, "fusion_lat": 0.0, "rental_uris": {"ios": "https://dc.lft.to/lastmile_qr_scan", "android": "https://dc.lft.to/lastmile_qr_scan"}, "type": "electric_scooter"}, {"name": "81061ba491a45756b1b8a61a883c4af6", "is_reserved": 0, "fusion_lon": 0.0, "bike_id": "81061ba491a45756b1b8a61a883c4af6", "lat": 38.85626366666666, "is_disabled": 0, "lon": -76.99065583333334, "fusion_lat": 0.0, "rental_uris": {"ios": "https://dc.lft.to/lastmile_qr_scan", "android": "https://dc.lft.to/lastmile_qr_scan"}, "type": "electric_scooter"}, {"name": "6908f044f81405197cc7a662bd1b147f", "is_reserved": 0, "fusion_lon": 0.0, "bike_id": "6908f044f81405197cc7a662bd1b147f", "lat": 38.92244566666667, "is_disabled": 0, "lon": -77.025435, "fusion_lat": 0.0, "rental_uris": {"ios": "https://dc.lft.to/lastmile_qr_scan", "android": "https://dc.lft.to/lastmile_qr_scan"}, "type": "electric_scooter"}, {"name": "2fd57f1f43b2881d88271284e1495c01", "is_reserved": 0, "fusion_lon": 0.0, "bike_id": "2fd57f1f43b2881d88271284e1495c01", "lat": 38.9180385, "is_disabled": 0, "lon": -77.0400115, "fusion_lat": 0.0, "rental_uris": {"ios": "https://dc.lft.to/lastmile_qr_scan", "android": "https://dc.lft.to/lastmile_qr_scan"}, "type": "electric_scooter"}, {"name": "d402d95e7f6b82075474b3d22fdec6c6", "is_reserved": 0, "fusion_lon": 0.0, "bike_id": "d402d95e7f6b82075474b3d22fdec6c6", "lat": 38.91193483333333, "is_disabled": 0, "lon": -77.075042, "fusion_lat": 0.0, "rental_uris": {"ios": "https://dc.lft.to/lastmile_qr_scan", "android": "https://dc.lft.to/lastmile_qr_scan"}, "type": "electric_scooter"}, {"name": "69b65ba0f8e1f320df0cdeab2d222021", "is_reserved": 0, "fusion_lon": 0.0, "bike_id": "69b65ba0f8e1f320df0cdeab2d222021", "lat": 38.88482916666667, "is_disabled": 0, "lon": -77.03346033333334, "fusion_lat": 0.0, "rental_uris": {"ios": "https://dc.lft.to/lastmile_qr_scan", "android": "https://dc.lft.to/lastmile_qr_scan"}, "type": "electric_scooter"}, {"name": "322756ece93d16e1e39e03b76d8587d8", "is_reserved": 0, "fusion_lon": 0.0, "bike_id": "322756ece93d16e1e39e03b76d8587d8", "lat": 38.95642433333333, "is_disabled": 0, "lon": -77.01934533333333, "fusion_lat": 0.0, "rental_uris": {"ios": "https://dc.lft.to/lastmile_qr_scan", "android": "https://dc.lft.to/lastmile_qr_scan"}, "type": "electric_scooter"}, {"name": "915bd8423e54fc92d9c5f997c9d3e718", "is_reserved": 0, "fusion_lon": 0.0, "bike_id": "915bd8423e54fc92d9c5f997c9d3e718", "lat": 38.91614233333333, "is_disabled": 0, "lon": -77.04577766666667, "fusion_lat": 0.0, "rental_uris": {"ios": "https://dc.lft.to/lastmile_qr_scan", "android": "https://dc.lft.to/lastmile_qr_scan"}, "type": "electric_scooter"}, {"name": "89c95938ee4ba8b1e78de010edb1eadd", "is_reserved": 0, "fusion_lon": 0.0, "bike_id": "89c95938ee4ba8b1e78de010edb1eadd", "lat": 38.9171445, "is_disabled": 0, "lon": -77.03852883333333, "fusion_lat": 0.0, "rental_uris": {"ios": "https://dc.lft.to/lastmile_qr_scan", "android": "https://dc.lft.to/lastmile_qr_scan"}, "type": "electric_scooter"}, {"name": "9d2283cfb7d950cb84511ca753942d19", "is_reserved": 0, "fusion_lon": 0.0, "bike_id": "9d2283cfb7d950cb84511ca753942d19", "lat": 38.89357416666667, "is_disabled": 0, "lon": -77.003312, "fusion_lat": 0.0, "rental_uris": {"ios": "https://dc.lft.to/lastmile_qr_scan", "android": "https://dc.lft.to/lastmile_qr_scan"}, "type": "electric_scooter"}, {"name": "069727b3532f6e9f541b583fb3d24588", "is_reserved": 0, "fusion_lon": 0.0, "bike_id": "069727b3532f6e9f541b583fb3d24588", "lat": 38.86515416666667, "is_disabled": 0, "lon": -76.9732525, "fusion_lat": 0.0, "rental_uris": {"ios": "https://dc.lft.to/lastmile_qr_scan", "android": "https://dc.lft.to/lastmile_qr_scan"}, "type": "electric_bike"}, {"name": "4d7eca9452f9212d9dd639ad25f01b25", "is_reserved": 0, "fusion_lon": 0.0, "bike_id": "4d7eca9452f9212d9dd639ad25f01b25", "lat": 38.9009655, "is_disabled": 0, "lon": -77.03436516666666, "fusion_lat": 0.0, "rental_uris": {"ios": "https://dc.lft.to/lastmile_qr_scan", "android": "https://dc.lft.to/lastmile_qr_scan"}, "type": "electric_scooter"}, {"name": "2fb86d715d18101e3167fd1c2410acfd", "is_reserved": 0, "fusion_lon": 0.0, "bike_id": "2fb86d715d18101e3167fd1c2410acfd", "lat": 38.941777333333334, "is_disabled": 0, "lon": -77.02405233333333, "fusion_lat": 0.0, "rental_uris": {"ios": "https://dc.lft.to/lastmile_qr_scan", "android": "https://dc.lft.to/lastmile_qr_scan"}, "type": "electric_scooter"}, {"name": "24f62aa715bad3ad7acda179809359ae", "is_reserved": 0, "fusion_lon": 0.0, "bike_id": "24f62aa715bad3ad7acda179809359ae", "lat": 38.89508516666667, "is_disabled": 0, "lon": -76.948847, "fusion_lat": 0.0, "rental_uris": {"ios": "https://dc.lft.to/lastmile_qr_scan", "android": "https://dc.lft.to/lastmile_qr_scan"}, "type": "electric_scooter"}, {"name": "d36787674292c9ba6ca8b6774833c8d1", "is_reserved": 0, "fusion_lon": 0.0, "bike_id": "d36787674292c9ba6ca8b6774833c8d1", "lat": 38.877374333333336, "is_disabled": 0, "lon": -77.14868533333333, "fusion_lat": 0.0, "rental_uris": {"ios": "https://dc.lft.to/lastmile_qr_scan", "android": "https://dc.lft.to/lastmile_qr_scan"}, "type": "electric_bike"}, {"name": "7c529f78b91ffad55cb8f35c71ee397d", "is_reserved": 0, "fusion_lon": 0.0, "bike_id": "7c529f78b91ffad55cb8f35c71ee397d", "lat": 38.89551733333333, "is_disabled": 0, "lon": -77.0091395, "fusion_lat": 0.0, "rental_uris": {"ios": "https://dc.lft.to/lastmile_qr_scan", "android": "https://dc.lft.to/lastmile_qr_scan"}, "type": "electric_scooter"}, {"name": "d4c92d3f53e7b7d5870c35185186d55a", "is_reserved": 0, "fusion_lon": 0.0, "bike_id": "d4c92d3f53e7b7d5870c35185186d55a", "lat": 38.929104, "is_disabled": 0, "lon": -77.03242516666667, "fusion_lat": 0.0, "rental_uris": {"ios": "https://dc.lft.to/lastmile_qr_scan", "android": "https://dc.lft.to/lastmile_qr_scan"}, "type": "electric_scooter"}, {"name": "deea04b00e8d5ac34085c85b7dea593f", "is_reserved": 0, "fusion_lon": 0.0, "bike_id": "deea04b00e8d5ac34085c85b7dea593f", "lat": 38.90755333333333, "is_disabled": 0, "lon": -77.01692883333334, "fusion_lat": 0.0, "rental_uris": {"ios": "https://dc.lft.to/lastmile_qr_scan", "android": "https://dc.lft.to/lastmile_qr_scan"}, "type": "electric_scooter"}, {"name": "061d2447f56cc1d74bed7dc517054e6f", "is_reserved": 0, "fusion_lon": 0.0, "bike_id": "061d2447f56cc1d74bed7dc517054e6f", "lat": 38.90570683333333, "is_disabled": 0, "lon": -77.03381616666667, "fusion_lat": 0.0, "rental_uris": {"ios": "https://dc.lft.to/lastmile_qr_scan", "android": "https://dc.lft.to/lastmile_qr_scan"}, "type": "electric_scooter"}, {"name": "0f3ed8c58ba8f7938b14f8528acd185a", "is_reserved": 0, "fusion_lon": 0.0, "bike_id": "0f3ed8c58ba8f7938b14f8528acd185a", "lat": 38.92463983333333, "is_disabled": 0, "lon": -77.03375116666666, "fusion_lat": 0.0, "rental_uris": {"ios": "https://dc.lft.to/lastmile_qr_scan", "android": "https://dc.lft.to/lastmile_qr_scan"}, "type": "electric_scooter"}, {"name": "58b1e34e32d31213dc1f12de17ca125c", "is_reserved": 0, "fusion_lon": 0.0, "bike_id": "58b1e34e32d31213dc1f12de17ca125c", "lat": 38.915379, "is_disabled": 0, "lon": -77.07543516666667, "fusion_lat": 0.0, "rental_uris": {"ios": "https://dc.lft.to/lastmile_qr_scan", "android": "https://dc.lft.to/lastmile_qr_scan"}, "type": "electric_scooter"}, {"name": "0cbb84c6405976d20cef00a871293dee", "is_reserved": 0, "fusion_lon": 0.0, "bike_id": "0cbb84c6405976d20cef00a871293dee", "lat": 38.8854995, "is_disabled": 0, "lon": -77.019965, "fusion_lat": 0.0, "rental_uris": {"ios": "https://dc.lft.to/lastmile_qr_scan", "android": "https://dc.lft.to/lastmile_qr_scan"}, "type": "electric_scooter"}, {"name": "730a4165cba27b982048dd5974caeaae", "is_reserved": 0, "fusion_lon": 0.0, "bike_id": "730a4165cba27b982048dd5974caeaae", "lat": 38.930966, "is_disabled": 0, "lon": -77.02475766666667, "fusion_lat": 0.0, "rental_uris": {"ios": "https://dc.lft.to/lastmile_qr_scan", "android": "https://dc.lft.to/lastmile_qr_scan"}, "type": "electric_scooter"}, {"name": "8750ed9979e325b684c11d1c6417a801", "is_reserved": 0, "fusion_lon": 0.0, "bike_id": "8750ed9979e325b684c11d1c6417a801", "lat": 38.901068, "is_disabled": 0, "lon": -77.0218555, "fusion_lat": 0.0, "rental_uris": {"ios": "https://dc.lft.to/lastmile_qr_scan", "android": "https://dc.lft.to/lastmile_qr_scan"}, "type": "electric_scooter"}, {"name": "07e6075d95a9a2a5174d367a62d8e61e", "is_reserved": 0, "fusion_lon": 0.0, "bike_id": "07e6075d95a9a2a5174d367a62d8e61e", "lat": 38.900261, "is_disabled": 0, "lon": -76.9911885, "fusion_lat": 0.0, "rental_uris": {"ios": "https://dc.lft.to/lastmile_qr_scan", "android": "https://dc.lft.to/lastmile_qr_scan"}, "type": "electric_scooter"}, {"name": "a1e692782503d6193a2d261a6319e513", "is_reserved": 0, "fusion_lon": 0.0, "bike_id": "a1e692782503d6193a2d261a6319e513", "lat": 38.916890333333335, "is_disabled": 0, "lon": -77.02894783333333, "fusion_lat": 0.0, "rental_uris": {"ios": "https://dc.lft.to/lastmile_qr_scan", "android": "https://dc.lft.to/lastmile_qr_scan"}, "type": "electric_scooter"}, {"name": "a4fd7872353486875b70e03d2fa5187e", "is_reserved": 0, "fusion_lon": 0.0, "bike_id": "a4fd7872353486875b70e03d2fa5187e", "lat": 38.9121745, "is_disabled": 0, "lon": -77.06600216666666, "fusion_lat": 0.0, "rental_uris": {"ios": "https://dc.lft.to/lastmile_qr_scan", "android": "https://dc.lft.to/lastmile_qr_scan"}, "type": "electric_scooter"}, {"name": "f8353bbc94b76fe05ed10aa2573bfa8a", "is_reserved": 0, "fusion_lon": 0.0, "bike_id": "f8353bbc94b76fe05ed10aa2573bfa8a", "lat": 38.900369166666664, "is_disabled": 0, "lon": -76.99635783333333, "fusion_lat": 0.0, "rental_uris": {"ios": "https://dc.lft.to/lastmile_qr_scan", "android": "https://dc.lft.to/lastmile_qr_scan"}, "type": "electric_scooter"}, {"name": "a3e5eb4afa53da97f3ba6fb87832995f", "is_reserved": 0, "fusion_lon": 0.0, "bike_id": "a3e5eb4afa53da97f3ba6fb87832995f", "lat": 39.0000235, "is_disabled": 0, "lon": -76.9180275, "fusion_lat": 0.0, "rental_uris": {"ios": "https://dc.lft.to/lastmile_qr_scan", "android": "https://dc.lft.to/lastmile_qr_scan"}, "type": "electric_bike"}, {"name": "9f6fad0c6b71c70ab9e3068f243eccd8", "is_reserved": 0, "fusion_lon": 0.0, "bike_id": "9f6fad0c6b71c70ab9e3068f243eccd8", "lat": 38.91354583333333, "is_disabled": 0, "lon": -77.0639695, "fusion_lat": 0.0, "rental_uris": {"ios": "https://dc.lft.to/lastmile_qr_scan", "android": "https://dc.lft.to/lastmile_qr_scan"}, "type": "electric_scooter"}, {"name": "aab010768b4475bc46401603a7db044b", "is_reserved": 0, "fusion_lon": 0.0, "bike_id": "aab010768b4475bc46401603a7db044b", "lat": 38.91412233333333, "is_disabled": 0, "lon": -77.067016, "fusion_lat": 0.0, "rental_uris": {"ios": "https://dc.lft.to/lastmile_qr_scan", "android": "https://dc.lft.to/lastmile_qr_scan"}, "type": "electric_scooter"}, {"name": "800ae60c846167245b152a3e7c99936c", "is_reserved": 0, "fusion_lon": 0.0, "bike_id": "800ae60c846167245b152a3e7c99936c", "lat": 38.8946305, "is_disabled": 0, "lon": -77.0465805, "fusion_lat": 0.0, "rental_uris": {"ios": "https://dc.lft.to/lastmile_qr_scan", "android": "https://dc.lft.to/lastmile_qr_scan"}, "type": "electric_scooter"}, {"name": "05eaec3818b7be89cc6c1901507d8975", "is_reserved": 0, "fusion_lon": 0.0, "bike_id": "05eaec3818b7be89cc6c1901507d8975", "lat": 38.914743666666666, "is_disabled": 0, "lon": -76.981109, "fusion_lat": 0.0, "rental_uris": {"ios": "https://dc.lft.to/lastmile_qr_scan", "android": "https://dc.lft.to/lastmile_qr_scan"}, "type": "electric_scooter"}, {"name": "0f1c75e04a52ba8c2b369b434be15e14", "is_reserved": 0, "fusion_lon": 0.0, "bike_id": "0f1c75e04a52ba8c2b369b434be15e14", "lat": 38.89371766666667, "is_disabled": 0, "lon": -77.03953716666666, "fusion_lat": 0.0, "rental_uris": {"ios": "https://dc.lft.to/lastmile_qr_scan", "android": "https://dc.lft.to/lastmile_qr_scan"}, "type": "electric_scooter"}, {"name": "a5ff3aa6af034989fee04b482202247d", "is_reserved": 0, "fusion_lon": 0.0, "bike_id": "a5ff3aa6af034989fee04b482202247d", "lat": 38.89362, "is_disabled": 0, "lon": -77.015555, "fusion_lat": 0.0, "rental_uris": {"ios": "https://dc.lft.to/lastmile_qr_scan", "android": "https://dc.lft.to/lastmile_qr_scan"}, "type": "electric_scooter"}, {"name": "6233663361532dfdd13bb73c196165b8", "is_reserved": 0, "fusion_lon": 0.0, "bike_id": "6233663361532dfdd13bb73c196165b8", "lat": 38.88639916666666, "is_disabled": 0, "lon": -76.982086, "fusion_lat": 0.0, "rental_uris": {"ios": "https://dc.lft.to/lastmile_qr_scan", "android": "https://dc.lft.to/lastmile_qr_scan"}, "type": "electric_scooter"}, {"name": "2394e31112311cb642e78387017f9d4e", "is_reserved": 0, "fusion_lon": 0.0, "bike_id": "2394e31112311cb642e78387017f9d4e", "lat": 38.91003383333333, "is_disabled": 0, "lon": -76.99388983333333, "fusion_lat": 0.0, "rental_uris": {"ios": "https://dc.lft.to/lastmile_qr_scan", "android": "https://dc.lft.to/lastmile_qr_scan"}, "type": "electric_scooter"}, {"name": "5f036202a4c3c12546c0c59009251a99", "is_reserved": 0, "fusion_lon": 0.0, "bike_id": "5f036202a4c3c12546c0c59009251a99", "lat": 38.90249133333333, "is_disabled": 0, "lon": -77.0394815, "fusion_lat": 0.0, "rental_uris": {"ios": "https://dc.lft.to/lastmile_qr_scan", "android": "https://dc.lft.to/lastmile_qr_scan"}, "type": "electric_scooter"}, {"name": "f6ce284ca801348eec0ca2a856048dcf", "is_reserved": 0, "fusion_lon": 0.0, "bike_id": "f6ce284ca801348eec0ca2a856048dcf", "lat": 38.89092766666667, "is_disabled": 0, "lon": -76.98822666666666, "fusion_lat": 0.0, "rental_uris": {"ios": "https://dc.lft.to/lastmile_qr_scan", "android": "https://dc.lft.to/lastmile_qr_scan"}, "type": "electric_scooter"}, {"name": "2aba104089ea54b48a2a5ef235e61025", "is_reserved": 0, "fusion_lon": 0.0, "bike_id": "2aba104089ea54b48a2a5ef235e61025", "lat": 38.92415416666667, "is_disabled": 0, "lon": -77.0213275, "fusion_lat": 0.0, "rental_uris": {"ios": "https://dc.lft.to/lastmile_qr_scan", "android": "https://dc.lft.to/lastmile_qr_scan"}, "type": "electric_scooter"}, {"name": "8b59a22bdda19caf113e42ce01f6a125", "is_reserved": 0, "fusion_lon": 0.0, "bike_id": "8b59a22bdda19caf113e42ce01f6a125", "lat": 38.84675, "is_disabled": 0, "lon": -77.13930816666667, "fusion_lat": 0.0, "rental_uris": {"ios": "https://dc.lft.to/lastmile_qr_scan", "android": "https://dc.lft.to/lastmile_qr_scan"}, "type": "electric_bike"}, {"name": "f8945fc93533354efba6c9f7fb30c933", "is_reserved": 0, "fusion_lon": 0.0, "bike_id": "f8945fc93533354efba6c9f7fb30c933", "lat": 38.92328283333333, "is_disabled": 0, "lon": -77.05740066666667, "fusion_lat": 0.0, "rental_uris": {"ios": "https://dc.lft.to/lastmile_qr_scan", "android": "https://dc.lft.to/lastmile_qr_scan"}, "type": "electric_scooter"}, {"name": "c362168678169e0943328f6cc6489e6d", "is_reserved": 0, "fusion_lon": 0.0, "bike_id": "c362168678169e0943328f6cc6489e6d", "lat": 38.905761166666665, "is_disabled": 0, "lon": -77.06274716666667, "fusion_lat": 0.0, "rental_uris": {"ios": "https://dc.lft.to/lastmile_qr_scan", "android": "https://dc.lft.to/lastmile_qr_scan"}, "type": "electric_bike"}, {"name": "709fb9acaf59a3ff79b1818170718dad", "is_reserved": 0, "fusion_lon": 0.0, "bike_id": "709fb9acaf59a3ff79b1818170718dad", "lat": 38.9226325, "is_disabled": 0, "lon": -77.018174, "fusion_lat": 0.0, "rental_uris": {"ios": "https://dc.lft.to/lastmile_qr_scan", "android": "https://dc.lft.to/lastmile_qr_scan"}, "type": "electric_scooter"}, {"name": "c41b97062604dedbe58999f35791402e", "is_reserved": 0, "fusion_lon": 0.0, "bike_id": "c41b97062604dedbe58999f35791402e", "lat": 38.813400666666666, "is_disabled": 0, "lon": -77.050823, "fusion_lat": 0.0, "rental_uris": {"ios": "https://dc.lft.to/lastmile_qr_scan", "android": "https://dc.lft.to/lastmile_qr_scan"}, "type": "electric_bike"}, {"name": "86fc4087f2f875448b15d5c64975cddb", "is_reserved": 0, "fusion_lon": 0.0, "bike_id": "86fc4087f2f875448b15d5c64975cddb", "lat": 38.92771533333333, "is_disabled": 0, "lon": -77.02758566666667, "fusion_lat": 0.0, "rental_uris": {"ios": "https://dc.lft.to/lastmile_qr_scan", "android": "https://dc.lft.to/lastmile_qr_scan"}, "type": "electric_scooter"}, {"name": "864c5bdf8e1075bfea5490f9024c6752", "is_reserved": 0, "fusion_lon": 0.0, "bike_id": "864c5bdf8e1075bfea5490f9024c6752", "lat": 38.9279275, "is_disabled": 0, "lon": -77.22927833333334, "fusion_lat": 0.0, "rental_uris": {"ios": "https://dc.lft.to/lastmile_qr_scan", "android": "https://dc.lft.to/lastmile_qr_scan"}, "type": "electric_bike"}, {"name": "ae4eef5ec783547399456ffe2fb8d830", "is_reserved": 0, "fusion_lon": 0.0, "bike_id": "ae4eef5ec783547399456ffe2fb8d830", "lat": 38.92768783333333, "is_disabled": 0, "lon": -77.02784233333334, "fusion_lat": 0.0, "rental_uris": {"ios": "https://dc.lft.to/lastmile_qr_scan", "android": "https://dc.lft.to/lastmile_qr_scan"}, "type": "electric_scooter"}, {"name": "86ed5bcd29277d84ff22f4eb8476e3eb", "is_reserved": 0, "fusion_lon": 0.0, "bike_id": "86ed5bcd29277d84ff22f4eb8476e3eb", "lat": 38.92042216666667, "is_disabled": 0, "lon": -77.01674316666667, "fusion_lat": 0.0, "rental_uris": {"ios": "https://dc.lft.to/lastmile_qr_scan", "android": "https://dc.lft.to/lastmile_qr_scan"}, "type": "electric_scooter"}, {"name": "4af13f69c610e401c09258072c11b805", "is_reserved": 0, "fusion_lon": 0.0, "bike_id": "4af13f69c610e401c09258072c11b805", "lat": 38.900254833333335, "is_disabled": 0, "lon": -77.03709633333334, "fusion_lat": 0.0, "rental_uris": {"ios": "https://dc.lft.to/lastmile_qr_scan", "android": "https://dc.lft.to/lastmile_qr_scan"}, "type": "electric_scooter"}, {"name": "785bd3dd7417e50da2d1ebe5de884f8e", "is_reserved": 0, "fusion_lon": 0.0, "bike_id": "785bd3dd7417e50da2d1ebe5de884f8e", "lat": 38.9196545, "is_disabled": 0, "lon": -77.04507316666667, "fusion_lat": 0.0, "rental_uris": {"ios": "https://dc.lft.to/lastmile_qr_scan", "android": "https://dc.lft.to/lastmile_qr_scan"}, "type": "electric_scooter"}, {"name": "20db422507cdd177f94b216c68dc1647", "is_reserved": 0, "fusion_lon": 0.0, "bike_id": "20db422507cdd177f94b216c68dc1647", "lat": 38.918198333333336, "is_disabled": 0, "lon": -77.03692316666667, "fusion_lat": 0.0, "rental_uris": {"ios": "https://dc.lft.to/lastmile_qr_scan", "android": "https://dc.lft.to/lastmile_qr_scan"}, "type": "electric_scooter"}, {"name": "808302f3afa66e8898f4285353a3ea11", "is_reserved": 0, "fusion_lon": 0.0, "bike_id": "808302f3afa66e8898f4285353a3ea11", "lat": 38.9181555, "is_disabled": 0, "lon": -77.03688966666667, "fusion_lat": 0.0, "rental_uris": {"ios": "https://dc.lft.to/lastmile_qr_scan", "android": "https://dc.lft.to/lastmile_qr_scan"}, "type": "electric_scooter"}, {"name": "1879f48c8aa667110680e6406fe9eb95", "is_reserved": 0, "fusion_lon": 0.0, "bike_id": "1879f48c8aa667110680e6406fe9eb95", "lat": 38.89228633333333, "is_disabled": 0, "lon": -77.0316485, "fusion_lat": 0.0, "rental_uris": {"ios": "https://dc.lft.to/lastmile_qr_scan", "android": "https://dc.lft.to/lastmile_qr_scan"}, "type": "electric_scooter"}, {"name": "05c8f29b77b44d236b0d0ce1be1364b3", "is_reserved": 0, "fusion_lon": 0.0, "bike_id": "05c8f29b77b44d236b0d0ce1be1364b3", "lat": 38.93397516666667, "is_disabled": 0, "lon": -77.057447, "fusion_lat": 0.0, "rental_uris": {"ios": "https://dc.lft.to/lastmile_qr_scan", "android": "https://dc.lft.to/lastmile_qr_scan"}, "type": "electric_scooter"}, {"name": "cb943d1f752ed1010ff93b8d8b11f6e7", "is_reserved": 0, "fusion_lon": 0.0, "bike_id": "cb943d1f752ed1010ff93b8d8b11f6e7", "lat": 38.928963, "is_disabled": 0, "lon": -77.02292233333333, "fusion_lat": 0.0, "rental_uris": {"ios": "https://dc.lft.to/lastmile_qr_scan", "android": "https://dc.lft.to/lastmile_qr_scan"}, "type": "electric_scooter"}, {"name": "7719395c055afc84e04be4fb42c66c47", "is_reserved": 0, "fusion_lon": 0.0, "bike_id": "7719395c055afc84e04be4fb42c66c47", "lat": 38.923447833333334, "is_disabled": 0, "lon": -77.0439065, "fusion_lat": 0.0, "rental_uris": {"ios": "https://dc.lft.to/lastmile_qr_scan", "android": "https://dc.lft.to/lastmile_qr_scan"}, "type": "electric_scooter"}, {"name": "d38e086c9194497c5fcfd135b4d3dbe9", "is_reserved": 0, "fusion_lon": 0.0, "bike_id": "d38e086c9194497c5fcfd135b4d3dbe9", "lat": 38.89728266666667, "is_disabled": 0, "lon": -77.05519283333334, "fusion_lat": 0.0, "rental_uris": {"ios": "https://dc.lft.to/lastmile_qr_scan", "android": "https://dc.lft.to/lastmile_qr_scan"}, "type": "electric_scooter"}, {"name": "0897add7479fe866a48a2a5f7aeffb04", "is_reserved": 0, "fusion_lon": 0.0, "bike_id": "0897add7479fe866a48a2a5f7aeffb04", "lat": 38.946358333333336, "is_disabled": 0, "lon": -76.9930625, "fusion_lat": 0.0, "rental_uris": {"ios": "https://dc.lft.to/lastmile_qr_scan", "android": "https://dc.lft.to/lastmile_qr_scan"}, "type": "electric_bike"}, {"name": "6d075cbfd3ee83e0ca34b130fbb25807", "is_reserved": 0, "fusion_lon": 0.0, "bike_id": "6d075cbfd3ee83e0ca34b130fbb25807", "lat": 38.92368616666667, "is_disabled": 0, "lon": -77.01951316666667, "fusion_lat": 0.0, "rental_uris": {"ios": "https://dc.lft.to/lastmile_qr_scan", "android": "https://dc.lft.to/lastmile_qr_scan"}, "type": "electric_scooter"}, {"name": "4872a65adfac4d286c01da1832973c5f", "is_reserved": 0, "fusion_lon": 0.0, "bike_id": "4872a65adfac4d286c01da1832973c5f", "lat": 38.922868, "is_disabled": 0, "lon": -77.031992, "fusion_lat": 0.0, "rental_uris": {"ios": "https://dc.lft.to/lastmile_qr_scan", "android": "https://dc.lft.to/lastmile_qr_scan"}, "type": "electric_scooter"}, {"name": "5a823a02d7e0f1067fd8992293a6bcc7", "is_reserved": 0, "fusion_lon": 0.0, "bike_id": "5a823a02d7e0f1067fd8992293a6bcc7", "lat": 38.92046066666666, "is_disabled": 0, "lon": -77.04185833333334, "fusion_lat": 0.0, "rental_uris": {"ios": "https://dc.lft.to/lastmile_qr_scan", "android": "https://dc.lft.to/lastmile_qr_scan"}, "type": "electric_scooter"}, {"name": "beaff8040fe30f2cc36684577a42ee6e", "is_reserved": 0, "fusion_lon": 0.0, "bike_id": "beaff8040fe30f2cc36684577a42ee6e", "lat": 38.87283983333333, "is_disabled": 0, "lon": -77.00983666666667, "fusion_lat": 0.0, "rental_uris": {"ios": "https://dc.lft.to/lastmile_qr_scan", "android": "https://dc.lft.to/lastmile_qr_scan"}, "type": "electric_scooter"}, {"name": "78d68f29c7c724239989bae9b12388d6", "is_reserved": 0, "fusion_lon": 0.0, "bike_id": "78d68f29c7c724239989bae9b12388d6", "lat": 38.9243095, "is_disabled": 0, "lon": -77.02979666666667, "fusion_lat": 0.0, "rental_uris": {"ios": "https://dc.lft.to/lastmile_qr_scan", "android": "https://dc.lft.to/lastmile_qr_scan"}, "type": "electric_scooter"}, {"name": "49aa0d51ebe85d527b083f52748c5db1", "is_reserved": 0, "fusion_lon": 0.0, "bike_id": "49aa0d51ebe85d527b083f52748c5db1", "lat": 38.8044035, "is_disabled": 0, "lon": -77.06080516666667, "fusion_lat": 0.0, "rental_uris": {"ios": "https://dc.lft.to/lastmile_qr_scan", "android": "https://dc.lft.to/lastmile_qr_scan"}, "type": "electric_bike"}, {"name": "3402e55503f151c7408c2e9d4bdfed56", "is_reserved": 0, "fusion_lon": 0.0, "bike_id": "3402e55503f151c7408c2e9d4bdfed56", "lat": 38.9356775, "is_disabled": 0, "lon": -77.032546, "fusion_lat": 0.0, "rental_uris": {"ios": "https://dc.lft.to/lastmile_qr_scan", "android": "https://dc.lft.to/lastmile_qr_scan"}, "type": "electric_scooter"}, {"name": "1c91ead45e77a3d511a5e40b76c5ad4c", "is_reserved": 0, "fusion_lon": 0.0, "bike_id": "1c91ead45e77a3d511a5e40b76c5ad4c", "lat": 38.93110716666666, "is_disabled": 0, "lon": -77.02120916666667, "fusion_lat": 0.0, "rental_uris": {"ios": "https://dc.lft.to/lastmile_qr_scan", "android": "https://dc.lft.to/lastmile_qr_scan"}, "type": "electric_scooter"}, {"name": "1e27dbfed3f736db747b7fa0fdd4929c", "is_reserved": 0, "fusion_lon": 0.0, "bike_id": "1e27dbfed3f736db747b7fa0fdd4929c", "lat": 38.92652966666667, "is_disabled": 0, "lon": -77.02302133333333, "fusion_lat": 0.0, "rental_uris": {"ios": "https://dc.lft.to/lastmile_qr_scan", "android": "https://dc.lft.to/lastmile_qr_scan"}, "type": "electric_scooter"}, {"name": "9e3ece3f72ea7e39295fbbe5776c57a5", "is_reserved": 0, "fusion_lon": 0.0, "bike_id": "9e3ece3f72ea7e39295fbbe5776c57a5", "lat": 38.91944183333333, "is_disabled": 0, "lon": -77.019021, "fusion_lat": 0.0, "rental_uris": {"ios": "https://dc.lft.to/lastmile_qr_scan", "android": "https://dc.lft.to/lastmile_qr_scan"}, "type": "electric_scooter"}, {"name": "4ff6fbf017115b76ed222380598256d8", "is_reserved": 0, "fusion_lon": 0.0, "bike_id": "4ff6fbf017115b76ed222380598256d8", "lat": 38.96927, "is_disabled": 0, "lon": -77.0267815, "fusion_lat": 0.0, "rental_uris": {"ios": "https://dc.lft.to/lastmile_qr_scan", "android": "https://dc.lft.to/lastmile_qr_scan"}, "type": "electric_bike"}, {"name": "b31f7d5db4f1fb3e206e95c668e12d4d", "is_reserved": 0, "fusion_lon": 0.0, "bike_id": "b31f7d5db4f1fb3e206e95c668e12d4d", "lat": 38.89763133333334, "is_disabled": 0, "lon": -77.00954116666666, "fusion_lat": 0.0, "rental_uris": {"ios": "https://dc.lft.to/lastmile_qr_scan", "android": "https://dc.lft.to/lastmile_qr_scan"}, "type": "electric_scooter"}, {"name": "b6fecb9b08a37072c28e812d8e525ff9", "is_reserved": 0, "fusion_lon": 0.0, "bike_id": "b6fecb9b08a37072c28e812d8e525ff9", "lat": 38.89077116666667, "is_disabled": 0, "lon": -76.98815933333333, "fusion_lat": 0.0, "rental_uris": {"ios": "https://dc.lft.to/lastmile_qr_scan", "android": "https://dc.lft.to/lastmile_qr_scan"}, "type": "electric_scooter"}, {"name": "30e3d35c586c3ff461b4956b76f87ccf", "is_reserved": 0, "fusion_lon": 0.0, "bike_id": "30e3d35c586c3ff461b4956b76f87ccf", "lat": 38.87181283333334, "is_disabled": 0, "lon": -77.00594916666667, "fusion_lat": 0.0, "rental_uris": {"ios": "https://dc.lft.to/lastmile_qr_scan", "android": "https://dc.lft.to/lastmile_qr_scan"}, "type": "electric_scooter"}, {"name": "38cfa8f1cacb71e279267d7f65f425e9", "is_reserved": 0, "fusion_lon": 0.0, "bike_id": "38cfa8f1cacb71e279267d7f65f425e9", "lat": 38.89223416666667, "is_disabled": 0, "lon": -77.03217433333333, "fusion_lat": 0.0, "rental_uris": {"ios": "https://dc.lft.to/lastmile_qr_scan", "android": "https://dc.lft.to/lastmile_qr_scan"}, "type": "electric_scooter"}, {"name": "b069667609d203f3d5375fce0274c1fb", "is_reserved": 0, "fusion_lon": 0.0, "bike_id": "b069667609d203f3d5375fce0274c1fb", "lat": 38.91047666666667, "is_disabled": 0, "lon": -77.06453016666667, "fusion_lat": 0.0, "rental_uris": {"ios": "https://dc.lft.to/lastmile_qr_scan", "android": "https://dc.lft.to/lastmile_qr_scan"}, "type": "electric_bike"}, {"name": "e1144e6e8752f858d7ee180ceab97006", "is_reserved": 0, "fusion_lon": 0.0, "bike_id": "e1144e6e8752f858d7ee180ceab97006", "lat": 38.908573, "is_disabled": 0, "lon": -76.93938633333333, "fusion_lat": 0.0, "rental_uris": {"ios": "https://dc.lft.to/lastmile_qr_scan", "android": "https://dc.lft.to/lastmile_qr_scan"}, "type": "electric_scooter"}, {"name": "aeb11b9ecc025325d1734b85ca20e42d", "is_reserved": 0, "fusion_lon": 0.0, "bike_id": "aeb11b9ecc025325d1734b85ca20e42d", "lat": 38.922412333333334, "is_disabled": 0, "lon": -77.018287, "fusion_lat": 0.0, "rental_uris": {"ios": "https://dc.lft.to/lastmile_qr_scan", "android": "https://dc.lft.to/lastmile_qr_scan"}, "type": "electric_scooter"}, {"name": "51980b7bfd58baf5c351e81fdb2434c6", "is_reserved": 0, "fusion_lon": 0.0, "bike_id": "51980b7bfd58baf5c351e81fdb2434c6", "lat": 38.916086166666666, "is_disabled": 0, "lon": -77.0213595, "fusion_lat": 0.0, "rental_uris": {"ios": "https://dc.lft.to/lastmile_qr_scan", "android": "https://dc.lft.to/lastmile_qr_scan"}, "type": "electric_scooter"}, {"name": "3bafee84f4120ef446056b7796d4c311", "is_reserved": 0, "fusion_lon": 0.0, "bike_id": "3bafee84f4120ef446056b7796d4c311", "lat": 38.90106816666667, "is_disabled": 0, "lon": -77.04023333333333, "fusion_lat": 0.0, "rental_uris": {"ios": "https://dc.lft.to/lastmile_qr_scan", "android": "https://dc.lft.to/lastmile_qr_scan"}, "type": "electric_scooter"}, {"name": "743ba0602d08dcdd93bf55ab003598c0", "is_reserved": 0, "fusion_lon": 0.0, "bike_id": "743ba0602d08dcdd93bf55ab003598c0", "lat": 38.9137915, "is_disabled": 0, "lon": -77.04580666666666, "fusion_lat": 0.0, "rental_uris": {"ios": "https://dc.lft.to/lastmile_qr_scan", "android": "https://dc.lft.to/lastmile_qr_scan"}, "type": "electric_scooter"}, {"name": "2375892899040171652e5888e483341c", "is_reserved": 0, "fusion_lon": 0.0, "bike_id": "2375892899040171652e5888e483341c", "lat": 38.91487883333333, "is_disabled": 0, "lon": -77.01856, "fusion_lat": 0.0, "rental_uris": {"ios": "https://dc.lft.to/lastmile_qr_scan", "android": "https://dc.lft.to/lastmile_qr_scan"}, "type": "electric_scooter"}, {"name": "7dda38a6860e79723d35d87dd352b8f9", "is_reserved": 0, "fusion_lon": 0.0, "bike_id": "7dda38a6860e79723d35d87dd352b8f9", "lat": 38.92037033333333, "is_disabled": 0, "lon": -77.01685183333333, "fusion_lat": 0.0, "rental_uris": {"ios": "https://dc.lft.to/lastmile_qr_scan", "android": "https://dc.lft.to/lastmile_qr_scan"}, "type": "electric_scooter"}, {"name": "d54725f784f4e0810981719997da674a", "is_reserved": 0, "fusion_lon": 0.0, "bike_id": "d54725f784f4e0810981719997da674a", "lat": 38.924387833333334, "is_disabled": 0, "lon": -77.0201995, "fusion_lat": 0.0, "rental_uris": {"ios": "https://dc.lft.to/lastmile_qr_scan", "android": "https://dc.lft.to/lastmile_qr_scan"}, "type": "electric_scooter"}, {"name": "2cfb59a5dfaed17f35dcdfad9871281a", "is_reserved": 0, "fusion_lon": 0.0, "bike_id": "2cfb59a5dfaed17f35dcdfad9871281a", "lat": 38.91824016666666, "is_disabled": 0, "lon": -77.02532983333333, "fusion_lat": 0.0, "rental_uris": {"ios": "https://dc.lft.to/lastmile_qr_scan", "android": "https://dc.lft.to/lastmile_qr_scan"}, "type": "electric_scooter"}, {"name": "3e3b690a3db12590e21403bf4eef0c49", "is_reserved": 0, "fusion_lon": 0.0, "bike_id": "3e3b690a3db12590e21403bf4eef0c49", "lat": 38.897308333333335, "is_disabled": 0, "lon": -76.92581566666667, "fusion_lat": 0.0, "rental_uris": {"ios": "https://dc.lft.to/lastmile_qr_scan", "android": "https://dc.lft.to/lastmile_qr_scan"}, "type": "electric_scooter"}, {"name": "e5a384c950abe99f9e8d64a8df024ec4", "is_reserved": 0, "fusion_lon": 0.0, "bike_id": "e5a384c950abe99f9e8d64a8df024ec4", "lat": 38.92150783333334, "is_disabled": 0, "lon": -77.04230016666666, "fusion_lat": 0.0, "rental_uris": {"ios": "https://dc.lft.to/lastmile_qr_scan", "android": "https://dc.lft.to/lastmile_qr_scan"}, "type": "electric_scooter"}, {"name": "3e0d9c3d1b808185223748c7b5943ae9", "is_reserved": 0, "fusion_lon": 0.0, "bike_id": "3e0d9c3d1b808185223748c7b5943ae9", "lat": 38.9205195, "is_disabled": 0, "lon": -77.0235715, "fusion_lat": 0.0, "rental_uris": {"ios": "https://dc.lft.to/lastmile_qr_scan", "android": "https://dc.lft.to/lastmile_qr_scan"}, "type": "electric_scooter"}, {"name": "a138a718ecae5a7aa3bc5e0eb890868e", "is_reserved": 0, "fusion_lon": 0.0, "bike_id": "a138a718ecae5a7aa3bc5e0eb890868e", "lat": 38.8768385, "is_disabled": 0, "lon": -77.00427016666667, "fusion_lat": 0.0, "rental_uris": {"ios": "https://dc.lft.to/lastmile_qr_scan", "android": "https://dc.lft.to/lastmile_qr_scan"}, "type": "electric_scooter"}, {"name": "86146c6de055e5f6bc0c62db54d4a99c", "is_reserved": 0, "fusion_lon": 0.0, "bike_id": "86146c6de055e5f6bc0c62db54d4a99c", "lat": 38.89435316666667, "is_disabled": 0, "lon": -76.98083316666667, "fusion_lat": 0.0, "rental_uris": {"ios": "https://dc.lft.to/lastmile_qr_scan", "android": "https://dc.lft.to/lastmile_qr_scan"}, "type": "electric_scooter"}, {"name": "8f6ed93bbe8b17771135c9d6d8082a30", "is_reserved": 0, "fusion_lon": 0.0, "bike_id": "8f6ed93bbe8b17771135c9d6d8082a30", "lat": 38.9260885, "is_disabled": 0, "lon": -77.02162466666667, "fusion_lat": 0.0, "rental_uris": {"ios": "https://dc.lft.to/lastmile_qr_scan", "android": "https://dc.lft.to/lastmile_qr_scan"}, "type": "electric_scooter"}, {"name": "c4a9b62454386a8a1de682a9194cc589", "is_reserved": 0, "fusion_lon": 0.0, "bike_id": "c4a9b62454386a8a1de682a9194cc589", "lat": 38.89950016666667, "is_disabled": 0, "lon": -76.986848, "fusion_lat": 0.0, "rental_uris": {"ios": "https://dc.lft.to/lastmile_qr_scan", "android": "https://dc.lft.to/lastmile_qr_scan"}, "type": "electric_scooter"}, {"name": "88eee9f539c392c34c8722b70b1913b7", "is_reserved": 0, "fusion_lon": 0.0, "bike_id": "88eee9f539c392c34c8722b70b1913b7", "lat": 38.926204166666665, "is_disabled": 0, "lon": -77.04193966666666, "fusion_lat": 0.0, "rental_uris": {"ios": "https://dc.lft.to/lastmile_qr_scan", "android": "https://dc.lft.to/lastmile_qr_scan"}, "type": "electric_scooter"}, {"name": "490f9d90f924b20215c053518240e49d", "is_reserved": 0, "fusion_lon": 0.0, "bike_id": "490f9d90f924b20215c053518240e49d", "lat": 38.900526666666664, "is_disabled": 0, "lon": -77.04578916666667, "fusion_lat": 0.0, "rental_uris": {"ios": "https://dc.lft.to/lastmile_qr_scan", "android": "https://dc.lft.to/lastmile_qr_scan"}, "type": "electric_scooter"}, {"name": "95ffebaaac06e45b2f1d9fc5d00b3f83", "is_reserved": 0, "fusion_lon": 0.0, "bike_id": "95ffebaaac06e45b2f1d9fc5d00b3f83", "lat": 38.922422166666664, "is_disabled": 0, "lon": -77.01945683333334, "fusion_lat": 0.0, "rental_uris": {"ios": "https://dc.lft.to/lastmile_qr_scan", "android": "https://dc.lft.to/lastmile_qr_scan"}, "type": "electric_scooter"}, {"name": "0d4540f4991fa1e3bf9af73adddc5622", "is_reserved": 0, "fusion_lon": 0.0, "bike_id": "0d4540f4991fa1e3bf9af73adddc5622", "lat": 38.897921833333335, "is_disabled": 0, "lon": -77.00604866666667, "fusion_lat": 0.0, "rental_uris": {"ios": "https://dc.lft.to/lastmile_qr_scan", "android": "https://dc.lft.to/lastmile_qr_scan"}, "type": "electric_bike"}, {"name": "1347b4bd7f781da73cd9585520c02933", "is_reserved": 0, "fusion_lon": 0.0, "bike_id": "1347b4bd7f781da73cd9585520c02933", "lat": 38.93683633333333, "is_disabled": 0, "lon": -77.066234, "fusion_lat": 0.0, "rental_uris": {"ios": "https://dc.lft.to/lastmile_qr_scan", "android": "https://dc.lft.to/lastmile_qr_scan"}, "type": "electric_scooter"}, {"name": "bfbb1c2231436445cdbeda075e8d889b", "is_reserved": 0, "fusion_lon": 0.0, "bike_id": "bfbb1c2231436445cdbeda075e8d889b", "lat": 38.92611183333333, "is_disabled": 0, "lon": -77.02159266666666, "fusion_lat": 0.0, "rental_uris": {"ios": "https://dc.lft.to/lastmile_qr_scan", "android": "https://dc.lft.to/lastmile_qr_scan"}, "type": "electric_scooter"}, {"name": "81be39dd0039848dad2a8a95d998745a", "is_reserved": 0, "fusion_lon": 0.0, "bike_id": "81be39dd0039848dad2a8a95d998745a", "lat": 38.887595, "is_disabled": 0, "lon": -77.00042233333333, "fusion_lat": 0.0, "rental_uris": {"ios": "https://dc.lft.to/lastmile_qr_scan", "android": "https://dc.lft.to/lastmile_qr_scan"}, "type": "electric_scooter"}, {"name": "9aaa461657865f8b0cbd71f60027fbcd", "is_reserved": 0, "fusion_lon": 0.0, "bike_id": "9aaa461657865f8b0cbd71f60027fbcd", "lat": 38.84445, "is_disabled": 0, "lon": -76.98761233333333, "fusion_lat": 0.0, "rental_uris": {"ios": "https://dc.lft.to/lastmile_qr_scan", "android": "https://dc.lft.to/lastmile_qr_scan"}, "type": "electric_bike"}, {"name": "5285b5d4f5fad7df7d1c53231650a4dc", "is_reserved": 0, "fusion_lon": 0.0, "bike_id": "5285b5d4f5fad7df7d1c53231650a4dc", "lat": 38.9187165, "is_disabled": 0, "lon": -76.9643565, "fusion_lat": 0.0, "rental_uris": {"ios": "https://dc.lft.to/lastmile_qr_scan", "android": "https://dc.lft.to/lastmile_qr_scan"}, "type": "electric_bike"}, {"name": "4e8d5db4c80c132ec4c80a7ae41589d2", "is_reserved": 0, "fusion_lon": 0.0, "bike_id": "4e8d5db4c80c132ec4c80a7ae41589d2", "lat": 38.92032066666667, "is_disabled": 0, "lon": -77.01720366666666, "fusion_lat": 0.0, "rental_uris": {"ios": "https://dc.lft.to/lastmile_qr_scan", "android": "https://dc.lft.to/lastmile_qr_scan"}, "type": "electric_scooter"}, {"name": "c15ebebc2642cb5e6bd316da531f448d", "is_reserved": 0, "fusion_lon": 0.0, "bike_id": "c15ebebc2642cb5e6bd316da531f448d", "lat": 38.921565, "is_disabled": 0, "lon": -77.02977416666667, "fusion_lat": 0.0, "rental_uris": {"ios": "https://dc.lft.to/lastmile_qr_scan", "android": "https://dc.lft.to/lastmile_qr_scan"}, "type": "electric_scooter"}, {"name": "75b5d582f05ba45b196c4a5feab98bfd", "is_reserved": 0, "fusion_lon": 0.0, "bike_id": "75b5d582f05ba45b196c4a5feab98bfd", "lat": 38.96733016666667, "is_disabled": 0, "lon": -77.08910833333333, "fusion_lat": 0.0, "rental_uris": {"ios": "https://dc.lft.to/lastmile_qr_scan", "android": "https://dc.lft.to/lastmile_qr_scan"}, "type": "electric_bike"}, {"name": "1263821dda0c54102d927eb6733d43bb", "is_reserved": 0, "fusion_lon": 0.0, "bike_id": "1263821dda0c54102d927eb6733d43bb", "lat": 38.92242933333333, "is_disabled": 0, "lon": -77.03654683333333, "fusion_lat": 0.0, "rental_uris": {"ios": "https://dc.lft.to/lastmile_qr_scan", "android": "https://dc.lft.to/lastmile_qr_scan"}, "type": "electric_scooter"}, {"name": "8c9678581da4b8718214b6156bec520e", "is_reserved": 0, "fusion_lon": 0.0, "bike_id": "8c9678581da4b8718214b6156bec520e", "lat": 38.89225183333333, "is_disabled": 0, "lon": -77.04087216666667, "fusion_lat": 0.0, "rental_uris": {"ios": "https://dc.lft.to/lastmile_qr_scan", "android": "https://dc.lft.to/lastmile_qr_scan"}, "type": "electric_scooter"}, {"name": "03808909f9cb6a14422c8ce9700a68e9", "is_reserved": 0, "fusion_lon": 0.0, "bike_id": "03808909f9cb6a14422c8ce9700a68e9", "lat": 38.908582333333335, "is_disabled": 0, "lon": -77.06395, "fusion_lat": 0.0, "rental_uris": {"ios": "https://dc.lft.to/lastmile_qr_scan", "android": "https://dc.lft.to/lastmile_qr_scan"}, "type": "electric_scooter"}, {"name": "a772aa912ba4970a1c95747d2127d980", "is_reserved": 0, "fusion_lon": 0.0, "bike_id": "a772aa912ba4970a1c95747d2127d980", "lat": 38.900431833333336, "is_disabled": 0, "lon": -77.04006483333333, "fusion_lat": 0.0, "rental_uris": {"ios": "https://dc.lft.to/lastmile_qr_scan", "android": "https://dc.lft.to/lastmile_qr_scan"}, "type": "electric_bike"}, {"name": "11736958d7824a7ca098253f42a1c362", "is_reserved": 0, "fusion_lon": 0.0, "bike_id": "11736958d7824a7ca098253f42a1c362", "lat": 38.89710616666667, "is_disabled": 0, "lon": -77.02266333333333, "fusion_lat": 0.0, "rental_uris": {"ios": "https://dc.lft.to/lastmile_qr_scan", "android": "https://dc.lft.to/lastmile_qr_scan"}, "type": "electric_scooter"}, {"name": "aefef84f410288963e8aba75c66f55c2", "is_reserved": 0, "fusion_lon": 0.0, "bike_id": "aefef84f410288963e8aba75c66f55c2", "lat": 38.89844316666667, "is_disabled": 0, "lon": -77.04881133333333, "fusion_lat": 0.0, "rental_uris": {"ios": "https://dc.lft.to/lastmile_qr_scan", "android": "https://dc.lft.to/lastmile_qr_scan"}, "type": "electric_scooter"}, {"name": "72036c4cd595dfa41a6e98e1dfcacde3", "is_reserved": 0, "fusion_lon": 0.0, "bike_id": "72036c4cd595dfa41a6e98e1dfcacde3", "lat": 38.91277083333333, "is_disabled": 0, "lon": -77.0224325, "fusion_lat": 0.0, "rental_uris": {"ios": "https://dc.lft.to/lastmile_qr_scan", "android": "https://dc.lft.to/lastmile_qr_scan"}, "type": "electric_scooter"}, {"name": "60e0dcdd23409bccf2c42a2aa9b0dd10", "is_reserved": 0, "fusion_lon": 0.0, "bike_id": "60e0dcdd23409bccf2c42a2aa9b0dd10", "lat": 38.892298833333335, "is_disabled": 0, "lon": -77.00291966666667, "fusion_lat": 0.0, "rental_uris": {"ios": "https://dc.lft.to/lastmile_qr_scan", "android": "https://dc.lft.to/lastmile_qr_scan"}, "type": "electric_scooter"}, {"name": "55fe8c6f2636f90cfbe85e3ae5735b61", "is_reserved": 0, "fusion_lon": 0.0, "bike_id": "55fe8c6f2636f90cfbe85e3ae5735b61", "lat": 38.903497, "is_disabled": 0, "lon": -77.038416, "fusion_lat": 0.0, "rental_uris": {"ios": "https://dc.lft.to/lastmile_qr_scan", "android": "https://dc.lft.to/lastmile_qr_scan"}, "type": "electric_scooter"}, {"name": "db9f34043c4e5f83a75aa6d938af57df", "is_reserved": 0, "fusion_lon": 0.0, "bike_id": "db9f34043c4e5f83a75aa6d938af57df", "lat": 38.898888, "is_disabled": 0, "lon": -77.04068083333334, "fusion_lat": 0.0, "rental_uris": {"ios": "https://dc.lft.to/lastmile_qr_scan", "android": "https://dc.lft.to/lastmile_qr_scan"}, "type": "electric_scooter"}, {"name": "409ffbe01a1507459423e5884c7ca00d", "is_reserved": 0, "fusion_lon": 0.0, "bike_id": "409ffbe01a1507459423e5884c7ca00d", "lat": 38.89908883333333, "is_disabled": 0, "lon": -76.933857, "fusion_lat": 0.0, "rental_uris": {"ios": "https://dc.lft.to/lastmile_qr_scan", "android": "https://dc.lft.to/lastmile_qr_scan"}, "type": "electric_scooter"}, {"name": "e0cd48a9a149a8d80c9853547ccfab33", "is_reserved": 0, "fusion_lon": 0.0, "bike_id": "e0cd48a9a149a8d80c9853547ccfab33", "lat": 38.907829, "is_disabled": 0, "lon": -77.02299, "fusion_lat": 0.0, "rental_uris": {"ios": "https://dc.lft.to/lastmile_qr_scan", "android": "https://dc.lft.to/lastmile_qr_scan"}, "type": "electric_scooter"}, {"name": "ca750fccec7413d4eb79381dd2ae4b1c", "is_reserved": 0, "fusion_lon": 0.0, "bike_id": "ca750fccec7413d4eb79381dd2ae4b1c", "lat": 38.905298333333334, "is_disabled": 0, "lon": -77.04858416666667, "fusion_lat": 0.0, "rental_uris": {"ios": "https://dc.lft.to/lastmile_qr_scan", "android": "https://dc.lft.to/lastmile_qr_scan"}, "type": "electric_scooter"}, {"name": "ca9f23b21f9a012b8f13e3b4707d3e73", "is_reserved": 0, "fusion_lon": 0.0, "bike_id": "ca9f23b21f9a012b8f13e3b4707d3e73", "lat": 38.8952015, "is_disabled": 0, "lon": -77.02196, "fusion_lat": 0.0, "rental_uris": {"ios": "https://dc.lft.to/lastmile_qr_scan", "android": "https://dc.lft.to/lastmile_qr_scan"}, "type": "electric_scooter"}, {"name": "0eae8c2391eba51de9723ce3f930f454", "is_reserved": 0, "fusion_lon": 0.0, "bike_id": "0eae8c2391eba51de9723ce3f930f454", "lat": 38.89859516666667, "is_disabled": 0, "lon": -77.02026133333334, "fusion_lat": 0.0, "rental_uris": {"ios": "https://dc.lft.to/lastmile_qr_scan", "android": "https://dc.lft.to/lastmile_qr_scan"}, "type": "electric_scooter"}, {"name": "bdb762f90d182cc7a6c3537b90b66775", "is_reserved": 0, "fusion_lon": 0.0, "bike_id": "bdb762f90d182cc7a6c3537b90b66775", "lat": 38.90604283333333, "is_disabled": 0, "lon": -76.998123, "fusion_lat": 0.0, "rental_uris": {"ios": "https://dc.lft.to/lastmile_qr_scan", "android": "https://dc.lft.to/lastmile_qr_scan"}, "type": "electric_scooter"}, {"name": "f482d1619be801afa946dafba10c2741", "is_reserved": 0, "fusion_lon": 0.0, "bike_id": "f482d1619be801afa946dafba10c2741", "lat": 38.876644666666664, "is_disabled": 0, "lon": -77.00317633333333, "fusion_lat": 0.0, "rental_uris": {"ios": "https://dc.lft.to/lastmile_qr_scan", "android": "https://dc.lft.to/lastmile_qr_scan"}, "type": "electric_scooter"}, {"name": "d63562ac0c5707b38d1252f85e9e6d18", "is_reserved": 0, "fusion_lon": 0.0, "bike_id": "d63562ac0c5707b38d1252f85e9e6d18", "lat": 38.89233983333333, "is_disabled": 0, "lon": -76.984492, "fusion_lat": 0.0, "rental_uris": {"ios": "https://dc.lft.to/lastmile_qr_scan", "android": "https://dc.lft.to/lastmile_qr_scan"}, "type": "electric_scooter"}, {"name": "e03b241a1f4df37bfce620d491d8235f", "is_reserved": 0, "fusion_lon": 0.0, "bike_id": "e03b241a1f4df37bfce620d491d8235f", "lat": 38.9102625, "is_disabled": 0, "lon": -77.043427, "fusion_lat": 0.0, "rental_uris": {"ios": "https://dc.lft.to/lastmile_qr_scan", "android": "https://dc.lft.to/lastmile_qr_scan"}, "type": "electric_scooter"}, {"name": "dc3f75580e81d1ef3c11ae2954c172b9", "is_reserved": 0, "fusion_lon": 0.0, "bike_id": "dc3f75580e81d1ef3c11ae2954c172b9", "lat": 38.9205955, "is_disabled": 0, "lon": -77.0435435, "fusion_lat": 0.0, "rental_uris": {"ios": "https://dc.lft.to/lastmile_qr_scan", "android": "https://dc.lft.to/lastmile_qr_scan"}, "type": "electric_scooter"}, {"name": "f4b18ed70ca2cc1779aacb8383f8c27e", "is_reserved": 0, "fusion_lon": 0.0, "bike_id": "f4b18ed70ca2cc1779aacb8383f8c27e", "lat": 38.912666, "is_disabled": 0, "lon": -77.00495083333334, "fusion_lat": 0.0, "rental_uris": {"ios": "https://dc.lft.to/lastmile_qr_scan", "android": "https://dc.lft.to/lastmile_qr_scan"}, "type": "electric_scooter"}, {"name": "4239c29bcec5dcdb786921d92aa6d2b8", "is_reserved": 0, "fusion_lon": 0.0, "bike_id": "4239c29bcec5dcdb786921d92aa6d2b8", "lat": 38.919645333333335, "is_disabled": 0, "lon": -77.02701166666667, "fusion_lat": 0.0, "rental_uris": {"ios": "https://dc.lft.to/lastmile_qr_scan", "android": "https://dc.lft.to/lastmile_qr_scan"}, "type": "electric_scooter"}, {"name": "d6e54e664715abeb2821604e0a095107", "is_reserved": 0, "fusion_lon": 0.0, "bike_id": "d6e54e664715abeb2821604e0a095107", "lat": 38.904863, "is_disabled": 0, "lon": -77.03012566666666, "fusion_lat": 0.0, "rental_uris": {"ios": "https://dc.lft.to/lastmile_qr_scan", "android": "https://dc.lft.to/lastmile_qr_scan"}, "type": "electric_scooter"}, {"name": "b83fc754b736af0e8a6f901ea1125a81", "is_reserved": 0, "fusion_lon": 0.0, "bike_id": "b83fc754b736af0e8a6f901ea1125a81", "lat": 38.92464116666667, "is_disabled": 0, "lon": -77.022171, "fusion_lat": 0.0, "rental_uris": {"ios": "https://dc.lft.to/lastmile_qr_scan", "android": "https://dc.lft.to/lastmile_qr_scan"}, "type": "electric_scooter"}, {"name": "6783424741063199d3825270ef869d1e", "is_reserved": 0, "fusion_lon": 0.0, "bike_id": "6783424741063199d3825270ef869d1e", "lat": 38.89227416666667, "is_disabled": 0, "lon": -77.0499545, "fusion_lat": 0.0, "rental_uris": {"ios": "https://dc.lft.to/lastmile_qr_scan", "android": "https://dc.lft.to/lastmile_qr_scan"}, "type": "electric_scooter"}, {"name": "47460f5446b4f0ab87a71e2d93b8b873", "is_reserved": 0, "fusion_lon": 0.0, "bike_id": "47460f5446b4f0ab87a71e2d93b8b873", "lat": 38.931415333333334, "is_disabled": 0, "lon": -77.078392, "fusion_lat": 0.0, "rental_uris": {"ios": "https://dc.lft.to/lastmile_qr_scan", "android": "https://dc.lft.to/lastmile_qr_scan"}, "type": "electric_scooter"}, {"name": "6294bb10b1a64957a295244ed7081b68", "is_reserved": 0, "fusion_lon": 0.0, "bike_id": "6294bb10b1a64957a295244ed7081b68", "lat": 38.922483166666666, "is_disabled": 0, "lon": -77.0194735, "fusion_lat": 0.0, "rental_uris": {"ios": "https://dc.lft.to/lastmile_qr_scan", "android": "https://dc.lft.to/lastmile_qr_scan"}, "type": "electric_scooter"}, {"name": "d66200ca27ae3013f26d2ba69d8c2d99", "is_reserved": 0, "fusion_lon": 0.0, "bike_id": "d66200ca27ae3013f26d2ba69d8c2d99", "lat": 38.89574916666667, "is_disabled": 0, "lon": -77.02557566666667, "fusion_lat": 0.0, "rental_uris": {"ios": "https://dc.lft.to/lastmile_qr_scan", "android": "https://dc.lft.to/lastmile_qr_scan"}, "type": "electric_scooter"}, {"name": "659b2701689ce91f928714a60f68fd9c", "is_reserved": 0, "fusion_lon": 0.0, "bike_id": "659b2701689ce91f928714a60f68fd9c", "lat": 38.917099666666665, "is_disabled": 0, "lon": -77.03850216666666, "fusion_lat": 0.0, "rental_uris": {"ios": "https://dc.lft.to/lastmile_qr_scan", "android": "https://dc.lft.to/lastmile_qr_scan"}, "type": "electric_scooter"}, {"name": "8b3baecc02a7ccdb04861938842221fe", "is_reserved": 0, "fusion_lon": 0.0, "bike_id": "8b3baecc02a7ccdb04861938842221fe", "lat": 38.922593166666665, "is_disabled": 0, "lon": -77.07720966666666, "fusion_lat": 0.0, "rental_uris": {"ios": "https://dc.lft.to/lastmile_qr_scan", "android": "https://dc.lft.to/lastmile_qr_scan"}, "type": "electric_scooter"}, {"name": "a5500817a53ad8093809b82f5b6cb0b4", "is_reserved": 0, "fusion_lon": 0.0, "bike_id": "a5500817a53ad8093809b82f5b6cb0b4", "lat": 38.8961025, "is_disabled": 0, "lon": -76.99906816666666, "fusion_lat": 0.0, "rental_uris": {"ios": "https://dc.lft.to/lastmile_qr_scan", "android": "https://dc.lft.to/lastmile_qr_scan"}, "type": "electric_scooter"},